站號,站名,日期,lat,lon,BlastGRU-TW
C0R710,龍磐,2025-12-28,21.931672,120.838942,0.024170414
C1F9D1,白毛台,2025-12-28,24.158325,120.886933,0.03090246
C0G940,竹塘,2025-12-28,23.848253,120.386764,0.21905217
467590,恆春,2025-12-28,22.003897,120.746339,0.3707586
C1O850,環湖,2025-12-28,23.148617,120.418633,0.28629217
C0U710,太平山,2025-12-28,24.505486,121.525656,0.0004219084
C0E820,獅潭,2025-12-28,24.539133,120.920042,0.00833864
C2SD70,二層坪,2025-12-28,22.94105,121.16838,0.01142249
C0V880,興達,2025-12-28,22.8778,120.2127,0.096887454
C0S890,關山,2025-12-28,23.0395,121.175017,0.015484343
C0SB30,新蘭,2025-12-28,22.869214,121.223228,0.03150223
C2R970,屏科大,2025-12-28,22.648275,120.619247,0.05536765
C1Z130,銅門,2025-12-28,23.965694,121.492842,0.21518354
C0AD40,土城,2025-12-28,24.973208,121.445169,0.032701094
CAN140,六官養殖協會,2025-12-28,23.22881,120.29962,0.75932574
C0X180,山上,2025-12-28,23.0757,120.363253,0.33315003
C0F9Z0,雪山東峰,2025-12-28,24.388792,121.268675,0.00036646394
C1M480,獨立山,2025-12-28,23.537022,120.607797,0.003884305
C0X220,學甲,2025-12-28,23.230367,120.182187,0.5697197
467650,日月潭,2025-12-28,23.881325,120.90805,0.012966779
C0K600,箔子寮,2025-12-28,23.6197,120.14,0.13300024
C0G830,埤頭,2025-12-28,23.866003,120.452806,0.7253539
C0S950,七塊厝,2025-12-28,22.954453,121.229922,0.001634514
467110,金門,2025-12-28,24.407306,118.289281,0.0010183831
C0AH80,深坑,2025-12-28,25.002703,121.628328,0.08401556
C0A970,三貂角,2025-12-28,25.007606,122.002058,0.7962512
C2D730,寶山農場,2025-12-28,24.732444,120.976153,0.023941843
C0K430,褒忠,2025-12-28,23.690938,120.303634,0.0762802
467480,嘉義,2025-12-28,23.495925,120.432906,0.5660534
C0V400,阿公店,2025-12-28,22.804194,120.355528,0.31277147
C0E960,觀霧分站,2025-12-28,24.505781,121.113921,0.0011192141
467550,玉山,2025-12-28,23.48718,120.95943,0.0003290448
C0R440,大漢山,2025-12-28,22.405264,120.753181,0.001060652
C0SD30,東清國小,2025-12-28,22.057128,121.564922,0.08701942
C1F9B1,桐林,2025-12-28,24.066172,120.735194,0.02705433
C2H9U0,鳳鵬,2025-12-28,23.763919,120.788061,0.050356198
C0K390,土庫,2025-12-28,23.679029,120.395574,0.7719473
C1I450,望鄉山,2025-12-28,23.594153,120.944286,0.00047205776
C0E910,海埔,2025-12-28,24.648767,120.772435,0.020410199
B2E890,畜試北區分所,2025-12-28,24.527806,120.770972,0.019417338
C0R750,四林格山,2025-12-28,22.076989,120.802439,0.0028561212
C0F0C0,中坑,2025-12-28,24.248517,120.903319,0.009434596
C1I121,大鞍,2025-12-28,23.678381,120.760017,0.0020294471
C2G9E0,移民庄,2025-12-28,23.9784,120.40283,0.049237445
72U480,花改蘭陽分場,2025-12-28,24.686306,121.716583,0.8629594
C0A770,科教館,2025-12-28,25.096356,121.516507,0.0739794
C0AJ60,六塊厝,2025-12-28,25.24,121.4481,0.06534435
C0R620,墾雷,2025-12-28,21.900836,120.855269,0.115061246
467420,永康,2025-12-28,23.038386,120.2367,0.55467874
C2M530,奮起湖,2025-12-28,23.493903,120.699253,0.0039608744
C0I410,名間,2025-12-28,23.837053,120.701447,0.13384283
A2C560,農工中心,2025-12-28,24.985917,121.239833,0.008502303
C0V740,旗山,2025-12-28,22.888614,120.483597,0.2879651
C0Z061,玉里,2025-12-28,23.3215,121.339656,0.22352791
C0S840,南田,2025-12-28,22.279725,120.889208,0.09147507
C1I470,杉林溪,2025-12-28,23.639517,120.786444,0.0014338428
C1X040,東原,2025-12-28,23.291597,120.463822,0.4214538
C0R660,枋寮,2025-12-28,22.367722,120.590647,0.025682174
C1R120,上德文,2025-12-28,22.763272,120.704442,0.01900617
C0K450,大埤,2025-12-28,23.646074,120.431537,0.52370906
C0UA00,土場,2025-12-28,24.576533,121.495333,0.67672586
467080,宜蘭,2025-12-28,24.763975,121.756528,0.66709733
C0N030,四草,2025-12-28,23.0235,120.1116,0.46496332
467410,臺南,2025-12-28,22.99328,120.20492,0.5138909
C0V650,彌陀,2025-12-28,22.783806,120.246361,0.02890378
C0D660,新竹市東區,2025-12-28,24.798681,120.986942,0.043341357
82S580,茶改東部分場,2025-12-28,22.907694,121.130139,0.00577329
C0SB40,興隆,2025-12-28,22.913661,121.257469,0.026170107
467050,新屋,2025-12-28,25.006725,121.047492,0.008743533
C0C710,大溪永福,2025-12-28,24.892936,121.324975,0.005236556
C0FA20,溫寮,2025-12-28,24.372177,120.583125,0.003194762
C0V640,湖內,2025-12-28,22.887139,120.2445,0.10104398
C0R910,下寮,2025-12-28,22.3929,120.5548,0.025739403
C0Z020,明里,2025-12-28,23.208717,121.262342,0.13817665
C0M770,嘉義梅山,2025-12-28,23.585398,120.555587,0.02171082
C0C660,楊梅,2025-12-28,24.912375,121.143047,0.010242713
C0SD40,牛頭山,2025-12-28,22.676661,121.506944,0.018190412
C1E511,新開,2025-12-28,24.347703,120.827019,0.010077426
G2F820,農試所(霧峰),2025-12-28,24.031261,120.688133,0.14855197
C2M990,大巃頂,2025-12-28,23.5547,120.61439,0.0034207136
C1I070,和社,2025-12-28,23.591131,120.888861,0.052903626
C2E990,新坪頂,2025-12-28,24.30201,120.8574,0.00514367
C0TA80,立霧山,2025-12-28,24.183258,121.641899,0.0077983406
C2F000,大肚,2025-12-28,24.15295,120.572117,0.0015290189
C1S850,豐南,2025-12-28,23.122139,121.262389,0.0019148171
C2M9B0,西興,2025-12-28,23.2428,120.57617,0.36125174
C2A920,富貴角,2025-12-28,25.263783,121.565258,0.0044803084
CAH030,茶改場竹圍站,2025-12-28,23.860083,120.637528,0.16032164
C0T960,光復,2025-12-28,23.660694,121.424964,0.40874642
C0F9M0,豐原,2025-12-28,24.254322,120.720692,0.032829195
C0R720,旭海,2025-12-28,22.205403,120.887614,0.016323267
C0V710,苓雅,2025-12-28,22.622742,120.330669,0.02101415
C0C740,觀音工業區,2025-12-28,25.064764,121.114856,0.005081727
CAC040,拉拉山,2025-12-28,24.699317,121.427133,0.0010391651
C0V790,萬山,2025-12-28,22.905944,120.688056,0.04435619
U2HA30,臺大和社,2025-12-28,23.590856,120.888864,0.052903626
C2H9K0,屯原,2025-12-28,24.067969,121.209389,0.0011109329
C0AJ90,澳底,2025-12-28,25.0552,121.9253,0.71027976
C0Z100,東華,2025-12-28,23.89525,121.549833,0.54187846
C0G970,三豐,2025-12-28,23.882,120.2895,0.003643111
V2K610,大庄合作社,2025-12-28,23.8068,120.367939,0.033260718
C0V900,汕尾,2025-12-28,22.4782,120.4151,0.036576323
C1R630,龍泉,2025-12-28,22.66701,120.59091,0.036006738
C1AC50,關渡,2025-12-28,25.133486,121.469331,0.0035258236
C0C800,四稜,2025-12-28,24.64733,121.4293,0.0020155753
C0F9I0,神岡,2025-12-28,24.272481,120.658314,0.09088748
C0K460,斗南,2025-12-28,23.678734,120.478359,0.5242491
C2O810,曾文,2025-12-28,23.219681,120.497328,0.5326829
467280,後龍,2025-12-28,24.648563,120.831834,0.017029649
C1F9J1,清水林,2025-12-28,24.071242,120.820419,0.006458005
C2A650,火燒寮,2025-12-28,25.002719,121.742892,0.6030752
466930,竹子湖,2025-12-28,25.162078,121.544547,0.0006580104
C1I220,樟湖,2025-12-28,23.905333,120.846983,0.0045841727
C0I390,仁愛,2025-12-28,24.022122,121.132206,0.007667319
C0Z300,東里,2025-12-28,23.26853,121.30547,0.21636462
C1V590,新發,2025-12-28,23.057019,120.646064,0.01940925
C0K510,水林,2025-12-28,23.572924,120.24597,0.5358646
72S590,東改賓朗果園,2025-12-28,22.813889,121.071278,0.0005471976
82A750,茶改北部分場,2025-12-28,24.955778,121.631222,0.09740455
C1A750,石碇服務區,2025-12-28,25.00872,121.646242,0.18780383
C0X300,鹿寮,2025-12-28,23.386047,120.477331,0.24429381
G2AI50,關渡,2025-12-28,25.11575,121.492,0.019472355
C0K590,雲林東勢,2025-12-28,23.674192,120.255721,0.10354718
C2K310,港尾布雞,2025-12-28,23.74834,120.38439,0.71772176
C0A570,桶後,2025-12-28,24.848222,121.597992,0.33435047
C1S800,華源,2025-12-28,22.657883,121.02325,0.07516001
C0G720,溪州,2025-12-28,23.851589,120.499093,0.7199217
C1V160,達卡努瓦,2025-12-28,23.279811,120.705319,0.009086291
C2M410,馬頭山,2025-12-28,23.324361,120.582017,0.2821589
C0V850,蚵仔寮,2025-12-28,22.7256,120.2527,0.032033373
C0S740,池上,2025-12-28,23.119628,121.209469,0.012389886
C1V390,尖山,2025-12-28,22.813153,120.367789,0.36891055
C0AH70,松山,2025-12-28,25.04871,121.55042,0.06942827
C0N010,鯤鯓國小,2025-12-28,23.1879,120.0889,0.50481415
C0R550,新埤,2025-12-28,22.467947,120.582894,0.031728063
C0SA60,知本（水試所）,2025-12-28,22.702394,121.082761,0.26723447
C0T9I0,豐濱,2025-12-28,23.583897,121.514806,0.32486778
C0UB00,淡江大學蘭陽校園,2025-12-28,24.823239,121.730383,0.3218416
C0W240,九宮,2025-12-28,24.423753,118.240186,0.0025119125
C0T9N0,富里,2025-12-28,23.171639,121.249378,0.22010353
U2HA50,臺大竹山,2025-12-28,23.756972,120.681556,0.04140162
C0V840,鳳鼻頭,2025-12-28,22.5083,120.3591,0.042733315
C0X140,西港,2025-12-28,23.125608,120.203108,0.7495644
72D080,桃改五峰分場,2025-12-28,24.612194,121.157167,0.0021584253
C2H9P0,伊拿谷,2025-12-28,23.963211,121.088264,0.011586004
C2K250,崙背,2025-12-28,23.75553,120.31893,0.076013885
C2H9F0,柑林,2025-12-28,24.018658,120.847072,0.03985944
C0TA20,加灣,2025-12-28,24.082025,121.608944,0.43197793
C0V530,阿蓮,2025-12-28,22.883208,120.327508,0.4008867
C0FB30,八仙山苗圃,2025-12-28,24.192719,121.001366,0.010801505
C1O880,關山,2025-12-28,23.173397,120.594092,0.22669265
C0E791,卓蘭,2025-12-28,24.3126,120.8244,0.014389225
C1I030,武界,2025-12-28,23.913225,121.052483,0.010199745
C0R520,崁頂,2025-12-28,22.514781,120.506914,0.029421134
C0R341,牡丹,2025-12-28,22.130036,120.792639,0.49331906
C0R930,萬丹,2025-12-28,22.5885,120.4851,0.028891068
C0S760,紅石,2025-12-28,23.069131,121.126219,0.0008478687
C2C410,中央大學,2025-12-28,24.967652,121.185165,0.008311061
C1M610,石磐龍,2025-12-28,23.496606,120.663506,0.009937381
C0C790,東眼山,2025-12-28,24.8284,121.40888,0.023909705
C0UA10,鴛鴦湖,2025-12-28,24.590269,121.412228,0.00047404048
V2C260,八德蔬果,2025-12-28,24.978508,121.281819,0.0051012123
C0R800,丹路,2025-12-28,22.204481,120.750989,0.65525395
C0G920,永靖,2025-12-28,23.924703,120.547533,0.2890164
C2M950,太和,2025-12-28,23.538372,120.702961,0.004069987
C1A630,下盆,2025-12-28,24.771003,121.538622,0.14489655
B2N890,畜產試驗所,2025-12-28,23.058972,120.336406,0.6933923
C0UA30,白嶺,2025-12-28,24.527819,121.519031,0.0016207201
C1V580,溪南(特生中心),2025-12-28,23.084972,120.788475,0.0017135262
C1T970,大農,2025-12-28,23.615233,121.413331,0.22424707
C0R650,竹田,2025-12-28,22.58486,120.54344,0.027021904
C1H900,清流,2025-12-28,24.080775,120.962997,0.010219081
C1C510,水尾,2025-12-28,24.940081,121.087161,0.009633102
C2N170,茅港尾,2025-12-28,23.2061,120.2624,0.75537777
C0F9X0,大雅(中科園區),2025-12-28,24.21528,120.62445,0.004027597
C0SB60,白守蓮,2025-12-28,23.126769,121.401914,0.10935174
C0O970,虎頭埤,2025-12-28,23.021375,120.347878,0.57389987
C0C730,中大臨海站,2025-12-28,24.966126,121.008581,0.02475583
C0X250,新營,2025-12-28,23.310689,120.316681,0.7604165
C0V700,三民,2025-12-28,22.645017,120.311233,0.020127349
C0U870,大礁溪,2025-12-28,24.791042,121.675047,0.2819128
C0E870,高鐵苗栗,2025-12-28,24.60725,120.826094,0.018069591
A2K570,古坑花卉中心,2025-12-28,23.63353,120.55239,0.03827101
C0TA30,鹽寮,2025-12-28,23.845606,121.592664,0.57534957
C0M860,新美,2025-12-28,23.338017,120.683169,0.4220071
C1E701,八卦,2025-12-28,24.491756,120.927619,0.004464112
C2TA90,加納納,2025-12-28,23.466421,121.359867,0.16960119
C0I420,國姓,2025-12-28,24.037803,120.855072,0.033420786
C2D720,關西工作站,2025-12-28,24.757275,121.184792,0.022918003
C0S960,香蘭,2025-12-28,22.587569,120.993375,0.20069586
467620,蘭嶼,2025-12-28,22.0369,121.55843,0.00022462594
C0R260,春日,2025-12-28,22.370361,120.628306,0.023269722
72G600,臺中農改場,2025-12-28,24.003028,120.534389,0.16726418
C0Z210,瑞穗,2025-12-28,23.5239,121.39021,0.36035287
C0M820,達邦,2025-12-28,23.453994,120.749517,0.012528387
C0V860,南寮,2025-12-28,22.7616,120.2339,0.031622782
C0G740,大城,2025-12-28,23.852487,120.320935,0.003360315
C0R920,塭仔,2025-12-28,22.4169,120.5197,0.025949046
C0R470,高樹,2025-12-28,22.826389,120.600806,0.0742839
C0R680,佳樂水,2025-12-28,21.993578,120.861633,0.12806697
C1O870,大棟山,2025-12-28,23.31157,120.52226,0.0031692374
C0D360,梅花,2025-12-28,24.678347,121.208558,0.008417171
C0Z190,富世,2025-12-28,24.14743,121.6297,0.03491096
C0AI10,屈尺,2025-12-28,24.92184,121.54475,0.33789665
B2U990,畜試東區分所,2025-12-28,24.669039,121.832561,0.93310237
C0SB80,長濱漁港,2025-12-28,23.313644,121.459994,0.07955586
C0TA50,和仁,2025-12-28,24.241394,121.712472,0.0858394
C0V910,大樹,2025-12-28,22.684645,120.432803,0.064055584
C1R610,西大武山,2025-12-28,22.617719,120.7322,0.0008937854
C0G900,線西,2025-12-28,24.143358,120.443536,0.0057412055
C0M700,竹崎,2025-12-28,23.526178,120.555508,0.021184215
C2E880,三義,2025-12-28,24.405478,120.749819,0.0012782138
C0C720,竹圍,2025-12-28,25.112692,121.239824,0.0131919915
C0F9P0,清水,2025-12-28,24.312297,120.562242,0.0033594158
C0Z150,吉安光華,2025-12-28,23.930925,121.595153,0.5035785
C0FA80,小雪山天池,2025-12-28,24.28025,121.02627,0.00069492246
467300,東吉島,2025-12-28,23.25727,119.66762,0.00043210125
C1D640,外坪(五指山),2025-12-28,24.644447,121.090961,0.0017111826
C2R9A0,高士國小,2025-12-28,22.12553,120.84653,0.58794904
C0F9O0,潭子,2025-12-28,24.213106,120.703933,0.03384511
C2H9R0,卓社,2025-12-28,23.887894,121.000086,0.0036152732
72T250,花蓮農改場,2025-12-28,23.975222,121.563889,0.3596954
C0E780,銅鑼,2025-12-28,24.489681,120.790853,0.0072956784
C1T950,太安,2025-12-28,23.666719,121.370128,0.010244375
C0E830,苑裡,2025-12-28,24.439714,120.653053,0.011560514
467270,田中,2025-12-28,23.873803,120.581286,0.66506165
C0SA10,檳榔四格山,2025-12-28,22.810031,121.109308,0.00039500187
C1T830,布洛灣,2025-12-28,24.17184,121.57127,0.71542543
C0F970,大坑,2025-12-28,24.173142,120.722289,0.01926261
C1U920,思源,2025-12-28,24.393125,121.347214,0.0009819247
C2H9Y0,松茗,2025-12-28,23.8167,120.650765,0.034572963
C0A931,三和,2025-12-28,25.233153,121.595236,0.032558393
C0I010,廬山,2025-12-28,24.033311,121.181808,0.0013431924
C2M940,日野賀,2025-12-28,23.434056,120.727169,0.0058743507
C0R860,鼻頭,2025-12-28,22.1043,120.8979,0.11364737
C0UB20,壯圍,2025-12-28,24.7359,121.8163,0.87883246
C0R790,九棚,2025-12-28,22.14195,120.889281,0.022721663
C0W110,東莒,2025-12-28,25.9652,119.98069,0.000372928
C1U930,粉鳥林,2025-12-28,24.497088,121.842479,0.91545385
C1I211,蘆竹湳,2025-12-28,23.934019,120.811994,0.017187508
C0S830,長濱,2025-12-28,23.286817,121.411975,0.0980416
C1F9F1,伯公龍,2025-12-28,24.272392,120.849047,0.0070907087
C0UB90,太平山莊,2025-12-28,24.494171,121.536209,0.00041598937
C0E810,西湖,2025-12-28,24.562947,120.7485,0.006438566
C1I440,新高口,2025-12-28,23.478744,120.878939,0.00066829874
C0O840,王爺宮,2025-12-28,23.222064,120.40085,0.76580966
C0T9G0,鳳林山,2025-12-28,23.735269,121.420131,0.007932503
C0X080,佳里,2025-12-28,23.173039,120.145086,0.50235826
C0FB70,大甲溪埔,2025-12-28,24.370625,120.620067,0.002531628
C0Z310,清水斷崖,2025-12-28,24.218294,121.689142,0.036970906
C0M680,太保,2025-12-28,23.455062,120.331455,0.6669061
C1S820,金峰,2025-12-28,22.590969,120.933236,0.031868506
C0AD10,八里,2025-12-28,25.150211,121.403947,0.0011564167
C2K240,草嶺,2025-12-28,23.59555,120.693461,0.0093427915
C1SA70,都蘭,2025-12-28,22.87794,121.226881,0.026078586
C0K440,二崙,2025-12-28,23.772797,120.408944,0.7015581
C1A760,坪林交控,2025-12-28,24.94284,121.713442,0.6504937
C0F9N0,大里,2025-12-28,24.092464,120.701378,0.026463509
C0SA90,達仁林場,2025-12-28,22.264347,120.823972,0.1506036
C1R290,石門山,2025-12-28,22.112611,120.756597,0.043833073
42HA10,萬大發電廠,2025-12-28,23.978875,121.139639,0.0070519224
C0R890,山海,2025-12-28,21.9878,120.7091,0.0060667307
C0T9A0,月眉山,2025-12-28,23.809928,121.539828,0.012634619
C0AC70,信義,2025-12-28,25.037822,121.564597,0.068984665
C0K560,棋山,2025-12-28,23.68645,120.603417,0.037540782
C2FB50,出雲,2025-12-28,24.206469,120.902794,0.0065471004
C1Z240,中平林道,2025-12-28,23.42115,121.26763,0.007917581
U2H480,溪頭,2025-12-28,23.670306,120.798194,0.0031484314
C0M880,好美里,2025-12-28,23.3364,120.138,0.63778013
C0T9E0,大坑,2025-12-28,23.880628,121.581981,0.077704586
C0K530,臺西,2025-12-28,23.701547,120.197559,0.02035886
C1E900,國一N128K,2025-12-28,24.560997,120.844186,0.025432028
C0AJ50,水湳洞,2025-12-28,25.123695,121.862238,0.6110972
C0AI20,白沙灣,2025-12-28,25.283128,121.519058,0.04956261
C2V310,美濃,2025-12-28,22.898792,120.51907,0.27242002
C0A860,大坪,2025-12-28,25.165914,121.632969,0.01965259
C1U850,觀音海岸,2025-12-28,24.38319,121.77856,0.009395483
C2K610,草嶺石壁,2025-12-28,23.602469,120.707731,0.008295458
C0U950,鶯子嶺,2025-12-28,24.89754,121.79244,0.0058640456
C0O900,善化,2025-12-28,23.112883,120.297219,0.6390916
C0K550,蔦松,2025-12-28,23.514319,120.229736,0.39735642
E2P980,林試六龜中心,2025-12-28,22.991703,120.645722,0.22460811
C0E590,通霄,2025-12-28,24.471892,120.704622,0.033396274
C1I310,西巒,2025-12-28,23.754486,120.883956,0.0059215073
C0A550,泰平,2025-12-28,24.971197,121.823711,0.24880357
C0I360,水里,2025-12-28,23.812553,120.849792,0.07646144
C0R830,高士,2025-12-28,22.121825,120.836781,0.015882352
C1I101,溪頭,2025-12-28,23.661789,120.807647,0.0011474617
C0AJ20,野柳,2025-12-28,25.20703,121.690021,0.26166916
C0B060,暖暖,2025-12-28,25.0957,121.7403,0.30949384
C1H920,長豐,2025-12-28,24.102039,120.879897,0.022133555
C2S9B0,利吉,2025-12-28,22.86246,121.15486,0.0084352745
C0V360,內門,2025-12-28,22.975481,120.466769,0.5287465
C0R850,林邊,2025-12-28,22.4634,120.5339,0.034511294
C0E930,龍鳳,2025-12-28,24.700034,120.859125,0.015224725
C0U910,冬山,2025-12-28,24.63373,121.7937,0.93310237
C1E721,泰安,2025-12-28,24.489017,120.968036,0.0014344623
82H320,茶改中部分場,2025-12-28,23.875611,120.913583,0.02947134
C0M750,布袋,2025-12-28,23.380878,120.167789,0.603577
C1S860,利嘉,2025-12-28,22.809417,121.050528,0.002751991
E2S980,林試太麻里1,2025-12-28,22.598922,120.980044,0.09328828
C0X170,關廟,2025-12-28,22.963017,120.327797,0.6342904
C0V720,林園,2025-12-28,22.507747,120.394511,0.04196777
C1I510,線浸林道,2025-12-28,23.761508,120.832956,0.0018724503
C0D690,外湖,2025-12-28,24.917735,120.968711,0.040415887
C0C750,新興坑尾,2025-12-28,25.0061,121.0971,0.007633547
B2Q810,畜試南區分所,2025-12-28,21.945583,120.802167,0.13747774
C0S790,金崙,2025-12-28,22.538122,120.966875,0.030303339
C0AH90,福山植物園,2025-12-28,24.760717,121.58135,0.29671305
C0I540,奇萊稜線,2025-12-28,24.109231,121.326456,0.00043501952
C0M850,表湖,2025-12-28,23.24186,120.64166,0.039994974
C0S770,大溪山,2025-12-28,22.478475,120.943325,0.009525176
C0AG80,中和,2025-12-28,24.991622,121.491792,0.03262415
C0T790,大禹嶺,2025-12-28,24.186117,121.316086,0.0005780148
C0T9B0,水源,2025-12-28,23.991861,121.537169,0.008730738
C0R840,牡丹池山,2025-12-28,22.168389,120.841225,0.062478926
C1I131,桶頭,2025-12-28,23.641944,120.654117,0.03133844
CAL110,布袋國中,2025-12-28,23.35893,120.18026,0.665449
C2M9D0,何竹子腳,2025-12-28,23.53641,120.38203,0.5370231
467571,新竹,2025-12-28,24.827853,121.014219,0.07478944
C0Z290,赤柯山,2025-12-28,23.36893,121.38293,0.0020569065
C0X280,將軍,2025-12-28,23.214999,120.13577,0.57967794
C0S690,太麻里,2025-12-28,22.60902,120.98533,0.00092391315
C0U880,北關,2025-12-28,24.9072,121.8734,0.8151943
CAW010,東引,2025-12-28,26.3588,120.4836,0.0002829943
C0G810,埔心,2025-12-28,23.947633,120.525456,0.2925273
C0U970,大福,2025-12-28,24.80064,121.81389,0.6762011
C2H9N0,仁愛東眼,2025-12-28,24.026875,121.1205,0.0027508629
C1E670,南礦,2025-12-28,24.538278,121.002836,0.0013244969
C0M520,東後寮,2025-12-28,23.369908,120.248065,0.6637295
C1E461,松安,2025-12-28,24.397972,120.986022,0.0016499008
C2N160,西拉雅風管處,2025-12-28,23.189481,120.335297,0.71799135
C2M970,碧湖,2025-12-28,23.568632,120.624165,0.0035222198
C0A640,石碇,2025-12-28,24.993969,121.662917,0.053074665
E2S960,林試太麻里2,2025-12-28,22.598,120.99775,0.21837558
C0F9Y0,桃山,2025-12-28,24.432739,121.303808,0.00033481055
C1I020,萬大,2025-12-28,23.979817,121.132261,0.007395698
C2UC20,長嶺,2025-12-28,24.70894,121.61162,0.5410711
C0U940,羅東,2025-12-28,24.68184,121.74934,0.8689117
C0M650,朴子,2025-12-28,23.43463,120.23902,0.68651676
C1I500,大尖山,2025-12-28,23.858572,120.994889,0.00085646234
C0FB40,中橫21.6k,2025-12-28,24.2499,121.1455,0.0043054344
C0G820,田尾,2025-12-28,23.901669,120.509389,0.29179215
E2K600,四湖植物園,2025-12-28,23.676986,120.163433,0.028929545
C0S730,綠島,2025-12-28,22.6672,121.47533,0.0036837084
12Q970,東港工作站,2025-12-28,22.479997,120.466058,0.03564437
C1TA00,太魯閣,2025-12-28,24.15773,121.6236,0.043044988
466920,臺北,2025-12-28,25.037658,121.514853,0.06942827
C0R600,舊泰武,2025-12-28,22.588194,120.664944,0.023127813
C1I260,北坑,2025-12-28,23.9246,121.006903,0.040108815
466910,鞍部,2025-12-28,25.182586,121.529731,0.0008629556
C1I230,九份二山,2025-12-28,23.961944,120.845,0.0044805487
C2M810,里佳,2025-12-28,23.389125,120.716647,0.003491282
C2A660,瑞芳,2025-12-28,25.113169,121.801147,0.4797202
C0R270,琉球嶼,2025-12-28,22.332244,120.362236,0.16729794
C2V580,瑞山,2025-12-28,22.90304,120.43424,0.6407923
C1T990,高寮,2025-12-28,23.394239,121.356808,0.27279833
C0G620,芬園,2025-12-28,24.015678,120.6213,0.06969682
C1Z140,荖溪,2025-12-28,23.890575,121.45964,0.015572503
C1I201,中心崙,2025-12-28,23.728722,120.712097,0.01439369
C1I400,凌霄,2025-12-28,24.018778,121.004456,0.0029405344
C1M640,十字,2025-12-28,23.492153,120.753683,0.0027866343
G2P820,農試鳳山分所,2025-12-28,22.646611,120.356083,0.021051941
C0Z270,蕃薯寮,2025-12-28,23.73835,121.540108,0.066926576
C2E420,竹南,2025-12-28,24.70898,120.88897,0.0137642985
C0FB10,出雲山苗圃,2025-12-28,24.23105,120.90475,0.009416979
C0F9Q0,外埔,2025-12-28,24.347817,120.705686,0.081863984
C0K580,高鐵雲林,2025-12-28,23.737456,120.417944,0.7129262
C2I090,鳳凰,2025-12-28,23.728081,120.787347,0.006197826
C0U990,員山,2025-12-28,24.74435,121.72247,0.8726505
C0V770,大社,2025-12-28,22.730306,120.346639,0.03548132
C0X120,麻豆,2025-12-28,23.183289,120.248611,0.7414877
C0C670,龍潭,2025-12-28,24.870056,121.221389,0.022101399
C0D680,香山濕地,2025-12-28,24.783581,120.914988,0.062254045
C0S980,勝林山,2025-12-28,22.430439,120.8938,0.0023815937
C0V730,大寮,2025-12-28,22.605614,120.395717,0.03933853
C0R570,麟洛,2025-12-28,22.65078,120.52719,0.026793791
C2M930,石卓,2025-12-28,23.478744,120.702264,0.0025325252
C0G9B0,和美,2025-12-28,24.105169,120.492131,0.029772824
CAG100,王功漁港,2025-12-28,23.96824,120.32586,0.0061726333
C0X290,北門,2025-12-28,23.267772,120.125481,0.5759673
C2F930,大甲,2025-12-28,24.347667,120.640403,0.016684916
C0D650,湖口,2025-12-28,24.904794,121.043628,0.01980111
C0U780,五結,2025-12-28,24.68637,121.79794,0.87843174
C1I250,鯉潭,2025-12-28,23.961922,120.991131,0.02474395
C0R130,阿禮,2025-12-28,22.742908,120.743678,0.0061909775
C0X100,臺南市北區,2025-12-28,23.010394,120.194228,0.47596386
C0S920,金峰嘉蘭,2025-12-28,22.594789,120.960825,0.08964461
C0V490,新興,2025-12-28,22.627422,120.298803,0.020716228
C0F9K0,大安,2025-12-28,24.345061,120.588025,0.0027516782
467290,古坑,2025-12-28,23.633639,120.551889,0.03827101
C2E970,八甲,2025-12-28,24.535811,120.795983,0.0073883957
C0V440,鳳山,2025-12-28,22.646653,120.356122,0.021051941
C1T940,大觀,2025-12-28,23.714206,121.373133,0.015030843
C0E740,造橋,2025-12-28,24.637056,120.864778,0.01813307
C0R100,尾寮山,2025-12-28,22.833111,120.683889,0.008064485
A2K630,臺大雲林校區,2025-12-28,23.730628,120.423903,0.7145433
467990,馬祖,2025-12-28,26.169467,119.923158,0.000368427
C0D580,寶山,2025-12-28,24.735006,121.025192,0.035697136
E2P990,林試扇平站,2025-12-28,22.9677,120.6857,0.074877515
C0AI30,三重,2025-12-28,25.057328,121.500629,0.0739794
C0AH00,汐止,2025-12-28,25.066881,121.658778,0.21008076
C1Z040,立山,2025-12-28,23.443356,121.327375,0.050900448
466881,新北,2025-12-28,24.959207,121.525196,0.027386794
C0W130,花嶼,2025-12-28,23.40007,119.32276,0.0003669324
C0A950,鼻頭角,2025-12-28,25.129036,121.923372,0.22375378
C0K470,林內,2025-12-28,23.748675,120.609642,0.031503867
C2F990,摩天嶺,2025-12-28,24.322458,120.936819,0.010594434
C2E430,南庄,2025-12-28,24.601775,121.000214,0.020435236
82C160,茶改場,2025-12-28,24.908472,121.185333,0.007662756
C2TB60,南安,2025-12-28,23.29818,121.26157,0.14752294
C0Z320,清水林道,2025-12-28,23.27125,121.188272,0.012061931
C0R760,南仁湖,2025-12-28,22.084681,120.863353,0.043461554
C0M670,大林,2025-12-28,23.600616,120.45841,0.42242262
C0M800,茶山,2025-12-28,23.299075,120.664767,0.4287327
C0A9C0,天母,2025-12-28,25.117494,121.537169,0.107394256
72K220,南改斗南分場,2025-12-28,23.634556,120.477333,0.5310362
72AI40,桃改樹林分場,2025-12-28,24.944503,121.386972,0.08813946
C0S910,蘭嶼燈塔,2025-12-28,22.081197,121.503117,0.012754509
C0B050,八斗子,2025-12-28,25.144754,121.79167,0.6382727
C0U900,內城,2025-12-28,24.71813,121.68766,0.8532572
C0X320,柳營,2025-12-28,23.253328,120.375253,0.65491
C0M790,新港,2025-12-28,23.553269,120.345728,0.62524956
C0F9T0,西屯,2025-12-28,24.179494,120.641275,0.04672947
C0E950,松安,2025-12-28,24.39792,120.98599,0.0016499008
C0SA30,都歷,2025-12-28,23.020333,121.323642,0.07063536
C0C620,蘆竹,2025-12-28,25.084275,121.265767,0.008012461
C0R730,大坪頂,2025-12-28,22.024633,120.69355,0.011395293
C0AJ40,石門,2025-12-28,25.273672,121.601198,0.007700805
C0E750,苗栗,2025-12-28,24.564569,120.824575,0.028078659
C0T870,鯉魚潭,2025-12-28,23.935639,121.508944,0.2739983
C1V170,排雲,2025-12-28,23.463619,120.954147,0.0003306977
C2H950,中寮,2025-12-28,23.884447,120.766406,0.056503195
C0R350,貓鼻頭,2025-12-28,21.921774,120.7358,0.016648911
C0V660,岡山,2025-12-28,22.797078,120.294958,0.02938028
C1H941,雙冬,2025-12-28,23.967378,120.802189,0.011956664
C0AJ70,田寮,2025-12-28,25.2698,121.4886,0.055587023
C0AI00,五股,2025-12-28,25.07445,121.42728,0.005428035
C0Z280,德武,2025-12-28,23.47426,121.41071,0.22575729
C2RA10,大新,2025-12-28,22.67558,120.57788,0.035226684
C0R700,枋山,2025-12-28,22.246844,120.661086,0.014671579
C0C460,復興,2025-12-28,24.820208,121.352281,0.007578798
C2K300,鹿南,2025-12-28,23.63855,120.3636,0.18223935
E2H360,蓮華池,2025-12-28,23.918333,120.885278,0.026926436
C0M640,中埔,2025-12-28,23.42538,120.5229,0.047764394
C0W140,金沙,2025-12-28,24.488292,118.408778,0.0009702793
C2A540,四堵,2025-12-28,24.8926,121.745736,0.356126
C0ACA0,新莊,2025-12-28,25.051478,121.446756,0.032729547
C0R220,潮州,2025-12-28,22.534361,120.54,0.028087843
U2HA40,臺大內茅埔,2025-12-28,23.689722,120.851117,0.20644638
467490,臺中,2025-12-28,24.145736,120.684075,0.017903555
C0UB60,明池,2025-12-28,24.650688,121.475277,0.0020980951
C0U960,翠峰湖,2025-12-28,24.510856,121.608044,0.0005904552
E2HA20,林試畢祿溪站,2025-12-28,24.226944,121.308522,0.00095327385
C2M9A0,大華,2025-12-28,23.4824,120.67491,0.01426661
C0V890,前鎮,2025-12-28,22.5718,120.3117,0.02041419
C1F941,雪嶺,2025-12-28,24.280586,121.026642,0.00069492246
C2H9E0,國姓南港,2025-12-28,23.911108,120.846556,0.0041183755
C0AC80,文山,2025-12-28,25.00235,121.575728,0.022415716
C0F9R0,龍井,2025-12-28,24.184536,120.528972,0.0034471015
C0M760,民雄,2025-12-28,23.551754,120.428457,0.41450498
C0UA40,西德山,2025-12-28,24.560647,121.752608,0.029482355
C2TA70,赤科坪,2025-12-28,23.39885,121.39168,0.0025056968
C1T920,中興,2025-12-28,23.769503,121.498653,0.39756978
C0D550,雪霸,2025-12-28,24.526972,121.11605,0.001548178
C2F860,梨山,2025-12-28,24.247522,121.243669,0.00092140207
C0R320,車城,2025-12-28,22.0744,120.716247,0.007768941
C1S870,南美山,2025-12-28,23.15025,121.382333,0.08337681
C0B020,基隆嶼,2025-12-28,25.19141,121.78391,0.07399201
C1U501,牛鬥,2025-12-28,24.637836,121.573656,0.86841756
C0M730,嘉義市東區,2025-12-28,23.457673,120.460531,0.037855566
C2R990,泰武,2025-12-28,22.60686,120.69765,0.02657183
C0S700,知本,2025-12-28,22.684866,121.005642,0.001621046
C1N001,沙崙,2025-12-28,22.935472,120.309406,0.60354704
C0V760,橋頭,2025-12-28,22.757806,120.30575,0.033581108
C0G960,福寶,2025-12-28,24.0443,120.3814,0.031781226
C0X210,白河,2025-12-28,23.347466,120.414427,0.2946262
C0S810,東河,2025-12-28,22.972672,121.303986,0.018216508
C2R170,屏東,2025-12-28,22.66027,120.49403,0.026501736
C0R670,楓港,2025-12-28,22.190131,120.692156,0.024057835
C0FA50,霧峰,2025-12-28,24.0419,120.6995,0.15166494
C0UB10,蘇澳,2025-12-28,24.5969,121.8571,0.95648056
C0G950,防潮門,2025-12-28,24.1835,120.4871,0.0034847667
C0M740,六腳,2025-12-28,23.492871,120.290625,0.68801665
C1R250,力里,2025-12-28,22.428117,120.629228,0.101356335
C0K330,虎尾,2025-12-28,23.719183,120.442036,0.70806885
C2FA00,烏石坑,2025-12-28,24.273503,120.947617,0.011231468
C0V620,永安,2025-12-28,22.82315,120.236856,0.02890378
C1I330,楓樹林,2025-12-28,23.986803,121.076117,0.0048233294
C0W200,湖西,2025-12-28,23.596314,119.67275,0.0003886705
72Q010,高雄農改場,2025-12-28,22.709333,120.525889,0.04680268
C0SA40,瑞和,2025-12-28,22.974361,121.156697,0.013574907
C0C680,龜山,2025-12-28,25.02846,121.38656,0.002920163
C2V260,月眉,2025-12-28,22.971003,120.539853,0.25221068
C0V450,鳳森,2025-12-28,22.545064,120.392592,0.03854664
C0FA90,小雪山林道,2025-12-28,24.29515,121.03651,0.0005594955
C0U720,南山,2025-12-28,24.43742,121.38167,0.00270798
A2N290,臺南蘭花園區,2025-12-28,23.340258,120.379661,0.734377
C0R560,新園,2025-12-28,22.5434,120.461558,0.04196777
C0U890,三星,2025-12-28,24.66812,121.65302,0.936955
C1V300,御油山,2025-12-28,23.001983,120.715364,0.0018143014
C0U600,礁溪,2025-12-28,24.817539,121.765608,0.7711862
C1T980,龍澗,2025-12-28,24.023289,121.411328,0.0075518824
C0D670,海天一線,2025-12-28,24.831986,120.914438,0.030251838
C0SA00,歷坵,2025-12-28,22.520969,120.89185,0.0023528433
C0M710,東石,2025-12-28,23.458927,120.15385,0.20304337
C0M780,鹿草,2025-12-28,23.41134,120.30835,0.67383546
C0U520,雙連埤,2025-12-28,24.753033,121.641303,0.2695834
C0B010,七堵,2025-12-28,25.094819,121.71713,0.37565154
C0R480,長治,2025-12-28,22.693128,120.542622,0.07290483
C1V830,國三S383K,2025-12-28,22.781967,120.426475,0.58940345
12Q980,恆春工作站,2025-12-28,22.079678,120.714425,0.0077273482
C1O940,東山服務區,2025-12-28,23.286016,120.398472,0.463612
C1U840,東澳嶺,2025-12-28,24.5378,121.8485,0.2699721
C1D630,飛鳳山,2025-12-28,24.766464,121.119178,0.0052907057
C0S940,石寧山,2025-12-28,23.223772,121.406639,0.037588336
C0K410,北港,2025-12-28,23.573957,120.292802,0.51739466
C2M620,瑞里,2025-12-28,23.545133,120.675197,0.005674413
C0SB70,小港漁港,2025-12-28,23.158558,121.400431,0.2311186
C2O950,安南,2025-12-28,23.076694,120.144861,0.27296057
C0F0E0,南湖圈谷,2025-12-28,24.363714,121.444667,0.00029715366
467610,成功,2025-12-28,23.097486,121.373428,0.22377205
C0G890,伸港,2025-12-28,24.148933,120.484403,0.0056863786
C2E540,龍溪,2025-12-28,24.606489,120.783933,0.019228814
C1V200,梅山,2025-12-28,23.268447,120.823556,0.04640334
C0T9H0,加路蘭山,2025-12-28,23.682947,121.5274,0.0058168457
C2O930,玉井,2025-12-28,23.126042,120.46055,0.43068135
C1F911,新伯公,2025-12-28,24.221361,120.841069,0.008479561
C0R490,九如,2025-12-28,22.7405,120.490503,0.045292787
C0X200,左鎮,2025-12-28,23.056758,120.408522,0.4564437
C2TB50,麻汝,2025-12-28,23.42554,121.39358,0.13889569
C0FA60,鞍馬山工作站,2025-12-28,24.267064,121.000793,0.0008795133
C0SB50,叭嗡嗡,2025-12-28,23.047062,121.343223,0.13385713
C1F891,稍來,2025-12-28,24.265689,121.001142,0.0009116942
C2M9C0,紫雲,2025-12-28,23.494914,120.540253,0.02108343
72N240,七股研究中心,2025-12-28,23.081672,120.062894,0.28199968
C0C700,中壢,2025-12-28,24.977661,121.256375,0.004669385
C0M690,水上,2025-12-28,23.419734,120.388909,0.671282
C0V690,鼓山,2025-12-28,22.623325,120.275575,0.020609759
C0O860,大內,2025-12-28,23.11885,120.36083,0.6838271
C0Z200,萬榮,2025-12-28,23.709219,121.420106,0.28205365
C0T9D0,和中,2025-12-28,24.26676,121.74103,0.5709199
C2S9A0,北份子寮,2025-12-28,22.78561,121.07813,0.009502255
C1O921,楠西,2025-12-28,23.183511,120.484083,0.30131212
C0AJ30,淡水觀海,2025-12-28,25.184591,121.408616,0.045819025
C0V810,左營,2025-12-28,22.67491,120.28491,0.020226767
C0UA70,桃源谷,2025-12-28,24.962606,121.888875,0.104221456
C0X130,官田,2025-12-28,23.193217,120.315422,0.7153581
C1H000,翠峰,2025-12-28,24.109397,121.205211,0.000759092
C0UA90,石城,2025-12-28,24.980444,121.951214,0.8055012
C1E681,南勢山,2025-12-28,24.421669,120.923831,0.0024000772
C0A9F0,內湖,2025-12-28,25.079422,121.57545,0.06942827
C0K291,宜梧,2025-12-28,23.536281,120.169329,0.39840856
C1K540,口湖,2025-12-28,23.585344,120.180517,0.13402942
C0R780,滿州,2025-12-28,22.024403,120.839892,0.344421
C0V870,文安,2025-12-28,22.8025,120.2164,0.028833631
C0U650,玉蘭,2025-12-28,24.675286,121.587061,0.525256
C0R640,東港,2025-12-28,22.46247,120.44074,0.03577696
C0AJ80,板橋,2025-12-28,25.0107,121.4489,0.03493855
C0S660,下馬,2025-12-28,23.150427,121.070312,0.0027009337
C2N190,烏樹,2025-12-28,23.32393,120.36989,0.46775666
C1H9B1,阿眉,2025-12-28,24.1263,120.994672,0.001546259
C0UA20,多加屯,2025-12-28,24.368614,121.373189,0.00048647978
C0E730,頭份,2025-12-28,24.688247,120.912206,0.014235355
72V140,高改旗南分場,2025-12-28,22.857861,120.516667,0.2823437
C0K480,莿桐,2025-12-28,23.761192,120.502372,0.5865169
C0U980,坪林石牌,2025-12-28,24.86478,121.77396,0.079482116
C0T900,西林,2025-12-28,23.8119,121.441458,0.18242876
C1I150,青雲,2025-12-28,23.793361,120.949378,0.062834114
C2E980,和興,2025-12-28,24.505319,120.923016,0.010767407
467350,澎湖,2025-12-28,23.565503,119.563094,0.00036641714
C0G800,埔鹽,2025-12-28,24.000394,120.431683,0.049068153
C0H960,草屯,2025-12-28,23.973672,120.68085,0.15598619
C1V780,多納林道,2025-12-28,22.888028,120.737917,0.017676303
C0E920,通霄漁港,2025-12-28,24.498589,120.673876,0.06826107
C0Z330,安通山,2025-12-28,23.290728,121.348528,0.012596758
C0AH10,永和,2025-12-28,25.01125,121.508111,0.03544354
C0AK10,太平里,2025-12-28,25.134937,121.364899,0.0010699466
C2G640,鹿港,2025-12-28,24.0753,120.430481,0.031800475
C1E890,國三N149K,2025-12-28,24.463414,120.680019,0.0073759817
C1R110,口社,2025-12-28,22.770111,120.645222,0.071279176
C1M870,國三N285K,2025-12-28,23.550319,120.505833,0.021693341
C1E480,鳳美,2025-12-28,24.554803,121.034747,0.014421077
C0T9M0,靜浦,2025-12-28,23.455167,121.495028,0.4636045
C2H9M0,發祥,2025-12-28,24.154094,121.164517,0.0038755327
C2G9C0,埔南,2025-12-28,23.99124,120.46969,0.046972115
C0AI40,石牌,2025-12-28,25.115597,121.513139,0.11341528
C1F871,上谷關,2025-12-28,24.203483,121.018644,0.0085503515
C2H9G0,百勝,2025-12-28,24.051142,120.909361,0.055796783
C0G880,二水,2025-12-28,23.810742,120.6173,0.034430083
C0R940,加祿堂,2025-12-28,22.3363,120.6217,0.009393854
C0W220,北竿,2025-12-28,26.220358,119.974881,0.00039905158
C0O960,崎頂,2025-12-28,22.959547,120.369317,0.66976583
C0TA40,秀林,2025-12-28,24.302864,121.731144,0.019644555
C0S750,向陽,2025-12-28,23.248397,120.986133,0.0008633614
C0T9F0,水璉,2025-12-28,23.797131,121.542514,0.08053097
C1M600,頭凍,2025-12-28,23.406364,120.603339,0.0036275047
467660,臺東,2025-12-28,22.752211,121.154586,0.007853188
C1D380,新埔,2025-12-28,24.84745,121.03834,0.037237346
C2G980,田頭村,2025-12-28,23.8263,120.444175,0.70091265
C0V750,路竹,2025-12-28,22.854997,120.259439,0.055783592
C0N050,蚵寮,2025-12-28,23.301,120.1104,0.6362688
C2X060,下營,2025-12-28,23.226806,120.256291,0.7543429
72M700,南改鹿草分場,2025-12-28,23.416869,120.283061,0.6857926
C1SA50,利嘉林道,2025-12-28,22.82325,121.009389,0.0013764225
C0UB70,太平山中間站,2025-12-28,24.542003,121.513453,0.02797398
C0A940,金山,2025-12-28,25.223628,121.643967,0.22573717
C1V340,大津,2025-12-28,22.888322,120.645986,0.112349555
C0W180,七美,2025-12-28,23.219333,119.444892,0.00039093243
C1F9C1,白冷,2025-12-28,24.182844,120.929889,0.009880668
K2E710,苗改生物防治研究中心,2025-12-28,24.422861,120.871833,0.003741373
C0N040,蘆竹溝,2025-12-28,23.2344,120.0961,0.5752465
C0TB40,崇德,2025-12-28,24.166144,121.657414,0.059001405
C0D760,大坪苗圃,2025-12-28,24.5362,121.1108,0.0009534001
C2W230,畜試所澎湖,2025-12-28,23.628342,119.513206,0.000367069
C0R880,後壁湖,2025-12-28,21.9457,120.7457,0.0068169325
C1I280,埔中,2025-12-28,23.820778,120.642594,0.033500735
467790,墾丁雷達站,2025-12-28,21.948235,120.808028,0.08735707
C0W190,望安,2025-12-28,23.380564,119.494075,0.00038384157
C0Z170,卓溪,2025-12-28,23.3443,121.3029,0.14999397
C0F850,東勢,2025-12-28,24.246428,120.833047,0.0122700045
466900,淡水,2025-12-28,25.164889,121.448906,0.0010660903
C0I370,魚池,2025-12-28,23.895703,120.94135,0.05175703
C0C630,大溪,2025-12-28,24.882853,121.265547,0.016421592
C0A520,山佳,2025-12-28,24.974944,121.402008,0.029203156
C0I110,竹山,2025-12-28,23.761225,120.688156,0.042362664
82H840,茶改南部分場,2025-12-28,23.762528,120.7405,0.038862012
C2SD80,再來山,2025-12-28,23.34371,121.44122,0.010803707
C0G660,溪湖,2025-12-28,23.94835,120.479122,0.3131626
C1T800,洛韶,2025-12-28,24.204558,121.453956,0.0017110923
C1T810,慈恩,2025-12-28,24.192044,121.388386,0.00047138217
C1E451,象鼻,2025-12-28,24.368617,120.940228,0.0050248792
C0AC60,三峽,2025-12-28,24.939025,121.369728,0.00981992
C0I490,萬大林道,2025-12-28,23.928228,121.091411,0.0014785195
C1I290,豐丘,2025-12-28,23.668178,120.887417,0.0055580023
C1I320,奧萬大,2025-12-28,23.952956,121.178556,0.0012847327
C2M910,嘉義大學,2025-12-28,23.471325,120.485903,0.041718084
C0U770,南澳,2025-12-28,24.44935,121.81022,0.5725991
C2TB30,吉安,2025-12-28,23.94538,121.54803,0.41128907
C0A980,社子,2025-12-28,25.109508,121.469681,0.021219708
C0V800,六龜,2025-12-28,22.997889,120.633583,0.23914517
C1G9D0,國一S218K,2025-12-28,23.890641,120.493253,0.43008128
C0E570,白沙屯,2025-12-28,24.549447,120.696803,0.00817388
C2F9A0,中竹林,2025-12-28,24.103556,120.751061,0.010088958
C0FA40,臺中電廠,2025-12-28,24.2146,120.4907,0.0034353063
C2G9A0,畜試所彰化,2025-12-28,23.86045,120.557964,0.66449726
C0H9C0,合歡山,2025-12-28,24.143442,121.272547,0.00042467265
G2M350,農試溪口農場,2025-12-28,23.58565,120.408111,0.38184023
C0U860,頭城,2025-12-28,24.85323,121.8308,0.77494735
C0R580,南州,2025-12-28,22.48591,120.50274,0.03577696
C0D430,峨眉,2025-12-28,24.6905,121.017189,0.02407807
C0G780,秀水,2025-12-28,24.03405,120.503869,0.16733778
72N100,臺南農改場,2025-12-28,23.0605,120.342194,0.7001959
C0S900,蘭嶼高中,2025-12-28,22.04909,121.51214,0.08634377
C2TA60,六十石,2025-12-28,23.22477,121.31861,0.0019845285
C1F9W0,德基,2025-12-28,24.254783,121.190261,0.0011766764
C2M980,安和,2025-12-28,23.51377,120.31593,0.6764981
C1Z120,壽豐,2025-12-28,23.870853,121.508081,0.54187846
C0W160,烏坵,2025-12-28,24.9944,119.44956,0.00033546909
C1I240,外大坪,2025-12-28,23.958697,120.917931,0.023154318
C1I550,國六W023K,2025-12-28,23.979067,120.867742,0.05100667
C0R870,興海,2025-12-28,21.9752,120.8439,0.13731748
C0R140,瑪家,2025-12-28,22.682903,120.686639,0.04351104
C0A530,坪林,2025-12-28,24.938183,121.70975,0.49191695
C0X260,後壁,2025-12-28,23.366358,120.362326,0.7645918
C0Z230,和平,2025-12-28,24.30717,121.77007,0.63415813
C0G770,福興,2025-12-28,24.041289,120.437669,0.049237445
C0H9A0,神木村,2025-12-28,23.532742,120.843667,0.002626746
C0I460,南投,2025-12-28,23.911469,120.687331,0.13102932
C0I480,梅峰,2025-12-28,24.085272,121.173572,0.0009385139
C1V570,吉東,2025-12-28,22.85422,120.5454,0.3201219
C2A560,福山,2025-12-28,24.776203,121.502811,0.6993431
C0AH30,五分山,2025-12-28,25.07125,121.780794,0.011666182
C0FA10,松柏,2025-12-28,24.429115,120.617482,0.014433276
72S200,東改班鳩分場,2025-12-28,22.829528,121.077694,0.00081920775
72HA00,中改埔里分場,2025-12-28,23.903208,120.963364,0.03216679
C2H9W0,大坪頂農水,2025-12-28,24.043122,120.932781,0.021461742
C0C650,平鎮,2025-12-28,24.897503,121.214636,0.0036464822
C0S930,延平,2025-12-28,22.902581,121.084058,0.0032541521
C0UA60,樟樹山,2025-12-28,24.41393,121.78325,0.44798008
C2UC10,出水溪,2025-12-28,24.615822,121.652253,0.38812682
C1S670,摩天,2025-12-28,23.199503,121.027,0.00085823133
C2C590,觀音,2025-12-28,25.027072,121.153317,0.004879167
C0V630,茄萣,2025-12-28,22.906642,120.182608,0.09768805
466940,基隆,2025-12-28,25.133314,121.740475,0.63099504
C0X050,東河,2025-12-28,23.296598,120.385608,0.44328803
C0R770,保力,2025-12-28,22.071122,120.764111,0.025429709
G2L020,農試嘉義分所,2025-12-28,23.485028,120.473806,0.018831259
C0X240,關子嶺,2025-12-28,23.331169,120.508025,0.14098959
C0I380,集集,2025-12-28,23.828206,120.801467,0.07865451
466990,花蓮,2025-12-28,23.975128,121.613275,0.62381166
C1V220,小關山,2025-12-28,23.154217,120.813603,0.0017376745
C1F9G1,慶福山,2025-12-28,24.180853,120.848378,0.003425669
C0FB20,雪山橋,2025-12-28,24.23192,120.9786,0.0010849197
C0Z250,瑞穗林道,2025-12-28,23.49284,121.30688,0.011101589
C0D590,新豐,2025-12-28,24.87068,120.97721,0.007384631
C0A870,五指山,2025-12-28,25.132153,121.608692,0.0005544357
C0UA50,西帽山,2025-12-28,24.555361,121.802628,0.20321861
C2R980,竹田國中,2025-12-28,22.61532,120.52412,0.026402539
C0X160,仁德,2025-12-28,22.968258,120.257689,0.3154028
C1H971,六分寮,2025-12-28,23.92507,120.6378,0.03707874
C0W120,西嶼,2025-12-28,23.5626,119.468436,0.00036516055
C0G650,員林,2025-12-28,23.946503,120.585597,0.2516433
C0AD50,鶯歌,2025-12-28,24.951533,121.346294,0.008275225
C2H9Q0,北東眼山,2025-12-28,24.120939,121.189303,0.0010037138
C2H9T0,名間竹圍,2025-12-28,23.859914,120.637572,0.16071837
C0S990,山豬窟,2025-12-28,22.318619,120.857372,0.5209762
C0X190,安平,2025-12-28,22.993161,120.152181,0.47996083
C0K400,斗六,2025-12-28,23.720583,120.541127,0.5676647
12J990,口湖工作站,2025-12-28,23.589978,120.180394,0.13300024
C0O830,北寮,2025-12-28,23.079561,120.495008,0.38094556
C1D410,白蘭,2025-12-28,24.579364,121.079947,0.001113699
C0S970,加津林,2025-12-28,22.416211,120.926942,0.24818105
C0D700,關西,2025-12-28,24.7977,121.1732,0.024027273
C0U750,龜山島,2025-12-28,24.841667,121.953133,0.018017985
C0R810,內獅,2025-12-28,22.305064,120.642986,0.009368219
C1M390,龍美,2025-12-28,23.406728,120.654417,0.0074018654
C2K290,崙內,2025-12-28,23.69525,120.35601,0.075486384
C2FB60,頭櫃山,2025-12-28,24.129842,120.858925,0.007318648
C1H840,國三N238K,2025-12-28,23.841008,120.707711,0.20800407
CAQ030,崎峰國小,2025-12-28,22.42565,120.49521,0.03577696
C2E520,大湖,2025-12-28,24.414939,120.870872,0.0031307752
467530,阿里山,2025-12-28,23.508208,120.813242,0.0008152949
C1E691,南湖,2025-12-28,24.40135,120.837533,0.0007989956
C0FA30,梧棲,2025-12-28,24.256003,120.523381,0.003363088
C1V231,高中,2025-12-28,23.134911,120.716711,0.024858259
C0AK30,硬漢嶺,2025-12-28,25.136097,121.426372,0.0007294422
C0F9V0,新社,2025-12-28,24.200172,120.815806,0.005436804
C0H890,埔里,2025-12-28,23.972169,120.952425,0.050270066
C0R690,墾丁,2025-12-28,21.966756,120.810269,0.009968284
C0SD20,富山,2025-12-28,22.822383,121.190825,0.050318588
C0F0D0,審馬陣,2025-12-28,24.381675,121.4203,0.00025051498
C2W030,金門農試所,2025-12-28,24.448431,118.451786,0.000479938
C0R820,白鷺,2025-12-28,22.454275,120.666219,0.15297285
C0FB00,大雪山,2025-12-28,24.254668,121.007374,0.00095342315
C1V190,南天池,2025-12-28,23.27403,120.91176,0.00070760224
C0E940,雪見,2025-12-28,24.42595,121.01347,0.0016059377
K2E360,苗栗農改場,2025-12-28,24.495722,120.829111,0.013052406
CAJ050,海口故事園區,2025-12-28,23.57543,120.14121,0.13334692
C2K280,四湖,2025-12-28,23.6304,120.22717,0.029153734
C2H9D0,三隻寮,2025-12-28,24.093078,120.861578,0.0052066557
C0O990,媽廟,2025-12-28,22.99175,120.293525,0.5927018
C0D480,打鐵坑,2025-12-28,24.849664,121.150789,0.021239331
C0Z220,和平林道,2025-12-28,24.343922,121.656317,0.017049026
C0TA10,花蓮漁港,2025-12-28,23.995322,121.638331,0.25401422
72C440,桃園農改場,2025-12-28,24.950944,121.030583,0.02901169
C1E711,馬拉邦山,2025-12-28,24.367306,120.901656,0.0046769585
C0SB20,富岡,2025-12-28,22.792467,121.192669,0.006551255
C0D560,竹東,2025-12-28,24.767147,121.057881,0.032121655
C0F9U0,南屯,2025-12-28,24.137006,120.637969,0.046169523
C2SD60,明峰,2025-12-28,22.8671,121.11825,0.0020302904
C0M720,番路,2025-12-28,23.464657,120.554156,0.042120583
C0F0A0,雪山圈谷,2025-12-28,24.388594,121.236339,0.0003054616
C1A9N0,四十份,2025-12-28,24.934158,121.593283,0.015449826
C0U760,東澳,2025-12-28,24.52196,121.83318,0.8961911
C0X230,鹽水,2025-12-28,23.272621,120.247641,0.632662
C2H9H0,苗改南投蜂場,2025-12-28,23.852589,120.693481,0.14141224
C2TB70,達谷寮,2025-12-28,23.38,121.35968,0.19656402
C0R950,萬隆國小,2025-12-28,22.507667,120.587817,0.02484111
467540,大武,2025-12-28,22.35572,120.90374,0.05695195
C0V370,古亭坑,2025-12-28,22.893178,120.401947,0.57460093
C1I340,新興橋,2025-12-28,23.563333,120.868728,0.033950422
C0SA80,土坂,2025-12-28,22.453108,120.887572,0.08450818
C0R160,鹽埔,2025-12-28,22.739558,120.530778,0.047586843
C0AC40,大屯山,2025-12-28,25.175675,121.522408,0.00055030675
466850,五分山雷達站,2025-12-28,25.071182,121.781205,0.011064075
C2H9L0,馬烈霸,2025-12-28,24.1512,121.201772,0.0011377215
C1AI50,國三N016K,2025-12-28,25.034164,121.619664,0.053080227
C2V920,匏子寮,2025-12-28,23.04905,120.55319,0.26167127
C1V600,藤枝,2025-12-28,23.071961,120.757042,0.0022381865
C1E601,南勢,2025-12-28,24.572486,120.734842,0.0036321988
C0O980,新市,2025-12-28,23.061614,120.298197,0.6451842
C0K420,西螺,2025-12-28,23.800407,120.467394,0.69580644
C0Z050,佳心,2025-12-28,23.34567,121.21316,0.0032259491
C0AD30,蘆洲,2025-12-28,25.086594,121.472331,0.07276997
C0V610,梓官,2025-12-28,22.760558,120.267211,0.03329893
K2F750,種苗改良場,2025-12-28,24.225972,120.800917,0.006884967
C0UA80,大溪漁港,2025-12-28,24.941801,121.902955,0.81427985
C1AI60,國一39K邊坡,2025-12-28,25.064361,121.383836,0.003996495
C0W150,金寧,2025-12-28,24.457703,118.328989,0.001053632
C0R960,內埔,2025-12-28,22.608483,120.570714,0.025709055
V2C250,八德合作社,2025-12-28,24.93775,121.266389,0.0049850335
C2H9S0,龍南,2025-12-28,23.953536,120.833183,0.0064338488
C0AH40,平等,2025-12-28,25.129142,121.577086,0.001468349
C0R540,佳冬,2025-12-28,22.419456,120.552375,0.025381124
466950,彭佳嶼,2025-12-28,25.627975,122.079744,0.00035830613
C0A890,雙溪,2025-12-28,25.036003,121.864242,0.6926646
C0C480,桃園,2025-12-28,24.992425,121.323172,0.005317769
C0AH50,林口,2025-12-28,25.072181,121.38084,0.0024168268
A2K360,水試臺西試驗場,2025-12-28,23.717231,120.190522,0.02280474
C2M960,外寮,2025-12-28,23.562643,120.665688,0.012375314
C0F9S0,烏日,2025-12-28,24.107058,120.624103,0.04906804
C2N180,鹿陶洋,2025-12-28,23.14325,120.48352,0.30281997
C0C490,八德,2025-12-28,24.928708,121.283289,0.0048418404
C0R190,赤山,2025-12-28,22.592333,120.614306,0.024925863
C0T820,天祥,2025-12-28,24.179597,121.495639,0.43295014
C1F9E1,龍安,2025-12-28,24.1605,120.831961,0.004284014
C2SD50,順那,2025-12-28,23.04166,121.29332,0.036923196
C0V820,小林,2025-12-28,23.148408,120.63325,0.08946388
C2G870,芳苑,2025-12-28,23.922303,120.320025,0.0018979181
C0E850,大河,2025-12-28,24.618069,120.948578,0.027785717
C1U670,寒溪,2025-12-28,24.634,121.71691,0.91749626
C0N020,城西,2025-12-28,23.0568,120.0956,0.47271332
C1Z110,三棧,2025-12-28,24.11557,121.60501,0.12648559
C0R280,檳榔,2025-12-28,22.076078,120.836777,0.083165616
C2H9J0,中台,2025-12-28,23.9996,120.938739,0.032015532
C0F9L0,后里,2025-12-28,24.310436,120.729725,0.02835872
467441,高雄,2025-12-28,22.730432,120.312516,0.034776848
C0Z180,新城,2025-12-28,24.040486,121.604878,0.60367453
C0D540,橫山,2025-12-28,24.71116,121.11693,0.02311842
C1D420,太閣南,2025-12-28,24.632808,121.160575,0.0010701276
C1E770,公館,2025-12-28,24.526914,120.830806,0.019417338
CAN130,水試所海水繁養殖中心,2025-12-28,23.120802,120.07968,0.28341058
C1I430,翠華,2025-12-28,24.191961,121.224339,0.0008273129
C1M400,菜瓜坪,2025-12-28,23.251928,120.576103,0.42987847
C0G730,二林,2025-12-28,23.903325,120.376081,0.06671777
72M360,南改義竹分場,2025-12-28,23.360694,120.279361,0.66757786
V2K620,麥寮合作社,2025-12-28,23.753836,120.294783,0.07692508
C0Z070,舞鶴,2025-12-28,23.46811,121.37407,0.14738604
C0B040,大武崙,2025-12-28,25.166676,121.706993,0.59076595
C1Z030,紅葉,2025-12-28,23.493119,121.338806,0.19321704
C1I050,丹大,2025-12-28,23.753747,121.141147,0.0005387962
C0I080,信義,2025-12-28,23.689694,120.851036,0.20644638
C2TB80,庄子底,2025-12-28,23.71794,121.49438,0.37970182
C0D750,樂山林道6k,2025-12-28,24.49999,121.08773,0.00079807075
C2M920,朴子農改,2025-12-28,23.469889,120.259383,0.6869674
C2A880,福隆,2025-12-28,25.017842,121.942083,0.808426
C0Z160,鳳林,2025-12-28,23.746114,121.453411,0.3524769
C0UB80,翠峰林道6K,2025-12-28,24.49773,121.568625,0.0003957994
C0V210,復興,2025-12-28,23.222403,120.806089,0.09626932
C0H990,昆陽,2025-12-28,24.121322,121.273642,0.000434685
C0R741,獅子,2025-12-28,22.202308,120.705236,0.5725128
C0S710,鹿野,2025-12-28,22.917711,121.122994,0.0020662427
C0I530,小奇萊,2025-12-28,24.131764,121.295717,0.00045172946
C0FA70,大雪山埡口,2025-12-28,24.26867,121.03062,0.0006987486
C2K630,荷苞,2025-12-28,23.657717,120.595144,0.03269511
C0Z080,富源,2025-12-28,23.587642,121.378225,0.17896378
C2M9E0,旺來山,2025-12-28,23.555153,120.486463,0.02178879
C0SB10,美和,2025-12-28,22.682078,121.060236,0.26068348
C2K620,馬光農場,2025-12-28,23.721453,120.378864,0.71702045
C1I140,卡奈托灣,2025-12-28,23.754364,121.087872,0.0020246338
C0I520,玉山風口,2025-12-28,23.470489,120.955994,0.00032626622
C1G691,下水埔,2025-12-28,23.816114,120.5676,0.5698992
C0X110,臺南市南區,2025-12-28,22.961189,120.188378,0.30777472
C0V680,仁武,2025-12-28,22.701083,120.347722,0.02050508
C2G840,北斗,2025-12-28,23.877586,120.514222,0.40897185
C2TB90,長橋,2025-12-28,23.6874,121.46186,0.44876915
C0R900,竹坑,2025-12-28,22.1385,120.7022,0.0038803883
C0G860,社頭,2025-12-28,23.897647,120.5862,0.3823691
C0X150,安定,2025-12-28,23.102614,120.227839,0.6590281
C0R590,里港,2025-12-28,22.77919,120.49459,0.3821375
C0E610,馬都安,2025-12-28,24.451272,120.930192,0.003921561
C0E550,明德,2025-12-28,24.583486,120.885411,0.023253342
C0R150,三地門,2025-12-28,22.709889,120.639944,0.06672113
C0G910,花壇,2025-12-28,24.032076,120.549461,0.14696518
C1D400,鳥嘴山,2025-12-28,24.71909,121.28387,0.0026015542
C0K500,元長,2025-12-28,23.64981,120.315024,0.1120672
C0F0B0,石岡,2025-12-28,24.276061,120.777644,0.019289851
C2V250,甲仙,2025-12-28,23.080106,120.591758,0.2941402
C0SA20,金崙山,2025-12-28,22.567419,120.959667,0.0004067914
C0V350,溪埔,2025-12-28,22.738578,120.446797,0.16591105
C0M660,溪口,2025-12-28,23.604131,120.403569,0.38331255
C1S880,壽卡,2025-12-28,22.238911,120.858903,0.17030658
72D680,桃改新埔分場,2025-12-28,24.834444,121.066111,0.040823463
