站號,站名,日期,lat,lon,BLBTSLS
CAH030,茶改場竹圍站,2025-12-23,23.860083,120.637528,2.50076e-09
V2K610,大庄合作社,2025-12-23,23.8068,120.367939,1.5678644e-08
G2AI50,關渡,2025-12-23,25.11575,121.492,8.86164e-08
V2C260,八德蔬果,2025-12-23,24.978508,121.281819,4.5060474e-08
A2K570,古坑花卉中心,2025-12-23,23.63353,120.55239,0.09136443
467571,新竹,2025-12-23,24.827853,121.014219,0.00019051286
C0E430,南庄,2025-12-23,24.601775,121.000214,6.638239e-08
C0E420,竹南,2025-12-23,24.708978,120.888897,0.63941175
C0M530,奮起湖,2025-12-23,23.493903,120.699253,4.7810595e-09
C0C590,觀音,2025-12-23,25.027072,121.153317,0.017073112
C0M810,里佳,2025-12-23,23.389125,120.716647,4.7848454e-09
V2C250,八德合作社,2025-12-23,24.93775,121.266389,3.2109124e-08
