站號,站名,日期,lat,lon,BlastGRU-TW
C0R710,龍磐,2025-05-19,21.931672,120.838942,0.050077535
C1F9D1,白毛台,2025-05-19,24.158325,120.886933,0.91133225
C0G940,竹塘,2025-05-19,23.848253,120.386764,0.18504868
467590,恆春,2025-05-19,22.003897,120.746339,0.03726667
C1O850,環湖,2025-05-19,23.148617,120.418633,0.109804206
C0U710,太平山,2025-05-19,24.505486,121.525656,0.019153154
C0E820,獅潭,2025-05-19,24.539133,120.920042,0.9942146
C0V880,興達,2025-05-19,22.8778,120.2127,0.3105251
C0S890,關山,2025-05-19,23.0395,121.175017,0.017763868
C0SB30,新蘭,2025-05-19,22.869214,121.223228,0.015609477
C2R970,屏科大,2025-05-19,22.648275,120.619247,0.5521039
C1Z130,銅門,2025-05-19,23.965694,121.492842,0.15269727
C0AD40,土城,2025-05-19,24.973208,121.445169,0.9331876
CAN140,六官養殖協會,2025-05-19,23.22881,120.29962,0.07575855
C0X180,山上,2025-05-19,23.0757,120.363253,0.24787568
C0F9Z0,雪山東峰,2025-05-19,24.388792,121.268675,0.00055957487
C1M480,獨立山,2025-05-19,23.537022,120.607797,0.86558974
C0X220,學甲,2025-05-19,23.230367,120.182187,0.09258615
467650,日月潭,2025-05-19,23.881325,120.90805,0.77001846
C0K600,箔子寮,2025-05-19,23.6197,120.14,0.05266566
C0G830,埤頭,2025-05-19,23.866003,120.452806,0.21805543
C0S950,七塊厝,2025-05-19,22.954453,121.229922,0.57565606
467110,金門,2025-05-19,24.407306,118.289281,0.97536117
C0AH80,深坑,2025-05-19,25.002703,121.628328,0.9676867
C0A970,三貂角,2025-05-19,25.007606,122.002058,0.84663576
C2D730,寶山農場,2025-05-19,24.732444,120.976153,0.9932456
C0K430,褒忠,2025-05-19,23.690938,120.303634,0.37421355
467480,嘉義,2025-05-19,23.495925,120.432906,0.06822676
C0V400,阿公店,2025-05-19,22.804194,120.355528,0.5145615
467550,玉山,2025-05-19,23.48718,120.95943,0.00025984758
C0R440,大漢山,2025-05-19,22.405264,120.753181,0.005149471
C0K280,四湖,2025-05-19,23.630414,120.227125,0.37621784
C1F9B1,桐林,2025-05-19,24.066172,120.735194,0.9659878
C2H9U0,鳳鵬,2025-05-19,23.763919,120.788061,0.9636933
C0K390,土庫,2025-05-19,23.679029,120.395574,0.2671668
C1I450,望鄉山,2025-05-19,23.594153,120.944286,0.00071305694
C0E910,海埔,2025-05-19,24.648767,120.772435,0.93788356
B2E890,畜試北區分所,2025-05-19,24.527806,120.770972,0.98651433
C0R750,四林格山,2025-05-19,22.076989,120.802439,0.8109747
C0F0C0,中坑,2025-05-19,24.248517,120.903319,0.77772135
C1I121,大鞍,2025-05-19,23.678381,120.760017,0.4428964
72U480,花改蘭陽分場,2025-05-19,24.686306,121.716583,0.3797345
C0A770,科教館,2025-05-19,25.096356,121.516507,0.89540046
C0AJ60,六塊厝,2025-05-19,25.24,121.4481,0.91253614
C0R620,墾雷,2025-05-19,21.900836,120.855269,0.034573283
467420,永康,2025-05-19,23.038386,120.2367,0.22869585
C0I410,名間,2025-05-19,23.837053,120.701447,0.60049134
A2C560,農工中心,2025-05-19,24.985917,121.239833,0.9906216
C0V740,旗山,2025-05-19,22.888614,120.483597,0.519443
C0Z061,玉里,2025-05-19,23.3215,121.339656,0.031103183
C0S840,南田,2025-05-19,22.279725,120.889208,0.069288164
C1I470,杉林溪,2025-05-19,23.639517,120.786444,0.14933605
C1X040,東原,2025-05-19,23.291597,120.463822,0.5745497
C0R660,枋寮,2025-05-19,22.367722,120.590647,0.6041416
C1R120,上德文,2025-05-19,22.763272,120.704442,0.62712854
C0K450,大埤,2025-05-19,23.646074,120.431537,0.439919
C0UA00,土場,2025-05-19,24.576533,121.495333,0.63006693
467080,宜蘭,2025-05-19,24.763975,121.756528,0.4128888
C0N030,四草,2025-05-19,23.0235,120.1116,0.103220925
467410,臺南,2025-05-19,22.99328,120.20492,0.19766603
C0V650,彌陀,2025-05-19,22.783806,120.246361,0.6771543
C0D660,新竹市東區,2025-05-19,24.798681,120.986942,0.96641654
82S580,茶改東部分場,2025-05-19,22.907694,121.130139,0.020070517
C0SB40,興隆,2025-05-19,22.913661,121.257469,0.015727563
467050,新屋,2025-05-19,25.006725,121.047492,0.98026884
C0C710,大溪永福,2025-05-19,24.892936,121.324975,0.9920201
C0FA20,溫寮,2025-05-19,24.372177,120.583125,0.74243283
C0V640,湖內,2025-05-19,22.887139,120.2445,0.32377023
C0R910,下寮,2025-05-19,22.3929,120.5548,0.60234135
C0Z020,明里,2025-05-19,23.208717,121.262342,0.11070096
C0M770,嘉義梅山,2025-05-19,23.585398,120.555587,0.8156213
C0C660,楊梅,2025-05-19,24.912375,121.143047,0.99148947
C1E511,新開,2025-05-19,24.347703,120.827019,0.9908808
G2F820,農試所(霧峰),2025-05-19,24.031261,120.688133,0.9026392
C1I070,和社,2025-05-19,23.591131,120.888861,0.9659084
C2F000,大肚,2025-05-19,24.15295,120.572117,0.92279094
C1S850,豐南,2025-05-19,23.122139,121.262389,0.9320935
C2A920,富貴角,2025-05-19,25.263783,121.565258,0.99069554
CAH030,茶改場竹圍站,2025-05-19,23.860083,120.637528,0.6073309
C0T960,光復,2025-05-19,23.660694,121.424964,0.029128065
C0F9M0,豐原,2025-05-19,24.254322,120.720692,0.9960039
C0R720,旭海,2025-05-19,22.205403,120.887614,0.19777912
C0V710,苓雅,2025-05-19,22.622742,120.330669,0.60716385
C0C740,觀音工業區,2025-05-19,25.064764,121.114856,0.9770941
CAC040,拉拉山,2025-05-19,24.699317,121.427133,0.12951046
C0V790,萬山,2025-05-19,22.905944,120.688056,0.9237466
U2HA30,臺大和社,2025-05-19,23.590856,120.888864,0.9659084
C0AJ90,澳底,2025-05-19,25.0552,121.9253,0.5571778
C0Z100,東華,2025-05-19,23.89525,121.549833,0.029069735
C0G970,三豐,2025-05-19,23.882,120.2895,0.2625147
V2K610,大庄合作社,2025-05-19,23.8068,120.367939,0.37967804
C0V900,汕尾,2025-05-19,22.4782,120.4151,0.6995548
C1R630,龍泉,2025-05-19,22.66701,120.59091,0.4403998
C1AC50,關渡,2025-05-19,25.133486,121.469331,0.9844475
C0F9I0,神岡,2025-05-19,24.272481,120.658314,0.9952723
C0K460,斗南,2025-05-19,23.678734,120.478359,0.46017236
C2O810,曾文,2025-05-19,23.219681,120.497328,0.35468054
467280,後龍,2025-05-19,24.648563,120.831834,0.9629768
C1F9J1,清水林,2025-05-19,24.071242,120.820419,0.94812787
C2A650,火燒寮,2025-05-19,25.002719,121.742892,0.99120927
466930,竹子湖,2025-05-19,25.162078,121.544547,0.75157356
C1I220,樟湖,2025-05-19,23.905333,120.846983,0.5019717
C0I390,仁愛,2025-05-19,24.022122,121.132206,0.34191397
C0Z300,東里,2025-05-19,23.26853,121.30547,0.06823308
C1V590,新發,2025-05-19,23.057019,120.646064,0.97349304
C0K510,水林,2025-05-19,23.572924,120.24597,0.054969545
72S590,東改賓朗果園,2025-05-19,22.813889,121.071278,0.13684645
82A750,茶改北部分場,2025-05-19,24.955778,121.631222,0.98894763
C1A750,石碇服務區,2025-05-19,25.00872,121.646242,0.98789704
C0X300,鹿寮,2025-05-19,23.386047,120.477331,0.4075417
G2AI50,關渡,2025-05-19,25.11575,121.492,0.90033424
C0K590,雲林東勢,2025-05-19,23.674192,120.255721,0.3629703
C0A570,桶後,2025-05-19,24.848222,121.597992,0.36151096
C1S800,華源,2025-05-19,22.657883,121.02325,0.022745755
C0G720,溪州,2025-05-19,23.851589,120.499093,0.24003135
C1V160,達卡努瓦,2025-05-19,23.279811,120.705319,0.6610923
C2M410,馬頭山,2025-05-19,23.324361,120.582017,0.6733381
C0V850,蚵仔寮,2025-05-19,22.7256,120.2527,0.5759653
C0S740,池上,2025-05-19,23.119628,121.209469,0.037132982
C1V390,尖山,2025-05-19,22.813153,120.367789,0.5766607
C0AH70,松山,2025-05-19,25.04871,121.55042,0.91486216
C0N010,鯤鯓國小,2025-05-19,23.1879,120.0889,0.07031144
C0R550,新埤,2025-05-19,22.467947,120.582894,0.7500767
C0SA60,知本（水試所）,2025-05-19,22.702394,121.082761,0.018964844
C0T9I0,豐濱,2025-05-19,23.583897,121.514806,0.037820965
C0UB00,淡江大學蘭陽校園,2025-05-19,24.823239,121.730383,0.9333534
C0W240,九宮,2025-05-19,24.423753,118.240186,0.97575486
C0T9N0,富里,2025-05-19,23.171639,121.249378,0.027435966
U2HA50,臺大竹山,2025-05-19,23.756972,120.681556,0.80758137
C0V840,鳳鼻頭,2025-05-19,22.5083,120.3591,0.47569788
C0X140,西港,2025-05-19,23.125608,120.203108,0.07172431
72D080,桃改五峰分場,2025-05-19,24.612194,121.157167,0.74920946
C2H9P0,伊拿谷,2025-05-19,23.963211,121.088264,0.74596727
C2H9F0,柑林,2025-05-19,24.018658,120.847072,0.7927775
C0TA20,加灣,2025-05-19,24.082025,121.608944,0.06083948
C0V530,阿蓮,2025-05-19,22.883208,120.327508,0.29718816
C1O880,關山,2025-05-19,23.173397,120.594092,0.6097959
C0E791,卓蘭,2025-05-19,24.3126,120.8244,0.9911982
C1I030,武界,2025-05-19,23.913225,121.052483,0.7173998
C0R520,崁頂,2025-05-19,22.514781,120.506914,0.66138595
C0R341,牡丹,2025-05-19,22.130036,120.792639,0.9382084
C0R930,萬丹,2025-05-19,22.5885,120.4851,0.5333014
C0S760,紅石,2025-05-19,23.069131,121.126219,0.10965062
C2C410,中央大學,2025-05-19,24.967652,121.185165,0.99077874
C1M610,石磐龍,2025-05-19,23.496606,120.663506,0.7190837
C0UA10,鴛鴦湖,2025-05-19,24.590269,121.412228,0.18907927
V2C260,八德蔬果,2025-05-19,24.978508,121.281819,0.98966104
C0R800,丹路,2025-05-19,22.204481,120.750989,0.6579048
C0G920,永靖,2025-05-19,23.924703,120.547533,0.3733788
C2M950,太和,2025-05-19,23.538372,120.702961,0.44305196
C1A630,下盆,2025-05-19,24.771003,121.538622,0.87577164
B2N890,畜產試驗所,2025-05-19,23.058972,120.336406,0.21375437
C0UA30,白嶺,2025-05-19,24.527819,121.519031,0.21913236
C1V580,溪南(特生中心),2025-05-19,23.084972,120.788475,0.0659182
C1T970,大農,2025-05-19,23.615233,121.413331,0.055141695
C0R650,竹田,2025-05-19,22.58486,120.54344,0.61721253
C1H900,清流,2025-05-19,24.080775,120.962997,0.7680023
C1C510,水尾,2025-05-19,24.940081,121.087161,0.990952
C0F9X0,大雅(中科園區),2025-05-19,24.21528,120.62445,0.9856571
C0SB60,白守蓮,2025-05-19,23.126769,121.401914,0.007614855
C0O970,虎頭埤,2025-05-19,23.021375,120.347878,0.28742293
C0C730,中大臨海站,2025-05-19,24.966126,121.008581,0.9729152
C0X250,新營,2025-05-19,23.310689,120.316681,0.08242932
C0V700,三民,2025-05-19,22.645017,120.311233,0.68119234
C0U870,大礁溪,2025-05-19,24.791042,121.675047,0.8937116
C0E870,高鐵苗栗,2025-05-19,24.60725,120.826094,0.86769277
A2K570,古坑花卉中心,2025-05-19,23.63353,120.55239,0.7433553
C0TA30,鹽寮,2025-05-19,23.845606,121.592664,0.026961528
C0M860,新美,2025-05-19,23.338017,120.683169,0.9942975
C1E701,八卦,2025-05-19,24.491756,120.927619,0.8628514
C0I420,國姓,2025-05-19,24.037803,120.855072,0.8818292
C2D720,關西工作站,2025-05-19,24.757275,121.184792,0.9943564
C0S960,香蘭,2025-05-19,22.587569,120.993375,0.066854596
467620,蘭嶼,2025-05-19,22.0369,121.55843,0.57111055
C0R260,春日,2025-05-19,22.370361,120.628306,0.7429245
72G600,臺中農改場,2025-05-19,24.003028,120.534389,0.35924628
C0Z210,瑞穗,2025-05-19,23.5239,121.39021,0.031092307
C0M820,達邦,2025-05-19,23.453994,120.749517,0.828936
C0V860,南寮,2025-05-19,22.7616,120.2339,0.5719918
C0G740,大城,2025-05-19,23.852487,120.320935,0.29012132
C0R920,塭仔,2025-05-19,22.4169,120.5197,0.5929311
C0R470,高樹,2025-05-19,22.826389,120.600806,0.44263443
C0R680,佳樂水,2025-05-19,21.993578,120.861633,0.03079216
C1O870,大棟山,2025-05-19,23.31157,120.52226,0.5691475
C0D360,梅花,2025-05-19,24.678347,121.208558,0.92222244
C0Z190,富世,2025-05-19,24.14743,121.6297,0.04934834
C0AI10,屈尺,2025-05-19,24.92184,121.54475,0.9771242
B2U990,畜試東區分所,2025-05-19,24.669039,121.832561,0.4006096
C0SB80,長濱漁港,2025-05-19,23.313644,121.459994,0.021967469
C0R240,來義,2025-05-19,22.527306,120.625111,0.8353341
C0V910,大樹,2025-05-19,22.684645,120.432803,0.30399096
C1R610,西大武山,2025-05-19,22.617719,120.7322,0.005938656
C0G900,線西,2025-05-19,24.143358,120.443536,0.73922944
C0M700,竹崎,2025-05-19,23.526178,120.555508,0.64708936
C2E880,三義,2025-05-19,24.405478,120.749819,0.9864357
C0C720,竹圍,2025-05-19,25.112692,121.239824,0.9077375
C0F9P0,清水,2025-05-19,24.312297,120.562242,0.7303119
C0Z150,吉安光華,2025-05-19,23.930925,121.595153,0.04020351
467300,東吉島,2025-05-19,23.25727,119.66762,0.9677039
C1D640,外坪(五指山),2025-05-19,24.644447,121.090961,0.9047928
C0F9O0,潭子,2025-05-19,24.213106,120.703933,0.9958861
C2H9R0,卓社,2025-05-19,23.887894,121.000086,0.48036015
72T250,花蓮農改場,2025-05-19,23.975222,121.563889,0.055464793
C0E780,銅鑼,2025-05-19,24.489681,120.790853,0.99469656
C1T950,太安,2025-05-19,23.666719,121.370128,0.6816002
C0E830,苑裡,2025-05-19,24.439714,120.653053,0.80749905
467270,田中,2025-05-19,23.873803,120.581286,0.18832092
C0SA10,檳榔四格山,2025-05-19,22.810031,121.109308,0.4176043
C1T830,布洛灣,2025-05-19,24.17184,121.57127,0.45761746
C0F970,大坑,2025-05-19,24.173142,120.722289,0.99441403
C1U920,思源,2025-05-19,24.393125,121.347214,0.05309185
C0A931,三和,2025-05-19,25.233153,121.595236,0.987026
C0I010,廬山,2025-05-19,24.033311,121.181808,0.047308747
C2M940,日野賀,2025-05-19,23.434056,120.727169,0.65609986
C0R860,鼻頭,2025-05-19,22.1043,120.8979,0.04589062
C0UB20,壯圍,2025-05-19,24.7359,121.8163,0.25460047
C0R790,九棚,2025-05-19,22.14195,120.889281,0.13179384
C0W110,東莒,2025-05-19,25.9652,119.98069,0.8966423
C1U930,粉鳥林,2025-05-19,24.497088,121.842479,0.031751066
C1I211,蘆竹湳,2025-05-19,23.934019,120.811994,0.99032605
C0S830,長濱,2025-05-19,23.286817,121.411975,0.065030076
C1F9F1,伯公龍,2025-05-19,24.272392,120.849047,0.99407977
C0E810,西湖,2025-05-19,24.562947,120.7485,0.9651525
C1I440,新高口,2025-05-19,23.478744,120.878939,0.0020804736
C0O840,王爺宮,2025-05-19,23.222064,120.40085,0.3248169
C0T9G0,鳳林山,2025-05-19,23.735269,121.420131,0.017047986
C0X080,佳里,2025-05-19,23.173039,120.145086,0.070097916
C0FB70,大甲溪埔,2025-05-19,24.370625,120.620067,0.83100176
C0Z310,清水斷崖,2025-05-19,24.218294,121.689142,0.056066114
C0M680,太保,2025-05-19,23.455062,120.331455,0.06194651
C1S820,金峰,2025-05-19,22.590969,120.933236,0.13012479
C0AD10,八里,2025-05-19,25.150211,121.403947,0.91158676
C2K240,草嶺,2025-05-19,23.59555,120.693461,0.7595573
C1SA70,都蘭,2025-05-19,22.87794,121.226881,0.015743721
C0K440,二崙,2025-05-19,23.772797,120.408944,0.23416997
C1A760,坪林交控,2025-05-19,24.94284,121.713442,0.98627204
C0F9N0,大里,2025-05-19,24.092464,120.701378,0.2961725
C0SA90,達仁林場,2025-05-19,22.264347,120.823972,0.9650003
C1R290,石門山,2025-05-19,22.112611,120.756597,0.7993813
42HA10,萬大發電廠,2025-05-19,23.978875,121.139639,0.56111604
C0R890,山海,2025-05-19,21.9878,120.7091,0.030523248
C0T9A0,月眉山,2025-05-19,23.809928,121.539828,0.9640872
C0AC70,信義,2025-05-19,25.037822,121.564597,0.91977316
C0K560,棋山,2025-05-19,23.68645,120.603417,0.782489
C2FB50,出雲,2025-05-19,24.206469,120.902794,0.5099421
C1Z240,中平林道,2025-05-19,23.42115,121.26763,0.7604077
U2H480,溪頭,2025-05-19,23.670306,120.798194,0.7077685
C0M880,好美里,2025-05-19,23.3364,120.138,0.10203043
C0T9E0,大坑,2025-05-19,23.880628,121.581981,0.92448485
C0K530,臺西,2025-05-19,23.701547,120.197559,0.35424542
C1E900,國一N128K,2025-05-19,24.560997,120.844186,0.98086756
C0AJ50,水湳洞,2025-05-19,25.123695,121.862238,0.95480525
C0AI20,白沙灣,2025-05-19,25.283128,121.519058,0.93973565
C2V310,美濃,2025-05-19,22.898792,120.51907,0.49636236
C0A860,大坪,2025-05-19,25.165914,121.632969,0.9788418
C1U850,觀音海岸,2025-05-19,24.38319,121.77856,0.9370404
C2K610,草嶺石壁,2025-05-19,23.602469,120.707731,0.73621243
C0U950,鶯子嶺,2025-05-19,24.89754,121.79244,0.50950944
C0O900,善化,2025-05-19,23.112883,120.297219,0.18408522
C0K550,蔦松,2025-05-19,23.514319,120.229736,0.053374033
E2P980,林試六龜中心,2025-05-19,22.991703,120.645722,0.64351755
C0E590,通霄,2025-05-19,24.471892,120.704622,0.9401514
C1I310,西巒,2025-05-19,23.754486,120.883956,0.81051093
C0A550,泰平,2025-05-19,24.971197,121.823711,0.9745347
C0I360,水里,2025-05-19,23.812553,120.849792,0.5175963
C0R830,高士,2025-05-19,22.121825,120.836781,0.8692679
C1I101,溪頭,2025-05-19,23.661789,120.807647,0.020226503
C0AJ20,野柳,2025-05-19,25.20703,121.690021,0.9191928
C0B060,暖暖,2025-05-19,25.0957,121.7403,0.98353636
C1H920,長豐,2025-05-19,24.102039,120.879897,0.94798243
C0V360,內門,2025-05-19,22.975481,120.466769,0.34584808
C0R850,林邊,2025-05-19,22.4634,120.5339,0.7189066
C0E930,龍鳳,2025-05-19,24.700034,120.859125,0.9192219
C0U910,冬山,2025-05-19,24.63373,121.7937,0.4006096
C1E721,泰安,2025-05-19,24.489017,120.968036,0.34396136
82H320,茶改中部分場,2025-05-19,23.875611,120.913583,0.87693983
C0M750,布袋,2025-05-19,23.380878,120.167789,0.061518963
C1S860,利嘉,2025-05-19,22.809417,121.050528,0.97155124
E2S980,林試太麻里1,2025-05-19,22.598922,120.980044,0.08867872
C0X170,關廟,2025-05-19,22.963017,120.327797,0.27864724
C0V720,林園,2025-05-19,22.507747,120.394511,0.56728786
C1I510,線浸林道,2025-05-19,23.761508,120.832956,0.6874542
C0D690,外湖,2025-05-19,24.917735,120.968711,0.97156847
C0C750,新興坑尾,2025-05-19,25.0061,121.0971,0.98817205
B2Q810,畜試南區分所,2025-05-19,21.945583,120.802167,0.029803474
C0S790,金崙,2025-05-19,22.538122,120.966875,0.2670407
C0AH90,福山植物園,2025-05-19,24.760717,121.58135,0.8603115
C0I540,奇萊稜線,2025-05-19,24.109231,121.326456,0.00030994345
C0M850,表湖,2025-05-19,23.24186,120.64166,0.9733541
C0S770,大溪山,2025-05-19,22.478475,120.943325,0.80736184
C0AG80,中和,2025-05-19,24.991622,121.491792,0.9340893
C0T790,大禹嶺,2025-05-19,24.186117,121.316086,0.002570424
C0T9B0,水源,2025-05-19,23.991861,121.537169,0.017777085
C0R840,牡丹池山,2025-05-19,22.168389,120.841225,0.95518327
C1I131,桶頭,2025-05-19,23.641944,120.654117,0.90756744
CAL110,布袋國中,2025-05-19,23.35893,120.18026,0.08026057
467571,新竹,2025-05-19,24.827853,121.014219,0.945649
C0Z290,赤柯山,2025-05-19,23.36893,121.38293,0.70659757
C0X280,將軍,2025-05-19,23.214999,120.13577,0.09022401
C0S690,太麻里,2025-05-19,22.60902,120.98533,0.8833465
C0U880,北關,2025-05-19,24.9072,121.8734,0.9177334
C0G810,埔心,2025-05-19,23.947633,120.525456,0.35178322
C0U970,大福,2025-05-19,24.80064,121.81389,0.34873605
C2H9N0,仁愛東眼,2025-05-19,24.026875,121.1205,0.111178264
C1E670,南礦,2025-05-19,24.538278,121.002836,0.6082409
C0M520,東後寮,2025-05-19,23.369908,120.248065,0.08300821
C1E461,松安,2025-05-19,24.397972,120.986022,0.41280085
C2N160,西拉雅風管處,2025-05-19,23.189481,120.335297,0.09767083
C2M970,碧湖,2025-05-19,23.568632,120.624165,0.84700435
C0A640,石碇,2025-05-19,24.993969,121.662917,0.9896391
E2S960,林試太麻里2,2025-05-19,22.598,120.99775,0.0648438
C0F9Y0,桃山,2025-05-19,24.432739,121.303808,0.0007011346
C1I020,萬大,2025-05-19,23.979817,121.132261,0.33022392
C0U940,羅東,2025-05-19,24.68184,121.74934,0.3196983
C0M650,朴子,2025-05-19,23.43463,120.23902,0.06198609
C1I500,大尖山,2025-05-19,23.858572,120.994889,0.0058639403
C0G820,田尾,2025-05-19,23.901669,120.509389,0.35879686
E2K600,四湖植物園,2025-05-19,23.676986,120.163433,0.3845018
C0S730,綠島,2025-05-19,22.6672,121.47533,0.033754956
12Q970,東港工作站,2025-05-19,22.479997,120.466058,0.7056328
C0E430,南庄,2025-05-19,24.601775,121.000214,0.9937077
C1TA00,太魯閣,2025-05-19,24.15773,121.6236,0.07219736
466920,臺北,2025-05-19,25.037658,121.514853,0.91486216
C0R600,舊泰武,2025-05-19,22.588194,120.664944,0.9702852
C1I260,北坑,2025-05-19,23.9246,121.006903,0.9907289
466910,鞍部,2025-05-19,25.182586,121.529731,0.42783955
C1I230,九份二山,2025-05-19,23.961944,120.845,0.816616
C2A660,瑞芳,2025-05-19,25.113169,121.801147,0.98831373
C0R270,琉球嶼,2025-05-19,22.332244,120.362236,0.81879765
C1T990,高寮,2025-05-19,23.394239,121.356808,0.016951801
C0G620,芬園,2025-05-19,24.015678,120.6213,0.69104207
C1Z140,荖溪,2025-05-19,23.890575,121.45964,0.56186485
C1I201,中心崙,2025-05-19,23.728722,120.712097,0.98449725
C1I400,凌霄,2025-05-19,24.018778,121.004456,0.1339078
C1M640,十字,2025-05-19,23.492153,120.753683,0.17920883
G2P820,農試鳳山分所,2025-05-19,22.646611,120.356083,0.7096113
C0Z270,蕃薯寮,2025-05-19,23.73835,121.540108,0.53529316
C0F9Q0,外埔,2025-05-19,24.347817,120.705686,0.99482167
C0K580,高鐵雲林,2025-05-19,23.737456,120.417944,0.31232178
C2I090,鳳凰,2025-05-19,23.728081,120.787347,0.82442033
C0U990,員山,2025-05-19,24.74435,121.72247,0.30353883
C0V770,大社,2025-05-19,22.730306,120.346639,0.6126344
C0X120,麻豆,2025-05-19,23.183289,120.248611,0.070710555
C0C670,龍潭,2025-05-19,24.870056,121.221389,0.9883128
C0D680,香山濕地,2025-05-19,24.783581,120.914988,0.9198651
C0S980,勝林山,2025-05-19,22.430439,120.8938,0.62180895
C0V730,大寮,2025-05-19,22.605614,120.395717,0.6977935
C0R570,麟洛,2025-05-19,22.65078,120.52719,0.33605954
C2M930,石卓,2025-05-19,23.478744,120.702264,0.15587229
C0G9B0,和美,2025-05-19,24.105169,120.492131,0.4269763
CAG100,王功漁港,2025-05-19,23.96824,120.32586,0.28741202
C0X290,北門,2025-05-19,23.267772,120.125481,0.089526854
C2F930,大甲,2025-05-19,24.347667,120.640403,0.9498817
C0D650,湖口,2025-05-19,24.904794,121.043628,0.99036825
C0E420,竹南,2025-05-19,24.708978,120.888897,0.9541563
C0U780,五結,2025-05-19,24.68637,121.79794,0.26113155
C1I250,鯉潭,2025-05-19,23.961922,120.991131,0.9350772
C0R130,阿禮,2025-05-19,22.742908,120.743678,0.39227486
C0X100,臺南市北區,2025-05-19,23.010394,120.194228,0.17843297
C0S920,金峰嘉蘭,2025-05-19,22.594789,120.960825,0.08973153
C0V490,新興,2025-05-19,22.627422,120.298803,0.5996174
C0F9K0,大安,2025-05-19,24.345061,120.588025,0.8130567
467290,古坑,2025-05-19,23.633639,120.551889,0.7433553
C2E970,八甲,2025-05-19,24.535811,120.795983,0.99471945
C0V440,鳳山,2025-05-19,22.646653,120.356122,0.7096113
C1T940,大觀,2025-05-19,23.714206,121.373133,0.96445596
C0E740,造橋,2025-05-19,24.637056,120.864778,0.95416045
C0R100,尾寮山,2025-05-19,22.833111,120.683889,0.43185285
A2K630,臺大雲林校區,2025-05-19,23.730628,120.423903,0.315714
467990,馬祖,2025-05-19,26.169467,119.923158,0.9063207
C0D580,寶山,2025-05-19,24.735006,121.025192,0.9961
E2P990,林試扇平站,2025-05-19,22.9677,120.6857,0.9724673
C0AI30,三重,2025-05-19,25.057328,121.500629,0.89540046
C0AH00,汐止,2025-05-19,25.066881,121.658778,0.91486216
C1Z040,立山,2025-05-19,23.443356,121.327375,0.9530918
466881,新北,2025-05-19,24.959207,121.525196,0.95357984
C0W130,花嶼,2025-05-19,23.40007,119.32276,0.94395804
C0A950,鼻頭角,2025-05-19,25.129036,121.923372,0.6415187
C0K470,林內,2025-05-19,23.748675,120.609642,0.60816425
C2F990,摩天嶺,2025-05-19,24.322458,120.936819,0.6037255
82C160,茶改場,2025-05-19,24.908472,121.185333,0.9892991
C0Z320,清水林道,2025-05-19,23.27125,121.188272,0.46914852
C0R760,南仁湖,2025-05-19,22.084681,120.863353,0.80346584
C0M670,大林,2025-05-19,23.600616,120.45841,0.090774424
C0M800,茶山,2025-05-19,23.299075,120.664767,0.9714899
C0A9C0,天母,2025-05-19,25.117494,121.537169,0.9225012
72K220,南改斗南分場,2025-05-19,23.634556,120.477333,0.4732162
72AI40,桃改樹林分場,2025-05-19,24.944503,121.386972,0.9368822
C0S910,蘭嶼燈塔,2025-05-19,22.081197,121.503117,0.09133832
C0B050,八斗子,2025-05-19,25.144754,121.79167,0.9328001
C0U900,內城,2025-05-19,24.71813,121.68766,0.4656848
C0X320,柳營,2025-05-19,23.253328,120.375253,0.068735644
C0M790,新港,2025-05-19,23.553269,120.345728,0.062015165
C0F9T0,西屯,2025-05-19,24.179494,120.641275,0.9453235
C0SA30,都歷,2025-05-19,23.020333,121.323642,0.011685826
C0C620,蘆竹,2025-05-19,25.084275,121.265767,0.9388441
C0R730,大坪頂,2025-05-19,22.024633,120.69355,0.09477136
C0AJ40,石門,2025-05-19,25.273672,121.601198,0.9899744
C0E750,苗栗,2025-05-19,24.564569,120.824575,0.9778761
C0T870,鯉魚潭,2025-05-19,23.935639,121.508944,0.10588135
C1V170,排雲,2025-05-19,23.463619,120.954147,0.00034853513
C2H950,中寮,2025-05-19,23.884447,120.766406,0.98637044
C0R350,貓鼻頭,2025-05-19,21.921774,120.7358,0.027802989
C0V660,岡山,2025-05-19,22.797078,120.294958,0.68244165
C1H941,雙冬,2025-05-19,23.967378,120.802189,0.99018365
C0AJ70,田寮,2025-05-19,25.2698,121.4886,0.9314895
C0AI00,五股,2025-05-19,25.07445,121.42728,0.99052423
C0Z280,德武,2025-05-19,23.47426,121.41071,0.051190473
C0R700,枋山,2025-05-19,22.246844,120.661086,0.44482332
C0C460,復興,2025-05-19,24.820208,121.352281,0.98504823
E2H360,蓮華池,2025-05-19,23.918333,120.885278,0.9773401
C0M640,中埔,2025-05-19,23.42538,120.5229,0.5928925
C0W140,金沙,2025-05-19,24.488292,118.408778,0.9771721
C2A540,四堵,2025-05-19,24.8926,121.745736,0.98066336
C0ACA0,新莊,2025-05-19,25.051478,121.446756,0.91809523
C0R220,潮州,2025-05-19,22.534361,120.54,0.67957777
U2HA40,臺大內茅埔,2025-05-19,23.689722,120.851117,0.9888372
467490,臺中,2025-05-19,24.145736,120.684075,0.9609582
C0U960,翠峰湖,2025-05-19,24.510856,121.608044,0.016988477
E2HA20,林試畢祿溪站,2025-05-19,24.226944,121.308522,0.033408783
C0V890,前鎮,2025-05-19,22.5718,120.3117,0.5890807
C1F941,雪嶺,2025-05-19,24.280586,121.026642,0.005746777
C2H9E0,國姓南港,2025-05-19,23.911108,120.846556,0.45325434
C0AC80,文山,2025-05-19,25.00235,121.575728,0.9699814
C0F9R0,龍井,2025-05-19,24.184536,120.528972,0.7152309
C0M760,民雄,2025-05-19,23.551754,120.428457,0.08836403
C0UA40,西德山,2025-05-19,24.560647,121.752608,0.7024969
C1T920,中興,2025-05-19,23.769503,121.498653,0.03134035
C0D550,雪霸,2025-05-19,24.526972,121.11605,0.06221912
C2F860,梨山,2025-05-19,24.247522,121.243669,0.028183088
C0R320,車城,2025-05-19,22.0744,120.716247,0.03940006
C1S870,南美山,2025-05-19,23.15025,121.382333,0.025078982
C0B020,基隆嶼,2025-05-19,25.19141,121.78391,0.9427837
C1U501,牛鬥,2025-05-19,24.637836,121.573656,0.9918313
C0M730,嘉義市東區,2025-05-19,23.457673,120.460531,0.097190835
C0S700,知本,2025-05-19,22.684866,121.005642,0.96780205
C1N001,沙崙,2025-05-19,22.935472,120.309406,0.25193113
C0V760,橋頭,2025-05-19,22.757806,120.30575,0.5932431
C0G960,福寶,2025-05-19,24.0443,120.3814,0.400094
C0X210,白河,2025-05-19,23.347466,120.414427,0.10816012
C0S810,東河,2025-05-19,22.972672,121.303986,0.010142727
C2R170,屏東,2025-05-19,22.66027,120.49403,0.33383724
C0R670,楓港,2025-05-19,22.190131,120.692156,0.21525073
C0FA50,霧峰,2025-05-19,24.0419,120.6995,0.9214325
C0UB10,蘇澳,2025-05-19,24.5969,121.8571,0.022862058
C0G950,防潮門,2025-05-19,24.1835,120.4871,0.7007487
C0M740,六腳,2025-05-19,23.492871,120.290625,0.059931844
C1R250,力里,2025-05-19,22.428117,120.629228,0.8170144
C0K330,虎尾,2025-05-19,23.719183,120.442036,0.33221307
C2FA00,烏石坑,2025-05-19,24.273503,120.947617,0.6191628
C0V620,永安,2025-05-19,22.82315,120.236856,0.67715394
C1I330,楓樹林,2025-05-19,23.986803,121.076117,0.41308662
C0W200,湖西,2025-05-19,23.596314,119.67275,0.9728881
72Q010,高雄農改場,2025-05-19,22.709333,120.525889,0.35315344
C0SA40,瑞和,2025-05-19,22.974361,121.156697,0.023192642
C0C680,龜山,2025-05-19,25.02846,121.38656,0.983657
C2V260,月眉,2025-05-19,22.971003,120.539853,0.3290938
C0V450,鳳森,2025-05-19,22.545064,120.392592,0.6851205
C0U720,南山,2025-05-19,24.43742,121.38167,0.72821283
A2N290,臺南蘭花園區,2025-05-19,23.340258,120.379661,0.07724009
C0R560,新園,2025-05-19,22.5434,120.461558,0.56728786
C0U890,三星,2025-05-19,24.66812,121.65302,0.894924
C1V300,御油山,2025-05-19,23.001983,120.715364,0.038100872
C0U600,礁溪,2025-05-19,24.817539,121.765608,0.5227808
C1T980,龍澗,2025-05-19,24.023289,121.411328,0.5569528
C0D670,海天一線,2025-05-19,24.831986,120.914438,0.9045464
C0SA00,歷坵,2025-05-19,22.520969,120.89185,0.95733696
C0M710,東石,2025-05-19,23.458927,120.15385,0.06295884
C0M780,鹿草,2025-05-19,23.41134,120.30835,0.06579171
C0U520,雙連埤,2025-05-19,24.753033,121.641303,0.8881247
C0B010,七堵,2025-05-19,25.094819,121.71713,0.96081656
C0R480,長治,2025-05-19,22.693128,120.542622,0.3314836
C1V830,國三S383K,2025-05-19,22.781967,120.426475,0.36487195
12Q980,恆春工作站,2025-05-19,22.079678,120.714425,0.039546613
C1O940,東山服務區,2025-05-19,23.286016,120.398472,0.11107256
C1U840,東澳嶺,2025-05-19,24.5378,121.8485,0.87636125
C1D630,飛鳳山,2025-05-19,24.766464,121.119178,0.98990506
C0S940,石寧山,2025-05-19,23.223772,121.406639,0.053133175
C0K410,北港,2025-05-19,23.573957,120.292802,0.056429617
C2M620,瑞里,2025-05-19,23.545133,120.675197,0.5839759
C0SB70,小港漁港,2025-05-19,23.158558,121.400431,0.011993465
C2O950,安南,2025-05-19,23.076694,120.144861,0.12251777
C0F0E0,南湖圈谷,2025-05-19,24.363714,121.444667,0.00028708362
467610,成功,2025-05-19,23.097486,121.373428,0.0076615596
C0G890,伸港,2025-05-19,24.148933,120.484403,0.7505585
C2E540,龍溪,2025-05-19,24.606489,120.783933,0.84674394
C1V200,梅山,2025-05-19,23.268447,120.823556,0.88870144
C0T9H0,加路蘭山,2025-05-19,23.682947,121.5274,0.06775286
C2O930,玉井,2025-05-19,23.126042,120.46055,0.1158203
C1F911,新伯公,2025-05-19,24.221361,120.841069,0.9932529
C0R490,九如,2025-05-19,22.7405,120.490503,0.34644854
C0X200,左鎮,2025-05-19,23.056758,120.408522,0.61665237
C0SB50,叭嗡嗡,2025-05-19,23.047062,121.343223,0.011397087
C1F891,稍來,2025-05-19,24.265689,121.001142,0.02439733
72N240,七股研究中心,2025-05-19,23.081672,120.062894,0.071458
C0C700,中壢,2025-05-19,24.977661,121.256375,0.9901159
C0M690,水上,2025-05-19,23.419734,120.388909,0.06631132
C0V690,鼓山,2025-05-19,22.623325,120.275575,0.5974058
C0O860,大內,2025-05-19,23.11885,120.36083,0.20669766
C0Z200,萬榮,2025-05-19,23.709219,121.420106,0.039832294
C0T9D0,和中,2025-05-19,24.26676,121.74103,0.025566598
C1O921,楠西,2025-05-19,23.183511,120.484083,0.12895334
C0AJ30,淡水觀海,2025-05-19,25.184591,121.408616,0.8814192
C0V810,左營,2025-05-19,22.67491,120.28491,0.6824412
C0UA70,桃源谷,2025-05-19,24.962606,121.888875,0.89683497
C0X130,官田,2025-05-19,23.193217,120.315422,0.09437326
C1H000,翠峰,2025-05-19,24.109397,121.205211,0.010115347
C0UA90,石城,2025-05-19,24.980444,121.951214,0.51424116
C1E681,南勢山,2025-05-19,24.421669,120.923831,0.8206429
C0A9F0,內湖,2025-05-19,25.079422,121.57545,0.91486216
C0K291,宜梧,2025-05-19,23.536281,120.169329,0.052257475
C1K540,口湖,2025-05-19,23.585344,120.180517,0.052104242
C0R780,滿州,2025-05-19,22.024403,120.839892,0.041370865
C0V870,文安,2025-05-19,22.8025,120.2164,0.66756374
C0U650,玉蘭,2025-05-19,24.675286,121.587061,0.9500267
C0R640,東港,2025-05-19,22.46247,120.44074,0.70410395
C0AJ80,板橋,2025-05-19,25.0107,121.4489,0.926131
C0S660,下馬,2025-05-19,23.150427,121.070312,0.85662276
C1H9B1,阿眉,2025-05-19,24.1263,120.994672,0.23125231
C0UA20,多加屯,2025-05-19,24.368614,121.373189,0.0029052263
C0E730,頭份,2025-05-19,24.688247,120.912206,0.95127714
72V140,高改旗南分場,2025-05-19,22.857861,120.516667,0.28314295
C0K480,莿桐,2025-05-19,23.761192,120.502372,0.20713182
C0U980,坪林石牌,2025-05-19,24.86478,121.77396,0.83268535
C0T900,西林,2025-05-19,23.8119,121.441458,0.08454457
C1I150,青雲,2025-05-19,23.793361,120.949378,0.91012555
467350,澎湖,2025-05-19,23.565503,119.563094,0.9585749
C0G800,埔鹽,2025-05-19,24.000394,120.431683,0.4029896
C0H960,草屯,2025-05-19,23.973672,120.68085,0.95131713
C1V780,多納林道,2025-05-19,22.888028,120.737917,0.62567264
C0E920,通霄漁港,2025-05-19,24.498589,120.673876,0.6541371
C0Z330,安通山,2025-05-19,23.290728,121.348528,0.9393912
C0AH10,永和,2025-05-19,25.01125,121.508111,0.9196469
C0AK10,太平里,2025-05-19,25.134937,121.364899,0.9199622
C2G640,鹿港,2025-05-19,24.0753,120.430481,0.40480933
C1E890,國三N149K,2025-05-19,24.463414,120.680019,0.9728528
C1R110,口社,2025-05-19,22.770111,120.645222,0.556842
C1M870,國三N285K,2025-05-19,23.550319,120.505833,0.72940457
C1E480,鳳美,2025-05-19,24.554803,121.034747,0.9713224
C0M530,奮起湖,2025-05-19,23.493903,120.699253,0.43025008
C0C590,觀音,2025-05-19,25.027072,121.153317,0.98978174
C0T9M0,靜浦,2025-05-19,23.455167,121.495028,0.022721613
C2H9M0,發祥,2025-05-19,24.154094,121.164517,0.6533639
C0AI40,石牌,2025-05-19,25.115597,121.513139,0.90691006
C1F871,上谷關,2025-05-19,24.203483,121.018644,0.5857521
C2H9G0,百勝,2025-05-19,24.051142,120.909361,0.9913084
C0G880,二水,2025-05-19,23.810742,120.6173,0.42310697
C0R940,加祿堂,2025-05-19,22.3363,120.6217,0.3663865
C0W220,北竿,2025-05-19,26.220358,119.974881,0.9259161
C0O960,崎頂,2025-05-19,22.959547,120.369317,0.40346378
C0S750,向陽,2025-05-19,23.248397,120.986133,0.00685232
C0T9F0,水璉,2025-05-19,23.797131,121.542514,0.3308311
C1M600,頭凍,2025-05-19,23.406364,120.603339,0.8227672
467660,臺東,2025-05-19,22.752211,121.154586,0.048964288
C1D380,新埔,2025-05-19,24.84745,121.03834,0.99247664
C2G980,田頭村,2025-05-19,23.8263,120.444175,0.23222066
C0V750,路竹,2025-05-19,22.854997,120.259439,0.66380304
C0N050,蚵寮,2025-05-19,23.301,120.1104,0.101555444
72M700,南改鹿草分場,2025-05-19,23.416869,120.283061,0.06294124
C1SA50,利嘉林道,2025-05-19,22.82325,121.009389,0.38797078
C0A940,金山,2025-05-19,25.223628,121.643967,0.94953376
C1V340,大津,2025-05-19,22.888322,120.645986,0.6250868
C0W180,七美,2025-05-19,23.219333,119.444892,0.931671
C1F9C1,白冷,2025-05-19,24.182844,120.929889,0.9388609
K2E710,苗改生物防治研究中心,2025-05-19,24.422861,120.871833,0.97818977
C0N040,蘆竹溝,2025-05-19,23.2344,120.0961,0.08926535
C2W230,畜試所澎湖,2025-05-19,23.628342,119.513206,0.9692273
C0R880,後壁湖,2025-05-19,21.9457,120.7457,0.029538766
C1I280,埔中,2025-05-19,23.820778,120.642594,0.8900515
467790,墾丁雷達站,2025-05-19,21.948235,120.808028,0.03712357
C0W190,望安,2025-05-19,23.380564,119.494075,0.9682495
C0Z170,卓溪,2025-05-19,23.3443,121.3029,0.03691672
C0F850,東勢,2025-05-19,24.246428,120.833047,0.99418616
466900,淡水,2025-05-19,25.164889,121.448906,0.92126256
C0I370,魚池,2025-05-19,23.895703,120.94135,0.98232096
C0C630,大溪,2025-05-19,24.882853,121.265547,0.9912039
C0A520,山佳,2025-05-19,24.974944,121.402008,0.93998724
C0I110,竹山,2025-05-19,23.761225,120.688156,0.6516976
82H840,茶改南部分場,2025-05-19,23.762528,120.7405,0.9820255
C0G660,溪湖,2025-05-19,23.94835,120.479122,0.3287741
C1T800,洛韶,2025-05-19,24.204558,121.453956,0.53598565
C1T810,慈恩,2025-05-19,24.192044,121.388386,0.08795524
C1E451,象鼻,2025-05-19,24.368617,120.940228,0.790446
C0AC60,三峽,2025-05-19,24.939025,121.369728,0.98244524
C0I490,萬大林道,2025-05-19,23.928228,121.091411,0.02263839
C1I290,豐丘,2025-05-19,23.668178,120.887417,0.7267011
C1I320,奧萬大,2025-05-19,23.952956,121.178556,0.3698345
C2M910,嘉義大學,2025-05-19,23.471325,120.485903,0.37555197
C0U770,南澳,2025-05-19,24.44935,121.81022,0.033848036
C0A980,社子,2025-05-19,25.109508,121.469681,0.8963426
C0V800,六龜,2025-05-19,22.997889,120.633583,0.60721487
C1G9D0,國一S218K,2025-05-19,23.890641,120.493253,0.40792418
C0E570,白沙屯,2025-05-19,24.549447,120.696803,0.8015772
C2F9A0,中竹林,2025-05-19,24.103556,120.751061,0.9856659
C0FA40,臺中電廠,2025-05-19,24.2146,120.4907,0.7178211
C2G9A0,畜試所彰化,2025-05-19,23.86045,120.557964,0.18579936
C0H9C0,合歡山,2025-05-19,24.143442,121.272547,0.00066407037
C0X060,下營,2025-05-19,23.22695,120.256261,0.07406608
G2M350,農試溪口農場,2025-05-19,23.58565,120.408111,0.08023351
C0U860,頭城,2025-05-19,24.85323,121.8308,0.4569427
C0R580,南州,2025-05-19,22.48591,120.50274,0.70410395
C0D430,峨眉,2025-05-19,24.6905,121.017189,0.99336016
C0G780,秀水,2025-05-19,24.03405,120.503869,0.35341352
72N100,臺南農改場,2025-05-19,23.0605,120.342194,0.21691771
C0S900,蘭嶼高中,2025-05-19,22.04909,121.51214,0.048127294
C1F9W0,德基,2025-05-19,24.254783,121.190261,0.0155532025
C1Z120,壽豐,2025-05-19,23.870853,121.508081,0.029069735
C0W160,烏坵,2025-05-19,24.9944,119.44956,0.92548925
C1I240,外大坪,2025-05-19,23.958697,120.917931,0.9255753
C1I550,國六W023K,2025-05-19,23.979067,120.867742,0.9851827
C0R870,興海,2025-05-19,21.9752,120.8439,0.029969735
C0R140,瑪家,2025-05-19,22.682903,120.686639,0.97452784
C0A530,坪林,2025-05-19,24.938183,121.70975,0.9872401
C0X260,後壁,2025-05-19,23.366358,120.362326,0.09912522
C0Z230,和平,2025-05-19,24.30717,121.77007,0.025046665
C0G770,福興,2025-05-19,24.041289,120.437669,0.39661533
C0H9A0,神木村,2025-05-19,23.532742,120.843667,0.24785563
C0I460,南投,2025-05-19,23.911469,120.687331,0.9138165
C0I480,梅峰,2025-05-19,24.085272,121.173572,0.044691958
C1V570,吉東,2025-05-19,22.85422,120.5454,0.30907795
C2D740,屯原,2025-05-19,24.067969,121.209389,0.0133484835
C2A560,福山,2025-05-19,24.776203,121.502811,0.96677625
C0AH30,五分山,2025-05-19,25.07125,121.780794,0.9074219
C0FA10,松柏,2025-05-19,24.429115,120.617482,0.749063
72S200,東改班鳩分場,2025-05-19,22.829528,121.077694,0.07905737
72HA00,中改埔里分場,2025-05-19,23.903208,120.963364,0.98723274
C2H9W0,大坪頂農水,2025-05-19,24.043122,120.932781,0.9435871
C0C650,平鎮,2025-05-19,24.897503,121.214636,0.98820794
C0S930,延平,2025-05-19,22.902581,121.084058,0.027203415
C0UA60,樟樹山,2025-05-19,24.41393,121.78325,0.9165264
C1S670,摩天,2025-05-19,23.199503,121.027,0.22873965
C0V630,茄萣,2025-05-19,22.906642,120.182608,0.31192863
466940,基隆,2025-05-19,25.133314,121.740475,0.9375987
C0X050,東河,2025-05-19,23.296598,120.385608,0.10348006
C0R770,保力,2025-05-19,22.071122,120.764111,0.044003233
G2L020,農試嘉義分所,2025-05-19,23.485028,120.473806,0.4631217
C0X240,關子嶺,2025-05-19,23.331169,120.508025,0.9207319
C0I380,集集,2025-05-19,23.828206,120.801467,0.47279826
466990,花蓮,2025-05-19,23.975128,121.613275,0.04863322
C1V220,小關山,2025-05-19,23.154217,120.813603,0.029273812
C1F9G1,慶福山,2025-05-19,24.180853,120.848378,0.89210844
C0Z250,瑞穗林道,2025-05-19,23.49284,121.30688,0.77498513
C0D590,新豐,2025-05-19,24.87068,120.97721,0.9937149
C0A870,五指山,2025-05-19,25.132153,121.608692,0.6858109
C0UA50,西帽山,2025-05-19,24.555361,121.802628,0.87880933
C0X160,仁德,2025-05-19,22.968258,120.257689,0.31307626
C1H971,六分寮,2025-05-19,23.92507,120.6378,0.9837376
C0W120,西嶼,2025-05-19,23.5626,119.468436,0.9600712
C0G650,員林,2025-05-19,23.946503,120.585597,0.32774183
C0AD50,鶯歌,2025-05-19,24.951533,121.346294,0.98661804
C2H9Q0,北東眼山,2025-05-19,24.120939,121.189303,0.009870625
C2H9T0,名間竹圍,2025-05-19,23.859914,120.637572,0.61114514
C0S990,山豬窟,2025-05-19,22.318619,120.857372,0.82430905
C0X190,安平,2025-05-19,22.993161,120.152181,0.18019511
C0K400,斗六,2025-05-19,23.720583,120.541127,0.31436318
12J990,口湖工作站,2025-05-19,23.589978,120.180394,0.05266566
C0O830,北寮,2025-05-19,23.079561,120.495008,0.321115
C1D410,白蘭,2025-05-19,24.579364,121.079947,0.47564793
C0S970,加津林,2025-05-19,22.416211,120.926942,0.0606315
C0D700,關西,2025-05-19,24.7977,121.1732,0.99382025
C0M810,里佳,2025-05-19,23.389125,120.716647,0.37791744
C0U750,龜山島,2025-05-19,24.841667,121.953133,0.8619177
C0R810,內獅,2025-05-19,22.305064,120.642986,0.36110848
C1M390,龍美,2025-05-19,23.406728,120.654417,0.67773694
C2FB60,頭櫃山,2025-05-19,24.129842,120.858925,0.6139625
C1H840,國三N238K,2025-05-19,23.841008,120.707711,0.42934683
CAQ030,崎峰國小,2025-05-19,22.42565,120.49521,0.70410395
C2E520,大湖,2025-05-19,24.414939,120.870872,0.988423
467530,阿里山,2025-05-19,23.508208,120.813242,0.002235915
C1E691,南湖,2025-05-19,24.40135,120.837533,0.9232972
C0FA30,梧棲,2025-05-19,24.256003,120.523381,0.72746
C1V231,高中,2025-05-19,23.134911,120.716711,0.9540234
C0AK30,硬漢嶺,2025-05-19,25.136097,121.426372,0.79083925
C0F9V0,新社,2025-05-19,24.200172,120.815806,0.98794246
C0H890,埔里,2025-05-19,23.972169,120.952425,0.99385995
C0R690,墾丁,2025-05-19,21.966756,120.810269,0.31452858
C0F0D0,審馬陣,2025-05-19,24.381675,121.4203,0.00045264326
C2W030,金門農試所,2025-05-19,24.448431,118.451786,0.9774541
C0R820,白鷺,2025-05-19,22.454275,120.666219,0.9758125
C1V190,南天池,2025-05-19,23.27403,120.91176,0.002778962
K2E360,苗栗農改場,2025-05-19,24.495722,120.829111,0.99194694
CAJ050,海口故事園區,2025-05-19,23.57543,120.14121,0.05240483
C2H9D0,三隻寮,2025-05-19,24.093078,120.861578,0.9329572
C0O990,媽廟,2025-05-19,22.99175,120.293525,0.24706504
C0D480,打鐵坑,2025-05-19,24.849664,121.150789,0.9879427
C0Z220,和平林道,2025-05-19,24.343922,121.656317,0.9168573
C0TA10,花蓮漁港,2025-05-19,23.995322,121.638331,0.045973644
72C440,桃園農改場,2025-05-19,24.950944,121.030583,0.98520666
C1E711,馬拉邦山,2025-05-19,24.367306,120.901656,0.5727782
C0SB20,富岡,2025-05-19,22.792467,121.192669,0.02667778
C0D560,竹東,2025-05-19,24.767147,121.057881,0.99470025
C0F9U0,南屯,2025-05-19,24.137006,120.637969,0.55048704
C0M720,番路,2025-05-19,23.464657,120.554156,0.41718978
C0F0A0,雪山圈谷,2025-05-19,24.388594,121.236339,0.00036444343
C1A9N0,四十份,2025-05-19,24.934158,121.593283,0.9884115
C0U760,東澳,2025-05-19,24.52196,121.83318,0.034376476
C0X230,鹽水,2025-05-19,23.272621,120.247641,0.10511969
C2H9H0,苗改南投蜂場,2025-05-19,23.852589,120.693481,0.55969995
C0R950,萬隆國小,2025-05-19,22.507667,120.587817,0.746666
467540,大武,2025-05-19,22.35572,120.90374,0.05485737
C0V370,古亭坑,2025-05-19,22.893178,120.401947,0.54287344
C1I340,新興橋,2025-05-19,23.563333,120.868728,0.8818064
C0SA80,土坂,2025-05-19,22.453108,120.887572,0.13184114
C0R160,鹽埔,2025-05-19,22.739558,120.530778,0.35792303
C0AC40,大屯山,2025-05-19,25.175675,121.522408,0.074262485
466850,五分山雷達站,2025-05-19,25.071182,121.781205,0.8939248
C2H9L0,馬烈霸,2025-05-19,24.1512,121.201772,0.011212886
C1AI50,國三N016K,2025-05-19,25.034164,121.619664,0.96145564
C1V600,藤枝,2025-05-19,23.071961,120.757042,0.1260175
C1E601,南勢,2025-05-19,24.572486,120.734842,0.9907035
C0O980,新市,2025-05-19,23.061614,120.298197,0.18683185
C0K420,西螺,2025-05-19,23.800407,120.467394,0.2534867
C0Z050,佳心,2025-05-19,23.34567,121.21316,0.7723272
C0AD30,蘆洲,2025-05-19,25.086594,121.472331,0.9034868
C0V610,梓官,2025-05-19,22.760558,120.267211,0.59100145
K2F750,種苗改良場,2025-05-19,24.225972,120.800917,0.9925379
C0UA80,大溪漁港,2025-05-19,24.941801,121.902955,0.39708066
C1AI60,國一39K邊坡,2025-05-19,25.064361,121.383836,0.9792214
C0W150,金寧,2025-05-19,24.457703,118.328989,0.9768894
C0R960,內埔,2025-05-19,22.608483,120.570714,0.63947076
V2C250,八德合作社,2025-05-19,24.93775,121.266389,0.990597
C2H9S0,龍南,2025-05-19,23.953536,120.833183,0.66591597
C0AH40,平等,2025-05-19,25.129142,121.577086,0.9776787
C0R540,佳冬,2025-05-19,22.419456,120.552375,0.6120579
466950,彭佳嶼,2025-05-19,25.627975,122.079744,0.9131798
C0A890,雙溪,2025-05-19,25.036003,121.864242,0.9802896
C0C480,桃園,2025-05-19,24.992425,121.323172,0.9894345
C0AH50,林口,2025-05-19,25.072181,121.38084,0.98442703
A2K360,水試臺西試驗場,2025-05-19,23.717231,120.190522,0.3428408
C2M960,外寮,2025-05-19,23.562643,120.665688,0.8111149
C0F9S0,烏日,2025-05-19,24.107058,120.624103,0.4245027
C0C490,八德,2025-05-19,24.928708,121.283289,0.9905754
C0R190,赤山,2025-05-19,22.592333,120.614306,0.65646267
C0T820,天祥,2025-05-19,24.179597,121.495639,0.9080849
C1F9E1,龍安,2025-05-19,24.1605,120.831961,0.9731233
C0V820,小林,2025-05-19,23.148408,120.63325,0.96266973
C2G870,芳苑,2025-05-19,23.922303,120.320025,0.29439148
C0E850,大河,2025-05-19,24.618069,120.948578,0.98879725
C1U670,寒溪,2025-05-19,24.634,121.71691,0.85971856
C0N020,城西,2025-05-19,23.0568,120.0956,0.105352536
C1Z110,三棧,2025-05-19,24.11557,121.60501,0.050783128
C0R280,檳榔,2025-05-19,22.076078,120.836777,0.3563904
C2H9J0,中台,2025-05-19,23.9996,120.938739,0.9907011
C0F9L0,后里,2025-05-19,24.310436,120.729725,0.8687385
467441,高雄,2025-05-19,22.730432,120.312516,0.60561043
C0Z180,新城,2025-05-19,24.040486,121.604878,0.051909097
C0D540,橫山,2025-05-19,24.71116,121.11693,0.99424523
C1D420,太閣南,2025-05-19,24.632808,121.160575,0.76050115
C1E770,公館,2025-05-19,24.526914,120.830806,0.98651433
CAN130,水試所海水繁養殖中心,2025-05-19,23.120802,120.07968,0.07228913
C1I430,翠華,2025-05-19,24.191961,121.224339,0.012405154
C1M400,菜瓜坪,2025-05-19,23.251928,120.576103,0.9616892
C0G730,二林,2025-05-19,23.903325,120.376081,0.35362232
72M360,南改義竹分場,2025-05-19,23.360694,120.279361,0.08461129
V2K620,麥寮合作社,2025-05-19,23.753836,120.294783,0.36203796
C0Z070,舞鶴,2025-05-19,23.46811,121.37407,0.09775129
C0B040,大武崙,2025-05-19,25.166676,121.706993,0.96744967
C1Z030,紅葉,2025-05-19,23.493119,121.338806,0.060073096
C1I050,丹大,2025-05-19,23.753747,121.141147,0.004184932
C0I080,信義,2025-05-19,23.689694,120.851036,0.9888372
C2M920,朴子農改,2025-05-19,23.469889,120.259383,0.06135446
C2A880,福隆,2025-05-19,25.017842,121.942083,0.46944526
C0Z160,鳳林,2025-05-19,23.746114,121.453411,0.030099606
C0V210,復興,2025-05-19,23.222403,120.806089,0.9367955
C0H990,昆陽,2025-05-19,24.121322,121.273642,0.0010787551
C0R741,獅子,2025-05-19,22.202308,120.705236,0.30403864
C0S710,鹿野,2025-05-19,22.917711,121.122994,0.33844098
C0I530,小奇萊,2025-05-19,24.131764,121.295717,0.0009158865
C2K630,荷苞,2025-05-19,23.657717,120.595144,0.87789375
C0Z080,富源,2025-05-19,23.587642,121.378225,0.13852279
C0SB10,美和,2025-05-19,22.682078,121.060236,0.01901607
C2K620,馬光農場,2025-05-19,23.721453,120.378864,0.2969409
C1I140,卡奈托灣,2025-05-19,23.754364,121.087872,0.13474666
C0I520,玉山風口,2025-05-19,23.470489,120.955994,0.00029185408
C1G691,下水埔,2025-05-19,23.816114,120.5676,0.24062076
C0X110,臺南市南區,2025-05-19,22.961189,120.188378,0.30778992
C0V680,仁武,2025-05-19,22.701083,120.347722,0.6865912
C2G840,北斗,2025-05-19,23.877586,120.514222,0.42787552
C0R900,竹坑,2025-05-19,22.1385,120.7022,0.24805853
C0K250,崙背,2025-05-19,23.75555,120.318925,0.37532887
C0G860,社頭,2025-05-19,23.897647,120.5862,0.35587108
C0X150,安定,2025-05-19,23.102614,120.227839,0.11713429
C0R590,里港,2025-05-19,22.77919,120.49459,0.254852
C0E610,馬都安,2025-05-19,24.451272,120.930192,0.8961699
C0E550,明德,2025-05-19,24.583486,120.885411,0.98336565
C0R150,三地門,2025-05-19,22.709889,120.639944,0.54412264
C0G910,花壇,2025-05-19,24.032076,120.549461,0.39174634
C1D400,鳥嘴山,2025-05-19,24.71909,121.28387,0.8664879
C0K500,元長,2025-05-19,23.64981,120.315024,0.35642266
C0F0B0,石岡,2025-05-19,24.276061,120.777644,0.94645
C2V250,甲仙,2025-05-19,23.080106,120.591758,0.6441356
C0SA20,金崙山,2025-05-19,22.567419,120.959667,0.56343204
C0V350,溪埔,2025-05-19,22.738578,120.446797,0.2789149
C0M660,溪口,2025-05-19,23.604131,120.403569,0.080730565
C1S880,壽卡,2025-05-19,22.238911,120.858903,0.9578074
72D680,桃改新埔分場,2025-05-19,24.834444,121.066111,0.99208796
