站號,站名,日期,lat,lon,BLBTSLS
C0R710,龍磐,2025-04-21,21.931672,120.838942,4.701659e-06
C1F9D1,白毛台,2025-04-21,24.158325,120.886933,3.7847727e-08
C0G940,竹塘,2025-04-21,23.848253,120.386764,0.00094665255
467590,恆春,2025-04-21,22.003897,120.746339,5.083946e-06
C1O850,環湖,2025-04-21,23.148617,120.418633,0.9997395
C0U710,太平山,2025-04-21,24.505486,121.525656,3.4827259e-09
C0E820,獅潭,2025-04-21,24.539133,120.920042,2.425639e-07
C0V880,興達,2025-04-21,22.8778,120.2127,0.9996934
C0S890,關山,2025-04-21,23.0395,121.175017,6.6178224e-08
C0SB30,新蘭,2025-04-21,22.869214,121.223228,0.0022174288
C2R970,屏科大,2025-04-21,22.648275,120.619247,3.9630163e-07
C1Z130,銅門,2025-04-21,23.965694,121.492842,2.7783308e-08
C0AD40,土城,2025-04-21,24.973208,121.445169,3.0972638e-09
CAN140,六官養殖協會,2025-04-21,23.22881,120.29962,0.9998507
C0X180,山上,2025-04-21,23.0757,120.363253,0.99977326
C0F9Z0,雪山東峰,2025-04-21,24.388792,121.268675,3.4527197e-08
C1M480,獨立山,2025-04-21,23.537022,120.607797,1.8515608e-09
C0X220,學甲,2025-04-21,23.230367,120.182187,0.9994607
467650,日月潭,2025-04-21,23.881325,120.90805,2.691894e-09
C0K600,箔子寮,2025-04-21,23.6197,120.14,0.009021994
C0G830,埤頭,2025-04-21,23.866003,120.452806,0.00035287265
C0S950,七塊厝,2025-04-21,22.954453,121.229922,2.7612247e-08
467110,金門,2025-04-21,24.407306,118.289281,4.7745714e-09
C0AH80,深坑,2025-04-21,25.002703,121.628328,2.9088554e-09
C0A970,三貂角,2025-04-21,25.007606,122.002058,3.5262198e-09
C2D730,寶山農場,2025-04-21,24.732444,120.976153,6.778753e-08
C0K430,褒忠,2025-04-21,23.690938,120.303634,0.995739
467480,嘉義,2025-04-21,23.495925,120.432906,0.9745389
C0V400,阿公店,2025-04-21,22.804194,120.355528,0.9998794
467550,玉山,2025-04-21,23.48718,120.95943,3.3202706e-08
C0R440,大漢山,2025-04-21,22.405264,120.753181,3.2683254e-09
C0K280,四湖,2025-04-21,23.630414,120.227125,0.04314621
C1F9B1,桐林,2025-04-21,24.066172,120.735194,0.02044323
C2H9U0,鳳鵬,2025-04-21,23.763919,120.788061,8.614456e-09
C0K390,土庫,2025-04-21,23.679029,120.395574,0.27316606
C1I450,望鄉山,2025-04-21,23.594153,120.944286,1.5235269e-08
C0E910,海埔,2025-04-21,24.648767,120.772435,9.805368e-06
B2E890,畜試北區分所,2025-04-21,24.527806,120.770972,5.614528e-05
C0R750,四林格山,2025-04-21,22.076989,120.802439,2.0179702e-07
C0F0C0,中坑,2025-04-21,24.248517,120.903319,3.071299e-08
C1I121,大鞍,2025-04-21,23.678381,120.760017,3.189918e-09
72U480,花改蘭陽分場,2025-04-21,24.686306,121.716583,2.2333337e-07
C0A770,科教館,2025-04-21,25.096356,121.516507,2.5379427e-09
C0AJ60,六塊厝,2025-04-21,25.24,121.4481,3.5637866e-09
C0R620,墾雷,2025-04-21,21.900836,120.855269,2.3308707e-05
467420,永康,2025-04-21,23.038386,120.2367,0.99980444
C0I410,名間,2025-04-21,23.837053,120.701447,1.3348052e-05
A2C560,農工中心,2025-04-21,24.985917,121.239833,4.3329837e-09
C0V740,旗山,2025-04-21,22.888614,120.483597,0.999753
C0Z061,玉里,2025-04-21,23.3215,121.339656,2.06833e-08
C0S840,南田,2025-04-21,22.279725,120.889208,4.8187438e-08
C1I470,杉林溪,2025-04-21,23.639517,120.786444,3.891247e-09
C1X040,東原,2025-04-21,23.291597,120.463822,2.3369383e-07
C0R660,枋寮,2025-04-21,22.367722,120.590647,6.179682e-05
C1R120,上德文,2025-04-21,22.763272,120.704442,6.0544375e-10
C0K450,大埤,2025-04-21,23.646074,120.431537,0.28091118
C0UA00,土場,2025-04-21,24.576533,121.495333,2.7392896e-05
467080,宜蘭,2025-04-21,24.763975,121.756528,1.8287052e-07
C0N030,四草,2025-04-21,23.0235,120.1116,0.999746
467410,臺南,2025-04-21,22.99328,120.20492,0.9997836
C0V650,彌陀,2025-04-21,22.783806,120.246361,0.9998025
C0D660,新竹市東區,2025-04-21,24.798681,120.986942,4.855732e-08
82S580,茶改東部分場,2025-04-21,22.907694,121.130139,1.6403777e-05
C0SB40,興隆,2025-04-21,22.913661,121.257469,0.0012411507
467050,新屋,2025-04-21,25.006725,121.047492,5.4765685e-09
C0C710,大溪永福,2025-04-21,24.892936,121.324975,4.061613e-09
C0FA20,溫寮,2025-04-21,24.372177,120.583125,0.056760013
C0V640,湖內,2025-04-21,22.887139,120.2445,0.99967283
C0R910,下寮,2025-04-21,22.3929,120.5548,6.216403e-05
C0Z020,明里,2025-04-21,23.208717,121.262342,3.893387e-08
C0M770,嘉義梅山,2025-04-21,23.585398,120.555587,0.9175957
C0C660,楊梅,2025-04-21,24.912375,121.143047,3.3195153e-09
C1E511,新開,2025-04-21,24.347703,120.827019,8.076858e-06
G2F820,農試所(霧峰),2025-04-21,24.031261,120.688133,0.95528585
C1I070,和社,2025-04-21,23.591131,120.888861,1.4858623e-09
C2F000,大肚,2025-04-21,24.15295,120.572117,1.9309354e-08
C1S850,豐南,2025-04-21,23.122139,121.262389,3.4094672e-09
C2A920,富貴角,2025-04-21,25.263783,121.565258,2.921923e-09
CAH030,茶改場竹圍站,2025-04-21,23.860083,120.637528,4.6331663e-09
C0T960,光復,2025-04-21,23.660694,121.424964,4.436812e-09
C0F9M0,豐原,2025-04-21,24.254322,120.720692,0.36146817
C0R720,旭海,2025-04-21,22.205403,120.887614,1.6973418e-09
C0V710,苓雅,2025-04-21,22.622742,120.330669,0.9998052
C0C740,觀音工業區,2025-04-21,25.064764,121.114856,7.699152e-09
CAC040,拉拉山,2025-04-21,24.699317,121.427133,8.154354e-09
C0V790,萬山,2025-04-21,22.905944,120.688056,6.471772e-09
U2HA30,臺大和社,2025-04-21,23.590856,120.888864,1.4858623e-09
C0AJ90,澳底,2025-04-21,25.0552,121.9253,5.0374727e-09
C0Z100,東華,2025-04-21,23.89525,121.549833,5.610927e-08
C0G970,三豐,2025-04-21,23.882,120.2895,2.1585832e-07
V2K610,大庄合作社,2025-04-21,23.8068,120.367939,0.9234637
C0V900,汕尾,2025-04-21,22.4782,120.4151,1.1608605e-05
C1R630,龍泉,2025-04-21,22.66701,120.59091,1.0731787e-06
C1AC50,關渡,2025-04-21,25.133486,121.469331,3.07336e-09
C0F9I0,神岡,2025-04-21,24.272481,120.658314,0.77902675
C0K460,斗南,2025-04-21,23.678734,120.478359,0.20997724
C2O810,曾文,2025-04-21,23.219681,120.497328,1.5425495e-07
467280,後龍,2025-04-21,24.648563,120.831834,6.478644e-06
C1F9J1,清水林,2025-04-21,24.071242,120.820419,2.9648135e-09
C2A650,火燒寮,2025-04-21,25.002719,121.742892,2.5422062e-09
466930,竹子湖,2025-04-21,25.162078,121.544547,2.517568e-09
C1I220,樟湖,2025-04-21,23.905333,120.846983,3.383173e-09
C0I390,仁愛,2025-04-21,24.022122,121.132206,4.6265964e-09
C0Z300,東里,2025-04-21,23.26853,121.30547,7.3104665e-08
C1V590,新發,2025-04-21,23.057019,120.646064,5.816191e-10
C0K510,水林,2025-04-21,23.572924,120.24597,0.092576966
72S590,東改賓朗果園,2025-04-21,22.813889,121.071278,2.805867e-07
82A750,茶改北部分場,2025-04-21,24.955778,121.631222,2.2226827e-09
C1A750,石碇服務區,2025-04-21,25.00872,121.646242,2.5872984e-09
C0X300,鹿寮,2025-04-21,23.386047,120.477331,0.9998263
G2AI50,關渡,2025-04-21,25.11575,121.492,5.7427565e-09
C0K590,雲林東勢,2025-04-21,23.674192,120.255721,0.86022705
C0A570,桶後,2025-04-21,24.848222,121.597992,7.536626e-09
C1S800,華源,2025-04-21,22.657883,121.02325,2.0502355e-07
C0G720,溪州,2025-04-21,23.851589,120.499093,0.00026882967
C1V160,達卡努瓦,2025-04-21,23.279811,120.705319,1.6554823e-09
C2M410,馬頭山,2025-04-21,23.324361,120.582017,1.20141385e-05
C0V850,蚵仔寮,2025-04-21,22.7256,120.2527,0.9998251
C0S740,池上,2025-04-21,23.119628,121.209469,1.806457e-08
C1V390,尖山,2025-04-21,22.813153,120.367789,0.99987805
C0AH70,松山,2025-04-21,25.04871,121.55042,2.5177793e-09
C0N010,鯤鯓國小,2025-04-21,23.1879,120.0889,0.99967635
C0R550,新埤,2025-04-21,22.467947,120.582894,5.7640764e-06
C0SA60,知本（水試所）,2025-04-21,22.702394,121.082761,4.2297256e-06
C0T9I0,豐濱,2025-04-21,23.583897,121.514806,4.1431747e-09
C0UB00,淡江大學蘭陽校園,2025-04-21,24.823239,121.730383,2.850956e-09
C0W240,九宮,2025-04-21,24.423753,118.240186,4.8886735e-09
C0T9N0,富里,2025-04-21,23.171639,121.249378,3.0502534e-08
U2HA50,臺大竹山,2025-04-21,23.756972,120.681556,9.486966e-05
C0V840,鳳鼻頭,2025-04-21,22.5083,120.3591,0.9998854
C0X140,西港,2025-04-21,23.125608,120.203108,0.99987
72D080,桃改五峰分場,2025-04-21,24.612194,121.157167,2.5404672e-08
C2H9P0,伊拿谷,2025-04-21,23.963211,121.088264,2.9274958e-09
C2H9F0,柑林,2025-04-21,24.018658,120.847072,1.7390365e-08
C0TA20,加灣,2025-04-21,24.082025,121.608944,1.4382895e-08
C0V530,阿蓮,2025-04-21,22.883208,120.327508,0.9998021
C1O880,關山,2025-04-21,23.173397,120.594092,1.7494095e-08
C0E791,卓蘭,2025-04-21,24.3126,120.8244,6.263651e-05
C1I030,武界,2025-04-21,23.913225,121.052483,2.9596323e-09
C0R520,崁頂,2025-04-21,22.514781,120.506914,4.8923926e-06
C0R341,牡丹,2025-04-21,22.130036,120.792639,7.2872837e-09
C0R930,萬丹,2025-04-21,22.5885,120.4851,6.0182623e-07
C0S760,紅石,2025-04-21,23.069131,121.126219,1.8404802e-09
C2C410,中央大學,2025-04-21,24.967652,121.185165,4.3048933e-09
C1M610,石磐龍,2025-04-21,23.496606,120.663506,2.1684752e-09
C0UA10,鴛鴦湖,2025-04-21,24.590269,121.412228,6.2834333e-09
V2C260,八德蔬果,2025-04-21,24.978508,121.281819,4.109137e-09
C0R800,丹路,2025-04-21,22.204481,120.750989,3.8103487e-08
C0G920,永靖,2025-04-21,23.924703,120.547533,0.33693072
C2M950,太和,2025-04-21,23.538372,120.702961,2.6868003e-09
C1A630,下盆,2025-04-21,24.771003,121.538622,9.87413e-09
B2N890,畜產試驗所,2025-04-21,23.058972,120.336406,0.99981314
C0UA30,白嶺,2025-04-21,24.527819,121.519031,2.594251e-09
C1V580,溪南(特生中心),2025-04-21,23.084972,120.788475,2.207233e-09
C1T970,大農,2025-04-21,23.615233,121.413331,3.370035e-09
C0R650,竹田,2025-04-21,22.58486,120.54344,4.7062076e-06
C1H900,清流,2025-04-21,24.080775,120.962997,3.299159e-09
C1C510,水尾,2025-04-21,24.940081,121.087161,4.3108996e-09
C0F9X0,大雅(中科園區),2025-04-21,24.21528,120.62445,0.27807933
C0SB60,白守蓮,2025-04-21,23.126769,121.401914,9.516855e-07
C0O970,虎頭埤,2025-04-21,23.021375,120.347878,0.99983704
C0C730,中大臨海站,2025-04-21,24.966126,121.008581,5.531663e-09
C0X250,新營,2025-04-21,23.310689,120.316681,0.99985546
C0V700,三民,2025-04-21,22.645017,120.311233,0.9991451
C0U870,大礁溪,2025-04-21,24.791042,121.675047,2.9082396e-09
C0E870,高鐵苗栗,2025-04-21,24.60725,120.826094,3.5811067e-07
A2K570,古坑花卉中心,2025-04-21,23.63353,120.55239,0.4646801
C0TA30,鹽寮,2025-04-21,23.845606,121.592664,6.521339e-08
C0M860,新美,2025-04-21,23.338017,120.683169,3.396583e-09
C1E701,八卦,2025-04-21,24.491756,120.927619,3.095842e-08
C0I420,國姓,2025-04-21,24.037803,120.855072,1.3193704e-08
C2D720,關西工作站,2025-04-21,24.757275,121.184792,2.1644803e-08
C0S960,香蘭,2025-04-21,22.587569,120.993375,6.392961e-08
467620,蘭嶼,2025-04-21,22.0369,121.55843,0.00035488402
C0R260,春日,2025-04-21,22.370361,120.628306,1.009456e-05
72G600,臺中農改場,2025-04-21,24.003028,120.534389,0.1791084
C0Z210,瑞穗,2025-04-21,23.5239,121.39021,1.0442874e-08
C0M820,達邦,2025-04-21,23.453994,120.749517,2.0123858e-09
C0V860,南寮,2025-04-21,22.7616,120.2339,0.99982494
C0G740,大城,2025-04-21,23.852487,120.320935,1.9190874e-07
C0R920,塭仔,2025-04-21,22.4169,120.5197,6.7990535e-05
C0R470,高樹,2025-04-21,22.826389,120.600806,4.0050264e-08
C0R680,佳樂水,2025-04-21,21.993578,120.861633,3.4059603e-06
C1O870,大棟山,2025-04-21,23.31157,120.52226,1.977917e-09
C0D360,梅花,2025-04-21,24.678347,121.208558,2.0495732e-09
C0Z190,富世,2025-04-21,24.14743,121.6297,1.6384986e-07
C0AI10,屈尺,2025-04-21,24.92184,121.54475,3.8642876e-09
B2U990,畜試東區分所,2025-04-21,24.669039,121.832561,2.4751116e-06
C0SB80,長濱漁港,2025-04-21,23.313644,121.459994,7.527995e-08
C0R240,來義,2025-04-21,22.527306,120.625111,1.0466853e-06
C0V910,大樹,2025-04-21,22.684645,120.432803,6.908972e-06
C1R610,西大武山,2025-04-21,22.617719,120.7322,3.779512e-09
C0G900,線西,2025-04-21,24.143358,120.443536,0.7322614
C0M700,竹崎,2025-04-21,23.526178,120.555508,0.99469596
C2E880,三義,2025-04-21,24.405478,120.749819,5.4057614e-07
C0C720,竹圍,2025-04-21,25.112692,121.239824,5.7055156e-09
C0F9P0,清水,2025-04-21,24.312297,120.562242,0.1927014
C0Z150,吉安光華,2025-04-21,23.930925,121.595153,1.8107058e-07
467300,東吉島,2025-04-21,23.25727,119.66762,0.85690355
C1D640,外坪(五指山),2025-04-21,24.644447,121.090961,1.0657436e-08
C0F9O0,潭子,2025-04-21,24.213106,120.703933,0.3270497
C2H9R0,卓社,2025-04-21,23.887894,121.000086,6.067596e-09
72T250,花蓮農改場,2025-04-21,23.975222,121.563889,1.6130484e-07
C0E780,銅鑼,2025-04-21,24.489681,120.790853,1.5857651e-05
C1T950,太安,2025-04-21,23.666719,121.370128,1.8918611e-09
C0E830,苑裡,2025-04-21,24.439714,120.653053,2.8939436e-05
467270,田中,2025-04-21,23.873803,120.581286,0.00019692726
C0SA10,檳榔四格山,2025-04-21,22.810031,121.109308,8.7689465e-08
C1T830,布洛灣,2025-04-21,24.17184,121.57127,9.736755e-07
C0F970,大坑,2025-04-21,24.173142,120.722289,0.23017675
C1U920,思源,2025-04-21,24.393125,121.347214,4.924939e-09
C0A931,三和,2025-04-21,25.233153,121.595236,3.5995698e-09
C0I010,廬山,2025-04-21,24.033311,121.181808,5.5209433e-09
C2M940,日野賀,2025-04-21,23.434056,120.727169,2.3309115e-09
C0R860,鼻頭,2025-04-21,22.1043,120.8979,5.5433065e-06
C0UB20,壯圍,2025-04-21,24.7359,121.8163,3.6966935e-07
C0R790,九棚,2025-04-21,22.14195,120.889281,1.7242059e-09
C0W110,東莒,2025-04-21,25.9652,119.98069,3.659199e-09
C1U930,粉鳥林,2025-04-21,24.497088,121.842479,0.7464794
C1I211,蘆竹湳,2025-04-21,23.934019,120.811994,2.2361453e-09
C0S830,長濱,2025-04-21,23.286817,121.411975,7.663405e-09
C1F9F1,伯公龍,2025-04-21,24.272392,120.849047,7.861901e-06
C0E810,西湖,2025-04-21,24.562947,120.7485,6.971778e-06
C1I440,新高口,2025-04-21,23.478744,120.878939,8.601551e-09
C0O840,王爺宮,2025-04-21,23.222064,120.40085,0.00045586744
C0T9G0,鳳林山,2025-04-21,23.735269,121.420131,1.6771129e-09
C0X080,佳里,2025-04-21,23.173039,120.145086,0.99967647
C0FB70,大甲溪埔,2025-04-21,24.370625,120.620067,0.024483709
C0Z310,清水斷崖,2025-04-21,24.218294,121.689142,7.9944876e-08
C0M680,太保,2025-04-21,23.455062,120.331455,0.9971717
C1S820,金峰,2025-04-21,22.590969,120.933236,1.5677537e-08
C0AD10,八里,2025-04-21,25.150211,121.403947,5.744575e-09
C2K240,草嶺,2025-04-21,23.59555,120.693461,2.149422e-09
C1SA70,都蘭,2025-04-21,22.87794,121.226881,0.0012475693
C0K440,二崙,2025-04-21,23.772797,120.408944,0.0013532271
C1A760,坪林交控,2025-04-21,24.94284,121.713442,3.6996217e-09
C0F9N0,大里,2025-04-21,24.092464,120.701378,2.5158397e-06
C0SA90,達仁林場,2025-04-21,22.264347,120.823972,9.930976e-10
C1R290,石門山,2025-04-21,22.112611,120.756597,4.1719628e-07
42HA10,萬大發電廠,2025-04-21,23.978875,121.139639,4.3052792e-09
C0R890,山海,2025-04-21,21.9878,120.7091,2.4033802e-06
C0T9A0,月眉山,2025-04-21,23.809928,121.539828,3.3427887e-09
C0AC70,信義,2025-04-21,25.037822,121.564597,2.5234812e-09
C0K560,棋山,2025-04-21,23.68645,120.603417,0.30162913
C2FB50,出雲,2025-04-21,24.206469,120.902794,3.3937206e-09
C1Z240,中平林道,2025-04-21,23.42115,121.26763,2.0254014e-09
U2H480,溪頭,2025-04-21,23.670306,120.798194,2.5293023e-09
C0M880,好美里,2025-04-21,23.3364,120.138,0.9959668
C0T9E0,大坑,2025-04-21,23.880628,121.581981,5.102358e-09
C0K530,臺西,2025-04-21,23.701547,120.197559,0.60440224
C1E900,國一N128K,2025-04-21,24.560997,120.844186,1.1150303e-05
C0AJ50,水湳洞,2025-04-21,25.123695,121.862238,3.6532155e-09
C0AI20,白沙灣,2025-04-21,25.283128,121.519058,3.4826528e-09
C2V310,美濃,2025-04-21,22.898792,120.51907,0.99979293
C0A860,大坪,2025-04-21,25.165914,121.632969,2.2487285e-09
C1U850,觀音海岸,2025-04-21,24.38319,121.77856,3.2631615e-09
C2K610,草嶺石壁,2025-04-21,23.602469,120.707731,2.2063869e-09
C0U950,鶯子嶺,2025-04-21,24.89754,121.79244,3.7328225e-09
C0O900,善化,2025-04-21,23.112883,120.297219,0.99979943
C0K550,蔦松,2025-04-21,23.514319,120.229736,0.009932446
E2P980,林試六龜中心,2025-04-21,22.991703,120.645722,3.8829207e-09
C0E590,通霄,2025-04-21,24.471892,120.704622,3.775623e-06
C1I310,西巒,2025-04-21,23.754486,120.883956,2.638469e-09
C0A550,泰平,2025-04-21,24.971197,121.823711,1.9398605e-09
C0I360,水里,2025-04-21,23.812553,120.849792,5.5960467e-09
C0R830,高士,2025-04-21,22.121825,120.836781,3.088862e-07
C1I101,溪頭,2025-04-21,23.661789,120.807647,4.2815556e-09
C0AJ20,野柳,2025-04-21,25.20703,121.690021,4.3946e-09
C0B060,暖暖,2025-04-21,25.0957,121.7403,2.8096752e-09
C1H920,長豐,2025-04-21,24.102039,120.879897,3.7695695e-09
C0V360,內門,2025-04-21,22.975481,120.466769,5.115906e-08
C0R850,林邊,2025-04-21,22.4634,120.5339,8.825979e-06
C0E930,龍鳳,2025-04-21,24.700034,120.859125,5.376281e-07
C0U910,冬山,2025-04-21,24.63373,121.7937,2.4751116e-06
C1E721,泰安,2025-04-21,24.489017,120.968036,5.118822e-09
82H320,茶改中部分場,2025-04-21,23.875611,120.913583,2.5080877e-09
C0M750,布袋,2025-04-21,23.380878,120.167789,0.98372895
C1S860,利嘉,2025-04-21,22.809417,121.050528,2.4478393e-09
E2S980,林試太麻里1,2025-04-21,22.598922,120.980044,3.2894718e-08
C0X170,關廟,2025-04-21,22.963017,120.327797,0.9997861
C0V720,林園,2025-04-21,22.507747,120.394511,3.4252637e-06
C1I510,線浸林道,2025-04-21,23.761508,120.832956,3.0990248e-09
C0D690,外湖,2025-04-21,24.917735,120.968711,4.7133506e-09
C0C750,新興坑尾,2025-04-21,25.0061,121.0971,5.234507e-09
B2Q810,畜試南區分所,2025-04-21,21.945583,120.802167,3.8573235e-06
C0S790,金崙,2025-04-21,22.538122,120.966875,8.069073e-09
C0AH90,福山植物園,2025-04-21,24.760717,121.58135,1.1344803e-08
C0I540,奇萊稜線,2025-04-21,24.109231,121.326456,2.656837e-08
C0M850,表湖,2025-04-21,23.24186,120.64166,2.4105005e-09
C0S770,大溪山,2025-04-21,22.478475,120.943325,2.1904698e-09
C0AG80,中和,2025-04-21,24.991622,121.491792,3.0980791e-09
C0T790,大禹嶺,2025-04-21,24.186117,121.316086,1.9040035e-08
C0T9B0,水源,2025-04-21,23.991861,121.537169,2.110403e-09
C0R840,牡丹池山,2025-04-21,22.168389,120.841225,1.1714524e-09
C1I131,桶頭,2025-04-21,23.641944,120.654117,7.1481754e-09
CAL110,布袋國中,2025-04-21,23.35893,120.18026,0.9923243
467571,新竹,2025-04-21,24.827853,121.014219,2.5739949e-08
C0Z290,赤柯山,2025-04-21,23.36893,121.38293,2.486871e-09
C0X280,將軍,2025-04-21,23.214999,120.13577,0.9995003
C0S690,太麻里,2025-04-21,22.60902,120.98533,2.3306759e-09
C0U880,北關,2025-04-21,24.9072,121.8734,5.836163e-09
C0G810,埔心,2025-04-21,23.947633,120.525456,0.37273768
C0U970,大福,2025-04-21,24.80064,121.81389,2.0093478e-07
C2H9N0,仁愛東眼,2025-04-21,24.026875,121.1205,4.98478e-09
C1E670,南礦,2025-04-21,24.538278,121.002836,4.0084864e-09
C0M520,東後寮,2025-04-21,23.369908,120.248065,0.9885991
C1E461,松安,2025-04-21,24.397972,120.986022,5.7793583e-09
C2N160,西拉雅風管處,2025-04-21,23.189481,120.335297,0.99981636
C2M970,碧湖,2025-04-21,23.568632,120.624165,2.0034319e-09
C0A640,石碇,2025-04-21,24.993969,121.662917,2.1334883e-09
E2S960,林試太麻里2,2025-04-21,22.598,120.99775,6.78328e-08
C0F9Y0,桃山,2025-04-21,24.432739,121.303808,3.2419898e-08
C1I020,萬大,2025-04-21,23.979817,121.132261,4.636296e-09
C0U940,羅東,2025-04-21,24.68184,121.74934,2.6924894e-07
C0M650,朴子,2025-04-21,23.43463,120.23902,0.75838584
C1I500,大尖山,2025-04-21,23.858572,120.994889,7.141825e-09
C0G820,田尾,2025-04-21,23.901669,120.509389,0.3598184
E2K600,四湖植物園,2025-04-21,23.676986,120.163433,0.043308813
C0S730,綠島,2025-04-21,22.6672,121.47533,0.4086825
12Q970,東港工作站,2025-04-21,22.479997,120.466058,1.1405375e-05
C0E430,南庄,2025-04-21,24.601775,121.000214,2.0988132e-07
C1TA00,太魯閣,2025-04-21,24.15773,121.6236,1.15577016e-07
466920,臺北,2025-04-21,25.037658,121.514853,2.5177793e-09
C0R600,舊泰武,2025-04-21,22.588194,120.664944,4.833062e-10
C1I260,北坑,2025-04-21,23.9246,121.006903,2.1941327e-09
466910,鞍部,2025-04-21,25.182586,121.529731,3.6253114e-09
C1I230,九份二山,2025-04-21,23.961944,120.845,2.8605807e-09
C2A660,瑞芳,2025-04-21,25.113169,121.801147,3.0902771e-09
C0R270,琉球嶼,2025-04-21,22.332244,120.362236,8.359571e-05
C1T990,高寮,2025-04-21,23.394239,121.356808,2.257604e-08
C0G620,芬園,2025-04-21,24.015678,120.6213,0.00038571504
C1Z140,荖溪,2025-04-21,23.890575,121.45964,5.7344596e-09
C1I201,中心崙,2025-04-21,23.728722,120.712097,1.8173699e-09
C1I400,凌霄,2025-04-21,24.018778,121.004456,4.8765014e-09
C1M640,十字,2025-04-21,23.492153,120.753683,3.354765e-09
G2P820,農試鳳山分所,2025-04-21,22.646611,120.356083,0.99912095
C0Z270,蕃薯寮,2025-04-21,23.73835,121.540108,3.3085232e-09
C0F9Q0,外埔,2025-04-21,24.347817,120.705686,0.059741054
C0K580,高鐵雲林,2025-04-21,23.737456,120.417944,0.016110461
C2I090,鳳凰,2025-04-21,23.728081,120.787347,2.274585e-09
C0U990,員山,2025-04-21,24.74435,121.72247,2.9297243e-07
C0V770,大社,2025-04-21,22.730306,120.346639,0.99983394
C0X120,麻豆,2025-04-21,23.183289,120.248611,0.9998676
C0C670,龍潭,2025-04-21,24.870056,121.221389,1.685863e-08
C0D680,香山濕地,2025-04-21,24.783581,120.914988,5.873128e-08
C0S980,勝林山,2025-04-21,22.430439,120.8938,9.386566e-10
C0V730,大寮,2025-04-21,22.605614,120.395717,0.0012302118
C0R570,麟洛,2025-04-21,22.65078,120.52719,9.131453e-08
C2M930,石卓,2025-04-21,23.478744,120.702264,3.2411287e-09
C0G9B0,和美,2025-04-21,24.105169,120.492131,5.5550663e-05
CAG100,王功漁港,2025-04-21,23.96824,120.32586,5.5071055e-08
C0X290,北門,2025-04-21,23.267772,120.125481,0.9995012
C2F930,大甲,2025-04-21,24.347667,120.640403,0.0019389986
C0D650,湖口,2025-04-21,24.904794,121.043628,4.3317936e-09
C0E420,竹南,2025-04-21,24.708978,120.888897,3.9405774e-07
C0U780,五結,2025-04-21,24.68637,121.79794,3.701816e-07
C1I250,鯉潭,2025-04-21,23.961922,120.991131,2.922971e-09
C0R130,阿禮,2025-04-21,22.742908,120.743678,6.9354517e-10
C0X100,臺南市北區,2025-04-21,23.010394,120.194228,0.9997917
C0S920,金峰嘉蘭,2025-04-21,22.594789,120.960825,3.0518418e-08
C0V490,新興,2025-04-21,22.627422,120.298803,0.9998055
C0F9K0,大安,2025-04-21,24.345061,120.588025,0.030758757
467290,古坑,2025-04-21,23.633639,120.551889,0.4646801
C2E970,八甲,2025-04-21,24.535811,120.795983,2.8179581e-06
C0V440,鳳山,2025-04-21,22.646653,120.356122,0.99912095
C1T940,大觀,2025-04-21,23.714206,121.373133,3.2279692e-09
C0E740,造橋,2025-04-21,24.637056,120.864778,8.152783e-06
C0R100,尾寮山,2025-04-21,22.833111,120.683889,7.413214e-10
A2K630,臺大雲林校區,2025-04-21,23.730628,120.423903,0.015364353
467990,馬祖,2025-04-21,26.169467,119.923158,4.109082e-09
C0D580,寶山,2025-04-21,24.735006,121.025192,8.966115e-08
E2P990,林試扇平站,2025-04-21,22.9677,120.6857,6.509999e-10
C0AI30,三重,2025-04-21,25.057328,121.500629,2.5379427e-09
C0AH00,汐止,2025-04-21,25.066881,121.658778,2.5177793e-09
C1Z040,立山,2025-04-21,23.443356,121.327375,7.439919e-09
466881,新北,2025-04-21,24.959207,121.525196,3.003317e-09
C0W130,花嶼,2025-04-21,23.40007,119.32276,8.998066e-08
C0A950,鼻頭角,2025-04-21,25.129036,121.923372,8.729776e-09
C0K470,林內,2025-04-21,23.748675,120.609642,0.00069469464
C2F990,摩天嶺,2025-04-21,24.322458,120.936819,3.238527e-09
82C160,茶改場,2025-04-21,24.908472,121.185333,3.2127303e-09
C0Z320,清水林道,2025-04-21,23.27125,121.188272,1.8256804e-09
C0R760,南仁湖,2025-04-21,22.084681,120.863353,4.2637714e-07
C0M670,大林,2025-04-21,23.600616,120.45841,0.6460373
C0M800,茶山,2025-04-21,23.299075,120.664767,5.167389e-09
C0A9C0,天母,2025-04-21,25.117494,121.537169,3.2828638e-09
72K220,南改斗南分場,2025-04-21,23.634556,120.477333,0.21500292
72AI40,桃改樹林分場,2025-04-21,24.944503,121.386972,2.1808773e-09
C0S910,蘭嶼燈塔,2025-04-21,22.081197,121.503117,0.00069018686
C0B050,八斗子,2025-04-21,25.144754,121.79167,3.917759e-09
C0U900,內城,2025-04-21,24.71813,121.68766,1.74621e-07
C0X320,柳營,2025-04-21,23.253328,120.375253,0.999819
C0M790,新港,2025-04-21,23.553269,120.345728,0.7284763
C0F9T0,西屯,2025-04-21,24.179494,120.641275,0.9800016
C0SA30,都歷,2025-04-21,23.020333,121.323642,1.117059e-06
C0C620,蘆竹,2025-04-21,25.084275,121.265767,4.6162922e-09
C0R730,大坪頂,2025-04-21,22.024633,120.69355,8.778901e-07
C0AJ40,石門,2025-04-21,25.273672,121.601198,3.0121745e-09
C0E750,苗栗,2025-04-21,24.564569,120.824575,1.3164092e-05
C0T870,鯉魚潭,2025-04-21,23.935639,121.508944,4.015597e-08
C1V170,排雲,2025-04-21,23.463619,120.954147,2.5891755e-08
C2H950,中寮,2025-04-21,23.884447,120.766406,0.83795094
C0R350,貓鼻頭,2025-04-21,21.921774,120.7358,1.6666816e-05
C0V660,岡山,2025-04-21,22.797078,120.294958,0.9998026
C1H941,雙冬,2025-04-21,23.967378,120.802189,2.174514e-09
C0AJ70,田寮,2025-04-21,25.2698,121.4886,3.5106038e-09
C0AI00,五股,2025-04-21,25.07445,121.42728,5.18991e-09
C0Z280,德武,2025-04-21,23.47426,121.41071,5.1910387e-09
C0R700,枋山,2025-04-21,22.246844,120.661086,6.3234904e-07
C0C460,復興,2025-04-21,24.820208,121.352281,2.0345468e-09
E2H360,蓮華池,2025-04-21,23.918333,120.885278,2.1606392e-09
C0M640,中埔,2025-04-21,23.42538,120.5229,0.99915504
C0W140,金沙,2025-04-21,24.488292,118.408778,3.0259486e-09
C2A540,四堵,2025-04-21,24.8926,121.745736,2.2029305e-09
C0ACA0,新莊,2025-04-21,25.051478,121.446756,2.8130855e-09
C0R220,潮州,2025-04-21,22.534361,120.54,3.7191373e-06
U2HA40,臺大內茅埔,2025-04-21,23.689722,120.851117,2.3083033e-09
467490,臺中,2025-04-21,24.145736,120.684075,0.15739125
C0U960,翠峰湖,2025-04-21,24.510856,121.608044,4.273063e-09
E2HA20,林試畢祿溪站,2025-04-21,24.226944,121.308522,1.149446e-08
C0V890,前鎮,2025-04-21,22.5718,120.3117,0.9998064
C1F941,雪嶺,2025-04-21,24.280586,121.026642,1.8735197e-08
C2H9E0,國姓南港,2025-04-21,23.911108,120.846556,3.4671042e-09
C0AC80,文山,2025-04-21,25.00235,121.575728,2.9156766e-09
C0F9R0,龍井,2025-04-21,24.184536,120.528972,0.8872776
C0M760,民雄,2025-04-21,23.551754,120.428457,0.69813305
C0UA40,西德山,2025-04-21,24.560647,121.752608,2.2074436e-09
C1T920,中興,2025-04-21,23.769503,121.498653,1.3136628e-08
C0D550,雪霸,2025-04-21,24.526972,121.11605,6.9930106e-09
C2F860,梨山,2025-04-21,24.247522,121.243669,1.1917086e-08
C0R320,車城,2025-04-21,22.0744,120.716247,3.2015673e-06
C1S870,南美山,2025-04-21,23.15025,121.382333,3.4091762e-08
C0B020,基隆嶼,2025-04-21,25.19141,121.78391,7.6707165e-09
C1U501,牛鬥,2025-04-21,24.637836,121.573656,1.078428e-07
C0M730,嘉義市東區,2025-04-21,23.457673,120.460531,0.99961686
C0S700,知本,2025-04-21,22.684866,121.005642,1.9947992e-09
C1N001,沙崙,2025-04-21,22.935472,120.309406,0.99978185
C0V760,橋頭,2025-04-21,22.757806,120.30575,0.9998313
C0G960,福寶,2025-04-21,24.0443,120.3814,6.732021e-05
C0X210,白河,2025-04-21,23.347466,120.414427,0.9996707
C0S810,東河,2025-04-21,22.972672,121.303986,1.1062625e-06
C2R170,屏東,2025-04-21,22.66027,120.49403,9.1417e-08
C0R670,楓港,2025-04-21,22.190131,120.692156,7.5368455e-08
C0FA50,霧峰,2025-04-21,24.0419,120.6995,0.9507192
C0UB10,蘇澳,2025-04-21,24.5969,121.8571,0.9098126
C0G950,防潮門,2025-04-21,24.1835,120.4871,0.8891973
C0M740,六腳,2025-04-21,23.492871,120.290625,0.4940125
C1R250,力里,2025-04-21,22.428117,120.629228,1.6124344e-06
C0K330,虎尾,2025-04-21,23.719183,120.442036,0.011950886
C2FA00,烏石坑,2025-04-21,24.273503,120.947617,3.2363536e-09
C0V620,永安,2025-04-21,22.82315,120.236856,0.9998025
C1I330,楓樹林,2025-04-21,23.986803,121.076117,7.530405e-09
C0W200,湖西,2025-04-21,23.596314,119.67275,0.066628635
72Q010,高雄農改場,2025-04-21,22.709333,120.525889,3.3092256e-08
C0SA40,瑞和,2025-04-21,22.974361,121.156697,1.9318122e-06
C0C680,龜山,2025-04-21,25.02846,121.38656,2.9583909e-09
C2V260,月眉,2025-04-21,22.971003,120.539853,1.8438334e-08
C0V450,鳳森,2025-04-21,22.545064,120.392592,1.4492061e-06
C0U720,南山,2025-04-21,24.43742,121.38167,2.2994973e-09
A2N290,臺南蘭花園區,2025-04-21,23.340258,120.379661,0.99840516
C0R560,新園,2025-04-21,22.5434,120.461558,3.4252637e-06
C0U890,三星,2025-04-21,24.66812,121.65302,6.2154044e-07
C1V300,御油山,2025-04-21,23.001983,120.715364,1.919291e-09
C0U600,礁溪,2025-04-21,24.817539,121.765608,1.2239103e-08
C1T980,龍澗,2025-04-21,24.023289,121.411328,1.1624364e-08
C0D670,海天一線,2025-04-21,24.831986,120.914438,4.3775607e-08
C0SA00,歷坵,2025-04-21,22.520969,120.89185,1.8643789e-09
C0M710,東石,2025-04-21,23.458927,120.15385,0.00877708
C0M780,鹿草,2025-04-21,23.41134,120.30835,0.6850232
C0U520,雙連埤,2025-04-21,24.753033,121.641303,2.8879696e-09
C0B010,七堵,2025-04-21,25.094819,121.71713,2.9993097e-09
C0R480,長治,2025-04-21,22.693128,120.542622,4.657211e-06
C1V830,國三S383K,2025-04-21,22.781967,120.426475,1.7296912e-08
12Q980,恆春工作站,2025-04-21,22.079678,120.714425,3.1998977e-06
C1O940,東山服務區,2025-04-21,23.286016,120.398472,0.99978286
C1U840,東澳嶺,2025-04-21,24.5378,121.8485,2.684137e-09
C1D630,飛鳳山,2025-04-21,24.766464,121.119178,6.8316695e-09
C0S940,石寧山,2025-04-21,23.223772,121.406639,1.1291335e-07
C0K410,北港,2025-04-21,23.573957,120.292802,0.07701713
C2M620,瑞里,2025-04-21,23.545133,120.675197,2.4287994e-09
C0SB70,小港漁港,2025-04-21,23.158558,121.400431,7.32626e-07
C2O950,安南,2025-04-21,23.076694,120.144861,0.9978118
C0F0E0,南湖圈谷,2025-04-21,24.363714,121.444667,2.4700572e-08
467610,成功,2025-04-21,23.097486,121.373428,5.956083e-07
C0G890,伸港,2025-04-21,24.148933,120.484403,0.72789353
C2E540,龍溪,2025-04-21,24.606489,120.783933,3.7367246e-07
C1V200,梅山,2025-04-21,23.268447,120.823556,1.3537268e-09
C0T9H0,加路蘭山,2025-04-21,23.682947,121.5274,1.9550301e-09
C2O930,玉井,2025-04-21,23.126042,120.46055,0.999829
C1F911,新伯公,2025-04-21,24.221361,120.841069,1.3813343e-06
C0R490,九如,2025-04-21,22.7405,120.490503,3.8265533e-08
C0X200,左鎮,2025-04-21,23.056758,120.408522,0.99993134
C0SB50,叭嗡嗡,2025-04-21,23.047062,121.343223,1.52064185e-05
C1F891,稍來,2025-04-21,24.265689,121.001142,1.2027196e-08
72N240,七股研究中心,2025-04-21,23.081672,120.062894,0.9918505
C0C700,中壢,2025-04-21,24.977661,121.256375,4.006193e-09
C0M690,水上,2025-04-21,23.419734,120.388909,0.9956432
C0V690,鼓山,2025-04-21,22.623325,120.275575,0.9998054
C0O860,大內,2025-04-21,23.11885,120.36083,0.9998094
C0Z200,萬榮,2025-04-21,23.709219,121.420106,5.0907802e-09
C0T9D0,和中,2025-04-21,24.26676,121.74103,0.031333085
C1O921,楠西,2025-04-21,23.183511,120.484083,0.9995782
C0AJ30,淡水觀海,2025-04-21,25.184591,121.408616,4.1746344e-09
C0V810,左營,2025-04-21,22.67491,120.28491,0.99914503
C0UA70,桃源谷,2025-04-21,24.962606,121.888875,2.2269262e-09
C0X130,官田,2025-04-21,23.193217,120.315422,0.99981356
C1H000,翠峰,2025-04-21,24.109397,121.205211,1.41465195e-08
C0UA90,石城,2025-04-21,24.980444,121.951214,4.3340336e-09
C1E681,南勢山,2025-04-21,24.421669,120.923831,3.5588613e-07
C0A9F0,內湖,2025-04-21,25.079422,121.57545,2.5177793e-09
C0K291,宜梧,2025-04-21,23.536281,120.169329,0.010601984
C1K540,口湖,2025-04-21,23.585344,120.180517,0.00977369
C0R780,滿州,2025-04-21,22.024403,120.839892,4.4783696e-06
C0V870,文安,2025-04-21,22.8025,120.2164,0.9997978
C0U650,玉蘭,2025-04-21,24.675286,121.587061,3.8480916e-09
C0R640,東港,2025-04-21,22.46247,120.44074,1.143393e-05
C0AJ80,板橋,2025-04-21,25.0107,121.4489,3.1766456e-09
C0S660,下馬,2025-04-21,23.150427,121.070312,2.2239421e-09
C1H9B1,阿眉,2025-04-21,24.1263,120.994672,9.628577e-09
C0UA20,多加屯,2025-04-21,24.368614,121.373189,1.5433539e-08
C0E730,頭份,2025-04-21,24.688247,120.912206,4.4314268e-07
72V140,高改旗南分場,2025-04-21,22.857861,120.516667,4.0156127e-08
C0K480,莿桐,2025-04-21,23.761192,120.502372,0.0003751742
C0U980,坪林石牌,2025-04-21,24.86478,121.77396,2.8881735e-09
C0T900,西林,2025-04-21,23.8119,121.441458,5.8331695e-09
C1I150,青雲,2025-04-21,23.793361,120.949378,2.6145082e-09
467350,澎湖,2025-04-21,23.565503,119.563094,7.3418295e-07
C0G800,埔鹽,2025-04-21,24.000394,120.431683,0.00016829597
C0H960,草屯,2025-04-21,23.973672,120.68085,0.9184602
C1V780,多納林道,2025-04-21,22.888028,120.737917,1.1378735e-09
C0E920,通霄漁港,2025-04-21,24.498589,120.673876,5.0728664e-07
C0Z330,安通山,2025-04-21,23.290728,121.348528,2.4172317e-09
C0AH10,永和,2025-04-21,25.01125,121.508111,3.1688814e-09
C0AK10,太平里,2025-04-21,25.134937,121.364899,5.7230958e-09
C2G640,鹿港,2025-04-21,24.0753,120.430481,6.738444e-05
C1E890,國三N149K,2025-04-21,24.463414,120.680019,0.00017949204
C1R110,口社,2025-04-21,22.770111,120.645222,7.8727186e-07
C1M870,國三N285K,2025-04-21,23.550319,120.505833,0.9873307
C1E480,鳳美,2025-04-21,24.554803,121.034747,2.7973938e-08
C0M530,奮起湖,2025-04-21,23.493903,120.699253,2.7172637e-09
C0C590,觀音,2025-04-21,25.027072,121.153317,6.9347275e-09
C0T9M0,靜浦,2025-04-21,23.455167,121.495028,1.3475628e-08
C2H9M0,發祥,2025-04-21,24.154094,121.164517,8.382271e-09
C0AI40,石牌,2025-04-21,25.115597,121.513139,3.3317513e-09
C1F871,上谷關,2025-04-21,24.203483,121.018644,3.2695473e-09
C2H9G0,百勝,2025-04-21,24.051142,120.909361,8.971059e-08
C0G880,二水,2025-04-21,23.810742,120.6173,8.23856e-05
C0R940,加祿堂,2025-04-21,22.3363,120.6217,8.227689e-07
C0W220,北竿,2025-04-21,26.220358,119.974881,3.4932375e-09
C0O960,崎頂,2025-04-21,22.959547,120.369317,0.999819
C0S750,向陽,2025-04-21,23.248397,120.986133,5.490919e-09
C0T9F0,水璉,2025-04-21,23.797131,121.542514,3.948991e-09
C1M600,頭凍,2025-04-21,23.406364,120.603339,2.248201e-09
467660,臺東,2025-04-21,22.752211,121.154586,0.050210036
C1D380,新埔,2025-04-21,24.84745,121.03834,1.4413021e-08
C2G980,田頭村,2025-04-21,23.8263,120.444175,0.0013602335
C0V750,路竹,2025-04-21,22.854997,120.259439,0.99976665
C0N050,蚵寮,2025-04-21,23.301,120.1104,0.995969
72M700,南改鹿草分場,2025-04-21,23.416869,120.283061,0.75054526
C1SA50,利嘉林道,2025-04-21,22.82325,121.009389,1.298521e-09
C0A940,金山,2025-04-21,25.223628,121.643967,4.304524e-09
C1V340,大津,2025-04-21,22.888322,120.645986,3.0508993e-08
C0W180,七美,2025-04-21,23.219333,119.444892,0.00049611327
C1F9C1,白冷,2025-04-21,24.182844,120.929889,1.294495e-07
K2E710,苗改生物防治研究中心,2025-04-21,24.422861,120.871833,0.00013838334
C0N040,蘆竹溝,2025-04-21,23.2344,120.0961,0.9995014
C2W230,畜試所澎湖,2025-04-21,23.628342,119.513206,3.813744e-08
C0R880,後壁湖,2025-04-21,21.9457,120.7457,2.4152457e-06
C1I280,埔中,2025-04-21,23.820778,120.642594,2.0206243e-09
467790,墾丁雷達站,2025-04-21,21.948235,120.808028,2.729845e-06
C0W190,望安,2025-04-21,23.380564,119.494075,6.738032e-07
C0Z170,卓溪,2025-04-21,23.3443,121.3029,5.64239e-09
C0F850,東勢,2025-04-21,24.246428,120.833047,1.11976815e-05
466900,淡水,2025-04-21,25.164889,121.448906,5.7241003e-09
C0I370,魚池,2025-04-21,23.895703,120.94135,2.2585074e-09
C0C630,大溪,2025-04-21,24.882853,121.265547,4.120525e-09
C0A520,山佳,2025-04-21,24.974944,121.402008,2.4024727e-09
C0I110,竹山,2025-04-21,23.761225,120.688156,1.7572822e-05
82H840,茶改南部分場,2025-04-21,23.762528,120.7405,6.3493086e-09
C0G660,溪湖,2025-04-21,23.94835,120.479122,0.41753533
C1T800,洛韶,2025-04-21,24.204558,121.453956,2.7752258e-09
C1T810,慈恩,2025-04-21,24.192044,121.388386,5.92191e-09
C1E451,象鼻,2025-04-21,24.368617,120.940228,4.2336902e-07
C0AC60,三峽,2025-04-21,24.939025,121.369728,4.2963624e-09
C0I490,萬大林道,2025-04-21,23.928228,121.091411,4.509528e-09
C1I290,豐丘,2025-04-21,23.668178,120.887417,2.73644e-09
C1I320,奧萬大,2025-04-21,23.952956,121.178556,5.808234e-09
C2M910,嘉義大學,2025-04-21,23.471325,120.485903,0.9997871
C0U770,南澳,2025-04-21,24.44935,121.81022,0.006147274
C0A980,社子,2025-04-21,25.109508,121.469681,5.862571e-09
C0V800,六龜,2025-04-21,22.997889,120.633583,4.1774384e-09
C1G9D0,國一S218K,2025-04-21,23.890641,120.493253,0.36149436
C0E570,白沙屯,2025-04-21,24.549447,120.696803,7.1260365e-07
C2F9A0,中竹林,2025-04-21,24.103556,120.751061,5.252389e-09
C0FA40,臺中電廠,2025-04-21,24.2146,120.4907,0.8873317
C2G9A0,畜試所彰化,2025-04-21,23.86045,120.557964,0.00019757384
C0H9C0,合歡山,2025-04-21,24.143442,121.272547,3.3993846e-08
C0X060,下營,2025-04-21,23.22695,120.256261,0.9998517
G2M350,農試溪口農場,2025-04-21,23.58565,120.408111,0.73340046
C0U860,頭城,2025-04-21,24.85323,121.8308,1.3006757e-08
C0R580,南州,2025-04-21,22.48591,120.50274,1.143393e-05
C0D430,峨眉,2025-04-21,24.6905,121.017189,6.796425e-08
C0G780,秀水,2025-04-21,24.03405,120.503869,0.18008637
72N100,臺南農改場,2025-04-21,23.0605,120.342194,0.9998145
C0S900,蘭嶼高中,2025-04-21,22.04909,121.51214,0.0013279851
C1F9W0,德基,2025-04-21,24.254783,121.190261,6.5126105e-09
C1Z120,壽豐,2025-04-21,23.870853,121.508081,5.610927e-08
C0W160,烏坵,2025-04-21,24.9944,119.44956,3.7222716e-09
C1I240,外大坪,2025-04-21,23.958697,120.917931,2.902792e-09
C1I550,國六W023K,2025-04-21,23.979067,120.867742,6.953588e-09
C0R870,興海,2025-04-21,21.9752,120.8439,3.8652593e-06
C0R140,瑪家,2025-04-21,22.682903,120.686639,5.206326e-10
C0A530,坪林,2025-04-21,24.938183,121.70975,3.2993037e-09
C0X260,後壁,2025-04-21,23.366358,120.362326,0.9995981
C0Z230,和平,2025-04-21,24.30717,121.77007,0.051037405
C0G770,福興,2025-04-21,24.041289,120.437669,0.00016933953
C0H9A0,神木村,2025-04-21,23.532742,120.843667,2.9567944e-09
C0I460,南投,2025-04-21,23.911469,120.687331,0.9516787
C0I480,梅峰,2025-04-21,24.085272,121.173572,1.0384895e-08
C1V570,吉東,2025-04-21,22.85422,120.5454,3.3416622e-08
C2D740,屯原,2025-04-21,24.067969,121.209389,7.712057e-09
C2A560,福山,2025-04-21,24.776203,121.502811,3.7362344e-09
C0AH30,五分山,2025-04-21,25.07125,121.780794,2.620589e-09
C0FA10,松柏,2025-04-21,24.429115,120.617482,4.395962e-05
72S200,東改班鳩分場,2025-04-21,22.829528,121.077694,9.6076e-07
72HA00,中改埔里分場,2025-04-21,23.903208,120.963364,2.1610267e-09
C2H9W0,大坪頂農水,2025-04-21,24.043122,120.932781,3.727266e-09
C0C650,平鎮,2025-04-21,24.897503,121.214636,3.3217638e-09
C0S930,延平,2025-04-21,22.902581,121.084058,2.1682197e-06
C0UA60,樟樹山,2025-04-21,24.41393,121.78325,1.697278e-08
C1S670,摩天,2025-04-21,23.199503,121.027,2.0421864e-09
C0V630,茄萣,2025-04-21,22.906642,120.182608,0.99969345
466940,基隆,2025-04-21,25.133314,121.740475,3.7689225e-09
C0X050,東河,2025-04-21,23.296598,120.385608,0.99980545
C0R770,保力,2025-04-21,22.071122,120.764111,1.7621319e-06
G2L020,農試嘉義分所,2025-04-21,23.485028,120.473806,0.9993417
C0X240,關子嶺,2025-04-21,23.331169,120.508025,1.924769e-06
C0I380,集集,2025-04-21,23.828206,120.801467,5.6498206e-09
466990,花蓮,2025-04-21,23.975128,121.613275,2.38976e-07
C1V220,小關山,2025-04-21,23.154217,120.813603,3.0106122e-09
C1F9G1,慶福山,2025-04-21,24.180853,120.848378,5.2310163e-08
C0Z250,瑞穗林道,2025-04-21,23.49284,121.30688,2.0356645e-09
C0D590,新豐,2025-04-21,24.87068,120.97721,1.6862618e-08
C0A870,五指山,2025-04-21,25.132153,121.608692,2.673749e-09
C0UA50,西帽山,2025-04-21,24.555361,121.802628,2.5778013e-09
C0X160,仁德,2025-04-21,22.968258,120.257689,0.9998112
C1H971,六分寮,2025-04-21,23.92507,120.6378,4.942433e-09
C0W120,西嶼,2025-04-21,23.5626,119.468436,2.1952792e-07
C0G650,員林,2025-04-21,23.946503,120.585597,0.33268118
C0AD50,鶯歌,2025-04-21,24.951533,121.346294,4.0108725e-09
C2H9Q0,北東眼山,2025-04-21,24.120939,121.189303,1.0026412e-08
C2H9T0,名間竹圍,2025-04-21,23.859914,120.637572,4.632583e-09
C0S990,山豬窟,2025-04-21,22.318619,120.857372,1.4607769e-09
C0X190,安平,2025-04-21,22.993161,120.152181,0.99979174
C0K400,斗六,2025-04-21,23.720583,120.541127,0.0057164025
12J990,口湖工作站,2025-04-21,23.589978,120.180394,0.009021994
C0O830,北寮,2025-04-21,23.079561,120.495008,1.5992452e-08
C1D410,白蘭,2025-04-21,24.579364,121.079947,4.2883554e-09
C0S970,加津林,2025-04-21,22.416211,120.926942,3.1961687e-08
C0D700,關西,2025-04-21,24.7977,121.1732,4.9644275e-09
C0M810,里佳,2025-04-21,23.389125,120.716647,3.0424365e-09
C0U750,龜山島,2025-04-21,24.841667,121.953133,0.0021007014
C0R810,內獅,2025-04-21,22.305064,120.642986,8.407531e-07
C1M390,龍美,2025-04-21,23.406728,120.654417,2.4835338e-09
C2FB60,頭櫃山,2025-04-21,24.129842,120.858925,3.826172e-09
C1H840,國三N238K,2025-04-21,23.841008,120.707711,5.6539498e-09
CAQ030,崎峰國小,2025-04-21,22.42565,120.49521,1.143393e-05
C2E520,大湖,2025-04-21,24.414939,120.870872,3.512576e-06
467530,阿里山,2025-04-21,23.508208,120.813242,9.464125e-09
C1E691,南湖,2025-04-21,24.40135,120.837533,1.4394883e-06
C0FA30,梧棲,2025-04-21,24.256003,120.523381,0.1926816
C1V231,高中,2025-04-21,23.134911,120.716711,2.3225504e-09
C0AK30,硬漢嶺,2025-04-21,25.136097,121.426372,2.4372266e-09
C0F9V0,新社,2025-04-21,24.200172,120.815806,3.6689121e-07
C0H890,埔里,2025-04-21,23.972169,120.952425,6.278103e-06
C0R690,墾丁,2025-04-21,21.966756,120.810269,6.1333577e-07
C0F0D0,審馬陣,2025-04-21,24.381675,121.4203,2.1931129e-08
C2W030,金門農試所,2025-04-21,24.448431,118.451786,5.148206e-09
C0R820,白鷺,2025-04-21,22.454275,120.666219,7.1194345e-10
C1V190,南天池,2025-04-21,23.27403,120.91176,7.253268e-09
K2E360,苗栗農改場,2025-04-21,24.495722,120.829111,3.4140954e-05
CAJ050,海口故事園區,2025-04-21,23.57543,120.14121,0.009281548
C2H9D0,三隻寮,2025-04-21,24.093078,120.861578,3.689418e-09
C0O990,媽廟,2025-04-21,22.99175,120.293525,0.99981374
C0D480,打鐵坑,2025-04-21,24.849664,121.150789,1.6448418e-08
C0Z220,和平林道,2025-04-21,24.343922,121.656317,1.0972195e-07
C0TA10,花蓮漁港,2025-04-21,23.995322,121.638331,2.8649322e-07
72C440,桃園農改場,2025-04-21,24.950944,121.030583,4.493935e-09
C1E711,馬拉邦山,2025-04-21,24.367306,120.901656,2.7557199e-09
C0SB20,富岡,2025-04-21,22.792467,121.192669,0.002719098
C0D560,竹東,2025-04-21,24.767147,121.057881,2.3773525e-08
C0F9U0,南屯,2025-04-21,24.137006,120.637969,0.047806732
C0M720,番路,2025-04-21,23.464657,120.554156,7.085455e-05
C0F0A0,雪山圈谷,2025-04-21,24.388594,121.236339,4.2281258e-08
C1A9N0,四十份,2025-04-21,24.934158,121.593283,2.21327e-09
C0U760,東澳,2025-04-21,24.52196,121.83318,0.61912185
C0X230,鹽水,2025-04-21,23.272621,120.247641,0.99505854
C2H9H0,苗改南投蜂場,2025-04-21,23.852589,120.693481,1.839764e-05
C0R950,萬隆國小,2025-04-21,22.507667,120.587817,2.0745667e-06
467540,大武,2025-04-21,22.35572,120.90374,3.855602e-08
C0V370,古亭坑,2025-04-21,22.893178,120.401947,0.9998836
C1I340,新興橋,2025-04-21,23.563333,120.868728,2.049714e-09
C0SA80,土坂,2025-04-21,22.453108,120.887572,1.1618978e-08
C0R160,鹽埔,2025-04-21,22.739558,120.530778,3.2852395e-08
C0AC40,大屯山,2025-04-21,25.175675,121.522408,4.7859685e-09
466850,五分山雷達站,2025-04-21,25.071182,121.781205,2.6556959e-09
C2H9L0,馬烈霸,2025-04-21,24.1512,121.201772,8.27525e-09
C1AI50,國三N016K,2025-04-21,25.034164,121.619664,2.4001092e-09
C1V600,藤枝,2025-04-21,23.071961,120.757042,1.8143429e-09
C1E601,南勢,2025-04-21,24.572486,120.734842,2.63429e-06
C0Z180,新城,2025-04-21,24.03946,121.60454,0.99989104
C0O980,新市,2025-04-21,23.061614,120.298197,0.9997999
C0K420,西螺,2025-04-21,23.800407,120.467394,0.0010936263
C0Z050,佳心,2025-04-21,23.34567,121.21316,2.1462716e-09
C0AD30,蘆洲,2025-04-21,25.086594,121.472331,2.5492175e-09
C0V610,梓官,2025-04-21,22.760558,120.267211,0.9998311
K2F750,種苗改良場,2025-04-21,24.225972,120.800917,7.229687e-07
C0UA80,大溪漁港,2025-04-21,24.941801,121.902955,7.3791635e-09
C1AI60,國一39K邊坡,2025-04-21,25.064361,121.383836,2.9553002e-09
C0W150,金寧,2025-04-21,24.457703,118.328989,4.970586e-09
C0R960,內埔,2025-04-21,22.608483,120.570714,4.245013e-06
V2C250,八德合作社,2025-04-21,24.93775,121.266389,3.5077659e-09
C2H9S0,龍南,2025-04-21,23.953536,120.833183,2.5047604e-09
C0AH40,平等,2025-04-21,25.129142,121.577086,2.282264e-09
C0R540,佳冬,2025-04-21,22.419456,120.552375,5.9019476e-05
466950,彭佳嶼,2025-04-21,25.627975,122.079744,6.345377e-08
C0A890,雙溪,2025-04-21,25.036003,121.864242,3.9496535e-09
C0C480,桃園,2025-04-21,24.992425,121.323172,4.2019552e-09
C0AH50,林口,2025-04-21,25.072181,121.38084,2.958972e-09
A2K360,水試臺西試驗場,2025-04-21,23.717231,120.190522,0.6825501
C2M960,外寮,2025-04-21,23.562643,120.665688,2.061948e-09
C0F9S0,烏日,2025-04-21,24.107058,120.624103,1.0913553e-05
C0C490,八德,2025-04-21,24.928708,121.283289,3.484447e-09
C0R190,赤山,2025-04-21,22.592333,120.614306,3.260907e-06
C0T820,天祥,2025-04-21,24.179597,121.495639,7.3536796e-08
C1F9E1,龍安,2025-04-21,24.1605,120.831961,4.7959034e-08
C0V820,小林,2025-04-21,23.148408,120.63325,5.5755267e-09
C2G870,芳苑,2025-04-21,23.922303,120.320025,5.0920647e-08
C0E850,大河,2025-04-21,24.618069,120.948578,2.3192298e-07
C1U670,寒溪,2025-04-21,24.634,121.71691,4.7609103e-07
C0N020,城西,2025-04-21,23.0568,120.0956,0.99974126
C1Z110,三棧,2025-04-21,24.11557,121.60501,6.48142e-09
C0R280,檳榔,2025-04-21,22.076078,120.836777,7.0259625e-07
C2H9J0,中台,2025-04-21,23.9996,120.938739,3.5117222e-09
C0F9L0,后里,2025-04-21,24.310436,120.729725,3.072963e-08
467441,高雄,2025-04-21,22.730432,120.312516,0.9998336
C0Z180,新城,2025-04-21,24.040486,121.604878,1.962397e-07
C0D540,橫山,2025-04-21,24.71116,121.11693,6.896794e-08
C1D420,太閣南,2025-04-21,24.632808,121.160575,2.3915867e-09
C1E770,公館,2025-04-21,24.526914,120.830806,5.614528e-05
CAN130,水試所海水繁養殖中心,2025-04-21,23.120802,120.07968,0.991398
C1I430,翠華,2025-04-21,24.191961,121.224339,1.2118775e-08
C1M400,菜瓜坪,2025-04-21,23.251928,120.576103,5.5012865e-09
C0G730,二林,2025-04-21,23.903325,120.376081,0.0030757808
72M360,南改義竹分場,2025-04-21,23.360694,120.279361,0.9881751
V2K620,麥寮合作社,2025-04-21,23.753836,120.294783,0.9957886
C0Z070,舞鶴,2025-04-21,23.46811,121.37407,4.286311e-09
C0B040,大武崙,2025-04-21,25.166676,121.706993,3.5316787e-09
C1Z030,紅葉,2025-04-21,23.493119,121.338806,5.5573928e-09
C1I050,丹大,2025-04-21,23.753747,121.141147,8.114171e-09
C0I080,信義,2025-04-21,23.689694,120.851036,2.3083033e-09
C2M920,朴子農改,2025-04-21,23.469889,120.259383,0.77034444
C2A880,福隆,2025-04-21,25.017842,121.942083,4.386025e-09
C0Z160,鳳林,2025-04-21,23.746114,121.453411,5.9643503e-09
C0V210,復興,2025-04-21,23.222403,120.806089,1.1745808e-08
C0H990,昆陽,2025-04-21,24.121322,121.273642,2.3503862e-08
C0R741,獅子,2025-04-21,22.202308,120.705236,7.519457e-08
C0S710,鹿野,2025-04-21,22.917711,121.122994,4.253865e-08
C0I530,小奇萊,2025-04-21,24.131764,121.295717,2.497072e-08
C2K630,荷苞,2025-04-21,23.657717,120.595144,0.048448168
C0Z080,富源,2025-04-21,23.587642,121.378225,7.947475e-09
C0SB10,美和,2025-04-21,22.682078,121.060236,4.248848e-06
C2K620,馬光農場,2025-04-21,23.721453,120.378864,0.022646926
C1I140,卡奈托灣,2025-04-21,23.754364,121.087872,2.8257174e-09
C0I520,玉山風口,2025-04-21,23.470489,120.955994,3.3560596e-08
C1G691,下水埔,2025-04-21,23.816114,120.5676,0.00023911214
C0X110,臺南市南區,2025-04-21,22.961189,120.188378,0.99981123
C0V680,仁武,2025-04-21,22.701083,120.347722,0.9991436
C2G840,北斗,2025-04-21,23.877586,120.514222,0.2832229
C0R900,竹坑,2025-04-21,22.1385,120.7022,8.167027e-08
C0K250,崙背,2025-04-21,23.75555,120.318925,0.99573493
C0G860,社頭,2025-04-21,23.897647,120.5862,0.09750162
C0X150,安定,2025-04-21,23.102614,120.227839,0.99987185
C0R590,里港,2025-04-21,22.77919,120.49459,3.7473626e-08
C0E610,馬都安,2025-04-21,24.451272,120.930192,9.393546e-07
C0E550,明德,2025-04-21,24.583486,120.885411,1.0181828e-05
C0R150,三地門,2025-04-21,22.709889,120.639944,9.4164267e-07
C0G910,花壇,2025-04-21,24.032076,120.549461,0.10716905
C1D400,鳥嘴山,2025-04-21,24.71909,121.28387,1.4380289e-08
C0K500,元長,2025-04-21,23.64981,120.315024,0.8835076
C0F0B0,石岡,2025-04-21,24.276061,120.777644,1.7723384e-08
C2V250,甲仙,2025-04-21,23.080106,120.591758,5.934144e-09
C0SA20,金崙山,2025-04-21,22.567419,120.959667,1.0342843e-09
C0V350,溪埔,2025-04-21,22.738578,120.446797,2.2144828e-08
C0M660,溪口,2025-04-21,23.604131,120.403569,0.7786018
C1S880,壽卡,2025-04-21,22.238911,120.858903,1.0053388e-09
72D680,桃改新埔分場,2025-04-21,24.834444,121.066111,1.48823425e-08
