站號,站名,日期,lat,lon,BlastGRU-TW
K2F750,種苗繁殖,2025-02-07,24.225972,120.800917,0.006973071
C0R170,屏東,2025-02-07,22.660269,120.494072,0.0036274493
467990,馬祖,2025-02-07,26.169269,119.923419,0.00035783727
C2E540,後龍,2025-02-07,24.606489,120.783933,0.0006278019
467300,東吉島,2025-02-07,23.25695,119.667467,0.00021175185
G2F820,農業試驗所,2025-02-07,24.031261,120.688133,0.012717887
467410,臺南,2025-02-07,22.993239,120.204772,0.0065952926
C0V310,美濃,2025-02-07,22.898742,120.519153,0.19483028
E2S960,林試太麻里2,2025-02-07,22.598014,120.989761,0.0013062666
72C440,桃園農改,2025-02-07,24.950944,121.030583,0.0007598962
C1H860,瑞岩,2025-02-07,24.123772,121.18345,0.0003850479
72G600,臺中農改,2025-02-07,24.003028,120.534389,0.009451188
72N100,臺南農改,2025-02-07,23.0605,120.342194,0.041704964
72T250,花蓮農改,2025-02-07,23.975222,121.563889,0.00012260803
467620,蘭嶼,2025-02-07,22.036969,121.558339,8.119883e-05
K2E360,苗栗農改,2025-02-07,24.495722,120.829111,0.0004952967
467050,新屋,2025-02-07,25.006744,121.047486,0.0009871281
467550,玉山,2025-02-07,23.487614,120.959522,0.00030283508
466881,新北,2025-02-07,24.9593,121.52,0.0008040227
467540,大武,2025-02-07,22.355675,120.903789,0.0035997597
72Q010,高雄農改,2025-02-07,22.709333,120.525889,0.0013196216
U2H480,臺大溪頭,2025-02-07,23.670306,120.798194,0.0019883616
C0Z180,新城,2025-02-07,24.03946,121.60454,0.00012261143
B2N890,畜試所,2025-02-07,23.058972,120.336406,0.041704964
467441,高雄,2025-02-07,22.7304,120.3125,0.023963515
