站號,站名,日期,lat,lon,BlastGRU-TW
12J990,口湖工作站,2025-06-10,23.589978,120.180394,0.2307162
12Q970,東港工作站,2025-06-10,22.479997,120.466058,0.11957083
12Q980,恆春工作站,2025-06-10,22.079678,120.714425,0.053726345
466881,新北,2025-06-10,24.959207,121.525196,0.013640684
466900,淡水,2025-06-10,25.164889,121.448906,0.019084007
466920,臺北,2025-06-10,25.037658,121.514853,0.009895919
466940,基隆,2025-06-10,25.133314,121.740475,0.011842425
466990,花蓮,2025-06-10,23.975128,121.613275,0.9650291
467050,新屋,2025-06-10,25.006725,121.047492,0.08680085
467080,宜蘭,2025-06-10,24.763975,121.756528,0.9309936
467270,田中,2025-06-10,23.873803,120.581286,0.024322394
467280,後龍,2025-06-10,24.648563,120.831834,0.046123058
467290,古坑,2025-06-10,23.633639,120.551889,0.11165612
467300,東吉島,2025-06-10,23.25727,119.66762,0.15067627
467350,澎湖,2025-06-10,23.565503,119.563094,0.17724943
467410,臺南,2025-06-10,22.99328,120.20492,0.106922776
467420,永康,2025-06-10,23.038386,120.2367,0.077671506
467441,高雄,2025-06-10,22.730432,120.312516,0.10149089
467480,嘉義,2025-06-10,23.495925,120.432906,0.08662733
467490,臺中,2025-06-10,24.145736,120.684075,0.072651595
467540,大武,2025-06-10,22.35572,120.90374,0.051787578
467571,新竹,2025-06-10,24.827853,121.014219,0.03339378
467590,恆春,2025-06-10,22.003897,120.746339,0.07368966
467610,成功,2025-06-10,23.097486,121.373428,0.16072497
467620,蘭嶼,2025-06-10,22.0369,121.55843,0.99135596
467660,臺東,2025-06-10,22.752211,121.154586,0.2292631
467790,墾丁雷達站,2025-06-10,21.948235,120.808028,0.0919198
72AI40,桃改樹林分場,2025-06-10,24.944503,121.386972,0.010641119
72C440,桃園農改場,2025-06-10,24.950944,121.030583,0.09945962
72D680,桃改新埔分場,2025-06-10,24.834444,121.066111,0.026900532
72G600,臺中農改場,2025-06-10,24.003028,120.534389,0.056492954
72K220,南改斗南分場,2025-06-10,23.634556,120.477333,0.09894081
72M360,南改義竹分場,2025-06-10,23.360694,120.279361,0.21479268
72M700,南改鹿草分場,2025-06-10,23.416869,120.283061,0.124239795
72N100,臺南農改場,2025-06-10,23.0605,120.342194,0.091257244
72N240,七股研究中心,2025-06-10,23.081672,120.062894,0.15333277
72Q010,高雄農改場,2025-06-10,22.709333,120.525889,0.037268307
72S200,東改班鳩分場,2025-06-10,22.829528,121.077694,0.7641242
72S590,東改賓朗果園,2025-06-10,22.813889,121.071278,0.88209707
72T250,花蓮農改場,2025-06-10,23.975222,121.563889,0.97252876
72U480,花改蘭陽分場,2025-06-10,24.686306,121.716583,0.8904522
72V140,高改旗南分場,2025-06-10,22.857861,120.516667,0.027336879
82A750,茶改北部分場,2025-06-10,24.955778,121.631222,0.9151292
82C160,茶改場,2025-06-10,24.908472,121.185333,0.014552336
82H840,茶改南部分場,2025-06-10,23.762528,120.7405,0.089784294
82S580,茶改東部分場,2025-06-10,22.907694,121.130139,0.8551257
A2C560,農工中心,2025-06-10,24.985917,121.239833,0.01791507
A2K360,水試臺西試驗場,2025-06-10,23.717231,120.190522,0.10521038
A2K570,古坑花卉中心,2025-06-10,23.63353,120.55239,0.11165612
A2K630,臺大雲林校區,2025-06-10,23.730628,120.423903,0.12182953
A2N290,臺南蘭花園區,2025-06-10,23.340258,120.379661,0.09898853
B2E890,畜試北區分所,2025-06-10,24.527806,120.770972,0.16895725
B2N890,畜產試驗所,2025-06-10,23.058972,120.336406,0.09056405
B2Q810,畜試南區分所,2025-06-10,21.945583,120.802167,0.08051115
B2U990,畜試東區分所,2025-06-10,24.669039,121.832561,0.8124385
C0A520,山佳,2025-06-10,24.974944,121.402008,0.009677804
C0A530,坪林,2025-06-10,24.938183,121.70975,0.7879866
C0A550,泰平,2025-06-10,24.971197,121.823711,0.8012348
C0A570,桶後,2025-06-10,24.848222,121.597992,0.9492166
C0A640,石碇,2025-06-10,24.993969,121.662917,0.027774548
C0A770,科教館,2025-06-10,25.096356,121.516507,0.012765971
C0A860,大坪,2025-06-10,25.165914,121.632969,0.013079466
C0A890,雙溪,2025-06-10,25.036003,121.864242,0.05879868
C0A931,三和,2025-06-10,25.233153,121.595236,0.12125592
C0A940,金山,2025-06-10,25.223628,121.643967,0.021480141
C0A950,鼻頭角,2025-06-10,25.129036,121.923372,0.049851447
C0A970,三貂角,2025-06-10,25.007606,122.002058,0.12976609
C0A980,社子,2025-06-10,25.109508,121.469681,0.018453885
C0A9C0,天母,2025-06-10,25.117494,121.537169,0.01636643
C0A9F0,內湖,2025-06-10,25.079422,121.57545,0.009895919
C0AC60,三峽,2025-06-10,24.939025,121.369728,0.010744034
C0AC70,信義,2025-06-10,25.037822,121.564597,0.0117767155
C0AC80,文山,2025-06-10,25.00235,121.575728,0.017649017
C0ACA0,新莊,2025-06-10,25.051478,121.446756,0.007954515
C0AD10,八里,2025-06-10,25.150211,121.403947,0.023593863
C0AD30,蘆洲,2025-06-10,25.086594,121.472331,0.012941221
C0AD40,土城,2025-06-10,24.973208,121.445169,0.0130543895
C0AD50,鶯歌,2025-06-10,24.951533,121.346294,0.010984638
C0AG80,中和,2025-06-10,24.991622,121.491792,0.0130543895
C0AH00,汐止,2025-06-10,25.066881,121.658778,0.009895919
C0AH10,永和,2025-06-10,25.01125,121.508111,0.012828748
C0AH40,平等,2025-06-10,25.129142,121.577086,0.019881131
C0AH50,林口,2025-06-10,25.072181,121.38084,0.6494466
C0AH70,松山,2025-06-10,25.04871,121.55042,0.009895919
C0AH80,深坑,2025-06-10,25.002703,121.628328,0.017356314
C0AI00,五股,2025-06-10,25.07445,121.42728,0.16210185
C0AI10,屈尺,2025-06-10,24.92184,121.54475,0.015566277
C0AI20,白沙灣,2025-06-10,25.283128,121.519058,0.024897436
C0AI30,三重,2025-06-10,25.057328,121.500629,0.009801729
C0AI40,石牌,2025-06-10,25.115597,121.513139,0.01598486
C0AJ20,野柳,2025-06-10,25.20703,121.690021,0.009992482
C0AJ30,淡水觀海,2025-06-10,25.184591,121.408616,0.027681446
C0AJ40,石門,2025-06-10,25.273672,121.601198,0.04183809
C0AJ50,水湳洞,2025-06-10,25.123695,121.862238,0.024647053
C0AJ60,六塊厝,2025-06-10,25.24,121.4481,0.022498412
C0AJ70,田寮,2025-06-10,25.2698,121.4886,0.023959093
C0AJ80,板橋,2025-06-10,25.0107,121.4489,0.012828748
C0AJ90,澳底,2025-06-10,25.0552,121.9253,0.040109128
C0AK10,太平里,2025-06-10,25.134937,121.364899,0.02384837
C0B010,七堵,2025-06-10,25.094819,121.71713,0.015717078
C0B020,基隆嶼,2025-06-10,25.19141,121.78391,0.009327158
C0B040,大武崙,2025-06-10,25.166676,121.706993,0.012497972
C0B050,八斗子,2025-06-10,25.144754,121.79167,0.011723659
C0B060,暖暖,2025-06-10,25.0957,121.7403,0.017512789
C0C460,復興,2025-06-10,24.820208,121.352281,0.074257195
C0C480,桃園,2025-06-10,24.992425,121.323172,0.010655089
C0C490,八德,2025-06-10,24.928708,121.283289,0.011036572
C0C590,觀音,2025-06-10,25.027072,121.153317,0.036581505
C0C620,蘆竹,2025-06-10,25.084275,121.265767,0.017184857
C0C630,大溪,2025-06-10,24.882853,121.265547,0.013087448
C0C650,平鎮,2025-06-10,24.897503,121.214636,0.011509571
C0C660,楊梅,2025-06-10,24.912375,121.143047,0.013735775
C0C670,龍潭,2025-06-10,24.870056,121.221389,0.013865897
C0C680,龜山,2025-06-10,25.02846,121.38656,0.011230288
C0C700,中壢,2025-06-10,24.977661,121.256375,0.0136300055
C0C710,大溪永福,2025-06-10,24.892936,121.324975,0.012294017
C0C720,竹圍,2025-06-10,25.112692,121.239824,0.014668975
C0C730,中大臨海站,2025-06-10,24.966126,121.008581,0.07224791
C0C740,觀音工業區,2025-06-10,25.064764,121.114856,0.08415037
C0C750,新興坑尾,2025-06-10,25.0061,121.0971,0.03413156
C0D430,峨眉,2025-06-10,24.6905,121.017189,0.08381815
C0D480,打鐵坑,2025-06-10,24.849664,121.150789,0.014214252
C0D540,橫山,2025-06-10,24.71116,121.11693,0.029165052
C0D560,竹東,2025-06-10,24.767147,121.057881,0.041542176
C0D580,寶山,2025-06-10,24.735006,121.025192,0.05293074
C0D590,新豐,2025-06-10,24.87068,120.97721,0.18824318
C0D650,湖口,2025-06-10,24.904794,121.043628,0.05509517
C0D660,新竹市東區,2025-06-10,24.798681,120.986942,0.028770067
C0D670,海天一線,2025-06-10,24.831986,120.914438,0.12502925
C0D680,香山濕地,2025-06-10,24.783581,120.914988,0.02849686
C0D690,外湖,2025-06-10,24.917735,120.968711,0.034675065
C0D700,關西,2025-06-10,24.7977,121.1732,0.015648378
C0E420,竹南,2025-06-10,24.708978,120.888897,0.098848
C0E430,南庄,2025-06-10,24.601775,121.000214,0.08725097
C0E550,明德,2025-06-10,24.583486,120.885411,0.055035837
C0E570,白沙屯,2025-06-10,24.549447,120.696803,0.10092861
C0E590,通霄,2025-06-10,24.471892,120.704622,0.119997844
C0E730,頭份,2025-06-10,24.688247,120.912206,0.09180267
C0E740,造橋,2025-06-10,24.637056,120.864778,0.045356844
C0E750,苗栗,2025-06-10,24.564569,120.824575,0.052217063
C0E780,銅鑼,2025-06-10,24.489681,120.790853,0.44568184
C0E791,卓蘭,2025-06-10,24.3126,120.8244,0.20105867
C0E810,西湖,2025-06-10,24.562947,120.7485,0.42223713
C0E820,獅潭,2025-06-10,24.539133,120.920042,0.088284716
C0E830,苑裡,2025-06-10,24.439714,120.653053,0.30549318
C0E850,大河,2025-06-10,24.618069,120.948578,0.028436078
C0E870,高鐵苗栗,2025-06-10,24.60725,120.826094,0.045544565
C0E910,海埔,2025-06-10,24.648767,120.772435,0.28064764
C0E920,通霄漁港,2025-06-10,24.498589,120.673876,0.19921964
C0E930,龍鳳,2025-06-10,24.700034,120.859125,0.076449476
C0F0B0,石岡,2025-06-10,24.276061,120.777644,0.16960065
C0F850,東勢,2025-06-10,24.246428,120.833047,0.42967942
C0F970,大坑,2025-06-10,24.173142,120.722289,0.070586614
C0F9I0,神岡,2025-06-10,24.272481,120.658314,0.19070277
C0F9K0,大安,2025-06-10,24.345061,120.588025,0.22419097
C0F9L0,后里,2025-06-10,24.310436,120.729725,0.122803904
C0F9M0,豐原,2025-06-10,24.254322,120.720692,0.1009501
C0F9N0,大里,2025-06-10,24.092464,120.701378,0.027786985
C0F9O0,潭子,2025-06-10,24.213106,120.703933,0.095747426
C0F9P0,清水,2025-06-10,24.312297,120.562242,0.19083214
C0F9Q0,外埔,2025-06-10,24.347817,120.705686,0.12529297
C0F9R0,龍井,2025-06-10,24.184536,120.528972,0.11740572
C0F9S0,烏日,2025-06-10,24.107058,120.624103,0.025141506
C0F9T0,西屯,2025-06-10,24.179494,120.641275,0.050198846
C0F9U0,南屯,2025-06-10,24.137006,120.637969,0.038642015
C0F9X0,大雅(中科園區),2025-06-10,24.21528,120.62445,0.108011894
C0FA10,松柏,2025-06-10,24.429115,120.617482,0.21125083
C0FA20,溫寮,2025-06-10,24.372177,120.583125,0.17694707
C0FA30,梧棲,2025-06-10,24.256003,120.523381,0.19083214
C0FA40,臺中電廠,2025-06-10,24.2146,120.4907,0.18508135
C0FA50,霧峰,2025-06-10,24.0419,120.6995,0.020762738
C0FB70,大甲溪埔,2025-06-10,24.370625,120.620067,0.24544996
C0G620,芬園,2025-06-10,24.015678,120.6213,0.019817093
C0G650,員林,2025-06-10,23.946503,120.585597,0.041943926
C0G660,溪湖,2025-06-10,23.94835,120.479122,0.04935691
C0G720,溪州,2025-06-10,23.851589,120.499093,0.042690486
C0G730,二林,2025-06-10,23.903325,120.376081,0.05922508
C0G740,大城,2025-06-10,23.852487,120.320935,0.13310717
C0G770,福興,2025-06-10,24.041289,120.437669,0.10576771
C0G780,秀水,2025-06-10,24.03405,120.503869,0.052817326
C0G800,埔鹽,2025-06-10,24.000394,120.431683,0.109598465
C0G810,埔心,2025-06-10,23.947633,120.525456,0.054762408
C0G820,田尾,2025-06-10,23.901669,120.509389,0.027633943
C0G830,埤頭,2025-06-10,23.866003,120.452806,0.043127317
C0G860,社頭,2025-06-10,23.897647,120.5862,0.024437154
C0G880,二水,2025-06-10,23.810742,120.6173,0.067833215
C0G890,伸港,2025-06-10,24.148933,120.484403,0.0943524
C0G900,線西,2025-06-10,24.143358,120.443536,0.08987384
C0G910,花壇,2025-06-10,24.032076,120.549461,0.064967126
C0G920,永靖,2025-06-10,23.924703,120.547533,0.027633943
C0G940,竹塘,2025-06-10,23.848253,120.386764,0.12791625
C0G950,防潮門,2025-06-10,24.1835,120.4871,0.11740572
C0G960,福寶,2025-06-10,24.0443,120.3814,0.10952585
C0G970,三豐,2025-06-10,23.882,120.2895,0.1585568
C0G9B0,和美,2025-06-10,24.105169,120.492131,0.07934293
C0H890,埔里,2025-06-10,23.972169,120.952425,0.009929928
C0H960,草屯,2025-06-10,23.973672,120.68085,0.019188173
C0I110,竹山,2025-06-10,23.761225,120.688156,0.07532993
C0I360,水里,2025-06-10,23.812553,120.849792,0.073999256
C0I380,集集,2025-06-10,23.828206,120.801467,0.07244693
C0I410,名間,2025-06-10,23.837053,120.701447,0.037483633
C0I420,國姓,2025-06-10,24.037803,120.855072,0.026498863
C0I460,南投,2025-06-10,23.911469,120.687331,0.018639356
C0K250,崙背,2025-06-10,23.75555,120.318925,0.14153948
C0K280,四湖,2025-06-10,23.630414,120.227125,0.15485787
C0K291,宜梧,2025-06-10,23.536281,120.169329,0.1761617
C0K330,虎尾,2025-06-10,23.719183,120.442036,0.1372453
C0K390,土庫,2025-06-10,23.679029,120.395574,0.12010895
C0K400,斗六,2025-06-10,23.720583,120.541127,0.040596556
C0K410,北港,2025-06-10,23.573957,120.292802,0.17165343
C0K420,西螺,2025-06-10,23.800407,120.467394,0.087043434
C0K430,褒忠,2025-06-10,23.690938,120.303634,0.13525563
C0K440,二崙,2025-06-10,23.772797,120.408944,0.07466482
C0K450,大埤,2025-06-10,23.646074,120.431537,0.084719636
C0K460,斗南,2025-06-10,23.678734,120.478359,0.09894081
C0K470,林內,2025-06-10,23.748675,120.609642,0.10488506
C0K480,莿桐,2025-06-10,23.761192,120.502372,0.037878707
C0K500,元長,2025-06-10,23.64981,120.315024,0.1277515
C0K510,水林,2025-06-10,23.572924,120.24597,0.16813329
C0K530,臺西,2025-06-10,23.701547,120.197559,0.10799075
C0K550,蔦松,2025-06-10,23.514319,120.229736,0.1761617
C0K560,棋山,2025-06-10,23.68645,120.603417,0.11594178
C0K580,高鐵雲林,2025-06-10,23.737456,120.417944,0.12182953
C0K590,雲林東勢,2025-06-10,23.674192,120.255721,0.1599311
C0K600,箔子寮,2025-06-10,23.6197,120.14,0.2307162
C0M520,東後寮,2025-06-10,23.369908,120.248065,0.21247068
C0M640,中埔,2025-06-10,23.42538,120.5229,0.09468293
C0M650,朴子,2025-06-10,23.43463,120.23902,0.12276001
C0M660,溪口,2025-06-10,23.604131,120.403569,0.06823123
C0M670,大林,2025-06-10,23.600616,120.45841,0.07617191
C0M680,太保,2025-06-10,23.455062,120.331455,0.0972951
C0M690,水上,2025-06-10,23.419734,120.388909,0.0912132
C0M700,竹崎,2025-06-10,23.526178,120.555508,0.11970456
C0M710,東石,2025-06-10,23.458927,120.15385,0.20593016
C0M720,番路,2025-06-10,23.464657,120.554156,0.09993794
C0M730,嘉義市東區,2025-06-10,23.457673,120.460531,0.07751235
C0M740,六腳,2025-06-10,23.492871,120.290625,0.10442328
C0M750,布袋,2025-06-10,23.380878,120.167789,0.22064805
C0M760,民雄,2025-06-10,23.551754,120.428457,0.07399268
C0M770,嘉義梅山,2025-06-10,23.585398,120.555587,0.10311632
C0M780,鹿草,2025-06-10,23.41134,120.30835,0.12783526
C0M790,新港,2025-06-10,23.553269,120.345728,0.10334708
C0M800,茶山,2025-06-10,23.299075,120.664767,0.01479829
C0M880,好美里,2025-06-10,23.3364,120.138,0.2274322
C0N010,鯤鯓國小,2025-06-10,23.1879,120.0889,0.17046085
C0N020,城西,2025-06-10,23.0568,120.0956,0.0928254
C0N030,四草,2025-06-10,23.0235,120.1116,0.09142836
C0N040,蘆竹溝,2025-06-10,23.2344,120.0961,0.15708478
C0N050,蚵寮,2025-06-10,23.301,120.1104,0.1876017
C0O830,北寮,2025-06-10,23.079561,120.495008,0.032684024
C0O840,王爺宮,2025-06-10,23.222064,120.40085,0.06940847
C0O860,大內,2025-06-10,23.11885,120.36083,0.07385565
C0O900,善化,2025-06-10,23.112883,120.297219,0.069545306
C0O960,崎頂,2025-06-10,22.959547,120.369317,0.1336523
C0O970,虎頭埤,2025-06-10,23.021375,120.347878,0.10091384
C0O980,新市,2025-06-10,23.061614,120.298197,0.09047448
C0O990,媽廟,2025-06-10,22.99175,120.293525,0.080438785
C0R150,三地門,2025-06-10,22.709889,120.639944,0.14951971
C0R160,鹽埔,2025-06-10,22.739558,120.530778,0.037268307
C0R190,赤山,2025-06-10,22.592333,120.614306,0.07912657
C0R220,潮州,2025-06-10,22.534361,120.54,0.11619653
C0R240,來義,2025-06-10,22.527306,120.625111,0.107070684
C0R260,春日,2025-06-10,22.370361,120.628306,0.055862047
C0R270,琉球嶼,2025-06-10,22.332244,120.362236,0.27546537
C0R280,檳榔,2025-06-10,22.076078,120.836777,0.3971551
C0R320,車城,2025-06-10,22.0744,120.716247,0.053726345
C0R341,牡丹,2025-06-10,22.130036,120.792639,0.36394876
C0R350,貓鼻頭,2025-06-10,21.921774,120.7358,0.12719937
C0R470,高樹,2025-06-10,22.826389,120.600806,0.041530833
C0R480,長治,2025-06-10,22.693128,120.542622,0.04130728
C0R490,九如,2025-06-10,22.7405,120.490503,0.036873884
C0R520,崁頂,2025-06-10,22.514781,120.506914,0.11252461
C0R540,佳冬,2025-06-10,22.419456,120.552375,0.049491897
C0R550,新埤,2025-06-10,22.467947,120.582894,0.095083684
C0R560,新園,2025-06-10,22.5434,120.461558,0.05496821
C0R570,麟洛,2025-06-10,22.65078,120.52719,0.028997345
C0R580,南州,2025-06-10,22.48591,120.50274,0.11957083
C0R590,里港,2025-06-10,22.77919,120.49459,0.02674956
C0R620,墾雷,2025-06-10,21.900836,120.855269,0.16147383
C0R640,東港,2025-06-10,22.46247,120.44074,0.11957083
C0R650,竹田,2025-06-10,22.58486,120.54344,0.079876676
C0R660,枋寮,2025-06-10,22.367722,120.590647,0.049136568
C0R670,楓港,2025-06-10,22.190131,120.692156,0.037996214
C0R680,佳樂水,2025-06-10,21.993578,120.861633,0.081550024
C0R690,墾丁,2025-06-10,21.966756,120.810269,0.10792041
C0R700,枋山,2025-06-10,22.246844,120.661086,0.04269512
C0R710,龍磐,2025-06-10,21.931672,120.838942,0.19746515
C0R720,旭海,2025-06-10,22.205403,120.887614,0.23385982
C0R730,大坪頂,2025-06-10,22.024633,120.69355,0.079120465
C0R741,獅子,2025-06-10,22.202308,120.705236,0.06679774
C0R760,南仁湖,2025-06-10,22.084681,120.863353,0.8542107
C0R770,保力,2025-06-10,22.071122,120.764111,0.0525683
C0R780,滿州,2025-06-10,22.024403,120.839892,0.07819249
C0R790,九棚,2025-06-10,22.14195,120.889281,0.1486337
C0R800,丹路,2025-06-10,22.204481,120.750989,0.087255605
C0R810,內獅,2025-06-10,22.305064,120.642986,0.034919087
C0R830,高士,2025-06-10,22.121825,120.836781,0.9615019
C0R850,林邊,2025-06-10,22.4634,120.5339,0.12237033
C0R860,鼻頭,2025-06-10,22.1043,120.8979,0.048608
C0R870,興海,2025-06-10,21.9752,120.8439,0.08051115
C0R880,後壁湖,2025-06-10,21.9457,120.7457,0.0628863
C0R890,山海,2025-06-10,21.9878,120.7091,0.06357931
C0R900,竹坑,2025-06-10,22.1385,120.7022,0.054346446
C0R910,下寮,2025-06-10,22.3929,120.5548,0.049136568
C0R920,塭仔,2025-06-10,22.4169,120.5197,0.048623484
C0R930,萬丹,2025-06-10,22.5885,120.4851,0.038381148
C0R940,加祿堂,2025-06-10,22.3363,120.6217,0.035396773
C0R950,萬隆國小,2025-06-10,22.507667,120.587817,0.09307431
C0R960,內埔,2025-06-10,22.608483,120.570714,0.08171857
C0S710,鹿野,2025-06-10,22.917711,121.122994,0.9501709
C0S730,綠島,2025-06-10,22.6672,121.47533,0.6103536
C0S740,池上,2025-06-10,23.119628,121.209469,0.9883363
C0S770,大溪山,2025-06-10,22.478475,120.943325,0.82731825
C0S790,金崙,2025-06-10,22.538122,120.966875,0.9330562
C0S810,東河,2025-06-10,22.972672,121.303986,0.18371509
C0S830,長濱,2025-06-10,23.286817,121.411975,0.9747463
C0S840,南田,2025-06-10,22.279725,120.889208,0.07719114
C0S890,關山,2025-06-10,23.0395,121.175017,0.9115232
C0S900,蘭嶼高中,2025-06-10,22.04909,121.51214,0.46966267
C0S910,蘭嶼燈塔,2025-06-10,22.081197,121.503117,0.8169311
C0S920,金峰嘉蘭,2025-06-10,22.594789,120.960825,0.82660204
C0S930,延平,2025-06-10,22.902581,121.084058,0.8526063
C0S940,石寧山,2025-06-10,23.223772,121.406639,0.9416625
C0S950,七塊厝,2025-06-10,22.954453,121.229922,0.91765404
C0S960,香蘭,2025-06-10,22.587569,120.993375,0.5112851
C0S970,加津林,2025-06-10,22.416211,120.926942,0.05541212
C0S990,山豬窟,2025-06-10,22.318619,120.857372,0.9737349
C0SA00,歷坵,2025-06-10,22.520969,120.89185,0.97398067
C0SA10,檳榔四格山,2025-06-10,22.810031,121.109308,0.80153275
C0SA30,都歷,2025-06-10,23.020333,121.323642,0.25290564
C0SA40,瑞和,2025-06-10,22.974361,121.156697,0.8279977
C0SA60,知本（水試所）,2025-06-10,22.702394,121.082761,0.4773224
C0SA80,土坂,2025-06-10,22.453108,120.887572,0.5150813
C0SA90,達仁林場,2025-06-10,22.264347,120.823972,0.4080657
C0SB10,美和,2025-06-10,22.682078,121.060236,0.5027604
C0SB20,富岡,2025-06-10,22.792467,121.192669,0.27173826
C0SB30,新蘭,2025-06-10,22.869214,121.223228,0.63446677
C0SB40,興隆,2025-06-10,22.913661,121.257469,0.67778957
C0SB50,叭嗡嗡,2025-06-10,23.047062,121.343223,0.10759893
C0SB60,白守蓮,2025-06-10,23.126769,121.401914,0.11925591
C0SB70,小港漁港,2025-06-10,23.158558,121.400431,0.20549834
C0SB80,長濱漁港,2025-06-10,23.313644,121.459994,0.13493025
C0T870,鯉魚潭,2025-06-10,23.935639,121.508944,0.98126864
C0T900,西林,2025-06-10,23.8119,121.441458,0.9698458
C0T960,光復,2025-06-10,23.660694,121.424964,0.96272105
C0T9A0,月眉山,2025-06-10,23.809928,121.539828,0.23311676
C0T9D0,和中,2025-06-10,24.26676,121.74103,0.96587384
C0T9E0,大坑,2025-06-10,23.880628,121.581981,0.8861998
C0T9F0,水璉,2025-06-10,23.797131,121.542514,0.94813395
C0T9I0,豐濱,2025-06-10,23.583897,121.514806,0.9788658
C0T9M0,靜浦,2025-06-10,23.455167,121.495028,0.9790656
C0T9N0,富里,2025-06-10,23.171639,121.249378,0.9847607
C0TA10,花蓮漁港,2025-06-10,23.995322,121.638331,0.9561348
C0TA20,加灣,2025-06-10,24.082025,121.608944,0.9668103
C0TA30,鹽寮,2025-06-10,23.845606,121.592664,0.9744534
C0U600,礁溪,2025-06-10,24.817539,121.765608,0.9163788
C0U650,玉蘭,2025-06-10,24.675286,121.587061,0.82803315
C0U750,龜山島,2025-06-10,24.841667,121.953133,0.96774155
C0U760,東澳,2025-06-10,24.52196,121.83318,0.8788642
C0U770,南澳,2025-06-10,24.44935,121.81022,0.96794957
C0U780,五結,2025-06-10,24.68637,121.79794,0.8695932
C0U860,頭城,2025-06-10,24.85323,121.8308,0.9088223
C0U870,大礁溪,2025-06-10,24.791042,121.675047,0.7565737
C0U880,北關,2025-06-10,24.9072,121.8734,0.8824537
C0U890,三星,2025-06-10,24.66812,121.65302,0.832609
C0U900,內城,2025-06-10,24.71813,121.68766,0.90451586
C0U910,冬山,2025-06-10,24.63373,121.7937,0.8124385
C0U940,羅東,2025-06-10,24.68184,121.74934,0.8827805
C0U970,大福,2025-06-10,24.80064,121.81389,0.92635334
C0U990,員山,2025-06-10,24.74435,121.72247,0.87766254
C0UA00,土場,2025-06-10,24.576533,121.495333,0.6892441
C0UA80,大溪漁港,2025-06-10,24.941801,121.902955,0.040961172
C0UA90,石城,2025-06-10,24.980444,121.951214,0.045877285
C0UB00,淡江大學蘭陽校園,2025-06-10,24.823239,121.730383,0.92530215
C0UB10,蘇澳,2025-06-10,24.5969,121.8571,0.8236544
C0UB20,壯圍,2025-06-10,24.7359,121.8163,0.8653916
C0V350,溪埔,2025-06-10,22.738578,120.446797,0.02700075
C0V360,內門,2025-06-10,22.975481,120.466769,0.06652147
C0V370,古亭坑,2025-06-10,22.893178,120.401947,0.06151505
C0V400,阿公店,2025-06-10,22.804194,120.355528,0.044692196
C0V440,鳳山,2025-06-10,22.646653,120.356122,0.21870989
C0V450,鳳森,2025-06-10,22.545064,120.392592,0.058224175
C0V490,新興,2025-06-10,22.627422,120.298803,0.09648606
C0V530,阿蓮,2025-06-10,22.883208,120.327508,0.068403624
C0V610,梓官,2025-06-10,22.760558,120.267211,0.13705061
C0V620,永安,2025-06-10,22.82315,120.236856,0.19109336
C0V630,茄萣,2025-06-10,22.906642,120.182608,0.1289616
C0V640,湖內,2025-06-10,22.887139,120.2445,0.14508438
C0V650,彌陀,2025-06-10,22.783806,120.246361,0.20443898
C0V660,岡山,2025-06-10,22.797078,120.294958,0.20443898
C0V680,仁武,2025-06-10,22.701083,120.347722,0.15398403
C0V690,鼓山,2025-06-10,22.623325,120.275575,0.09648606
C0V700,三民,2025-06-10,22.645017,120.311233,0.23411246
C0V710,苓雅,2025-06-10,22.622742,120.330669,0.090237595
C0V720,林園,2025-06-10,22.507747,120.394511,0.049029365
C0V730,大寮,2025-06-10,22.605614,120.395717,0.09159615
C0V740,旗山,2025-06-10,22.888614,120.483597,0.027782205
C0V750,路竹,2025-06-10,22.854997,120.259439,0.14912836
C0V760,橋頭,2025-06-10,22.757806,120.30575,0.13705061
C0V770,大社,2025-06-10,22.730306,120.346639,0.10261651
C0V790,萬山,2025-06-10,22.905944,120.688056,0.050437253
C0V800,六龜,2025-06-10,22.997889,120.633583,0.014084292
C0V810,左營,2025-06-10,22.67491,120.28491,0.23411246
C0V820,小林,2025-06-10,23.148408,120.63325,0.029004565
C0V840,鳳鼻頭,2025-06-10,22.5083,120.3591,0.05421214
C0V850,蚵仔寮,2025-06-10,22.7256,120.2527,0.13402113
C0V860,南寮,2025-06-10,22.7616,120.2339,0.13402113
C0V870,文安,2025-06-10,22.8025,120.2164,0.1994507
C0V880,興達,2025-06-10,22.8778,120.2127,0.14161086
C0V890,前鎮,2025-06-10,22.5718,120.3117,0.09513188
C0V900,汕尾,2025-06-10,22.4782,120.4151,0.11957083
C0V910,大樹,2025-06-10,22.684645,120.432803,0.041345615
C0W200,湖西,2025-06-10,23.596314,119.67275,0.20774171
C0X050,東河,2025-06-10,23.296598,120.385608,0.047632184
C0X060,下營,2025-06-10,23.22695,120.256261,0.078037634
C0X080,佳里,2025-06-10,23.173039,120.145086,0.17046085
C0X100,臺南市北區,2025-06-10,23.010394,120.194228,0.10353067
C0X110,臺南市南區,2025-06-10,22.961189,120.188378,0.087762974
C0X120,麻豆,2025-06-10,23.183289,120.248611,0.07601484
C0X130,官田,2025-06-10,23.193217,120.315422,0.053734835
C0X140,西港,2025-06-10,23.125608,120.203108,0.098283984
C0X150,安定,2025-06-10,23.102614,120.227839,0.098283984
C0X160,仁德,2025-06-10,22.968258,120.257689,0.08795538
C0X170,關廟,2025-06-10,22.963017,120.327797,0.113311954
C0X180,山上,2025-06-10,23.0757,120.363253,0.062293425
C0X190,安平,2025-06-10,22.993161,120.152181,0.094068214
C0X200,左鎮,2025-06-10,23.056758,120.408522,0.0989133
C0X210,白河,2025-06-10,23.347466,120.414427,0.050631177
C0X220,學甲,2025-06-10,23.230367,120.182187,0.15982448
C0X230,鹽水,2025-06-10,23.272621,120.247641,0.18985257
C0X240,關子嶺,2025-06-10,23.331169,120.508025,0.11507352
C0X250,新營,2025-06-10,23.310689,120.316681,0.09644336
C0X260,後壁,2025-06-10,23.366358,120.362326,0.09898853
C0X280,將軍,2025-06-10,23.214999,120.13577,0.15708478
C0X290,北門,2025-06-10,23.267772,120.125481,0.15708478
C0X300,鹿寮,2025-06-10,23.386047,120.477331,0.05121643
C0X320,柳營,2025-06-10,23.253328,120.375253,0.042891633
C0Z020,明里,2025-06-10,23.208717,121.262342,0.98075885
C0Z061,玉里,2025-06-10,23.3215,121.339656,0.61530256
C0Z070,舞鶴,2025-06-10,23.46811,121.37407,0.8659297
C0Z080,富源,2025-06-10,23.587642,121.378225,0.90470195
C0Z100,東華,2025-06-10,23.89525,121.549833,0.97717214
C0Z150,吉安光華,2025-06-10,23.930925,121.595153,0.97470635
C0Z160,鳳林,2025-06-10,23.746114,121.453411,0.94056255
C0Z170,卓溪,2025-06-10,23.3443,121.3029,0.9392698
C0Z180,新城,2025-06-10,24.040486,121.604878,0.9681904
C0Z190,富世,2025-06-10,24.14743,121.6297,0.97991276
C0Z200,萬榮,2025-06-10,23.709219,121.420106,0.9627573
C0Z210,瑞穗,2025-06-10,23.5239,121.39021,0.97673005
C0Z230,和平,2025-06-10,24.30717,121.77007,0.96561724
C0Z270,蕃薯寮,2025-06-10,23.73835,121.540108,0.9246654
C0Z280,德武,2025-06-10,23.47426,121.41071,0.9134433
C0Z300,東里,2025-06-10,23.26853,121.30547,0.9701598
C0Z310,清水斷崖,2025-06-10,24.218294,121.689142,0.83706206
C0Z330,安通山,2025-06-10,23.290728,121.348528,0.7739354
C2A540,四堵,2025-06-10,24.8926,121.745736,0.9054329
C2A560,福山,2025-06-10,24.776203,121.502811,0.9166304
C2A650,火燒寮,2025-06-10,25.002719,121.742892,0.0328074
C2A660,瑞芳,2025-06-10,25.113169,121.801147,0.063054025
C2A880,福隆,2025-06-10,25.017842,121.942083,0.042105794
C2A920,富貴角,2025-06-10,25.263783,121.565258,0.07365832
C2C410,中央大學,2025-06-10,24.967652,121.185165,0.030899284
C2D720,關西工作站,2025-06-10,24.757275,121.184792,0.016540932
C2D730,寶山農場,2025-06-10,24.732444,120.976153,0.07599229
C2E520,大湖,2025-06-10,24.414939,120.870872,0.16992798
C2E540,龍溪,2025-06-10,24.606489,120.783933,0.30478042
C2E970,八甲,2025-06-10,24.535811,120.795983,0.5357752
C2F000,大肚,2025-06-10,24.15295,120.572117,0.12002691
C2F930,大甲,2025-06-10,24.347667,120.640403,0.4790563
C2F9A0,中竹林,2025-06-10,24.103556,120.751061,0.023082342
C2G640,鹿港,2025-06-10,24.0753,120.430481,0.10952585
C2G840,北斗,2025-06-10,23.877586,120.514222,0.043125976
C2G870,芳苑,2025-06-10,23.922303,120.320025,0.15551597
C2G980,田頭村,2025-06-10,23.8263,120.444175,0.077549696
C2G9A0,畜試所彰化,2025-06-10,23.86045,120.557964,0.020595366
C2H950,中寮,2025-06-10,23.884447,120.766406,0.03850472
C2H9F0,柑林,2025-06-10,24.018658,120.847072,0.024902131
C2H9H0,苗改南投蜂場,2025-06-10,23.852589,120.693481,0.036768734
C2H9T0,名間竹圍,2025-06-10,23.859914,120.637572,0.07992659
C2H9U0,鳳鵬,2025-06-10,23.763919,120.788061,0.076708555
C2K620,馬光農場,2025-06-10,23.721453,120.378864,0.119410135
C2K630,荷苞,2025-06-10,23.657717,120.595144,0.13333648
C2M410,馬頭山,2025-06-10,23.324361,120.582017,0.06429692
C2M910,嘉義大學,2025-06-10,23.471325,120.485903,0.083857656
C2M920,朴子農改,2025-06-10,23.469889,120.259383,0.13458604
C2N160,西拉雅風管處,2025-06-10,23.189481,120.335297,0.054306857
C2O810,曾文,2025-06-10,23.219681,120.497328,0.04297667
C2O930,玉井,2025-06-10,23.126042,120.46055,0.06612952
C2O950,安南,2025-06-10,23.076694,120.144861,0.15898797
C2R170,屏東,2025-06-10,22.66027,120.49403,0.028997345
C2R970,屏科大,2025-06-10,22.648275,120.619247,0.1413594
C2V250,甲仙,2025-06-10,23.080106,120.591758,0.03194894
C2V260,月眉,2025-06-10,22.971003,120.539853,0.01745936
C2V310,美濃,2025-06-10,22.898792,120.51907,0.027336879
C2W230,畜試所澎湖,2025-06-10,23.628342,119.513206,0.8104668
CAG100,王功漁港,2025-06-10,23.96824,120.32586,0.15521862
CAH030,茶改場竹圍站,2025-06-10,23.860083,120.637528,0.07992659
CAJ050,海口故事園區,2025-06-10,23.57543,120.14121,0.22717923
CAL110,布袋國中,2025-06-10,23.35893,120.18026,0.22064805
CAN130,水試所海水繁養殖中心,2025-06-10,23.120802,120.07968,0.15333277
CAN140,六官養殖協會,2025-06-10,23.22881,120.29962,0.078037634
CAQ030,崎峰國小,2025-06-10,22.42565,120.49521,0.11957083
E2K600,四湖植物園,2025-06-10,23.676986,120.163433,0.15485787
E2P980,林試六龜中心,2025-06-10,22.991703,120.645722,0.014715091
E2S960,林試太麻里2,2025-06-10,22.598,120.99775,0.46840698
E2S980,林試太麻里1,2025-06-10,22.598922,120.980044,0.8132632
G2AI50,關渡,2025-06-10,25.11575,121.492,0.018722378
G2F820,農試所(霧峰),2025-06-10,24.031261,120.688133,0.019795883
G2L020,農試嘉義分所,2025-06-10,23.485028,120.473806,0.093795
G2M350,農試溪口農場,2025-06-10,23.58565,120.408111,0.06823123
G2P820,農試鳳山分所,2025-06-10,22.646611,120.356083,0.21870989
K2E360,苗栗農改場,2025-06-10,24.495722,120.829111,0.05848819
K2E710,苗改生物防治研究中心,2025-06-10,24.422861,120.871833,0.12306079
K2F750,種苗改良場,2025-06-10,24.225972,120.800917,0.3318996
U2HA50,臺大竹山,2025-06-10,23.756972,120.681556,0.10247505
V2C250,八德合作社,2025-06-10,24.93775,121.266389,0.0150026595
V2C260,八德蔬果,2025-06-10,24.978508,121.281819,0.012145563
V2K610,大庄合作社,2025-06-10,23.8068,120.367939,0.13193507
V2K620,麥寮合作社,2025-06-10,23.753836,120.294783,0.13411346
