站號,站名,日期,lat,lon,BlastGRU-TW
C0R710,龍磐,2025-12-28,21.931672,120.838942,0.0031561032
C1F9D1,白毛台,2025-12-28,24.158325,120.886933,0.021409899
C0G940,竹塘,2025-12-28,23.848253,120.386764,0.065752946
467590,恆春,2025-12-28,22.003897,120.746339,0.10937473
C1O850,環湖,2025-12-28,23.148617,120.418633,0.08571935
C0U710,太平山,2025-12-28,24.505486,121.525656,0.00031131966
C0E820,獅潭,2025-12-28,24.539133,120.920042,0.006917154
C2SD70,二層坪,2025-12-28,22.94105,121.16838,0.0076301806
C0V880,興達,2025-12-28,22.8778,120.2127,0.07659017
C0S890,關山,2025-12-28,23.0395,121.175017,0.007943414
C0SB30,新蘭,2025-12-28,22.869214,121.223228,0.021848638
C2R970,屏科大,2025-12-28,22.648275,120.619247,0.0713798
C1Z130,銅門,2025-12-28,23.965694,121.492842,0.11802575
C0AD40,土城,2025-12-28,24.973208,121.445169,0.034387376
CAN140,六官養殖協會,2025-12-28,23.22881,120.29962,0.3351306
C0X180,山上,2025-12-28,23.0757,120.363253,0.09377433
C0F9Z0,雪山東峰,2025-12-28,24.388792,121.268675,0.00027559427
C1M480,獨立山,2025-12-28,23.537022,120.607797,0.0019387096
C0X220,學甲,2025-12-28,23.230367,120.182187,0.17856781
467650,日月潭,2025-12-28,23.881325,120.90805,0.0034066914
C0K600,箔子寮,2025-12-28,23.6197,120.14,0.15325914
C0G830,埤頭,2025-12-28,23.866003,120.452806,0.19740708
C0S950,七塊厝,2025-12-28,22.954453,121.229922,0.001267647
467110,金門,2025-12-28,24.407306,118.289281,0.0012831673
C0AH80,深坑,2025-12-28,25.002703,121.628328,0.12144288
C0A970,三貂角,2025-12-28,25.007606,122.002058,0.69626755
C2D730,寶山農場,2025-12-28,24.732444,120.976153,0.0059718154
C0K430,褒忠,2025-12-28,23.690938,120.303634,0.119564034
467480,嘉義,2025-12-28,23.495925,120.432906,0.16758884
C0V400,阿公店,2025-12-28,22.804194,120.355528,0.15396312
C0E960,觀霧分站,2025-12-28,24.505781,121.113921,0.00057679095
467550,玉山,2025-12-28,23.48718,120.95943,0.00028175538
C0R440,大漢山,2025-12-28,22.405264,120.753181,0.00086610974
C0SD30,東清國小,2025-12-28,22.057128,121.564922,0.13028303
C1F9B1,桐林,2025-12-28,24.066172,120.735194,0.025073655
C2H9U0,鳳鵬,2025-12-28,23.763919,120.788061,0.030671159
C0K390,土庫,2025-12-28,23.679029,120.395574,0.24694961
C1I450,望鄉山,2025-12-28,23.594153,120.944286,0.00031235637
C0E910,海埔,2025-12-28,24.648767,120.772435,0.007695199
B2E890,畜試北區分所,2025-12-28,24.527806,120.770972,0.014805739
C0R750,四林格山,2025-12-28,22.076989,120.802439,0.0039582336
C0F0C0,中坑,2025-12-28,24.248517,120.903319,0.0037386655
C1I121,大鞍,2025-12-28,23.678381,120.760017,0.0015268481
C2G9E0,移民庄,2025-12-28,23.9784,120.40283,0.031166647
72U480,花改蘭陽分場,2025-12-28,24.686306,121.716583,0.8533463
C0A770,科教館,2025-12-28,25.096356,121.516507,0.06870228
C0AJ60,六塊厝,2025-12-28,25.24,121.4481,0.11284251
C0R620,墾雷,2025-12-28,21.900836,120.855269,0.025899047
467420,永康,2025-12-28,23.038386,120.2367,0.18680882
C2M530,奮起湖,2025-12-28,23.493903,120.699253,0.0021537102
C0I410,名間,2025-12-28,23.837053,120.701447,0.05402414
A2C560,農工中心,2025-12-28,24.985917,121.239833,0.015510629
C0V740,旗山,2025-12-28,22.888614,120.483597,0.09760821
C0Z061,玉里,2025-12-28,23.3215,121.339656,0.25878227
C0S840,南田,2025-12-28,22.279725,120.889208,0.29250517
C1I470,杉林溪,2025-12-28,23.639517,120.786444,0.0011585647
C1X040,東原,2025-12-28,23.291597,120.463822,0.05816779
C0R660,枋寮,2025-12-28,22.367722,120.590647,0.05096663
C1R120,上德文,2025-12-28,22.763272,120.704442,0.0057952935
C0K450,大埤,2025-12-28,23.646074,120.431537,0.11938272
C0UA00,土場,2025-12-28,24.576533,121.495333,0.44217366
467080,宜蘭,2025-12-28,24.763975,121.756528,0.62740904
C0N030,四草,2025-12-28,23.0235,120.1116,0.182289
467410,臺南,2025-12-28,22.99328,120.20492,0.17423116
C0V650,彌陀,2025-12-28,22.783806,120.246361,0.078291304
C0D660,新竹市東區,2025-12-28,24.798681,120.986942,0.011986026
82S580,茶改東部分場,2025-12-28,22.907694,121.130139,0.0037138439
C0SB40,興隆,2025-12-28,22.913661,121.257469,0.01826525
467050,新屋,2025-12-28,25.006725,121.047492,0.0074591073
C0C710,大溪永福,2025-12-28,24.892936,121.324975,0.020717066
C0FA20,溫寮,2025-12-28,24.372177,120.583125,0.007575202
C0V640,湖內,2025-12-28,22.887139,120.2445,0.071782894
C0R910,下寮,2025-12-28,22.3929,120.5548,0.051201962
C0Z020,明里,2025-12-28,23.208717,121.262342,0.15176359
C0M770,嘉義梅山,2025-12-28,23.585398,120.555587,0.017106023
C0C660,楊梅,2025-12-28,24.912375,121.143047,0.020227136
C0SD40,牛頭山,2025-12-28,22.676661,121.506944,0.031670224
C1E511,新開,2025-12-28,24.347703,120.827019,0.004935479
G2F820,農試所(霧峰),2025-12-28,24.031261,120.688133,0.05410508
C2M990,大巃頂,2025-12-28,23.5547,120.61439,0.0015546778
C1I070,和社,2025-12-28,23.591131,120.888861,0.009222824
C2E990,新坪頂,2025-12-28,24.30201,120.8574,0.0030874251
C0TA80,立霧山,2025-12-28,24.183258,121.641899,0.0034083705
C2F000,大肚,2025-12-28,24.15295,120.572117,0.00071950315
C1S850,豐南,2025-12-28,23.122139,121.262389,0.0010226693
C2M9B0,西興,2025-12-28,23.2428,120.57617,0.06578667
C2A920,富貴角,2025-12-28,25.263783,121.565258,0.007655095
CAH030,茶改場竹圍站,2025-12-28,23.860083,120.637528,0.064183556
C0T960,光復,2025-12-28,23.660694,121.424964,0.39069915
C0F9M0,豐原,2025-12-28,24.254322,120.720692,0.006287801
C0R720,旭海,2025-12-28,22.205403,120.887614,0.02130428
C0V710,苓雅,2025-12-28,22.622742,120.330669,0.12176579
C0C740,觀音工業區,2025-12-28,25.064764,121.114856,0.0043726875
CAC040,拉拉山,2025-12-28,24.699317,121.427133,0.0005640456
C0V790,萬山,2025-12-28,22.905944,120.688056,0.094606034
U2HA30,臺大和社,2025-12-28,23.590856,120.888864,0.009222824
C2H9K0,屯原,2025-12-28,24.067969,121.209389,0.00052948354
C0AJ90,澳底,2025-12-28,25.0552,121.9253,0.64174557
C0Z100,東華,2025-12-28,23.89525,121.549833,0.4015683
C0G970,三豐,2025-12-28,23.882,120.2895,0.028128993
V2K610,大庄合作社,2025-12-28,23.8068,120.367939,0.06931229
C0V900,汕尾,2025-12-28,22.4782,120.4151,0.10912286
C1R630,龍泉,2025-12-28,22.66701,120.59091,0.086298525
C1AC50,關渡,2025-12-28,25.133486,121.469331,0.051276155
C0C800,四稜,2025-12-28,24.64733,121.4293,0.0008459541
C0F9I0,神岡,2025-12-28,24.272481,120.658314,0.022748062
C0K460,斗南,2025-12-28,23.678734,120.478359,0.11734717
C2O810,曾文,2025-12-28,23.219681,120.497328,0.07941058
467280,後龍,2025-12-28,24.648563,120.831834,0.006775502
C1F9J1,清水林,2025-12-28,24.071242,120.820419,0.0041683735
C2A650,火燒寮,2025-12-28,25.002719,121.742892,0.36581454
466930,竹子湖,2025-12-28,25.162078,121.544547,0.0013721882
C1I220,樟湖,2025-12-28,23.905333,120.846983,0.0017739697
C0I390,仁愛,2025-12-28,24.022122,121.132206,0.001983182
C0Z300,東里,2025-12-28,23.26853,121.30547,0.23055711
C1V590,新發,2025-12-28,23.057019,120.646064,0.01702712
C0K510,水林,2025-12-28,23.572924,120.24597,0.41404068
72S590,東改賓朗果園,2025-12-28,22.813889,121.071278,0.004674223
82A750,茶改北部分場,2025-12-28,24.955778,121.631222,0.016642496
C1A750,石碇服務區,2025-12-28,25.00872,121.646242,0.16803408
C0X300,鹿寮,2025-12-28,23.386047,120.477331,0.072348416
G2AI50,關渡,2025-12-28,25.11575,121.492,0.035738226
C0K590,雲林東勢,2025-12-28,23.674192,120.255721,0.15275995
C2K310,港尾布雞,2025-12-28,23.74834,120.38439,0.21369034
C0A570,桶後,2025-12-28,24.848222,121.597992,0.22986293
C1S800,華源,2025-12-28,22.657883,121.02325,0.06333001
C0G720,溪州,2025-12-28,23.851589,120.499093,0.19609845
C1V160,達卡努瓦,2025-12-28,23.279811,120.705319,0.004176023
C2M410,馬頭山,2025-12-28,23.324361,120.582017,0.06068466
C0V850,蚵仔寮,2025-12-28,22.7256,120.2527,0.10607346
C0S740,池上,2025-12-28,23.119628,121.209469,0.010229655
C1V390,尖山,2025-12-28,22.813153,120.367789,0.14807689
C0AH70,松山,2025-12-28,25.04871,121.55042,0.0618912
C0N010,鯤鯓國小,2025-12-28,23.1879,120.0889,0.1704891
C0R550,新埤,2025-12-28,22.467947,120.582894,0.09772862
C0SA60,知本（水試所）,2025-12-28,22.702394,121.082761,0.29712516
C0T9I0,豐濱,2025-12-28,23.583897,121.514806,0.29691675
C0UB00,淡江大學蘭陽校園,2025-12-28,24.823239,121.730383,0.19721158
C0W240,九宮,2025-12-28,24.423753,118.240186,0.0010707302
C0T9N0,富里,2025-12-28,23.171639,121.249378,0.3025515
U2HA50,臺大竹山,2025-12-28,23.756972,120.681556,0.042239234
C0V840,鳳鼻頭,2025-12-28,22.5083,120.3591,0.06341998
C0X140,西港,2025-12-28,23.125608,120.203108,0.33813047
72D080,桃改五峰分場,2025-12-28,24.612194,121.157167,0.004352103
C2H9P0,伊拿谷,2025-12-28,23.963211,121.088264,0.0031211672
C2K250,崙背,2025-12-28,23.75553,120.31893,0.11878903
C2H9F0,柑林,2025-12-28,24.018658,120.847072,0.007424675
C0TA20,加灣,2025-12-28,24.082025,121.608944,0.5271749
C0V530,阿蓮,2025-12-28,22.883208,120.327508,0.13178568
C0FB30,八仙山苗圃,2025-12-28,24.192719,121.001366,0.0041472265
C1O880,關山,2025-12-28,23.173397,120.594092,0.054121494
C0E791,卓蘭,2025-12-28,24.3126,120.8244,0.0065002404
C1I030,武界,2025-12-28,23.913225,121.052483,0.0028577906
C0R520,崁頂,2025-12-28,22.514781,120.506914,0.096096456
C0R341,牡丹,2025-12-28,22.130036,120.792639,0.009469589
C0R930,萬丹,2025-12-28,22.5885,120.4851,0.05264531
C0S760,紅石,2025-12-28,23.069131,121.126219,0.00085865107
C2C410,中央大學,2025-12-28,24.967652,121.185165,0.016017908
C1M610,石磐龍,2025-12-28,23.496606,120.663506,0.003942713
C0C790,東眼山,2025-12-28,24.8284,121.40888,0.013557137
C0UA10,鴛鴦湖,2025-12-28,24.590269,121.412228,0.00027371803
V2C260,八德蔬果,2025-12-28,24.978508,121.281819,0.013305445
C0R800,丹路,2025-12-28,22.204481,120.750989,0.018497126
C0G920,永靖,2025-12-28,23.924703,120.547533,0.13323787
C2M950,太和,2025-12-28,23.538372,120.702961,0.0021955895
C1A630,下盆,2025-12-28,24.771003,121.538622,0.11270056
B2N890,畜產試驗所,2025-12-28,23.058972,120.336406,0.20803533
C0UA30,白嶺,2025-12-28,24.527819,121.519031,0.0009563938
C1V580,溪南(特生中心),2025-12-28,23.084972,120.788475,0.0011417217
C1T970,大農,2025-12-28,23.615233,121.413331,0.21332656
C0R650,竹田,2025-12-28,22.58486,120.54344,0.08845127
C1H900,清流,2025-12-28,24.080775,120.962997,0.0039510904
C1C510,水尾,2025-12-28,24.940081,121.087161,0.011445845
C2N170,茅港尾,2025-12-28,23.2061,120.2624,0.33355373
C0F9X0,大雅(中科園區),2025-12-28,24.21528,120.62445,0.0028807498
C0SB60,白守蓮,2025-12-28,23.126769,121.401914,0.022783317
C0O970,虎頭埤,2025-12-28,23.021375,120.347878,0.13539582
C0C730,中大臨海站,2025-12-28,24.966126,121.008581,0.005145498
C0X250,新營,2025-12-28,23.310689,120.316681,0.30960277
C0V700,三民,2025-12-28,22.645017,120.311233,0.10082134
C0U870,大礁溪,2025-12-28,24.791042,121.675047,0.1992749
C0E870,高鐵苗栗,2025-12-28,24.60725,120.826094,0.007019695
A2K570,古坑花卉中心,2025-12-28,23.63353,120.55239,0.019016324
C0TA30,鹽寮,2025-12-28,23.845606,121.592664,0.44165096
C0M860,新美,2025-12-28,23.338017,120.683169,0.18181369
C1E701,八卦,2025-12-28,24.491756,120.927619,0.0023958224
C2TA90,加納納,2025-12-28,23.466421,121.359867,0.10366439
C0I420,國姓,2025-12-28,24.037803,120.855072,0.006958535
C2D720,關西工作站,2025-12-28,24.757275,121.184792,0.14136647
C0S960,香蘭,2025-12-28,22.587569,120.993375,0.2696366
467620,蘭嶼,2025-12-28,22.0369,121.55843,0.00036048642
C0R260,春日,2025-12-28,22.370361,120.628306,0.03940589
72G600,臺中農改場,2025-12-28,24.003028,120.534389,0.079069294
C0Z210,瑞穗,2025-12-28,23.5239,121.39021,0.2776566
C0M820,達邦,2025-12-28,23.453994,120.749517,0.005257669
C0V860,南寮,2025-12-28,22.7616,120.2339,0.106967285
C0G740,大城,2025-12-28,23.852487,120.320935,0.025750468
C0R920,塭仔,2025-12-28,22.4169,120.5197,0.051719
C0R470,高樹,2025-12-28,22.826389,120.600806,0.055766672
C0R680,佳樂水,2025-12-28,21.993578,120.861633,0.04483972
C1O870,大棟山,2025-12-28,23.31157,120.52226,0.0016978
C0D360,梅花,2025-12-28,24.678347,121.208558,0.01330756
C0Z190,富世,2025-12-28,24.14743,121.6297,0.017479274
C0AI10,屈尺,2025-12-28,24.92184,121.54475,0.14372677
B2U990,畜試東區分所,2025-12-28,24.669039,121.832561,0.9398068
C0SB80,長濱漁港,2025-12-28,23.313644,121.459994,0.00819722
C0TA50,和仁,2025-12-28,24.241394,121.712472,0.035724636
C0V910,大樹,2025-12-28,22.684645,120.432803,0.055884823
C1R610,西大武山,2025-12-28,22.617719,120.7322,0.0008216708
C0G900,線西,2025-12-28,24.143358,120.443536,0.008500281
C0M700,竹崎,2025-12-28,23.526178,120.555508,0.018397199
C2E880,三義,2025-12-28,24.405478,120.749819,0.0008612379
C0C720,竹圍,2025-12-28,25.112692,121.239824,0.010919443
C0F9P0,清水,2025-12-28,24.312297,120.562242,0.0077879946
C0Z150,吉安光華,2025-12-28,23.930925,121.595153,0.38158366
C0FA80,小雪山天池,2025-12-28,24.28025,121.02627,0.0003960461
467300,東吉島,2025-12-28,23.25727,119.66762,0.0014308603
C1D640,外坪(五指山),2025-12-28,24.644447,121.090961,0.00082903565
C2R9A0,高士國小,2025-12-28,22.12553,120.84653,0.012139289
C0F9O0,潭子,2025-12-28,24.213106,120.703933,0.008809935
C2H9R0,卓社,2025-12-28,23.887894,121.000086,0.0013418301
72T250,花蓮農改場,2025-12-28,23.975222,121.563889,0.25466216
C0E780,銅鑼,2025-12-28,24.489681,120.790853,0.011368062
C1T950,太安,2025-12-28,23.666719,121.370128,0.003925036
C0E830,苑裡,2025-12-28,24.439714,120.653053,0.0067104357
467270,田中,2025-12-28,23.873803,120.581286,0.13485104
C0SA10,檳榔四格山,2025-12-28,22.810031,121.109308,0.004397972
C1T830,布洛灣,2025-12-28,24.17184,121.57127,0.5342127
C0F970,大坑,2025-12-28,24.173142,120.722289,0.012695975
C1U920,思源,2025-12-28,24.393125,121.347214,0.0006037917
C2H9Y0,松茗,2025-12-28,23.8167,120.650765,0.021170923
C0A931,三和,2025-12-28,25.233153,121.595236,0.012929234
C0I010,廬山,2025-12-28,24.033311,121.181808,0.00100428
C2M940,日野賀,2025-12-28,23.434056,120.727169,0.0030905483
C0R860,鼻頭,2025-12-28,22.1043,120.8979,0.18129493
C0UB20,壯圍,2025-12-28,24.7359,121.8163,0.8687602
C0R790,九棚,2025-12-28,22.14195,120.889281,0.045148645
C0W110,東莒,2025-12-28,25.9652,119.98069,0.00041259726
C1U930,粉鳥林,2025-12-28,24.497088,121.842479,0.8719243
C1I211,蘆竹湳,2025-12-28,23.934019,120.811994,0.0070573934
C0S830,長濱,2025-12-28,23.286817,121.411975,0.11786591
C1F9F1,伯公龍,2025-12-28,24.272392,120.849047,0.0046106754
C0UB90,太平山莊,2025-12-28,24.494171,121.536209,0.0003068545
C0E810,西湖,2025-12-28,24.562947,120.7485,0.0033916105
C1I440,新高口,2025-12-28,23.478744,120.878939,0.00036757605
C0O840,王爺宮,2025-12-28,23.222064,120.40085,0.17026587
C0T9G0,鳳林山,2025-12-28,23.735269,121.420131,0.0027041414
C0X080,佳里,2025-12-28,23.173039,120.145086,0.17088477
C0FB70,大甲溪埔,2025-12-28,24.370625,120.620067,0.00652342
C0Z310,清水斷崖,2025-12-28,24.218294,121.689142,0.014090318
C0M680,太保,2025-12-28,23.455062,120.331455,0.47778678
C1S820,金峰,2025-12-28,22.590969,120.933236,0.03401194
C0AD10,八里,2025-12-28,25.150211,121.403947,0.0389044
C2K240,草嶺,2025-12-28,23.59555,120.693461,0.0035387839
C1SA70,都蘭,2025-12-28,22.87794,121.226881,0.018128255
C0K440,二崙,2025-12-28,23.772797,120.408944,0.19839478
C1A760,坪林交控,2025-12-28,24.94284,121.713442,0.41267717
C0F9N0,大里,2025-12-28,24.092464,120.701378,0.035740346
C0SA90,達仁林場,2025-12-28,22.264347,120.823972,0.07032034
C1R290,石門山,2025-12-28,22.112611,120.756597,0.0028381352
42HA10,萬大發電廠,2025-12-28,23.978875,121.139639,0.0021338195
C0R890,山海,2025-12-28,21.9878,120.7091,0.008471662
C0T9A0,月眉山,2025-12-28,23.809928,121.539828,0.0051048216
C0AC70,信義,2025-12-28,25.037822,121.564597,0.06087881
C0K560,棋山,2025-12-28,23.68645,120.603417,0.017473117
C2FB50,出雲,2025-12-28,24.206469,120.902794,0.0029072547
C1Z240,中平林道,2025-12-28,23.42115,121.26763,0.0018961674
U2H480,溪頭,2025-12-28,23.670306,120.798194,0.0016288303
C0M880,好美里,2025-12-28,23.3364,120.138,0.23678784
C0T9E0,大坑,2025-12-28,23.880628,121.581981,0.12803087
C0K530,臺西,2025-12-28,23.701547,120.197559,0.07013731
C1E900,國一N128K,2025-12-28,24.560997,120.844186,0.011019286
C0AJ50,水湳洞,2025-12-28,25.123695,121.862238,0.61130834
C0AI20,白沙灣,2025-12-28,25.283128,121.519058,0.09421761
C2V310,美濃,2025-12-28,22.898792,120.51907,0.098433495
C0A860,大坪,2025-12-28,25.165914,121.632969,0.005228348
C1U850,觀音海岸,2025-12-28,24.38319,121.77856,0.005932649
C2K610,草嶺石壁,2025-12-28,23.602469,120.707731,0.0032555738
C0U950,鶯子嶺,2025-12-28,24.89754,121.79244,0.0014167764
C0O900,善化,2025-12-28,23.112883,120.297219,0.20146288
C0K550,蔦松,2025-12-28,23.514319,120.229736,0.27450737
E2P980,林試六龜中心,2025-12-28,22.991703,120.645722,0.030996848
C0E590,通霄,2025-12-28,24.471892,120.704622,0.034625113
C1I310,西巒,2025-12-28,23.754486,120.883956,0.0034165664
C0A550,泰平,2025-12-28,24.971197,121.823711,0.071787596
C0I360,水里,2025-12-28,23.812553,120.849792,0.034950767
C0R830,高士,2025-12-28,22.121825,120.836781,0.0024390137
C1I101,溪頭,2025-12-28,23.661789,120.807647,0.00084855367
C0AJ20,野柳,2025-12-28,25.20703,121.690021,0.27424842
C0B060,暖暖,2025-12-28,25.0957,121.7403,0.27421573
C1H920,長豐,2025-12-28,24.102039,120.879897,0.008001362
C2S9B0,利吉,2025-12-28,22.86246,121.15486,0.0054738102
C0V360,內門,2025-12-28,22.975481,120.466769,0.1108838
C0R850,林邊,2025-12-28,22.4634,120.5339,0.10458426
C0E930,龍鳳,2025-12-28,24.700034,120.859125,0.0041008308
C0U910,冬山,2025-12-28,24.63373,121.7937,0.9398068
C1E721,泰安,2025-12-28,24.489017,120.968036,0.0008821225
82H320,茶改中部分場,2025-12-28,23.875611,120.913583,0.0060047116
C0M750,布袋,2025-12-28,23.380878,120.167789,0.41635424
C1S860,利嘉,2025-12-28,22.809417,121.050528,0.008140544
E2S980,林試太麻里1,2025-12-28,22.598922,120.980044,0.11459369
C0X170,關廟,2025-12-28,22.963017,120.327797,0.1677164
C0V720,林園,2025-12-28,22.507747,120.394511,0.061319567
C1I510,線浸林道,2025-12-28,23.761508,120.832956,0.0010863106
C0D690,外湖,2025-12-28,24.917735,120.968711,0.008702191
C0C750,新興坑尾,2025-12-28,25.0061,121.0971,0.006982563
B2Q810,畜試南區分所,2025-12-28,21.945583,120.802167,0.048689436
C0S790,金崙,2025-12-28,22.538122,120.966875,0.029479465
C0AH90,福山植物園,2025-12-28,24.760717,121.58135,0.28492153
C0I540,奇萊稜線,2025-12-28,24.109231,121.326456,0.00028257212
C0M850,表湖,2025-12-28,23.24186,120.64166,0.020150747
C0S770,大溪山,2025-12-28,22.478475,120.943325,0.015213577
C0AG80,中和,2025-12-28,24.991622,121.491792,0.034124102
C0T790,大禹嶺,2025-12-28,24.186117,121.316086,0.00032057782
C0T9B0,水源,2025-12-28,23.991861,121.537169,0.015261229
C0R840,牡丹池山,2025-12-28,22.168389,120.841225,0.041212145
C1I131,桶頭,2025-12-28,23.641944,120.654117,0.025372786
CAL110,布袋國中,2025-12-28,23.35893,120.18026,0.2706882
C2M9D0,何竹子腳,2025-12-28,23.53641,120.38203,0.1660386
467571,新竹,2025-12-28,24.827853,121.014219,0.019605456
C0Z290,赤柯山,2025-12-28,23.36893,121.38293,0.0010174555
C0X280,將軍,2025-12-28,23.214999,120.13577,0.18513279
C0S690,太麻里,2025-12-28,22.60902,120.98533,0.0019848808
C0U880,北關,2025-12-28,24.9072,121.8734,0.71732277
CAW010,東引,2025-12-28,26.3588,120.4836,0.00033756884
C0G810,埔心,2025-12-28,23.947633,120.525456,0.13578758
C0U970,大福,2025-12-28,24.80064,121.81389,0.63383055
C2H9N0,仁愛東眼,2025-12-28,24.026875,121.1205,0.0011789965
C1E670,南礦,2025-12-28,24.538278,121.002836,0.000984958
C0M520,東後寮,2025-12-28,23.369908,120.248065,0.26627386
C1E461,松安,2025-12-28,24.397972,120.986022,0.0009237112
C2N160,西拉雅風管處,2025-12-28,23.189481,120.335297,0.27501458
C2M970,碧湖,2025-12-28,23.568632,120.624165,0.0015804013
C0A640,石碇,2025-12-28,24.993969,121.662917,0.03071858
E2S960,林試太麻里2,2025-12-28,22.598,120.99775,0.28769064
C0F9Y0,桃山,2025-12-28,24.432739,121.303808,0.00026654446
C1I020,萬大,2025-12-28,23.979817,121.132261,0.0019504331
C2UC20,長嶺,2025-12-28,24.70894,121.61162,0.5337484
C0U940,羅東,2025-12-28,24.68184,121.74934,0.8597736
C0M650,朴子,2025-12-28,23.43463,120.23902,0.5085953
C1I500,大尖山,2025-12-28,23.858572,120.994889,0.0006114618
C0FB40,中橫21.6k,2025-12-28,24.2499,121.1455,0.0024902676
C0G820,田尾,2025-12-28,23.901669,120.509389,0.13483223
E2K600,四湖植物園,2025-12-28,23.676986,120.163433,0.08016589
C0S730,綠島,2025-12-28,22.6672,121.47533,0.005828801
12Q970,東港工作站,2025-12-28,22.479997,120.466058,0.10769451
C1TA00,太魯閣,2025-12-28,24.15773,121.6236,0.09952035
466920,臺北,2025-12-28,25.037658,121.514853,0.0618912
C0R600,舊泰武,2025-12-28,22.588194,120.664944,0.011400532
C1I260,北坑,2025-12-28,23.9246,121.006903,0.018410878
466910,鞍部,2025-12-28,25.182586,121.529731,0.00079731015
C1I230,九份二山,2025-12-28,23.961944,120.845,0.0019801736
C2M810,里佳,2025-12-28,23.389125,120.716647,0.0023135024
C2A660,瑞芳,2025-12-28,25.113169,121.801147,0.44834495
C0R270,琉球嶼,2025-12-28,22.332244,120.362236,0.08263846
C2V580,瑞山,2025-12-28,22.90304,120.43424,0.121418476
C1T990,高寮,2025-12-28,23.394239,121.356808,0.31479925
C0G620,芬園,2025-12-28,24.015678,120.6213,0.037142523
C1Z140,荖溪,2025-12-28,23.890575,121.45964,0.007171346
C1I201,中心崙,2025-12-28,23.728722,120.712097,0.0046035177
C1I400,凌霄,2025-12-28,24.018778,121.004456,0.0012232595
C1M640,十字,2025-12-28,23.492153,120.753683,0.0016488793
G2P820,農試鳳山分所,2025-12-28,22.646611,120.356083,0.09219372
C0Z270,蕃薯寮,2025-12-28,23.73835,121.540108,0.02563494
C2E420,竹南,2025-12-28,24.70898,120.88897,0.0033773442
C0FB10,出雲山苗圃,2025-12-28,24.23105,120.90475,0.0037203794
C0F9Q0,外埔,2025-12-28,24.347817,120.705686,0.020841826
C0K580,高鐵雲林,2025-12-28,23.737456,120.417944,0.21185057
C2I090,鳳凰,2025-12-28,23.728081,120.787347,0.0023450102
C0U990,員山,2025-12-28,24.74435,121.72247,0.86299986
C0V770,大社,2025-12-28,22.730306,120.346639,0.099965416
C0X120,麻豆,2025-12-28,23.183289,120.248611,0.345035
C0C670,龍潭,2025-12-28,24.870056,121.221389,0.15076035
C0D680,香山濕地,2025-12-28,24.783581,120.914988,0.016084315
C0S980,勝林山,2025-12-28,22.430439,120.8938,0.0017263843
C0V730,大寮,2025-12-28,22.605614,120.395717,0.07182773
C0R570,麟洛,2025-12-28,22.65078,120.52719,0.051069126
C2M930,石卓,2025-12-28,23.478744,120.702264,0.0016613487
C0G9B0,和美,2025-12-28,24.105169,120.492131,0.020118892
CAG100,王功漁港,2025-12-28,23.96824,120.32586,0.009799646
C0X290,北門,2025-12-28,23.267772,120.125481,0.18550523
C2F930,大甲,2025-12-28,24.347667,120.640403,0.008542534
C0D650,湖口,2025-12-28,24.904794,121.043628,0.005219534
C0U780,五結,2025-12-28,24.68637,121.79794,0.8680913
C1I250,鯉潭,2025-12-28,23.961922,120.991131,0.006571807
C0R130,阿禮,2025-12-28,22.742908,120.743678,0.0024758491
C0X100,臺南市北區,2025-12-28,23.010394,120.194228,0.18064754
C0S920,金峰嘉蘭,2025-12-28,22.594789,120.960825,0.11060737
C0V490,新興,2025-12-28,22.627422,120.298803,0.1231139
C0F9K0,大安,2025-12-28,24.345061,120.588025,0.0069262036
467290,古坑,2025-12-28,23.633639,120.551889,0.01901632
C2E970,八甲,2025-12-28,24.535811,120.795983,0.008569707
C0V440,鳳山,2025-12-28,22.646653,120.356122,0.09219372
C1T940,大觀,2025-12-28,23.714206,121.373133,0.005265483
C0E740,造橋,2025-12-28,24.637056,120.864778,0.007077471
C0R100,尾寮山,2025-12-28,22.833111,120.683889,0.0026566794
A2K630,臺大雲林校區,2025-12-28,23.730628,120.423903,0.21238199
467990,馬祖,2025-12-28,26.169467,119.923158,0.00045073064
C0D580,寶山,2025-12-28,24.735006,121.025192,0.0078341765
E2P990,林試扇平站,2025-12-28,22.9677,120.6857,0.055854455
C0AI30,三重,2025-12-28,25.057328,121.500629,0.06870228
C0AH00,汐止,2025-12-28,25.066881,121.658778,0.27746814
C1Z040,立山,2025-12-28,23.443356,121.327375,0.031923734
466881,新北,2025-12-28,24.959207,121.525196,0.026697045
C0W130,花嶼,2025-12-28,23.40007,119.32276,0.00065048883
C0A950,鼻頭角,2025-12-28,25.129036,121.923372,0.32092196
C0K470,林內,2025-12-28,23.748675,120.609642,0.01876842
C2F990,摩天嶺,2025-12-28,24.322458,120.936819,0.0035591556
C2E430,南庄,2025-12-28,24.601775,121.000214,0.009751941
82C160,茶改場,2025-12-28,24.908472,121.185333,0.01860741
C2TB60,南安,2025-12-28,23.29818,121.26157,0.17602675
C0Z320,清水林道,2025-12-28,23.27125,121.188272,0.0049449746
C0R760,南仁湖,2025-12-28,22.084681,120.863353,0.002827637
C0M670,大林,2025-12-28,23.600616,120.45841,0.14476319
C0M800,茶山,2025-12-28,23.299075,120.664767,0.08879625
C0A9C0,天母,2025-12-28,25.117494,121.537169,0.07432571
72K220,南改斗南分場,2025-12-28,23.634556,120.477333,0.11761843
72AI40,桃改樹林分場,2025-12-28,24.944503,121.386972,0.07185252
C0S910,蘭嶼燈塔,2025-12-28,22.081197,121.503117,0.020403735
C0B050,八斗子,2025-12-28,25.144754,121.79167,0.640639
C0U900,內城,2025-12-28,24.71813,121.68766,0.8436916
C0X320,柳營,2025-12-28,23.253328,120.375253,0.15037702
C0M790,新港,2025-12-28,23.553269,120.345728,0.57566106
C0F9T0,西屯,2025-12-28,24.179494,120.641275,0.046169367
C0E950,松安,2025-12-28,24.39792,120.98599,0.00092371204
C0SA30,都歷,2025-12-28,23.020333,121.323642,0.041460972
C0C620,蘆竹,2025-12-28,25.084275,121.265767,0.00958917
C0R730,大坪頂,2025-12-28,22.024633,120.69355,0.0033074217
C0AJ40,石門,2025-12-28,25.273672,121.601198,0.013987045
C0E750,苗栗,2025-12-28,24.564569,120.824575,0.01144421
C0T870,鯉魚潭,2025-12-28,23.935639,121.508944,0.15999852
C1V170,排雲,2025-12-28,23.463619,120.954147,0.00027213388
C2H950,中寮,2025-12-28,23.884447,120.766406,0.016745936
C0R350,貓鼻頭,2025-12-28,21.921774,120.7358,0.006537874
C0V660,岡山,2025-12-28,22.797078,120.294958,0.07716816
C1H941,雙冬,2025-12-28,23.967378,120.802189,0.0053083417
C0AJ70,田寮,2025-12-28,25.2698,121.4886,0.10238174
C0AI00,五股,2025-12-28,25.07445,121.42728,0.007938268
C0Z280,德武,2025-12-28,23.47426,121.41071,0.14278123
C2RA10,大新,2025-12-28,22.67558,120.57788,0.08783857
C0R700,枋山,2025-12-28,22.246844,120.661086,0.013578682
C0C460,復興,2025-12-28,24.820208,121.352281,0.03891249
C2K300,鹿南,2025-12-28,23.63855,120.3636,0.28445312
E2H360,蓮華池,2025-12-28,23.918333,120.885278,0.009652715
C0M640,中埔,2025-12-28,23.42538,120.5229,0.027637525
C0W140,金沙,2025-12-28,24.488292,118.408778,0.00073770445
C2A540,四堵,2025-12-28,24.8926,121.745736,0.13298686
C0ACA0,新莊,2025-12-28,25.051478,121.446756,0.04091408
C0R220,潮州,2025-12-28,22.534361,120.54,0.09197874
U2HA40,臺大內茅埔,2025-12-28,23.689722,120.851117,0.039341774
467490,臺中,2025-12-28,24.145736,120.684075,0.019571688
C0UB60,明池,2025-12-28,24.650688,121.475277,0.0008693894
C0U960,翠峰湖,2025-12-28,24.510856,121.608044,0.00044025297
E2HA20,林試畢祿溪站,2025-12-28,24.226944,121.308522,0.00054675335
C2M9A0,大華,2025-12-28,23.4824,120.67491,0.0050496696
C0V890,前鎮,2025-12-28,22.5718,120.3117,0.12402859
C1F941,雪嶺,2025-12-28,24.280586,121.026642,0.0003960461
C2H9E0,國姓南港,2025-12-28,23.911108,120.846556,0.001680061
C0AC80,文山,2025-12-28,25.00235,121.575728,0.019525597
C0F9R0,龍井,2025-12-28,24.184536,120.528972,0.0070173126
C0M760,民雄,2025-12-28,23.551754,120.428457,0.14525267
C0UA40,西德山,2025-12-28,24.560647,121.752608,0.0149946995
C2TA70,赤科坪,2025-12-28,23.39885,121.39168,0.0012054732
C1T920,中興,2025-12-28,23.769503,121.498653,0.25676015
C0D550,雪霸,2025-12-28,24.526972,121.11605,0.00075214775
C2F860,梨山,2025-12-28,24.247522,121.243669,0.0005283706
C0R320,車城,2025-12-28,22.0744,120.716247,0.011704537
C1S870,南美山,2025-12-28,23.15025,121.382333,0.03551962
C0B020,基隆嶼,2025-12-28,25.19141,121.78391,0.1964735
C1U501,牛鬥,2025-12-28,24.637836,121.573656,0.8840144
C0M730,嘉義市東區,2025-12-28,23.457673,120.460531,0.053408887
C2R990,泰武,2025-12-28,22.60686,120.69765,0.006906614
C0S700,知本,2025-12-28,22.684866,121.005642,0.008301278
C1N001,沙崙,2025-12-28,22.935472,120.309406,0.17183197
C0V760,橋頭,2025-12-28,22.757806,120.30575,0.10321245
C0G960,福寶,2025-12-28,24.0443,120.3814,0.021428285
C0X210,白河,2025-12-28,23.347466,120.414427,0.11269619
C0S810,東河,2025-12-28,22.972672,121.303986,0.048570476
C2R170,屏東,2025-12-28,22.66027,120.49403,0.05138007
C0R670,楓港,2025-12-28,22.190131,120.692156,0.01107566
C0FA50,霧峰,2025-12-28,24.0419,120.6995,0.051839035
C0UB10,蘇澳,2025-12-28,24.5969,121.8571,0.9542678
C0G950,防潮門,2025-12-28,24.1835,120.4871,0.007075437
C0M740,六腳,2025-12-28,23.492871,120.290625,0.58252263
C1R250,力里,2025-12-28,22.428117,120.629228,0.115318924
C0K330,虎尾,2025-12-28,23.719183,120.442036,0.210922
C2FA00,烏石坑,2025-12-28,24.273503,120.947617,0.0037142164
C0V620,永安,2025-12-28,22.82315,120.236856,0.078291304
C1I330,楓樹林,2025-12-28,23.986803,121.076117,0.0015569816
C0W200,湖西,2025-12-28,23.596314,119.67275,0.0007780412
72Q010,高雄農改場,2025-12-28,22.709333,120.525889,0.059723467
C0SA40,瑞和,2025-12-28,22.974361,121.156697,0.009061633
C0C680,龜山,2025-12-28,25.02846,121.38656,0.0045776716
C2V260,月眉,2025-12-28,22.971003,120.539853,0.060563974
C0V450,鳳森,2025-12-28,22.545064,120.392592,0.051809907
C0FA90,小雪山林道,2025-12-28,24.29515,121.03651,0.00033530282
C0U720,南山,2025-12-28,24.43742,121.38167,0.001363256
A2N290,臺南蘭花園區,2025-12-28,23.340258,120.379661,0.19201042
C0R560,新園,2025-12-28,22.5434,120.461558,0.061319567
C0U890,三星,2025-12-28,24.66812,121.65302,0.93129414
C1V300,御油山,2025-12-28,23.001983,120.715364,0.001272319
C0U600,礁溪,2025-12-28,24.817539,121.765608,0.6455348
C1T980,龍澗,2025-12-28,24.023289,121.411328,0.0030160635
C0D670,海天一線,2025-12-28,24.831986,120.914438,0.0076883794
C0SA00,歷坵,2025-12-28,22.520969,120.89185,0.0036932162
C0M710,東石,2025-12-28,23.458927,120.15385,0.16329633
C0M780,鹿草,2025-12-28,23.41134,120.30835,0.50669163
C0U520,雙連埤,2025-12-28,24.753033,121.641303,0.18863322
C0B010,七堵,2025-12-28,25.094819,121.71713,0.36848012
C0R480,長治,2025-12-28,22.693128,120.542622,0.053281046
C1V830,國三S383K,2025-12-28,22.781967,120.426475,0.07417186
12Q980,恆春工作站,2025-12-28,22.079678,120.714425,0.011578859
C1O940,東山服務區,2025-12-28,23.286016,120.398472,0.12568289
C1U840,東澳嶺,2025-12-28,24.5378,121.8485,0.18036133
C1D630,飛鳳山,2025-12-28,24.766464,121.119178,0.0026196288
C0S940,石寧山,2025-12-28,23.223772,121.406639,0.0022668021
C0K410,北港,2025-12-28,23.573957,120.292802,0.40557703
C2M620,瑞里,2025-12-28,23.545133,120.675197,0.0027431168
C0SB70,小港漁港,2025-12-28,23.158558,121.400431,0.045208026
C2O950,安南,2025-12-28,23.076694,120.144861,0.085961
C0F0E0,南湖圈谷,2025-12-28,24.363714,121.444667,0.0002295124
467610,成功,2025-12-28,23.097486,121.373428,0.16401002
C0G890,伸港,2025-12-28,24.148933,120.484403,0.008422363
C2E540,龍溪,2025-12-28,24.606489,120.783933,0.0073268977
C1V200,梅山,2025-12-28,23.268447,120.823556,0.012147595
C0T9H0,加路蘭山,2025-12-28,23.682947,121.5274,0.0016959857
C2O930,玉井,2025-12-28,23.126042,120.46055,0.12759264
C1F911,新伯公,2025-12-28,24.221361,120.841069,0.004686956
C0R490,九如,2025-12-28,22.7405,120.490503,0.060306925
C0X200,左鎮,2025-12-28,23.056758,120.408522,0.100715496
C2TB50,麻汝,2025-12-28,23.42554,121.39358,0.084852435
C0FA60,鞍馬山工作站,2025-12-28,24.267064,121.000793,0.0005727925
C0SB50,叭嗡嗡,2025-12-28,23.047062,121.343223,0.08689878
C1F891,稍來,2025-12-28,24.265689,121.001142,0.0005952612
C2M9C0,紫雲,2025-12-28,23.494914,120.540253,0.023460418
72N240,七股研究中心,2025-12-28,23.081672,120.062894,0.08991261
C0C700,中壢,2025-12-28,24.977661,121.256375,0.013657657
C0M690,水上,2025-12-28,23.419734,120.388909,0.16569354
C0V690,鼓山,2025-12-28,22.623325,120.275575,0.12357248
C0O860,大內,2025-12-28,23.11885,120.36083,0.20626527
C0Z200,萬榮,2025-12-28,23.709219,121.420106,0.15118565
C0T9D0,和中,2025-12-28,24.26676,121.74103,0.3282049
C2S9A0,北份子寮,2025-12-28,22.78561,121.07813,0.02520741
C1O921,楠西,2025-12-28,23.183511,120.484083,0.07880766
C0AJ30,淡水觀海,2025-12-28,25.184591,121.408616,0.11896324
C0V810,左營,2025-12-28,22.67491,120.28491,0.10056159
C0UA70,桃源谷,2025-12-28,24.962606,121.888875,0.023065194
C0X130,官田,2025-12-28,23.193217,120.315422,0.27587262
C1H000,翠峰,2025-12-28,24.109397,121.205211,0.00039049145
C0UA90,石城,2025-12-28,24.980444,121.951214,0.7335736
C1E681,南勢山,2025-12-28,24.421669,120.923831,0.0014771277
C0A9F0,內湖,2025-12-28,25.079422,121.57545,0.0618912
C0K291,宜梧,2025-12-28,23.536281,120.169329,0.27462703
C1K540,口湖,2025-12-28,23.585344,120.180517,0.15293303
C0R780,滿州,2025-12-28,22.024403,120.839892,0.094154194
C0V870,文安,2025-12-28,22.8025,120.2164,0.08190064
C0U650,玉蘭,2025-12-28,24.675286,121.587061,0.51740474
C0R640,東港,2025-12-28,22.46247,120.44074,0.1081936
C0AJ80,板橋,2025-12-28,25.0107,121.4489,0.03743563
C0S660,下馬,2025-12-28,23.150427,121.070312,0.0013993144
C2N190,烏樹,2025-12-28,23.32393,120.36989,0.15455784
C1H9B1,阿眉,2025-12-28,24.1263,120.994672,0.0013815338
C0UA20,多加屯,2025-12-28,24.368614,121.373189,0.00029594442
C0E730,頭份,2025-12-28,24.688247,120.912206,0.0034806067
72V140,高改旗南分場,2025-12-28,22.857861,120.516667,0.072363324
C0K480,莿桐,2025-12-28,23.761192,120.502372,0.12036943
C0U980,坪林石牌,2025-12-28,24.86478,121.77396,0.036454592
C0T900,西林,2025-12-28,23.8119,121.441458,0.09439829
C1I150,青雲,2025-12-28,23.793361,120.949378,0.026669923
C2E980,和興,2025-12-28,24.505319,120.923016,0.003982471
467350,澎湖,2025-12-28,23.565503,119.563094,0.00064766634
C0G800,埔鹽,2025-12-28,24.000394,120.431683,0.031052897
C0H960,草屯,2025-12-28,23.973672,120.68085,0.046258662
C1V780,多納林道,2025-12-28,22.888028,120.737917,0.0054072007
C0E920,通霄漁港,2025-12-28,24.498589,120.673876,0.051673114
C0Z330,安通山,2025-12-28,23.290728,121.348528,0.0117362235
C0AH10,永和,2025-12-28,25.01125,121.508111,0.038869902
C0AK10,太平里,2025-12-28,25.134937,121.364899,0.037416052
C2G640,鹿港,2025-12-28,24.0753,120.430481,0.021409506
C1E890,國三N149K,2025-12-28,24.463414,120.680019,0.0057804133
C1R110,口社,2025-12-28,22.770111,120.645222,0.06902877
C1M870,國三N285K,2025-12-28,23.550319,120.505833,0.02189943
C1E480,鳳美,2025-12-28,24.554803,121.034747,0.0064016706
C0T9M0,靜浦,2025-12-28,23.455167,121.495028,0.32791275
C2H9M0,發祥,2025-12-28,24.154094,121.164517,0.0028513125
C2G9C0,埔南,2025-12-28,23.99124,120.46969,0.030067349
C0AI40,石牌,2025-12-28,25.115597,121.513139,0.08065475
C1F871,上谷關,2025-12-28,24.203483,121.018644,0.0034818042
C2H9G0,百勝,2025-12-28,24.051142,120.909361,0.053851675
C0G880,二水,2025-12-28,23.810742,120.6173,0.015568718
C0R940,加祿堂,2025-12-28,22.3363,120.6217,0.021633653
C0W220,北竿,2025-12-28,26.220358,119.974881,0.0005014543
C0O960,崎頂,2025-12-28,22.959547,120.369317,0.14244927
C0TA40,秀林,2025-12-28,24.302864,121.731144,0.004178768
C0S750,向陽,2025-12-28,23.248397,120.986133,0.00035764443
C0T9F0,水璉,2025-12-28,23.797131,121.542514,0.036893908
C1M600,頭凍,2025-12-28,23.406364,120.603339,0.0019958664
467660,臺東,2025-12-28,22.752211,121.154586,0.0020245672
C1D380,新埔,2025-12-28,24.84745,121.03834,0.013465577
C2G980,田頭村,2025-12-28,23.8263,120.444175,0.19846694
C0V750,路竹,2025-12-28,22.854997,120.259439,0.0740431
C0N050,蚵寮,2025-12-28,23.301,120.1104,0.23658864
C2X060,下營,2025-12-28,23.226806,120.256291,0.33335552
72M700,南改鹿草分場,2025-12-28,23.416869,120.283061,0.509823
C1SA50,利嘉林道,2025-12-28,22.82325,121.009389,0.0012938061
C0UB70,太平山中間站,2025-12-28,24.542003,121.513453,0.0136568295
C0A940,金山,2025-12-28,25.223628,121.643967,0.22118816
C1V340,大津,2025-12-28,22.888322,120.645986,0.0395301
C0W180,七美,2025-12-28,23.219333,119.444892,0.0010721557
C1F9C1,白冷,2025-12-28,24.182844,120.929889,0.010277663
K2E710,苗改生物防治研究中心,2025-12-28,24.422861,120.871833,0.0047153025
C0N040,蘆竹溝,2025-12-28,23.2344,120.0961,0.18580116
C0TB40,崇德,2025-12-28,24.166144,121.657414,0.030977782
C0D760,大坪苗圃,2025-12-28,24.5362,121.1108,0.0007885999
C2W230,畜試所澎湖,2025-12-28,23.628342,119.513206,0.0004867783
C0R880,後壁湖,2025-12-28,21.9457,120.7457,0.009687612
C1I280,埔中,2025-12-28,23.820778,120.642594,0.019877171
467790,墾丁雷達站,2025-12-28,21.948235,120.808028,0.027993867
C0W190,望安,2025-12-28,23.380564,119.494075,0.00058586657
C0Z170,卓溪,2025-12-28,23.3443,121.3029,0.18718009
C0F850,東勢,2025-12-28,24.246428,120.833047,0.007716467
466900,淡水,2025-12-28,25.164889,121.448906,0.03742543
C0I370,魚池,2025-12-28,23.895703,120.94135,0.018661352
C0C630,大溪,2025-12-28,24.882853,121.265547,0.02819209
C0A520,山佳,2025-12-28,24.974944,121.402008,0.033381663
C0I110,竹山,2025-12-28,23.761225,120.688156,0.037365913
82H840,茶改南部分場,2025-12-28,23.762528,120.7405,0.02507272
C2SD80,再來山,2025-12-28,23.34371,121.44122,0.0009577054
C0G660,溪湖,2025-12-28,23.94835,120.479122,0.14344706
C1T800,洛韶,2025-12-28,24.204558,121.453956,0.0010184958
C1T810,慈恩,2025-12-28,24.192044,121.388386,0.00030092176
C1E451,象鼻,2025-12-28,24.368617,120.940228,0.0026835995
C0AC60,三峽,2025-12-28,24.939025,121.369728,0.019687625
C0I490,萬大林道,2025-12-28,23.928228,121.091411,0.0007593605
C1I290,豐丘,2025-12-28,23.668178,120.887417,0.0031628462
C1I320,奧萬大,2025-12-28,23.952956,121.178556,0.0011762108
C2M910,嘉義大學,2025-12-28,23.471325,120.485903,0.043554384
C0U770,南澳,2025-12-28,24.44935,121.81022,0.62482876
C2TB30,吉安,2025-12-28,23.94538,121.54803,0.27329066
C0A980,社子,2025-12-28,25.109508,121.469681,0.03783308
C0V800,六龜,2025-12-28,22.997889,120.633583,0.031948783
C1G9D0,國一S218K,2025-12-28,23.890641,120.493253,0.21512285
C0E570,白沙屯,2025-12-28,24.549447,120.696803,0.003723776
C2F9A0,中竹林,2025-12-28,24.103556,120.751061,0.004630593
C0FA40,臺中電廠,2025-12-28,24.2146,120.4907,0.007007086
C2G9A0,畜試所彰化,2025-12-28,23.86045,120.557964,0.13495664
C0H9C0,合歡山,2025-12-28,24.143442,121.272547,0.00027103987
G2M350,農試溪口農場,2025-12-28,23.58565,120.408111,0.14673859
C0U860,頭城,2025-12-28,24.85323,121.8308,0.65221196
C0R580,南州,2025-12-28,22.48591,120.50274,0.1081936
C0D430,峨眉,2025-12-28,24.6905,121.017189,0.0060255094
C0G780,秀水,2025-12-28,24.03405,120.503869,0.079208165
72N100,臺南農改場,2025-12-28,23.0605,120.342194,0.20868628
C0S900,蘭嶼高中,2025-12-28,22.04909,121.51214,0.13130842
C2TA60,六十石,2025-12-28,23.22477,121.31861,0.0009631087
C1F9W0,德基,2025-12-28,24.254783,121.190261,0.0007838977
C2M980,安和,2025-12-28,23.51377,120.31593,0.5802413
C1Z120,壽豐,2025-12-28,23.870853,121.508081,0.4015683
C0W160,烏坵,2025-12-28,24.9944,119.44956,0.0003874553
C1I240,外大坪,2025-12-28,23.958697,120.917931,0.0061058933
C1I550,國六W023K,2025-12-28,23.979067,120.867742,0.010047677
C0R870,興海,2025-12-28,21.9752,120.8439,0.0483871
C0R140,瑪家,2025-12-28,22.682903,120.686639,0.017826159
C0A530,坪林,2025-12-28,24.938183,121.70975,0.23478872
C0X260,後壁,2025-12-28,23.366358,120.362326,0.31453001
C0Z230,和平,2025-12-28,24.30717,121.77007,0.5624579
C0G770,福興,2025-12-28,24.041289,120.437669,0.031166647
C0H9A0,神木村,2025-12-28,23.532742,120.843667,0.0015826714
C0I460,南投,2025-12-28,23.911469,120.687331,0.037245445
C0I480,梅峰,2025-12-28,24.085272,121.173572,0.00045524037
C1V570,吉東,2025-12-28,22.85422,120.5454,0.07067627
C2A560,福山,2025-12-28,24.776203,121.502811,0.6903734
C0AH30,五分山,2025-12-28,25.07125,121.780794,0.003091564
C0FA10,松柏,2025-12-28,24.429115,120.617482,0.0076471264
72S200,東改班鳩分場,2025-12-28,22.829528,121.077694,0.0052869655
72HA00,中改埔里分場,2025-12-28,23.903208,120.963364,0.012689539
C2H9W0,大坪頂農水,2025-12-28,24.043122,120.932781,0.0077025434
C0C650,平鎮,2025-12-28,24.897503,121.214636,0.015889086
C0S930,延平,2025-12-28,22.902581,121.084058,0.002121297
C0UA60,樟樹山,2025-12-28,24.41393,121.78325,0.121444084
C2UC10,出水溪,2025-12-28,24.615822,121.652253,0.22296952
C1S670,摩天,2025-12-28,23.199503,121.027,0.0008213749
C2C590,觀音,2025-12-28,25.027072,121.153317,0.004214213
C0V630,茄萣,2025-12-28,22.906642,120.182608,0.07638439
466940,基隆,2025-12-28,25.133314,121.740475,0.6332485
C0X050,東河,2025-12-28,23.296598,120.385608,0.1265967
C0R770,保力,2025-12-28,22.071122,120.764111,0.012544164
G2L020,農試嘉義分所,2025-12-28,23.485028,120.473806,0.028728366
C0X240,關子嶺,2025-12-28,23.331169,120.508025,0.046319634
C0I380,集集,2025-12-28,23.828206,120.801467,0.035523675
466990,花蓮,2025-12-28,23.975128,121.613275,0.58045864
C1V220,小關山,2025-12-28,23.154217,120.813603,0.00091443595
C1F9G1,慶福山,2025-12-28,24.180853,120.848378,0.0014872531
C0FB20,雪山橋,2025-12-28,24.23192,120.9786,0.00087267015
C0Z250,瑞穗林道,2025-12-28,23.49284,121.30688,0.0026111745
C0D590,新豐,2025-12-28,24.87068,120.97721,0.0045293905
C0A870,五指山,2025-12-28,25.132153,121.608692,0.0011167215
C0UA50,西帽山,2025-12-28,24.555361,121.802628,0.10131266
C2R980,竹田國中,2025-12-28,22.61532,120.52412,0.08731107
C0X160,仁德,2025-12-28,22.968258,120.257689,0.13371272
C1H971,六分寮,2025-12-28,23.92507,120.6378,0.01664543
C0W120,西嶼,2025-12-28,23.5626,119.468436,0.0006446612
C0G650,員林,2025-12-28,23.946503,120.585597,0.08288582
C0AD50,鶯歌,2025-12-28,24.951533,121.346294,0.018802073
C2H9Q0,北東眼山,2025-12-28,24.120939,121.189303,0.0006146503
C2H9T0,名間竹圍,2025-12-28,23.859914,120.637572,0.064248025
C0S990,山豬窟,2025-12-28,22.318619,120.857372,0.20286572
C0X190,安平,2025-12-28,22.993161,120.152181,0.18033578
C0K400,斗六,2025-12-28,23.720583,120.541127,0.12730831
12J990,口湖工作站,2025-12-28,23.589978,120.180394,0.15325914
C0O830,北寮,2025-12-28,23.079561,120.495008,0.057052884
C1D410,白蘭,2025-12-28,24.579364,121.079947,0.00087800855
C0S970,加津林,2025-12-28,22.416211,120.926942,0.374152
C0D700,關西,2025-12-28,24.7977,121.1732,0.15473008
C0U750,龜山島,2025-12-28,24.841667,121.953133,0.078955226
C0R810,內獅,2025-12-28,22.305064,120.642986,0.021860708
C1M390,龍美,2025-12-28,23.406728,120.654417,0.0039771516
C2K290,崙內,2025-12-28,23.69525,120.35601,0.11638315
C2FB60,頭櫃山,2025-12-28,24.129842,120.858925,0.0029930167
C1H840,國三N238K,2025-12-28,23.841008,120.707711,0.06395774
CAQ030,崎峰國小,2025-12-28,22.42565,120.49521,0.1081936
C2E520,大湖,2025-12-28,24.414939,120.870872,0.0039042782
467530,阿里山,2025-12-28,23.508208,120.813242,0.00056515366
C1E691,南湖,2025-12-28,24.40135,120.837533,0.00047889355
C0FA30,梧棲,2025-12-28,24.256003,120.523381,0.007791537
C1V231,高中,2025-12-28,23.134911,120.716711,0.013148759
C0AK30,硬漢嶺,2025-12-28,25.136097,121.426372,0.001546555
C0F9V0,新社,2025-12-28,24.200172,120.815806,0.0038145934
C0H890,埔里,2025-12-28,23.972169,120.952425,0.05495573
C0R690,墾丁,2025-12-28,21.966756,120.810269,0.0014807365
C0SD20,富山,2025-12-28,22.822383,121.190825,0.034219764
C0F0D0,審馬陣,2025-12-28,24.381675,121.4203,0.00016168896
C2W030,金門農試所,2025-12-28,24.448431,118.451786,0.00045437182
C0R820,白鷺,2025-12-28,22.454275,120.666219,0.040771987
C0FB00,大雪山,2025-12-28,24.254668,121.007374,0.0005254298
C1V190,南天池,2025-12-28,23.27403,120.91176,0.0003087929
C0E940,雪見,2025-12-28,24.42595,121.01347,0.00082692906
K2E360,苗栗農改場,2025-12-28,24.495722,120.829111,0.013287579
CAJ050,海口故事園區,2025-12-28,23.57543,120.14121,0.15326558
C2K280,四湖,2025-12-28,23.6304,120.22717,0.08121628
C2H9D0,三隻寮,2025-12-28,24.093078,120.861578,0.003096294
C0O990,媽廟,2025-12-28,22.99175,120.293525,0.1894691
C0D480,打鐵坑,2025-12-28,24.849664,121.150789,0.14726129
C0Z220,和平林道,2025-12-28,24.343922,121.656317,0.011612266
C0TA10,花蓮漁港,2025-12-28,23.995322,121.638331,0.05362772
72C440,桃園農改場,2025-12-28,24.950944,121.030583,0.006588049
C1E711,馬拉邦山,2025-12-28,24.367306,120.901656,0.0025578362
C0SB20,富岡,2025-12-28,22.792467,121.192669,0.0012695753
C0D560,竹東,2025-12-28,24.767147,121.057881,0.007008576
C0F9U0,南屯,2025-12-28,24.137006,120.637969,0.061445203
C2SD60,明峰,2025-12-28,22.8671,121.11825,0.0013817673
C0M720,番路,2025-12-28,23.464657,120.554156,0.021007441
C0F0A0,雪山圈谷,2025-12-28,24.388594,121.236339,0.0002674372
C1A9N0,四十份,2025-12-28,24.934158,121.593283,0.0026303313
C0U760,東澳,2025-12-28,24.52196,121.83318,0.8542253
C0X230,鹽水,2025-12-28,23.272621,120.247641,0.23171489
C2H9H0,苗改南投蜂場,2025-12-28,23.852589,120.693481,0.05624985
C2TB70,達谷寮,2025-12-28,23.38,121.35968,0.24175563
C0R950,萬隆國小,2025-12-28,22.507667,120.587817,0.08115862
467540,大武,2025-12-28,22.35572,120.90374,0.1469133
C0V370,古亭坑,2025-12-28,22.893178,120.401947,0.123652995
C1I340,新興橋,2025-12-28,23.563333,120.868728,0.008549587
C0SA80,土坂,2025-12-28,22.453108,120.887572,0.12273138
C0R160,鹽埔,2025-12-28,22.739558,120.530778,0.05940135
C0AC40,大屯山,2025-12-28,25.175675,121.522408,0.00061098265
466850,五分山雷達站,2025-12-28,25.071182,121.781205,0.0029414056
C2H9L0,馬烈霸,2025-12-28,24.1512,121.201772,0.0006853771
C1AI50,國三N016K,2025-12-28,25.034164,121.619664,0.040574104
C2V920,匏子寮,2025-12-28,23.04905,120.55319,0.03598447
C1V600,藤枝,2025-12-28,23.071961,120.757042,0.0014006577
C1E601,南勢,2025-12-28,24.572486,120.734842,0.0034133983
C0O980,新市,2025-12-28,23.061614,120.298197,0.2013624
C0K420,西螺,2025-12-28,23.800407,120.467394,0.19692469
C0Z050,佳心,2025-12-28,23.34567,121.21316,0.0015122477
C0AD30,蘆洲,2025-12-28,25.086594,121.472331,0.06639516
C0V610,梓官,2025-12-28,22.760558,120.267211,0.10366222
K2F750,種苗改良場,2025-12-28,24.225972,120.800917,0.004844761
C0UA80,大溪漁港,2025-12-28,24.941801,121.902955,0.7121869
C1AI60,國一39K邊坡,2025-12-28,25.064361,121.383836,0.0060840007
C0W150,金寧,2025-12-28,24.457703,118.328989,0.0012315871
C0R960,內埔,2025-12-28,22.608483,120.570714,0.084966876
V2C250,八德合作社,2025-12-28,24.93775,121.266389,0.018837076
C2H9S0,龍南,2025-12-28,23.953536,120.833183,0.0026095218
C0AH40,平等,2025-12-28,25.129142,121.577086,0.0032003606
C0R540,佳冬,2025-12-28,22.419456,120.552375,0.05016632
466950,彭佳嶼,2025-12-28,25.627975,122.079744,0.00031210898
C0A890,雙溪,2025-12-28,25.036003,121.864242,0.60053784
C0C480,桃園,2025-12-28,24.992425,121.323172,0.013361532
C0AH50,林口,2025-12-28,25.072181,121.38084,0.0038566624
A2K360,水試臺西試驗場,2025-12-28,23.717231,120.190522,0.07647742
C2M960,外寮,2025-12-28,23.562643,120.665688,0.0042431746
C0F9S0,烏日,2025-12-28,24.107058,120.624103,0.034281544
C2N180,鹿陶洋,2025-12-28,23.14325,120.48352,0.07864579
C0C490,八德,2025-12-28,24.928708,121.283289,0.018739855
C0R190,赤山,2025-12-28,22.592333,120.614306,0.082073845
C0T820,天祥,2025-12-28,24.179597,121.495639,0.25362092
C1F9E1,龍安,2025-12-28,24.1605,120.831961,0.0032357404
C2SD50,順那,2025-12-28,23.04166,121.29332,0.01996548
C0V820,小林,2025-12-28,23.148408,120.63325,0.028879344
C2G870,芳苑,2025-12-28,23.922303,120.320025,0.016646734
C0E850,大河,2025-12-28,24.618069,120.948578,0.008121474
C1U670,寒溪,2025-12-28,24.634,121.71691,0.92341954
C0N020,城西,2025-12-28,23.0568,120.0956,0.1807611
C1Z110,三棧,2025-12-28,24.11557,121.60501,0.05944032
C0R280,檳榔,2025-12-28,22.076078,120.836777,0.006170045
C2H9J0,中台,2025-12-28,23.9996,120.938739,0.024819843
C0F9L0,后里,2025-12-28,24.310436,120.729725,0.006023037
467441,高雄,2025-12-28,22.730432,120.312516,0.10111225
C0Z180,新城,2025-12-28,24.040486,121.604878,0.56311876
C0D540,橫山,2025-12-28,24.71116,121.11693,0.009148622
C1D420,太閣南,2025-12-28,24.632808,121.160575,0.00086845463
C1E770,公館,2025-12-28,24.526914,120.830806,0.014805739
CAN130,水試所海水繁養殖中心,2025-12-28,23.120802,120.07968,0.08973732
C1I430,翠華,2025-12-28,24.191961,121.224339,0.0004177295
C1M400,菜瓜坪,2025-12-28,23.251928,120.576103,0.08597355
C0G730,二林,2025-12-28,23.903325,120.376081,0.040050413
72M360,南改義竹分場,2025-12-28,23.360694,120.279361,0.26641285
V2K620,麥寮合作社,2025-12-28,23.753836,120.294783,0.1216394
C0Z070,舞鶴,2025-12-28,23.46811,121.37407,0.089469925
C0B040,大武崙,2025-12-28,25.166676,121.706993,0.5868651
C1Z030,紅葉,2025-12-28,23.493119,121.338806,0.14920451
C1I050,丹大,2025-12-28,23.753747,121.141147,0.00028528148
C0I080,信義,2025-12-28,23.689694,120.851036,0.039341677
C2TB80,庄子底,2025-12-28,23.71794,121.49438,0.23157883
C0D750,樂山林道6k,2025-12-28,24.49999,121.08773,0.00044186832
C2M920,朴子農改,2025-12-28,23.469889,120.259383,0.50838053
C2A880,福隆,2025-12-28,25.017842,121.942083,0.7387951
C0Z160,鳳林,2025-12-28,23.746114,121.453411,0.20693234
C0UB80,翠峰林道6K,2025-12-28,24.49773,121.568625,0.00028999243
C0V210,復興,2025-12-28,23.222403,120.806089,0.028254375
C0H990,昆陽,2025-12-28,24.121322,121.273642,0.0002834263
C0R741,獅子,2025-12-28,22.202308,120.705236,0.024974823
C0S710,鹿野,2025-12-28,22.917711,121.122994,0.0015163292
C0I530,小奇萊,2025-12-28,24.131764,121.295717,0.0002977642
C0FA70,大雪山埡口,2025-12-28,24.26867,121.03062,0.00039698585
C2K630,荷苞,2025-12-28,23.657717,120.595144,0.014874642
C0Z080,富源,2025-12-28,23.587642,121.378225,0.05728982
C2M9E0,旺來山,2025-12-28,23.555153,120.486463,0.020996528
C0SB10,美和,2025-12-28,22.682078,121.060236,0.2872283
C2K620,馬光農場,2025-12-28,23.721453,120.378864,0.21375774
C1I140,卡奈托灣,2025-12-28,23.754364,121.087872,0.00096784224
C0I520,玉山風口,2025-12-28,23.470489,120.955994,0.00028047748
C1G691,下水埔,2025-12-28,23.816114,120.5676,0.116139315
C0X110,臺南市南區,2025-12-28,22.961189,120.188378,0.13497661
C0V680,仁武,2025-12-28,22.701083,120.347722,0.09922655
C2G840,北斗,2025-12-28,23.877586,120.514222,0.20495766
C2TB90,長橋,2025-12-28,23.6874,121.46186,0.42176813
C0R900,竹坑,2025-12-28,22.1385,120.7022,0.0053834827
C0G860,社頭,2025-12-28,23.897647,120.5862,0.13395967
C0X150,安定,2025-12-28,23.102614,120.227839,0.2234208
C0R590,里港,2025-12-28,22.77919,120.49459,0.07726151
C0E610,馬都安,2025-12-28,24.451272,120.930192,0.001912938
C0E550,明德,2025-12-28,24.583486,120.885411,0.010647563
C0R150,三地門,2025-12-28,22.709889,120.639944,0.0705282
C0G910,花壇,2025-12-28,24.032076,120.549461,0.07088074
C1D400,鳥嘴山,2025-12-28,24.71909,121.28387,0.0028141981
C0K500,元長,2025-12-28,23.64981,120.315024,0.16393887
C0F0B0,石岡,2025-12-28,24.276061,120.777644,0.005932655
C2V250,甲仙,2025-12-28,23.080106,120.591758,0.038190596
C0SA20,金崙山,2025-12-28,22.567419,120.959667,0.0007121735
C0V350,溪埔,2025-12-28,22.738578,120.446797,0.06273306
C0M660,溪口,2025-12-28,23.604131,120.403569,0.14659809
C1S880,壽卡,2025-12-28,22.238911,120.858903,0.07713962
72D680,桃改新埔分場,2025-12-28,24.834444,121.066111,0.014000815
