站號,站名,日期,lat,lon,BLBTSLS
C0R710,龍磐,2025-04-21,21.931672,120.838942,0.9952399
C1F9D1,白毛台,2025-04-21,24.158325,120.886933,3.570468e-09
C0G940,竹塘,2025-04-21,23.848253,120.386764,2.8495504e-07
467590,恆春,2025-04-21,22.003897,120.746339,0.96811247
C1O850,環湖,2025-04-21,23.148617,120.418633,1.9677282e-08
C0U710,太平山,2025-04-21,24.505486,121.525656,1.061534e-08
C0E820,獅潭,2025-04-21,24.539133,120.920042,1.1073418e-09
C0V880,興達,2025-04-21,22.8778,120.2127,0.04075686
C0S890,關山,2025-04-21,23.0395,121.175017,0.8678423
C0SB30,新蘭,2025-04-21,22.869214,121.223228,0.99781615
C2R970,屏科大,2025-04-21,22.648275,120.619247,0.00036071608
C1Z130,銅門,2025-04-21,23.965694,121.492842,0.9977078
C0AD40,土城,2025-04-21,24.973208,121.445169,1.3796088e-08
CAN140,六官養殖協會,2025-04-21,23.22881,120.29962,9.864983e-06
C0X180,山上,2025-04-21,23.0757,120.363253,0.00210867
C0F9Z0,雪山東峰,2025-04-21,24.388792,121.268675,3.1561196e-08
C1M480,獨立山,2025-04-21,23.537022,120.607797,2.7942195e-09
C0X220,學甲,2025-04-21,23.230367,120.182187,9.850768e-06
467650,日月潭,2025-04-21,23.881325,120.90805,2.8490967e-09
C0K600,箔子寮,2025-04-21,23.6197,120.14,4.204114e-08
C0G830,埤頭,2025-04-21,23.866003,120.452806,2.2102826e-07
C0S950,七塊厝,2025-04-21,22.954453,121.229922,0.0018260151
467110,金門,2025-04-21,24.407306,118.289281,2.1651203e-08
C0AH80,深坑,2025-04-21,25.002703,121.628328,8.557612e-09
C0A970,三貂角,2025-04-21,25.007606,122.002058,2.0487185e-05
C2D730,寶山農場,2025-04-21,24.732444,120.976153,3.0775014e-09
C0K430,褒忠,2025-04-21,23.690938,120.303634,2.826576e-08
467480,嘉義,2025-04-21,23.495925,120.432906,2.8795117e-08
C0V400,阿公店,2025-04-21,22.804194,120.355528,0.11310751
467550,玉山,2025-04-21,23.48718,120.95943,4.201837e-08
C0R440,大漢山,2025-04-21,22.405264,120.753181,6.285795e-09
C0K280,四湖,2025-04-21,23.630414,120.227125,2.9161564e-08
C1F9B1,桐林,2025-04-21,24.066172,120.735194,1.3308328e-07
C2H9U0,鳳鵬,2025-04-21,23.763919,120.788061,1.6632756e-08
C0K390,土庫,2025-04-21,23.679029,120.395574,2.3332616e-07
C1I450,望鄉山,2025-04-21,23.594153,120.944286,2.3824049e-08
C0E910,海埔,2025-04-21,24.648767,120.772435,2.5601725e-08
B2E890,畜試北區分所,2025-04-21,24.527806,120.770972,1.4284909e-08
C0R750,四林格山,2025-04-21,22.076989,120.802439,0.5034129
C0F0C0,中坑,2025-04-21,24.248517,120.903319,1.6204925e-09
C1I121,大鞍,2025-04-21,23.678381,120.760017,4.748017e-09
72U480,花改蘭陽分場,2025-04-21,24.686306,121.716583,0.00012991161
C0A770,科教館,2025-04-21,25.096356,121.516507,1.5105869e-08
C0AJ60,六塊厝,2025-04-21,25.24,121.4481,1.6920804e-08
C0R620,墾雷,2025-04-21,21.900836,120.855269,0.9805435
467420,永康,2025-04-21,23.038386,120.2367,0.0240256
C0I410,名間,2025-04-21,23.837053,120.701447,1.7660382e-08
A2C560,農工中心,2025-04-21,24.985917,121.239833,1.409628e-09
C0V740,旗山,2025-04-21,22.888614,120.483597,0.07767937
C0Z061,玉里,2025-04-21,23.3215,121.339656,0.9902807
C0S840,南田,2025-04-21,22.279725,120.889208,0.99262226
C1I470,杉林溪,2025-04-21,23.639517,120.786444,5.670527e-09
C1X040,東原,2025-04-21,23.291597,120.463822,4.3334574e-05
C0R660,枋寮,2025-04-21,22.367722,120.590647,0.9846103
C1R120,上德文,2025-04-21,22.763272,120.704442,8.1061575e-09
C0K450,大埤,2025-04-21,23.646074,120.431537,2.0954494e-07
C0UA00,土場,2025-04-21,24.576533,121.495333,0.0006056995
467080,宜蘭,2025-04-21,24.763975,121.756528,0.00023398944
C0N030,四草,2025-04-21,23.0235,120.1116,1.3007563e-05
467410,臺南,2025-04-21,22.99328,120.20492,0.019168058
C0V650,彌陀,2025-04-21,22.783806,120.246361,0.22767818
C0D660,新竹市東區,2025-04-21,24.798681,120.986942,1.6685787e-08
82S580,茶改東部分場,2025-04-21,22.907694,121.130139,0.9712154
C0SB40,興隆,2025-04-21,22.913661,121.257469,0.9974669
467050,新屋,2025-04-21,25.006725,121.047492,2.980212e-09
C0C710,大溪永福,2025-04-21,24.892936,121.324975,1.3172324e-09
C0FA20,溫寮,2025-04-21,24.372177,120.583125,9.1460663e-07
C0V640,湖內,2025-04-21,22.887139,120.2445,0.02317941
C0R910,下寮,2025-04-21,22.3929,120.5548,0.984592
C0Z020,明里,2025-04-21,23.208717,121.262342,0.8531205
C0M770,嘉義梅山,2025-04-21,23.585398,120.555587,1.9475541e-08
C0C660,楊梅,2025-04-21,24.912375,121.143047,1.2212188e-09
C1E511,新開,2025-04-21,24.347703,120.827019,7.481688e-08
G2F820,農試所(霧峰),2025-04-21,24.031261,120.688133,2.2964701e-07
C1I070,和社,2025-04-21,23.591131,120.888861,4.2849724e-08
C2F000,大肚,2025-04-21,24.15295,120.572117,6.0117515e-08
C1S850,豐南,2025-04-21,23.122139,121.262389,0.00023317189
C2A920,富貴角,2025-04-21,25.263783,121.565258,3.5775165e-09
CAH030,茶改場竹圍站,2025-04-21,23.860083,120.637528,1.5706659e-08
C0T960,光復,2025-04-21,23.660694,121.424964,0.99912083
C0F9M0,豐原,2025-04-21,24.254322,120.720692,5.911663e-09
C0R720,旭海,2025-04-21,22.205403,120.887614,0.77734816
C0V710,苓雅,2025-04-21,22.622742,120.330669,0.20352203
C0C740,觀音工業區,2025-04-21,25.064764,121.114856,3.614706e-09
CAC040,拉拉山,2025-04-21,24.699317,121.427133,6.331954e-09
C0V790,萬山,2025-04-21,22.905944,120.688056,1.0299111e-07
U2HA30,臺大和社,2025-04-21,23.590856,120.888864,4.2849724e-08
C0AJ90,澳底,2025-04-21,25.0552,121.9253,0.00022028331
C0Z100,東華,2025-04-21,23.89525,121.549833,0.99963135
C0G970,三豐,2025-04-21,23.882,120.2895,3.3346904e-08
V2K610,大庄合作社,2025-04-21,23.8068,120.367939,2.7027816e-08
C0V900,汕尾,2025-04-21,22.4782,120.4151,0.98482704
C1R630,龍泉,2025-04-21,22.66701,120.59091,0.017407365
C1AC50,關渡,2025-04-21,25.133486,121.469331,5.307394e-09
C0F9I0,神岡,2025-04-21,24.272481,120.658314,6.979712e-09
C0K460,斗南,2025-04-21,23.678734,120.478359,1.958215e-07
C2O810,曾文,2025-04-21,23.219681,120.497328,0.00074813387
467280,後龍,2025-04-21,24.648563,120.831834,1.8676113e-08
C1F9J1,清水林,2025-04-21,24.071242,120.820419,3.8910537e-09
C2A650,火燒寮,2025-04-21,25.002719,121.742892,4.496475e-08
466930,竹子湖,2025-04-21,25.162078,121.544547,9.2094204e-10
C1I220,樟湖,2025-04-21,23.905333,120.846983,2.7528515e-09
C0I390,仁愛,2025-04-21,24.022122,121.132206,2.780996e-09
C0Z300,東里,2025-04-21,23.26853,121.30547,0.98412806
C1V590,新發,2025-04-21,23.057019,120.646064,1.5351296e-09
C0K510,水林,2025-04-21,23.572924,120.24597,3.7618644e-08
72S590,東改賓朗果園,2025-04-21,22.813889,121.071278,0.08501338
82A750,茶改北部分場,2025-04-21,24.955778,121.631222,9.561846e-10
C1A750,石碇服務區,2025-04-21,25.00872,121.646242,7.0669586e-09
C0X300,鹿寮,2025-04-21,23.386047,120.477331,8.05934e-08
G2AI50,關渡,2025-04-21,25.11575,121.492,1.563564e-08
C0K590,雲林東勢,2025-04-21,23.674192,120.255721,2.7533256e-08
C0A570,桶後,2025-04-21,24.848222,121.597992,0.011826053
C1S800,華源,2025-04-21,22.657883,121.02325,0.9942229
C0G720,溪州,2025-04-21,23.851589,120.499093,1.6787787e-07
C1V160,達卡努瓦,2025-04-21,23.279811,120.705319,1.6889647e-09
C2M410,馬頭山,2025-04-21,23.324361,120.582017,1.6424534e-06
C0V850,蚵仔寮,2025-04-21,22.7256,120.2527,0.23172815
C0S740,池上,2025-04-21,23.119628,121.209469,0.13505247
C1V390,尖山,2025-04-21,22.813153,120.367789,0.055733074
C0AH70,松山,2025-04-21,25.04871,121.55042,1.4371487e-08
C0N010,鯤鯓國小,2025-04-21,23.1879,120.0889,1.1515993e-05
C0R550,新埤,2025-04-21,22.467947,120.582894,0.98320687
C0SA60,知本（水試所）,2025-04-21,22.702394,121.082761,0.99844205
C0T9I0,豐濱,2025-04-21,23.583897,121.514806,0.9989766
C0UB00,淡江大學蘭陽校園,2025-04-21,24.823239,121.730383,8.1118834e-08
C0W240,九宮,2025-04-21,24.423753,118.240186,2.190734e-08
C0T9N0,富里,2025-04-21,23.171639,121.249378,0.5798432
U2HA50,臺大竹山,2025-04-21,23.756972,120.681556,1.8148526e-08
C0V840,鳳鼻頭,2025-04-21,22.5083,120.3591,0.23172815
C0X140,西港,2025-04-21,23.125608,120.203108,9.682126e-06
72D080,桃改五峰分場,2025-04-21,24.612194,121.157167,1.7346196e-09
C2H9P0,伊拿谷,2025-04-21,23.963211,121.088264,3.2988758e-09
C2H9F0,柑林,2025-04-21,24.018658,120.847072,8.133449e-08
C0TA20,加灣,2025-04-21,24.082025,121.608944,0.9996798
C0V530,阿蓮,2025-04-21,22.883208,120.327508,0.010191717
C1O880,關山,2025-04-21,23.173397,120.594092,1.5076976e-06
C0E791,卓蘭,2025-04-21,24.3126,120.8244,6.976202e-08
C1I030,武界,2025-04-21,23.913225,121.052483,3.1959717e-09
C0R520,崁頂,2025-04-21,22.514781,120.506914,0.9834228
C0R341,牡丹,2025-04-21,22.130036,120.792639,0.21511866
C0R930,萬丹,2025-04-21,22.5885,120.4851,0.98347193
C0S760,紅石,2025-04-21,23.069131,121.126219,4.127636e-09
C2C410,中央大學,2025-04-21,24.967652,121.185165,1.3440121e-09
C1M610,石磐龍,2025-04-21,23.496606,120.663506,3.858403e-09
C0UA10,鴛鴦湖,2025-04-21,24.590269,121.412228,6.706232e-09
V2C260,八德蔬果,2025-04-21,24.978508,121.281819,1.4668271e-09
C0R800,丹路,2025-04-21,22.204481,120.750989,0.91000503
C0G920,永靖,2025-04-21,23.924703,120.547533,8.36694e-08
C2M950,太和,2025-04-21,23.538372,120.702961,4.0476533e-09
C1A630,下盆,2025-04-21,24.771003,121.538622,9.322618e-10
B2N890,畜產試驗所,2025-04-21,23.058972,120.336406,0.009171382
C0UA30,白嶺,2025-04-21,24.527819,121.519031,5.1624047e-09
C1V580,溪南(特生中心),2025-04-21,23.084972,120.788475,6.8150756e-09
C1T970,大農,2025-04-21,23.615233,121.413331,0.9976117
C0R650,竹田,2025-04-21,22.58486,120.54344,0.9832799
C1H900,清流,2025-04-21,24.080775,120.962997,3.2771956e-09
C1C510,水尾,2025-04-21,24.940081,121.087161,1.618744e-09
C0F9X0,大雅(中科園區),2025-04-21,24.21528,120.62445,6.8086344e-08
C0SB60,白守蓮,2025-04-21,23.126769,121.401914,0.99843496
C0O970,虎頭埤,2025-04-21,23.021375,120.347878,0.0018544694
C0C730,中大臨海站,2025-04-21,24.966126,121.008581,4.0671475e-09
C0X250,新營,2025-04-21,23.310689,120.316681,5.6590084e-06
C0V700,三民,2025-04-21,22.645017,120.311233,0.20352203
C0U870,大礁溪,2025-04-21,24.791042,121.675047,1.8085428e-08
C0E870,高鐵苗栗,2025-04-21,24.60725,120.826094,6.6101455e-07
A2K570,古坑花卉中心,2025-04-21,23.63353,120.55239,5.605557e-08
C0TA30,鹽寮,2025-04-21,23.845606,121.592664,0.9996798
C0M860,新美,2025-04-21,23.338017,120.683169,4.0434402e-09
C1E701,八卦,2025-04-21,24.491756,120.927619,9.263699e-10
C0I420,國姓,2025-04-21,24.037803,120.855072,4.6789037e-08
C2D720,關西工作站,2025-04-21,24.757275,121.184792,1.4129146e-09
C0S960,香蘭,2025-04-21,22.587569,120.993375,0.99210125
467620,蘭嶼,2025-04-21,22.0369,121.55843,0.058221966
C0R260,春日,2025-04-21,22.370361,120.628306,0.9770854
72G600,臺中農改場,2025-04-21,24.003028,120.534389,1.13214405e-07
C0Z210,瑞穗,2025-04-21,23.5239,121.39021,0.99917406
C0M820,達邦,2025-04-21,23.453994,120.749517,4.3677924e-09
C0V860,南寮,2025-04-21,22.7616,120.2339,0.2383995
C0G740,大城,2025-04-21,23.852487,120.320935,2.777981e-08
C0R920,塭仔,2025-04-21,22.4169,120.5197,0.98482704
C0R470,高樹,2025-04-21,22.826389,120.600806,0.001983725
C0R680,佳樂水,2025-04-21,21.993578,120.861633,0.96493626
C1O870,大棟山,2025-04-21,23.31157,120.52226,1.7997498e-09
C0D360,梅花,2025-04-21,24.678347,121.208558,8.9832247e-10
C0Z190,富世,2025-04-21,24.14743,121.6297,0.9983306
C0AI10,屈尺,2025-04-21,24.92184,121.54475,8.3294065e-09
B2U990,畜試東區分所,2025-04-21,24.669039,121.832561,0.0003290777
C0SB80,長濱漁港,2025-04-21,23.313644,121.459994,0.9982906
C0R240,來義,2025-04-21,22.527306,120.625111,0.96395105
C0V910,大樹,2025-04-21,22.684645,120.432803,0.0981705
C1R610,西大武山,2025-04-21,22.617719,120.7322,6.640237e-09
C0G900,線西,2025-04-21,24.143358,120.443536,9.048136e-07
C0M700,竹崎,2025-04-21,23.526178,120.555508,2.780006e-08
C2E880,三義,2025-04-21,24.405478,120.749819,6.3373427e-09
C0C720,竹圍,2025-04-21,25.112692,121.239824,1.5001499e-08
C0F9P0,清水,2025-04-21,24.312297,120.562242,7.172864e-07
C0Z150,吉安光華,2025-04-21,23.930925,121.595153,0.9996834
467300,東吉島,2025-04-21,23.25727,119.66762,0.3318595
C1D640,外坪(五指山),2025-04-21,24.644447,121.090961,8.9296354e-10
C0F9O0,潭子,2025-04-21,24.213106,120.703933,7.569819e-09
C2H9R0,卓社,2025-04-21,23.887894,121.000086,4.526003e-09
72T250,花蓮農改場,2025-04-21,23.975222,121.563889,0.99962837
C0E780,銅鑼,2025-04-21,24.489681,120.790853,8.338388e-09
C1T950,太安,2025-04-21,23.666719,121.370128,2.7983156e-09
C0E830,苑裡,2025-04-21,24.439714,120.653053,6.708377e-07
467270,田中,2025-04-21,23.873803,120.581286,1.4878674e-07
C0SA10,檳榔四格山,2025-04-21,22.810031,121.109308,0.006248323
C1T830,布洛灣,2025-04-21,24.17184,121.57127,0.0030176311
C0F970,大坑,2025-04-21,24.173142,120.722289,9.688301e-09
C1U920,思源,2025-04-21,24.393125,121.347214,1.2054365e-08
C0A931,三和,2025-04-21,25.233153,121.595236,3.1884095e-09
C0I010,廬山,2025-04-21,24.033311,121.181808,4.981976e-09
C2M940,日野賀,2025-04-21,23.434056,120.727169,3.7614107e-09
C0R860,鼻頭,2025-04-21,22.1043,120.8979,0.9183974
C0UB20,壯圍,2025-04-21,24.7359,121.8163,0.0003404126
C0R790,九棚,2025-04-21,22.14195,120.889281,0.92627394
C0W110,東莒,2025-04-21,25.9652,119.98069,1.7997268e-08
C1U930,粉鳥林,2025-04-21,24.497088,121.842479,0.9990241
C1I211,蘆竹湳,2025-04-21,23.934019,120.811994,1.2127122e-08
C0S830,長濱,2025-04-21,23.286817,121.411975,0.5769652
C1F9F1,伯公龍,2025-04-21,24.272392,120.849047,8.431064e-09
C0E810,西湖,2025-04-21,24.562947,120.7485,1.8408604e-08
C1I440,新高口,2025-04-21,23.478744,120.878939,1.5303419e-08
C0O840,王爺宮,2025-04-21,23.222064,120.40085,0.00080726366
C0T9G0,鳳林山,2025-04-21,23.735269,121.420131,4.1720304e-07
C0X080,佳里,2025-04-21,23.173039,120.145086,1.1770121e-05
C0FB70,大甲溪埔,2025-04-21,24.370625,120.620067,5.0889827e-07
C0Z310,清水斷崖,2025-04-21,24.218294,121.689142,0.9959578
C0M680,太保,2025-04-21,23.455062,120.331455,3.3935674e-08
C1S820,金峰,2025-04-21,22.590969,120.933236,0.87464154
C0AD10,八里,2025-04-21,25.150211,121.403947,1.4769062e-08
C2K240,草嶺,2025-04-21,23.59555,120.693461,3.7670036e-09
C1SA70,都蘭,2025-04-21,22.87794,121.226881,0.997467
C0K440,二崙,2025-04-21,23.772797,120.408944,2.3284647e-07
C1A760,坪林交控,2025-04-21,24.94284,121.713442,2.2636627e-07
C0F9N0,大里,2025-04-21,24.092464,120.701378,9.17699e-08
C0SA90,達仁林場,2025-04-21,22.264347,120.823972,1.0508647e-05
C1R290,石門山,2025-04-21,22.112611,120.756597,0.9969613
42HA10,萬大發電廠,2025-04-21,23.978875,121.139639,2.7983156e-09
C0R890,山海,2025-04-21,21.9878,120.7091,0.9285881
C0T9A0,月眉山,2025-04-21,23.809928,121.539828,0.0003026613
C0AC70,信義,2025-04-21,25.037822,121.564597,1.404342e-08
C0K560,棋山,2025-04-21,23.68645,120.603417,4.3328782e-08
C2FB50,出雲,2025-04-21,24.206469,120.902794,2.7953442e-09
C1Z240,中平林道,2025-04-21,23.42115,121.26763,4.455299e-09
U2H480,溪頭,2025-04-21,23.670306,120.798194,2.8307234e-09
C0M880,好美里,2025-04-21,23.3364,120.138,1.1770121e-05
C0T9E0,大坑,2025-04-21,23.880628,121.581981,0.007601595
C0K530,臺西,2025-04-21,23.701547,120.197559,3.002534e-08
C1E900,國一N128K,2025-04-21,24.560997,120.844186,1.5778213e-08
C0AJ50,水湳洞,2025-04-21,25.123695,121.862238,1.3861342e-08
C0AI20,白沙灣,2025-04-21,25.283128,121.519058,1.3861342e-08
C2V310,美濃,2025-04-21,22.898792,120.51907,0.10886446
C0A860,大坪,2025-04-21,25.165914,121.632969,1.0282615e-09
C1U850,觀音海岸,2025-04-21,24.38319,121.77856,1.755358e-09
C2K610,草嶺石壁,2025-04-21,23.602469,120.707731,3.8140913e-09
C0U950,鶯子嶺,2025-04-21,24.89754,121.79244,1.8034781e-09
C0O900,善化,2025-04-21,23.112883,120.297219,0.037980724
C0K550,蔦松,2025-04-21,23.514319,120.229736,4.178827e-08
E2P980,林試六龜中心,2025-04-21,22.991703,120.645722,3.8442427e-06
C0E590,通霄,2025-04-21,24.471892,120.704622,1.6685787e-08
C1I310,西巒,2025-04-21,23.754486,120.883956,2.7657774e-09
C0A550,泰平,2025-04-21,24.971197,121.823711,9.56991e-10
C0I360,水里,2025-04-21,23.812553,120.849792,2.6536464e-08
C0R830,高士,2025-04-21,22.121825,120.836781,0.9913002
C1I101,溪頭,2025-04-21,23.661789,120.807647,6.4954415e-09
C0AJ20,野柳,2025-04-21,25.20703,121.690021,1.4371487e-08
C0B060,暖暖,2025-04-21,25.0957,121.7403,7.0826793e-09
C1H920,長豐,2025-04-21,24.102039,120.879897,3.5956311e-09
C0V360,內門,2025-04-21,22.975481,120.466769,0.004260269
C0R850,林邊,2025-04-21,22.4634,120.5339,0.98357177
C0E930,龍鳳,2025-04-21,24.700034,120.859125,2.6373282e-08
C0U910,冬山,2025-04-21,24.63373,121.7937,0.0003290777
C1E721,泰安,2025-04-21,24.489017,120.968036,5.0655102e-09
82H320,茶改中部分場,2025-04-21,23.875611,120.913583,3.5194334e-09
C0M750,布袋,2025-04-21,23.380878,120.167789,4.2348006e-08
C1S860,利嘉,2025-04-21,22.809417,121.050528,7.2375965e-06
E2S980,林試太麻里1,2025-04-21,22.598922,120.980044,0.9849295
C0X170,關廟,2025-04-21,22.963017,120.327797,0.0052631185
C0V720,林園,2025-04-21,22.507747,120.394511,0.9835994
C1I510,線浸林道,2025-04-21,23.761508,120.832956,3.7839047e-09
C0D690,外湖,2025-04-21,24.917735,120.968711,4.1292108e-09
C0C750,新興坑尾,2025-04-21,25.0061,121.0971,2.0130309e-09
B2Q810,畜試南區分所,2025-04-21,21.945583,120.802167,0.9497901
C0S790,金崙,2025-04-21,22.538122,120.966875,0.696032
C0AH90,福山植物園,2025-04-21,24.760717,121.58135,8.8601276e-10
C0I540,奇萊稜線,2025-04-21,24.109231,121.326456,2.478689e-08
C0M850,表湖,2025-04-21,23.24186,120.64166,1.894967e-09
C0S770,大溪山,2025-04-21,22.478475,120.943325,0.0006974366
C0AG80,中和,2025-04-21,24.991622,121.491792,1.3786145e-08
C0T790,大禹嶺,2025-04-21,24.186117,121.316086,2.3342537e-08
C0T9B0,水源,2025-04-21,23.991861,121.537169,7.358288e-07
C0R840,牡丹池山,2025-04-21,22.168389,120.841225,1.6766611e-05
C1I131,桶頭,2025-04-21,23.641944,120.654117,1.5478614e-08
CAL110,布袋國中,2025-04-21,23.35893,120.18026,1.17660475e-05
467571,新竹,2025-04-21,24.827853,121.014219,1.8788588e-08
C0Z290,赤柯山,2025-04-21,23.36893,121.38293,2.145049e-08
C0X280,將軍,2025-04-21,23.214999,120.13577,1.1515993e-05
C0S690,太麻里,2025-04-21,22.60902,120.98533,7.679898e-08
C0U880,北關,2025-04-21,24.9072,121.8734,1.5105869e-08
C0G810,埔心,2025-04-21,23.947633,120.525456,9.222771e-08
C0U970,大福,2025-04-21,24.80064,121.81389,0.0003562355
C2H9N0,仁愛東眼,2025-04-21,24.026875,121.1205,4.4668025e-09
C1E670,南礦,2025-04-21,24.538278,121.002836,4.4061657e-09
C0M520,東後寮,2025-04-21,23.369908,120.248065,9.850768e-06
C1E461,松安,2025-04-21,24.397972,120.986022,4.682294e-09
C2N160,西拉雅風管處,2025-04-21,23.189481,120.335297,4.7716426e-06
C2M970,碧湖,2025-04-21,23.568632,120.624165,4.0554973e-09
C0A640,石碇,2025-04-21,24.993969,121.662917,2.1054771e-07
E2S960,林試太麻里2,2025-04-21,22.598,120.99775,0.9926166
C0F9Y0,桃山,2025-04-21,24.432739,121.303808,3.4083442e-08
C1I020,萬大,2025-04-21,23.979817,121.132261,2.7860931e-09
C0U940,羅東,2025-04-21,24.68184,121.74934,0.00020871905
C0M650,朴子,2025-04-21,23.43463,120.23902,3.7618644e-08
C1I500,大尖山,2025-04-21,23.858572,120.994889,6.054463e-09
C0G820,田尾,2025-04-21,23.901669,120.509389,9.128232e-08
E2K600,四湖植物園,2025-04-21,23.676986,120.163433,2.8344852e-08
C0S730,綠島,2025-04-21,22.6672,121.47533,0.99605536
12Q970,東港工作站,2025-04-21,22.479997,120.466058,0.9846103
C0E430,南庄,2025-04-21,24.601775,121.000214,1.0451536e-09
C1TA00,太魯閣,2025-04-21,24.15773,121.6236,0.9968247
466920,臺北,2025-04-21,25.037658,121.514853,1.4371487e-08
C0R600,舊泰武,2025-04-21,22.588194,120.664944,1.4428031e-09
C1I260,北坑,2025-04-21,23.9246,121.006903,8.293231e-09
466910,鞍部,2025-04-21,25.182586,121.529731,1.141961e-09
C1I230,九份二山,2025-04-21,23.961944,120.845,4.028376e-09
C2A660,瑞芳,2025-04-21,25.113169,121.801147,5.836831e-09
C0R270,琉球嶼,2025-04-21,22.332244,120.362236,0.9768018
C1T990,高寮,2025-04-21,23.394239,121.356808,0.9993193
C0G620,芬園,2025-04-21,24.015678,120.6213,2.7002054e-08
C1Z140,荖溪,2025-04-21,23.890575,121.45964,3.1947422e-08
C1I201,中心崙,2025-04-21,23.728722,120.712097,5.517806e-09
C1I400,凌霄,2025-04-21,24.018778,121.004456,4.39912e-09
C1M640,十字,2025-04-21,23.492153,120.753683,5.0315094e-09
G2P820,農試鳳山分所,2025-04-21,22.646611,120.356083,0.14944202
C0Z270,蕃薯寮,2025-04-21,23.73835,121.540108,0.23985803
C0F9Q0,外埔,2025-04-21,24.347817,120.705686,9.021021e-09
C0K580,高鐵雲林,2025-04-21,23.737456,120.417944,2.3284647e-07
C2I090,鳳凰,2025-04-21,23.728081,120.787347,3.2757457e-09
C0U990,員山,2025-04-21,24.74435,121.72247,0.000220377
C0V770,大社,2025-04-21,22.730306,120.346639,0.1989415
C0X120,麻豆,2025-04-21,23.183289,120.248611,9.682126e-06
C0C670,龍潭,2025-04-21,24.870056,121.221389,9.790727e-10
C0D680,香山濕地,2025-04-21,24.783581,120.914988,2.5848825e-08
C0S980,勝林山,2025-04-21,22.430439,120.8938,7.274008e-09
C0V730,大寮,2025-04-21,22.605614,120.395717,0.98320687
C0R570,麟洛,2025-04-21,22.65078,120.52719,0.093215376
C2M930,石卓,2025-04-21,23.478744,120.702264,4.95944e-09
C0G9B0,和美,2025-04-21,24.105169,120.492131,1.3118506e-07
CAG100,王功漁港,2025-04-21,23.96824,120.32586,3.002534e-08
C0X290,北門,2025-04-21,23.267772,120.125481,1.17660475e-05
C2F930,大甲,2025-04-21,24.347667,120.640403,1.6760384e-07
C0D650,湖口,2025-04-21,24.904794,121.043628,1.7538219e-09
C0E420,竹南,2025-04-21,24.708978,120.888897,1.8783608e-08
C0U780,五結,2025-04-21,24.68637,121.79794,0.0003290777
C1I250,鯉潭,2025-04-21,23.961922,120.991131,3.5956311e-09
C0R130,阿禮,2025-04-21,22.742908,120.743678,4.99463e-09
C0X100,臺南市北區,2025-04-21,23.010394,120.194228,0.04075686
C0S920,金峰嘉蘭,2025-04-21,22.594789,120.960825,0.98491895
C0V490,新興,2025-04-21,22.627422,120.298803,0.21724844
C0F9K0,大安,2025-04-21,24.345061,120.588025,6.6059107e-07
467290,古坑,2025-04-21,23.633639,120.551889,5.605557e-08
C2E970,八甲,2025-04-21,24.535811,120.795983,7.694279e-09
C0V440,鳳山,2025-04-21,22.646653,120.356122,0.14944202
C1T940,大觀,2025-04-21,23.714206,121.373133,0.00014634781
C0E740,造橋,2025-04-21,24.637056,120.864778,2.0872218e-08
C0R100,尾寮山,2025-04-21,22.833111,120.683889,4.994173e-09
A2K630,臺大雲林校區,2025-04-21,23.730628,120.423903,2.1791013e-07
467990,馬祖,2025-04-21,26.169467,119.923158,8.5978854e-07
C0D580,寶山,2025-04-21,24.735006,121.025192,1.8574361e-09
E2P990,林試扇平站,2025-04-21,22.9677,120.6857,1.8756927e-09
C0AI30,三重,2025-04-21,25.057328,121.500629,1.5105869e-08
C0AH00,汐止,2025-04-21,25.066881,121.658778,1.4371487e-08
C1Z040,立山,2025-04-21,23.443356,121.327375,0.0007477176
466881,新北,2025-04-21,24.959207,121.525196,1.15529035e-08
C0W130,花嶼,2025-04-21,23.40007,119.32276,0.0014369177
C0A950,鼻頭角,2025-04-21,25.129036,121.923372,0.00031889
C0K470,林內,2025-04-21,23.748675,120.609642,5.7633116e-08
C2F990,摩天嶺,2025-04-21,24.322458,120.936819,2.8134342e-09
82C160,茶改場,2025-04-21,24.908472,121.185333,1.0832635e-09
C0Z320,清水林道,2025-04-21,23.27125,121.188272,2.4386352e-07
C0R760,南仁湖,2025-04-21,22.084681,120.863353,0.99692005
C0M670,大林,2025-04-21,23.600616,120.45841,2.7287431e-08
C0M800,茶山,2025-04-21,23.299075,120.664767,4.338609e-08
C0A9C0,天母,2025-04-21,25.117494,121.537169,1.3786145e-08
72K220,南改斗南分場,2025-04-21,23.634556,120.477333,1.5330053e-07
72AI40,桃改樹林分場,2025-04-21,24.944503,121.386972,1.1657091e-08
C0S910,蘭嶼燈塔,2025-04-21,22.081197,121.503117,0.63684887
C0B050,八斗子,2025-04-21,25.144754,121.79167,1.6920804e-08
C0U900,內城,2025-04-21,24.71813,121.68766,9.792108e-05
C0X320,柳營,2025-04-21,23.253328,120.375253,2.8795117e-08
C0M790,新港,2025-04-21,23.553269,120.345728,3.5910958e-08
C0F9T0,西屯,2025-04-21,24.179494,120.641275,1.6760384e-07
C0SA30,都歷,2025-04-21,23.020333,121.323642,0.99697536
C0C620,蘆竹,2025-04-21,25.084275,121.265767,1.29176785e-08
C0R730,大坪頂,2025-04-21,22.024633,120.69355,0.99721557
C0AJ40,石門,2025-04-21,25.273672,121.601198,4.15e-09
C0E750,苗栗,2025-04-21,24.564569,120.824575,1.6120435e-08
C0T870,鯉魚潭,2025-04-21,23.935639,121.508944,0.99884504
C1V170,排雲,2025-04-21,23.463619,120.954147,3.699151e-08
C2H950,中寮,2025-04-21,23.884447,120.766406,4.6360327e-08
C0R350,貓鼻頭,2025-04-21,21.921774,120.7358,0.9770763
C0V660,岡山,2025-04-21,22.797078,120.294958,0.21854518
C1H941,雙冬,2025-04-21,23.967378,120.802189,7.247322e-09
C0AJ70,田寮,2025-04-21,25.2698,121.4886,1.4593713e-08
C0AI00,五股,2025-04-21,25.07445,121.42728,1.1688723e-09
C0Z280,德武,2025-04-21,23.47426,121.41071,0.99690217
C0R700,枋山,2025-04-21,22.246844,120.661086,0.9835994
C0C460,復興,2025-04-21,24.820208,121.352281,9.216871e-10
E2H360,蓮華池,2025-04-21,23.918333,120.885278,4.322855e-09
C0M640,中埔,2025-04-21,23.42538,120.5229,2.5442446e-08
C0W140,金沙,2025-04-21,24.488292,118.408778,3.141022e-08
C2A540,四堵,2025-04-21,24.8926,121.745736,1.0568506e-09
C0ACA0,新莊,2025-04-21,25.051478,121.446756,1.4686727e-08
C0R220,潮州,2025-04-21,22.534361,120.54,0.9834792
U2HA40,臺大內茅埔,2025-04-21,23.689722,120.851117,2.0334769e-08
467490,臺中,2025-04-21,24.145736,120.684075,1.7479043e-07
C0U960,翠峰湖,2025-04-21,24.510856,121.608044,1.0286425e-08
E2HA20,林試畢祿溪站,2025-04-21,24.226944,121.308522,1.3371882e-08
C0V890,前鎮,2025-04-21,22.5718,120.3117,0.22767818
C1F941,雪嶺,2025-04-21,24.280586,121.026642,1.9579419e-08
C2H9E0,國姓南港,2025-04-21,23.911108,120.846556,2.7813252e-09
C0AC80,文山,2025-04-21,25.00235,121.575728,8.364655e-09
C0F9R0,龍井,2025-04-21,24.184536,120.528972,8.843056e-07
C0M760,民雄,2025-04-21,23.551754,120.428457,2.8330582e-08
C0UA40,西德山,2025-04-21,24.560647,121.752608,4.638684e-09
C1T920,中興,2025-04-21,23.769503,121.498653,0.9995283
C0D550,雪霸,2025-04-21,24.526972,121.11605,8.517928e-09
C2F860,梨山,2025-04-21,24.247522,121.243669,1.3744032e-08
C0R320,車城,2025-04-21,22.0744,120.716247,0.9293436
C1S870,南美山,2025-04-21,23.15025,121.382333,0.6712774
C0B020,基隆嶼,2025-04-21,25.19141,121.78391,1.3842901e-08
C1U501,牛鬥,2025-04-21,24.637836,121.573656,6.371354e-08
C0M730,嘉義市東區,2025-04-21,23.457673,120.460531,2.8236553e-08
C0S700,知本,2025-04-21,22.684866,121.005642,1.0508647e-05
C1N001,沙崙,2025-04-21,22.935472,120.309406,0.009592074
C0V760,橋頭,2025-04-21,22.757806,120.30575,0.21724844
C0G960,福寶,2025-04-21,24.0443,120.3814,1.4317718e-07
C0X210,白河,2025-04-21,23.347466,120.414427,2.573018e-08
C0S810,東河,2025-04-21,22.972672,121.303986,0.997837
C2R170,屏東,2025-04-21,22.66027,120.49403,0.0948345
C0R670,楓港,2025-04-21,22.190131,120.692156,0.9836347
C0FA50,霧峰,2025-04-21,24.0419,120.6995,2.2453035e-07
C0UB10,蘇澳,2025-04-21,24.5969,121.8571,0.9990263
C0G950,防潮門,2025-04-21,24.1835,120.4871,9.198559e-07
C0M740,六腳,2025-04-21,23.492871,120.290625,3.756781e-08
C1R250,力里,2025-04-21,22.428117,120.629228,0.96371233
C0K330,虎尾,2025-04-21,23.719183,120.442036,2.0196376e-07
C2FA00,烏石坑,2025-04-21,24.273503,120.947617,2.8225877e-09
C0V620,永安,2025-04-21,22.82315,120.236856,0.22767818
C1I330,楓樹林,2025-04-21,23.986803,121.076117,4.4191775e-09
C0W200,湖西,2025-04-21,23.596314,119.67275,0.017716829
72Q010,高雄農改場,2025-04-21,22.709333,120.525889,0.064743415
C0SA40,瑞和,2025-04-21,22.974361,121.156697,0.9685145
C0C680,龜山,2025-04-21,25.02846,121.38656,1.138327e-07
C2V260,月眉,2025-04-21,22.971003,120.539853,0.00036071608
C0V450,鳳森,2025-04-21,22.545064,120.392592,0.9771122
C0U720,南山,2025-04-21,24.43742,121.38167,4.69485e-09
A2N290,臺南蘭花園區,2025-04-21,23.340258,120.379661,3.194791e-08
C0R560,新園,2025-04-21,22.5434,120.461558,0.9835994
C0U890,三星,2025-04-21,24.66812,121.65302,1.4460955e-05
C1V300,御油山,2025-04-21,23.001983,120.715364,6.5803363e-09
C0U600,礁溪,2025-04-21,24.817539,121.765608,0.00020587722
C1T980,龍澗,2025-04-21,24.023289,121.411328,1.899908e-08
C0D670,海天一線,2025-04-21,24.831986,120.914438,2.6373282e-08
C0SA00,歷坵,2025-04-21,22.520969,120.89185,5.553228e-05
C0M710,東石,2025-04-21,23.458927,120.15385,4.207026e-08
C0M780,鹿草,2025-04-21,23.41134,120.30835,3.3823493e-08
C0U520,雙連埤,2025-04-21,24.753033,121.641303,1.6956117e-08
C0B010,七堵,2025-04-21,25.094819,121.71713,1.1932234e-08
C0R480,長治,2025-04-21,22.693128,120.542622,0.0353055
C1V830,國三S383K,2025-04-21,22.781967,120.426475,0.00046538515
12Q980,恆春工作站,2025-04-21,22.079678,120.714425,0.93009996
C1O940,東山服務區,2025-04-21,23.286016,120.398472,2.5660096e-08
C1U840,東澳嶺,2025-04-21,24.5378,121.8485,1.6602825e-09
C1D630,飛鳳山,2025-04-21,24.766464,121.119178,1.2356448e-09
C0S940,石寧山,2025-04-21,23.223772,121.406639,0.9937518
C0K410,北港,2025-04-21,23.573957,120.292802,3.7054004e-08
C2M620,瑞里,2025-04-21,23.545133,120.675197,3.8459125e-09
C0SB70,小港漁港,2025-04-21,23.158558,121.400431,0.9983993
C2O950,安南,2025-04-21,23.076694,120.144861,0.04462312
C0F0E0,南湖圈谷,2025-04-21,24.363714,121.444667,4.1745093e-08
467610,成功,2025-04-21,23.097486,121.373428,0.99824923
C0G890,伸港,2025-04-21,24.148933,120.484403,8.7301515e-07
C2E540,龍溪,2025-04-21,24.606489,120.783933,6.9253645e-07
C1V200,梅山,2025-04-21,23.268447,120.823556,1.833228e-09
C0T9H0,加路蘭山,2025-04-21,23.682947,121.5274,9.6980656e-08
C2O930,玉井,2025-04-21,23.126042,120.46055,2.1123086e-08
C1F911,新伯公,2025-04-21,24.221361,120.841069,2.543124e-08
C0R490,九如,2025-04-21,22.7405,120.490503,0.06761071
C0X200,左鎮,2025-04-21,23.056758,120.408522,0.08140201
C0SB50,叭嗡嗡,2025-04-21,23.047062,121.343223,0.9984393
C1F891,稍來,2025-04-21,24.265689,121.001142,1.3464066e-08
72N240,七股研究中心,2025-04-21,23.081672,120.062894,1.4371289e-05
C0C700,中壢,2025-04-21,24.977661,121.256375,1.328625e-09
C0M690,水上,2025-04-21,23.419734,120.388909,3.1696388e-08
C0V690,鼓山,2025-04-21,22.623325,120.275575,0.22511418
C0O860,大內,2025-04-21,23.11885,120.36083,0.0103843
C0Z200,萬榮,2025-04-21,23.709219,121.420106,0.9988592
C0T9D0,和中,2025-04-21,24.26676,121.74103,0.9989954
C1O921,楠西,2025-04-21,23.183511,120.484083,1.5905512e-08
C0AJ30,淡水觀海,2025-04-21,25.184591,121.408616,1.563564e-08
C0V810,左營,2025-04-21,22.67491,120.28491,0.2032377
C0UA70,桃源谷,2025-04-21,24.962606,121.888875,1.289149e-08
C0X130,官田,2025-04-21,23.193217,120.315422,5.460146e-06
C1H000,翠峰,2025-04-21,24.109397,121.205211,1.717295e-08
C0UA90,石城,2025-04-21,24.980444,121.951214,0.00018518089
C1E681,南勢山,2025-04-21,24.421669,120.923831,1.5905411e-09
C0A9F0,內湖,2025-04-21,25.079422,121.57545,1.4371487e-08
C0K291,宜梧,2025-04-21,23.536281,120.169329,4.2348006e-08
C1K540,口湖,2025-04-21,23.585344,120.180517,4.2334275e-08
C0R780,滿州,2025-04-21,22.024403,120.839892,0.9815137
C0V870,文安,2025-04-21,22.8025,120.2164,0.23172815
C0U650,玉蘭,2025-04-21,24.675286,121.587061,2.8414028e-08
C0R640,東港,2025-04-21,22.46247,120.44074,0.984592
C0AJ80,板橋,2025-04-21,25.0107,121.4489,1.404342e-08
C0S660,下馬,2025-04-21,23.150427,121.070312,5.6672434e-08
C1H9B1,阿眉,2025-04-21,24.1263,120.994672,6.1639813e-09
C0UA20,多加屯,2025-04-21,24.368614,121.373189,2.122061e-08
C0E730,頭份,2025-04-21,24.688247,120.912206,2.0185453e-08
72V140,高改旗南分場,2025-04-21,22.857861,120.516667,0.038349777
C0K480,莿桐,2025-04-21,23.761192,120.502372,1.525288e-07
C0U980,坪林石牌,2025-04-21,24.86478,121.77396,1.0544389e-08
C0T900,西林,2025-04-21,23.8119,121.441458,0.9972362
C1I150,青雲,2025-04-21,23.793361,120.949378,2.1267921e-07
467350,澎湖,2025-04-21,23.565503,119.563094,0.007957593
C0G800,埔鹽,2025-04-21,24.000394,120.431683,1.3124425e-07
C0H960,草屯,2025-04-21,23.973672,120.68085,1.630625e-07
C1V780,多納林道,2025-04-21,22.888028,120.737917,1.6881595e-09
C0E920,通霄漁港,2025-04-21,24.498589,120.673876,9.048136e-07
C0Z330,安通山,2025-04-21,23.290728,121.348528,0.00024261815
C0AH10,永和,2025-04-21,25.01125,121.508111,1.4631786e-08
C0AK10,太平里,2025-04-21,25.134937,121.364899,1.4593713e-08
C2G640,鹿港,2025-04-21,24.0753,120.430481,1.4228289e-07
C1E890,國三N149K,2025-04-21,24.463414,120.680019,1.5869148e-08
C1R110,口社,2025-04-21,22.770111,120.645222,0.00036071692
C1M870,國三N285K,2025-04-21,23.550319,120.505833,3.5222154e-08
C1E480,鳳美,2025-04-21,24.554803,121.034747,9.379317e-10
C0M530,奮起湖,2025-04-21,23.493903,120.699253,4.0838994e-09
C0C590,觀音,2025-04-21,25.027072,121.153317,1.8228377e-09
C0T9M0,靜浦,2025-04-21,23.455167,121.495028,0.9995031
C2H9M0,發祥,2025-04-21,24.154094,121.164517,4.4198516e-09
C0AI40,石牌,2025-04-21,25.115597,121.513139,1.4371487e-08
C1F871,上谷關,2025-04-21,24.203483,121.018644,2.821226e-09
C2H9G0,百勝,2025-04-21,24.051142,120.909361,1.09084635e-08
C0G880,二水,2025-04-21,23.810742,120.6173,5.830714e-08
C0R940,加祿堂,2025-04-21,22.3363,120.6217,0.9836347
C0W220,北竿,2025-04-21,26.220358,119.974881,4.321973e-06
C0O960,崎頂,2025-04-21,22.959547,120.369317,0.00011029321
C0S750,向陽,2025-04-21,23.248397,120.986133,1.2865844e-08
C0T9F0,水璉,2025-04-21,23.797131,121.542514,0.8353378
C1M600,頭凍,2025-04-21,23.406364,120.603339,4.380758e-09
467660,臺東,2025-04-21,22.752211,121.154586,0.9984393
C1D380,新埔,2025-04-21,24.84745,121.03834,3.0745326e-09
C2G980,田頭村,2025-04-21,23.8263,120.444175,2.3293642e-07
C0V750,路竹,2025-04-21,22.854997,120.259439,0.16749856
C0N050,蚵寮,2025-04-21,23.301,120.1104,1.17660475e-05
72M700,南改鹿草分場,2025-04-21,23.416869,120.283061,3.7530995e-08
C1SA50,利嘉林道,2025-04-21,22.82325,121.009389,1.8970392e-09
C0A940,金山,2025-04-21,25.223628,121.643967,1.1602501e-08
C1V340,大津,2025-04-21,22.888322,120.645986,6.396502e-05
C0W180,七美,2025-04-21,23.219333,119.444892,0.060484298
C1F9C1,白冷,2025-04-21,24.182844,120.929889,3.789307e-09
K2E710,苗改生物防治研究中心,2025-04-21,24.422861,120.871833,8.3646823e-10
C0N040,蘆竹溝,2025-04-21,23.2344,120.0961,1.2844784e-05
C2W230,畜試所澎湖,2025-04-21,23.628342,119.513206,0.00046672105
C0R880,後壁湖,2025-04-21,21.9457,120.7457,0.90256387
C1I280,埔中,2025-04-21,23.820778,120.642594,3.5357488e-07
467790,墾丁雷達站,2025-04-21,21.948235,120.808028,0.98663896
C0W190,望安,2025-04-21,23.380564,119.494075,0.0046337345
C0Z170,卓溪,2025-04-21,23.3443,121.3029,0.9766434
C0F850,東勢,2025-04-21,24.246428,120.833047,4.4409372e-08
466900,淡水,2025-04-21,25.164889,121.448906,1.4371487e-08
C0I370,魚池,2025-04-21,23.895703,120.94135,4.925907e-09
C0C630,大溪,2025-04-21,24.882853,121.265547,1.0924178e-09
C0A520,山佳,2025-04-21,24.974944,121.402008,1.1703095e-08
C0I110,竹山,2025-04-21,23.761225,120.688156,1.8751463e-08
82H840,茶改南部分場,2025-04-21,23.762528,120.7405,7.163052e-09
C0G660,溪湖,2025-04-21,23.94835,120.479122,1.0855375e-07
C1T800,洛韶,2025-04-21,24.204558,121.453956,4.7113913e-09
C1T810,慈恩,2025-04-21,24.192044,121.388386,1.2048457e-08
C1E451,象鼻,2025-04-21,24.368617,120.940228,1.588419e-09
C0AC60,三峽,2025-04-21,24.939025,121.369728,2.2482396e-09
C0I490,萬大林道,2025-04-21,23.928228,121.091411,5.1399933e-09
C1I290,豐丘,2025-04-21,23.668178,120.887417,3.772382e-09
C1I320,奧萬大,2025-04-21,23.952956,121.178556,4.4010253e-09
C2M910,嘉義大學,2025-04-21,23.471325,120.485903,8.837503e-08
C0U770,南澳,2025-04-21,24.44935,121.81022,0.99902433
C0A980,社子,2025-04-21,25.109508,121.469681,1.6920804e-08
C0V800,六龜,2025-04-21,22.997889,120.633583,5.557132e-06
C1G9D0,國一S218K,2025-04-21,23.890641,120.493253,9.181437e-08
C0E570,白沙屯,2025-04-21,24.549447,120.696803,9.198559e-07
C2F9A0,中竹林,2025-04-21,24.103556,120.751061,6.6662644e-09
C0FA40,臺中電廠,2025-04-21,24.2146,120.4907,8.7301515e-07
C2G9A0,畜試所彰化,2025-04-21,23.86045,120.557964,1.5119524e-07
C0H9C0,合歡山,2025-04-21,24.143442,121.272547,3.6031093e-08
C0X060,下營,2025-04-21,23.22695,120.256261,1.1515982e-05
G2M350,農試溪口農場,2025-04-21,23.58565,120.408111,3.3823493e-08
C0U860,頭城,2025-04-21,24.85323,121.8308,0.00031889
C0R580,南州,2025-04-21,22.48591,120.50274,0.984592
C0D430,峨眉,2025-04-21,24.6905,121.017189,2.9889788e-09
C0G780,秀水,2025-04-21,24.03405,120.503869,1.1582528e-07
72N100,臺南農改場,2025-04-21,23.0605,120.342194,0.008247584
C0S900,蘭嶼高中,2025-04-21,22.04909,121.51214,0.82772994
C1F9W0,德基,2025-04-21,24.254783,121.190261,5.392207e-09
C1Z120,壽豐,2025-04-21,23.870853,121.508081,0.99963135
C0W160,烏坵,2025-04-21,24.9944,119.44956,2.7530263e-08
C1I240,外大坪,2025-04-21,23.958697,120.917931,3.4038077e-09
C1I550,國六W023K,2025-04-21,23.979067,120.867742,1.3020135e-08
C0R870,興海,2025-04-21,21.9752,120.8439,0.9500945
C0R140,瑪家,2025-04-21,22.682903,120.686639,1.8447398e-09
C0A530,坪林,2025-04-21,24.938183,121.70975,2.3523057e-08
C0X260,後壁,2025-04-21,23.366358,120.362326,4.902593e-06
C0Z230,和平,2025-04-21,24.30717,121.77007,0.9989975
C0G770,福興,2025-04-21,24.041289,120.437669,1.3451867e-07
C0H9A0,神木村,2025-04-21,23.532742,120.843667,6.3214194e-09
C0I460,南投,2025-04-21,23.911469,120.687331,1.6760384e-07
C0I480,梅峰,2025-04-21,24.085272,121.173572,1.2892866e-08
C1V570,吉東,2025-04-21,22.85422,120.5454,0.013632237
C2D740,屯原,2025-04-21,24.067969,121.209389,6.6136048e-09
C2A560,福山,2025-04-21,24.776203,121.502811,9.6171e-10
C0AH30,五分山,2025-04-21,25.07125,121.780794,1.6704342e-09
C0FA10,松柏,2025-04-21,24.429115,120.617482,9.048136e-07
72S200,東改班鳩分場,2025-04-21,22.829528,121.077694,0.5769652
72HA00,中改埔里分場,2025-04-21,23.903208,120.963364,5.62744e-09
C2H9W0,大坪頂農水,2025-04-21,24.043122,120.932781,3.548593e-09
C0C650,平鎮,2025-04-21,24.897503,121.214636,1.0798721e-09
C0S930,延平,2025-04-21,22.902581,121.084058,0.6883721
C0UA60,樟樹山,2025-04-21,24.41393,121.78325,1.10865255e-08
C1S670,摩天,2025-04-21,23.199503,121.027,3.9489834e-09
C0V630,茄萣,2025-04-21,22.906642,120.182608,0.04044803
466940,基隆,2025-04-21,25.133314,121.740475,1.5551084e-08
C0X050,東河,2025-04-21,23.296598,120.385608,2.8795117e-08
C0R770,保力,2025-04-21,22.071122,120.764111,0.99147576
G2L020,農試嘉義分所,2025-04-21,23.485028,120.473806,8.052242e-08
C0X240,關子嶺,2025-04-21,23.331169,120.508025,9.600925e-08
C0I380,集集,2025-04-21,23.828206,120.801467,3.203089e-08
466990,花蓮,2025-04-21,23.975128,121.613275,0.999683
C1V220,小關山,2025-04-21,23.154217,120.813603,7.666767e-09
C1F9G1,慶福山,2025-04-21,24.180853,120.848378,1.3470405e-09
C0Z250,瑞穗林道,2025-04-21,23.49284,121.30688,4.5330184e-09
C0D590,新豐,2025-04-21,24.87068,120.97721,1.8574361e-09
C0A870,五指山,2025-04-21,25.132153,121.608692,9.531836e-10
C0UA50,西帽山,2025-04-21,24.555361,121.802628,1.6574538e-09
C0X160,仁德,2025-04-21,22.968258,120.257689,0.0240256
C1H971,六分寮,2025-04-21,23.92507,120.6378,4.9852176e-09
C0W120,西嶼,2025-04-21,23.5626,119.468436,0.007476935
C0G650,員林,2025-04-21,23.946503,120.585597,9.062138e-08
C0AD50,鶯歌,2025-04-21,24.951533,121.346294,1.9663464e-09
C2H9Q0,北東眼山,2025-04-21,24.120939,121.189303,6.392251e-09
C2H9T0,名間竹圍,2025-04-21,23.859914,120.637572,1.5621183e-08
C0S990,山豬窟,2025-04-21,22.318619,120.857372,0.00045635615
C0X190,安平,2025-04-21,22.993161,120.152181,0.03859876
C0K400,斗六,2025-04-21,23.720583,120.541127,1.17070286e-07
12J990,口湖工作站,2025-04-21,23.589978,120.180394,4.204114e-08
C0O830,北寮,2025-04-21,23.079561,120.495008,0.00033750033
C1D410,白蘭,2025-04-21,24.579364,121.079947,4.698684e-09
C0S970,加津林,2025-04-21,22.416211,120.926942,0.99210125
C0D700,關西,2025-04-21,24.7977,121.1732,1.2461439e-09
C0M810,里佳,2025-04-21,23.389125,120.716647,4.083518e-09
C0U750,龜山島,2025-04-21,24.841667,121.953133,0.002318027
C0R810,內獅,2025-04-21,22.305064,120.642986,0.9835994
C1M390,龍美,2025-04-21,23.406728,120.654417,3.8269237e-09
C2FB60,頭櫃山,2025-04-21,24.129842,120.858925,2.7532665e-09
C1H840,國三N238K,2025-04-21,23.841008,120.707711,3.0723125e-08
CAQ030,崎峰國小,2025-04-21,22.42565,120.49521,0.984592
C2E520,大湖,2025-04-21,24.414939,120.870872,1.0443794e-07
467530,阿里山,2025-04-21,23.508208,120.813242,1.4098169e-08
C1E691,南湖,2025-04-21,24.40135,120.837533,1.3439454e-09
C0FA30,梧棲,2025-04-21,24.256003,120.523381,8.516604e-07
C1V231,高中,2025-04-21,23.134911,120.716711,1.8006425e-09
C0F9V0,新社,2025-04-21,24.200172,120.815806,6.1242424e-09
C0H890,埔里,2025-04-21,23.972169,120.952425,1.8390109e-08
C0R690,墾丁,2025-04-21,21.966756,120.810269,0.9982142
C0F0D0,審馬陣,2025-04-21,24.381675,121.4203,2.9912275e-08
C2W030,金門農試所,2025-04-21,24.448431,118.451786,2.7117872e-08
C0R820,白鷺,2025-04-21,22.454275,120.666219,4.5958288e-07
C1V190,南天池,2025-04-21,23.27403,120.91176,1.4916901e-08
K2E360,苗栗農改場,2025-04-21,24.495722,120.829111,1.0780615e-08
CAJ050,海口故事園區,2025-04-21,23.57543,120.14121,4.207026e-08
C2H9D0,三隻寮,2025-04-21,24.093078,120.861578,3.375651e-09
C0O990,媽廟,2025-04-21,22.99175,120.293525,0.017817963
C0D480,打鐵坑,2025-04-21,24.849664,121.150789,9.779977e-10
C0Z220,和平林道,2025-04-21,24.343922,121.656317,5.0684656e-07
C0TA10,花蓮漁港,2025-04-21,23.995322,121.638331,0.99969983
72C440,桃園農改場,2025-04-21,24.950944,121.030583,2.4184446e-09
C1E711,馬拉邦山,2025-04-21,24.367306,120.901656,2.8898983e-09
C0SB20,富岡,2025-04-21,22.792467,121.192669,0.998305
C0D560,竹東,2025-04-21,24.767147,121.057881,1.9196644e-09
C0F9U0,南屯,2025-04-21,24.137006,120.637969,5.190932e-08
C0M720,番路,2025-04-21,23.464657,120.554156,6.689372e-08
C0F0A0,雪山圈谷,2025-04-21,24.388594,121.236339,4.2420844e-08
C1A9N0,四十份,2025-04-21,24.934158,121.593283,9.419279e-10
C0U760,東澳,2025-04-21,24.52196,121.83318,0.9988529
C0X230,鹽水,2025-04-21,23.272621,120.247641,9.850768e-06
C2H9H0,苗改南投蜂場,2025-04-21,23.852589,120.693481,1.9475541e-08
C0R950,萬隆國小,2025-04-21,22.507667,120.587817,0.9816071
467540,大武,2025-04-21,22.35572,120.90374,0.99271894
C0V370,古亭坑,2025-04-21,22.893178,120.401947,0.051437024
C1I340,新興橋,2025-04-21,23.563333,120.868728,2.31335e-09
C0SA80,土坂,2025-04-21,22.453108,120.887572,0.96344966
C0R160,鹽埔,2025-04-21,22.739558,120.530778,0.0390192
C0AC40,大屯山,2025-04-21,25.175675,121.522408,1.6628495e-09
466850,五分山雷達站,2025-04-21,25.071182,121.781205,1.6661799e-09
C2H9L0,馬烈霸,2025-04-21,24.1512,121.201772,5.6194494e-09
C1AI50,國三N016K,2025-04-21,25.034164,121.619664,9.5411e-09
C1V600,藤枝,2025-04-21,23.071961,120.757042,3.836037e-09
C1E601,南勢,2025-04-21,24.572486,120.734842,1.0731296e-08
C0Z180,新城,2025-04-21,24.03946,121.60454,0.9996638
C0O980,新市,2025-04-21,23.061614,120.298197,0.0240256
C0K420,西螺,2025-04-21,23.800407,120.467394,1.9696343e-07
C0Z050,佳心,2025-04-21,23.34567,121.21316,3.6253756e-08
C0AD30,蘆洲,2025-04-21,25.086594,121.472331,1.46971235e-08
C0V610,梓官,2025-04-21,22.760558,120.267211,0.22511418
K2F750,種苗改良場,2025-04-21,24.225972,120.800917,1.1192803e-08
C0UA80,大溪漁港,2025-04-21,24.941801,121.902955,0.000220377
C1AI60,國一39K邊坡,2025-04-21,25.064361,121.383836,3.7778744e-07
C0W150,金寧,2025-04-21,24.457703,118.328989,2.65183e-08
C0R960,內埔,2025-04-21,22.608483,120.570714,0.983341
V2C250,八德合作社,2025-04-21,24.93775,121.266389,1.2647832e-09
C2H9S0,龍南,2025-04-21,23.953536,120.833183,2.8140943e-09
C0AH40,平等,2025-04-21,25.129142,121.577086,9.523187e-10
C0R540,佳冬,2025-04-21,22.419456,120.552375,0.98331356
466950,彭佳嶼,2025-04-21,25.627975,122.079744,0.0054044514
C0A890,雙溪,2025-04-21,25.036003,121.864242,9.4167145e-09
C0C480,桃園,2025-04-21,24.992425,121.323172,1.5179077e-09
C0AH50,林口,2025-04-21,25.072181,121.38084,6.023091e-08
A2K360,水試臺西試驗場,2025-04-21,23.717231,120.190522,3.3138427e-08
C2M960,外寮,2025-04-21,23.562643,120.665688,3.8751966e-09
C0F9S0,烏日,2025-04-21,24.107058,120.624103,8.36694e-08
C0C490,八德,2025-04-21,24.928708,121.283289,1.233055e-09
C0R190,赤山,2025-04-21,22.592333,120.614306,0.9817248
C0T820,天祥,2025-04-21,24.179597,121.495639,3.671989e-06
C1F9E1,龍安,2025-04-21,24.1605,120.831961,5.04075e-09
C0V820,小林,2025-04-21,23.148408,120.63325,3.666271e-08
C2G870,芳苑,2025-04-21,23.922303,120.320025,2.9810323e-08
C0E850,大河,2025-04-21,24.618069,120.948578,1.330713e-08
C1U670,寒溪,2025-04-21,24.634,121.71691,1.52159355e-05
C0N020,城西,2025-04-21,23.0568,120.0956,1.1515993e-05
C1Z110,三棧,2025-04-21,24.11557,121.60501,1.3822854e-07
C0R280,檳榔,2025-04-21,22.076078,120.836777,0.9981784
C2H9J0,中台,2025-04-21,23.9996,120.938739,1.6454349e-08
C0F9L0,后里,2025-04-21,24.310436,120.729725,1.1021906e-07
467441,高雄,2025-04-21,22.730432,120.312516,0.2032377
C0D540,橫山,2025-04-21,24.71116,121.11693,1.0552975e-09
C1D420,太閣南,2025-04-21,24.632808,121.160575,4.6605093e-09
C1E770,公館,2025-04-21,24.526914,120.830806,1.4284909e-08
CAN130,水試所海水繁養殖中心,2025-04-21,23.120802,120.07968,1.3007563e-05
C1I430,翠華,2025-04-21,24.191961,121.224339,1.6494727e-08
C1M400,菜瓜坪,2025-04-21,23.251928,120.576103,4.595754e-08
C0G730,二林,2025-04-21,23.903325,120.376081,1.1582528e-07
72M360,南改義竹分場,2025-04-21,23.360694,120.279361,9.635985e-06
V2K620,麥寮合作社,2025-04-21,23.753836,120.294783,2.8926626e-08
C0Z070,舞鶴,2025-04-21,23.46811,121.37407,0.9722484
C0B040,大武崙,2025-04-21,25.166676,121.706993,1.1602501e-08
C1Z030,紅葉,2025-04-21,23.493119,121.338806,0.99561304
C1I050,丹大,2025-04-21,23.753747,121.141147,1.5625236e-08
C0I080,信義,2025-04-21,23.689694,120.851036,2.0334769e-08
C2M920,朴子農改,2025-04-21,23.469889,120.259383,3.8363314e-08
C2A880,福隆,2025-04-21,25.017842,121.942083,0.000220377
C0Z160,鳳林,2025-04-21,23.746114,121.453411,0.99930954
C0V210,復興,2025-04-21,23.222403,120.806089,1.7306968e-09
C0H990,昆陽,2025-04-21,24.121322,121.273642,2.9072817e-08
C0R741,獅子,2025-04-21,22.202308,120.705236,0.976912
C0S710,鹿野,2025-04-21,22.917711,121.122994,0.0039995997
C0I530,小奇萊,2025-04-21,24.131764,121.295717,3.0472354e-08
C2K630,荷苞,2025-04-21,23.657717,120.595144,1.8751463e-08
C0Z080,富源,2025-04-21,23.587642,121.378225,0.356043
C0SB10,美和,2025-04-21,22.682078,121.060236,0.998438
C2K620,馬光農場,2025-04-21,23.721453,120.378864,2.8495504e-07
C1I140,卡奈托灣,2025-04-21,23.754364,121.087872,3.969539e-09
C0I520,玉山風口,2025-04-21,23.470489,120.955994,4.231046e-08
C1G691,下水埔,2025-04-21,23.816114,120.5676,1.0979208e-07
C0X110,臺南市南區,2025-04-21,22.961189,120.188378,0.03810606
C0V680,仁武,2025-04-21,22.701083,120.347722,0.1989415
C2G840,北斗,2025-04-21,23.877586,120.514222,8.75718e-08
C0R900,竹坑,2025-04-21,22.1385,120.7022,0.9836347
C0K250,崙背,2025-04-21,23.75555,120.318925,2.777981e-08
C0G860,社頭,2025-04-21,23.897647,120.5862,7.207582e-08
C0X150,安定,2025-04-21,23.102614,120.227839,0.04044803
C0R590,里港,2025-04-21,22.77919,120.49459,0.04143557
C0E610,馬都安,2025-04-21,24.451272,120.930192,1.3913676e-09
C0E550,明德,2025-04-21,24.583486,120.885411,1.467953e-08
C0R150,三地門,2025-04-21,22.709889,120.639944,0.00046538515
C0G910,花壇,2025-04-21,24.032076,120.549461,9.2227886e-08
C1D400,鳥嘴山,2025-04-21,24.71909,121.28387,1.4226036e-09
C0K500,元長,2025-04-21,23.64981,120.315024,2.826576e-08
C0F0B0,石岡,2025-04-21,24.276061,120.777644,4.6789037e-08
C2V250,甲仙,2025-04-21,23.080106,120.591758,2.8496502e-06
C0SA20,金崙山,2025-04-21,22.567419,120.959667,7.54658e-09
C0V350,溪埔,2025-04-21,22.738578,120.446797,0.093215376
C0M660,溪口,2025-04-21,23.604131,120.403569,3.3642372e-08
C1S880,壽卡,2025-04-21,22.238911,120.858903,1.763746e-05
72D680,桃改新埔分場,2025-04-21,24.834444,121.066111,3.181976e-09
