站號,站名,日期,lat,lon,BLBTSLS
C0K280,四湖,2025-09-16,23.630414,120.227125,0.58487743
C0R240,來義,2025-09-16,22.527306,120.625111,0.3530423
C0X060,下營,2025-09-16,23.22695,120.256261,0.66295904
C2D740,屯原,2025-09-16,24.067969,121.209389,1.7162067e-09
C0K250,崙背,2025-09-16,23.75555,120.318925,0.69331497
