站號,站名,日期,lat,lon,BLBTSLS
C0R710,龍磐,2025-03-21,21.931672,120.838942,0.99979156
C1F9D1,白毛台,2025-03-21,24.158325,120.886933,1.49344e-09
C0G940,竹塘,2025-03-21,23.848253,120.386764,4.11054e-09
467590,恆春,2025-03-21,22.003897,120.746339,0.99922943
C1O850,環湖,2025-03-21,23.148617,120.418633,1.0470113e-09
C0U710,太平山,2025-03-21,24.505486,121.525656,1.071332e-08
C0E820,獅潭,2025-03-21,24.539133,120.920042,1.3258461e-08
C0V880,興達,2025-03-21,22.8778,120.2127,3.0824772e-09
C0S890,關山,2025-03-21,23.0395,121.175017,2.0783986e-08
C0SB30,新蘭,2025-03-21,22.869214,121.223228,8.8031165e-08
C2R970,屏科大,2025-03-21,22.648275,120.619247,2.8390774e-09
K2F750,種苗繁殖,2025-03-21,24.225972,120.800917,6.191979e-09
C1Z130,銅門,2025-03-21,23.965694,121.492842,1.4008695e-08
C0AD40,土城,2025-03-21,24.973208,121.445169,2.1647395e-09
CAN140,六官養殖協會,2025-03-21,23.22881,120.29962,1.4098216e-09
C0X180,山上,2025-03-21,23.0757,120.363253,2.408676e-09
C0F9Z0,雪山東峰,2025-03-21,24.388792,121.268675,2.9610737e-08
C1M480,獨立山,2025-03-21,23.537022,120.607797,1.5068796e-09
C0X220,學甲,2025-03-21,23.230367,120.182187,1.3460568e-09
467650,日月潭,2025-03-21,23.881325,120.90805,1.8153536e-09
C0K600,箔子寮,2025-03-21,23.6197,120.14,2.652031e-09
C0G830,埤頭,2025-03-21,23.866003,120.452806,1.3387417e-09
C0S950,七塊厝,2025-03-21,22.954453,121.229922,1.3358498e-08
467110,金門,2025-03-21,24.407306,118.289281,3.3078056e-08
C0AH80,深坑,2025-03-21,25.002703,121.628328,2.2259876e-09
467990,馬祖,2025-03-21,26.169269,119.923419,1.69149e-08
C0A970,三貂角,2025-03-21,25.007606,122.002058,2.754669e-09
C2D730,寶山農場,2025-03-21,24.732444,120.976153,2.2956199e-08
C0K430,褒忠,2025-03-21,23.690938,120.303634,2.2384241e-09
467480,嘉義,2025-03-21,23.495925,120.432906,1.0882419e-09
C2E540,後龍,2025-03-21,24.606489,120.783933,1.1996414e-06
C0V400,阿公店,2025-03-21,22.804194,120.355528,1.4999145e-09
467550,玉山,2025-03-21,23.48718,120.95943,3.2165826e-08
C0R440,大漢山,2025-03-21,22.405264,120.753181,9.257187e-09
C0K280,四湖,2025-03-21,23.630414,120.227125,3.6153127e-09
C1F9B1,桐林,2025-03-21,24.066172,120.735194,7.2170847e-09
C2H9U0,鳳鵬,2025-03-21,23.763919,120.788061,1.0411406e-09
C0K390,土庫,2025-03-21,23.679029,120.395574,1.4283731e-09
C1I450,望鄉山,2025-03-21,23.594153,120.944286,1.4889782e-08
C0E910,海埔,2025-03-21,24.648767,120.772435,3.2777976e-08
B2E890,畜試北區分所,2025-03-21,24.527806,120.770972,1.9445995e-08
C0R750,四林格山,2025-03-21,22.076989,120.802439,9.436621e-08
C0F0C0,中坑,2025-03-21,24.248517,120.903319,3.2757332e-09
C1I121,大鞍,2025-03-21,23.678381,120.760017,3.9846726e-09
72U480,花改蘭陽分場,2025-03-21,24.686306,121.716583,1.2141189e-09
C0A770,科教館,2025-03-21,25.096356,121.516507,2.521042e-09
C0AJ60,六塊厝,2025-03-21,25.24,121.4481,1.3373489e-08
C0R620,墾雷,2025-03-21,21.900836,120.855269,0.99938434
467420,永康,2025-03-21,23.038386,120.2367,3.080332e-09
467300,東吉島,2025-03-21,23.25695,119.667467,0.99884593
C0I410,名間,2025-03-21,23.837053,120.701447,1.5479077e-09
A2C560,農工中心,2025-03-21,24.985917,121.239833,1.1684984e-08
C0V740,旗山,2025-03-21,22.888614,120.483597,1.7966217e-09
C0Z061,玉里,2025-03-21,23.3215,121.339656,5.1815544e-08
C0S840,南田,2025-03-21,22.279725,120.889208,1.12054316e-07
C1I470,杉林溪,2025-03-21,23.639517,120.786444,4.955743e-09
C1X040,東原,2025-03-21,23.291597,120.463822,1.0801048e-09
C0R660,枋寮,2025-03-21,22.367722,120.590647,1.0043227e-06
C1R120,上德文,2025-03-21,22.763272,120.704442,7.6996476e-10
C0K450,大埤,2025-03-21,23.646074,120.431537,1.8851973e-09
C0UA00,土場,2025-03-21,24.576533,121.495333,2.4176052e-09
467080,宜蘭,2025-03-21,24.763975,121.756528,8.3724716e-10
C0N030,四草,2025-03-21,23.0235,120.1116,1.3286352e-09
467410,臺南,2025-03-21,22.99328,120.20492,2.1336797e-09
C0V650,彌陀,2025-03-21,22.783806,120.246361,2.4677909e-09
C0D660,新竹市東區,2025-03-21,24.798681,120.986942,2.9395775e-08
82S580,茶改東部分場,2025-03-21,22.907694,121.130139,2.2066825e-08
C0SB40,興隆,2025-03-21,22.913661,121.257469,7.171353e-08
467050,新屋,2025-03-21,25.006725,121.047492,2.4956151e-08
C0C710,大溪永福,2025-03-21,24.892936,121.324975,4.6141353e-09
C0FA20,溫寮,2025-03-21,24.372177,120.583125,4.745557e-08
C0V640,湖內,2025-03-21,22.887139,120.2445,2.8863396e-09
C0R910,下寮,2025-03-21,22.3929,120.5548,1.0103306e-06
C0Z020,明里,2025-03-21,23.208717,121.262342,2.8791712e-08
C0M770,嘉義梅山,2025-03-21,23.585398,120.555587,9.32349e-10
G2F820,農業試驗所,2025-03-21,24.031261,120.688133,2.0619909e-07
C0C660,楊梅,2025-03-21,24.912375,121.143047,7.851244e-09
C1E511,新開,2025-03-21,24.347703,120.827019,4.319896e-09
G2F820,農試所(霧峰),2025-03-21,24.031261,120.688133,5.8347496e-09
C1I070,和社,2025-03-21,23.591131,120.888861,2.3289026e-09
C2F000,大肚,2025-03-21,24.15295,120.572117,2.0018849e-09
C1S850,豐南,2025-03-21,23.122139,121.262389,7.080707e-09
C2A920,富貴角,2025-03-21,25.263783,121.565258,1.3708635e-08
CAH030,茶改場竹圍站,2025-03-21,23.860083,120.637528,1.2703778e-09
C0T960,光復,2025-03-21,23.660694,121.424964,4.9043636e-09
C0F9M0,豐原,2025-03-21,24.254322,120.720692,5.1685523e-09
C0R720,旭海,2025-03-21,22.205403,120.887614,2.8131351e-08
C0V710,苓雅,2025-03-21,22.622742,120.330669,4.056758e-09
C0C740,觀音工業區,2025-03-21,25.064764,121.114856,3.4137376e-08
CAC040,拉拉山,2025-03-21,24.699317,121.427133,1.2188272e-08
C0V790,萬山,2025-03-21,22.905944,120.688056,5.3493243e-10
U2HA30,臺大和社,2025-03-21,23.590856,120.888864,2.3289026e-09
C0AJ90,澳底,2025-03-21,25.0552,121.9253,2.947897e-09
C0Z100,東華,2025-03-21,23.89525,121.549833,1.3875812e-08
C0G970,三豐,2025-03-21,23.882,120.2895,1.4356918e-07
V2K610,大庄合作社,2025-03-21,23.8068,120.367939,3.6998757e-09
C0V900,汕尾,2025-03-21,22.4782,120.4151,2.3125128e-08
C1R630,龍泉,2025-03-21,22.66701,120.59091,1.4453516e-08
C1AC50,關渡,2025-03-21,25.133486,121.469331,4.659887e-09
C0F9I0,神岡,2025-03-21,24.272481,120.658314,6.626724e-09
C0K460,斗南,2025-03-21,23.678734,120.478359,1.9064446e-09
467410,臺南,2025-03-21,22.993239,120.204772,2.334399e-07
C2O810,曾文,2025-03-21,23.219681,120.497328,1.0693451e-09
467280,後龍,2025-03-21,24.648563,120.831834,3.1037114e-08
C1F9J1,清水林,2025-03-21,24.071242,120.820419,2.8031126e-09
C2A650,火燒寮,2025-03-21,25.002719,121.742892,3.084877e-09
466930,竹子湖,2025-03-21,25.162078,121.544547,6.2599277e-09
C1I220,樟湖,2025-03-21,23.905333,120.846983,1.885147e-09
C0I390,仁愛,2025-03-21,24.022122,121.132206,1.8345466e-09
C0Z300,東里,2025-03-21,23.26853,121.30547,4.800571e-08
C1V590,新發,2025-03-21,23.057019,120.646064,5.472964e-10
C0K510,水林,2025-03-21,23.572924,120.24597,1.6502837e-09
72S590,東改賓朗果園,2025-03-21,22.813889,121.071278,6.5865895e-09
82A750,茶改北部分場,2025-03-21,24.955778,121.631222,5.825131e-09
C1A750,石碇服務區,2025-03-21,25.00872,121.646242,2.5124256e-09
C0X300,鹿寮,2025-03-21,23.386047,120.477331,1.17441e-09
G2AI50,關渡,2025-03-21,25.11575,121.492,1.2785313e-08
C0K590,雲林東勢,2025-03-21,23.674192,120.255721,1.6403919e-09
C0A570,桶後,2025-03-21,24.848222,121.597992,2.8863396e-09
C1S800,華源,2025-03-21,22.657883,121.02325,7.450104e-08
C0G720,溪州,2025-03-21,23.851589,120.499093,1.3396637e-09
C1V160,達卡努瓦,2025-03-21,23.279811,120.705319,1.003536e-09
C2M410,馬頭山,2025-03-21,23.324361,120.582017,7.3452755e-10
C0V850,蚵仔寮,2025-03-21,22.7256,120.2527,6.874805e-09
C0S740,池上,2025-03-21,23.119628,121.209469,1.6444403e-08
C1V390,尖山,2025-03-21,22.813153,120.367789,1.2270092e-09
C0AH70,松山,2025-03-21,25.04871,121.55042,2.5533635e-09
C0N010,鯤鯓國小,2025-03-21,23.1879,120.0889,1.4629602e-09
C0R550,新埤,2025-03-21,22.467947,120.582894,1.3002168e-08
C0SA60,知本（水試所）,2025-03-21,22.702394,121.082761,7.473223e-07
C0T9I0,豐濱,2025-03-21,23.583897,121.514806,4.331364e-09
C0UB00,淡江大學蘭陽校園,2025-03-21,24.823239,121.730383,2.791508e-09
C0W240,九宮,2025-03-21,24.423753,118.240186,3.3269014e-08
C0T9N0,富里,2025-03-21,23.171639,121.249378,4.579278e-08
U2HA50,臺大竹山,2025-03-21,23.756972,120.681556,1.337639e-09
C0V840,鳳鼻頭,2025-03-21,22.5083,120.3591,1.926373e-09
C0X140,西港,2025-03-21,23.125608,120.203108,6.54003e-10
72D080,桃改五峰分場,2025-03-21,24.612194,121.157167,7.2356507e-09
C2H9P0,伊拿谷,2025-03-21,23.963211,121.088264,1.4018952e-09
C2H9F0,柑林,2025-03-21,24.018658,120.847072,1.8830124e-09
C0TA20,加灣,2025-03-21,24.082025,121.608944,5.7808496e-08
C0V530,阿蓮,2025-03-21,22.883208,120.327508,6.8874177e-09
C1O880,關山,2025-03-21,23.173397,120.594092,6.075051e-10
C0E791,卓蘭,2025-03-21,24.3126,120.8244,2.3245226e-09
C1I030,武界,2025-03-21,23.913225,121.052483,1.4461202e-09
C0R520,崁頂,2025-03-21,22.514781,120.506914,3.4757515e-09
C0R341,牡丹,2025-03-21,22.130036,120.792639,1.5535223e-08
C0R930,萬丹,2025-03-21,22.5885,120.4851,3.0386784e-09
C0S760,紅石,2025-03-21,23.069131,121.126219,8.443391e-09
C2C410,中央大學,2025-03-21,24.967652,121.185165,1.1721525e-08
C1M610,石磐龍,2025-03-21,23.496606,120.663506,2.7979952e-09
C0UA10,鴛鴦湖,2025-03-21,24.590269,121.412228,1.1668703e-08
V2C260,八德蔬果,2025-03-21,24.978508,121.281819,7.7127185e-09
C0R800,丹路,2025-03-21,22.204481,120.750989,5.8004208e-08
C0G920,永靖,2025-03-21,23.924703,120.547533,1.456712e-09
C2M950,太和,2025-03-21,23.538372,120.702961,3.6315677e-09
C1A630,下盆,2025-03-21,24.771003,121.538622,6.584881e-09
B2N890,畜產試驗所,2025-03-21,23.058972,120.336406,4.1816954e-09
C0UA30,白嶺,2025-03-21,24.527819,121.519031,7.3173125e-09
C1V580,溪南(特生中心),2025-03-21,23.084972,120.788475,2.5295965e-09
C1T970,大農,2025-03-21,23.615233,121.413331,4.215216e-09
E2S960,林試太麻里2,2025-03-21,22.598014,120.989761,0.0034868738
C0R650,竹田,2025-03-21,22.58486,120.54344,3.892427e-09
C1H900,清流,2025-03-21,24.080775,120.962997,2.0980453e-09
C1C510,水尾,2025-03-21,24.940081,121.087161,2.171887e-08
C0F9X0,大雅(中科園區),2025-03-21,24.21528,120.62445,5.048505e-09
C0SB60,白守蓮,2025-03-21,23.126769,121.401914,2.087278e-07
C0O970,虎頭埤,2025-03-21,23.021375,120.347878,3.9169072e-09
C0C730,中大臨海站,2025-03-21,24.966126,121.008581,2.5452687e-08
C0X250,新營,2025-03-21,23.310689,120.316681,1.1681012e-09
C0V700,三民,2025-03-21,22.645017,120.311233,4.719882e-09
C0U870,大礁溪,2025-03-21,24.791042,121.675047,3.0201135e-09
C0E870,高鐵苗栗,2025-03-21,24.60725,120.826094,3.1097084e-08
A2K570,古坑花卉中心,2025-03-21,23.63353,120.55239,1.0212816e-09
C0TA30,鹽寮,2025-03-21,23.845606,121.592664,1.4606551e-08
C0M860,新美,2025-03-21,23.338017,120.683169,6.646189e-10
C1E701,八卦,2025-03-21,24.491756,120.927619,5.7485425e-09
C0I420,國姓,2025-03-21,24.037803,120.855072,1.8802273e-09
C2D720,關西工作站,2025-03-21,24.757275,121.184792,1.603182e-08
C0S960,香蘭,2025-03-21,22.587569,120.993375,3.6934896e-08
467620,蘭嶼,2025-03-21,22.0369,121.55843,0.99969256
C0R260,春日,2025-03-21,22.370361,120.628306,7.6582936e-08
72G600,臺中農改場,2025-03-21,24.003028,120.534389,1.2691475e-09
C0Z210,瑞穗,2025-03-21,23.5239,121.39021,4.9876046e-09
C0M820,達邦,2025-03-21,23.453994,120.749517,2.2837225e-09
C0V860,南寮,2025-03-21,22.7616,120.2339,7.025444e-09
C0G740,大城,2025-03-21,23.852487,120.320935,1.3873913e-07
C0R920,塭仔,2025-03-21,22.4169,120.5197,1.5969598e-06
C0R470,高樹,2025-03-21,22.826389,120.600806,1.5783531e-09
C0R680,佳樂水,2025-03-21,21.993578,120.861633,0.9988415
C1O870,大棟山,2025-03-21,23.31157,120.52226,2.1161346e-09
C0D360,梅花,2025-03-21,24.678347,121.208558,5.0323443e-09
C0Z190,富世,2025-03-21,24.14743,121.6297,6.741037e-09
C0AI10,屈尺,2025-03-21,24.92184,121.54475,2.259326e-09
B2U990,畜試東區分所,2025-03-21,24.669039,121.832561,1.391856e-09
C0SB80,長濱漁港,2025-03-21,23.313644,121.459994,3.543337e-07
C0R240,來義,2025-03-21,22.527306,120.625111,1.5925447e-09
C0V910,大樹,2025-03-21,22.684645,120.432803,1.14066845e-08
C1R610,西大武山,2025-03-21,22.617719,120.7322,1.0515829e-08
C0G900,線西,2025-03-21,24.143358,120.443536,1.5086405e-08
C0M700,竹崎,2025-03-21,23.526178,120.555508,1.1663647e-09
C2E880,三義,2025-03-21,24.405478,120.749819,6.642327e-09
C0C720,竹圍,2025-03-21,25.112692,121.239824,1.2854096e-08
C0F9P0,清水,2025-03-21,24.312297,120.562242,3.613536e-08
C0Z150,吉安光華,2025-03-21,23.930925,121.595153,2.4732298e-08
467300,東吉島,2025-03-21,23.25727,119.66762,0.99012125
C1D640,外坪(五指山),2025-03-21,24.644447,121.090961,5.1464286e-09
C0F9O0,潭子,2025-03-21,24.213106,120.703933,4.187969e-09
C2H9R0,卓社,2025-03-21,23.887894,121.000086,1.5537052e-09
72T250,花蓮農改場,2025-03-21,23.975222,121.563889,5.8921465e-08
C0E780,銅鑼,2025-03-21,24.489681,120.790853,1.76523e-08
C1T950,太安,2025-03-21,23.666719,121.370128,7.7778965e-09
C0E830,苑裡,2025-03-21,24.439714,120.653053,6.58604e-08
467270,田中,2025-03-21,23.873803,120.581286,1.2879933e-09
C0SA10,檳榔四格山,2025-03-21,22.810031,121.109308,5.4973324e-09
C1T830,布洛灣,2025-03-21,24.17184,121.57127,8.903704e-09
C0F970,大坑,2025-03-21,24.173142,120.722289,7.012538e-09
C1U920,思源,2025-03-21,24.393125,121.347214,6.657865e-09
C0A931,三和,2025-03-21,25.233153,121.595236,5.665468e-09
C0I010,廬山,2025-03-21,24.033311,121.181808,3.6715102e-09
C2M940,日野賀,2025-03-21,23.434056,120.727169,2.7972056e-09
C0R860,鼻頭,2025-03-21,22.1043,120.8979,0.015200329
C0UB20,壯圍,2025-03-21,24.7359,121.8163,1.2063145e-09
C0R790,九棚,2025-03-21,22.14195,120.889281,2.5188083e-08
C0W110,東莒,2025-03-21,25.9652,119.98069,1.4601753e-07
C1U930,粉鳥林,2025-03-21,24.497088,121.842479,7.196631e-09
C1I211,蘆竹湳,2025-03-21,23.934019,120.811994,1.8344977e-09
C0S830,長濱,2025-03-21,23.286817,121.411975,2.363175e-08
C1F9F1,伯公龍,2025-03-21,24.272392,120.849047,1.7308586e-09
C0E810,西湖,2025-03-21,24.562947,120.7485,9.2766506e-08
C1I440,新高口,2025-03-21,23.478744,120.878939,9.171055e-09
C0O840,王爺宮,2025-03-21,23.222064,120.40085,1.3985461e-09
C0T9G0,鳳林山,2025-03-21,23.735269,121.420131,2.4129074e-08
C0X080,佳里,2025-03-21,23.173039,120.145086,1.462868e-09
C0FB70,大甲溪埔,2025-03-21,24.370625,120.620067,4.082126e-08
C0Z310,清水斷崖,2025-03-21,24.218294,121.689142,3.5602403e-09
C0M680,太保,2025-03-21,23.455062,120.331455,9.872713e-10
C1S820,金峰,2025-03-21,22.590969,120.933236,1.1655246e-08
C0AD10,八里,2025-03-21,25.150211,121.403947,1.282554e-08
C2K240,草嶺,2025-03-21,23.59555,120.693461,2.520249e-09
C1SA70,都蘭,2025-03-21,22.87794,121.226881,7.125296e-08
C0K440,二崙,2025-03-21,23.772797,120.408944,1.3221938e-09
C1A760,坪林交控,2025-03-21,24.94284,121.713442,2.4165447e-09
C0F9N0,大里,2025-03-21,24.092464,120.701378,1.6910857e-09
C0SA90,達仁林場,2025-03-21,22.264347,120.823972,8.719708e-09
C1R290,石門山,2025-03-21,22.112611,120.756597,3.9192814e-06
42HA10,萬大發電廠,2025-03-21,23.978875,121.139639,2.0140947e-09
C0R890,山海,2025-03-21,21.9878,120.7091,0.38393915
C0T9A0,月眉山,2025-03-21,23.809928,121.539828,7.772929e-09
C0AC70,信義,2025-03-21,25.037822,121.564597,2.5487557e-09
C0K560,棋山,2025-03-21,23.68645,120.603417,9.956296e-10
C2FB50,出雲,2025-03-21,24.206469,120.902794,2.805985e-09
C1Z240,中平林道,2025-03-21,23.42115,121.26763,5.140817e-09
U2H480,溪頭,2025-03-21,23.670306,120.798194,3.382444e-09
C0M880,好美里,2025-03-21,23.3364,120.138,1.5806849e-09
C0T9E0,大坑,2025-03-21,23.880628,121.581981,7.826589e-09
C0K530,臺西,2025-03-21,23.701547,120.197559,6.739893e-09
C1E900,國一N128K,2025-03-21,24.560997,120.844186,1.7353816e-08
C0AJ50,水湳洞,2025-03-21,25.123695,121.862238,3.1534522e-09
C0AI20,白沙灣,2025-03-21,25.283128,121.519058,1.3362092e-08
C2V310,美濃,2025-03-21,22.898792,120.51907,1.9099897e-09
C0A860,大坪,2025-03-21,25.165914,121.632969,5.0428945e-09
C1U850,觀音海岸,2025-03-21,24.38319,121.77856,4.4762865e-09
C2K610,草嶺石壁,2025-03-21,23.602469,120.707731,2.5941422e-09
C0U950,鶯子嶺,2025-03-21,24.89754,121.79244,8.714055e-09
C0O900,善化,2025-03-21,23.112883,120.297219,5.7958616e-09
C0K550,蔦松,2025-03-21,23.514319,120.229736,1.2903808e-09
E2P980,林試六龜中心,2025-03-21,22.991703,120.645722,8.5015295e-10
C0E590,通霄,2025-03-21,24.471892,120.704622,1.00160925e-07
C1I310,西巒,2025-03-21,23.754486,120.883956,1.9427189e-09
C0A550,泰平,2025-03-21,24.971197,121.823711,5.117914e-09
C0I360,水里,2025-03-21,23.812553,120.849792,1.130307e-09
C0R830,高士,2025-03-21,22.121825,120.836781,7.406974e-07
C1I101,溪頭,2025-03-21,23.661789,120.807647,4.3196984e-09
C0AJ20,野柳,2025-03-21,25.20703,121.690021,5.098175e-09
C0B060,暖暖,2025-03-21,25.0957,121.7403,2.393298e-09
C1H920,長豐,2025-03-21,24.102039,120.879897,1.7634588e-09
C0V360,內門,2025-03-21,22.975481,120.466769,1.5719749e-09
C0R850,林邊,2025-03-21,22.4634,120.5339,1.754338e-08
C0E930,龍鳳,2025-03-21,24.700034,120.859125,6.6241874e-08
C0U910,冬山,2025-03-21,24.63373,121.7937,1.391856e-09
C1E721,泰安,2025-03-21,24.489017,120.968036,4.44435e-09
82H320,茶改中部分場,2025-03-21,23.875611,120.913583,1.5358735e-09
C0M750,布袋,2025-03-21,23.380878,120.167789,2.5153986e-09
C1S860,利嘉,2025-03-21,22.809417,121.050528,4.0736228e-09
72C440,桃園農改,2025-03-21,24.950944,121.030583,7.680807e-08
E2S980,林試太麻里1,2025-03-21,22.598922,120.980044,2.0588955e-08
C0X170,關廟,2025-03-21,22.963017,120.327797,3.438896e-09
C0V720,林園,2025-03-21,22.507747,120.394511,3.0916567e-09
C1I510,線浸林道,2025-03-21,23.761508,120.832956,1.9672206e-09
C0D690,外湖,2025-03-21,24.917735,120.968711,2.3136026e-08
C0C750,新興坑尾,2025-03-21,25.0061,121.0971,2.4368187e-08
B2Q810,畜試南區分所,2025-03-21,21.945583,120.802167,0.998734
C0S790,金崙,2025-03-21,22.538122,120.966875,7.8416065e-09
C0AH90,福山植物園,2025-03-21,24.760717,121.58135,8.627429e-09
C0I540,奇萊稜線,2025-03-21,24.109231,121.326456,1.8995058e-08
C0M850,表湖,2025-03-21,23.24186,120.64166,5.0858573e-10
C0S770,大溪山,2025-03-21,22.478475,120.943325,6.348921e-09
C0AG80,中和,2025-03-21,24.991622,121.491792,2.1650821e-09
C0T790,大禹嶺,2025-03-21,24.186117,121.316086,1.5703005e-08
C0T9B0,水源,2025-03-21,23.991861,121.537169,3.2147057e-08
C0R840,牡丹池山,2025-03-21,22.168389,120.841225,5.690821e-09
C1I131,桶頭,2025-03-21,23.641944,120.654117,1.0818264e-09
CAL110,布袋國中,2025-03-21,23.35893,120.18026,1.7193029e-09
467571,新竹,2025-03-21,24.827853,121.014219,5.1281763e-08
C0Z290,赤柯山,2025-03-21,23.36893,121.38293,1.6029496e-08
C0X280,將軍,2025-03-21,23.214999,120.13577,1.3846168e-09
C0S690,太麻里,2025-03-21,22.60902,120.98533,1.3486016e-08
C0U880,北關,2025-03-21,24.9072,121.8734,3.3503846e-09
C1H860,瑞岩,2025-03-21,24.123772,121.18345,5.1282227e-09
C0G810,埔心,2025-03-21,23.947633,120.525456,1.4572399e-09
C0U970,大福,2025-03-21,24.80064,121.81389,8.3789575e-10
C2H9N0,仁愛東眼,2025-03-21,24.026875,121.1205,3.1986183e-09
C1E670,南礦,2025-03-21,24.538278,121.002836,5.0427214e-09
C0M520,東後寮,2025-03-21,23.369908,120.248065,1.6421262e-09
C1E461,松安,2025-03-21,24.397972,120.986022,5.45425e-09
72G600,臺中農改,2025-03-21,24.003028,120.534389,3.9458758e-08
C2N160,西拉雅風管處,2025-03-21,23.189481,120.335297,9.144116e-10
C2M970,碧湖,2025-03-21,23.568632,120.624165,2.2802362e-09
C0A640,石碇,2025-03-21,24.993969,121.662917,2.1450193e-09
E2S960,林試太麻里2,2025-03-21,22.598,120.99775,4.2202544e-08
C0F9Y0,桃山,2025-03-21,24.432739,121.303808,2.8344582e-08
C1I020,萬大,2025-03-21,23.979817,121.132261,1.8496512e-09
C0U940,羅東,2025-03-21,24.68184,121.74934,1.2090257e-09
C0M650,朴子,2025-03-21,23.43463,120.23902,1.634511e-09
C1I500,大尖山,2025-03-21,23.858572,120.994889,4.553443e-09
C0G820,田尾,2025-03-21,23.901669,120.509389,1.4611754e-09
E2K600,四湖植物園,2025-03-21,23.676986,120.163433,3.6265633e-09
C0S730,綠島,2025-03-21,22.6672,121.47533,1.2303619e-06
12Q970,東港工作站,2025-03-21,22.479997,120.466058,2.047933e-08
C0E430,南庄,2025-03-21,24.601775,121.000214,1.3115472e-08
C1TA00,太魯閣,2025-03-21,24.15773,121.6236,6.4853647e-09
466920,臺北,2025-03-21,25.037658,121.514853,2.5533586e-09
C0R600,舊泰武,2025-03-21,22.588194,120.664944,6.472374e-10
C1I260,北坑,2025-03-21,23.9246,121.006903,1.8776685e-09
466910,鞍部,2025-03-21,25.182586,121.529731,1.0372403e-08
C1I230,九份二山,2025-03-21,23.961944,120.845,1.301422e-09
C2A660,瑞芳,2025-03-21,25.113169,121.801147,3.3243626e-09
C0R270,琉球嶼,2025-03-21,22.332244,120.362236,1.5120456e-08
C1T990,高寮,2025-03-21,23.394239,121.356808,6.882428e-09
C0G620,芬園,2025-03-21,24.015678,120.6213,1.7244493e-09
C1Z140,荖溪,2025-03-21,23.890575,121.45964,1.9234294e-08
C1I201,中心崙,2025-03-21,23.728722,120.712097,1.6382189e-09
C1I400,凌霄,2025-03-21,24.018778,121.004456,3.0940637e-09
C1M640,十字,2025-03-21,23.492153,120.753683,4.3641784e-09
G2P820,農試鳳山分所,2025-03-21,22.646611,120.356083,3.9277324e-09
C0Z270,蕃薯寮,2025-03-21,23.73835,121.540108,9.955466e-09
C0F9Q0,外埔,2025-03-21,24.347817,120.705686,9.559425e-09
C0K580,高鐵雲林,2025-03-21,23.737456,120.417944,1.4951302e-09
C2I090,鳳凰,2025-03-21,23.728081,120.787347,2.2605675e-09
C0U990,員山,2025-03-21,24.74435,121.72247,1.2057578e-09
C0V770,大社,2025-03-21,22.730306,120.346639,5.1881384e-09
C0X120,麻豆,2025-03-21,23.183289,120.248611,8.140689e-10
C0C670,龍潭,2025-03-21,24.870056,121.221389,1.0339634e-08
C0D680,香山濕地,2025-03-21,24.783581,120.914988,3.2392766e-08
C0S980,勝林山,2025-03-21,22.430439,120.8938,6.8851325e-09
C0V730,大寮,2025-03-21,22.605614,120.395717,6.0993774e-09
C0R570,麟洛,2025-03-21,22.65078,120.52719,4.325626e-09
C2M930,石卓,2025-03-21,23.478744,120.702264,4.9025677e-09
C0G9B0,和美,2025-03-21,24.105169,120.492131,4.8909956e-09
CAG100,王功漁港,2025-03-21,23.96824,120.32586,1.2979713e-07
C0X290,北門,2025-03-21,23.267772,120.125481,1.3852244e-09
C2F930,大甲,2025-03-21,24.347667,120.640403,3.160053e-08
C0D650,湖口,2025-03-21,24.904794,121.043628,2.191921e-08
C0E420,竹南,2025-03-21,24.708978,120.888897,6.255824e-08
C0U780,五結,2025-03-21,24.68637,121.79794,1.2038573e-09
C1I250,鯉潭,2025-03-21,23.961922,120.991131,1.1630658e-09
C0R130,阿禮,2025-03-21,22.742908,120.743678,9.335216e-10
C0X100,臺南市北區,2025-03-21,23.010394,120.194228,2.4039668e-09
C0S920,金峰嘉蘭,2025-03-21,22.594789,120.960825,2.0398282e-08
C0V490,新興,2025-03-21,22.627422,120.298803,4.079267e-09
C0F9K0,大安,2025-03-21,24.345061,120.588025,4.3277325e-08
72N100,臺南農改,2025-03-21,23.0605,120.342194,2.1848687e-06
467290,古坑,2025-03-21,23.633639,120.551889,1.0212816e-09
C2E970,八甲,2025-03-21,24.535811,120.795983,1.5209398e-08
C0V440,鳳山,2025-03-21,22.646653,120.356122,3.9277324e-09
C1T940,大觀,2025-03-21,23.714206,121.373133,9.042693e-09
72T250,花蓮農改,2025-03-21,23.975222,121.563889,0.0005672273
C0E740,造橋,2025-03-21,24.637056,120.864778,3.1758173e-08
C0R100,尾寮山,2025-03-21,22.833111,120.683889,9.1625874e-10
A2K630,臺大雲林校區,2025-03-21,23.730628,120.423903,1.4852078e-09
467990,馬祖,2025-03-21,26.169467,119.923158,2.1576174e-08
C0D580,寶山,2025-03-21,24.735006,121.025192,1.745117e-08
E2P990,林試扇平站,2025-03-21,22.9677,120.6857,4.3086285e-10
C0AI30,三重,2025-03-21,25.057328,121.500629,2.521042e-09
C0AH00,汐止,2025-03-21,25.066881,121.658778,2.5533635e-09
C1Z040,立山,2025-03-21,23.443356,121.327375,1.3953973e-08
466881,新北,2025-03-21,24.959207,121.525196,2.186129e-09
C0W130,花嶼,2025-03-21,23.40007,119.32276,0.9983507
C0A950,鼻頭角,2025-03-21,25.129036,121.923372,7.0529946e-09
C0K470,林內,2025-03-21,23.748675,120.609642,1.5941249e-09
C2F990,摩天嶺,2025-03-21,24.322458,120.936819,2.4907874e-09
82C160,茶改場,2025-03-21,24.908472,121.185333,7.984183e-09
C0Z320,清水林道,2025-03-21,23.27125,121.188272,1.12433e-08
C0R760,南仁湖,2025-03-21,22.084681,120.863353,3.4036386e-06
C0M670,大林,2025-03-21,23.600616,120.45841,1.9973463e-09
C0M800,茶山,2025-03-21,23.299075,120.664767,5.905597e-10
C0A9C0,天母,2025-03-21,25.117494,121.537169,4.4711497e-09
72K220,南改斗南分場,2025-03-21,23.634556,120.477333,1.905812e-09
72AI40,桃改樹林分場,2025-03-21,24.944503,121.386972,4.3551145e-09
C0S910,蘭嶼燈塔,2025-03-21,22.081197,121.503117,0.99960077
C0B050,八斗子,2025-03-21,25.144754,121.79167,3.1131366e-09
C0U900,內城,2025-03-21,24.71813,121.68766,1.2167223e-09
C0X320,柳營,2025-03-21,23.253328,120.375253,1.6978664e-09
C0M790,新港,2025-03-21,23.553269,120.345728,1.2502912e-09
C0F9T0,西屯,2025-03-21,24.179494,120.641275,6.1008785e-09
C0SA30,都歷,2025-03-21,23.020333,121.323642,7.480404e-08
C0C620,蘆竹,2025-03-21,25.084275,121.265767,1.0014371e-08
C0R730,大坪頂,2025-03-21,22.024633,120.69355,0.10722449
C0AJ40,石門,2025-03-21,25.273672,121.601198,1.3570935e-08
C0E750,苗栗,2025-03-21,24.564569,120.824575,1.7738838e-08
C0T870,鯉魚潭,2025-03-21,23.935639,121.508944,1.5606739e-08
C1V170,排雲,2025-03-21,23.463619,120.954147,2.3153154e-08
C2H950,中寮,2025-03-21,23.884447,120.766406,8.78493e-09
C0R350,貓鼻頭,2025-03-21,21.921774,120.7358,0.9990859
C0V660,岡山,2025-03-21,22.797078,120.294958,2.4456832e-09
C1H941,雙冬,2025-03-21,23.967378,120.802189,1.896435e-09
C0AJ70,田寮,2025-03-21,25.2698,121.4886,1.3408557e-08
C0AI00,五股,2025-03-21,25.07445,121.42728,9.275179e-09
C0Z280,德武,2025-03-21,23.47426,121.41071,4.9284914e-09
C0R700,枋山,2025-03-21,22.246844,120.661086,4.3603654e-07
C0C460,復興,2025-03-21,24.820208,121.352281,4.2839163e-09
E2H360,蓮華池,2025-03-21,23.918333,120.885278,1.9998354e-09
C0M640,中埔,2025-03-21,23.42538,120.5229,1.2341373e-09
C0W140,金沙,2025-03-21,24.488292,118.408778,4.581663e-08
C2A540,四堵,2025-03-21,24.8926,121.745736,4.5264783e-09
C0ACA0,新莊,2025-03-21,25.051478,121.446756,3.4095582e-09
C0R220,潮州,2025-03-21,22.534361,120.54,3.1533438e-09
U2HA40,臺大內茅埔,2025-03-21,23.689722,120.851117,2.0935402e-09
467490,臺中,2025-03-21,24.145736,120.684075,8.002325e-09
C0U960,翠峰湖,2025-03-21,24.510856,121.608044,1.2494717e-08
E2HA20,林試畢祿溪站,2025-03-21,24.226944,121.308522,1.4503307e-08
C0V890,前鎮,2025-03-21,22.5718,120.3117,4.3006914e-09
467620,蘭嶼,2025-03-21,22.036969,121.558339,0.9999381
C1F941,雪嶺,2025-03-21,24.280586,121.026642,2.4817593e-08
C2H9E0,國姓南港,2025-03-21,23.911108,120.846556,1.9673332e-09
C0AC80,文山,2025-03-21,25.00235,121.575728,2.217453e-09
C0F9R0,龍井,2025-03-21,24.184536,120.528972,3.6885194e-08
C0M760,民雄,2025-03-21,23.551754,120.428457,2.005527e-09
C0UA40,西德山,2025-03-21,24.560647,121.752608,9.412064e-09
C1T920,中興,2025-03-21,23.769503,121.498653,1.1479408e-08
C0D550,雪霸,2025-03-21,24.526972,121.11605,8.447998e-09
C2F860,梨山,2025-03-21,24.247522,121.243669,1.487871e-08
C0R320,車城,2025-03-21,22.0744,120.716247,0.010006398
C1S870,南美山,2025-03-21,23.15025,121.382333,4.6932225e-08
C0B020,基隆嶼,2025-03-21,25.19141,121.78391,7.1331665e-09
C1U501,牛鬥,2025-03-21,24.637836,121.573656,2.3122075e-09
C0M730,嘉義市東區,2025-03-21,23.457673,120.460531,1.1645641e-09
C0S700,知本,2025-03-21,22.684866,121.005642,4.375255e-09
C1N001,沙崙,2025-03-21,22.935472,120.309406,3.955255e-09
C0V760,橋頭,2025-03-21,22.757806,120.30575,5.8658594e-09
C0G960,福寶,2025-03-21,24.0443,120.3814,4.993887e-09
C0X210,白河,2025-03-21,23.347466,120.414427,9.752166e-10
C0S810,東河,2025-03-21,22.972672,121.303986,4.6265278e-08
C2R170,屏東,2025-03-21,22.66027,120.49403,4.3365636e-09
C0R670,楓港,2025-03-21,22.190131,120.692156,1.6085059e-07
C0FA50,霧峰,2025-03-21,24.0419,120.6995,5.605479e-09
C0UB10,蘇澳,2025-03-21,24.5969,121.8571,4.84038e-09
C0G950,防潮門,2025-03-21,24.1835,120.4871,3.7978033e-08
C0M740,六腳,2025-03-21,23.492871,120.290625,1.6188058e-09
C1R250,力里,2025-03-21,22.428117,120.629228,3.3596892e-09
C0K330,虎尾,2025-03-21,23.719183,120.442036,1.4997228e-09
C2FA00,烏石坑,2025-03-21,24.273503,120.947617,2.4342255e-09
C0V620,永安,2025-03-21,22.82315,120.236856,2.4677909e-09
C1I330,楓樹林,2025-03-21,23.986803,121.076117,2.4843203e-09
C0W200,湖西,2025-03-21,23.596314,119.67275,0.94573843
72Q010,高雄農改場,2025-03-21,22.709333,120.525889,2.9400302e-09
C0SA40,瑞和,2025-03-21,22.974361,121.156697,4.1740712e-08
C0C680,龜山,2025-03-21,25.02846,121.38656,5.2501257e-09
C2V260,月眉,2025-03-21,22.971003,120.539853,9.790802e-10
C0V450,鳳森,2025-03-21,22.545064,120.392592,2.1597533e-09
C0U720,南山,2025-03-21,24.43742,121.38167,4.0800376e-09
A2N290,臺南蘭花園區,2025-03-21,23.340258,120.379661,1.2690216e-09
C0R560,新園,2025-03-21,22.5434,120.461558,3.0916567e-09
C0U890,三星,2025-03-21,24.66812,121.65302,2.238488e-09
C1V300,御油山,2025-03-21,23.001983,120.715364,2.3438804e-09
C0U600,礁溪,2025-03-21,24.817539,121.765608,1.514264e-09
C1T980,龍澗,2025-03-21,24.023289,121.411328,2.3398568e-08
C0D670,海天一線,2025-03-21,24.831986,120.914438,1.6682708e-07
C0SA00,歷坵,2025-03-21,22.520969,120.89185,4.5790576e-09
C0M710,東石,2025-03-21,23.458927,120.15385,2.1384179e-09
C0M780,鹿草,2025-03-21,23.41134,120.30835,1.5986039e-09
C0U520,雙連埤,2025-03-21,24.753033,121.641303,3.0581333e-09
C0B010,七堵,2025-03-21,25.094819,121.71713,2.3035973e-09
C0R480,長治,2025-03-21,22.693128,120.542622,8.85753e-09
C1V830,國三S383K,2025-03-21,22.781967,120.426475,2.5783224e-09
12Q980,恆春工作站,2025-03-21,22.079678,120.714425,0.0100239795
C1O940,東山服務區,2025-03-21,23.286016,120.398472,1.3687727e-09
C1U840,東澳嶺,2025-03-21,24.5378,121.8485,7.97283e-09
C1D630,飛鳳山,2025-03-21,24.766464,121.119178,7.906788e-09
C0S940,石寧山,2025-03-21,23.223772,121.406639,7.11936e-08
C0K410,北港,2025-03-21,23.573957,120.292802,1.6485502e-09
C2M620,瑞里,2025-03-21,23.545133,120.675197,3.2313265e-09
C0SB70,小港漁港,2025-03-21,23.158558,121.400431,8.893564e-07
C2O950,安南,2025-03-21,23.076694,120.144861,2.1903068e-09
C0F0E0,南湖圈谷,2025-03-21,24.363714,121.444667,2.4698451e-08
467610,成功,2025-03-21,23.097486,121.373428,1.4162035e-07
C0G890,伸港,2025-03-21,24.148933,120.484403,1.5012033e-08
C2E540,龍溪,2025-03-21,24.606489,120.783933,3.1525577e-08
C1V200,梅山,2025-03-21,23.268447,120.823556,5.58683e-10
C0T9H0,加路蘭山,2025-03-21,23.682947,121.5274,2.8419556e-08
C2O930,玉井,2025-03-21,23.126042,120.46055,1.1110165e-09
C1F911,新伯公,2025-03-21,24.221361,120.841069,1.4903441e-09
C0R490,九如,2025-03-21,22.7405,120.490503,3.0181728e-09
C0X200,左鎮,2025-03-21,23.056758,120.408522,1.5631159e-09
C0SB50,叭嗡嗡,2025-03-21,23.047062,121.343223,2.5440588e-07
C1F891,稍來,2025-03-21,24.265689,121.001142,1.475369e-08
72N240,七股研究中心,2025-03-21,23.081672,120.062894,1.4620285e-09
C0C700,中壢,2025-03-21,24.977661,121.256375,7.782097e-09
C0M690,水上,2025-03-21,23.419734,120.388909,9.733193e-10
C0V690,鼓山,2025-03-21,22.623325,120.275575,4.0983745e-09
C0O860,大內,2025-03-21,23.11885,120.36083,4.4524273e-09
C0Z200,萬榮,2025-03-21,23.709219,121.420106,1.2998299e-08
C0T9D0,和中,2025-03-21,24.26676,121.74103,5.1223474e-09
C1O921,楠西,2025-03-21,23.183511,120.484083,9.517104e-10
C0AJ30,淡水觀海,2025-03-21,25.184591,121.408616,7.513547e-09
C0V810,左營,2025-03-21,22.67491,120.28491,4.718415e-09
C0UA70,桃源谷,2025-03-21,24.962606,121.888875,3.88977e-09
C0X130,官田,2025-03-21,23.193217,120.315422,9.473908e-10
C1H000,翠峰,2025-03-21,24.109397,121.205211,8.096948e-09
C0UA90,石城,2025-03-21,24.980444,121.951214,2.6885536e-09
C1E681,南勢山,2025-03-21,24.421669,120.923831,6.2877974e-09
C0A9F0,內湖,2025-03-21,25.079422,121.57545,2.5533635e-09
C0K291,宜梧,2025-03-21,23.536281,120.169329,1.2950533e-09
C1K540,口湖,2025-03-21,23.585344,120.180517,2.6580116e-09
C0R780,滿州,2025-03-21,22.024403,120.839892,0.999294
C0V870,文安,2025-03-21,22.8025,120.2164,2.6642242e-09
C0U650,玉蘭,2025-03-21,24.675286,121.587061,2.915749e-09
C0R640,東港,2025-03-21,22.46247,120.44074,2.0529429e-08
K2E360,苗栗農改,2025-03-21,24.495722,120.829111,5.74871e-08
C0AJ80,板橋,2025-03-21,25.0107,121.4489,2.1592468e-09
C0S660,下馬,2025-03-21,23.150427,121.070312,1.2185598e-08
C1H9B1,阿眉,2025-03-21,24.1263,120.994672,1.5425798e-08
C0UA20,多加屯,2025-03-21,24.368614,121.373189,1.967882e-08
C0E730,頭份,2025-03-21,24.688247,120.912206,6.297114e-08
72V140,高改旗南分場,2025-03-21,22.857861,120.516667,2.6725864e-09
C0K480,莿桐,2025-03-21,23.761192,120.502372,9.863264e-10
C0U980,坪林石牌,2025-03-21,24.86478,121.77396,3.2637342e-09
C0T900,西林,2025-03-21,23.8119,121.441458,9.273816e-09
C1I150,青雲,2025-03-21,23.793361,120.949378,1.4637417e-09
467350,澎湖,2025-03-21,23.565503,119.563094,0.993548
C0G800,埔鹽,2025-03-21,24.000394,120.431683,4.2109893e-09
C0H960,草屯,2025-03-21,23.973672,120.68085,5.430779e-09
C1V780,多納林道,2025-03-21,22.888028,120.737917,6.638752e-10
C0E920,通霄漁港,2025-03-21,24.498589,120.673876,1.09878606e-07
C0Z330,安通山,2025-03-21,23.290728,121.348528,9.768124e-09
C0AH10,永和,2025-03-21,25.01125,121.508111,2.1510502e-09
C0AK10,太平里,2025-03-21,25.134937,121.364899,1.288269e-08
C2G640,鹿港,2025-03-21,24.0753,120.430481,4.993392e-09
C1E890,國三N149K,2025-03-21,24.463414,120.680019,5.5803707e-08
C1R110,口社,2025-03-21,22.770111,120.645222,3.5042016e-09
C1M870,國三N285K,2025-03-21,23.550319,120.505833,9.548395e-10
467050,新屋,2025-03-21,25.006744,121.047486,8.655024e-08
C1E480,鳳美,2025-03-21,24.554803,121.034747,5.6112452e-09
C0M530,奮起湖,2025-03-21,23.493903,120.699253,3.6363572e-09
C0C590,觀音,2025-03-21,25.027072,121.153317,3.1446547e-08
C0T9M0,靜浦,2025-03-21,23.455167,121.495028,5.392547e-09
C2H9M0,發祥,2025-03-21,24.154094,121.164517,7.936614e-09
C0AI40,石牌,2025-03-21,25.115597,121.513139,4.4734105e-09
C1F871,上谷關,2025-03-21,24.203483,121.018644,2.5375555e-09
C2H9G0,百勝,2025-03-21,24.051142,120.909361,2.219442e-09
C0G880,二水,2025-03-21,23.810742,120.6173,1.5935838e-09
C0R940,加祿堂,2025-03-21,22.3363,120.6217,7.290874e-08
C0W220,北竿,2025-03-21,26.220358,119.974881,2.0015156e-08
C0O960,崎頂,2025-03-21,22.959547,120.369317,2.215259e-09
C0S750,向陽,2025-03-21,23.248397,120.986133,5.8109375e-09
C0T9F0,水璉,2025-03-21,23.797131,121.542514,8.388812e-09
C1M600,頭凍,2025-03-21,23.406364,120.603339,1.7319021e-09
467660,臺東,2025-03-21,22.752211,121.154586,4.5763617e-08
C1D380,新埔,2025-03-21,24.84745,121.03834,3.16305e-08
C2G980,田頭村,2025-03-21,23.8263,120.444175,1.3224056e-09
C0V750,路竹,2025-03-21,22.854997,120.259439,2.596355e-09
C0N050,蚵寮,2025-03-21,23.301,120.1104,1.5826278e-09
72M700,南改鹿草分場,2025-03-21,23.416869,120.283061,1.6339063e-09
C1SA50,利嘉林道,2025-03-21,22.82325,121.009389,2.3934987e-09
467550,玉山,2025-03-21,23.487614,120.959522,3.534855e-08
C0A940,金山,2025-03-21,25.223628,121.643967,5.082621e-09
C1V340,大津,2025-03-21,22.888322,120.645986,1.2131675e-09
C0W180,七美,2025-03-21,23.219333,119.444892,0.997738
C1F9C1,白冷,2025-03-21,24.182844,120.929889,1.4569093e-09
K2E710,苗改生物防治研究中心,2025-03-21,24.422861,120.871833,1.1476408e-08
C0N040,蘆竹溝,2025-03-21,23.2344,120.0961,1.3994828e-09
C2W230,畜試所澎湖,2025-03-21,23.628342,119.513206,0.9938502
C0R880,後壁湖,2025-03-21,21.9457,120.7457,0.3842843
C1I280,埔中,2025-03-21,23.820778,120.642594,1.2670988e-09
467790,墾丁雷達站,2025-03-21,21.948235,120.808028,0.9990791
C0W190,望安,2025-03-21,23.380564,119.494075,0.99412817
466881,新北,2025-03-21,24.9593,121.52,1.0209179e-08
C0Z170,卓溪,2025-03-21,23.3443,121.3029,3.1740733e-08
C0F850,東勢,2025-03-21,24.246428,120.833047,1.732282e-09
466900,淡水,2025-03-21,25.164889,121.448906,1.29572095e-08
C0I370,魚池,2025-03-21,23.895703,120.94135,1.3769976e-09
C0C630,大溪,2025-03-21,24.882853,121.265547,5.625004e-09
C0A520,山佳,2025-03-21,24.974944,121.402008,2.4392357e-09
C0I110,竹山,2025-03-21,23.761225,120.688156,1.4390132e-09
82H840,茶改南部分場,2025-03-21,23.762528,120.7405,1.0306216e-09
C0G660,溪湖,2025-03-21,23.94835,120.479122,1.4567508e-09
C1T800,洛韶,2025-03-21,24.204558,121.453956,1.2853948e-08
C1T810,慈恩,2025-03-21,24.192044,121.388386,4.8189808e-09
C1E451,象鼻,2025-03-21,24.368617,120.940228,5.2458615e-09
C0AC60,三峽,2025-03-21,24.939025,121.369728,6.6985617e-09
C0I490,萬大林道,2025-03-21,23.928228,121.091411,3.3386789e-09
C1I290,豐丘,2025-03-21,23.668178,120.887417,3.876845e-09
C1I320,奧萬大,2025-03-21,23.952956,121.178556,1.868273e-09
C2M910,嘉義大學,2025-03-21,23.471325,120.485903,1.2446878e-09
C0U770,南澳,2025-03-21,24.44935,121.81022,5.4810934e-09
C0A980,社子,2025-03-21,25.109508,121.469681,1.2928351e-08
C0V800,六龜,2025-03-21,22.997889,120.633583,8.8154234e-10
C1G9D0,國一S218K,2025-03-21,23.890641,120.493253,1.7116529e-09
C0E570,白沙屯,2025-03-21,24.549447,120.696803,1.0655387e-07
C2F9A0,中竹林,2025-03-21,24.103556,120.751061,1.6032851e-09
C0FA40,臺中電廠,2025-03-21,24.2146,120.4907,3.6884913e-08
C2G9A0,畜試所彰化,2025-03-21,23.86045,120.557964,1.2886517e-09
C0H9C0,合歡山,2025-03-21,24.143442,121.272547,2.5282471e-08
C0X060,下營,2025-03-21,23.22695,120.256261,1.4507671e-09
G2M350,農試溪口農場,2025-03-21,23.58565,120.408111,2.0217732e-09
C0U860,頭城,2025-03-21,24.85323,121.8308,1.511099e-09
C0R580,南州,2025-03-21,22.48591,120.50274,2.0529429e-08
C0D430,峨眉,2025-03-21,24.6905,121.017189,2.29474e-08
C0G780,秀水,2025-03-21,24.03405,120.503869,1.2773924e-09
72N100,臺南農改場,2025-03-21,23.0605,120.342194,3.9169072e-09
C0S900,蘭嶼高中,2025-03-21,22.04909,121.51214,0.9989578
467540,大武,2025-03-21,22.355675,120.903789,0.05581095
C1F9W0,德基,2025-03-21,24.254783,121.190261,1.2411868e-08
C1Z120,壽豐,2025-03-21,23.870853,121.508081,1.3875812e-08
C0W160,烏坵,2025-03-21,24.9944,119.44956,1.9389404e-06
C1I240,外大坪,2025-03-21,23.958697,120.917931,1.1798545e-09
C1I550,國六W023K,2025-03-21,23.979067,120.867742,1.7071894e-09
C0R870,興海,2025-03-21,21.9752,120.8439,0.9987377
C0R140,瑪家,2025-03-21,22.682903,120.686639,5.8127086e-10
C0A530,坪林,2025-03-21,24.938183,121.70975,2.5690938e-09
C0X260,後壁,2025-03-21,23.366358,120.362326,1.0163652e-09
C0Z230,和平,2025-03-21,24.30717,121.77007,5.32963e-09
C0G770,福興,2025-03-21,24.041289,120.437669,4.2117123e-09
C0H9A0,神木村,2025-03-21,23.532742,120.843667,5.043616e-09
C0I460,南投,2025-03-21,23.911469,120.687331,3.1420825e-08
C0I480,梅峰,2025-03-21,24.085272,121.173572,7.457138e-09
C1V570,吉東,2025-03-21,22.85422,120.5454,2.2246973e-09
C2D740,屯原,2025-03-21,24.067969,121.209389,4.752919e-09
C2A560,福山,2025-03-21,24.776203,121.502811,5.195605e-09
C0AH30,五分山,2025-03-21,25.07125,121.780794,6.907744e-09
C0FA10,松柏,2025-03-21,24.429115,120.617482,6.961142e-08
72S200,東改班鳩分場,2025-03-21,22.829528,121.077694,7.85424e-09
72HA00,中改埔里分場,2025-03-21,23.903208,120.963364,1.94113e-09
C2H9W0,大坪頂農水,2025-03-21,24.043122,120.932781,1.7720094e-09
C0C650,平鎮,2025-03-21,24.897503,121.214636,7.119411e-09
C0S930,延平,2025-03-21,22.902581,121.084058,1.5897566e-08
C0UA60,樟樹山,2025-03-21,24.41393,121.78325,8.933524e-09
C1S670,摩天,2025-03-21,23.199503,121.027,8.339422e-09
C0V630,茄萣,2025-03-21,22.906642,120.182608,3.0824772e-09
466940,基隆,2025-03-21,25.133314,121.740475,3.120895e-09
C0X050,東河,2025-03-21,23.296598,120.385608,1.4845395e-09
C0R770,保力,2025-03-21,22.071122,120.764111,0.49104592
G2L020,農試嘉義分所,2025-03-21,23.485028,120.473806,1.1897935e-09
C0X240,關子嶺,2025-03-21,23.331169,120.508025,7.9298e-10
C0I380,集集,2025-03-21,23.828206,120.801467,1.1514356e-09
466990,花蓮,2025-03-21,23.975128,121.613275,6.7600965e-08
C1V220,小關山,2025-03-21,23.154217,120.813603,3.3479188e-09
C1F9G1,慶福山,2025-03-21,24.180853,120.848378,2.30576e-09
C0Z250,瑞穗林道,2025-03-21,23.49284,121.30688,5.8088103e-09
C0D590,新豐,2025-03-21,24.87068,120.97721,9.346252e-08
C0A870,五指山,2025-03-21,25.132153,121.608692,6.65511e-09
C0UA50,西帽山,2025-03-21,24.555361,121.802628,7.474183e-09
C0X160,仁德,2025-03-21,22.968258,120.257689,4.659754e-09
C1H971,六分寮,2025-03-21,23.92507,120.6378,2.4491984e-09
C0W120,西嶼,2025-03-21,23.5626,119.468436,0.99026203
C0G650,員林,2025-03-21,23.946503,120.585597,2.0532551e-09
C0AD50,鶯歌,2025-03-21,24.951533,121.346294,6.7007595e-09
C2H9Q0,北東眼山,2025-03-21,24.120939,121.189303,8.859676e-09
C2H9T0,名間竹圍,2025-03-21,23.859914,120.637572,1.2696002e-09
C0S990,山豬窟,2025-03-21,22.318619,120.857372,1.1233717e-08
72Q010,高雄農改,2025-03-21,22.709333,120.525889,0.40306446
C0X190,安平,2025-03-21,22.993161,120.152181,2.402931e-09
C0K400,斗六,2025-03-21,23.720583,120.541127,9.303398e-10
12J990,口湖工作站,2025-03-21,23.589978,120.180394,2.652031e-09
C0O830,北寮,2025-03-21,23.079561,120.495008,9.78703e-10
C1D410,白蘭,2025-03-21,24.579364,121.079947,5.461787e-09
C0S970,加津林,2025-03-21,22.416211,120.926942,5.1928037e-08
C0D700,關西,2025-03-21,24.7977,121.1732,9.084061e-09
C0M810,里佳,2025-03-21,23.389125,120.716647,2.8369933e-09
C0U750,龜山島,2025-03-21,24.841667,121.953133,8.434345e-09
C0R810,內獅,2025-03-21,22.305064,120.642986,8.3867526e-08
C1M390,龍美,2025-03-21,23.406728,120.654417,2.1093243e-09
C2FB60,頭櫃山,2025-03-21,24.129842,120.858925,3.3194456e-09
C1H840,國三N238K,2025-03-21,23.841008,120.707711,1.3756692e-09
CAQ030,崎峰國小,2025-03-21,22.42565,120.49521,2.0529429e-08
C2E520,大湖,2025-03-21,24.414939,120.870872,5.94103e-09
467530,阿里山,2025-03-21,23.508208,120.813242,1.0749364e-08
C1E691,南湖,2025-03-21,24.40135,120.837533,5.547925e-09
C0FA30,梧棲,2025-03-21,24.256003,120.523381,3.616577e-08
C1V231,高中,2025-03-21,23.134911,120.716711,5.7772725e-10
C0F9V0,新社,2025-03-21,24.200172,120.815806,1.412066e-09
C0H890,埔里,2025-03-21,23.972169,120.952425,2.149377e-09
C0R690,墾丁,2025-03-21,21.966756,120.810269,0.9088973
C0F0D0,審馬陣,2025-03-21,24.381675,121.4203,2.224571e-08
C2W030,金門農試所,2025-03-21,24.448431,118.451786,3.373844e-08
C0R820,白鷺,2025-03-21,22.454275,120.666219,1.4198873e-09
U2H480,臺大溪頭,2025-03-21,23.670306,120.798194,2.373618e-09
C1V190,南天池,2025-03-21,23.27403,120.91176,6.328513e-09
K2E360,苗栗農改場,2025-03-21,24.495722,120.829111,1.8694147e-08
CAJ050,海口故事園區,2025-03-21,23.57543,120.14121,2.6540905e-09
C2H9D0,三隻寮,2025-03-21,24.093078,120.861578,1.8004673e-09
C0O990,媽廟,2025-03-21,22.99175,120.293525,2.7363147e-09
C0D480,打鐵坑,2025-03-21,24.849664,121.150789,1.0374025e-08
C0Z220,和平林道,2025-03-21,24.343922,121.656317,3.643258e-09
C0TA10,花蓮漁港,2025-03-21,23.995322,121.638331,7.752189e-08
72C440,桃園農改場,2025-03-21,24.950944,121.030583,2.2543768e-08
C1E711,馬拉邦山,2025-03-21,24.367306,120.901656,4.6481343e-09
C0SB20,富岡,2025-03-21,22.792467,121.192669,4.7502656e-08
C0D560,竹東,2025-03-21,24.767147,121.057881,1.6480733e-08
C0F9U0,南屯,2025-03-21,24.137006,120.637969,2.2787232e-09
C0M720,番路,2025-03-21,23.464657,120.554156,1.470968e-09
C0F0A0,雪山圈谷,2025-03-21,24.388594,121.236339,3.4303948e-08
C1A9N0,四十份,2025-03-21,24.934158,121.593283,3.9348333e-09
C0U760,東澳,2025-03-21,24.52196,121.83318,6.744947e-09
C0X230,鹽水,2025-03-21,23.272621,120.247641,1.5242003e-09
C2H9H0,苗改南投蜂場,2025-03-21,23.852589,120.693481,1.559938e-09
C0R950,萬隆國小,2025-03-21,22.507667,120.587817,2.239261e-09
467540,大武,2025-03-21,22.35572,120.90374,6.499968e-08
C0V370,古亭坑,2025-03-21,22.893178,120.401947,1.3242684e-09
C1I340,新興橋,2025-03-21,23.563333,120.868728,1.6983847e-09
C0SA80,土坂,2025-03-21,22.453108,120.887572,1.5955038e-08
C0R160,鹽埔,2025-03-21,22.739558,120.530778,2.926184e-09
C0AC40,大屯山,2025-03-21,25.175675,121.522408,1.2854022e-08
466850,五分山雷達站,2025-03-21,25.071182,121.781205,6.9612716e-09
C2H9L0,馬烈霸,2025-03-21,24.1512,121.201772,1.2116303e-08
C1AI50,國三N016K,2025-03-21,25.034164,121.619664,2.6103026e-09
C1V600,藤枝,2025-03-21,23.071961,120.757042,1.9924873e-09
C1E601,南勢,2025-03-21,24.572486,120.734842,7.101593e-08
C0Z180,新城,2025-03-21,24.03946,121.60454,6.426692e-08
C0O980,新市,2025-03-21,23.061614,120.298197,5.3445945e-09
C0K420,西螺,2025-03-21,23.800407,120.467394,1.3223451e-09
C0Z050,佳心,2025-03-21,23.34567,121.21316,1.6744226e-08
C0AD30,蘆洲,2025-03-21,25.086594,121.472331,2.517472e-09
C0V610,梓官,2025-03-21,22.760558,120.267211,5.896033e-09
K2F750,種苗改良場,2025-03-21,24.225972,120.800917,1.4414965e-09
C0UA80,大溪漁港,2025-03-21,24.941801,121.902955,2.278093e-09
C1AI60,國一39K邊坡,2025-03-21,25.064361,121.383836,5.090295e-09
C0W150,金寧,2025-03-21,24.457703,118.328989,3.3576665e-08
C0R960,內埔,2025-03-21,22.608483,120.570714,3.3581002e-09
V2C250,八德合作社,2025-03-21,24.93775,121.266389,6.8997643e-09
C2H9S0,龍南,2025-03-21,23.953536,120.833183,2.7063243e-09
C0AH40,平等,2025-03-21,25.129142,121.577086,5.2477627e-09
C0R540,佳冬,2025-03-21,22.419456,120.552375,6.105078e-07
466950,彭佳嶼,2025-03-21,25.627975,122.079744,1.17390435e-08
C0A890,雙溪,2025-03-21,25.036003,121.864242,4.0624415e-09
C0C480,桃園,2025-03-21,24.992425,121.323172,7.6632585e-09
C0AH50,林口,2025-03-21,25.072181,121.38084,5.3274856e-09
A2K360,水試臺西試驗場,2025-03-21,23.717231,120.190522,6.8260944e-09
B2N890,畜試所,2025-03-21,23.058972,120.336406,2.9301789e-06
C2M960,外寮,2025-03-21,23.562643,120.665688,2.3707223e-09
C0F9S0,烏日,2025-03-21,24.107058,120.624103,2.3149258e-09
C0C490,八德,2025-03-21,24.928708,121.283289,6.935971e-09
C0R190,赤山,2025-03-21,22.592333,120.614306,3.1075957e-09
C0T820,天祥,2025-03-21,24.179597,121.495639,7.4441346e-09
C1F9E1,龍安,2025-03-21,24.1605,120.831961,1.5233806e-09
C0V820,小林,2025-03-21,23.148408,120.63325,5.6695193e-10
C2G870,芳苑,2025-03-21,23.922303,120.320025,1.2492137e-07
C0E850,大河,2025-03-21,24.618069,120.948578,1.6181646e-08
C1U670,寒溪,2025-03-21,24.634,121.71691,1.4029223e-09
C0N020,城西,2025-03-21,23.0568,120.0956,1.2797311e-09
C1Z110,三棧,2025-03-21,24.11557,121.60501,3.3964813e-08
C0R280,檳榔,2025-03-21,22.076078,120.836777,0.00107578
C2H9J0,中台,2025-03-21,23.9996,120.938739,1.5894707e-09
C0F9L0,后里,2025-03-21,24.310436,120.729725,1.8521189e-09
467441,高雄,2025-03-21,22.730432,120.312516,5.2010285e-09
C0D540,橫山,2025-03-21,24.71116,121.11693,1.6304174e-08
C1D420,太閣南,2025-03-21,24.632808,121.160575,6.235725e-09
C1E770,公館,2025-03-21,24.526914,120.830806,1.9445995e-08
CAN130,水試所海水繁養殖中心,2025-03-21,23.120802,120.07968,1.4330395e-09
C1I430,翠華,2025-03-21,24.191961,121.224339,1.101545e-08
C1M400,菜瓜坪,2025-03-21,23.251928,120.576103,6.426797e-10
C0G730,二林,2025-03-21,23.903325,120.376081,4.7306252e-09
72M360,南改義竹分場,2025-03-21,23.360694,120.279361,1.623385e-09
V2K620,麥寮合作社,2025-03-21,23.753836,120.294783,2.2302544e-09
C0Z070,舞鶴,2025-03-21,23.46811,121.37407,4.7682733e-09
C0B040,大武崙,2025-03-21,25.166676,121.706993,3.184198e-09
C1Z030,紅葉,2025-03-21,23.493119,121.338806,4.628847e-09
C1I050,丹大,2025-03-21,23.753747,121.141147,6.6054104e-09
C0I080,信義,2025-03-21,23.689694,120.851036,2.0935322e-09
C2M920,朴子農改,2025-03-21,23.469889,120.259383,1.6339686e-09
C2A880,福隆,2025-03-21,25.017842,121.942083,2.6502005e-09
C0Z160,鳳林,2025-03-21,23.746114,121.453411,1.40893786e-08
C0V210,復興,2025-03-21,23.222403,120.806089,4.4132029e-10
C0H990,昆陽,2025-03-21,24.121322,121.273642,1.547088e-08
C0R741,獅子,2025-03-21,22.202308,120.705236,1.930888e-07
C0S710,鹿野,2025-03-21,22.917711,121.122994,1.4409969e-08
C0I530,小奇萊,2025-03-21,24.131764,121.295717,1.6365677e-08
C2K630,荷苞,2025-03-21,23.657717,120.595144,9.300595e-10
C0Z080,富源,2025-03-21,23.587642,121.378225,1.3534822e-08
467441,高雄,2025-03-21,22.7304,120.3125,1.3300757e-06
C0SB10,美和,2025-03-21,22.682078,121.060236,7.313869e-07
C2K620,馬光農場,2025-03-21,23.721453,120.378864,1.4888809e-09
C1I140,卡奈托灣,2025-03-21,23.754364,121.087872,2.4638027e-09
C0I520,玉山風口,2025-03-21,23.470489,120.955994,3.2174786e-08
C1G691,下水埔,2025-03-21,23.816114,120.5676,9.881963e-10
C0X110,臺南市南區,2025-03-21,22.961189,120.188378,4.9645887e-09
C0V680,仁武,2025-03-21,22.701083,120.347722,4.7112385e-09
C2G840,北斗,2025-03-21,23.877586,120.514222,1.7012539e-09
C0R900,竹坑,2025-03-21,22.1385,120.7022,3.1785964e-07
C0K250,崙背,2025-03-21,23.75555,120.318925,2.2385394e-09
C0G860,社頭,2025-03-21,23.897647,120.5862,1.6850905e-09
C0X150,安定,2025-03-21,23.102614,120.227839,3.9687515e-09
C0R590,里港,2025-03-21,22.77919,120.49459,5.8832046e-09
C0E610,馬都安,2025-03-21,24.451272,120.930192,5.7148495e-09
C0E550,明德,2025-03-21,24.583486,120.885411,1.7334992e-08
C0R150,三地門,2025-03-21,22.709889,120.639944,4.9479696e-09
C0G910,花壇,2025-03-21,24.032076,120.549461,1.2757464e-09
C1D400,鳥嘴山,2025-03-21,24.71909,121.28387,8.636402e-09
C0K500,元長,2025-03-21,23.64981,120.315024,1.6436836e-09
C0F0B0,石岡,2025-03-21,24.276061,120.777644,1.8915474e-09
C2V250,甲仙,2025-03-21,23.080106,120.591758,7.341438e-10
C0SA20,金崙山,2025-03-21,22.567419,120.959667,6.4357786e-09
C0V350,溪埔,2025-03-21,22.738578,120.446797,8.035239e-09
C0M660,溪口,2025-03-21,23.604131,120.403569,2.0212412e-09
C1S880,壽卡,2025-03-21,22.238911,120.858903,8.935024e-09
72D680,桃改新埔分場,2025-03-21,24.834444,121.066111,3.1819535e-08
