站號,站名,日期,lat,lon,BLBTSLS
C0R710,龍磐,2025-12-10,21.931672,120.838942,0.9581316
C1F9D1,白毛台,2025-12-10,24.158325,120.886933,3.103248e-09
C0G940,竹塘,2025-12-10,23.848253,120.386764,0.9988703
467590,恆春,2025-12-10,22.003897,120.746339,0.15258634
C1O850,環湖,2025-12-10,23.148617,120.418633,0.9986948
C0U710,太平山,2025-12-10,24.505486,121.525656,2.3178517e-08
C0E820,獅潭,2025-12-10,24.539133,120.920042,0.65241027
C0V880,興達,2025-12-10,22.8778,120.2127,0.99989843
C0S890,關山,2025-12-10,23.0395,121.175017,1.7885673e-08
C0SB30,新蘭,2025-12-10,22.869214,121.223228,2.1866038e-07
C2R970,屏科大,2025-12-10,22.648275,120.619247,0.09321909
C1Z130,銅門,2025-12-10,23.965694,121.492842,1.021325e-08
C0AD40,土城,2025-12-10,24.973208,121.445169,0.99902576
CAN140,六官養殖協會,2025-12-10,23.22881,120.29962,0.999731
C0X180,山上,2025-12-10,23.0757,120.363253,0.99936426
C0F9Z0,雪山東峰,2025-12-10,24.388792,121.268675,2.4496059e-08
C1M480,獨立山,2025-12-10,23.537022,120.607797,1.2111814e-09
C0X220,學甲,2025-12-10,23.230367,120.182187,0.99980205
467650,日月潭,2025-12-10,23.881325,120.90805,1.3016405e-09
C0K600,箔子寮,2025-12-10,23.6197,120.14,0.99997574
C0G830,埤頭,2025-12-10,23.866003,120.452806,0.8204233
C0S950,七塊厝,2025-12-10,22.954453,121.229922,8.436276e-09
467110,金門,2025-12-10,24.407306,118.289281,0.046671145
C0AH80,深坑,2025-12-10,25.002703,121.628328,0.9987198
C0A970,三貂角,2025-12-10,25.007606,122.002058,8.814712e-05
C2D730,寶山農場,2025-12-10,24.732444,120.976153,0.9505116
C0K430,褒忠,2025-12-10,23.690938,120.303634,0.9999081
467480,嘉義,2025-12-10,23.495925,120.432906,0.9998454
C0V400,阿公店,2025-12-10,22.804194,120.355528,0.9997424
C0E960,觀霧分站,2025-12-10,24.505781,121.113921,9.881063e-09
467550,玉山,2025-12-10,23.48718,120.95943,3.1872258e-08
C0R440,大漢山,2025-12-10,22.405264,120.753181,1.9978387e-08
C0SD30,東清國小,2025-12-10,22.057128,121.564922,0.985914
C1F9B1,桐林,2025-12-10,24.066172,120.735194,0.9974358
C2H9U0,鳳鵬,2025-12-10,23.763919,120.788061,7.777158e-08
C0K390,土庫,2025-12-10,23.679029,120.395574,0.9757265
C1I450,望鄉山,2025-12-10,23.594153,120.944286,1.77744e-08
C0E910,海埔,2025-12-10,24.648767,120.772435,0.99810654
B2E890,畜試北區分所,2025-12-10,24.527806,120.770972,0.7450563
C0R750,四林格山,2025-12-10,22.076989,120.802439,0.9999646
C0F0C0,中坑,2025-12-10,24.248517,120.903319,4.302439e-09
C1I121,大鞍,2025-12-10,23.678381,120.760017,3.367773e-09
72U480,花改蘭陽分場,2025-12-10,24.686306,121.716583,0.000115551185
C0A770,科教館,2025-12-10,25.096356,121.516507,0.9993337
C0AJ60,六塊厝,2025-12-10,25.24,121.4481,0.9987909
C0R620,墾雷,2025-12-10,21.900836,120.855269,0.99624103
467420,永康,2025-12-10,23.038386,120.2367,0.99988
C0I410,名間,2025-12-10,23.837053,120.701447,0.0006824385
A2C560,農工中心,2025-12-10,24.985917,121.239833,0.9930142
C0V740,旗山,2025-12-10,22.888614,120.483597,0.99978465
C0Z061,玉里,2025-12-10,23.3215,121.339656,3.0427923e-08
C0S840,南田,2025-12-10,22.279725,120.889208,0.9844202
C1I470,杉林溪,2025-12-10,23.639517,120.786444,4.2841695e-09
C1X040,東原,2025-12-10,23.291597,120.463822,4.266922e-09
C0R660,枋寮,2025-12-10,22.367722,120.590647,0.9995337
C1R120,上德文,2025-12-10,22.763272,120.704442,3.1007512e-09
C0K450,大埤,2025-12-10,23.646074,120.431537,0.96067077
C0UA00,土場,2025-12-10,24.576533,121.495333,7.223461e-09
467080,宜蘭,2025-12-10,24.763975,121.756528,0.0022652778
C0N030,四草,2025-12-10,23.0235,120.1116,0.99990886
467410,臺南,2025-12-10,22.99328,120.20492,0.99987763
C0V650,彌陀,2025-12-10,22.783806,120.246361,0.9999496
C0D660,新竹市東區,2025-12-10,24.798681,120.986942,0.946652
82S580,茶改東部分場,2025-12-10,22.907694,121.130139,3.4559612e-08
C0SB40,興隆,2025-12-10,22.913661,121.257469,1.5567443e-07
467050,新屋,2025-12-10,25.006725,121.047492,0.9985424
C0C710,大溪永福,2025-12-10,24.892936,121.324975,0.9852682
C0FA20,溫寮,2025-12-10,24.372177,120.583125,0.9999426
C0V640,湖內,2025-12-10,22.887139,120.2445,0.9998928
C0R910,下寮,2025-12-10,22.3929,120.5548,0.9995337
C0Z020,明里,2025-12-10,23.208717,121.262342,2.9495464e-08
C0M770,嘉義梅山,2025-12-10,23.585398,120.555587,0.6925617
C0C660,楊梅,2025-12-10,24.912375,121.143047,0.98942614
C0SD40,牛頭山,2025-12-10,22.676661,121.506944,0.9926334
C1E511,新開,2025-12-10,24.347703,120.827019,2.0524965e-08
G2F820,農試所(霧峰),2025-12-10,24.031261,120.688133,0.99580157
C2M990,大巃頂,2025-12-10,23.5547,120.61439,1.4347734e-09
C1I070,和社,2025-12-10,23.591131,120.888861,1.959824e-09
C2E990,新坪頂,2025-12-10,24.30201,120.8574,5.2242363e-08
C0TA80,立霧山,2025-12-10,24.183258,121.641899,2.2952566e-08
C2F000,大肚,2025-12-10,24.15295,120.572117,3.4530464e-07
C1S850,豐南,2025-12-10,23.122139,121.262389,1.04723545e-08
C2A920,富貴角,2025-12-10,25.263783,121.565258,0.9989986
CAH030,茶改場竹圍站,2025-12-10,23.860083,120.637528,1.9177797e-09
C0T960,光復,2025-12-10,23.660694,121.424964,4.961039e-09
C0F9M0,豐原,2025-12-10,24.254322,120.720692,0.25130796
C0R720,旭海,2025-12-10,22.205403,120.887614,0.9992923
C0V710,苓雅,2025-12-10,22.622742,120.330669,0.99987245
C0C740,觀音工業區,2025-12-10,25.064764,121.114856,0.9991772
CAC040,拉拉山,2025-12-10,24.699317,121.427133,1.5502604e-08
C0V790,萬山,2025-12-10,22.905944,120.688056,1.3910705e-09
U2HA30,臺大和社,2025-12-10,23.590856,120.888864,1.959824e-09
C2H9K0,屯原,2025-12-10,24.067969,121.209389,6.958298e-09
C0AJ90,澳底,2025-12-10,25.0552,121.9253,0.08569592
C0Z100,東華,2025-12-10,23.89525,121.549833,9.695067e-09
C0G970,三豐,2025-12-10,23.882,120.2895,0.99761707
V2K610,大庄合作社,2025-12-10,23.8068,120.367939,0.9999079
C0V900,汕尾,2025-12-10,22.4782,120.4151,0.999593
C1R630,龍泉,2025-12-10,22.66701,120.59091,0.66220176
C1AC50,關渡,2025-12-10,25.133486,121.469331,0.99743974
C0C800,四稜,2025-12-10,24.64733,121.4293,1.8146519e-08
C0F9I0,神岡,2025-12-10,24.272481,120.658314,0.2579024
C0K460,斗南,2025-12-10,23.678734,120.478359,0.943895
C2O810,曾文,2025-12-10,23.219681,120.497328,1.3116498e-08
467280,後龍,2025-12-10,24.648563,120.831834,0.9936944
C1F9J1,清水林,2025-12-10,24.071242,120.820419,1.0598503e-09
C2A650,火燒寮,2025-12-10,25.002719,121.742892,1.4700497e-06
466930,竹子湖,2025-12-10,25.162078,121.544547,7.4852565e-08
C1I220,樟湖,2025-12-10,23.905333,120.846983,1.4591311e-09
C0I390,仁愛,2025-12-10,24.022122,121.132206,1.5636288e-09
C0Z300,東里,2025-12-10,23.26853,121.30547,3.9739042e-08
C1V590,新發,2025-12-10,23.057019,120.646064,1.3534661e-09
C0K510,水林,2025-12-10,23.572924,120.24597,0.99987406
72S590,東改賓朗果園,2025-12-10,22.813889,121.071278,2.174855e-08
82A750,茶改北部分場,2025-12-10,24.955778,121.631222,1.405897e-07
C1A750,石碇服務區,2025-12-10,25.00872,121.646242,0.99842274
C0X300,鹿寮,2025-12-10,23.386047,120.477331,0.943564
G2AI50,關渡,2025-12-10,25.11575,121.492,0.99906224
C0K590,雲林東勢,2025-12-10,23.674192,120.255721,0.99992186
C0A570,桶後,2025-12-10,24.848222,121.597992,8.5697e-09
C1S800,華源,2025-12-10,22.657883,121.02325,2.0593771e-07
C0G720,溪州,2025-12-10,23.851589,120.499093,0.7717708
C1V160,達卡努瓦,2025-12-10,23.279811,120.705319,2.5198066e-09
C2M410,馬頭山,2025-12-10,23.324361,120.582017,1.4284521e-09
C0V850,蚵仔寮,2025-12-10,22.7256,120.2527,0.9999424
C0S740,池上,2025-12-10,23.119628,121.209469,2.1587864e-08
C1V390,尖山,2025-12-10,22.813153,120.367789,0.9995094
C0AH70,松山,2025-12-10,25.04871,121.55042,0.99926
C0N010,鯤鯓國小,2025-12-10,23.1879,120.0889,0.9998623
C0R550,新埤,2025-12-10,22.467947,120.582894,0.9994729
C0SA60,知本（水試所）,2025-12-10,22.702394,121.082761,1.5592211e-06
C0T9I0,豐濱,2025-12-10,23.583897,121.514806,5.0693183e-09
C0UB00,淡江大學蘭陽校園,2025-12-10,24.823239,121.730383,1.21319115e-08
C0W240,九宮,2025-12-10,24.423753,118.240186,0.050847102
C0T9N0,富里,2025-12-10,23.171639,121.249378,2.4534167e-08
U2HA50,臺大竹山,2025-12-10,23.756972,120.681556,0.03663282
C0V840,鳳鼻頭,2025-12-10,22.5083,120.3591,0.999366
C0X140,西港,2025-12-10,23.125608,120.203108,0.99981886
72D080,桃改五峰分場,2025-12-10,24.612194,121.157167,5.8864145e-09
C2H9P0,伊拿谷,2025-12-10,23.963211,121.088264,1.051458e-09
C2K250,崙背,2025-12-10,23.75553,120.31893,0.9999081
C2H9F0,柑林,2025-12-10,24.018658,120.847072,2.5649527e-08
C0TA20,加灣,2025-12-10,24.082025,121.608944,2.5129347e-08
C0V530,阿蓮,2025-12-10,22.883208,120.327508,0.9998304
C0FB30,八仙山苗圃,2025-12-10,24.192719,121.001366,4.341016e-09
C1O880,關山,2025-12-10,23.173397,120.594092,1.1326118e-09
C0E791,卓蘭,2025-12-10,24.3126,120.8244,2.67672e-08
C1I030,武界,2025-12-10,23.913225,121.052483,1.0912516e-09
C0R520,崁頂,2025-12-10,22.514781,120.506914,0.999114
C0R341,牡丹,2025-12-10,22.130036,120.792639,0.99961424
C0R930,萬丹,2025-12-10,22.5885,120.4851,0.99657035
C0S760,紅石,2025-12-10,23.069131,121.126219,2.6567509e-08
C2C410,中央大學,2025-12-10,24.967652,121.185165,0.99228746
C1M610,石磐龍,2025-12-10,23.496606,120.663506,1.6398883e-09
C0C790,東眼山,2025-12-10,24.8284,121.40888,1.9397651e-08
C0UA10,鴛鴦湖,2025-12-10,24.590269,121.412228,1.2199459e-08
V2C260,八德蔬果,2025-12-10,24.978508,121.281819,0.995007
C0R800,丹路,2025-12-10,22.204481,120.750989,0.9944119
C0G920,永靖,2025-12-10,23.924703,120.547533,0.9966046
C2M950,太和,2025-12-10,23.538372,120.702961,2.3051003e-09
C1A630,下盆,2025-12-10,24.771003,121.538622,2.3800794e-08
B2N890,畜產試驗所,2025-12-10,23.058972,120.336406,0.9997424
C0UA30,白嶺,2025-12-10,24.527819,121.519031,1.6975727e-08
C1V580,溪南(特生中心),2025-12-10,23.084972,120.788475,5.3919194e-09
C1T970,大農,2025-12-10,23.615233,121.413331,4.8356554e-09
C0R650,竹田,2025-12-10,22.58486,120.54344,0.99945533
C1H900,清流,2025-12-10,24.080775,120.962997,1.4877879e-09
C1C510,水尾,2025-12-10,24.940081,121.087161,0.9973689
C2N170,茅港尾,2025-12-10,23.2061,120.2624,0.9997392
C0F9X0,大雅(中科園區),2025-12-10,24.21528,120.62445,0.9683289
C0SB60,白守蓮,2025-12-10,23.126769,121.401914,1.5787912e-06
C0O970,虎頭埤,2025-12-10,23.021375,120.347878,0.9988164
C0C730,中大臨海站,2025-12-10,24.966126,121.008581,0.9986941
C0X250,新營,2025-12-10,23.310689,120.316681,0.99976194
C0V700,三民,2025-12-10,22.645017,120.311233,0.9999129
C0U870,大礁溪,2025-12-10,24.791042,121.675047,1.1462954e-08
C0E870,高鐵苗栗,2025-12-10,24.60725,120.826094,0.9991434
A2K570,古坑花卉中心,2025-12-10,23.63353,120.55239,0.90108
C0TA30,鹽寮,2025-12-10,23.845606,121.592664,1.0018994e-08
C0M860,新美,2025-12-10,23.338017,120.683169,1.2298794e-09
C1E701,八卦,2025-12-10,24.491756,120.927619,1.1792679e-08
C2TA90,加納納,2025-12-10,23.466421,121.359867,6.436761e-09
C0I420,國姓,2025-12-10,24.037803,120.855072,1.5315857e-08
C2D720,關西工作站,2025-12-10,24.757275,121.184792,0.85859793
C0S960,香蘭,2025-12-10,22.587569,120.993375,0.017633036
467620,蘭嶼,2025-12-10,22.0369,121.55843,0.57094854
C0R260,春日,2025-12-10,22.370361,120.628306,0.999092
72G600,臺中農改場,2025-12-10,24.003028,120.534389,0.9953642
C0Z210,瑞穗,2025-12-10,23.5239,121.39021,6.9402186e-09
C0M820,達邦,2025-12-10,23.453994,120.749517,1.4611197e-09
C0V860,南寮,2025-12-10,22.7616,120.2339,0.9999429
C0G740,大城,2025-12-10,23.852487,120.320935,0.99743617
C0R920,塭仔,2025-12-10,22.4169,120.5197,0.99957246
C0R470,高樹,2025-12-10,22.826389,120.600806,0.05520236
C0R680,佳樂水,2025-12-10,21.993578,120.861633,0.4369867
C1O870,大棟山,2025-12-10,23.31157,120.52226,4.2144364e-09
C0D360,梅花,2025-12-10,24.678347,121.208558,5.9891704e-08
C0Z190,富世,2025-12-10,24.14743,121.6297,1.705228e-08
C0AI10,屈尺,2025-12-10,24.92184,121.54475,0.996475
B2U990,畜試東區分所,2025-12-10,24.669039,121.832561,5.1379624e-07
C0SB80,長濱漁港,2025-12-10,23.313644,121.459994,7.694326e-08
C0TA50,和仁,2025-12-10,24.241394,121.712472,9.0978975e-09
C0V910,大樹,2025-12-10,22.684645,120.432803,0.90125006
C1R610,西大武山,2025-12-10,22.617719,120.7322,2.6368655e-08
C0G900,線西,2025-12-10,24.143358,120.443536,0.99998194
C0M700,竹崎,2025-12-10,23.526178,120.555508,0.79899585
C2E880,三義,2025-12-10,24.405478,120.749819,5.67109e-09
C0C720,竹圍,2025-12-10,25.112692,121.239824,0.99906814
C0F9P0,清水,2025-12-10,24.312297,120.562242,0.9999461
C0Z150,吉安光華,2025-12-10,23.930925,121.595153,1.5097976e-08
C0FA80,小雪山天池,2025-12-10,24.28025,121.02627,1.882489e-08
467300,東吉島,2025-12-10,23.25727,119.66762,0.9692861
C1D640,外坪(五指山),2025-12-10,24.644447,121.090961,1.6959998e-08
C0F9O0,潭子,2025-12-10,24.213106,120.703933,0.7798689
C2H9R0,卓社,2025-12-10,23.887894,121.000086,1.7542032e-09
72T250,花蓮農改場,2025-12-10,23.975222,121.563889,2.2606805e-08
C0E780,銅鑼,2025-12-10,24.489681,120.790853,0.33617288
C1T950,太安,2025-12-10,23.666719,121.370128,6.720189e-09
C0E830,苑裡,2025-12-10,24.439714,120.653053,0.99995774
467270,田中,2025-12-10,23.873803,120.581286,0.6217816
C0SA10,檳榔四格山,2025-12-10,22.810031,121.109308,1.4548107e-08
C1T830,布洛灣,2025-12-10,24.17184,121.57127,1.6947904e-08
C0F970,大坑,2025-12-10,24.173142,120.722289,0.9969344
C1U920,思源,2025-12-10,24.393125,121.347214,1.1421227e-08
C2H9Y0,松茗,2025-12-10,23.8167,120.650765,3.4874323e-09
C0A931,三和,2025-12-10,25.233153,121.595236,0.9952186
C0I010,廬山,2025-12-10,24.033311,121.181808,3.3641072e-09
C2M940,日野賀,2025-12-10,23.434056,120.727169,1.8774788e-09
C0R860,鼻頭,2025-12-10,22.1043,120.8979,0.8025536
C0UB20,壯圍,2025-12-10,24.7359,121.8163,0.00029269455
C0R790,九棚,2025-12-10,22.14195,120.889281,0.9996711
C0W110,東莒,2025-12-10,25.9652,119.98069,0.99161863
C1U930,粉鳥林,2025-12-10,24.497088,121.842479,1.5622346e-08
C1I211,蘆竹湳,2025-12-10,23.934019,120.811994,1.2656061e-09
C0S830,長濱,2025-12-10,23.286817,121.411975,1.9802847e-08
C1F9F1,伯公龍,2025-12-10,24.272392,120.849047,3.158285e-07
C0UB90,太平山莊,2025-12-10,24.494171,121.536209,2.3393838e-08
C0E810,西湖,2025-12-10,24.562947,120.7485,0.9995633
C1I440,新高口,2025-12-10,23.478744,120.878939,1.2372065e-08
C0O840,王爺宮,2025-12-10,23.222064,120.40085,9.618906e-08
C0T9G0,鳳林山,2025-12-10,23.735269,121.420131,1.0669354e-08
C0X080,佳里,2025-12-10,23.173039,120.145086,0.9998624
C0FB70,大甲溪埔,2025-12-10,24.370625,120.620067,0.9999098
C0Z310,清水斷崖,2025-12-10,24.218294,121.689142,7.7792475e-09
C0M680,太保,2025-12-10,23.455062,120.331455,0.9998422
C1S820,金峰,2025-12-10,22.590969,120.933236,1.2462425e-05
C0AD10,八里,2025-12-10,25.150211,121.403947,0.99906546
C2K240,草嶺,2025-12-10,23.59555,120.693461,1.6173429e-09
C1SA70,都蘭,2025-12-10,22.87794,121.226881,1.5426261e-07
C0K440,二崙,2025-12-10,23.772797,120.408944,0.7960357
C1A760,坪林交控,2025-12-10,24.94284,121.713442,2.1654257e-06
C0F9N0,大里,2025-12-10,24.092464,120.701378,0.06092629
C0SA90,達仁林場,2025-12-10,22.264347,120.823972,2.700381e-06
C1R290,石門山,2025-12-10,22.112611,120.756597,0.9959561
42HA10,萬大發電廠,2025-12-10,23.978875,121.139639,1.5378874e-09
C0R890,山海,2025-12-10,21.9878,120.7091,0.60399806
C0T9A0,月眉山,2025-12-10,23.809928,121.539828,7.1343367e-09
C0AC70,信義,2025-12-10,25.037822,121.564597,0.9992821
C0K560,棋山,2025-12-10,23.68645,120.603417,0.7511147
C2FB50,出雲,2025-12-10,24.206469,120.902794,1.7434426e-09
C1Z240,中平林道,2025-12-10,23.42115,121.26763,1.1462888e-08
U2H480,溪頭,2025-12-10,23.670306,120.798194,1.7557598e-09
C0M880,好美里,2025-12-10,23.3364,120.138,0.99980664
C0T9E0,大坑,2025-12-10,23.880628,121.581981,7.280046e-09
C0K530,臺西,2025-12-10,23.701547,120.197559,0.9999789
C1E900,國一N128K,2025-12-10,24.560997,120.844186,0.91522604
C0AJ50,水湳洞,2025-12-10,25.123695,121.862238,0.99742573
C0AI20,白沙灣,2025-12-10,25.283128,121.519058,0.9988623
C2V310,美濃,2025-12-10,22.898792,120.51907,0.9998296
C0A860,大坪,2025-12-10,25.165914,121.632969,5.8771e-07
C1U850,觀音海岸,2025-12-10,24.38319,121.77856,1.071334e-08
C2K610,草嶺石壁,2025-12-10,23.602469,120.707731,1.6825533e-09
C0U950,鶯子嶺,2025-12-10,24.89754,121.79244,2.0832406e-08
C0O900,善化,2025-12-10,23.112883,120.297219,0.9998041
C0K550,蔦松,2025-12-10,23.514319,120.229736,0.99990255
E2P980,林試六龜中心,2025-12-10,22.991703,120.645722,2.194953e-09
C0E590,通霄,2025-12-10,24.471892,120.704622,0.9995615
C1I310,西巒,2025-12-10,23.754486,120.883956,1.3935242e-09
C0A550,泰平,2025-12-10,24.971197,121.823711,1.4911545e-07
C0I360,水里,2025-12-10,23.812553,120.849792,1.3310379e-08
C0R830,高士,2025-12-10,22.121825,120.836781,0.9993404
C1I101,溪頭,2025-12-10,23.661789,120.807647,5.0331317e-09
C0AJ20,野柳,2025-12-10,25.20703,121.690021,0.99834365
C0B060,暖暖,2025-12-10,25.0957,121.7403,0.9979778
C1H920,長豐,2025-12-10,24.102039,120.879897,1.4155068e-09
C0V360,內門,2025-12-10,22.975481,120.466769,0.037426222
C0R850,林邊,2025-12-10,22.4634,120.5339,0.9995495
C0E930,龍鳳,2025-12-10,24.700034,120.859125,0.99851966
C0U910,冬山,2025-12-10,24.63373,121.7937,5.1379624e-07
C1E721,泰安,2025-12-10,24.489017,120.968036,3.733136e-09
82H320,茶改中部分場,2025-12-10,23.875611,120.913583,1.1068898e-09
C0M750,布袋,2025-12-10,23.380878,120.167789,0.9998552
C1S860,利嘉,2025-12-10,22.809417,121.050528,2.8346474e-08
E2S980,林試太麻里1,2025-12-10,22.598922,120.980044,0.00089916924
C0X170,關廟,2025-12-10,22.963017,120.327797,0.99953663
C0V720,林園,2025-12-10,22.507747,120.394511,0.9985297
C1I510,線浸林道,2025-12-10,23.761508,120.832956,1.6229175e-09
C0D690,外湖,2025-12-10,24.917735,120.968711,0.9990627
C0C750,新興坑尾,2025-12-10,25.0061,121.0971,0.99810797
B2Q810,畜試南區分所,2025-12-10,21.945583,120.802167,0.49026787
C0S790,金崙,2025-12-10,22.538122,120.966875,3.6086433e-06
C0AH90,福山植物園,2025-12-10,24.760717,121.58135,1.7424362e-08
C0I540,奇萊稜線,2025-12-10,24.109231,121.326456,2.0695929e-08
C0M850,表湖,2025-12-10,23.24186,120.64166,9.816794e-10
C0S770,大溪山,2025-12-10,22.478475,120.943325,4.012956e-07
C0AG80,中和,2025-12-10,24.991622,121.491792,0.99902594
C0T790,大禹嶺,2025-12-10,24.186117,121.316086,1.5665641e-08
C0T9B0,水源,2025-12-10,23.991861,121.537169,1.6638213e-08
C0R840,牡丹池山,2025-12-10,22.168389,120.841225,9.351026e-06
C1I131,桶頭,2025-12-10,23.641944,120.654117,7.994774e-09
CAL110,布袋國中,2025-12-10,23.35893,120.18026,0.99977523
467571,新竹,2025-12-10,24.827853,121.014219,0.9838835
C0Z290,赤柯山,2025-12-10,23.36893,121.38293,1.6339914e-08
C0X280,將軍,2025-12-10,23.214999,120.13577,0.99981576
C0S690,太麻里,2025-12-10,22.60902,120.98533,1.6150602e-07
C0U880,北關,2025-12-10,24.9072,121.8734,0.9937368
CAW010,東引,2025-12-10,26.3588,120.4836,0.9995885
C0G810,埔心,2025-12-10,23.947633,120.525456,0.9971472
C0U970,大福,2025-12-10,24.80064,121.81389,0.0032877142
C2H9N0,仁愛東眼,2025-12-10,24.026875,121.1205,2.8550862e-09
C1E670,南礦,2025-12-10,24.538278,121.002836,3.2611456e-09
C0M520,東後寮,2025-12-10,23.369908,120.248065,0.9997554
C1E461,松安,2025-12-10,24.397972,120.986022,3.2115968e-09
C2N160,西拉雅風管處,2025-12-10,23.189481,120.335297,0.99975
C2M970,碧湖,2025-12-10,23.568632,120.624165,1.433362e-09
C0A640,石碇,2025-12-10,24.993969,121.662917,6.601612e-06
E2S960,林試太麻里2,2025-12-10,22.598,120.99775,0.024217935
C0F9Y0,桃山,2025-12-10,24.432739,121.303808,2.5282809e-08
C1I020,萬大,2025-12-10,23.979817,121.132261,1.5853227e-09
C2UC20,長嶺,2025-12-10,24.70894,121.61162,1.2363833e-08
C0U940,羅東,2025-12-10,24.68184,121.74934,0.00017701213
C0M650,朴子,2025-12-10,23.43463,120.23902,0.9998155
C1I500,大尖山,2025-12-10,23.858572,120.994889,6.8577277e-09
C0FB40,中橫21.6k,2025-12-10,24.2499,121.1455,5.842222e-09
C0G820,田尾,2025-12-10,23.901669,120.509389,0.99713016
E2K600,四湖植物園,2025-12-10,23.676986,120.163433,0.99997544
C0S730,綠島,2025-12-10,22.6672,121.47533,0.9959486
12Q970,東港工作站,2025-12-10,22.479997,120.466058,0.99958634
C0E430,南庄,2025-12-10,24.601775,121.000214,0.63535625
C1TA00,太魯閣,2025-12-10,24.15773,121.6236,1.538604e-08
466920,臺北,2025-12-10,25.037658,121.514853,0.99926
C0R600,舊泰武,2025-12-10,22.588194,120.664944,1.8704696e-09
C1I260,北坑,2025-12-10,23.9246,121.006903,1.2360148e-09
466910,鞍部,2025-12-10,25.182586,121.529731,6.138946e-08
C1I230,九份二山,2025-12-10,23.961944,120.845,9.912337e-10
C2A660,瑞芳,2025-12-10,25.113169,121.801147,0.99645096
C0R270,琉球嶼,2025-12-10,22.332244,120.362236,0.98493063
C1T990,高寮,2025-12-10,23.394239,121.356808,6.8266415e-09
C0G620,芬園,2025-12-10,24.015678,120.6213,0.83987224
C1Z140,荖溪,2025-12-10,23.890575,121.45964,2.7935174e-08
C1I201,中心崙,2025-12-10,23.728722,120.712097,1.9400677e-09
C1I400,凌霄,2025-12-10,24.018778,121.004456,2.7382516e-09
C1M640,十字,2025-12-10,23.492153,120.753683,3.2407392e-09
G2P820,農試鳳山分所,2025-12-10,22.646611,120.356083,0.9999028
C0Z270,蕃薯寮,2025-12-10,23.73835,121.540108,7.2709425e-09
C0FB10,出雲山苗圃,2025-12-10,24.23105,120.90475,4.300076e-09
C0F9Q0,外埔,2025-12-10,24.347817,120.705686,0.2002264
C0K580,高鐵雲林,2025-12-10,23.737456,120.417944,0.8754518
C2I090,鳳凰,2025-12-10,23.728081,120.787347,1.1840388e-09
C0U990,員山,2025-12-10,24.74435,121.72247,0.00020699779
C0V770,大社,2025-12-10,22.730306,120.346639,0.99993235
C0X120,麻豆,2025-12-10,23.183289,120.248611,0.99972427
C0C670,龍潭,2025-12-10,24.870056,121.221389,0.55878013
C0D680,香山濕地,2025-12-10,24.783581,120.914988,0.98595196
C0S980,勝林山,2025-12-10,22.430439,120.8938,4.1871406e-08
C0V730,大寮,2025-12-10,22.605614,120.395717,0.9995152
C0R570,麟洛,2025-12-10,22.65078,120.52719,0.05784523
C2M930,石卓,2025-12-10,23.478744,120.702264,3.7704755e-09
C0G9B0,和美,2025-12-10,24.105169,120.492131,0.9999278
CAG100,王功漁港,2025-12-10,23.96824,120.32586,0.9967395
C0X290,北門,2025-12-10,23.267772,120.125481,0.999816
C2F930,大甲,2025-12-10,24.347667,120.640403,0.9996461
C0D650,湖口,2025-12-10,24.904794,121.043628,0.9975413
C0E420,竹南,2025-12-10,24.708978,120.888897,0.9946142
C0U780,五結,2025-12-10,24.68637,121.79794,0.00029269455
C1I250,鯉潭,2025-12-10,23.961922,120.991131,2.4383287e-09
C0R130,阿禮,2025-12-10,22.742908,120.743678,3.2605236e-09
C0X100,臺南市北區,2025-12-10,23.010394,120.194228,0.99989134
C0S920,金峰嘉蘭,2025-12-10,22.594789,120.960825,0.0008117194
C0V490,新興,2025-12-10,22.627422,120.298803,0.999881
C0F9K0,大安,2025-12-10,24.345061,120.588025,0.9999242
467290,古坑,2025-12-10,23.633639,120.551889,0.90108
C2E970,八甲,2025-12-10,24.535811,120.795983,0.54131985
C0V440,鳳山,2025-12-10,22.646653,120.356122,0.9999028
C1T940,大觀,2025-12-10,23.714206,121.373133,7.3382918e-09
C0E740,造橋,2025-12-10,24.637056,120.864778,0.9963819
C0R100,尾寮山,2025-12-10,22.833111,120.683889,3.1650216e-09
A2K630,臺大雲林校區,2025-12-10,23.730628,120.423903,0.8747715
467990,馬祖,2025-12-10,26.169467,119.923158,4.7662024e-08
C0D580,寶山,2025-12-10,24.735006,121.025192,0.8945106
E2P990,林試扇平站,2025-12-10,22.9677,120.6857,1.5060952e-09
C0AI30,三重,2025-12-10,25.057328,121.500629,0.9993337
C0AH00,汐止,2025-12-10,25.066881,121.658778,0.99926
C1Z040,立山,2025-12-10,23.443356,121.327375,1.4135542e-08
466881,新北,2025-12-10,24.959207,121.525196,0.998862
C0W130,花嶼,2025-12-10,23.40007,119.32276,0.9970098
C0A950,鼻頭角,2025-12-10,25.129036,121.923372,0.80104613
C0K470,林內,2025-12-10,23.748675,120.609642,0.6651697
C2F990,摩天嶺,2025-12-10,24.322458,120.936819,1.4952328e-09
82C160,茶改場,2025-12-10,24.908472,121.185333,0.9833418
C0Z320,清水林道,2025-12-10,23.27125,121.188272,1.5042243e-08
C0R760,南仁湖,2025-12-10,22.084681,120.863353,0.99598324
C0M670,大林,2025-12-10,23.600616,120.45841,0.99980253
C0M800,茶山,2025-12-10,23.299075,120.664767,1.2766666e-09
C0A9C0,天母,2025-12-10,25.117494,121.537169,0.99843246
72K220,南改斗南分場,2025-12-10,23.634556,120.477333,0.9408001
72AI40,桃改樹林分場,2025-12-10,24.944503,121.386972,0.9975832
C0S910,蘭嶼燈塔,2025-12-10,22.081197,121.503117,0.98831636
C0B050,八斗子,2025-12-10,25.144754,121.79167,0.99757534
C0U900,內城,2025-12-10,24.71813,121.68766,6.3019e-05
C0X320,柳營,2025-12-10,23.253328,120.375253,0.9998429
C0M790,新港,2025-12-10,23.553269,120.345728,0.9998197
C0F9T0,西屯,2025-12-10,24.179494,120.641275,0.9984395
C0E950,松安,2025-12-10,24.39792,120.98599,3.2115968e-09
C0SA30,都歷,2025-12-10,23.020333,121.323642,4.605468e-08
C0C620,蘆竹,2025-12-10,25.084275,121.265767,0.9990623
C0R730,大坪頂,2025-12-10,22.024633,120.69355,0.49210104
C0AJ40,石門,2025-12-10,25.273672,121.601198,0.9990451
C0E750,苗栗,2025-12-10,24.564569,120.824575,0.9338307
C0T870,鯉魚潭,2025-12-10,23.935639,121.508944,1.082058e-08
C1V170,排雲,2025-12-10,23.463619,120.954147,2.4587338e-08
C2H950,中寮,2025-12-10,23.884447,120.766406,0.9765671
C0R350,貓鼻頭,2025-12-10,21.921774,120.7358,0.9874524
C0V660,岡山,2025-12-10,22.797078,120.294958,0.9999496
C1H941,雙冬,2025-12-10,23.967378,120.802189,1.2316024e-09
C0AJ70,田寮,2025-12-10,25.2698,121.4886,0.9988465
C0AI00,五股,2025-12-10,25.07445,121.42728,0.9937069
C0Z280,德武,2025-12-10,23.47426,121.41071,6.69731e-09
C2RA10,大新,2025-12-10,22.67558,120.57788,0.68153065
C0R700,枋山,2025-12-10,22.246844,120.661086,0.99959695
C0C460,復興,2025-12-10,24.820208,121.352281,1.6326509e-07
C2K300,鹿南,2025-12-10,23.63855,120.3636,0.9998329
E2H360,蓮華池,2025-12-10,23.918333,120.885278,1.207507e-09
C0M640,中埔,2025-12-10,23.42538,120.5229,0.54733723
C0W140,金沙,2025-12-10,24.488292,118.408778,0.00038571432
C2A540,四堵,2025-12-10,24.8926,121.745736,4.483492e-07
C0ACA0,新莊,2025-12-10,25.051478,121.446756,0.99904203
C0R220,潮州,2025-12-10,22.534361,120.54,0.9990123
U2HA40,臺大內茅埔,2025-12-10,23.689722,120.851117,1.6986536e-09
467490,臺中,2025-12-10,24.145736,120.684075,0.99988663
C0UB60,明池,2025-12-10,24.650688,121.475277,1.816702e-08
C0U960,翠峰湖,2025-12-10,24.510856,121.608044,2.3353136e-08
E2HA20,林試畢祿溪站,2025-12-10,24.226944,121.308522,1.2975858e-08
C0V890,前鎮,2025-12-10,22.5718,120.3117,0.9998883
C1F941,雪嶺,2025-12-10,24.280586,121.026642,1.882489e-08
C2H9E0,國姓南港,2025-12-10,23.911108,120.846556,1.5463938e-09
C0AC80,文山,2025-12-10,25.00235,121.575728,0.9987103
C0F9R0,龍井,2025-12-10,24.184536,120.528972,0.99997646
C0M760,民雄,2025-12-10,23.551754,120.428457,0.99981034
C0UA40,西德山,2025-12-10,24.560647,121.752608,1.7826448e-08
C2TA70,赤科坪,2025-12-10,23.39885,121.39168,1.6278632e-08
C1T920,中興,2025-12-10,23.769503,121.498653,8.137822e-09
C0D550,雪霸,2025-12-10,24.526972,121.11605,8.58002e-09
C2F860,梨山,2025-12-10,24.247522,121.243669,1.3300963e-08
C0R320,車城,2025-12-10,22.0744,120.716247,0.32254043
C1S870,南美山,2025-12-10,23.15025,121.382333,2.4991543e-08
C0B020,基隆嶼,2025-12-10,25.19141,121.78391,0.9996063
C1U501,牛鬥,2025-12-10,24.637836,121.573656,1.18122124e-07
C0M730,嘉義市東區,2025-12-10,23.457673,120.460531,0.99989843
C2R990,泰武,2025-12-10,22.60686,120.69765,7.052093e-09
C0S700,知本,2025-12-10,22.684866,121.005642,4.4866486e-08
C1N001,沙崙,2025-12-10,22.935472,120.309406,0.9996591
C0V760,橋頭,2025-12-10,22.757806,120.30575,0.99993885
C0G960,福寶,2025-12-10,24.0443,120.3814,0.9999358
C0X210,白河,2025-12-10,23.347466,120.414427,0.9998523
C0S810,東河,2025-12-10,22.972672,121.303986,4.476875e-06
C2R170,屏東,2025-12-10,22.66027,120.49403,0.059237864
C0R670,楓港,2025-12-10,22.190131,120.692156,0.9996716
C0FA50,霧峰,2025-12-10,24.0419,120.6995,0.9949409
C0UB10,蘇澳,2025-12-10,24.5969,121.8571,8.859068e-09
C0G950,防潮門,2025-12-10,24.1835,120.4871,0.9999768
C0M740,六腳,2025-12-10,23.492871,120.290625,0.9998318
C1R250,力里,2025-12-10,22.428117,120.629228,0.9993287
C0K330,虎尾,2025-12-10,23.719183,120.442036,0.83051664
C2FA00,烏石坑,2025-12-10,24.273503,120.947617,1.4649231e-09
C0V620,永安,2025-12-10,22.82315,120.236856,0.9999496
C1I330,楓樹林,2025-12-10,23.986803,121.076117,2.0584507e-09
C0W200,湖西,2025-12-10,23.596314,119.67275,0.96570235
72Q010,高雄農改場,2025-12-10,22.709333,120.525889,0.17642488
C0SA40,瑞和,2025-12-10,22.974361,121.156697,1.9577813e-08
C0C680,龜山,2025-12-10,25.02846,121.38656,1.0648003e-05
C2V260,月眉,2025-12-10,22.971003,120.539853,0.0032231153
C0V450,鳳森,2025-12-10,22.545064,120.392592,0.9949488
C0FA90,小雪山林道,2025-12-10,24.29515,121.03651,2.3621295e-08
C0U720,南山,2025-12-10,24.43742,121.38167,1.3567493e-08
A2N290,臺南蘭花園區,2025-12-10,23.340258,120.379661,0.99982715
C0R560,新園,2025-12-10,22.5434,120.461558,0.9985297
C0U890,三星,2025-12-10,24.66812,121.65302,8.3276205e-07
C1V300,御油山,2025-12-10,23.001983,120.715364,5.0841917e-09
C0U600,礁溪,2025-12-10,24.817539,121.765608,0.0018906533
C1T980,龍澗,2025-12-10,24.023289,121.411328,3.2920138e-08
C0D670,海天一線,2025-12-10,24.831986,120.914438,0.9990617
C0SA00,歷坵,2025-12-10,22.520969,120.89185,1.202673e-07
C0M710,東石,2025-12-10,23.458927,120.15385,0.9999337
C0M780,鹿草,2025-12-10,23.41134,120.30835,0.99979943
C0U520,雙連埤,2025-12-10,24.753033,121.641303,1.1368912e-08
C0B010,七堵,2025-12-10,25.094819,121.71713,0.9983903
C0R480,長治,2025-12-10,22.693128,120.542622,0.7423473
C1V830,國三S383K,2025-12-10,22.781967,120.426475,0.018735982
12Q980,恆春工作站,2025-12-10,22.079678,120.714425,0.32271367
C1O940,東山服務區,2025-12-10,23.286016,120.398472,0.9998365
C1U840,東澳嶺,2025-12-10,24.5378,121.8485,1.637926e-08
C1D630,飛鳳山,2025-12-10,24.766464,121.119178,8.478867e-08
C0S940,石寧山,2025-12-10,23.223772,121.406639,5.0303026e-08
C0K410,北港,2025-12-10,23.573957,120.292802,0.9998647
C2M620,瑞里,2025-12-10,23.545133,120.675197,1.9963597e-09
C0SB70,小港漁港,2025-12-10,23.158558,121.400431,3.3423288e-07
C2O950,安南,2025-12-10,23.076694,120.144861,0.9999097
C0F0E0,南湖圈谷,2025-12-10,24.363714,121.444667,4.057534e-08
467610,成功,2025-12-10,23.097486,121.373428,7.1962353e-07
C0G890,伸港,2025-12-10,24.148933,120.484403,0.9999815
C2E540,龍溪,2025-12-10,24.606489,120.783933,0.99920213
C1V200,梅山,2025-12-10,23.268447,120.823556,1.7203691e-09
C0T9H0,加路蘭山,2025-12-10,23.682947,121.5274,1.2863195e-08
C2O930,玉井,2025-12-10,23.126042,120.46055,0.9998469
C1F911,新伯公,2025-12-10,24.221361,120.841069,9.219113e-08
C0R490,九如,2025-12-10,22.7405,120.490503,0.19754721
C0X200,左鎮,2025-12-10,23.056758,120.408522,0.9997413
C0FA60,鞍馬山工作站,2025-12-10,24.267064,121.000793,1.1129237e-08
C0SB50,叭嗡嗡,2025-12-10,23.047062,121.343223,1.0017392e-07
C1F891,稍來,2025-12-10,24.265689,121.001142,1.0741105e-08
72N240,七股研究中心,2025-12-10,23.081672,120.062894,0.999919
C0C700,中壢,2025-12-10,24.977661,121.256375,0.99366087
C0M690,水上,2025-12-10,23.419734,120.388909,0.99983156
C0V690,鼓山,2025-12-10,22.623325,120.275575,0.999881
C0O860,大內,2025-12-10,23.11885,120.36083,0.9997582
C0Z200,萬榮,2025-12-10,23.709219,121.420106,7.93887e-09
C0T9D0,和中,2025-12-10,24.26676,121.74103,6.7733095e-09
C1O921,楠西,2025-12-10,23.183511,120.484083,0.9966361
C0AJ30,淡水觀海,2025-12-10,25.184591,121.408616,0.9986926
C0V810,左營,2025-12-10,22.67491,120.28491,0.9999125
C0UA70,桃源谷,2025-12-10,24.962606,121.888875,1.6215385e-08
C0X130,官田,2025-12-10,23.193217,120.315422,0.9997765
C1H000,翠峰,2025-12-10,24.109397,121.205211,9.528515e-09
C0UA90,石城,2025-12-10,24.980444,121.951214,0.0009588805
C1E681,南勢山,2025-12-10,24.421669,120.923831,5.5545843e-09
C0A9F0,內湖,2025-12-10,25.079422,121.57545,0.99926
C0K291,宜梧,2025-12-10,23.536281,120.169329,0.9999026
C1K540,口湖,2025-12-10,23.585344,120.180517,0.99997574
C0R780,滿州,2025-12-10,22.024403,120.839892,0.1426642
C0V870,文安,2025-12-10,22.8025,120.2164,0.99995375
C0U650,玉蘭,2025-12-10,24.675286,121.587061,1.2476475e-08
C0R640,東港,2025-12-10,22.46247,120.44074,0.9995864
C0AJ80,板橋,2025-12-10,25.0107,121.4489,0.999062
C0S660,下馬,2025-12-10,23.150427,121.070312,1.3625999e-08
C1H9B1,阿眉,2025-12-10,24.1263,120.994672,8.244276e-09
C0UA20,多加屯,2025-12-10,24.368614,121.373189,1.5776617e-08
C0E730,頭份,2025-12-10,24.688247,120.912206,0.99642056
72V140,高改旗南分場,2025-12-10,22.857861,120.516667,0.38919184
C0K480,莿桐,2025-12-10,23.761192,120.502372,0.63690823
C0U980,坪林石牌,2025-12-10,24.86478,121.77396,1.1614723e-08
C0T900,西林,2025-12-10,23.8119,121.441458,7.2591644e-09
C1I150,青雲,2025-12-10,23.793361,120.949378,1.7426447e-09
C2E980,和興,2025-12-10,24.505319,120.923016,1.9247432e-08
467350,澎湖,2025-12-10,23.565503,119.563094,0.98612946
C0G800,埔鹽,2025-12-10,24.000394,120.431683,0.9999053
C0H960,草屯,2025-12-10,23.973672,120.68085,0.98869884
C1V780,多納林道,2025-12-10,22.888028,120.737917,2.3107085e-09
C0E920,通霄漁港,2025-12-10,24.498589,120.673876,0.99940115
C0Z330,安通山,2025-12-10,23.290728,121.348528,1.17081855e-08
C0AH10,永和,2025-12-10,25.01125,121.508111,0.9990631
C0AK10,太平里,2025-12-10,25.134937,121.364899,0.9990664
C2G640,鹿港,2025-12-10,24.0753,120.430481,0.99993575
C1E890,國三N149K,2025-12-10,24.463414,120.680019,0.99983275
C1R110,口社,2025-12-10,22.770111,120.645222,0.03247758
C1M870,國三N285K,2025-12-10,23.550319,120.505833,0.96007115
C1E480,鳳美,2025-12-10,24.554803,121.034747,2.3375597e-08
C0M530,奮起湖,2025-12-10,23.493903,120.699253,2.3480282e-09
C0C590,觀音,2025-12-10,25.027072,121.153317,0.9991365
C0T9M0,靜浦,2025-12-10,23.455167,121.495028,8.3284215e-09
C2H9M0,發祥,2025-12-10,24.154094,121.164517,3.8503307e-09
C0AI40,石牌,2025-12-10,25.115597,121.513139,0.99847776
C1F871,上谷關,2025-12-10,24.203483,121.018644,1.5850959e-09
C2H9G0,百勝,2025-12-10,24.051142,120.909361,5.246842e-09
C0G880,二水,2025-12-10,23.810742,120.6173,0.3303335
C0R940,加祿堂,2025-12-10,22.3363,120.6217,0.9997741
C0W220,北竿,2025-12-10,26.220358,119.974881,5.0368317e-07
C0O960,崎頂,2025-12-10,22.959547,120.369317,0.99623716
C0TA40,秀林,2025-12-10,24.302864,121.731144,1.6536434e-08
C0S750,向陽,2025-12-10,23.248397,120.986133,1.07912514e-08
C0T9F0,水璉,2025-12-10,23.797131,121.542514,6.992157e-09
C1M600,頭凍,2025-12-10,23.406364,120.603339,1.5657239e-09
467660,臺東,2025-12-10,22.752211,121.154586,3.8872793e-05
C1D380,新埔,2025-12-10,24.84745,121.03834,0.9859422
C2G980,田頭村,2025-12-10,23.8263,120.444175,0.7970863
C0V750,路竹,2025-12-10,22.854997,120.259439,0.9999247
C0N050,蚵寮,2025-12-10,23.301,120.1104,0.99980676
C2X060,下營,2025-12-10,23.226806,120.256291,0.9997392
72M700,南改鹿草分場,2025-12-10,23.416869,120.283061,0.9998151
C1SA50,利嘉林道,2025-12-10,22.82325,121.009389,1.3199065e-08
C0UB70,太平山中間站,2025-12-10,24.542003,121.513453,1.5521895e-08
C0A940,金山,2025-12-10,25.223628,121.643967,0.9982412
C1V340,大津,2025-12-10,22.888322,120.645986,0.05817646
C0W180,七美,2025-12-10,23.219333,119.444892,0.9730054
C1F9C1,白冷,2025-12-10,24.182844,120.929889,8.249735e-09
K2E710,苗改生物防治研究中心,2025-12-10,24.422861,120.871833,0.36694023
C0N040,蘆竹溝,2025-12-10,23.2344,120.0961,0.99981606
C0TB40,崇德,2025-12-10,24.166144,121.657414,2.0157367e-08
C0D760,大坪苗圃,2025-12-10,24.5362,121.1108,3.963653e-09
C2W230,畜試所澎湖,2025-12-10,23.628342,119.513206,0.99715835
C0R880,後壁湖,2025-12-10,21.9457,120.7457,0.6465823
C1I280,埔中,2025-12-10,23.820778,120.642594,3.3314398e-09
467790,墾丁雷達站,2025-12-10,21.948235,120.808028,0.3282414
C0W190,望安,2025-12-10,23.380564,119.494075,0.9893011
C0Z170,卓溪,2025-12-10,23.3443,121.3029,2.3261958e-08
C0F850,東勢,2025-12-10,24.246428,120.833047,2.5079071e-08
466900,淡水,2025-12-10,25.164889,121.448906,0.9990667
C0I370,魚池,2025-12-10,23.895703,120.94135,1.1603691e-09
C0C630,大溪,2025-12-10,24.882853,121.265547,0.9720334
C0A520,山佳,2025-12-10,24.974944,121.402008,0.9983018
C0I110,竹山,2025-12-10,23.761225,120.688156,0.023815528
82H840,茶改南部分場,2025-12-10,23.762528,120.7405,3.2511174e-08
C0G660,溪湖,2025-12-10,23.94835,120.479122,0.9976248
C1T800,洛韶,2025-12-10,24.204558,121.453956,2.4095915e-08
C1T810,慈恩,2025-12-10,24.192044,121.388386,7.616745e-09
C1E451,象鼻,2025-12-10,24.368617,120.940228,6.4914287e-09
C0AC60,三峽,2025-12-10,24.939025,121.369728,0.99606144
C0I490,萬大林道,2025-12-10,23.928228,121.091411,3.2114866e-09
C1I290,豐丘,2025-12-10,23.668178,120.887417,1.9019228e-09
C1I320,奧萬大,2025-12-10,23.952956,121.178556,1.8092974e-09
C2M910,嘉義大學,2025-12-10,23.471325,120.485903,0.9695649
C0U770,南澳,2025-12-10,24.44935,121.81022,1.2655077e-08
C2TB30,吉安,2025-12-10,23.94538,121.54803,1.2701215e-08
C0A980,社子,2025-12-10,25.109508,121.469681,0.99907434
C0V800,六龜,2025-12-10,22.997889,120.633583,2.3047926e-09
C1G9D0,國一S218K,2025-12-10,23.890641,120.493253,0.99912155
C0E570,白沙屯,2025-12-10,24.549447,120.696803,0.9997766
C2F9A0,中竹林,2025-12-10,24.103556,120.751061,8.469973e-09
C0FA40,臺中電廠,2025-12-10,24.2146,120.4907,0.99997646
C2G9A0,畜試所彰化,2025-12-10,23.86045,120.557964,0.6228839
C0H9C0,合歡山,2025-12-10,24.143442,121.272547,2.4099913e-08
G2M350,農試溪口農場,2025-12-10,23.58565,120.408111,0.9998297
C0U860,頭城,2025-12-10,24.85323,121.8308,0.003055848
C0R580,南州,2025-12-10,22.48591,120.50274,0.9995864
C0D430,峨眉,2025-12-10,24.6905,121.017189,0.94870627
C0G780,秀水,2025-12-10,24.03405,120.503869,0.99553174
72N100,臺南農改場,2025-12-10,23.0605,120.342194,0.9997202
C0S900,蘭嶼高中,2025-12-10,22.04909,121.51214,0.99159545
C2TA60,六十石,2025-12-10,23.22477,121.31861,1.5677298e-08
C1F9W0,德基,2025-12-10,24.254783,121.190261,8.8834335e-09
C2M980,安和,2025-12-10,23.51377,120.31593,0.9998148
C1Z120,壽豐,2025-12-10,23.870853,121.508081,9.695067e-09
C0W160,烏坵,2025-12-10,24.9944,119.44956,0.9968436
C1I240,外大坪,2025-12-10,23.958697,120.917931,2.4390217e-09
C1I550,國六W023K,2025-12-10,23.979067,120.867742,5.156697e-09
C0R870,興海,2025-12-10,21.9752,120.8439,0.4904437
C0R140,瑪家,2025-12-10,22.682903,120.686639,1.5909022e-09
C0A530,坪林,2025-12-10,24.938183,121.70975,6.757549e-07
C0X260,後壁,2025-12-10,23.366358,120.362326,0.9996787
C0Z230,和平,2025-12-10,24.30717,121.77007,6.8872996e-09
C0G770,福興,2025-12-10,24.041289,120.437669,0.9999062
C0H9A0,神木村,2025-12-10,23.532742,120.843667,4.2394537e-09
C0I460,南投,2025-12-10,23.911469,120.687331,0.98673844
C0I480,梅峰,2025-12-10,24.085272,121.173572,7.1917734e-09
C1V570,吉東,2025-12-10,22.85422,120.5454,0.23675847
C2A560,福山,2025-12-10,24.776203,121.502811,5.057654e-08
C0AH30,五分山,2025-12-10,25.07125,121.780794,2.0872895e-08
C0FA10,松柏,2025-12-10,24.429115,120.617482,0.9999672
72S200,東改班鳩分場,2025-12-10,22.829528,121.077694,3.203804e-08
72HA00,中改埔里分場,2025-12-10,23.903208,120.963364,1.2152588e-09
C2H9W0,大坪頂農水,2025-12-10,24.043122,120.932781,1.4236486e-09
C0C650,平鎮,2025-12-10,24.897503,121.214636,0.97767067
C0S930,延平,2025-12-10,22.902581,121.084058,2.0939765e-08
C0UA60,樟樹山,2025-12-10,24.41393,121.78325,1.2937799e-08
C2UC10,出水溪,2025-12-10,24.615822,121.652253,1.0652944e-08
C1S670,摩天,2025-12-10,23.199503,121.027,2.6477009e-08
C0V630,茄萣,2025-12-10,22.906642,120.182608,0.99989843
466940,基隆,2025-12-10,25.133314,121.740475,0.9975442
C0X050,東河,2025-12-10,23.296598,120.385608,0.999861
C0R770,保力,2025-12-10,22.071122,120.764111,0.22397383
G2L020,農試嘉義分所,2025-12-10,23.485028,120.473806,0.9900309
C0X240,關子嶺,2025-12-10,23.331169,120.508025,1.0528206e-09
C0I380,集集,2025-12-10,23.828206,120.801467,1.6742884e-08
466990,花蓮,2025-12-10,23.975128,121.613275,2.484132e-08
C1V220,小關山,2025-12-10,23.154217,120.813603,6.909879e-09
C1F9G1,慶福山,2025-12-10,24.180853,120.848378,4.7810413e-09
C0FB20,雪山橋,2025-12-10,24.23192,120.9786,1.2878071e-08
C0Z250,瑞穗林道,2025-12-10,23.49284,121.30688,1.29086635e-08
C0D590,新豐,2025-12-10,24.87068,120.97721,0.99968916
C0A870,五指山,2025-12-10,25.132153,121.608692,5.53744e-08
C0UA50,西帽山,2025-12-10,24.555361,121.802628,1.6330848e-08
C2R980,竹田國中,2025-12-10,22.61532,120.52412,0.99943316
C0X160,仁德,2025-12-10,22.968258,120.257689,0.9998934
C1H971,六分寮,2025-12-10,23.92507,120.6378,5.7779146e-09
C0W120,西嶼,2025-12-10,23.5626,119.468436,0.9915479
C0G650,員林,2025-12-10,23.946503,120.585597,0.99334913
C0AD50,鶯歌,2025-12-10,24.951533,121.346294,0.9944395
C2H9Q0,北東眼山,2025-12-10,24.120939,121.189303,1.179106e-08
C2H9T0,名間竹圍,2025-12-10,23.859914,120.637572,1.9177797e-09
C0S990,山豬窟,2025-12-10,22.318619,120.857372,1.2412077e-05
C0X190,安平,2025-12-10,22.993161,120.152181,0.9998913
C0K400,斗六,2025-12-10,23.720583,120.541127,0.77712965
12J990,口湖工作站,2025-12-10,23.589978,120.180394,0.99997574
C0O830,北寮,2025-12-10,23.079561,120.495008,0.00012708303
C1D410,白蘭,2025-12-10,24.579364,121.079947,3.6055479e-09
C0S970,加津林,2025-12-10,22.416211,120.926942,0.9979945
C0D700,關西,2025-12-10,24.7977,121.1732,0.9872393
C0M810,里佳,2025-12-10,23.389125,120.716647,2.6898308e-09
C0U750,龜山島,2025-12-10,24.841667,121.953133,4.0276785e-08
C0R810,內獅,2025-12-10,22.305064,120.642986,0.9997749
C1M390,龍美,2025-12-10,23.406728,120.654417,1.9373017e-09
C2K290,崙內,2025-12-10,23.69525,120.35601,0.9999081
C2FB60,頭櫃山,2025-12-10,24.129842,120.858925,2.0101225e-09
C1H840,國三N238K,2025-12-10,23.841008,120.707711,2.724758e-09
CAQ030,崎峰國小,2025-12-10,22.42565,120.49521,0.9995864
C2E520,大湖,2025-12-10,24.414939,120.870872,1.6554232e-08
467530,阿里山,2025-12-10,23.508208,120.813242,1.24369395e-08
C1E691,南湖,2025-12-10,24.40135,120.837533,6.209057e-09
C0FA30,梧棲,2025-12-10,24.256003,120.523381,0.9999461
C1V231,高中,2025-12-10,23.134911,120.716711,8.801328e-10
C0AK30,硬漢嶺,2025-12-10,25.136097,121.426372,8.838346e-08
C0F9V0,新社,2025-12-10,24.200172,120.815806,1.5195335e-08
C0H890,埔里,2025-12-10,23.972169,120.952425,7.0172077e-09
C0R690,墾丁,2025-12-10,21.966756,120.810269,0.21945435
C0SD20,富山,2025-12-10,22.822383,121.190825,3.56931e-06
C0F0D0,審馬陣,2025-12-10,24.381675,121.4203,2.7096984e-08
C2W030,金門農試所,2025-12-10,24.448431,118.451786,0.083620645
C0R820,白鷺,2025-12-10,22.454275,120.666219,1.1980352e-08
C0FB00,大雪山,2025-12-10,24.254668,121.007374,1.4475504e-08
C1V190,南天池,2025-12-10,23.27403,120.91176,1.1497157e-08
C0E940,雪見,2025-12-10,24.42595,121.01347,8.449803e-09
K2E360,苗栗農改場,2025-12-10,24.495722,120.829111,0.582388
CAJ050,海口故事園區,2025-12-10,23.57543,120.14121,0.99997574
C2K280,四湖,2025-12-10,23.6304,120.22717,0.9999756
C2H9D0,三隻寮,2025-12-10,24.093078,120.861578,1.4345326e-09
C0O990,媽廟,2025-12-10,22.99175,120.293525,0.99986005
C0D480,打鐵坑,2025-12-10,24.849664,121.150789,0.548551
C0Z220,和平林道,2025-12-10,24.343922,121.656317,5.2033107e-09
C0TA10,花蓮漁港,2025-12-10,23.995322,121.638331,2.6421567e-08
72C440,桃園農改場,2025-12-10,24.950944,121.030583,0.99845046
C1E711,馬拉邦山,2025-12-10,24.367306,120.901656,2.0205588e-09
C0SB20,富岡,2025-12-10,22.792467,121.192669,2.3927093e-06
C0D560,竹東,2025-12-10,24.767147,121.057881,0.8927837
C0F9U0,南屯,2025-12-10,24.137006,120.637969,0.9603171
C0M720,番路,2025-12-10,23.464657,120.554156,5.3766612e-08
C0F0A0,雪山圈谷,2025-12-10,24.388594,121.236339,3.075027e-08
C1A9N0,四十份,2025-12-10,24.934158,121.593283,2.0208437e-07
C0U760,東澳,2025-12-10,24.52196,121.83318,1.3986962e-08
C0X230,鹽水,2025-12-10,23.272621,120.247641,0.99979377
C2H9H0,苗改南投蜂場,2025-12-10,23.852589,120.693481,0.0011210793
C0R950,萬隆國小,2025-12-10,22.507667,120.587817,0.9982202
467540,大武,2025-12-10,22.35572,120.90374,0.99819624
C0V370,古亭坑,2025-12-10,22.893178,120.401947,0.9979709
C1I340,新興橋,2025-12-10,23.563333,120.868728,1.3564847e-09
C0SA80,土坂,2025-12-10,22.453108,120.887572,0.0003147568
C0R160,鹽埔,2025-12-10,22.739558,120.530778,0.14184754
C0AC40,大屯山,2025-12-10,25.175675,121.522408,4.0745494e-08
466850,五分山雷達站,2025-12-10,25.071182,121.781205,2.0607459e-08
C2H9L0,馬烈霸,2025-12-10,24.1512,121.201772,1.075285e-08
C1AI50,國三N016K,2025-12-10,25.034164,121.619664,0.9990695
C1V600,藤枝,2025-12-10,23.071961,120.757042,5.481376e-09
C1E601,南勢,2025-12-10,24.572486,120.734842,0.9971157
C0O980,新市,2025-12-10,23.061614,120.298197,0.9998014
C0K420,西螺,2025-12-10,23.800407,120.467394,0.75076026
C0Z050,佳心,2025-12-10,23.34567,121.21316,1.6201906e-08
C0AD30,蘆洲,2025-12-10,25.086594,121.472331,0.9993083
C0V610,梓官,2025-12-10,22.760558,120.267211,0.99993885
K2F750,種苗改良場,2025-12-10,24.225972,120.800917,3.3770505e-08
C0UA80,大溪漁港,2025-12-10,24.941801,121.902955,0.0007653102
C1AI60,國一39K邊坡,2025-12-10,25.064361,121.383836,5.7249857e-05
C0W150,金寧,2025-12-10,24.457703,118.328989,0.07819601
C0R960,內埔,2025-12-10,22.608483,120.570714,0.9993452
V2C250,八德合作社,2025-12-10,24.93775,121.266389,0.9860971
C2H9S0,龍南,2025-12-10,23.953536,120.833183,1.6695488e-09
C0AH40,平等,2025-12-10,25.129142,121.577086,3.120927e-07
C0R540,佳冬,2025-12-10,22.419456,120.552375,0.9995307
466950,彭佳嶼,2025-12-10,25.627975,122.079744,0.99979055
C0A890,雙溪,2025-12-10,25.036003,121.864242,0.99876064
C0C480,桃園,2025-12-10,24.992425,121.323172,0.9953594
C0AH50,林口,2025-12-10,25.072181,121.38084,4.8537877e-06
A2K360,水試臺西試驗場,2025-12-10,23.717231,120.190522,0.99997985
C2M960,外寮,2025-12-10,23.562643,120.665688,1.5014201e-09
C0F9S0,烏日,2025-12-10,24.107058,120.624103,0.9917747
C0C490,八德,2025-12-10,24.928708,121.283289,0.98562
C0R190,赤山,2025-12-10,22.592333,120.614306,0.999291
C0T820,天祥,2025-12-10,24.179597,121.495639,1.5042673e-08
C1F9E1,龍安,2025-12-10,24.1605,120.831961,1.2810602e-08
C0V820,小林,2025-12-10,23.148408,120.63325,8.795991e-10
C2G870,芳苑,2025-12-10,23.922303,120.320025,0.9967207
C0E850,大河,2025-12-10,24.618069,120.948578,0.66724557
C1U670,寒溪,2025-12-10,24.634,121.71691,1.724627e-07
C0N020,城西,2025-12-10,23.0568,120.0956,0.9999053
C1Z110,三棧,2025-12-10,24.11557,121.60501,3.122987e-08
C0R280,檳榔,2025-12-10,22.076078,120.836777,0.9613625
C2H9J0,中台,2025-12-10,23.9996,120.938739,1.4861486e-09
C0F9L0,后里,2025-12-10,24.310436,120.729725,8.30306e-09
467441,高雄,2025-12-10,22.730432,120.312516,0.9999331
C0Z180,新城,2025-12-10,24.040486,121.604878,2.3466235e-08
C0D540,橫山,2025-12-10,24.71116,121.11693,0.7807997
C1D420,太閣南,2025-12-10,24.632808,121.160575,9.613823e-09
C1E770,公館,2025-12-10,24.526914,120.830806,0.7450563
CAN130,水試所海水繁養殖中心,2025-12-10,23.120802,120.07968,0.999919
C1I430,翠華,2025-12-10,24.191961,121.224339,1.13391785e-08
C1M400,菜瓜坪,2025-12-10,23.251928,120.576103,1.2078917e-09
C0G730,二林,2025-12-10,23.903325,120.376081,0.9998559
72M360,南改義竹分場,2025-12-10,23.360694,120.279361,0.99975497
V2K620,麥寮合作社,2025-12-10,23.753836,120.294783,0.99991
C0Z070,舞鶴,2025-12-10,23.46811,121.37407,6.325496e-09
C0B040,大武崙,2025-12-10,25.166676,121.706993,0.9972729
C1Z030,紅葉,2025-12-10,23.493119,121.338806,6.004174e-09
C1I050,丹大,2025-12-10,23.753747,121.141147,1.0321743e-08
C0I080,信義,2025-12-10,23.689694,120.851036,1.6986568e-09
C0D750,樂山林道6k,2025-12-10,24.49999,121.08773,1.2499413e-08
C2M920,朴子農改,2025-12-10,23.469889,120.259383,0.99981666
C2A880,福隆,2025-12-10,25.017842,121.942083,0.0012108485
C0Z160,鳳林,2025-12-10,23.746114,121.453411,8.195002e-09
C0UB80,翠峰林道6K,2025-12-10,24.49773,121.568625,1.6562854e-08
C0V210,復興,2025-12-10,23.222403,120.806089,9.393031e-10
C0H990,昆陽,2025-12-10,24.121322,121.273642,1.7810168e-08
C0R741,獅子,2025-12-10,22.202308,120.705236,0.99027014
C0S710,鹿野,2025-12-10,22.917711,121.122994,9.1964365e-09
C0I530,小奇萊,2025-12-10,24.131764,121.295717,1.8637682e-08
C0FA70,大雪山埡口,2025-12-10,24.26867,121.03062,1.8644686e-08
C2K630,荷苞,2025-12-10,23.657717,120.595144,0.2074205
C0Z080,富源,2025-12-10,23.587642,121.378225,1.2508619e-08
C0SB10,美和,2025-12-10,22.682078,121.060236,1.4792498e-06
C2K620,馬光農場,2025-12-10,23.721453,120.378864,0.9060934
C1I140,卡奈托灣,2025-12-10,23.754364,121.087872,3.3162435e-09
C0I520,玉山風口,2025-12-10,23.470489,120.955994,3.3328845e-08
C1G691,下水埔,2025-12-10,23.816114,120.5676,0.5197962
C0X110,臺南市南區,2025-12-10,22.961189,120.188378,0.9998945
C0V680,仁武,2025-12-10,22.701083,120.347722,0.99991196
C2G840,北斗,2025-12-10,23.877586,120.514222,0.9990124
C0R900,竹坑,2025-12-10,22.1385,120.7022,0.9720773
C0G860,社頭,2025-12-10,23.897647,120.5862,0.9988752
C0X150,安定,2025-12-10,23.102614,120.227839,0.99978346
C0R590,里港,2025-12-10,22.77919,120.49459,0.29405454
C0E610,馬都安,2025-12-10,24.451272,120.930192,5.8654566e-09
C0E550,明德,2025-12-10,24.583486,120.885411,0.90118474
C0R150,三地門,2025-12-10,22.709889,120.639944,0.04634805
C0G910,花壇,2025-12-10,24.032076,120.549461,0.9925561
C1D400,鳥嘴山,2025-12-10,24.71909,121.28387,3.9954338e-09
C0K500,元長,2025-12-10,23.64981,120.315024,0.9999245
C0F0B0,石岡,2025-12-10,24.276061,120.777644,6.8713444e-09
C2V250,甲仙,2025-12-10,23.080106,120.591758,1.9605193e-09
C0SA20,金崙山,2025-12-10,22.567419,120.959667,2.4725553e-08
C0V350,溪埔,2025-12-10,22.738578,120.446797,0.67634684
C0M660,溪口,2025-12-10,23.604131,120.403569,0.99982953
C1S880,壽卡,2025-12-10,22.238911,120.858903,3.7647537e-06
72D680,桃改新埔分場,2025-12-10,24.834444,121.066111,0.988821
