站號,站名,日期,lat,lon,BlastGRU-TW
C0R710,龍磐,2025-12-27,21.931672,120.838942,0.0016674608
C1F9D1,白毛台,2025-12-27,24.158325,120.886933,0.061106283
C0G940,竹塘,2025-12-27,23.848253,120.386764,0.037560884
467590,恆春,2025-12-27,22.003897,120.746339,0.047213413
C1O850,環湖,2025-12-27,23.148617,120.418633,0.12989339
C0U710,太平山,2025-12-27,24.505486,121.525656,0.00034760486
C0E820,獅潭,2025-12-27,24.539133,120.920042,0.01014413
C2SD70,二層坪,2025-12-27,22.94105,121.16838,0.0043435344
C0V880,興達,2025-12-27,22.8778,120.2127,0.06864614
C0S890,關山,2025-12-27,23.0395,121.175017,0.0038315663
C0SB30,新蘭,2025-12-27,22.869214,121.223228,0.010142637
C2R970,屏科大,2025-12-27,22.648275,120.619247,0.06326071
C1Z130,銅門,2025-12-27,23.965694,121.492842,0.05232426
C0AD40,土城,2025-12-27,24.973208,121.445169,0.05240103
CAN140,六官養殖協會,2025-12-27,23.22881,120.29962,0.36145025
C0X180,山上,2025-12-27,23.0757,120.363253,0.12489174
C0F9Z0,雪山東峰,2025-12-27,24.388792,121.268675,0.0004086516
C1M480,獨立山,2025-12-27,23.537022,120.607797,0.0046276357
C0X220,學甲,2025-12-27,23.230367,120.182187,0.17983963
467650,日月潭,2025-12-27,23.881325,120.90805,0.011127652
C0K600,箔子寮,2025-12-27,23.6197,120.14,0.10036365
C0G830,埤頭,2025-12-27,23.866003,120.452806,0.1195834
C0S950,七塊厝,2025-12-27,22.954453,121.229922,0.00079446536
467110,金門,2025-12-27,24.407306,118.289281,0.0017703528
C0AH80,深坑,2025-12-27,25.002703,121.628328,0.028134968
C0A970,三貂角,2025-12-27,25.007606,122.002058,0.4573891
C2D730,寶山農場,2025-12-27,24.732444,120.976153,0.0050852676
C0K430,褒忠,2025-12-27,23.690938,120.303634,0.06446301
467480,嘉義,2025-12-27,23.495925,120.432906,0.12001728
C0V400,阿公店,2025-12-27,22.804194,120.355528,0.21617645
C0E960,觀霧分站,2025-12-27,24.505781,121.113921,0.0008332958
467550,玉山,2025-12-27,23.48718,120.95943,0.0003369146
C0R440,大漢山,2025-12-27,22.405264,120.753181,0.0011685387
C0SD30,東清國小,2025-12-27,22.057128,121.564922,0.026121033
C1F9B1,桐林,2025-12-27,24.066172,120.735194,0.014091376
C2H9U0,鳳鵬,2025-12-27,23.763919,120.788061,0.07087711
C0K390,土庫,2025-12-27,23.679029,120.395574,0.1655189
C1I450,望鄉山,2025-12-27,23.594153,120.944286,0.00037693998
C0E910,海埔,2025-12-27,24.648767,120.772435,0.0066783507
B2E890,畜試北區分所,2025-12-27,24.527806,120.770972,0.016599117
C0R750,四林格山,2025-12-27,22.076989,120.802439,0.005209783
C0F0C0,中坑,2025-12-27,24.248517,120.903319,0.012112574
C1I121,大鞍,2025-12-27,23.678381,120.760017,0.0030418655
C2G9E0,移民庄,2025-12-27,23.9784,120.40283,0.014408369
72U480,花改蘭陽分場,2025-12-27,24.686306,121.716583,0.7339993
C0A770,科教館,2025-12-27,25.096356,121.516507,0.09826544
C0AJ60,六塊厝,2025-12-27,25.24,121.4481,0.03218422
C0R620,墾雷,2025-12-27,21.900836,120.855269,0.0065224348
467420,永康,2025-12-27,23.038386,120.2367,0.2249861
C2M530,奮起湖,2025-12-27,23.493903,120.699253,0.004626856
C0I410,名間,2025-12-27,23.837053,120.701447,0.07592909
A2C560,農工中心,2025-12-27,24.985917,121.239833,0.0043145586
C0V740,旗山,2025-12-27,22.888614,120.483597,0.11139109
C0Z061,玉里,2025-12-27,23.3215,121.339656,0.09428942
C0S840,南田,2025-12-27,22.279725,120.889208,0.042288415
C1I470,杉林溪,2025-12-27,23.639517,120.786444,0.0021161737
C1X040,東原,2025-12-27,23.291597,120.463822,0.25443897
C0R660,枋寮,2025-12-27,22.367722,120.590647,0.036377378
C1R120,上德文,2025-12-27,22.763272,120.704442,0.020964244
C0K450,大埤,2025-12-27,23.646074,120.431537,0.08727128
C0UA00,土場,2025-12-27,24.576533,121.495333,0.299066
467080,宜蘭,2025-12-27,24.763975,121.756528,0.4734198
C0N030,四草,2025-12-27,23.0235,120.1116,0.1701588
467410,臺南,2025-12-27,22.99328,120.20492,0.1801056
C0V650,彌陀,2025-12-27,22.783806,120.246361,0.09211603
C0D660,新竹市東區,2025-12-27,24.798681,120.986942,0.0065504853
82S580,茶改東部分場,2025-12-27,22.907694,121.130139,0.0023246063
C0SB40,興隆,2025-12-27,22.913661,121.257469,0.008697324
467050,新屋,2025-12-27,25.006725,121.047492,0.003404806
C0C710,大溪永福,2025-12-27,24.892936,121.324975,0.006548028
C0FA20,溫寮,2025-12-27,24.372177,120.583125,0.0069585876
C0V640,湖內,2025-12-27,22.887139,120.2445,0.06744057
C0R910,下寮,2025-12-27,22.3929,120.5548,0.0365574
C0Z020,明里,2025-12-27,23.208717,121.262342,0.04898104
C0M770,嘉義梅山,2025-12-27,23.585398,120.555587,0.03413594
C0C660,楊梅,2025-12-27,24.912375,121.143047,0.0048616077
C0SD40,牛頭山,2025-12-27,22.676661,121.506944,0.026768444
C1E511,新開,2025-12-27,24.347703,120.827019,0.01649229
G2F820,農試所(霧峰),2025-12-27,24.031261,120.688133,0.028817184
C2M990,大巃頂,2025-12-27,23.5547,120.61439,0.0040110378
C1I070,和社,2025-12-27,23.591131,120.888861,0.04866336
C2E990,新坪頂,2025-12-27,24.30201,120.8574,0.005744443
C0TA80,立霧山,2025-12-27,24.183258,121.641899,0.0028845856
C2F000,大肚,2025-12-27,24.15295,120.572117,0.00091797137
C1S850,豐南,2025-12-27,23.122139,121.262389,0.00056388247
C2M9B0,西興,2025-12-27,23.2428,120.57617,0.19982947
C2A920,富貴角,2025-12-27,25.263783,121.565258,0.0058576195
CAH030,茶改場竹圍站,2025-12-27,23.860083,120.637528,0.11163771
C0T960,光復,2025-12-27,23.660694,121.424964,0.17202002
C0F9M0,豐原,2025-12-27,24.254322,120.720692,0.012542664
C0R720,旭海,2025-12-27,22.205403,120.887614,0.0015555547
C0V710,苓雅,2025-12-27,22.622742,120.330669,0.14409064
C0C740,觀音工業區,2025-12-27,25.064764,121.114856,0.0024430698
CAC040,拉拉山,2025-12-27,24.699317,121.427133,0.0005774722
C0V790,萬山,2025-12-27,22.905944,120.688056,0.17506753
U2HA30,臺大和社,2025-12-27,23.590856,120.888864,0.04866336
C2H9K0,屯原,2025-12-27,24.067969,121.209389,0.0005882182
C0AJ90,澳底,2025-12-27,25.0552,121.9253,0.38076594
C0Z100,東華,2025-12-27,23.89525,121.549833,0.18469244
C0G970,三豐,2025-12-27,23.882,120.2895,0.039848056
V2K610,大庄合作社,2025-12-27,23.8068,120.367939,0.03897791
C0V900,汕尾,2025-12-27,22.4782,120.4151,0.061611034
C1R630,龍泉,2025-12-27,22.66701,120.59091,0.053526796
C1AC50,關渡,2025-12-27,25.133486,121.469331,0.015351215
C0C800,四稜,2025-12-27,24.64733,121.4293,0.00062986335
C0F9I0,神岡,2025-12-27,24.272481,120.658314,0.022183541
C0K460,斗南,2025-12-27,23.678734,120.478359,0.0877382
C2O810,曾文,2025-12-27,23.219681,120.497328,0.26747727
467280,後龍,2025-12-27,24.648563,120.831834,0.0065917326
C1F9J1,清水林,2025-12-27,24.071242,120.820419,0.0151335215
C2A650,火燒寮,2025-12-27,25.002719,121.742892,0.19332027
466930,竹子湖,2025-12-27,25.162078,121.544547,0.0007828649
C1I220,樟湖,2025-12-27,23.905333,120.846983,0.0042719
C0I390,仁愛,2025-12-27,24.022122,121.132206,0.005408749
C0Z300,東里,2025-12-27,23.26853,121.30547,0.07602705
C1V590,新發,2025-12-27,23.057019,120.646064,0.045865845
C0K510,水林,2025-12-27,23.572924,120.24597,0.3395172
72S590,東改賓朗果園,2025-12-27,22.813889,121.071278,0.0010011896
82A750,茶改北部分場,2025-12-27,24.955778,121.631222,0.0071116174
C1A750,石碇服務區,2025-12-27,25.00872,121.646242,0.039149303
C0X300,鹿寮,2025-12-27,23.386047,120.477331,0.07363013
G2AI50,關渡,2025-12-27,25.11575,121.492,0.07660696
C0K590,雲林東勢,2025-12-27,23.674192,120.255721,0.100130886
C2K310,港尾布雞,2025-12-27,23.74834,120.38439,0.13283338
C0A570,桶後,2025-12-27,24.848222,121.597992,0.080721505
C1S800,華源,2025-12-27,22.657883,121.02325,0.009987611
C0G720,溪州,2025-12-27,23.851589,120.499093,0.1244614
C1V160,達卡努瓦,2025-12-27,23.279811,120.705319,0.014276303
C2M410,馬頭山,2025-12-27,23.324361,120.582017,0.19304298
C0V850,蚵仔寮,2025-12-27,22.7256,120.2527,0.11962558
C0S740,池上,2025-12-27,23.119628,121.209469,0.009120375
C1V390,尖山,2025-12-27,22.813153,120.367789,0.24166776
C0AH70,松山,2025-12-27,25.04871,121.55042,0.091716796
C0N010,鯤鯓國小,2025-12-27,23.1879,120.0889,0.1629112
C0R550,新埤,2025-12-27,22.467947,120.582894,0.052504208
C0SA60,知本（水試所）,2025-12-27,22.702394,121.082761,0.0520866
C0T9I0,豐濱,2025-12-27,23.583897,121.514806,0.11556614
C0UB00,淡江大學蘭陽校園,2025-12-27,24.823239,121.730383,0.0906359
C0W240,九宮,2025-12-27,24.423753,118.240186,0.0020326078
C0T9N0,富里,2025-12-27,23.171639,121.249378,0.16743056
U2HA50,臺大竹山,2025-12-27,23.756972,120.681556,0.05338939
C0V840,鳳鼻頭,2025-12-27,22.5083,120.3591,0.054597706
C0X140,西港,2025-12-27,23.125608,120.203108,0.36175328
72D080,桃改五峰分場,2025-12-27,24.612194,121.157167,0.0057751187
C2H9P0,伊拿谷,2025-12-27,23.963211,121.088264,0.012065989
C2K250,崙背,2025-12-27,23.75553,120.31893,0.06411208
C2H9F0,柑林,2025-12-27,24.018658,120.847072,0.01978153
C0TA20,加灣,2025-12-27,24.082025,121.608944,0.31342503
C0V530,阿蓮,2025-12-27,22.883208,120.327508,0.15584415
C0FB30,八仙山苗圃,2025-12-27,24.192719,121.001366,0.014022971
C1O880,關山,2025-12-27,23.173397,120.594092,0.19586782
C0E791,卓蘭,2025-12-27,24.3126,120.8244,0.018307356
C1I030,武界,2025-12-27,23.913225,121.052483,0.010481013
C0R520,崁頂,2025-12-27,22.514781,120.506914,0.05373104
C0R341,牡丹,2025-12-27,22.130036,120.792639,0.051382545
C0R930,萬丹,2025-12-27,22.5885,120.4851,0.04143253
C0S760,紅石,2025-12-27,23.069131,121.126219,0.0009557561
C2C410,中央大學,2025-12-27,24.967652,121.185165,0.004241656
C1M610,石磐龍,2025-12-27,23.496606,120.663506,0.011363026
C0C790,東眼山,2025-12-27,24.8284,121.40888,0.00720801
C0UA10,鴛鴦湖,2025-12-27,24.590269,121.412228,0.0003172286
V2C260,八德蔬果,2025-12-27,24.978508,121.281819,0.00411772
C0R800,丹路,2025-12-27,22.204481,120.750989,0.02177289
C0G920,永靖,2025-12-27,23.924703,120.547533,0.058593698
C2M950,太和,2025-12-27,23.538372,120.702961,0.004753246
C1A630,下盆,2025-12-27,24.771003,121.538622,0.05398598
B2N890,畜產試驗所,2025-12-27,23.058972,120.336406,0.28039563
C0UA30,白嶺,2025-12-27,24.527819,121.519031,0.0009212537
C1V580,溪南(特生中心),2025-12-27,23.084972,120.788475,0.001602514
C1T970,大農,2025-12-27,23.615233,121.413331,0.07991429
C0R650,竹田,2025-12-27,22.58486,120.54344,0.05120356
C1H900,清流,2025-12-27,24.080775,120.962997,0.018630391
C1C510,水尾,2025-12-27,24.940081,121.087161,0.003377349
C2N170,茅港尾,2025-12-27,23.2061,120.2624,0.35320562
C0F9X0,大雅(中科園區),2025-12-27,24.21528,120.62445,0.0024179008
C0SB60,白守蓮,2025-12-27,23.126769,121.401914,0.011234556
C0O970,虎頭埤,2025-12-27,23.021375,120.347878,0.17558067
C0C730,中大臨海站,2025-12-27,24.966126,121.008581,0.0024457334
C0X250,新營,2025-12-27,23.310689,120.316681,0.32257363
C0V700,三民,2025-12-27,22.645017,120.311233,0.11328847
C0U870,大礁溪,2025-12-27,24.791042,121.675047,0.098854184
C0E870,高鐵苗栗,2025-12-27,24.60725,120.826094,0.0066224844
A2K570,古坑花卉中心,2025-12-27,23.63353,120.55239,0.03183689
C0TA30,鹽寮,2025-12-27,23.845606,121.592664,0.20715716
C0M860,新美,2025-12-27,23.338017,120.683169,0.44219232
C1E701,八卦,2025-12-27,24.491756,120.927619,0.006363498
C2TA90,加納納,2025-12-27,23.466421,121.359867,0.025036657
C0I420,國姓,2025-12-27,24.037803,120.855072,0.02242921
C2D720,關西工作站,2025-12-27,24.757275,121.184792,0.048224937
C0S960,香蘭,2025-12-27,22.587569,120.993375,0.04350455
467620,蘭嶼,2025-12-27,22.0369,121.55843,0.00031202807
C0R260,春日,2025-12-27,22.370361,120.628306,0.026435932
72G600,臺中農改場,2025-12-27,24.003028,120.534389,0.043897413
C0Z210,瑞穗,2025-12-27,23.5239,121.39021,0.091008626
C0M820,達邦,2025-12-27,23.453994,120.749517,0.018752066
C0V860,南寮,2025-12-27,22.7616,120.2339,0.12004724
C0G740,大城,2025-12-27,23.852487,120.320935,0.03569541
C0R920,塭仔,2025-12-27,22.4169,120.5197,0.037084207
C0R470,高樹,2025-12-27,22.826389,120.600806,0.0515597
C0R680,佳樂水,2025-12-27,21.993578,120.861633,0.021310953
C1O870,大棟山,2025-12-27,23.31157,120.52226,0.0029688273
C0D360,梅花,2025-12-27,24.678347,121.208558,0.0086590275
C0Z190,富世,2025-12-27,24.14743,121.6297,0.009864749
C0AI10,屈尺,2025-12-27,24.92184,121.54475,0.19724636
B2U990,畜試東區分所,2025-12-27,24.669039,121.832561,0.92199504
C0SB80,長濱漁港,2025-12-27,23.313644,121.459994,0.0028857493
C0TA50,和仁,2025-12-27,24.241394,121.712472,0.04793338
C0V910,大樹,2025-12-27,22.684645,120.432803,0.03804287
C1R610,西大武山,2025-12-27,22.617719,120.7322,0.0012288878
C0G900,線西,2025-12-27,24.143358,120.443536,0.0072195395
C0M700,竹崎,2025-12-27,23.526178,120.555508,0.03471397
C2E880,三義,2025-12-27,24.405478,120.749819,0.0017327706
C0C720,竹圍,2025-12-27,25.112692,121.239824,0.0060924008
C0F9P0,清水,2025-12-27,24.312297,120.562242,0.007080091
C0Z150,吉安光華,2025-12-27,23.930925,121.595153,0.1794946
C0FA80,小雪山天池,2025-12-27,24.28025,121.02627,0.00049725
467300,東吉島,2025-12-27,23.25727,119.66762,0.001276516
C1D640,外坪(五指山),2025-12-27,24.644447,121.090961,0.0010999443
C2R9A0,高士國小,2025-12-27,22.12553,120.84653,0.032666557
C0F9O0,潭子,2025-12-27,24.213106,120.703933,0.00904254
C2H9R0,卓社,2025-12-27,23.887894,121.000086,0.0027228284
72T250,花蓮農改場,2025-12-27,23.975222,121.563889,0.10645689
C0E780,銅鑼,2025-12-27,24.489681,120.790853,0.015900878
C1T950,太安,2025-12-27,23.666719,121.370128,0.0027805162
C0E830,苑裡,2025-12-27,24.439714,120.653053,0.008863393
467270,田中,2025-12-27,23.873803,120.581286,0.1331247
C0SA10,檳榔四格山,2025-12-27,22.810031,121.109308,0.0009903135
C1T830,布洛灣,2025-12-27,24.17184,121.57127,0.3400348
C0F970,大坑,2025-12-27,24.173142,120.722289,0.008687456
C1U920,思源,2025-12-27,24.393125,121.347214,0.000757464
C2H9Y0,松茗,2025-12-27,23.8167,120.650765,0.05132491
C0A931,三和,2025-12-27,25.233153,121.595236,0.010176678
C0I010,廬山,2025-12-27,24.033311,121.181808,0.0013003696
C2M940,日野賀,2025-12-27,23.434056,120.727169,0.008110756
C0R860,鼻頭,2025-12-27,22.1043,120.8979,0.06153278
C0UB20,壯圍,2025-12-27,24.7359,121.8163,0.7599545
C0R790,九棚,2025-12-27,22.14195,120.889281,0.0023955442
C0W110,東莒,2025-12-27,25.9652,119.98069,0.00050902384
C1U930,粉鳥林,2025-12-27,24.497088,121.842479,0.85533893
C1I211,蘆竹湳,2025-12-27,23.934019,120.811994,0.01886604
C0S830,長濱,2025-12-27,23.286817,121.411975,0.042708814
C1F9F1,伯公龍,2025-12-27,24.272392,120.849047,0.007897919
C0UB90,太平山莊,2025-12-27,24.494171,121.536209,0.00034225953
C0E810,西湖,2025-12-27,24.562947,120.7485,0.004306477
C1I440,新高口,2025-12-27,23.478744,120.878939,0.0004808323
C0O840,王爺宮,2025-12-27,23.222064,120.40085,0.44859713
C0T9G0,鳳林山,2025-12-27,23.735269,121.420131,0.0014127445
C0X080,佳里,2025-12-27,23.173039,120.145086,0.16197333
C0FB70,大甲溪埔,2025-12-27,24.370625,120.620067,0.0063313483
C0Z310,清水斷崖,2025-12-27,24.218294,121.689142,0.019901909
C0M680,太保,2025-12-27,23.455062,120.331455,0.33444175
C1S820,金峰,2025-12-27,22.590969,120.933236,0.0039967746
C0AD10,八里,2025-12-27,25.150211,121.403947,0.011796456
C2K240,草嶺,2025-12-27,23.59555,120.693461,0.011512913
C1SA70,都蘭,2025-12-27,22.87794,121.226881,0.008663904
C0K440,二崙,2025-12-27,23.772797,120.408944,0.13501078
C1A760,坪林交控,2025-12-27,24.94284,121.713442,0.24031751
C0F9N0,大里,2025-12-27,24.092464,120.701378,0.017860303
C0SA90,達仁林場,2025-12-27,22.264347,120.823972,0.0634666
C1R290,石門山,2025-12-27,22.112611,120.756597,0.0049321903
42HA10,萬大發電廠,2025-12-27,23.978875,121.139639,0.007840254
C0R890,山海,2025-12-27,21.9878,120.7091,0.0047146757
C0T9A0,月眉山,2025-12-27,23.809928,121.539828,0.0025970899
C0AC70,信義,2025-12-27,25.037822,121.564597,0.09070496
C0K560,棋山,2025-12-27,23.68645,120.603417,0.032247778
C2FB50,出雲,2025-12-27,24.206469,120.902794,0.008054383
C1Z240,中平林道,2025-12-27,23.42115,121.26763,0.0018345306
U2H480,溪頭,2025-12-27,23.670306,120.798194,0.004469163
C0M880,好美里,2025-12-27,23.3364,120.138,0.20778899
C0T9E0,大坑,2025-12-27,23.880628,121.581981,0.07219703
C0K530,臺西,2025-12-27,23.701547,120.197559,0.040823612
C1E900,國一N128K,2025-12-27,24.560997,120.844186,0.010524497
C0AJ50,水湳洞,2025-12-27,25.123695,121.862238,0.31409004
C0AI20,白沙灣,2025-12-27,25.283128,121.519058,0.026981484
C2V310,美濃,2025-12-27,22.898792,120.51907,0.10517133
C0A860,大坪,2025-12-27,25.165914,121.632969,0.0076411506
C1U850,觀音海岸,2025-12-27,24.38319,121.77856,0.0053934543
C2K610,草嶺石壁,2025-12-27,23.602469,120.707731,0.010135985
C0U950,鶯子嶺,2025-12-27,24.89754,121.79244,0.0010145594
C0O900,善化,2025-12-27,23.112883,120.297219,0.23949327
C0K550,蔦松,2025-12-27,23.514319,120.229736,0.2376886
E2P980,林試六龜中心,2025-12-27,22.991703,120.645722,0.22581854
C0E590,通霄,2025-12-27,24.471892,120.704622,0.023474399
C1I310,西巒,2025-12-27,23.754486,120.883956,0.009022778
C0A550,泰平,2025-12-27,24.971197,121.823711,0.033123218
C0I360,水里,2025-12-27,23.812553,120.849792,0.089589536
C0R830,高士,2025-12-27,22.121825,120.836781,0.006536143
C1I101,溪頭,2025-12-27,23.661789,120.807647,0.00125399
C0AJ20,野柳,2025-12-27,25.20703,121.690021,0.10926342
C0B060,暖暖,2025-12-27,25.0957,121.7403,0.06844797
C1H920,長豐,2025-12-27,24.102039,120.879897,0.04681318
C2S9B0,利吉,2025-12-27,22.86246,121.15486,0.0032718598
C0V360,內門,2025-12-27,22.975481,120.466769,0.15448087
C0R850,林邊,2025-12-27,22.4634,120.5339,0.057992272
C0E930,龍鳳,2025-12-27,24.700034,120.859125,0.0037911173
C0U910,冬山,2025-12-27,24.63373,121.7937,0.92199504
C1E721,泰安,2025-12-27,24.489017,120.968036,0.0014702729
82H320,茶改中部分場,2025-12-27,23.875611,120.913583,0.024508273
C0M750,布袋,2025-12-27,23.380878,120.167789,0.2716746
C1S860,利嘉,2025-12-27,22.809417,121.050528,0.0023929044
E2S980,林試太麻里1,2025-12-27,22.598922,120.980044,0.013230832
C0X170,關廟,2025-12-27,22.963017,120.327797,0.20773752
C0V720,林園,2025-12-27,22.507747,120.394511,0.052223034
C1I510,線浸林道,2025-12-27,23.761508,120.832956,0.0024857067
C0D690,外湖,2025-12-27,24.917735,120.968711,0.0033583317
C0C750,新興坑尾,2025-12-27,25.0061,121.0971,0.002822696
B2Q810,畜試南區分所,2025-12-27,21.945583,120.802167,0.023065804
C0S790,金崙,2025-12-27,22.538122,120.966875,0.0037821506
C0AH90,福山植物園,2025-12-27,24.760717,121.58135,0.12124619
C0I540,奇萊稜線,2025-12-27,24.109231,121.326456,0.00030605338
C0M850,表湖,2025-12-27,23.24186,120.64166,0.09832619
C0S770,大溪山,2025-12-27,22.478475,120.943325,0.0026443542
C0AG80,中和,2025-12-27,24.991622,121.491792,0.052060515
C0T790,大禹嶺,2025-12-27,24.186117,121.316086,0.00034560394
C0T9B0,水源,2025-12-27,23.991861,121.537169,0.010260717
C0R840,牡丹池山,2025-12-27,22.168389,120.841225,0.03797209
C1I131,桶頭,2025-12-27,23.641944,120.654117,0.05503158
CAL110,布袋國中,2025-12-27,23.35893,120.18026,0.22851562
C2M9D0,何竹子腳,2025-12-27,23.53641,120.38203,0.116366245
467571,新竹,2025-12-27,24.827853,121.014219,0.006743447
C0Z290,赤柯山,2025-12-27,23.36893,121.38293,0.0008195845
C0X280,將軍,2025-12-27,23.214999,120.13577,0.18263331
C0S690,太麻里,2025-12-27,22.60902,120.98533,0.00088247354
C0U880,北關,2025-12-27,24.9072,121.8734,0.4901882
CAW010,東引,2025-12-27,26.3588,120.4836,0.00041370813
C0G810,埔心,2025-12-27,23.947633,120.525456,0.057953
C0U970,大福,2025-12-27,24.80064,121.81389,0.48167226
C2H9N0,仁愛東眼,2025-12-27,24.026875,121.1205,0.002084249
C1E670,南礦,2025-12-27,24.538278,121.002836,0.0015937376
C0M520,東後寮,2025-12-27,23.369908,120.248065,0.22964905
C1E461,松安,2025-12-27,24.397972,120.986022,0.0015411967
C2N160,西拉雅風管處,2025-12-27,23.189481,120.335297,0.35400575
C2M970,碧湖,2025-12-27,23.568632,120.624165,0.0041068294
C0A640,石碇,2025-12-27,24.993969,121.662917,0.0070598763
E2S960,林試太麻里2,2025-12-27,22.598,120.99775,0.05128091
C0F9Y0,桃山,2025-12-27,24.432739,121.303808,0.00038353322
C1I020,萬大,2025-12-27,23.979817,121.132261,0.0052253352
C2UC20,長嶺,2025-12-27,24.70894,121.61162,0.3413982
C0U940,羅東,2025-12-27,24.68184,121.74934,0.7446807
C0M650,朴子,2025-12-27,23.43463,120.23902,0.38368016
C1I500,大尖山,2025-12-27,23.858572,120.994889,0.00074223656
C0FB40,中橫21.6k,2025-12-27,24.2499,121.1455,0.005128194
C0G820,田尾,2025-12-27,23.901669,120.509389,0.058377184
E2K600,四湖植物園,2025-12-27,23.676986,120.163433,0.053247236
C0S730,綠島,2025-12-27,22.6672,121.47533,0.005202621
12Q970,東港工作站,2025-12-27,22.479997,120.466058,0.06042523
C1TA00,太魯閣,2025-12-27,24.15773,121.6236,0.049457014
466920,臺北,2025-12-27,25.037658,121.514853,0.091716796
C0R600,舊泰武,2025-12-27,22.588194,120.664944,0.025268395
C1I260,北坑,2025-12-27,23.9246,121.006903,0.072975285
466910,鞍部,2025-12-27,25.182586,121.529731,0.0005870795
C1I230,九份二山,2025-12-27,23.961944,120.845,0.0061510857
C2M810,里佳,2025-12-27,23.389125,120.716647,0.005092795
C2A660,瑞芳,2025-12-27,25.113169,121.801147,0.20724419
C0R270,琉球嶼,2025-12-27,22.332244,120.362236,0.05676196
C2V580,瑞山,2025-12-27,22.90304,120.43424,0.19097698
C1T990,高寮,2025-12-27,23.394239,121.356808,0.12022542
C0G620,芬園,2025-12-27,24.015678,120.6213,0.040522195
C1Z140,荖溪,2025-12-27,23.890575,121.45964,0.006955807
C1I201,中心崙,2025-12-27,23.728722,120.712097,0.01866216
C1I400,凌霄,2025-12-27,24.018778,121.004456,0.0022109984
C1M640,十字,2025-12-27,23.492153,120.753683,0.0031969764
G2P820,農試鳳山分所,2025-12-27,22.646611,120.356083,0.10857665
C0Z270,蕃薯寮,2025-12-27,23.73835,121.540108,0.009308469
C2E420,竹南,2025-12-27,24.70898,120.88897,0.0033234274
C0FB10,出雲山苗圃,2025-12-27,24.23105,120.90475,0.012050134
C0F9Q0,外埔,2025-12-27,24.347817,120.705686,0.018589616
C0K580,高鐵雲林,2025-12-27,23.737456,120.417944,0.1342958
C2I090,鳳凰,2025-12-27,23.728081,120.787347,0.0093959095
C0U990,員山,2025-12-27,24.74435,121.72247,0.74949384
C0V770,大社,2025-12-27,22.730306,120.346639,0.11808836
C0X120,麻豆,2025-12-27,23.183289,120.248611,0.36978143
C0C670,龍潭,2025-12-27,24.870056,121.221389,0.042111084
C0D680,香山濕地,2025-12-27,24.783581,120.914988,0.007981438
C0S980,勝林山,2025-12-27,22.430439,120.8938,0.0012791028
C0V730,大寮,2025-12-27,22.605614,120.395717,0.045839164
C0R570,麟洛,2025-12-27,22.65078,120.52719,0.037854053
C2M930,石卓,2025-12-27,23.478744,120.702264,0.002970119
C0G9B0,和美,2025-12-27,24.105169,120.492131,0.011948211
CAG100,王功漁港,2025-12-27,23.96824,120.32586,0.0076304954
C0X290,北門,2025-12-27,23.267772,120.125481,0.18124123
C2F930,大甲,2025-12-27,24.347667,120.640403,0.004799757
C0D650,湖口,2025-12-27,24.904794,121.043628,0.0026042566
C0U780,五結,2025-12-27,24.68637,121.79794,0.7591426
C1I250,鯉潭,2025-12-27,23.961922,120.991131,0.028157007
C0R130,阿禮,2025-12-27,22.742908,120.743678,0.0067913313
C0X100,臺南市北區,2025-12-27,23.010394,120.194228,0.17200226
C0S920,金峰嘉蘭,2025-12-27,22.594789,120.960825,0.012594505
C0V490,新興,2025-12-27,22.627422,120.298803,0.14384499
C0F9K0,大安,2025-12-27,24.345061,120.588025,0.006622331
467290,古坑,2025-12-27,23.633639,120.551889,0.03183688
C2E970,八甲,2025-12-27,24.535811,120.795983,0.011191342
C0V440,鳳山,2025-12-27,22.646653,120.356122,0.10857665
C1T940,大觀,2025-12-27,23.714206,121.373133,0.0024052502
C0E740,造橋,2025-12-27,24.637056,120.864778,0.006574214
C0R100,尾寮山,2025-12-27,22.833111,120.683889,0.0076179327
A2K630,臺大雲林校區,2025-12-27,23.730628,120.423903,0.13607363
467990,馬祖,2025-12-27,26.169467,119.923158,0.0005780733
C0D580,寶山,2025-12-27,24.735006,121.025192,0.0066345073
E2P990,林試扇平站,2025-12-27,22.9677,120.6857,0.12623714
C0AI30,三重,2025-12-27,25.057328,121.500629,0.09826544
C0AH00,汐止,2025-12-27,25.066881,121.658778,0.07227991
C1Z040,立山,2025-12-27,23.443356,121.327375,0.017689323
466881,新北,2025-12-27,24.959207,121.525196,0.043848284
C0W130,花嶼,2025-12-27,23.40007,119.32276,0.00085204723
C0A950,鼻頭角,2025-12-27,25.129036,121.923372,0.10078323
C0K470,林內,2025-12-27,23.748675,120.609642,0.034998287
C2F990,摩天嶺,2025-12-27,24.322458,120.936819,0.012765929
C2E430,南庄,2025-12-27,24.601775,121.000214,0.010712606
82C160,茶改場,2025-12-27,24.908472,121.185333,0.00497203
C2TB60,南安,2025-12-27,23.29818,121.26157,0.06314279
C0Z320,清水林道,2025-12-27,23.27125,121.188272,0.0031959964
C0R760,南仁湖,2025-12-27,22.084681,120.863353,0.0049872342
C0M670,大林,2025-12-27,23.600616,120.45841,0.0988805
C0M800,茶山,2025-12-27,23.299075,120.664767,0.27811983
C0A9C0,天母,2025-12-27,25.117494,121.537169,0.11482214
72K220,南改斗南分場,2025-12-27,23.634556,120.477333,0.090978034
72AI40,桃改樹林分場,2025-12-27,24.944503,121.386972,0.1020893
C0S910,蘭嶼燈塔,2025-12-27,22.081197,121.503117,0.006703584
C0B050,八斗子,2025-12-27,25.144754,121.79167,0.33595765
C0U900,內城,2025-12-27,24.71813,121.68766,0.7189349
C0X320,柳營,2025-12-27,23.253328,120.375253,0.19385612
C0M790,新港,2025-12-27,23.553269,120.345728,0.41148382
C0F9T0,西屯,2025-12-27,24.179494,120.641275,0.019056145
C0E950,松安,2025-12-27,24.39792,120.98599,0.0015411967
C0SA30,都歷,2025-12-27,23.020333,121.323642,0.015987873
C0C620,蘆竹,2025-12-27,25.084275,121.265767,0.0047882088
C0R730,大坪頂,2025-12-27,22.024633,120.69355,0.002051096
C0AJ40,石門,2025-12-27,25.273672,121.601198,0.008233906
C0E750,苗栗,2025-12-27,24.564569,120.824575,0.01056801
C0T870,鯉魚潭,2025-12-27,23.935639,121.508944,0.06974399
C1V170,排雲,2025-12-27,23.463619,120.954147,0.00031447154
C2H950,中寮,2025-12-27,23.884447,120.766406,0.017204817
C0R350,貓鼻頭,2025-12-27,21.921774,120.7358,0.0028787984
C0V660,岡山,2025-12-27,22.797078,120.294958,0.09177393
C1H941,雙冬,2025-12-27,23.967378,120.802189,0.015940113
C0AJ70,田寮,2025-12-27,25.2698,121.4886,0.029144805
C0AI00,五股,2025-12-27,25.07445,121.42728,0.022653125
C0Z280,德武,2025-12-27,23.47426,121.41071,0.03515666
C2RA10,大新,2025-12-27,22.67558,120.57788,0.05357739
C0R700,枋山,2025-12-27,22.246844,120.661086,0.010594349
C0C460,復興,2025-12-27,24.820208,121.352281,0.012686129
C2K300,鹿南,2025-12-27,23.63855,120.3636,0.10362357
E2H360,蓮華池,2025-12-27,23.918333,120.885278,0.046449404
C0M640,中埔,2025-12-27,23.42538,120.5229,0.050788503
C0W140,金沙,2025-12-27,24.488292,118.408778,0.0013395427
C2A540,四堵,2025-12-27,24.8926,121.745736,0.07023085
C0ACA0,新莊,2025-12-27,25.051478,121.446756,0.07653491
C0R220,潮州,2025-12-27,22.534361,120.54,0.050699066
U2HA40,臺大內茅埔,2025-12-27,23.689722,120.851117,0.16341612
467490,臺中,2025-12-27,24.145736,120.684075,0.010662497
C0UB60,明池,2025-12-27,24.650688,121.475277,0.0006425416
C0U960,翠峰湖,2025-12-27,24.510856,121.608044,0.0004869681
E2HA20,林試畢祿溪站,2025-12-27,24.226944,121.308522,0.0006296539
C2M9A0,大華,2025-12-27,23.4824,120.67491,0.016454881
C0V890,前鎮,2025-12-27,22.5718,120.3117,0.14347656
C1F941,雪嶺,2025-12-27,24.280586,121.026642,0.00049725
C2H9E0,國姓南港,2025-12-27,23.911108,120.846556,0.0038281516
C0AC80,文山,2025-12-27,25.00235,121.575728,0.035246935
C0F9R0,龍井,2025-12-27,24.184536,120.528972,0.00655603
C0M760,民雄,2025-12-27,23.551754,120.428457,0.09791642
C0UA40,西德山,2025-12-27,24.560647,121.752608,0.013538178
C2TA70,赤科坪,2025-12-27,23.39885,121.39168,0.00095937523
C1T920,中興,2025-12-27,23.769503,121.498653,0.096079335
C0D550,雪霸,2025-12-27,24.526972,121.11605,0.0010833452
C2F860,梨山,2025-12-27,24.247522,121.243669,0.0006072173
C0R320,車城,2025-12-27,22.0744,120.716247,0.0062323133
C1S870,南美山,2025-12-27,23.15025,121.382333,0.025001151
C0B020,基隆嶼,2025-12-27,25.19141,121.78391,0.05039053
C1U501,牛鬥,2025-12-27,24.637836,121.573656,0.81471014
C0M730,嘉義市東區,2025-12-27,23.457673,120.460531,0.04835204
C2R990,泰武,2025-12-27,22.60686,120.69765,0.013596423
C0S700,知本,2025-12-27,22.684866,121.005642,0.002436216
C1N001,沙崙,2025-12-27,22.935472,120.309406,0.19365925
C0V760,橋頭,2025-12-27,22.757806,120.30575,0.11902604
C0G960,福寶,2025-12-27,24.0443,120.3814,0.01216027
C0X210,白河,2025-12-27,23.347466,120.414427,0.13440496
C0S810,東河,2025-12-27,22.972672,121.303986,0.018596448
C2R170,屏東,2025-12-27,22.66027,120.49403,0.037918728
C0R670,楓港,2025-12-27,22.190131,120.692156,0.0060461094
C0FA50,霧峰,2025-12-27,24.0419,120.6995,0.028060723
C0UB10,蘇澳,2025-12-27,24.5969,121.8571,0.94951016
C0G950,防潮門,2025-12-27,24.1835,120.4871,0.0065718004
C0M740,六腳,2025-12-27,23.492871,120.290625,0.46785355
C1R250,力里,2025-12-27,22.428117,120.629228,0.12807667
C0K330,虎尾,2025-12-27,23.719183,120.442036,0.13779967
C2FA00,烏石坑,2025-12-27,24.273503,120.947617,0.013579959
C0V620,永安,2025-12-27,22.82315,120.236856,0.09211603
C1I330,楓樹林,2025-12-27,23.986803,121.076117,0.0034301956
C0W200,湖西,2025-12-27,23.596314,119.67275,0.0008968017
72Q010,高雄農改場,2025-12-27,22.709333,120.525889,0.043730885
C0SA40,瑞和,2025-12-27,22.974361,121.156697,0.005100148
C0C680,龜山,2025-12-27,25.02846,121.38656,0.014118909
C2V260,月眉,2025-12-27,22.971003,120.539853,0.15978177
C0V450,鳳森,2025-12-27,22.545064,120.392592,0.042228956
C0FA90,小雪山林道,2025-12-27,24.29515,121.03651,0.00041354235
C0U720,南山,2025-12-27,24.43742,121.38167,0.0011585719
A2N290,臺南蘭花園區,2025-12-27,23.340258,120.379661,0.22000101
C0R560,新園,2025-12-27,22.5434,120.461558,0.052223034
C0U890,三星,2025-12-27,24.66812,121.65302,0.89256525
C1V300,御油山,2025-12-27,23.001983,120.715364,0.0018440149
C0U600,礁溪,2025-12-27,24.817539,121.765608,0.48535955
C1T980,龍澗,2025-12-27,24.023289,121.411328,0.0033514414
C0D670,海天一線,2025-12-27,24.831986,120.914438,0.0035578944
C0SA00,歷坵,2025-12-27,22.520969,120.89185,0.0012624772
C0M710,東石,2025-12-27,23.458927,120.15385,0.10980272
C0M780,鹿草,2025-12-27,23.41134,120.30835,0.38651267
C0U520,雙連埤,2025-12-27,24.753033,121.641303,0.09291447
C0B010,七堵,2025-12-27,25.094819,121.71713,0.105284564
C0R480,長治,2025-12-27,22.693128,120.542622,0.038652807
C1V830,國三S383K,2025-12-27,22.781967,120.426475,0.09443155
12Q980,恆春工作站,2025-12-27,22.079678,120.714425,0.0061897626
C1O940,東山服務區,2025-12-27,23.286016,120.398472,0.15478058
C1U840,東澳嶺,2025-12-27,24.5378,121.8485,0.10015849
C1D630,飛鳳山,2025-12-27,24.766464,121.119178,0.0026674175
C0S940,石寧山,2025-12-27,23.223772,121.406639,0.0010623469
C0K410,北港,2025-12-27,23.573957,120.292802,0.3340412
C2M620,瑞里,2025-12-27,23.545133,120.675197,0.006583176
C0SB70,小港漁港,2025-12-27,23.158558,121.400431,0.017946148
C2O950,安南,2025-12-27,23.076694,120.144861,0.08219218
C0F0E0,南湖圈谷,2025-12-27,24.363714,121.444667,0.00026491514
467610,成功,2025-12-27,23.097486,121.373428,0.08535223
C0G890,伸港,2025-12-27,24.148933,120.484403,0.0071943495
C2E540,龍溪,2025-12-27,24.606489,120.783933,0.006634101
C1V200,梅山,2025-12-27,23.268447,120.823556,0.04886251
C0T9H0,加路蘭山,2025-12-27,23.682947,121.5274,0.0009878691
C2O930,玉井,2025-12-27,23.126042,120.46055,0.17511274
C1F911,新伯公,2025-12-27,24.221361,120.841069,0.01010459
C0R490,九如,2025-12-27,22.7405,120.490503,0.043527655
C0X200,左鎮,2025-12-27,23.056758,120.408522,0.105636746
C2TB50,麻汝,2025-12-27,23.42554,121.39358,0.020527784
C0FA60,鞍馬山工作站,2025-12-27,24.267064,121.000793,0.00072798174
C0SB50,叭嗡嗡,2025-12-27,23.047062,121.343223,0.029470852
C1F891,稍來,2025-12-27,24.265689,121.001142,0.00075744384
C2M9C0,紫雲,2025-12-27,23.494914,120.540253,0.033984497
72N240,七股研究中心,2025-12-27,23.081672,120.062894,0.084272094
C0C700,中壢,2025-12-27,24.977661,121.256375,0.003924857
C0M690,水上,2025-12-27,23.419734,120.388909,0.13136896
C0V690,鼓山,2025-12-27,22.623325,120.275575,0.14385805
C0O860,大內,2025-12-27,23.11885,120.36083,0.2715166
C0Z200,萬榮,2025-12-27,23.709219,121.420106,0.051258907
C0T9D0,和中,2025-12-27,24.26676,121.74103,0.2634423
C2S9A0,北份子寮,2025-12-27,22.78561,121.07813,0.0033960475
C1O921,楠西,2025-12-27,23.183511,120.484083,0.14725098
C0AJ30,淡水觀海,2025-12-27,25.184591,121.408616,0.035920314
C0V810,左營,2025-12-27,22.67491,120.28491,0.113267824
C0UA70,桃源谷,2025-12-27,24.962606,121.888875,0.011396523
C0X130,官田,2025-12-27,23.193217,120.315422,0.3454264
C1H000,翠峰,2025-12-27,24.109397,121.205211,0.00040904657
C0UA90,石城,2025-12-27,24.980444,121.951214,0.5021287
C1E681,南勢山,2025-12-27,24.421669,120.923831,0.0029209463
C0A9F0,內湖,2025-12-27,25.079422,121.57545,0.091716796
C0K291,宜梧,2025-12-27,23.536281,120.169329,0.23503236
C1K540,口湖,2025-12-27,23.585344,120.180517,0.099618845
C0R780,滿州,2025-12-27,22.024403,120.839892,0.03884069
C0V870,文安,2025-12-27,22.8025,120.2164,0.09514169
C0U650,玉蘭,2025-12-27,24.675286,121.587061,0.32646447
C0R640,東港,2025-12-27,22.46247,120.44074,0.060747456
C0AJ80,板橋,2025-12-27,25.0107,121.4489,0.056074493
C0S660,下馬,2025-12-27,23.150427,121.070312,0.001045127
C2N190,烏樹,2025-12-27,23.32393,120.36989,0.17647642
C1H9B1,阿眉,2025-12-27,24.1263,120.994672,0.0020313475
C0UA20,多加屯,2025-12-27,24.368614,121.373189,0.00038330714
C0E730,頭份,2025-12-27,24.688247,120.912206,0.0033837045
72V140,高改旗南分場,2025-12-27,22.857861,120.516667,0.053511653
C0K480,莿桐,2025-12-27,23.761192,120.502372,0.10583425
C0U980,坪林石牌,2025-12-27,24.86478,121.77396,0.0153123075
C0T900,西林,2025-12-27,23.8119,121.441458,0.034148023
C1I150,青雲,2025-12-27,23.793361,120.949378,0.068319045
C2E980,和興,2025-12-27,24.505319,120.923016,0.014043086
467350,澎湖,2025-12-27,23.565503,119.563094,0.0008360768
C0G800,埔鹽,2025-12-27,24.000394,120.431683,0.014465007
C0H960,草屯,2025-12-27,23.973672,120.68085,0.026455034
C1V780,多納林道,2025-12-27,22.888028,120.737917,0.011569268
C0E920,通霄漁港,2025-12-27,24.498589,120.673876,0.028480383
C0Z330,安通山,2025-12-27,23.290728,121.348528,0.0056886817
C0AH10,永和,2025-12-27,25.01125,121.508111,0.05750032
C0AK10,太平里,2025-12-27,25.134937,121.364899,0.011253312
C2G640,鹿港,2025-12-27,24.0753,120.430481,0.01224503
C1E890,國三N149K,2025-12-27,24.463414,120.680019,0.00895608
C1R110,口社,2025-12-27,22.770111,120.645222,0.066445455
C1M870,國三N285K,2025-12-27,23.550319,120.505833,0.032087073
C1E480,鳳美,2025-12-27,24.554803,121.034747,0.019910395
C0T9M0,靜浦,2025-12-27,23.455167,121.495028,0.09819076
C2H9M0,發祥,2025-12-27,24.154094,121.164517,0.0061083045
C2G9C0,埔南,2025-12-27,23.99124,120.46969,0.014346946
C0AI40,石牌,2025-12-27,25.115597,121.513139,0.122545175
C1F871,上谷關,2025-12-27,24.203483,121.018644,0.0108340485
C2H9G0,百勝,2025-12-27,24.051142,120.909361,0.16868155
C0G880,二水,2025-12-27,23.810742,120.6173,0.038710184
C0R940,加祿堂,2025-12-27,22.3363,120.6217,0.013097785
C0W220,北竿,2025-12-27,26.220358,119.974881,0.000663815
C0O960,崎頂,2025-12-27,22.959547,120.369317,0.2727635
C0TA40,秀林,2025-12-27,24.302864,121.731144,0.002298711
C0S750,向陽,2025-12-27,23.248397,120.986133,0.00038151152
C0T9F0,水璉,2025-12-27,23.797131,121.542514,0.014531174
C1M600,頭凍,2025-12-27,23.406364,120.603339,0.0052731335
467660,臺東,2025-12-27,22.752211,121.154586,0.0013815108
C1D380,新埔,2025-12-27,24.84745,121.03834,0.005519525
C2G980,田頭村,2025-12-27,23.8263,120.444175,0.13445295
C0V750,路竹,2025-12-27,22.854997,120.259439,0.087063685
C0N050,蚵寮,2025-12-27,23.301,120.1104,0.20733203
C2X060,下營,2025-12-27,23.226806,120.256291,0.35096082
72M700,南改鹿草分場,2025-12-27,23.416869,120.283061,0.38681346
C1SA50,利嘉林道,2025-12-27,22.82325,121.009389,0.0014348816
C0UB70,太平山中間站,2025-12-27,24.542003,121.513453,0.008614879
C0A940,金山,2025-12-27,25.223628,121.643967,0.09042566
C1V340,大津,2025-12-27,22.888322,120.645986,0.06535295
C0W180,七美,2025-12-27,23.219333,119.444892,0.0011070468
C1F9C1,白冷,2025-12-27,24.182844,120.929889,0.031538613
K2E710,苗改生物防治研究中心,2025-12-27,24.422861,120.871833,0.006204517
C0N040,蘆竹溝,2025-12-27,23.2344,120.0961,0.180208
C0TB40,崇德,2025-12-27,24.166144,121.657414,0.016328393
C0D760,大坪苗圃,2025-12-27,24.5362,121.1108,0.001198068
C2W230,畜試所澎湖,2025-12-27,23.628342,119.513206,0.00053361146
C0R880,後壁湖,2025-12-27,21.9457,120.7457,0.0053232275
C1I280,埔中,2025-12-27,23.820778,120.642594,0.049604435
467790,墾丁雷達站,2025-12-27,21.948235,120.808028,0.013743206
C0W190,望安,2025-12-27,23.380564,119.494075,0.000670141
C0Z170,卓溪,2025-12-27,23.3443,121.3029,0.06868471
C0F850,東勢,2025-12-27,24.246428,120.833047,0.014719332
466900,淡水,2025-12-27,25.164889,121.448906,0.0112372255
C0I370,魚池,2025-12-27,23.895703,120.94135,0.06298009
C0C630,大溪,2025-12-27,24.882853,121.265547,0.007814957
C0A520,山佳,2025-12-27,24.974944,121.402008,0.048750114
C0I110,竹山,2025-12-27,23.761225,120.688156,0.05730362
82H840,茶改南部分場,2025-12-27,23.762528,120.7405,0.057302784
C2SD80,再來山,2025-12-27,23.34371,121.44122,0.0006882397
C0G660,溪湖,2025-12-27,23.94835,120.479122,0.060843684
C1T800,洛韶,2025-12-27,24.204558,121.453956,0.000859262
C1T810,慈恩,2025-12-27,24.192044,121.388386,0.00036056802
C1E451,象鼻,2025-12-27,24.368617,120.940228,0.009497866
C0AC60,三峽,2025-12-27,24.939025,121.369728,0.0073225675
C0I490,萬大林道,2025-12-27,23.928228,121.091411,0.0012386664
C1I290,豐丘,2025-12-27,23.668178,120.887417,0.0065581356
C1I320,奧萬大,2025-12-27,23.952956,121.178556,0.0017751878
C2M910,嘉義大學,2025-12-27,23.471325,120.485903,0.045792148
C0U770,南澳,2025-12-27,24.44935,121.81022,0.5090957
C2TB30,吉安,2025-12-27,23.94538,121.54803,0.12118617
C0A980,社子,2025-12-27,25.109508,121.469681,0.08028537
C0V800,六龜,2025-12-27,22.997889,120.633583,0.23233695
C1G9D0,國一S218K,2025-12-27,23.890641,120.493253,0.090117745
C0E570,白沙屯,2025-12-27,24.549447,120.696803,0.004108312
C2F9A0,中竹林,2025-12-27,24.103556,120.751061,0.013379057
C0FA40,臺中電廠,2025-12-27,24.2146,120.4907,0.006545519
C2G9A0,畜試所彰化,2025-12-27,23.86045,120.557964,0.13174407
C0H9C0,合歡山,2025-12-27,24.143442,121.272547,0.00030480154
G2M350,農試溪口農場,2025-12-27,23.58565,120.408111,0.09522877
C0U860,頭城,2025-12-27,24.85323,121.8308,0.49493688
C0R580,南州,2025-12-27,22.48591,120.50274,0.060747456
C0D430,峨眉,2025-12-27,24.6905,121.017189,0.0051256353
C0G780,秀水,2025-12-27,24.03405,120.503869,0.043902043
72N100,臺南農改場,2025-12-27,23.0605,120.342194,0.28667715
C0S900,蘭嶼高中,2025-12-27,22.04909,121.51214,0.024269333
C2TA60,六十石,2025-12-27,23.22477,121.31861,0.0007297018
C1F9W0,德基,2025-12-27,24.254783,121.190261,0.00101948
C2M980,安和,2025-12-27,23.51377,120.31593,0.46606278
C1Z120,壽豐,2025-12-27,23.870853,121.508081,0.18469244
C0W160,烏坵,2025-12-27,24.9944,119.44956,0.00040173891
C1I240,外大坪,2025-12-27,23.958697,120.917931,0.026525162
C1I550,國六W023K,2025-12-27,23.979067,120.867742,0.041768175
C0R870,興海,2025-12-27,21.9752,120.8439,0.022976074
C0R140,瑪家,2025-12-27,22.682903,120.686639,0.06329943
C0A530,坪林,2025-12-27,24.938183,121.70975,0.12657192
C0X260,後壁,2025-12-27,23.366358,120.362326,0.32398775
C0Z230,和平,2025-12-27,24.30717,121.77007,0.46855602
C0G770,福興,2025-12-27,24.041289,120.437669,0.014408369
C0H9A0,神木村,2025-12-27,23.532742,120.843667,0.0030357966
C0I460,南投,2025-12-27,23.911469,120.687331,0.025006397
C0I480,梅峰,2025-12-27,24.085272,121.173572,0.0005013458
C1V570,吉東,2025-12-27,22.85422,120.5454,0.056696843
C2A560,福山,2025-12-27,24.776203,121.502811,0.4464951
C0AH30,五分山,2025-12-27,25.07125,121.780794,0.0013448782
C0FA10,松柏,2025-12-27,24.429115,120.617482,0.009369742
72S200,東改班鳩分場,2025-12-27,22.829528,121.077694,0.0011046644
72HA00,中改埔里分場,2025-12-27,23.903208,120.963364,0.057250656
C2H9W0,大坪頂農水,2025-12-27,24.043122,120.932781,0.045256894
C0C650,平鎮,2025-12-27,24.897503,121.214636,0.0045412523
C0S930,延平,2025-12-27,22.902581,121.084058,0.001402738
C0UA60,樟樹山,2025-12-27,24.41393,121.78325,0.06880466
C2UC10,出水溪,2025-12-27,24.615822,121.652253,0.1204984
C1S670,摩天,2025-12-27,23.199503,121.027,0.0009063615
C2C590,觀音,2025-12-27,25.027072,121.153317,0.001838878
C0V630,茄萣,2025-12-27,22.906642,120.182608,0.06857275
466940,基隆,2025-12-27,25.133314,121.740475,0.3301739
C0X050,東河,2025-12-27,23.296598,120.385608,0.14721619
C0R770,保力,2025-12-27,22.071122,120.764111,0.0054785497
G2L020,農試嘉義分所,2025-12-27,23.485028,120.473806,0.033750787
C0X240,關子嶺,2025-12-27,23.331169,120.508025,0.10892615
C0I380,集集,2025-12-27,23.828206,120.801467,0.088875316
466990,花蓮,2025-12-27,23.975128,121.613275,0.42790833
C1V220,小關山,2025-12-27,23.154217,120.813603,0.0013451275
C1F9G1,慶福山,2025-12-27,24.180853,120.848378,0.0031621861
C0FB20,雪山橋,2025-12-27,24.23192,120.9786,0.0010480968
C0Z250,瑞穗林道,2025-12-27,23.49284,121.30688,0.0024109548
C0D590,新豐,2025-12-27,24.87068,120.97721,0.0029882863
C0A870,五指山,2025-12-27,25.132153,121.608692,0.00069477217
C0UA50,西帽山,2025-12-27,24.555361,121.802628,0.06240425
C2R980,竹田國中,2025-12-27,22.61532,120.52412,0.05010024
C0X160,仁德,2025-12-27,22.968258,120.257689,0.13810049
C1H971,六分寮,2025-12-27,23.92507,120.6378,0.037399203
C0W120,西嶼,2025-12-27,23.5626,119.468436,0.0008056736
C0G650,員林,2025-12-27,23.946503,120.585597,0.06383604
C0AD50,鶯歌,2025-12-27,24.951533,121.346294,0.006369724
C2H9Q0,北東眼山,2025-12-27,24.120939,121.189303,0.0007293709
C2H9T0,名間竹圍,2025-12-27,23.859914,120.637572,0.11150242
C0S990,山豬窟,2025-12-27,22.318619,120.857372,0.17112611
C0X190,安平,2025-12-27,22.993161,120.152181,0.17192744
C0K400,斗六,2025-12-27,23.720583,120.541127,0.10342186
12J990,口湖工作站,2025-12-27,23.589978,120.180394,0.10036365
C0O830,北寮,2025-12-27,23.079561,120.495008,0.1548006
C1D410,白蘭,2025-12-27,24.579364,121.079947,0.001374483
C0S970,加津林,2025-12-27,22.416211,120.926942,0.09599437
C0D700,關西,2025-12-27,24.7977,121.1732,0.05183447
C0U750,龜山島,2025-12-27,24.841667,121.953133,0.026813295
C0R810,內獅,2025-12-27,22.305064,120.642986,0.01332442
C1M390,龍美,2025-12-27,23.406728,120.654417,0.011540399
C2K290,崙內,2025-12-27,23.69525,120.35601,0.062734045
C2FB60,頭櫃山,2025-12-27,24.129842,120.858925,0.00867615
C1H840,國三N238K,2025-12-27,23.841008,120.707711,0.12049459
CAQ030,崎峰國小,2025-12-27,22.42565,120.49521,0.060747456
C2E520,大湖,2025-12-27,24.414939,120.870872,0.0047530904
467530,阿里山,2025-12-27,23.508208,120.813242,0.0007436653
C1E691,南湖,2025-12-27,24.40135,120.837533,0.0009005171
C0FA30,梧棲,2025-12-27,24.256003,120.523381,0.0070879334
C1V231,高中,2025-12-27,23.134911,120.716711,0.06429172
C0AK30,硬漢嶺,2025-12-27,25.136097,121.426372,0.0008418538
C0F9V0,新社,2025-12-27,24.200172,120.815806,0.0065062298
C0H890,埔里,2025-12-27,23.972169,120.952425,0.18433443
C0R690,墾丁,2025-12-27,21.966756,120.810269,0.0016145887
C0SD20,富山,2025-12-27,22.822383,121.190825,0.014548503
C0F0D0,審馬陣,2025-12-27,24.381675,121.4203,0.00020021801
C2W030,金門農試所,2025-12-27,24.448431,118.451786,0.0005650072
C0R820,白鷺,2025-12-27,22.454275,120.666219,0.06985912
C0FB00,大雪山,2025-12-27,24.254668,121.007374,0.00068612036
C1V190,南天池,2025-12-27,23.27403,120.91176,0.00032983875
C0E940,雪見,2025-12-27,24.42595,121.01347,0.0011412253
K2E360,苗栗農改場,2025-12-27,24.495722,120.829111,0.016911544
CAJ050,海口故事園區,2025-12-27,23.57543,120.14121,0.099950075
C2K280,四湖,2025-12-27,23.6304,120.22717,0.054044418
C2H9D0,三隻寮,2025-12-27,24.093078,120.861578,0.011799602
C0O990,媽廟,2025-12-27,22.99175,120.293525,0.24305426
C0D480,打鐵坑,2025-12-27,24.849664,121.150789,0.04124951
C0Z220,和平林道,2025-12-27,24.343922,121.656317,0.010810192
C0TA10,花蓮漁港,2025-12-27,23.995322,121.638331,0.017174352
72C440,桃園農改場,2025-12-27,24.950944,121.030583,0.0028513356
C1E711,馬拉邦山,2025-12-27,24.367306,120.901656,0.008644419
C0SB20,富岡,2025-12-27,22.792467,121.192669,0.0010157658
C0D560,竹東,2025-12-27,24.767147,121.057881,0.005520467
C0F9U0,南屯,2025-12-27,24.137006,120.637969,0.023378383
C2SD60,明峰,2025-12-27,22.8671,121.11825,0.00093593315
C0M720,番路,2025-12-27,23.464657,120.554156,0.060773052
C0F0A0,雪山圈谷,2025-12-27,24.388594,121.236339,0.00036294543
C1A9N0,四十份,2025-12-27,24.934158,121.593283,0.005195267
C0U760,東澳,2025-12-27,24.52196,121.83318,0.8317993
C0X230,鹽水,2025-12-27,23.272621,120.247641,0.20855235
C2H9H0,苗改南投蜂場,2025-12-27,23.852589,120.693481,0.07110631
C2TB70,達谷寮,2025-12-27,23.38,121.35968,0.08900209
C0R950,萬隆國小,2025-12-27,22.507667,120.587817,0.043090317
467540,大武,2025-12-27,22.35572,120.90374,0.02416409
C0V370,古亭坑,2025-12-27,22.893178,120.401947,0.1456511
C1I340,新興橋,2025-12-27,23.563333,120.868728,0.03943037
C0SA80,土坂,2025-12-27,22.453108,120.887572,0.014060071
C0R160,鹽埔,2025-12-27,22.739558,120.530778,0.04364937
C0AC40,大屯山,2025-12-27,25.175675,121.522408,0.00045541013
466850,五分山雷達站,2025-12-27,25.071182,121.781205,0.0012940703
C2H9L0,馬烈霸,2025-12-27,24.1512,121.201772,0.0008188351
C1AI50,國三N016K,2025-12-27,25.034164,121.619664,0.06762646
C2V920,匏子寮,2025-12-27,23.04905,120.55319,0.22721134
C1V600,藤枝,2025-12-27,23.071961,120.757042,0.0020214778
C1E601,南勢,2025-12-27,24.572486,120.734842,0.0057671433
C0O980,新市,2025-12-27,23.061614,120.298197,0.24471934
C0K420,西螺,2025-12-27,23.800407,120.467394,0.13918862
C0Z050,佳心,2025-12-27,23.34567,121.21316,0.001169347
C0AD30,蘆洲,2025-12-27,25.086594,121.472331,0.09661505
C0V610,梓官,2025-12-27,22.760558,120.267211,0.11907268
K2F750,種苗改良場,2025-12-27,24.225972,120.800917,0.0082777105
C0UA80,大溪漁港,2025-12-27,24.941801,121.902955,0.484991
C1AI60,國一39K邊坡,2025-12-27,25.064361,121.383836,0.017837064
C0W150,金寧,2025-12-27,24.457703,118.328989,0.0017097326
C0R960,內埔,2025-12-27,22.608483,120.570714,0.04826638
V2C250,八德合作社,2025-12-27,24.93775,121.266389,0.0047489507
C2H9S0,龍南,2025-12-27,23.953536,120.833183,0.008415977
C0AH40,平等,2025-12-27,25.129142,121.577086,0.0014011207
C0R540,佳冬,2025-12-27,22.419456,120.552375,0.035585195
466950,彭佳嶼,2025-12-27,25.627975,122.079744,0.0032264045
C0A890,雙溪,2025-12-27,25.036003,121.864242,0.34708166
C0C480,桃園,2025-12-27,24.992425,121.323172,0.0042095687
C0AH50,林口,2025-12-27,25.072181,121.38084,0.012236513
A2K360,水試臺西試驗場,2025-12-27,23.717231,120.190522,0.04383041
C2M960,外寮,2025-12-27,23.562643,120.665688,0.015201416
C0F9S0,烏日,2025-12-27,24.107058,120.624103,0.029962879
C2N180,鹿陶洋,2025-12-27,23.14325,120.48352,0.14751762
C0C490,八德,2025-12-27,24.928708,121.283289,0.0047140364
C0R190,赤山,2025-12-27,22.592333,120.614306,0.046285324
C0T820,天祥,2025-12-27,24.179597,121.495639,0.15144435
C1F9E1,龍安,2025-12-27,24.1605,120.831961,0.0054899952
C2SD50,順那,2025-12-27,23.04166,121.29332,0.008609701
C0V820,小林,2025-12-27,23.148408,120.63325,0.08406941
C2G870,芳苑,2025-12-27,23.922303,120.320025,0.013073641
C0E850,大河,2025-12-27,24.618069,120.948578,0.006385123
C1U670,寒溪,2025-12-27,24.634,121.71691,0.8949946
C0N020,城西,2025-12-27,23.0568,120.0956,0.17129649
C1Z110,三棧,2025-12-27,24.11557,121.60501,0.03915988
C0R280,檳榔,2025-12-27,22.076078,120.836777,0.0050252443
C2H9J0,中台,2025-12-27,23.9996,120.938739,0.1048215
C0F9L0,后里,2025-12-27,24.310436,120.729725,0.014198692
467441,高雄,2025-12-27,22.730432,120.312516,0.11783591
C0Z180,新城,2025-12-27,24.040486,121.604878,0.40447462
C0D540,橫山,2025-12-27,24.71116,121.11693,0.008127103
C1D420,太閣南,2025-12-27,24.632808,121.160575,0.00088989636
C1E770,公館,2025-12-27,24.526914,120.830806,0.016599117
CAN130,水試所海水繁養殖中心,2025-12-27,23.120802,120.07968,0.084493
C1I430,翠華,2025-12-27,24.191961,121.224339,0.0004419966
C1M400,菜瓜坪,2025-12-27,23.251928,120.576103,0.24471673
C0G730,二林,2025-12-27,23.903325,120.376081,0.019446025
72M360,南改義竹分場,2025-12-27,23.360694,120.279361,0.23381642
V2K620,麥寮合作社,2025-12-27,23.753836,120.294783,0.066274345
C0Z070,舞鶴,2025-12-27,23.46811,121.37407,0.02160189
C0B040,大武崙,2025-12-27,25.166676,121.706993,0.29577863
C1Z030,紅葉,2025-12-27,23.493119,121.338806,0.044948556
C1I050,丹大,2025-12-27,23.753747,121.141147,0.00033602043
C0I080,信義,2025-12-27,23.689694,120.851036,0.16341592
C2TB80,庄子底,2025-12-27,23.71794,121.49438,0.08179579
C0D750,樂山林道6k,2025-12-27,24.49999,121.08773,0.0006413788
C2M920,朴子農改,2025-12-27,23.469889,120.259383,0.38280502
C2A880,福隆,2025-12-27,25.017842,121.942083,0.5086366
C0Z160,鳳林,2025-12-27,23.746114,121.453411,0.071822144
C0UB80,翠峰林道6K,2025-12-27,24.49773,121.568625,0.00032465093
C0V210,復興,2025-12-27,23.222403,120.806089,0.115221426
C0H990,昆陽,2025-12-27,24.121322,121.273642,0.0003010018
C0R741,獅子,2025-12-27,22.202308,120.705236,0.016450705
C0S710,鹿野,2025-12-27,22.917711,121.122994,0.00096020784
C0I530,小奇萊,2025-12-27,24.131764,121.295717,0.00032570714
C0FA70,大雪山埡口,2025-12-27,24.26867,121.03062,0.0004995298
C2K630,荷苞,2025-12-27,23.657717,120.595144,0.031494737
C0Z080,富源,2025-12-27,23.587642,121.378225,0.017723477
C2M9E0,旺來山,2025-12-27,23.555153,120.486463,0.032655574
C0SB10,美和,2025-12-27,22.682078,121.060236,0.048384532
C2K620,馬光農場,2025-12-27,23.721453,120.378864,0.13264327
C1I140,卡奈托灣,2025-12-27,23.754364,121.087872,0.0012606534
C0I520,玉山風口,2025-12-27,23.470489,120.955994,0.00033003537
C1G691,下水埔,2025-12-27,23.816114,120.5676,0.11052686
C0X110,臺南市南區,2025-12-27,22.961189,120.188378,0.13494243
C0V680,仁武,2025-12-27,22.701083,120.347722,0.11310549
C2G840,北斗,2025-12-27,23.877586,120.514222,0.08713083
C2TB90,長橋,2025-12-27,23.6874,121.46186,0.18940863
C0R900,竹坑,2025-12-27,22.1385,120.7022,0.0029212588
C0G860,社頭,2025-12-27,23.897647,120.5862,0.10035966
C0X150,安定,2025-12-27,23.102614,120.227839,0.22485192
C0R590,里港,2025-12-27,22.77919,120.49459,0.05827172
C0E610,馬都安,2025-12-27,24.451272,120.930192,0.0043830113
C0E550,明德,2025-12-27,24.583486,120.885411,0.0105716
C0R150,三地門,2025-12-27,22.709889,120.639944,0.06440049
C0G910,花壇,2025-12-27,24.032076,120.549461,0.04051939
C1D400,鳥嘴山,2025-12-27,24.71909,121.28387,0.002618073
C0K500,元長,2025-12-27,23.64981,120.315024,0.10665541
C0F0B0,石岡,2025-12-27,24.276061,120.777644,0.017090347
C2V250,甲仙,2025-12-27,23.080106,120.591758,0.2501068
C0SA20,金崙山,2025-12-27,22.567419,120.959667,0.0007661391
C0V350,溪埔,2025-12-27,22.738578,120.446797,0.044881597
C0M660,溪口,2025-12-27,23.604131,120.403569,0.095209874
C1S880,壽卡,2025-12-27,22.238911,120.858903,0.066935144
72D680,桃改新埔分場,2025-12-27,24.834444,121.066111,0.0055726296
