站號,站名,日期,lat,lon,BLBTSLS
C0R710,龍磐,2025-04-21,21.931672,120.838942,0.0025821065
C1F9D1,白毛台,2025-04-21,24.158325,120.886933,4.7276822e-07
C0G940,竹塘,2025-04-21,23.848253,120.386764,0.99422675
467590,恆春,2025-04-21,22.003897,120.746339,0.019003395
C1O850,環湖,2025-04-21,23.148617,120.418633,0.0008272345
C0U710,太平山,2025-04-21,24.505486,121.525656,1.09875415e-08
C0E820,獅潭,2025-04-21,24.539133,120.920042,3.7908848e-08
C0V880,興達,2025-04-21,22.8778,120.2127,0.9983375
C0S890,關山,2025-04-21,23.0395,121.175017,0.38457897
C0SB30,新蘭,2025-04-21,22.869214,121.223228,0.99548554
C2R970,屏科大,2025-04-21,22.648275,120.619247,1.8908948e-05
C1Z130,銅門,2025-04-21,23.965694,121.492842,0.9995893
C0AD40,土城,2025-04-21,24.973208,121.445169,9.6885415e-09
CAN140,六官養殖協會,2025-04-21,23.22881,120.29962,0.97654337
C0X180,山上,2025-04-21,23.0757,120.363253,0.9940732
C0F9Z0,雪山東峰,2025-04-21,24.388792,121.268675,4.5976392e-08
C1M480,獨立山,2025-04-21,23.537022,120.607797,1.0673863e-06
C0X220,學甲,2025-04-21,23.230367,120.182187,0.9766574
467650,日月潭,2025-04-21,23.881325,120.90805,5.878788e-08
C0K600,箔子寮,2025-04-21,23.6197,120.14,0.0149381375
C0G830,埤頭,2025-04-21,23.866003,120.452806,0.9937534
C0S950,七塊厝,2025-04-21,22.954453,121.229922,0.00018753225
467110,金門,2025-04-21,24.407306,118.289281,3.2333858e-09
C0AH80,深坑,2025-04-21,25.002703,121.628328,6.673083e-09
C0A970,三貂角,2025-04-21,25.007606,122.002058,3.6974058e-07
C2D730,寶山農場,2025-04-21,24.732444,120.976153,1.7483144e-07
C0K430,褒忠,2025-04-21,23.690938,120.303634,0.005434479
467480,嘉義,2025-04-21,23.495925,120.432906,0.0033789303
C0V400,阿公店,2025-04-21,22.804194,120.355528,0.99047786
467550,玉山,2025-04-21,23.48718,120.95943,4.382866e-08
C0R440,大漢山,2025-04-21,22.405264,120.753181,4.6415605e-09
C0K280,四湖,2025-04-21,23.630414,120.227125,0.007057099
C1F9B1,桐林,2025-04-21,24.066172,120.735194,0.00063951587
C2H9U0,鳳鵬,2025-04-21,23.763919,120.788061,0.31695116
C0K390,土庫,2025-04-21,23.679029,120.395574,0.9938291
C1I450,望鄉山,2025-04-21,23.594153,120.944286,2.1945983e-08
C0E910,海埔,2025-04-21,24.648767,120.772435,0.535999
B2E890,畜試北區分所,2025-04-21,24.527806,120.770972,0.012947343
C0R750,四林格山,2025-04-21,22.076989,120.802439,3.74772e-08
C0F0C0,中坑,2025-04-21,24.248517,120.903319,1.0044461e-08
C1I121,大鞍,2025-04-21,23.678381,120.760017,9.322979e-09
72U480,花改蘭陽分場,2025-04-21,24.686306,121.716583,5.476986e-06
C0A770,科教館,2025-04-21,25.096356,121.516507,1.1362777e-08
C0AJ60,六塊厝,2025-04-21,25.24,121.4481,1.2445151e-08
C0R620,墾雷,2025-04-21,21.900836,120.855269,0.015159967
467420,永康,2025-04-21,23.038386,120.2367,0.9980183
C0I410,名間,2025-04-21,23.837053,120.701447,0.7931047
A2C560,農工中心,2025-04-21,24.985917,121.239833,4.533788e-09
C0V740,旗山,2025-04-21,22.888614,120.483597,0.98913497
C0Z061,玉里,2025-04-21,23.3215,121.339656,0.95878875
C0S840,南田,2025-04-21,22.279725,120.889208,0.0124665955
C1I470,杉林溪,2025-04-21,23.639517,120.786444,8.412863e-09
C1X040,東原,2025-04-21,23.291597,120.463822,0.33074778
C0R660,枋寮,2025-04-21,22.367722,120.590647,0.98279214
C1R120,上德文,2025-04-21,22.763272,120.704442,3.3866208e-09
C0K450,大埤,2025-04-21,23.646074,120.431537,0.99362946
C0UA00,土場,2025-04-21,24.576533,121.495333,0.559085
467080,宜蘭,2025-04-21,24.763975,121.756528,1.3932006e-05
C0N030,四草,2025-04-21,23.0235,120.1116,0.98155737
467410,臺南,2025-04-21,22.99328,120.20492,0.9975936
C0V650,彌陀,2025-04-21,22.783806,120.246361,0.99324894
C0D660,新竹市東區,2025-04-21,24.798681,120.986942,0.0806401
82S580,茶改東部分場,2025-04-21,22.907694,121.130139,0.8502272
C0SB40,興隆,2025-04-21,22.913661,121.257469,0.9943256
467050,新屋,2025-04-21,25.006725,121.047492,1.27883615e-08
C0C710,大溪永福,2025-04-21,24.892936,121.324975,3.9933004e-09
C0FA20,溫寮,2025-04-21,24.372177,120.583125,0.52238023
C0V640,湖內,2025-04-21,22.887139,120.2445,0.9979815
C0R910,下寮,2025-04-21,22.3929,120.5548,0.98287797
C0Z020,明里,2025-04-21,23.208717,121.262342,0.37549916
C0M770,嘉義梅山,2025-04-21,23.585398,120.555587,0.8440558
C0C660,楊梅,2025-04-21,24.912375,121.143047,3.361984e-09
C1E511,新開,2025-04-21,24.347703,120.827019,0.064933926
G2F820,農試所(霧峰),2025-04-21,24.031261,120.688133,0.018698132
C1I070,和社,2025-04-21,23.591131,120.888861,1.3349736e-08
C2F000,大肚,2025-04-21,24.15295,120.572117,0.8876994
C1S850,豐南,2025-04-21,23.122139,121.262389,1.2691159e-05
C2A920,富貴角,2025-04-21,25.263783,121.565258,2.6359237e-09
CAH030,茶改場竹圍站,2025-04-21,23.860083,120.637528,0.46095657
C0T960,光復,2025-04-21,23.660694,121.424964,0.9997894
C0F9M0,豐原,2025-04-21,24.254322,120.720692,6.433692e-06
C0R720,旭海,2025-04-21,22.205403,120.887614,1.8526663e-07
C0V710,苓雅,2025-04-21,22.622742,120.330669,0.9929559
C0C740,觀音工業區,2025-04-21,25.064764,121.114856,1.511662e-08
CAC040,拉拉山,2025-04-21,24.699317,121.427133,9.823578e-09
C0V790,萬山,2025-04-21,22.905944,120.688056,0.7120189
U2HA30,臺大和社,2025-04-21,23.590856,120.888864,1.3349736e-08
C0AJ90,澳底,2025-04-21,25.0552,121.9253,1.3635052e-05
C0Z100,東華,2025-04-21,23.89525,121.549833,0.9998866
C0G970,三豐,2025-04-21,23.882,120.2895,0.012400469
V2K610,大庄合作社,2025-04-21,23.8068,120.367939,0.0034280007
C0V900,汕尾,2025-04-21,22.4782,120.4151,0.9830475
C1R630,龍泉,2025-04-21,22.66701,120.59091,0.0016788224
C1AC50,關渡,2025-04-21,25.133486,121.469331,4.2481796e-09
C0F9I0,神岡,2025-04-21,24.272481,120.658314,2.3504648e-05
C0K460,斗南,2025-04-21,23.678734,120.478359,0.99216825
C2O810,曾文,2025-04-21,23.219681,120.497328,0.8327439
467280,後龍,2025-04-21,24.648563,120.831834,0.19339268
C1F9J1,清水林,2025-04-21,24.071242,120.820419,5.564498e-05
C2A650,火燒寮,2025-04-21,25.002719,121.742892,9.4134815e-09
466930,竹子湖,2025-04-21,25.162078,121.544547,8.584664e-10
C1I220,樟湖,2025-04-21,23.905333,120.846983,1.8372194e-08
C0I390,仁愛,2025-04-21,24.022122,121.132206,1.5429329e-08
C0Z300,東里,2025-04-21,23.26853,121.30547,0.9305447
C1V590,新發,2025-04-21,23.057019,120.646064,4.373517e-10
C0K510,水林,2025-04-21,23.572924,120.24597,0.012141993
72S590,東改賓朗果園,2025-04-21,22.813889,121.071278,0.019747376
82A750,茶改北部分場,2025-04-21,24.955778,121.631222,1.0122811e-09
C1A750,石碇服務區,2025-04-21,25.00872,121.646242,5.4285834e-09
C0X300,鹿寮,2025-04-21,23.386047,120.477331,0.98441774
G2AI50,關渡,2025-04-21,25.11575,121.492,1.1524908e-08
C0K590,雲林東勢,2025-04-21,23.674192,120.255721,0.00528918
C0A570,桶後,2025-04-21,24.848222,121.597992,0.9844173
C1S800,華源,2025-04-21,22.657883,121.02325,0.9821868
C0G720,溪州,2025-04-21,23.851589,120.499093,0.9919989
C1V160,達卡努瓦,2025-04-21,23.279811,120.705319,2.2779105e-09
C2M410,馬頭山,2025-04-21,23.324361,120.582017,0.96205914
C0V850,蚵仔寮,2025-04-21,22.7256,120.2527,0.9937089
C0S740,池上,2025-04-21,23.119628,121.209469,0.024368297
C1V390,尖山,2025-04-21,22.813153,120.367789,0.98781264
C0AH70,松山,2025-04-21,25.04871,121.55042,1.06968825e-08
C0N010,鯤鯓國小,2025-04-21,23.1879,120.0889,0.9811545
C0R550,新埤,2025-04-21,22.467947,120.582894,0.97288054
C0SA60,知本（水試所）,2025-04-21,22.702394,121.082761,0.99726105
C0T9I0,豐濱,2025-04-21,23.583897,121.514806,0.9997499
C0UB00,淡江大學蘭陽校園,2025-04-21,24.823239,121.730383,1.1375988e-07
C0W240,九宮,2025-04-21,24.423753,118.240186,3.4482885e-09
C0T9N0,富里,2025-04-21,23.171639,121.249378,0.15927486
U2HA50,臺大竹山,2025-04-21,23.756972,120.681556,0.7979253
C0V840,鳳鼻頭,2025-04-21,22.5083,120.3591,0.9937089
C0X140,西港,2025-04-21,23.125608,120.203108,0.97649854
72D080,桃改五峰分場,2025-04-21,24.612194,121.157167,9.084251e-09
C2H9P0,伊拿谷,2025-04-21,23.963211,121.088264,5.981995e-07
C2H9F0,柑林,2025-04-21,24.018658,120.847072,0.9157276
C0TA20,加灣,2025-04-21,24.082025,121.608944,0.99989337
C0V530,阿蓮,2025-04-21,22.883208,120.327508,0.99727595
C1O880,關山,2025-04-21,23.173397,120.594092,0.9572611
C0E791,卓蘭,2025-04-21,24.3126,120.8244,0.036008902
C1I030,武界,2025-04-21,23.913225,121.052483,2.6872638e-07
C0R520,崁頂,2025-04-21,22.514781,120.506914,0.98054343
C0R341,牡丹,2025-04-21,22.130036,120.792639,0.00016602421
C0R930,萬丹,2025-04-21,22.5885,120.4851,0.97566867
C0S760,紅石,2025-04-21,23.069131,121.126219,3.2209828e-09
C2C410,中央大學,2025-04-21,24.967652,121.185165,4.1809933e-09
C1M610,石磐龍,2025-04-21,23.496606,120.663506,1.6166961e-08
C0UA10,鴛鴦湖,2025-04-21,24.590269,121.412228,1.0107922e-08
V2C260,八德蔬果,2025-04-21,24.978508,121.281819,4.760041e-09
C0R800,丹路,2025-04-21,22.204481,120.750989,0.24063537
C0G920,永靖,2025-04-21,23.924703,120.547533,0.0022162863
C2M950,太和,2025-04-21,23.538372,120.702961,7.3533535e-09
C1A630,下盆,2025-04-21,24.771003,121.538622,2.355435e-08
B2N890,畜產試驗所,2025-04-21,23.058972,120.336406,0.99693334
C0UA30,白嶺,2025-04-21,24.527819,121.519031,5.6819602e-09
C1V580,溪南(特生中心),2025-04-21,23.084972,120.788475,6.7641945e-09
C1T970,大農,2025-04-21,23.615233,121.413331,0.99957895
C0R650,竹田,2025-04-21,22.58486,120.54344,0.97613674
C1H900,清流,2025-04-21,24.080775,120.962997,5.7597674e-07
C1C510,水尾,2025-04-21,24.940081,121.087161,5.532127e-09
C0F9X0,大雅(中科園區),2025-04-21,24.21528,120.62445,3.958393e-05
C0SB60,白守蓮,2025-04-21,23.126769,121.401914,0.99724954
C0O970,虎頭埤,2025-04-21,23.021375,120.347878,0.9940389
C0C730,中大臨海站,2025-04-21,24.966126,121.008581,1.7125062e-08
C0X250,新營,2025-04-21,23.310689,120.316681,0.9727519
C0V700,三民,2025-04-21,22.645017,120.311233,0.9929559
C0U870,大礁溪,2025-04-21,24.791042,121.675047,9.294996e-09
C0E870,高鐵苗栗,2025-04-21,24.60725,120.826094,0.30877358
A2K570,古坑花卉中心,2025-04-21,23.63353,120.55239,0.9717532
C0TA30,鹽寮,2025-04-21,23.845606,121.592664,0.99989337
C0M860,新美,2025-04-21,23.338017,120.683169,0.0014155107
C1E701,八卦,2025-04-21,24.491756,120.927619,5.6728533e-09
C0I420,國姓,2025-04-21,24.037803,120.855072,0.8318743
C2D720,關西工作站,2025-04-21,24.757275,121.184792,6.119563e-08
C0S960,香蘭,2025-04-21,22.587569,120.993375,0.006129282
467620,蘭嶼,2025-04-21,22.0369,121.55843,7.322139e-07
C0R260,春日,2025-04-21,22.370361,120.628306,0.92893356
72G600,臺中農改場,2025-04-21,24.003028,120.534389,0.007070521
C0Z210,瑞穗,2025-04-21,23.5239,121.39021,0.9997984
C0M820,達邦,2025-04-21,23.453994,120.749517,8.421488e-08
C0V860,南寮,2025-04-21,22.7616,120.2339,0.99392575
C0G740,大城,2025-04-21,23.852487,120.320935,0.0053162663
C0R920,塭仔,2025-04-21,22.4169,120.5197,0.9830475
C0R470,高樹,2025-04-21,22.826389,120.600806,7.830718e-05
C0R680,佳樂水,2025-04-21,21.993578,120.861633,0.01952886
C1O870,大棟山,2025-04-21,23.31157,120.52226,2.1579292e-09
C0D360,梅花,2025-04-21,24.678347,121.208558,8.777723e-10
C0Z190,富世,2025-04-21,24.14743,121.6297,0.99981326
C0AI10,屈尺,2025-04-21,24.92184,121.54475,5.99103e-09
B2U990,畜試東區分所,2025-04-21,24.669039,121.832561,1.585316e-05
C0SB80,長濱漁港,2025-04-21,23.313644,121.459994,0.9967747
C0R240,來義,2025-04-21,22.527306,120.625111,0.7714195
C0V910,大樹,2025-04-21,22.684645,120.432803,0.01456311
C1R610,西大武山,2025-04-21,22.617719,120.7322,5.0489963e-09
C0G900,線西,2025-04-21,24.143358,120.443536,0.5205499
C0M700,竹崎,2025-04-21,23.526178,120.555508,0.90892047
C2E880,三義,2025-04-21,24.405478,120.749819,6.747929e-06
C0C720,竹圍,2025-04-21,25.112692,121.239824,1.1241048e-08
C0F9P0,清水,2025-04-21,24.312297,120.562242,0.4936326
C0Z150,吉安光華,2025-04-21,23.930925,121.595153,0.9998919
467300,東吉島,2025-04-21,23.25727,119.66762,0.9897838
C1D640,外坪(五指山),2025-04-21,24.644447,121.090961,8.501145e-09
C0F9O0,潭子,2025-04-21,24.213106,120.703933,3.9466406e-05
C2H9R0,卓社,2025-04-21,23.887894,121.000086,1.4390715e-08
72T250,花蓮農改場,2025-04-21,23.975222,121.563889,0.9998854
C0E780,銅鑼,2025-04-21,24.489681,120.790853,5.8529222e-05
C1T950,太安,2025-04-21,23.666719,121.370128,3.8634933e-08
C0E830,苑裡,2025-04-21,24.439714,120.653053,0.3128194
467270,田中,2025-04-21,23.873803,120.581286,0.9909315
C0SA10,檳榔四格山,2025-04-21,22.810031,121.109308,0.0008333256
C1T830,布洛灣,2025-04-21,24.17184,121.57127,0.9157899
C0F970,大坑,2025-04-21,24.173142,120.722289,0.00025576807
C1U920,思源,2025-04-21,24.393125,121.347214,8.910585e-09
C0A931,三和,2025-04-21,25.233153,121.595236,2.2933124e-09
C0I010,廬山,2025-04-21,24.033311,121.181808,8.8854835e-09
C2M940,日野賀,2025-04-21,23.434056,120.727169,1.4109037e-08
C0R860,鼻頭,2025-04-21,22.1043,120.8979,0.00021193971
C0UB20,壯圍,2025-04-21,24.7359,121.8163,1.6050142e-05
C0R790,九棚,2025-04-21,22.14195,120.889281,9.0596455e-07
C0W110,東莒,2025-04-21,25.9652,119.98069,1.2483593e-08
C1U930,粉鳥林,2025-04-21,24.497088,121.842479,0.99983937
C1I211,蘆竹湳,2025-04-21,23.934019,120.811994,0.029996097
C0S830,長濱,2025-04-21,23.286817,121.411975,0.15927622
C1F9F1,伯公龍,2025-04-21,24.272392,120.849047,2.7384878e-05
C0E810,西湖,2025-04-21,24.562947,120.7485,0.16616994
C1I440,新高口,2025-04-21,23.478744,120.878939,1.261257e-08
C0O840,王爺宮,2025-04-21,23.222064,120.40085,0.8357533
C0T9G0,鳳林山,2025-04-21,23.735269,121.420131,1.5485586e-05
C0X080,佳里,2025-04-21,23.173039,120.145086,0.98123145
C0FB70,大甲溪埔,2025-04-21,24.370625,120.620067,0.2516303
C0Z310,清水斷崖,2025-04-21,24.218294,121.689142,0.99974763
C0M680,太保,2025-04-21,23.455062,120.331455,0.0067695784
C1S820,金峰,2025-04-21,22.590969,120.933236,4.054011e-07
C0AD10,八里,2025-04-21,25.150211,121.403947,1.1017888e-08
C2K240,草嶺,2025-04-21,23.59555,120.693461,1.5387567e-08
C1SA70,都蘭,2025-04-21,22.87794,121.226881,0.99427027
C0K440,二崙,2025-04-21,23.772797,120.408944,0.99377
C1A760,坪林交控,2025-04-21,24.94284,121.713442,2.361161e-08
C0F9N0,大里,2025-04-21,24.092464,120.701378,0.9862114
C0SA90,達仁林場,2025-04-21,22.264347,120.823972,1.1506958e-09
C1R290,石門山,2025-04-21,22.112611,120.756597,4.831039e-06
42HA10,萬大發電廠,2025-04-21,23.978875,121.139639,3.8634933e-08
C0R890,山海,2025-04-21,21.9878,120.7091,0.026470697
C0T9A0,月眉山,2025-04-21,23.809928,121.539828,0.026861757
C0AC70,信義,2025-04-21,25.037822,121.564597,1.0596567e-08
C0K560,棋山,2025-04-21,23.68645,120.603417,0.95572484
C2FB50,出雲,2025-04-21,24.206469,120.902794,2.6322525e-08
C1Z240,中平林道,2025-04-21,23.42115,121.26763,4.523218e-08
U2H480,溪頭,2025-04-21,23.670306,120.798194,1.3892893e-08
C0M880,好美里,2025-04-21,23.3364,120.138,0.98123145
C0T9E0,大坑,2025-04-21,23.880628,121.581981,0.37309998
C0K530,臺西,2025-04-21,23.701547,120.197559,0.010283108
C1E900,國一N128K,2025-04-21,24.560997,120.844186,0.034557052
C0AJ50,水湳洞,2025-04-21,25.123695,121.862238,9.788902e-09
C0AI20,白沙灣,2025-04-21,25.283128,121.519058,9.788902e-09
C2V310,美濃,2025-04-21,22.898792,120.51907,0.99032015
C0A860,大坪,2025-04-21,25.165914,121.632969,1.1221271e-09
C1U850,觀音海岸,2025-04-21,24.38319,121.77856,2.6306752e-09
C2K610,草嶺石壁,2025-04-21,23.602469,120.707731,1.29377495e-08
C0U950,鶯子嶺,2025-04-21,24.89754,121.79244,1.6737511e-09
C0O900,善化,2025-04-21,23.112883,120.297219,0.9983237
C0K550,蔦松,2025-04-21,23.514319,120.229736,0.014709168
E2P980,林試六龜中心,2025-04-21,22.991703,120.645722,0.025695125
C0E590,通霄,2025-04-21,24.471892,120.704622,0.0806401
C1I310,西巒,2025-04-21,23.754486,120.883956,3.2898356e-08
C0A550,泰平,2025-04-21,24.971197,121.823711,1.0276183e-09
C0I360,水里,2025-04-21,23.812553,120.849792,0.70582235
C0R830,高士,2025-04-21,22.121825,120.836781,1.1182283e-06
C1I101,溪頭,2025-04-21,23.661789,120.807647,8.749996e-09
C0AJ20,野柳,2025-04-21,25.20703,121.690021,1.06968825e-08
C0B060,暖暖,2025-04-21,25.0957,121.7403,5.438771e-09
C1H920,長豐,2025-04-21,24.102039,120.879897,2.1561671e-05
C0V360,內門,2025-04-21,22.975481,120.466769,0.00015872049
C0R850,林邊,2025-04-21,22.4634,120.5339,0.98043114
C0E930,龍鳳,2025-04-21,24.700034,120.859125,0.57285035
C0U910,冬山,2025-04-21,24.63373,121.7937,1.585316e-05
C1E721,泰安,2025-04-21,24.489017,120.968036,1.1897055e-08
82H320,茶改中部分場,2025-04-21,23.875611,120.913583,2.2326597e-06
C0M750,布袋,2025-04-21,23.380878,120.167789,0.016582934
C1S860,利嘉,2025-04-21,22.809417,121.050528,1.0758959e-09
E2S980,林試太麻里1,2025-04-21,22.598922,120.980044,4.9740334e-05
C0X170,關廟,2025-04-21,22.963017,120.327797,0.99586004
C0V720,林園,2025-04-21,22.507747,120.394511,0.97802806
C1I510,線浸林道,2025-04-21,23.761508,120.832956,9.971866e-09
C0D690,外湖,2025-04-21,24.917735,120.968711,1.7164957e-08
C0C750,新興坑尾,2025-04-21,25.0061,121.0971,7.754167e-09
B2Q810,畜試南區分所,2025-04-21,21.945583,120.802167,0.022909423
C0S790,金崙,2025-04-21,22.538122,120.966875,1.6600292e-07
C0AH90,福山植物園,2025-04-21,24.760717,121.58135,9.522865e-09
C0I540,奇萊稜線,2025-04-21,24.109231,121.326456,2.9320237e-08
C0M850,表湖,2025-04-21,23.24186,120.64166,2.2188033e-06
C0S770,大溪山,2025-04-21,22.478475,120.943325,3.1532477e-09
C0AG80,中和,2025-04-21,24.991622,121.491792,9.671555e-09
C0T790,大禹嶺,2025-04-21,24.186117,121.316086,2.251996e-08
C0T9B0,水源,2025-04-21,23.991861,121.537169,0.00015036552
C0R840,牡丹池山,2025-04-21,22.168389,120.841225,1.2206948e-09
C1I131,桶頭,2025-04-21,23.641944,120.654117,0.4530175
CAL110,布袋國中,2025-04-21,23.35893,120.18026,0.9813278
467571,新竹,2025-04-21,24.827853,121.014219,0.20480673
C0Z290,赤柯山,2025-04-21,23.36893,121.38293,7.6752675e-09
C0X280,將軍,2025-04-21,23.214999,120.13577,0.9811545
C0S690,太麻里,2025-04-21,22.60902,120.98533,1.1448681e-09
C0U880,北關,2025-04-21,24.9072,121.8734,1.1362777e-08
C0G810,埔心,2025-04-21,23.947633,120.525456,0.0048914086
C0U970,大福,2025-04-21,24.80064,121.81389,2.1239546e-05
C2H9N0,仁愛東眼,2025-04-21,24.026875,121.1205,1.0291096e-08
C1E670,南礦,2025-04-21,24.538278,121.002836,1.5852631e-08
C0M520,東後寮,2025-04-21,23.369908,120.248065,0.9766574
C1E461,松安,2025-04-21,24.397972,120.986022,1.3214078e-08
C2N160,西拉雅風管處,2025-04-21,23.189481,120.335297,0.96575725
C2M970,碧湖,2025-04-21,23.568632,120.624165,3.2711522e-08
C0A640,石碇,2025-04-21,24.993969,121.662917,2.3029832e-08
E2S960,林試太麻里2,2025-04-21,22.598,120.99775,0.011516164
C0F9Y0,桃山,2025-04-21,24.432739,121.303808,4.987512e-08
C1I020,萬大,2025-04-21,23.979817,121.132261,1.4826867e-08
C0U940,羅東,2025-04-21,24.68184,121.74934,1.2853276e-05
C0M650,朴子,2025-04-21,23.43463,120.23902,0.012141993
C1I500,大尖山,2025-04-21,23.858572,120.994889,1.1879617e-08
C0G820,田尾,2025-04-21,23.901669,120.509389,0.0040768874
E2K600,四湖植物園,2025-04-21,23.676986,120.163433,0.005543504
C0S730,綠島,2025-04-21,22.6672,121.47533,0.98803765
12Q970,東港工作站,2025-04-21,22.479997,120.466058,0.98279214
C0E430,南庄,2025-04-21,24.601775,121.000214,3.553797e-08
C1TA00,太魯閣,2025-04-21,24.15773,121.6236,0.99976027
466920,臺北,2025-04-21,25.037658,121.514853,1.06968825e-08
C0R600,舊泰武,2025-04-21,22.588194,120.664944,4.3491188e-10
C1I260,北坑,2025-04-21,23.9246,121.006903,0.0064988
466910,鞍部,2025-04-21,25.182586,121.529731,9.543152e-10
C1I230,九份二山,2025-04-21,23.961944,120.845,7.639635e-06
C2A660,瑞芳,2025-04-21,25.113169,121.801147,4.407712e-09
C0R270,琉球嶼,2025-04-21,22.332244,120.362236,0.9160623
C1T990,高寮,2025-04-21,23.394239,121.356808,0.99983937
C0G620,芬園,2025-04-21,24.015678,120.6213,1.4301535e-05
C1Z140,荖溪,2025-04-21,23.890575,121.45964,1.493851e-08
C1I201,中心崙,2025-04-21,23.728722,120.712097,0.0007499748
C1I400,凌霄,2025-04-21,24.018778,121.004456,1.0591879e-08
C1M640,十字,2025-04-21,23.492153,120.753683,8.752483e-09
G2P820,農試鳳山分所,2025-04-21,22.646611,120.356083,0.99154216
C0Z270,蕃薯寮,2025-04-21,23.73835,121.540108,0.91448176
C0F9Q0,外埔,2025-04-21,24.347817,120.705686,0.00011797296
C0K580,高鐵雲林,2025-04-21,23.737456,120.417944,0.99377
C2I090,鳳凰,2025-04-21,23.728081,120.787347,5.725451e-07
C0U990,員山,2025-04-21,24.74435,121.72247,1.3162184e-05
C0V770,大社,2025-04-21,22.730306,120.346639,0.99265736
C0X120,麻豆,2025-04-21,23.183289,120.248611,0.97649854
C0C670,龍潭,2025-04-21,24.870056,121.221389,3.0257482e-08
C0D680,香山濕地,2025-04-21,24.783581,120.914988,0.54805404
C0S980,勝林山,2025-04-21,22.430439,120.8938,3.163555e-09
C0V730,大寮,2025-04-21,22.605614,120.395717,0.97288054
C0R570,麟洛,2025-04-21,22.65078,120.52719,0.012421002
C2M930,石卓,2025-04-21,23.478744,120.702264,8.915821e-09
C0G9B0,和美,2025-04-21,24.105169,120.492131,0.01265004
CAG100,王功漁港,2025-04-21,23.96824,120.32586,0.010283108
C0X290,北門,2025-04-21,23.267772,120.125481,0.9813278
C2F930,大甲,2025-04-21,24.347667,120.640403,0.0047096997
C0D650,湖口,2025-04-21,24.904794,121.043628,6.331954e-09
C0E420,竹南,2025-04-21,24.708978,120.888897,0.2050433
C0U780,五結,2025-04-21,24.68637,121.79794,1.585316e-05
C1I250,鯉潭,2025-04-21,23.961922,120.991131,2.1561671e-05
C0R130,阿禮,2025-04-21,22.742908,120.743678,2.356445e-09
C0X100,臺南市北區,2025-04-21,23.010394,120.194228,0.9983375
C0S920,金峰嘉蘭,2025-04-21,22.594789,120.960825,4.5691173e-05
C0V490,新興,2025-04-21,22.627422,120.298803,0.99319226
C0F9K0,大安,2025-04-21,24.345061,120.588025,0.30409276
467290,古坑,2025-04-21,23.633639,120.551889,0.9717532
C2E970,八甲,2025-04-21,24.535811,120.795983,4.2412354e-05
C0V440,鳳山,2025-04-21,22.646653,120.356122,0.99154216
C1T940,大觀,2025-04-21,23.714206,121.373133,0.014060142
C0E740,造橋,2025-04-21,24.637056,120.864778,0.34125662
C0R100,尾寮山,2025-04-21,22.833111,120.683889,2.363787e-09
A2K630,臺大雲林校區,2025-04-21,23.730628,120.423903,0.9937261
467990,馬祖,2025-04-21,26.169467,119.923158,3.1810128e-08
C0D580,寶山,2025-04-21,24.735006,121.025192,8.773899e-08
E2P990,林試扇平站,2025-04-21,22.9677,120.6857,4.6999543e-10
C0AI30,三重,2025-04-21,25.057328,121.500629,1.1362777e-08
C0AH00,汐止,2025-04-21,25.066881,121.658778,1.06968825e-08
C1Z040,立山,2025-04-21,23.443356,121.327375,0.056703772
466881,新北,2025-04-21,24.959207,121.525196,8.124546e-09
C0W130,花嶼,2025-04-21,23.40007,119.32276,0.0002105425
C0A950,鼻頭角,2025-04-21,25.129036,121.923372,1.528435e-05
C0K470,林內,2025-04-21,23.748675,120.609642,0.9742179
C2F990,摩天嶺,2025-04-21,24.322458,120.936819,4.714378e-08
82C160,茶改場,2025-04-21,24.908472,121.185333,2.6468916e-09
C0Z320,清水林道,2025-04-21,23.27125,121.188272,1.13775826e-07
C0R760,南仁湖,2025-04-21,22.084681,120.863353,4.7419558e-06
C0M670,大林,2025-04-21,23.600616,120.45841,0.002665845
C0M800,茶山,2025-04-21,23.299075,120.664767,0.4030329
C0A9C0,天母,2025-04-21,25.117494,121.537169,9.671555e-09
72K220,南改斗南分場,2025-04-21,23.634556,120.477333,0.99107546
72AI40,桃改樹林分場,2025-04-21,24.944503,121.386972,8.212042e-09
C0S910,蘭嶼燈塔,2025-04-21,22.081197,121.503117,1.564167e-05
C0B050,八斗子,2025-04-21,25.144754,121.79167,1.2445151e-08
C0U900,內城,2025-04-21,24.71813,121.68766,4.2374977e-06
C0X320,柳營,2025-04-21,23.253328,120.375253,0.0033789303
C0M790,新港,2025-04-21,23.553269,120.345728,0.008017078
C0F9T0,西屯,2025-04-21,24.179494,120.641275,0.0047096997
C0SA30,都歷,2025-04-21,23.020333,121.323642,0.99190164
C0C620,蘆竹,2025-04-21,25.084275,121.265767,9.250215e-09
C0R730,大坪頂,2025-04-21,22.024633,120.69355,0.00050301594
C0AJ40,石門,2025-04-21,25.273672,121.601198,3.2346503e-09
C0E750,苗栗,2025-04-21,24.564569,120.824575,0.06563374
C0T870,鯉魚潭,2025-04-21,23.935639,121.508944,0.99970734
C1V170,排雲,2025-04-21,23.463619,120.954147,3.7912898e-08
C2H950,中寮,2025-04-21,23.884447,120.766406,1.2092396e-05
C0R350,貓鼻頭,2025-04-21,21.921774,120.7358,0.016879372
C0V660,岡山,2025-04-21,22.797078,120.294958,0.99320894
C1H941,雙冬,2025-04-21,23.967378,120.802189,0.002744001
C0AJ70,田寮,2025-04-21,25.2698,121.4886,1.0821406e-08
C0AI00,五股,2025-04-21,25.07445,121.42728,3.0348268e-09
C0Z280,德武,2025-04-21,23.47426,121.41071,0.9994293
C0R700,枋山,2025-04-21,22.246844,120.661086,0.97802806
C0C460,復興,2025-04-21,24.820208,121.352281,9.588309e-10
E2H360,蓮華池,2025-04-21,23.918333,120.885278,0.0001542064
C0M640,中埔,2025-04-21,23.42538,120.5229,0.9075117
C0W140,金沙,2025-04-21,24.488292,118.408778,4.61889e-09
C2A540,四堵,2025-04-21,24.8926,121.745736,1.2084493e-09
C0ACA0,新莊,2025-04-21,25.051478,121.446756,1.0946668e-08
C0R220,潮州,2025-04-21,22.534361,120.54,0.97601515
U2HA40,臺大內茅埔,2025-04-21,23.689722,120.851117,0.10848163
467490,臺中,2025-04-21,24.145736,120.684075,0.0072374316
C0U960,翠峰湖,2025-04-21,24.510856,121.608044,1.065136e-08
E2HA20,林試畢祿溪站,2025-04-21,24.226944,121.308522,1.01309094e-08
C0V890,前鎮,2025-04-21,22.5718,120.3117,0.99324894
C1F941,雪嶺,2025-04-21,24.280586,121.026642,1.7508482e-08
C2H9E0,國姓南港,2025-04-21,23.911108,120.846556,1.5610015e-08
C0AC80,文山,2025-04-21,25.00235,121.575728,6.034196e-09
C0F9R0,龍井,2025-04-21,24.184536,120.528972,0.51111954
C0M760,民雄,2025-04-21,23.551754,120.428457,0.0028235218
C0UA40,西德山,2025-04-21,24.560647,121.752608,8.127026e-09
C1T920,中興,2025-04-21,23.769503,121.498653,0.9998575
C0D550,雪霸,2025-04-21,24.526972,121.11605,1.1567611e-08
C2F860,梨山,2025-04-21,24.247522,121.243669,1.06483125e-08
C0R320,車城,2025-04-21,22.0744,120.716247,0.026347347
C1S870,南美山,2025-04-21,23.15025,121.382333,0.1798615
C0B020,基隆嶼,2025-04-21,25.19141,121.78391,9.716949e-09
C1U501,牛鬥,2025-04-21,24.637836,121.573656,1.2230538e-08
C0M730,嘉義市東區,2025-04-21,23.457673,120.460531,0.0027432225
C0S700,知本,2025-04-21,22.684866,121.005642,1.1506958e-09
C1N001,沙崙,2025-04-21,22.935472,120.309406,0.9970034
C0V760,橋頭,2025-04-21,22.757806,120.30575,0.99319226
C0G960,福寶,2025-04-21,24.0443,120.3814,0.01668266
C0X210,白河,2025-04-21,23.347466,120.414427,0.0021207947
C0S810,東河,2025-04-21,22.972672,121.303986,0.9961041
C2R170,屏東,2025-04-21,22.66027,120.49403,0.014182276
C0R670,楓港,2025-04-21,22.190131,120.692156,0.9774979
C0FA50,霧峰,2025-04-21,24.0419,120.6995,0.008388061
C0UB10,蘇澳,2025-04-21,24.5969,121.8571,0.9998394
C0G950,防潮門,2025-04-21,24.1835,120.4871,0.54082805
C0M740,六腳,2025-04-21,23.492871,120.290625,0.011913629
C1R250,力里,2025-04-21,22.428117,120.629228,0.8110365
C0K330,虎尾,2025-04-21,23.719183,120.442036,0.99297404
C2FA00,烏石坑,2025-04-21,24.273503,120.947617,5.6689622e-08
C0V620,永安,2025-04-21,22.82315,120.236856,0.99324894
C1I330,楓樹林,2025-04-21,23.986803,121.076117,1.531872e-08
C0W200,湖西,2025-04-21,23.596314,119.67275,0.2508499
72Q010,高雄農改場,2025-04-21,22.709333,120.525889,0.005142026
C0SA40,瑞和,2025-04-21,22.974361,121.156697,0.8282752
C0C680,龜山,2025-04-21,25.02846,121.38656,1.4679138e-08
C2V260,月眉,2025-04-21,22.971003,120.539853,1.8908948e-05
C0V450,鳳森,2025-04-21,22.545064,120.392592,0.93005633
C0U720,南山,2025-04-21,24.43742,121.38167,7.569069e-09
A2N290,臺南蘭花園區,2025-04-21,23.340258,120.379661,0.003508451
C0R560,新園,2025-04-21,22.5434,120.461558,0.97802806
C0U890,三星,2025-04-21,24.66812,121.65302,3.2902346e-07
C1V300,御油山,2025-04-21,23.001983,120.715364,6.7235737e-09
C0U600,礁溪,2025-04-21,24.817539,121.765608,1.185747e-05
C1T980,龍澗,2025-04-21,24.023289,121.411328,8.308145e-09
C0D670,海天一線,2025-04-21,24.831986,120.914438,0.5728505
C0SA00,歷坵,2025-04-21,22.520969,120.89185,1.5958134e-09
C0M710,東石,2025-04-21,23.458927,120.15385,0.016003726
C0M780,鹿草,2025-04-21,23.41134,120.30835,0.006712649
C0U520,雙連埤,2025-04-21,24.753033,121.641303,9.014623e-09
C0B010,七堵,2025-04-21,25.094819,121.71713,8.481014e-09
C0R480,長治,2025-04-21,22.693128,120.542622,0.0033647874
C1V830,國三S383K,2025-04-21,22.781967,120.426475,2.4132076e-05
12Q980,恆春工作站,2025-04-21,22.079678,120.714425,0.026179157
C1O940,東山服務區,2025-04-21,23.286016,120.398472,0.0020758486
C1U840,東澳嶺,2025-04-21,24.5378,121.8485,1.8844675e-09
C1D630,飛鳳山,2025-04-21,24.766464,121.119178,2.2320285e-07
C0S940,石寧山,2025-04-21,23.223772,121.406639,0.976772
C0K410,北港,2025-04-21,23.573957,120.292802,0.008380362
C2M620,瑞里,2025-04-21,23.545133,120.675197,9.227149e-09
C0SB70,小港漁港,2025-04-21,23.158558,121.400431,0.99714744
C2O950,安南,2025-04-21,23.076694,120.144861,0.99844545
C0F0E0,南湖圈谷,2025-04-21,24.363714,121.444667,4.900121e-08
467610,成功,2025-04-21,23.097486,121.373428,0.99671924
C0G890,伸港,2025-04-21,24.148933,120.484403,0.50910324
C2E540,龍溪,2025-04-21,24.606489,120.783933,0.4236632
C1V200,梅山,2025-04-21,23.268447,120.823556,3.4110412e-09
C0T9H0,加路蘭山,2025-04-21,23.682947,121.5274,1.0972718e-07
C2O930,玉井,2025-04-21,23.126042,120.46055,0.000843103
C1F911,新伯公,2025-04-21,24.221361,120.841069,0.0008817158
C0R490,九如,2025-04-21,22.7405,120.490503,0.006135251
C0X200,左鎮,2025-04-21,23.056758,120.408522,0.98970586
C0SB50,叭嗡嗡,2025-04-21,23.047062,121.343223,0.9972227
C1F891,稍來,2025-04-21,24.265689,121.001142,1.0328694e-08
72N240,七股研究中心,2025-04-21,23.081672,120.062894,0.9833629
C0C700,中壢,2025-04-21,24.977661,121.256375,4.1590336e-09
C0M690,水上,2025-04-21,23.419734,120.388909,0.0034785713
C0V690,鼓山,2025-04-21,22.623325,120.275575,0.9932186
C0O860,大內,2025-04-21,23.11885,120.36083,0.9972822
C0Z200,萬榮,2025-04-21,23.709219,121.420106,0.9997077
C0T9D0,和中,2025-04-21,24.26676,121.74103,0.9998367
C1O921,楠西,2025-04-21,23.183511,120.484083,0.00020509586
C0AJ30,淡水觀海,2025-04-21,25.184591,121.408616,1.1524908e-08
C0V810,左營,2025-04-21,22.67491,120.28491,0.992945
C0UA70,桃源谷,2025-04-21,24.962606,121.888875,6.7886745e-09
C0X130,官田,2025-04-21,23.193217,120.315422,0.9697076
C1H000,翠峰,2025-04-21,24.109397,121.205211,1.4427846e-08
C0UA90,石城,2025-04-21,24.980444,121.951214,1.0616134e-05
C1E681,南勢山,2025-04-21,24.421669,120.923831,1.0576637e-08
C0A9F0,內湖,2025-04-21,25.079422,121.57545,1.06968825e-08
C0K291,宜梧,2025-04-21,23.536281,120.169329,0.016582934
C1K540,口湖,2025-04-21,23.585344,120.180517,0.016240973
C0R780,滿州,2025-04-21,22.024403,120.839892,0.014772507
C0V870,文安,2025-04-21,22.8025,120.2164,0.9937089
C0U650,玉蘭,2025-04-21,24.675286,121.587061,1.935087e-08
C0R640,東港,2025-04-21,22.46247,120.44074,0.98287797
C0AJ80,板橋,2025-04-21,25.0107,121.4489,1.0596567e-08
C0S660,下馬,2025-04-21,23.150427,121.070312,1.8389795e-08
C1H9B1,阿眉,2025-04-21,24.1263,120.994672,9.81152e-09
C0UA20,多加屯,2025-04-21,24.368614,121.373189,1.9821893e-08
C0E730,頭份,2025-04-21,24.688247,120.912206,0.2773633
72V140,高改旗南分場,2025-04-21,22.857861,120.516667,0.003760382
C0K480,莿桐,2025-04-21,23.761192,120.502372,0.9910328
C0U980,坪林石牌,2025-04-21,24.86478,121.77396,4.9495084e-09
C0T900,西林,2025-04-21,23.8119,121.441458,0.9994698
C1I150,青雲,2025-04-21,23.793361,120.949378,0.79464936
467350,澎湖,2025-04-21,23.565503,119.563094,0.015387266
C0G800,埔鹽,2025-04-21,24.000394,120.431683,0.013193158
C0H960,草屯,2025-04-21,23.973672,120.68085,0.0022917653
C1V780,多納林道,2025-04-21,22.888028,120.737917,2.1966744e-09
C0E920,通霄漁港,2025-04-21,24.498589,120.673876,0.52055
C0Z330,安通山,2025-04-21,23.290728,121.348528,1.3994887e-05
C0AH10,永和,2025-04-21,25.01125,121.508111,1.082442e-08
C0AK10,太平里,2025-04-21,25.134937,121.364899,1.0821406e-08
C2G640,鹿港,2025-04-21,24.0753,120.430481,0.016110659
C1E890,國三N149K,2025-04-21,24.463414,120.680019,0.029885069
C1R110,口社,2025-04-21,22.770111,120.645222,1.8908948e-05
C1M870,國三N285K,2025-04-21,23.550319,120.505833,0.94010746
C1E480,鳳美,2025-04-21,24.554803,121.034747,2.2565967e-08
C0M530,奮起湖,2025-04-21,23.493903,120.699253,7.293903e-09
C0C590,觀音,2025-04-21,25.027072,121.153317,6.9964528e-09
C0T9M0,靜浦,2025-04-21,23.455167,121.495028,0.99985915
C2H9M0,發祥,2025-04-21,24.154094,121.164517,1.535845e-08
C0AI40,石牌,2025-04-21,25.115597,121.513139,1.06968825e-08
C1F871,上谷關,2025-04-21,24.203483,121.018644,5.1442132e-08
C2H9G0,百勝,2025-04-21,24.051142,120.909361,5.0899394e-05
C0G880,二水,2025-04-21,23.810742,120.6173,0.9745308
C0R940,加祿堂,2025-04-21,22.3363,120.6217,0.9774979
C0W220,北竿,2025-04-21,26.220358,119.974881,4.878383e-08
C0O960,崎頂,2025-04-21,22.959547,120.369317,0.9812873
C0S750,向陽,2025-04-21,23.248397,120.986133,1.029459e-08
C0T9F0,水璉,2025-04-21,23.797131,121.542514,0.9875959
C1M600,頭凍,2025-04-21,23.406364,120.603339,7.654059e-08
467660,臺東,2025-04-21,22.752211,121.154586,0.9972227
C1D380,新埔,2025-04-21,24.84745,121.03834,1.5469706e-07
C2G980,田頭村,2025-04-21,23.8263,120.444175,0.9938105
C0V750,路竹,2025-04-21,22.854997,120.259439,0.9920688
C0N050,蚵寮,2025-04-21,23.301,120.1104,0.9813278
72M700,南改鹿草分場,2025-04-21,23.416869,120.283061,0.011692459
C1SA50,利嘉林道,2025-04-21,22.82325,121.009389,2.1833495e-09
C0A940,金山,2025-04-21,25.223628,121.643967,8.1952365e-09
C1V340,大津,2025-04-21,22.888322,120.645986,3.0069496e-06
C0W180,七美,2025-04-21,23.219333,119.444892,0.6976881
C1F9C1,白冷,2025-04-21,24.182844,120.929889,6.641569e-07
K2E710,苗改生物防治研究中心,2025-04-21,24.422861,120.871833,1.6321785e-08
C0N040,蘆竹溝,2025-04-21,23.2344,120.0961,0.9814305
C2W230,畜試所澎湖,2025-04-21,23.628342,119.513206,3.5378816e-05
C0R880,後壁湖,2025-04-21,21.9457,120.7457,0.032855716
C1I280,埔中,2025-04-21,23.820778,120.642594,0.8655922
467790,墾丁雷達站,2025-04-21,21.948235,120.808028,0.011200341
C0W190,望安,2025-04-21,23.380564,119.494075,0.0064775324
C0Z170,卓溪,2025-04-21,23.3443,121.3029,0.9085846
C0F850,東勢,2025-04-21,24.246428,120.833047,0.0036579971
466900,淡水,2025-04-21,25.164889,121.448906,1.06968825e-08
C0I370,魚池,2025-04-21,23.895703,120.94135,0.00036766598
C0C630,大溪,2025-04-21,24.882853,121.265547,2.7857263e-09
C0A520,山佳,2025-04-21,24.974944,121.402008,8.432833e-09
C0I110,竹山,2025-04-21,23.761225,120.688156,0.81434417
82H840,茶改南部分場,2025-04-21,23.762528,120.7405,0.034891676
C0G660,溪湖,2025-04-21,23.94835,120.479122,0.0063630277
C1T800,洛韶,2025-04-21,24.204558,121.453956,6.4578014e-09
C1T810,慈恩,2025-04-21,24.192044,121.388386,8.923375e-09
C1E451,象鼻,2025-04-21,24.368617,120.940228,1.0569922e-08
C0AC60,三峽,2025-04-21,24.939025,121.369728,9.600849e-09
C0I490,萬大林道,2025-04-21,23.928228,121.091411,8.650778e-09
C1I290,豐丘,2025-04-21,23.668178,120.887417,9.91932e-09
C1I320,奧萬大,2025-04-21,23.952956,121.178556,1.5275015e-08
C2M910,嘉義大學,2025-04-21,23.471325,120.485903,0.98610574
C0U770,南澳,2025-04-21,24.44935,121.81022,0.9998393
C0A980,社子,2025-04-21,25.109508,121.469681,1.2445151e-08
C0V800,六龜,2025-04-21,22.997889,120.633583,0.03292242
C1G9D0,國一S218K,2025-04-21,23.890641,120.493253,0.0046099247
C0E570,白沙屯,2025-04-21,24.549447,120.696803,0.54082805
C2F9A0,中竹林,2025-04-21,24.103556,120.751061,0.025385069
C0FA40,臺中電廠,2025-04-21,24.2146,120.4907,0.50910324
C2G9A0,畜試所彰化,2025-04-21,23.86045,120.557964,0.9909926
C0H9C0,合歡山,2025-04-21,24.143442,121.272547,4.0955165e-08
C0X060,下營,2025-04-21,23.22695,120.256261,0.9811545
G2M350,農試溪口農場,2025-04-21,23.58565,120.408111,0.0067126616
C0U860,頭城,2025-04-21,24.85323,121.8308,1.528435e-05
C0R580,南州,2025-04-21,22.48591,120.50274,0.98287797
C0D430,峨眉,2025-04-21,24.6905,121.017189,1.5034117e-07
C0G780,秀水,2025-04-21,24.03405,120.503869,0.011023444
72N100,臺南農改場,2025-04-21,23.0605,120.342194,0.9966017
C0S900,蘭嶼高中,2025-04-21,22.04909,121.51214,9.910557e-05
C1F9W0,德基,2025-04-21,24.254783,121.190261,5.6962293e-09
C1Z120,壽豐,2025-04-21,23.870853,121.508081,0.9998866
C0W160,烏坵,2025-04-21,24.9944,119.44956,1.1402377e-08
C1I240,外大坪,2025-04-21,23.958697,120.917931,1.4092307e-05
C1I550,國六W023K,2025-04-21,23.979067,120.867742,0.1951143
C0R870,興海,2025-04-21,21.9752,120.8439,0.022140212
C0R140,瑪家,2025-04-21,22.682903,120.686639,4.6523446e-10
C0A530,坪林,2025-04-21,24.938183,121.70975,5.7633858e-09
C0X260,後壁,2025-04-21,23.366358,120.362326,0.966622
C0Z230,和平,2025-04-21,24.30717,121.77007,0.9998387
C0G770,福興,2025-04-21,24.041289,120.437669,0.015052482
C0H9A0,神木村,2025-04-21,23.532742,120.843667,6.7755965e-09
C0I460,南投,2025-04-21,23.911469,120.687331,0.0047096997
C0I480,梅峰,2025-04-21,24.085272,121.173572,9.789536e-09
C1V570,吉東,2025-04-21,22.85422,120.5454,0.0006182713
C2D740,屯原,2025-04-21,24.067969,121.209389,1.24149935e-08
C2A560,福山,2025-04-21,24.776203,121.502811,1.0358796e-09
C0AH30,五分山,2025-04-21,25.07125,121.780794,2.1457722e-09
C0FA10,松柏,2025-04-21,24.429115,120.617482,0.52055
72S200,東改班鳩分場,2025-04-21,22.829528,121.077694,0.15927622
72HA00,中改埔里分場,2025-04-21,23.903208,120.963364,0.0009296431
C2H9W0,大坪頂農水,2025-04-21,24.043122,120.932781,1.5175606e-05
C0C650,平鎮,2025-04-21,24.897503,121.214636,2.6387055e-09
C0S930,延平,2025-04-21,22.902581,121.084058,0.18510577
C0UA60,樟樹山,2025-04-21,24.41393,121.78325,5.3764944e-09
C1S670,摩天,2025-04-21,23.199503,121.027,3.1016327e-09
C0V630,茄萣,2025-04-21,22.906642,120.182608,0.9983349
466940,基隆,2025-04-21,25.133314,121.740475,1.1427066e-08
C0X050,東河,2025-04-21,23.296598,120.385608,0.0033789303
C0R770,保力,2025-04-21,22.071122,120.764111,0.006193967
G2L020,農試嘉義分所,2025-04-21,23.485028,120.473806,0.9843537
C0X240,關子嶺,2025-04-21,23.331169,120.508025,0.6815646
C0I380,集集,2025-04-21,23.828206,120.801467,0.7901988
466990,花蓮,2025-04-21,23.975128,121.613275,0.999892
C1V220,小關山,2025-04-21,23.154217,120.813603,7.3013218e-09
C1F9G1,慶福山,2025-04-21,24.180853,120.848378,3.5092736e-08
C0Z250,瑞穗林道,2025-04-21,23.49284,121.30688,5.431248e-08
C0D590,新豐,2025-04-21,24.87068,120.97721,8.773899e-08
C0A870,五指山,2025-04-21,25.132153,121.608692,8.654173e-10
C0UA50,西帽山,2025-04-21,24.555361,121.802628,1.9424224e-09
C0X160,仁德,2025-04-21,22.968258,120.257689,0.9980183
C1H971,六分寮,2025-04-21,23.92507,120.6378,0.0062145214
C0W120,西嶼,2025-04-21,23.5626,119.468436,0.015075318
C0G650,員林,2025-04-21,23.946503,120.585597,0.0039566117
C0AD50,鶯歌,2025-04-21,24.951533,121.346294,7.267712e-09
C2H9Q0,北東眼山,2025-04-21,24.120939,121.189303,1.210697e-08
C2H9T0,名間竹圍,2025-04-21,23.859914,120.637572,0.45422763
C0S990,山豬窟,2025-04-21,22.318619,120.857372,3.0227183e-09
C0X190,安平,2025-04-21,22.993161,120.152181,0.9983321
C0K400,斗六,2025-04-21,23.720583,120.541127,0.9898298
12J990,口湖工作站,2025-04-21,23.589978,120.180394,0.01493813
C0O830,北寮,2025-04-21,23.079561,120.495008,1.8661764e-05
C1D410,白蘭,2025-04-21,24.579364,121.079947,1.3233904e-08
C0S970,加津林,2025-04-21,22.416211,120.926942,0.006129282
C0D700,關西,2025-04-21,24.7977,121.1732,3.4077638e-09
C0M810,里佳,2025-04-21,23.389125,120.716647,7.2916637e-09
C0U750,龜山島,2025-04-21,24.841667,121.953133,0.84291834
C0R810,內獅,2025-04-21,22.305064,120.642986,0.97802806
C1M390,龍美,2025-04-21,23.406728,120.654417,1.5085657e-08
C2FB60,頭櫃山,2025-04-21,24.129842,120.858925,2.0361083e-08
C1H840,國三N238K,2025-04-21,23.841008,120.707711,0.7576496
CAQ030,崎峰國小,2025-04-21,22.42565,120.49521,0.98287797
C2E520,大湖,2025-04-21,24.414939,120.870872,0.13743071
467530,阿里山,2025-04-21,23.508208,120.813242,1.1386165e-08
C1E691,南湖,2025-04-21,24.40135,120.837533,2.5796519e-08
C0FA30,梧棲,2025-04-21,24.256003,120.523381,0.4979575
C1V231,高中,2025-04-21,23.134911,120.716711,1.2769481e-06
C0F9V0,新社,2025-04-21,24.200172,120.815806,6.3336092e-06
C0H890,埔里,2025-04-21,23.972169,120.952425,0.0002328209
C0R690,墾丁,2025-04-21,21.966756,120.810269,4.239763e-05
C0F0D0,審馬陣,2025-04-21,24.381675,121.4203,3.4128654e-08
C2W030,金門農試所,2025-04-21,24.448431,118.451786,4.2923243e-09
C0R820,白鷺,2025-04-21,22.454275,120.666219,8.616587e-10
C1V190,南天池,2025-04-21,23.27403,120.91176,1.2171894e-08
K2E360,苗栗農改場,2025-04-21,24.495722,120.829111,0.001288599
CAJ050,海口故事園區,2025-04-21,23.57543,120.14121,0.016003726
C2H9D0,三隻寮,2025-04-21,24.093078,120.861578,1.0732866e-05
C0O990,媽廟,2025-04-21,22.99175,120.293525,0.9975755
C0D480,打鐵坑,2025-04-21,24.849664,121.150789,3.0093567e-08
C0Z220,和平林道,2025-04-21,24.343922,121.656317,6.342317e-05
C0TA10,花蓮漁港,2025-04-21,23.995322,121.638331,0.999896
72C440,桃園農改場,2025-04-21,24.950944,121.030583,1.1072895e-08
C1E711,馬拉邦山,2025-04-21,24.367306,120.901656,6.1454834e-08
C0SB20,富岡,2025-04-21,22.792467,121.192669,0.99715245
C0D560,竹東,2025-04-21,24.767147,121.057881,9.266358e-08
C0F9U0,南屯,2025-04-21,24.137006,120.637969,0.00039673594
C0M720,番路,2025-04-21,23.464657,120.554156,0.9258004
C0F0A0,雪山圈谷,2025-04-21,24.388594,121.236339,6.327104e-08
C1A9N0,四十份,2025-04-21,24.934158,121.593283,1.0042387e-09
C0U760,東澳,2025-04-21,24.52196,121.83318,0.99983245
C0X230,鹽水,2025-04-21,23.272621,120.247641,0.9766574
C2H9H0,苗改南投蜂場,2025-04-21,23.852589,120.693481,0.8440558
C0R950,萬隆國小,2025-04-21,22.507667,120.587817,0.9543932
467540,大武,2025-04-21,22.35572,120.90374,0.015285691
C0V370,古亭坑,2025-04-21,22.893178,120.401947,0.9876233
C1I340,新興橋,2025-04-21,23.563333,120.868728,3.245956e-08
C0SA80,土坂,2025-04-21,22.453108,120.887572,4.580341e-06
C0R160,鹽埔,2025-04-21,22.739558,120.530778,0.004410281
C0AC40,大屯山,2025-04-21,25.175675,121.522408,1.2931503e-09
466850,五分山雷達站,2025-04-21,25.071182,121.781205,2.074263e-09
C2H9L0,馬烈霸,2025-04-21,24.1512,121.201772,5.8953136e-09
C1AI50,國三N016K,2025-04-21,25.034164,121.619664,7.0890316e-09
C1V600,藤枝,2025-04-21,23.071961,120.757042,3.0001222e-09
C1E601,南勢,2025-04-21,24.572486,120.734842,0.0012713404
C0Z180,新城,2025-04-21,24.03946,121.60454,0.99989104
C0O980,新市,2025-04-21,23.061614,120.298197,0.9980183
C0K420,西螺,2025-04-21,23.800407,120.467394,0.9922007
C0Z050,佳心,2025-04-21,23.34567,121.21316,1.1744195e-08
C0AD30,蘆洲,2025-04-21,25.086594,121.472331,1.0994712e-08
C0V610,梓官,2025-04-21,22.760558,120.267211,0.9932186
K2F750,種苗改良場,2025-04-21,24.225972,120.800917,5.609679e-05
C0UA80,大溪漁港,2025-04-21,24.941801,121.902955,1.3162184e-05
C1AI60,國一39K邊坡,2025-04-21,25.064361,121.383836,3.0331446e-08
C0W150,金寧,2025-04-21,24.457703,118.328989,3.8591685e-09
C0R960,內埔,2025-04-21,22.608483,120.570714,0.9691385
V2C250,八德合作社,2025-04-21,24.93775,121.266389,3.4686387e-09
C2H9S0,龍南,2025-04-21,23.953536,120.833183,4.7213607e-08
C0AH40,平等,2025-04-21,25.129142,121.577086,1.0128721e-09
C0R540,佳冬,2025-04-21,22.419456,120.552375,0.9806425
466950,彭佳嶼,2025-04-21,25.627975,122.079744,4.035734e-07
C0A890,雙溪,2025-04-21,25.036003,121.864242,6.9397554e-09
C0C480,桃園,2025-04-21,24.992425,121.323172,5.0197477e-09
C0AH50,林口,2025-04-21,25.072181,121.38084,1.1763991e-08
A2K360,水試臺西試驗場,2025-04-21,23.717231,120.190522,0.011753631
C2M960,外寮,2025-04-21,23.562643,120.665688,2.211583e-08
C0F9S0,烏日,2025-04-21,24.107058,120.624103,0.0022162863
C0C490,八德,2025-04-21,24.928708,121.283289,3.3961296e-09
C0R190,赤山,2025-04-21,22.592333,120.614306,0.9645281
C0T820,天祥,2025-04-21,24.179597,121.495639,0.0025494776
C1F9E1,龍安,2025-04-21,24.1605,120.831961,2.6100386e-06
C0V820,小林,2025-04-21,23.148408,120.63325,0.28553835
C2G870,芳苑,2025-04-21,23.922303,120.320025,0.009951545
C0E850,大河,2025-04-21,24.618069,120.948578,0.0057900324
C1U670,寒溪,2025-04-21,24.634,121.71691,3.4079287e-07
C0N020,城西,2025-04-21,23.0568,120.0956,0.9811545
C1Z110,三棧,2025-04-21,24.11557,121.60501,2.1386131e-07
C0R280,檳榔,2025-04-21,22.076078,120.836777,6.414779e-05
C2H9J0,中台,2025-04-21,23.9996,120.938739,0.07314359
C0F9L0,后里,2025-04-21,24.310436,120.729725,0.9542299
467441,高雄,2025-04-21,22.730432,120.312516,0.992945
C0D540,橫山,2025-04-21,24.71116,121.11693,3.624394e-08
C1D420,太閣南,2025-04-21,24.632808,121.160575,7.0480457e-09
C1E770,公館,2025-04-21,24.526914,120.830806,0.012947343
CAN130,水試所海水繁養殖中心,2025-04-21,23.120802,120.07968,0.98155737
C1I430,翠華,2025-04-21,24.191961,121.224339,1.3757618e-08
C1M400,菜瓜坪,2025-04-21,23.251928,120.576103,0.41855246
C0G730,二林,2025-04-21,23.903325,120.376081,0.011023444
72M360,南改義竹分場,2025-04-21,23.360694,120.279361,0.9761552
V2K620,麥寮合作社,2025-04-21,23.753836,120.294783,0.0067398264
C0Z070,舞鶴,2025-04-21,23.46811,121.37407,0.9976175
C0B040,大武崙,2025-04-21,25.166676,121.706993,8.1952365e-09
C1Z030,紅葉,2025-04-21,23.493119,121.338806,0.99938357
C1I050,丹大,2025-04-21,23.753747,121.141147,1.2971181e-08
C0I080,信義,2025-04-21,23.689694,120.851036,0.10848163
C2M920,朴子農改,2025-04-21,23.469889,120.259383,0.014288682
C2A880,福隆,2025-04-21,25.017842,121.942083,1.3162184e-05
C0Z160,鳳林,2025-04-21,23.746114,121.453411,0.99982107
C0V210,復興,2025-04-21,23.222403,120.806089,7.876857e-07
C0H990,昆陽,2025-04-21,24.121322,121.273642,3.086721e-08
C0R741,獅子,2025-04-21,22.202308,120.705236,0.9288799
C0S710,鹿野,2025-04-21,22.917711,121.122994,0.00046546815
C0I530,小奇萊,2025-04-21,24.131764,121.295717,3.2703788e-08
C2K630,荷苞,2025-04-21,23.657717,120.595144,0.81434417
C0Z080,富源,2025-04-21,23.587642,121.378225,0.94715023
C0SB10,美和,2025-04-21,22.682078,121.060236,0.9972479
C2K620,馬光農場,2025-04-21,23.721453,120.378864,0.99422675
C1I140,卡奈托灣,2025-04-21,23.754364,121.087872,4.608515e-09
C0I520,玉山風口,2025-04-21,23.470489,120.955994,4.4255984e-08
C1G691,下水埔,2025-04-21,23.816114,120.5676,0.9872451
C0X110,臺南市南區,2025-04-21,22.961189,120.188378,0.9983266
C0V680,仁武,2025-04-21,22.701083,120.347722,0.99265736
C2G840,北斗,2025-04-21,23.877586,120.514222,0.0025311091
C0R900,竹坑,2025-04-21,22.1385,120.7022,0.9774979
C0K250,崙背,2025-04-21,23.75555,120.318925,0.0053162663
C0G860,社頭,2025-04-21,23.897647,120.5862,0.001890342
C0X150,安定,2025-04-21,23.102614,120.227839,0.9983349
C0R590,里港,2025-04-21,22.77919,120.49459,0.004430363
C0E610,馬都安,2025-04-21,24.451272,120.930192,1.8378328e-08
C0E550,明德,2025-04-21,24.583486,120.885411,0.017983431
C0R150,三地門,2025-04-21,22.709889,120.639944,2.4132076e-05
C0G910,花壇,2025-04-21,24.032076,120.549461,0.0048914184
C1D400,鳥嘴山,2025-04-21,24.71909,121.28387,1.6557484e-08
C0K500,元長,2025-04-21,23.64981,120.315024,0.005434479
C0F0B0,石岡,2025-04-21,24.276061,120.777644,0.8318743
C2V250,甲仙,2025-04-21,23.080106,120.591758,0.014081112
C0SA20,金崙山,2025-04-21,22.567419,120.959667,3.1709493e-09
C0V350,溪埔,2025-04-21,22.738578,120.446797,0.012421002
C0M660,溪口,2025-04-21,23.604131,120.403569,0.0065992684
C1S880,壽卡,2025-04-21,22.238911,120.858903,1.2800508e-09
72D680,桃改新埔分場,2025-04-21,24.834444,121.066111,2.1206796e-07
