站號,站名,日期,lat,lon,BLBTSLS
C0R710,龍磐,2025-11-20,21.931672,120.838942,0.7382224
C1F9D1,白毛台,2025-11-20,24.158325,120.886933,0.999806
C0G940,竹塘,2025-11-20,23.848253,120.386764,0.99908155
467590,恆春,2025-11-20,22.003897,120.746339,0.74568313
C1O850,環湖,2025-11-20,23.148617,120.418633,0.9999503
C0U710,太平山,2025-11-20,24.505486,121.525656,1.9349453e-07
C0E820,獅潭,2025-11-20,24.539133,120.920042,0.98578453
C0V880,興達,2025-11-20,22.8778,120.2127,0.9998485
C0S890,關山,2025-11-20,23.0395,121.175017,0.5739595
C0SB30,新蘭,2025-11-20,22.869214,121.223228,0.50940317
C2R970,屏科大,2025-11-20,22.648275,120.619247,0.9821075
C1Z130,銅門,2025-11-20,23.965694,121.492842,0.9823142
C0AD40,土城,2025-11-20,24.973208,121.445169,0.986137
CAN140,六官養殖協會,2025-11-20,23.22881,120.29962,0.9999335
C0X180,山上,2025-11-20,23.0757,120.363253,0.99985373
C0F9Z0,雪山東峰,2025-11-20,24.388792,121.268675,4.5994636e-08
C1M480,獨立山,2025-11-20,23.537022,120.607797,3.140818e-08
C0X220,學甲,2025-11-20,23.230367,120.182187,0.99993336
467650,日月潭,2025-11-20,23.881325,120.90805,0.81528604
C0K600,箔子寮,2025-11-20,23.6197,120.14,0.9999585
C0G830,埤頭,2025-11-20,23.866003,120.452806,0.9988756
C0S950,七塊厝,2025-11-20,22.954453,121.229922,0.93482447
467110,金門,2025-11-20,24.407306,118.289281,0.9992481
C0AH80,深坑,2025-11-20,25.002703,121.628328,0.9820887
C0A970,三貂角,2025-11-20,25.007606,122.002058,0.028250301
C2D730,寶山農場,2025-11-20,24.732444,120.976153,0.97787935
C0K430,褒忠,2025-11-20,23.690938,120.303634,0.9998794
467480,嘉義,2025-11-20,23.495925,120.432906,0.9999545
C0V400,阿公店,2025-11-20,22.804194,120.355528,0.99937606
C0E960,觀霧分站,2025-11-20,24.505781,121.113921,2.5127623e-08
467550,玉山,2025-11-20,23.48718,120.95943,6.255693e-08
C0R440,大漢山,2025-11-20,22.405264,120.753181,7.5992165e-07
C0K280,四湖,2025-11-20,23.630414,120.227125,0.9998859
C1F9B1,桐林,2025-11-20,24.066172,120.735194,0.9997416
C2H9U0,鳳鵬,2025-11-20,23.763919,120.788061,0.99979496
C0K390,土庫,2025-11-20,23.679029,120.395574,0.99904203
C1I450,望鄉山,2025-11-20,23.594153,120.944286,3.619047e-08
C0E910,海埔,2025-11-20,24.648767,120.772435,0.9997347
B2E890,畜試北區分所,2025-11-20,24.527806,120.770972,0.9994357
C0R750,四林格山,2025-11-20,22.076989,120.802439,0.99582046
C0F0C0,中坑,2025-11-20,24.248517,120.903319,0.0014377006
C1I121,大鞍,2025-11-20,23.678381,120.760017,1.6552313e-07
72U480,花改蘭陽分場,2025-11-20,24.686306,121.716583,0.040465556
C0A770,科教館,2025-11-20,25.096356,121.516507,0.9870383
C0AJ60,六塊厝,2025-11-20,25.24,121.4481,0.9875569
C0R620,墾雷,2025-11-20,21.900836,120.855269,0.7331735
467420,永康,2025-11-20,23.038386,120.2367,0.9998533
C0I410,名間,2025-11-20,23.837053,120.701447,0.6453439
A2C560,農工中心,2025-11-20,24.985917,121.239833,0.99217683
C0V740,旗山,2025-11-20,22.888614,120.483597,0.999479
C0Z061,玉里,2025-11-20,23.3215,121.339656,0.47239754
C0S840,南田,2025-11-20,22.279725,120.889208,0.09115393
C1I470,杉林溪,2025-11-20,23.639517,120.786444,4.417435e-08
C1X040,東原,2025-11-20,23.291597,120.463822,0.99856395
C0R660,枋寮,2025-11-20,22.367722,120.590647,0.0062367865
C1R120,上德文,2025-11-20,22.763272,120.704442,0.9504714
C0K450,大埤,2025-11-20,23.646074,120.431537,0.99885243
C0UA00,土場,2025-11-20,24.576533,121.495333,0.9733965
467080,宜蘭,2025-11-20,24.763975,121.756528,0.052873593
C0N030,四草,2025-11-20,23.0235,120.1116,0.9999316
467410,臺南,2025-11-20,22.99328,120.20492,0.9998582
C0V650,彌陀,2025-11-20,22.783806,120.246361,0.9989592
C0D660,新竹市東區,2025-11-20,24.798681,120.986942,0.99960804
82S580,茶改東部分場,2025-11-20,22.907694,121.130139,0.5185996
C0SB40,興隆,2025-11-20,22.913661,121.257469,0.5018576
467050,新屋,2025-11-20,25.006725,121.047492,0.986331
C0C710,大溪永福,2025-11-20,24.892936,121.324975,0.9937773
C0FA20,溫寮,2025-11-20,24.372177,120.583125,0.9998655
C0V640,湖內,2025-11-20,22.887139,120.2445,0.99985737
C0R910,下寮,2025-11-20,22.3929,120.5548,0.0062317667
C0Z020,明里,2025-11-20,23.208717,121.262342,0.57986057
C0M770,嘉義梅山,2025-11-20,23.585398,120.555587,0.7549317
C0C660,楊梅,2025-11-20,24.912375,121.143047,0.99535155
C1E511,新開,2025-11-20,24.347703,120.827019,0.9997064
G2F820,農試所(霧峰),2025-11-20,24.031261,120.688133,0.99979573
C1I070,和社,2025-11-20,23.591131,120.888861,0.99402314
C0TA80,立霧山,2025-11-20,24.183258,121.641899,0.0003749064
C2F000,大肚,2025-11-20,24.15295,120.572117,0.9996203
C1S850,豐南,2025-11-20,23.122139,121.262389,0.9668049
C2A920,富貴角,2025-11-20,25.263783,121.565258,0.9517958
CAH030,茶改場竹圍站,2025-11-20,23.860083,120.637528,8.9184454e-05
C0T960,光復,2025-11-20,23.660694,121.424964,0.9647673
C0F9M0,豐原,2025-11-20,24.254322,120.720692,0.9992105
C0R720,旭海,2025-11-20,22.205403,120.887614,0.07746181
C0V710,苓雅,2025-11-20,22.622742,120.330669,0.9991293
C0C740,觀音工業區,2025-11-20,25.064764,121.114856,0.9865021
CAC040,拉拉山,2025-11-20,24.699317,121.427133,5.3330698e-08
C0V790,萬山,2025-11-20,22.905944,120.688056,0.048539888
U2HA30,臺大和社,2025-11-20,23.590856,120.888864,0.99402314
C2H9K0,屯原,2025-11-20,24.067969,121.209389,4.395046e-08
C0AJ90,澳底,2025-11-20,25.0552,121.9253,0.049738225
C0Z100,東華,2025-11-20,23.89525,121.549833,0.861954
C0G970,三豐,2025-11-20,23.882,120.2895,0.9998879
V2K610,大庄合作社,2025-11-20,23.8068,120.367939,0.99988115
C0V900,汕尾,2025-11-20,22.4782,120.4151,0.0061787553
C1R630,龍泉,2025-11-20,22.66701,120.59091,0.8385501
C1AC50,關渡,2025-11-20,25.133486,121.469331,0.9732364
C0C800,四稜,2025-11-20,24.64733,121.4293,7.014233e-07
C0F9I0,神岡,2025-11-20,24.272481,120.658314,0.99916303
C0K460,斗南,2025-11-20,23.678734,120.478359,0.9987399
C2O810,曾文,2025-11-20,23.219681,120.497328,0.9995145
467280,後龍,2025-11-20,24.648563,120.831834,0.9996646
C1F9J1,清水林,2025-11-20,24.071242,120.820419,8.61395e-08
C2A650,火燒寮,2025-11-20,25.002719,121.742892,0.6080727
466930,竹子湖,2025-11-20,25.162078,121.544547,0.9999181
C1I220,樟湖,2025-11-20,23.905333,120.846983,0.024925884
C0I390,仁愛,2025-11-20,24.022122,121.132206,0.008217357
C0Z300,東里,2025-11-20,23.26853,121.30547,0.48931265
C1V590,新發,2025-11-20,23.057019,120.646064,0.9961077
C0K510,水林,2025-11-20,23.572924,120.24597,0.99995774
72S590,東改賓朗果園,2025-11-20,22.813889,121.071278,0.7460673
82A750,茶改北部分場,2025-11-20,24.955778,121.631222,0.99996436
C1A750,石碇服務區,2025-11-20,25.00872,121.646242,0.98014224
C0X300,鹿寮,2025-11-20,23.386047,120.477331,0.99654907
G2AI50,關渡,2025-11-20,25.11575,121.492,0.9875349
C0K590,雲林東勢,2025-11-20,23.674192,120.255721,0.99987954
C0A570,桶後,2025-11-20,24.848222,121.597992,0.91067296
C1S800,華源,2025-11-20,22.657883,121.02325,0.4692488
C0G720,溪州,2025-11-20,23.851589,120.499093,0.9986819
C1V160,達卡努瓦,2025-11-20,23.279811,120.705319,0.0009638306
C2M410,馬頭山,2025-11-20,23.324361,120.582017,0.8868055
C0V850,蚵仔寮,2025-11-20,22.7256,120.2527,0.998854
C0S740,池上,2025-11-20,23.119628,121.209469,0.7243026
C1V390,尖山,2025-11-20,22.813153,120.367789,0.99954516
C0AH70,松山,2025-11-20,25.04871,121.55042,0.986483
C0N010,鯤鯓國小,2025-11-20,23.1879,120.0889,0.9999318
C0R550,新埤,2025-11-20,22.467947,120.582894,0.0062031704
C0SA60,知本（水試所）,2025-11-20,22.702394,121.082761,0.57968706
C0T9I0,豐濱,2025-11-20,23.583897,121.514806,0.9684088
C0UB00,淡江大學蘭陽校園,2025-11-20,24.823239,121.730383,0.99622774
C0W240,九宮,2025-11-20,24.423753,118.240186,0.99925727
C0T9N0,富里,2025-11-20,23.171639,121.249378,0.63088375
U2HA50,臺大竹山,2025-11-20,23.756972,120.681556,0.7196967
C0V840,鳳鼻頭,2025-11-20,22.5083,120.3591,0.998854
C0X140,西港,2025-11-20,23.125608,120.203108,0.9999337
72D080,桃改五峰分場,2025-11-20,24.612194,121.157167,0.0001355146
C2H9P0,伊拿谷,2025-11-20,23.963211,121.088264,0.99535936
C2H9F0,柑林,2025-11-20,24.018658,120.847072,0.9995396
C0TA20,加灣,2025-11-20,24.082025,121.608944,0.8139233
C0V530,阿蓮,2025-11-20,22.883208,120.327508,0.99986
C0FB30,八仙山苗圃,2025-11-20,24.192719,121.001366,0.010768489
C1O880,關山,2025-11-20,23.173397,120.594092,0.87231255
C0E791,卓蘭,2025-11-20,24.3126,120.8244,0.9997415
C1I030,武界,2025-11-20,23.913225,121.052483,0.9893052
C0R520,崁頂,2025-11-20,22.514781,120.506914,0.006368469
C0R341,牡丹,2025-11-20,22.130036,120.792639,0.100141555
C0R930,萬丹,2025-11-20,22.5885,120.4851,0.0063521713
C0S760,紅石,2025-11-20,23.069131,121.126219,1.4062418e-06
C2C410,中央大學,2025-11-20,24.967652,121.185165,0.9934826
C1M610,石磐龍,2025-11-20,23.496606,120.663506,2.575586e-08
C0C790,東眼山,2025-11-20,24.8284,121.40888,1.589573e-05
C0UA10,鴛鴦湖,2025-11-20,24.590269,121.412228,4.826581e-08
V2C260,八德蔬果,2025-11-20,24.978508,121.281819,0.99154913
C0R800,丹路,2025-11-20,22.204481,120.750989,0.012531348
C0G920,永靖,2025-11-20,23.924703,120.547533,0.99995357
C2M950,太和,2025-11-20,23.538372,120.702961,1.1506064e-08
C1A630,下盆,2025-11-20,24.771003,121.538622,0.99979603
B2N890,畜產試驗所,2025-11-20,23.058972,120.336406,0.99985963
C0UA30,白嶺,2025-11-20,24.527819,121.519031,1.989798e-07
C1V580,溪南(特生中心),2025-11-20,23.084972,120.788475,1.493208e-07
C1T970,大農,2025-11-20,23.615233,121.413331,0.98362213
C0R650,竹田,2025-11-20,22.58486,120.54344,0.0062663504
C1H900,清流,2025-11-20,24.080775,120.962997,0.9949078
C1C510,水尾,2025-11-20,24.940081,121.087161,0.9895837
C0F9X0,大雅(中科園區),2025-11-20,24.21528,120.62445,0.9996952
C0SB60,白守蓮,2025-11-20,23.126769,121.401914,0.5801507
C0O970,虎頭埤,2025-11-20,23.021375,120.347878,0.99985397
C0C730,中大臨海站,2025-11-20,24.966126,121.008581,0.9863475
C0X250,新營,2025-11-20,23.310689,120.316681,0.9999357
C0V700,三民,2025-11-20,22.645017,120.311233,0.9991293
C0U870,大礁溪,2025-11-20,24.791042,121.675047,0.996811
C0E870,高鐵苗栗,2025-11-20,24.60725,120.826094,0.9998467
A2K570,古坑花卉中心,2025-11-20,23.63353,120.55239,0.9842332
C0TA30,鹽寮,2025-11-20,23.845606,121.592664,0.8139233
C0M860,新美,2025-11-20,23.338017,120.683169,6.6340317e-06
C1E701,八卦,2025-11-20,24.491756,120.927619,0.99387044
C0I420,國姓,2025-11-20,24.037803,120.855072,0.9996755
C2D720,關西工作站,2025-11-20,24.757275,121.184792,0.9872862
C0S960,香蘭,2025-11-20,22.587569,120.993375,0.090176545
467620,蘭嶼,2025-11-20,22.0369,121.55843,0.98358846
C0R260,春日,2025-11-20,22.370361,120.628306,0.006970895
72G600,臺中農改場,2025-11-20,24.003028,120.534389,0.99995244
C0Z210,瑞穗,2025-11-20,23.5239,121.39021,0.96112233
C0M820,達邦,2025-11-20,23.453994,120.749517,8.686363e-08
C0V860,南寮,2025-11-20,22.7616,120.2339,0.99886656
C0G740,大城,2025-11-20,23.852487,120.320935,0.9998795
C0R920,塭仔,2025-11-20,22.4169,120.5197,0.0061787553
C0R470,高樹,2025-11-20,22.826389,120.600806,0.94922614
C0R680,佳樂水,2025-11-20,21.993578,120.861633,0.7445548
C1O870,大棟山,2025-11-20,23.31157,120.52226,7.709163e-06
C0D360,梅花,2025-11-20,24.678347,121.208558,0.9999537
C0Z190,富世,2025-11-20,24.14743,121.6297,0.2561139
C0AI10,屈尺,2025-11-20,24.92184,121.54475,0.9813759
B2U990,畜試東區分所,2025-11-20,24.669039,121.832561,0.059364088
C0SB80,長濱漁港,2025-11-20,23.313644,121.459994,0.54465663
C0TA50,和仁,2025-11-20,24.241394,121.712472,0.18926454
C0V910,大樹,2025-11-20,22.684645,120.432803,0.6779011
C1R610,西大武山,2025-11-20,22.617719,120.7322,5.125483e-07
C0G900,線西,2025-11-20,24.143358,120.443536,0.99986416
C0M700,竹崎,2025-11-20,23.526178,120.555508,0.91005635
C2E880,三義,2025-11-20,24.405478,120.749819,0.9998837
C0C720,竹圍,2025-11-20,25.112692,121.239824,0.9870364
C0F9P0,清水,2025-11-20,24.312297,120.562242,0.9998625
C0Z150,吉安光華,2025-11-20,23.930925,121.595153,0.796375
C0FA80,小雪山天池,2025-11-20,24.28025,121.02627,2.6654709e-08
467300,東吉島,2025-11-20,23.25727,119.66762,0.99964577
C1D640,外坪(五指山),2025-11-20,24.644447,121.090961,0.99952155
C0F9O0,潭子,2025-11-20,24.213106,120.703933,0.9991526
C2H9R0,卓社,2025-11-20,23.887894,121.000086,1.3739789e-05
72T250,花蓮農改場,2025-11-20,23.975222,121.563889,0.8640095
C0E780,銅鑼,2025-11-20,24.489681,120.790853,0.99918747
C1T950,太安,2025-11-20,23.666719,121.370128,0.52052677
C0E830,苑裡,2025-11-20,24.439714,120.653053,0.9998466
467270,田中,2025-11-20,23.873803,120.581286,0.9986344
C0SA10,檳榔四格山,2025-11-20,22.810031,121.109308,0.8919509
C1T830,布洛灣,2025-11-20,24.17184,121.57127,0.94742614
C0F970,大坑,2025-11-20,24.173142,120.722289,0.9991961
C1U920,思源,2025-11-20,24.393125,121.347214,2.543444e-08
C0A931,三和,2025-11-20,25.233153,121.595236,0.9379568
C0I010,廬山,2025-11-20,24.033311,121.181808,1.1685857e-07
C2M940,日野賀,2025-11-20,23.434056,120.727169,2.2213825e-08
C0R860,鼻頭,2025-11-20,22.1043,120.8979,0.9240551
C0UB20,壯圍,2025-11-20,24.7359,121.8163,0.05948423
C0R790,九棚,2025-11-20,22.14195,120.889281,0.073690936
C0W110,東莒,2025-11-20,25.9652,119.98069,0.9978275
C1U930,粉鳥林,2025-11-20,24.497088,121.842479,0.16555816
C1I211,蘆竹湳,2025-11-20,23.934019,120.811994,1.519453e-06
C0S830,長濱,2025-11-20,23.286817,121.411975,0.63159335
C1F9F1,伯公龍,2025-11-20,24.272392,120.849047,0.9998856
C0UB90,太平山莊,2025-11-20,24.494171,121.536209,1.860524e-07
C0E810,西湖,2025-11-20,24.562947,120.7485,0.99962854
C1I440,新高口,2025-11-20,23.478744,120.878939,2.5687225e-08
C0O840,王爺宮,2025-11-20,23.222064,120.40085,0.9995137
C0T9G0,鳳林山,2025-11-20,23.735269,121.420131,0.98625857
C0X080,佳里,2025-11-20,23.173039,120.145086,0.9999317
C0FB70,大甲溪埔,2025-11-20,24.370625,120.620067,0.999845
C0Z310,清水斷崖,2025-11-20,24.218294,121.689142,0.31800276
C0M680,太保,2025-11-20,23.455062,120.331455,0.9999563
C1S820,金峰,2025-11-20,22.590969,120.933236,0.07514366
C0AD10,八里,2025-11-20,25.150211,121.403947,0.9869583
C2K240,草嶺,2025-11-20,23.59555,120.693461,2.390156e-08
C1SA70,都蘭,2025-11-20,22.87794,121.226881,0.49711064
C0K440,二崙,2025-11-20,23.772797,120.408944,0.99888515
C1A760,坪林交控,2025-11-20,24.94284,121.713442,0.10740211
C0F9N0,大里,2025-11-20,24.092464,120.701378,0.9972029
C0SA90,達仁林場,2025-11-20,22.264347,120.823972,0.13724665
C1R290,石門山,2025-11-20,22.112611,120.756597,0.9626133
42HA10,萬大發電廠,2025-11-20,23.978875,121.139639,0.52052677
C0R890,山海,2025-11-20,21.9878,120.7091,0.75286484
C0T9A0,月眉山,2025-11-20,23.809928,121.539828,0.9985372
C0AC70,信義,2025-11-20,25.037822,121.564597,0.9861543
C0K560,棋山,2025-11-20,23.68645,120.603417,0.96660566
C2FB50,出雲,2025-11-20,24.206469,120.902794,0.15125287
C1Z240,中平林道,2025-11-20,23.42115,121.26763,0.017934673
U2H480,溪頭,2025-11-20,23.670306,120.798194,0.0028599629
C0M880,好美里,2025-11-20,23.3364,120.138,0.9999317
C0T9E0,大坑,2025-11-20,23.880628,121.581981,0.998015
C0K530,臺西,2025-11-20,23.701547,120.197559,0.9998861
C1E900,國一N128K,2025-11-20,24.560997,120.844186,0.99950236
C0AJ50,水湳洞,2025-11-20,25.123695,121.862238,0.9861739
C0AI20,白沙灣,2025-11-20,25.283128,121.519058,0.9861739
C2V310,美濃,2025-11-20,22.898792,120.51907,0.99939865
C0A860,大坪,2025-11-20,25.165914,121.632969,0.9999586
C1U850,觀音海岸,2025-11-20,24.38319,121.77856,0.024081461
C2K610,草嶺石壁,2025-11-20,23.602469,120.707731,2.0630544e-08
C0U950,鶯子嶺,2025-11-20,24.89754,121.79244,3.4316295e-06
C0O900,善化,2025-11-20,23.112883,120.297219,0.99985194
C0K550,蔦松,2025-11-20,23.514319,120.229736,0.9999585
E2P980,林試六龜中心,2025-11-20,22.991703,120.645722,0.984942
C0E590,通霄,2025-11-20,24.471892,120.704622,0.99960804
C1I310,西巒,2025-11-20,23.754486,120.883956,0.3151196
C0A550,泰平,2025-11-20,24.971197,121.823711,0.99996465
C0I360,水里,2025-11-20,23.812553,120.849792,0.00082826655
C0R830,高士,2025-11-20,22.121825,120.836781,0.985904
C1I101,溪頭,2025-11-20,23.661789,120.807647,2.7988614e-08
C0AJ20,野柳,2025-11-20,25.20703,121.690021,0.986483
C0B060,暖暖,2025-11-20,25.0957,121.7403,0.9801638
C1H920,長豐,2025-11-20,24.102039,120.879897,6.653031e-08
C0V360,內門,2025-11-20,22.975481,120.466769,0.93518937
C0R850,林邊,2025-11-20,22.4634,120.5339,0.00639279
C0E930,龍鳳,2025-11-20,24.700034,120.859125,0.99973637
C0U910,冬山,2025-11-20,24.63373,121.7937,0.059364088
C1E721,泰安,2025-11-20,24.489017,120.968036,1.5219504e-06
82H320,茶改中部分場,2025-11-20,23.875611,120.913583,0.9975911
C0M750,布袋,2025-11-20,23.380878,120.167789,0.9999579
C1S860,利嘉,2025-11-20,22.809417,121.050528,0.14208607
E2S980,林試太麻里1,2025-11-20,22.598922,120.980044,0.07493786
C0X170,關廟,2025-11-20,22.963017,120.327797,0.99985725
C0V720,林園,2025-11-20,22.507747,120.394511,0.006385773
C1I510,線浸林道,2025-11-20,23.761508,120.832956,1.6135939e-08
C0D690,外湖,2025-11-20,24.917735,120.968711,0.9861227
C0C750,新興坑尾,2025-11-20,25.0061,121.0971,0.98687077
B2Q810,畜試南區分所,2025-11-20,21.945583,120.802167,0.74452525
C0S790,金崙,2025-11-20,22.538122,120.966875,0.07604301
C0AH90,福山植物園,2025-11-20,24.760717,121.58135,0.9996306
C0I540,奇萊稜線,2025-11-20,24.109231,121.326456,4.5778194e-08
C0M850,表湖,2025-11-20,23.24186,120.64166,1.538081e-07
C0S770,大溪山,2025-11-20,22.478475,120.943325,0.09168891
C0AG80,中和,2025-11-20,24.991622,121.491792,0.9857227
C0T790,大禹嶺,2025-11-20,24.186117,121.316086,2.9740129e-08
C0T9B0,水源,2025-11-20,23.991861,121.537169,0.983562
C0R840,牡丹池山,2025-11-20,22.168389,120.841225,0.12251848
C1I131,桶頭,2025-11-20,23.641944,120.654117,5.8588856e-05
CAL110,布袋國中,2025-11-20,23.35893,120.18026,0.99993163
467571,新竹,2025-11-20,24.827853,121.014219,0.9996652
C0Z290,赤柯山,2025-11-20,23.36893,121.38293,0.24073209
C0X280,將軍,2025-11-20,23.214999,120.13577,0.9999318
C0S690,太麻里,2025-11-20,22.60902,120.98533,0.68565315
C0U880,北關,2025-11-20,24.9072,121.8734,0.9870383
C0G810,埔心,2025-11-20,23.947633,120.525456,0.9999531
C0U970,大福,2025-11-20,24.80064,121.81389,0.062026344
C2H9N0,仁愛東眼,2025-11-20,24.026875,121.1205,3.9770364e-07
C1E670,南礦,2025-11-20,24.538278,121.002836,3.2847856e-05
C0M520,東後寮,2025-11-20,23.369908,120.248065,0.99993336
C1E461,松安,2025-11-20,24.397972,120.986022,5.161357e-06
C2N160,西拉雅風管處,2025-11-20,23.189481,120.335297,0.9999347
C2M970,碧湖,2025-11-20,23.568632,120.624165,4.4542812e-08
C0A640,石碇,2025-11-20,24.993969,121.662917,0.11151831
E2S960,林試太麻里2,2025-11-20,22.598,120.99775,0.09093909
C0F9Y0,桃山,2025-11-20,24.432739,121.303808,4.837161e-08
C1I020,萬大,2025-11-20,23.979817,121.132261,0.005955553
C0U940,羅東,2025-11-20,24.68184,121.74934,0.046499368
C0M650,朴子,2025-11-20,23.43463,120.23902,0.99995774
C1I500,大尖山,2025-11-20,23.858572,120.994889,4.923974e-08
C0FB40,中橫21.6k,2025-11-20,24.2499,121.1455,2.525337e-07
C0G820,田尾,2025-11-20,23.901669,120.509389,0.9999541
E2K600,四湖植物園,2025-11-20,23.676986,120.163433,0.99988085
C0S730,綠島,2025-11-20,22.6672,121.47533,0.47079286
12Q970,東港工作站,2025-11-20,22.479997,120.466058,0.0062367865
C0E430,南庄,2025-11-20,24.601775,121.000214,0.9856816
C1TA00,太魯閣,2025-11-20,24.15773,121.6236,0.31712553
466920,臺北,2025-11-20,25.037658,121.514853,0.986483
C0R600,舊泰武,2025-11-20,22.588194,120.664944,0.99621236
C1I260,北坑,2025-11-20,23.9246,121.006903,5.5692215e-07
466910,鞍部,2025-11-20,25.182586,121.529731,0.9498683
C1I230,九份二山,2025-11-20,23.961944,120.845,0.9984013
C2A660,瑞芳,2025-11-20,25.113169,121.801147,0.9755067
C0R270,琉球嶼,2025-11-20,22.332244,120.362236,0.007035031
C1T990,高寮,2025-11-20,23.394239,121.356808,0.94797707
C0G620,芬園,2025-11-20,24.015678,120.6213,0.9999518
C1Z140,荖溪,2025-11-20,23.890575,121.45964,0.50783104
C1I201,中心崙,2025-11-20,23.728722,120.712097,2.037078e-07
C1I400,凌霄,2025-11-20,24.018778,121.004456,5.837897e-07
C1M640,十字,2025-11-20,23.492153,120.753683,9.171198e-08
G2P820,農試鳳山分所,2025-11-20,22.646611,120.356083,0.9993182
C0Z270,蕃薯寮,2025-11-20,23.73835,121.540108,0.99639446
C0FB10,出雲山苗圃,2025-11-20,24.23105,120.90475,0.0014106681
C0F9Q0,外埔,2025-11-20,24.347817,120.705686,0.9992058
C0K580,高鐵雲林,2025-11-20,23.737456,120.417944,0.99888515
C2I090,鳳凰,2025-11-20,23.728081,120.787347,0.9948825
C0U990,員山,2025-11-20,24.74435,121.72247,0.049635574
C0V770,大社,2025-11-20,22.730306,120.346639,0.999173
C0X120,麻豆,2025-11-20,23.183289,120.248611,0.9999337
C0C670,龍潭,2025-11-20,24.870056,121.221389,0.985206
C0D680,香山濕地,2025-11-20,24.783581,120.914988,0.99973387
C0S980,勝林山,2025-11-20,22.430439,120.8938,0.9612353
C0V730,大寮,2025-11-20,22.605614,120.395717,0.0062031704
C0R570,麟洛,2025-11-20,22.65078,120.52719,0.6856394
C2M930,石卓,2025-11-20,23.478744,120.702264,1.0517778e-07
C0G9B0,和美,2025-11-20,24.105169,120.492131,0.99995166
CAG100,王功漁港,2025-11-20,23.96824,120.32586,0.9998861
C0X290,北門,2025-11-20,23.267772,120.125481,0.99993163
C2F930,大甲,2025-11-20,24.347667,120.640403,0.9997725
C0D650,湖口,2025-11-20,24.904794,121.043628,0.9885753
C0E420,竹南,2025-11-20,24.708978,120.888897,0.99966556
C0U780,五結,2025-11-20,24.68637,121.79794,0.059364088
C1I250,鯉潭,2025-11-20,23.961922,120.991131,6.653031e-08
C0R130,阿禮,2025-11-20,22.742908,120.743678,0.99017596
C0X100,臺南市北區,2025-11-20,23.010394,120.194228,0.9998485
C0S920,金峰嘉蘭,2025-11-20,22.594789,120.960825,0.075121485
C0V490,新興,2025-11-20,22.627422,120.298803,0.999114
C0F9K0,大安,2025-11-20,24.345061,120.588025,0.9998468
467290,古坑,2025-11-20,23.633639,120.551889,0.9842332
C2E970,八甲,2025-11-20,24.535811,120.795983,0.99913967
C0V440,鳳山,2025-11-20,22.646653,120.356122,0.9993182
C1T940,大觀,2025-11-20,23.714206,121.373133,0.9985819
C0E740,造橋,2025-11-20,24.637056,120.864778,0.99967873
C0R100,尾寮山,2025-11-20,22.833111,120.683889,0.99020207
A2K630,臺大雲林校區,2025-11-20,23.730628,120.423903,0.9988772
467990,馬祖,2025-11-20,26.169467,119.923158,0.9975322
C0D580,寶山,2025-11-20,24.735006,121.025192,0.987774
E2P990,林試扇平站,2025-11-20,22.9677,120.6857,0.99543524
C0AI30,三重,2025-11-20,25.057328,121.500629,0.9870383
C0AH00,汐止,2025-11-20,25.066881,121.658778,0.986483
C1Z040,立山,2025-11-20,23.443356,121.327375,0.9983731
466881,新北,2025-11-20,24.959207,121.525196,0.98436755
C0W130,花嶼,2025-11-20,23.40007,119.32276,0.9994983
C0A950,鼻頭角,2025-11-20,25.129036,121.923372,0.056198157
C0K470,林內,2025-11-20,23.748675,120.609642,0.98767745
C2F990,摩天嶺,2025-11-20,24.322458,120.936819,0.68819726
82C160,茶改場,2025-11-20,24.908472,121.185333,0.9962447
C0Z320,清水林道,2025-11-20,23.27125,121.188272,0.9937093
C0R760,南仁湖,2025-11-20,22.084681,120.863353,0.96411675
C0M670,大林,2025-11-20,23.600616,120.45841,0.9999532
C0M800,茶山,2025-11-20,23.299075,120.664767,0.0046345177
C0A9C0,天母,2025-11-20,25.117494,121.537169,0.9857227
72K220,南改斗南分場,2025-11-20,23.634556,120.477333,0.99864244
72AI40,桃改樹林分場,2025-11-20,24.944503,121.386972,0.98458904
C0S910,蘭嶼燈塔,2025-11-20,22.081197,121.503117,0.98862934
C0B050,八斗子,2025-11-20,25.144754,121.79167,0.9875569
C0U900,內城,2025-11-20,24.71813,121.68766,0.03492762
C0X320,柳營,2025-11-20,23.253328,120.375253,0.9999545
C0M790,新港,2025-11-20,23.553269,120.345728,0.99995726
C0F9T0,西屯,2025-11-20,24.179494,120.641275,0.9997725
C0E950,松安,2025-11-20,24.39792,120.98599,5.161357e-06
C0SA30,都歷,2025-11-20,23.020333,121.323642,0.4886907
C0C620,蘆竹,2025-11-20,25.084275,121.265767,0.98540497
C0R730,大坪頂,2025-11-20,22.024633,120.69355,0.7750377
C0AJ40,石門,2025-11-20,25.273672,121.601198,0.96689236
C0E750,苗栗,2025-11-20,24.564569,120.824575,0.9995483
C0T870,鯉魚潭,2025-11-20,23.935639,121.508944,0.97191006
C1V170,排雲,2025-11-20,23.463619,120.954147,5.528491e-08
C2H950,中寮,2025-11-20,23.884447,120.766406,0.9996733
C0R350,貓鼻頭,2025-11-20,21.921774,120.7358,0.73801214
C0V660,岡山,2025-11-20,22.797078,120.294958,0.9990261
C1H941,雙冬,2025-11-20,23.967378,120.802189,4.009456e-07
C0AJ70,田寮,2025-11-20,25.2698,121.4886,0.9864647
C0AI00,五股,2025-11-20,25.07445,121.42728,0.9958849
C0Z280,德武,2025-11-20,23.47426,121.41071,0.9851167
C0R700,枋山,2025-11-20,22.246844,120.661086,0.006385773
C0C460,復興,2025-11-20,24.820208,121.352281,0.9999652
E2H360,蓮華池,2025-11-20,23.918333,120.885278,1.0892251e-07
C0M640,中埔,2025-11-20,23.42538,120.5229,0.9067376
C0W140,金沙,2025-11-20,24.488292,118.408778,0.99940956
C2A540,四堵,2025-11-20,24.8926,121.745736,0.9999547
C0ACA0,新莊,2025-11-20,25.051478,121.446756,0.98697954
C0R220,潮州,2025-11-20,22.534361,120.54,0.0063151214
U2HA40,臺大內茅埔,2025-11-20,23.689722,120.851117,4.3275e-06
467490,臺中,2025-11-20,24.145736,120.684075,0.99978876
C0UB60,明池,2025-11-20,24.650688,121.475277,7.698523e-07
C0U960,翠峰湖,2025-11-20,24.510856,121.608044,2.1675939e-07
E2HA20,林試畢祿溪站,2025-11-20,24.226944,121.308522,2.420153e-08
C0V890,前鎮,2025-11-20,22.5718,120.3117,0.9989592
C1F941,雪嶺,2025-11-20,24.280586,121.026642,2.6654709e-08
C2H9E0,國姓南港,2025-11-20,23.911108,120.846556,0.0082626175
C0AC80,文山,2025-11-20,25.00235,121.575728,0.9817127
C0F9R0,龍井,2025-11-20,24.184536,120.528972,0.99986225
C0M760,民雄,2025-11-20,23.551754,120.428457,0.9999531
C0UA40,西德山,2025-11-20,24.560647,121.752608,1.0008386e-06
C1T920,中興,2025-11-20,23.769503,121.498653,0.91330206
C0D550,雪霸,2025-11-20,24.526972,121.11605,3.7620868e-08
C2F860,梨山,2025-11-20,24.247522,121.243669,2.4078457e-08
C0R320,車城,2025-11-20,22.0744,120.716247,0.7532892
C1S870,南美山,2025-11-20,23.15025,121.382333,0.6169007
C0B020,基隆嶼,2025-11-20,25.19141,121.78391,0.98613805
C1U501,牛鬥,2025-11-20,24.637836,121.573656,0.45543677
C0M730,嘉義市東區,2025-11-20,23.457673,120.460531,0.99995315
C0S700,知本,2025-11-20,22.684866,121.005642,0.13724665
C1N001,沙崙,2025-11-20,22.935472,120.309406,0.99985886
C0V760,橋頭,2025-11-20,22.757806,120.30575,0.999114
C0G960,福寶,2025-11-20,24.0443,120.3814,0.9999516
C0X210,白河,2025-11-20,23.347466,120.414427,0.9999537
C0S810,東河,2025-11-20,22.972672,121.303986,0.5112566
C2R170,屏東,2025-11-20,22.66027,120.49403,0.6791251
C0R670,楓港,2025-11-20,22.190131,120.692156,0.006381433
C0FA50,霧峰,2025-11-20,24.0419,120.6995,0.9997891
C0UB10,蘇澳,2025-11-20,24.5969,121.8571,0.16595359
C0G950,防潮門,2025-11-20,24.1835,120.4871,0.99986494
C0M740,六腳,2025-11-20,23.492871,120.290625,0.9999579
C1R250,力里,2025-11-20,22.428117,120.629228,0.0078584645
C0K330,虎尾,2025-11-20,23.719183,120.442036,0.9987725
C2FA00,烏石坑,2025-11-20,24.273503,120.947617,0.7696844
C0V620,永安,2025-11-20,22.82315,120.236856,0.9989592
C1I330,楓樹林,2025-11-20,23.986803,121.076117,2.3251361e-05
C0W200,湖西,2025-11-20,23.596314,119.67275,0.99932945
72Q010,高雄農改場,2025-11-20,22.709333,120.525889,0.7708387
C0SA40,瑞和,2025-11-20,22.974361,121.156697,0.5293576
C0C680,龜山,2025-11-20,25.02846,121.38656,0.23782063
C2V260,月眉,2025-11-20,22.971003,120.539853,0.9821075
C0V450,鳳森,2025-11-20,22.545064,120.392592,0.006956028
C0FA90,小雪山林道,2025-11-20,24.29515,121.03651,3.2354418e-08
C0U720,南山,2025-11-20,24.43742,121.38167,8.247321e-07
A2N290,臺南蘭花園區,2025-11-20,23.340258,120.379661,0.999957
C0R560,新園,2025-11-20,22.5434,120.461558,0.006385776
C0U890,三星,2025-11-20,24.66812,121.65302,0.02800815
C1V300,御油山,2025-11-20,23.001983,120.715364,1.9659298e-07
C0U600,礁溪,2025-11-20,24.817539,121.765608,0.043178525
C1T980,龍澗,2025-11-20,24.023289,121.411328,1.9570255e-06
C0D670,海天一線,2025-11-20,24.831986,120.914438,0.99973637
C0SA00,歷坵,2025-11-20,22.520969,120.89185,0.10647467
C0M710,東石,2025-11-20,23.458927,120.15385,0.9999578
C0M780,鹿草,2025-11-20,23.41134,120.30835,0.9999563
C0U520,雙連埤,2025-11-20,24.753033,121.641303,0.9967399
C0B010,七堵,2025-11-20,25.094819,121.71713,0.98523307
C0R480,長治,2025-11-20,22.693128,120.542622,0.8231051
C1V830,國三S383K,2025-11-20,22.781967,120.426475,0.9760863
12Q980,恆春工作站,2025-11-20,22.079678,120.714425,0.75342935
C1O940,東山服務區,2025-11-20,23.286016,120.398472,0.99995375
C1U840,東澳嶺,2025-11-20,24.5378,121.8485,0.00011049648
C1D630,飛鳳山,2025-11-20,24.766464,121.119178,0.99968445
C0S940,石寧山,2025-11-20,23.223772,121.406639,0.46402606
C0K410,北港,2025-11-20,23.573957,120.292802,0.999958
C2M620,瑞里,2025-11-20,23.545133,120.675197,1.4685355e-08
C0SB70,小港漁港,2025-11-20,23.158558,121.400431,0.5542491
C2O950,安南,2025-11-20,23.076694,120.144861,0.9998509
C0F0E0,南湖圈谷,2025-11-20,24.363714,121.444667,1.2663884e-07
467610,成功,2025-11-20,23.097486,121.373428,0.5356283
C0G890,伸港,2025-11-20,24.148933,120.484403,0.9998621
C2E540,龍溪,2025-11-20,24.606489,120.783933,0.9998576
C1V200,梅山,2025-11-20,23.268447,120.823556,0.9914751
C0T9H0,加路蘭山,2025-11-20,23.682947,121.5274,0.99288857
C2O930,玉井,2025-11-20,23.126042,120.46055,0.9999503
C1F911,新伯公,2025-11-20,24.221361,120.841069,0.9998682
C0R490,九如,2025-11-20,22.7405,120.490503,0.74971133
C0X200,左鎮,2025-11-20,23.056758,120.408522,0.99949384
C0FA60,鞍馬山工作站,2025-11-20,24.267064,121.000793,2.4081029e-08
C0SB50,叭嗡嗡,2025-11-20,23.047062,121.343223,0.5671882
C1F891,稍來,2025-11-20,24.265689,121.001142,2.4293193e-08
72N240,七股研究中心,2025-11-20,23.081672,120.062894,0.99993265
C0C700,中壢,2025-11-20,24.977661,121.256375,0.9937156
C0M690,水上,2025-11-20,23.419734,120.388909,0.999957
C0V690,鼓山,2025-11-20,22.623325,120.275575,0.99897003
C0O860,大內,2025-11-20,23.11885,120.36083,0.9998568
C0Z200,萬榮,2025-11-20,23.709219,121.420106,0.9717673
C0T9D0,和中,2025-11-20,24.26676,121.74103,0.17876622
C1O921,楠西,2025-11-20,23.183511,120.484083,0.9999449
C0AJ30,淡水觀海,2025-11-20,25.184591,121.408616,0.9875349
C0V810,左營,2025-11-20,22.67491,120.28491,0.9991295
C0UA70,桃源谷,2025-11-20,24.962606,121.888875,0.9957512
C0X130,官田,2025-11-20,23.193217,120.315422,0.999936
C1H000,翠峰,2025-11-20,24.109397,121.205211,2.4929605e-08
C0UA90,石城,2025-11-20,24.980444,121.951214,0.042146917
C1E681,南勢山,2025-11-20,24.421669,120.923831,0.0030245562
C0A9F0,內湖,2025-11-20,25.079422,121.57545,0.986483
C0K291,宜梧,2025-11-20,23.536281,120.169329,0.9999579
C1K540,口湖,2025-11-20,23.585344,120.180517,0.999958
C0R780,滿州,2025-11-20,22.024403,120.839892,0.7344377
C0V870,文安,2025-11-20,22.8025,120.2164,0.998854
C0U650,玉蘭,2025-11-20,24.675286,121.587061,0.9972749
C0R640,東港,2025-11-20,22.46247,120.44074,0.0062317667
C0AJ80,板橋,2025-11-20,25.0107,121.4489,0.9861543
C0S660,下馬,2025-11-20,23.150427,121.070312,0.9947601
C1H9B1,阿眉,2025-11-20,24.1263,120.994672,5.5910032e-08
C0UA20,多加屯,2025-11-20,24.368614,121.373189,2.805446e-08
C0E730,頭份,2025-11-20,24.688247,120.912206,0.9996642
72V140,高改旗南分場,2025-11-20,22.857861,120.516667,0.82037574
C0K480,莿桐,2025-11-20,23.761192,120.502372,0.99863786
C0U980,坪林石牌,2025-11-20,24.86478,121.77396,0.9889994
C0T900,西林,2025-11-20,23.8119,121.441458,0.98460495
C1I150,青雲,2025-11-20,23.793361,120.949378,0.00016342622
467350,澎湖,2025-11-20,23.565503,119.563094,0.99935335
C0G800,埔鹽,2025-11-20,24.000394,120.431683,0.9999515
C0H960,草屯,2025-11-20,23.973672,120.68085,0.99976426
C1V780,多納林道,2025-11-20,22.888028,120.737917,0.00021117541
C0E920,通霄漁港,2025-11-20,24.498589,120.673876,0.99986416
C0Z330,安通山,2025-11-20,23.290728,121.348528,0.9666308
C0AH10,永和,2025-11-20,25.01125,121.508111,0.98698807
C0AK10,太平里,2025-11-20,25.134937,121.364899,0.9864647
C2G640,鹿港,2025-11-20,24.0753,120.430481,0.9999518
C1E890,國三N149K,2025-11-20,24.463414,120.680019,0.9994852
C1R110,口社,2025-11-20,22.770111,120.645222,0.9821075
C1M870,國三N285K,2025-11-20,23.550319,120.505833,0.9574555
C1E480,鳳美,2025-11-20,24.554803,121.034747,0.99979335
C0M530,奮起湖,2025-11-20,23.493903,120.699253,1.1426434e-08
C0C590,觀音,2025-11-20,25.027072,121.153317,0.98806995
C0T9M0,靜浦,2025-11-20,23.455167,121.495028,0.9174703
C2H9M0,發祥,2025-11-20,24.154094,121.164517,2.3480854e-05
C0AI40,石牌,2025-11-20,25.115597,121.513139,0.986483
C1F871,上谷關,2025-11-20,24.203483,121.018644,0.7392627
C2H9G0,百勝,2025-11-20,24.051142,120.909361,0.9998828
C0G880,二水,2025-11-20,23.810742,120.6173,0.98799664
C0R940,加祿堂,2025-11-20,22.3363,120.6217,0.006381433
C0W220,北竿,2025-11-20,26.220358,119.974881,0.9994294
C0O960,崎頂,2025-11-20,22.959547,120.369317,0.9998182
C0TA40,秀林,2025-11-20,24.302864,121.731144,0.9176264
C0S750,向陽,2025-11-20,23.248397,120.986133,2.4109475e-08
C0T9F0,水璉,2025-11-20,23.797131,121.542514,0.99452716
C1M600,頭凍,2025-11-20,23.406364,120.603339,7.870019e-08
467660,臺東,2025-11-20,22.752211,121.154586,0.5671882
C1D380,新埔,2025-11-20,24.84745,121.03834,0.9782597
C2G980,田頭村,2025-11-20,23.8263,120.444175,0.99904263
C0V750,路竹,2025-11-20,22.854997,120.259439,0.9991832
C0N050,蚵寮,2025-11-20,23.301,120.1104,0.99993163
72M700,南改鹿草分場,2025-11-20,23.416869,120.283061,0.999958
C1SA50,利嘉林道,2025-11-20,22.82325,121.009389,1.9026912e-06
C0UB70,太平山中間站,2025-11-20,24.542003,121.513453,1.39905505e-05
C0A940,金山,2025-11-20,25.223628,121.643967,0.9846023
C1V340,大津,2025-11-20,22.888322,120.645986,0.991761
C0W180,七美,2025-11-20,23.219333,119.444892,0.9992279
C1F9C1,白冷,2025-11-20,24.182844,120.929889,0.9998319
K2E710,苗改生物防治研究中心,2025-11-20,24.422861,120.871833,0.9852253
C0N040,蘆竹溝,2025-11-20,23.2344,120.0961,0.9999316
C0D760,大坪苗圃,2025-11-20,24.5362,121.1108,1.5127413e-06
C2W230,畜試所澎湖,2025-11-20,23.628342,119.513206,0.999424
C0R880,後壁湖,2025-11-20,21.9457,120.7457,0.7524093
C1I280,埔中,2025-11-20,23.820778,120.642594,0.00037749505
467790,墾丁雷達站,2025-11-20,21.948235,120.808028,0.7296793
C0W190,望安,2025-11-20,23.380564,119.494075,0.99926436
C0Z170,卓溪,2025-11-20,23.3443,121.3029,0.50919217
C0F850,東勢,2025-11-20,24.246428,120.833047,0.9998404
466900,淡水,2025-11-20,25.164889,121.448906,0.986483
C0I370,魚池,2025-11-20,23.895703,120.94135,1.6248379e-07
C0C630,大溪,2025-11-20,24.882853,121.265547,0.996237
C0A520,山佳,2025-11-20,24.974944,121.402008,0.9846483
C0I110,竹山,2025-11-20,23.761225,120.688156,0.74694324
82H840,茶改南部分場,2025-11-20,23.762528,120.7405,0.9997822
C0G660,溪湖,2025-11-20,23.94835,120.479122,0.99995327
C1T800,洛韶,2025-11-20,24.204558,121.453956,4.4724823e-07
C1T810,慈恩,2025-11-20,24.192044,121.388386,2.5406997e-08
C1E451,象鼻,2025-11-20,24.368617,120.940228,0.002885325
C0AC60,三峽,2025-11-20,24.939025,121.369728,0.9862738
C0I490,萬大林道,2025-11-20,23.928228,121.091411,7.3041804e-08
C1I290,豐丘,2025-11-20,23.668178,120.887417,1.6074226e-08
C1I320,奧萬大,2025-11-20,23.952956,121.178556,2.185994e-05
C2M910,嘉義大學,2025-11-20,23.471325,120.485903,0.99719656
C0U770,南澳,2025-11-20,24.44935,121.81022,0.17031579
C0A980,社子,2025-11-20,25.109508,121.469681,0.9875569
C0V800,六龜,2025-11-20,22.997889,120.633583,0.9920477
C1G9D0,國一S218K,2025-11-20,23.890641,120.493253,0.9999532
C0E570,白沙屯,2025-11-20,24.549447,120.696803,0.99986494
C2F9A0,中竹林,2025-11-20,24.103556,120.751061,0.99976134
C0FA40,臺中電廠,2025-11-20,24.2146,120.4907,0.9998621
C2G9A0,畜試所彰化,2025-11-20,23.86045,120.557964,0.998638
C0H9C0,合歡山,2025-11-20,24.143442,121.272547,4.230215e-08
C0X060,下營,2025-11-20,23.22695,120.256261,0.9999318
G2M350,農試溪口農場,2025-11-20,23.58565,120.408111,0.9999563
C0U860,頭城,2025-11-20,24.85323,121.8308,0.056198157
C0R580,南州,2025-11-20,22.48591,120.50274,0.0062317667
C0D430,峨眉,2025-11-20,24.6905,121.017189,0.98027754
C0G780,秀水,2025-11-20,24.03405,120.503869,0.9999523
72N100,臺南農改場,2025-11-20,23.0605,120.342194,0.9998568
C0S900,蘭嶼高中,2025-11-20,22.04909,121.51214,0.992445
C1F9W0,德基,2025-11-20,24.254783,121.190261,2.7423873e-08
C1Z120,壽豐,2025-11-20,23.870853,121.508081,0.861954
C0W160,烏坵,2025-11-20,24.9944,119.44956,0.9988835
C1I240,外大坪,2025-11-20,23.958697,120.917931,6.645042e-08
C1I550,國六W023K,2025-11-20,23.979067,120.867742,0.9997962
C0R870,興海,2025-11-20,21.9752,120.8439,0.74418104
C0R140,瑪家,2025-11-20,22.682903,120.686639,0.9955261
C0A530,坪林,2025-11-20,24.938183,121.70975,0.9395108
C0X260,後壁,2025-11-20,23.366358,120.362326,0.99993545
C0Z230,和平,2025-11-20,24.30717,121.77007,0.1720538
C0G770,福興,2025-11-20,24.041289,120.437669,0.9999525
C0H9A0,神木村,2025-11-20,23.532742,120.843667,4.1429755e-07
C0I460,南投,2025-11-20,23.911469,120.687331,0.9997725
C0I480,梅峰,2025-11-20,24.085272,121.173572,2.4500732e-08
C1V570,吉東,2025-11-20,22.85422,120.5454,0.8831932
C2D740,屯原,2025-11-20,24.067969,121.209389,4.395046e-08
C2A560,福山,2025-11-20,24.776203,121.502811,0.99996406
C0AH30,五分山,2025-11-20,25.07125,121.780794,0.0010263743
C0FA10,松柏,2025-11-20,24.429115,120.617482,0.99986416
72S200,東改班鳩分場,2025-11-20,22.829528,121.077694,0.63159335
72HA00,中改埔里分場,2025-11-20,23.903208,120.963364,2.2215313e-07
C2H9W0,大坪頂農水,2025-11-20,24.043122,120.932781,6.474404e-08
C0C650,平鎮,2025-11-20,24.897503,121.214636,0.99625397
C0S930,延平,2025-11-20,22.902581,121.084058,0.61426234
C0UA60,樟樹山,2025-11-20,24.41393,121.78325,0.99272764
C1S670,摩天,2025-11-20,23.199503,121.027,2.5730876e-06
C0V630,茄萣,2025-11-20,22.906642,120.182608,0.9998527
466940,基隆,2025-11-20,25.133314,121.740475,0.98714554
C0X050,東河,2025-11-20,23.296598,120.385608,0.9999545
C0R770,保力,2025-11-20,22.071122,120.764111,0.73297817
G2L020,農試嘉義分所,2025-11-20,23.485028,120.473806,0.9964633
C0X240,關子嶺,2025-11-20,23.331169,120.508025,0.048182506
C0I380,集集,2025-11-20,23.828206,120.801467,0.0023895067
466990,花蓮,2025-11-20,23.975128,121.613275,0.7972237
C1V220,小關山,2025-11-20,23.154217,120.813603,6.152109e-08
C1F9G1,慶福山,2025-11-20,24.180853,120.848378,0.9989773
C0FB20,雪山橋,2025-11-20,24.23192,120.9786,2.5892742e-08
C0Z250,瑞穗林道,2025-11-20,23.49284,121.30688,0.05913843
C0D590,新豐,2025-11-20,24.87068,120.97721,0.987774
C0A870,五指山,2025-11-20,25.132153,121.608692,0.99981946
C0UA50,西帽山,2025-11-20,24.555361,121.802628,0.00015846132
C0X160,仁德,2025-11-20,22.968258,120.257689,0.9998533
C1H971,六分寮,2025-11-20,23.92507,120.6378,0.99971867
C0W120,西嶼,2025-11-20,23.5626,119.468436,0.9993479
C0G650,員林,2025-11-20,23.946503,120.585597,0.99995375
C0AD50,鶯歌,2025-11-20,24.951533,121.346294,0.9874861
C2H9Q0,北東眼山,2025-11-20,24.120939,121.189303,4.5242878e-08
C2H9T0,名間竹圍,2025-11-20,23.859914,120.637572,8.707334e-05
C0S990,山豬窟,2025-11-20,22.318619,120.857372,0.09215654
C0X190,安平,2025-11-20,22.993161,120.152181,0.99985296
C0K400,斗六,2025-11-20,23.720583,120.541127,0.99820864
12J990,口湖工作站,2025-11-20,23.589978,120.180394,0.9999585
C0O830,北寮,2025-11-20,23.079561,120.495008,0.9823372
C1D410,白蘭,2025-11-20,24.579364,121.079947,5.740285e-06
C0S970,加津林,2025-11-20,22.416211,120.926942,0.090176545
C0D700,關西,2025-11-20,24.7977,121.1732,0.9952299
C0M810,里佳,2025-11-20,23.389125,120.716647,1.1210964e-08
C0U750,龜山島,2025-11-20,24.841667,121.953133,0.95838857
C0R810,內獅,2025-11-20,22.305064,120.642986,0.006385773
C1M390,龍美,2025-11-20,23.406728,120.654417,2.362035e-08
C2FB60,頭櫃山,2025-11-20,24.129842,120.858925,0.045199964
C1H840,國三N238K,2025-11-20,23.841008,120.707711,0.0018051923
CAQ030,崎峰國小,2025-11-20,22.42565,120.49521,0.0062317667
C2E520,大湖,2025-11-20,24.414939,120.870872,0.99953884
467530,阿里山,2025-11-20,23.508208,120.813242,2.4783535e-08
C1E691,南湖,2025-11-20,24.40135,120.837533,0.997943
C0FA30,梧棲,2025-11-20,24.256003,120.523381,0.99986243
C1V231,高中,2025-11-20,23.134911,120.716711,1.1917125e-07
C0AK30,硬漢嶺,2025-11-20,25.136097,121.426372,0.99993974
C0F9V0,新社,2025-11-20,24.200172,120.815806,0.99987656
C0H890,埔里,2025-11-20,23.972169,120.952425,0.9998752
C0R690,墾丁,2025-11-20,21.966756,120.810269,0.8886516
C0F0D0,審馬陣,2025-11-20,24.381675,121.4203,8.985101e-08
C2W030,金門農試所,2025-11-20,24.448431,118.451786,0.9993361
C0R820,白鷺,2025-11-20,22.454275,120.666219,0.26611286
C0FB00,大雪山,2025-11-20,24.254668,121.007374,2.3983715e-08
C1V190,南天池,2025-11-20,23.27403,120.91176,2.5168585e-08
C0E940,雪見,2025-11-20,24.42595,121.01347,3.679511e-08
K2E360,苗栗農改場,2025-11-20,24.495722,120.829111,0.9992769
CAJ050,海口故事園區,2025-11-20,23.57543,120.14121,0.9999578
C2H9D0,三隻寮,2025-11-20,24.093078,120.861578,5.695048e-08
C0O990,媽廟,2025-11-20,22.99175,120.293525,0.99985874
C0D480,打鐵坑,2025-11-20,24.849664,121.150789,0.98491514
C0Z220,和平林道,2025-11-20,24.343922,121.656317,0.97314334
C0TA10,花蓮漁港,2025-11-20,23.995322,121.638331,0.7688343
72C440,桃園農改場,2025-11-20,24.950944,121.030583,0.9860995
C1E711,馬拉邦山,2025-11-20,24.367306,120.901656,0.83539295
C0SB20,富岡,2025-11-20,22.792467,121.192669,0.5539864
C0D560,竹東,2025-11-20,24.767147,121.057881,0.9875544
C0F9U0,南屯,2025-11-20,24.137006,120.637969,0.9999539
C0M720,番路,2025-11-20,23.464657,120.554156,0.045814205
C0F0A0,雪山圈谷,2025-11-20,24.388594,121.236339,5.599402e-08
C1A9N0,四十份,2025-11-20,24.934158,121.593283,0.99996465
C0U760,東澳,2025-11-20,24.52196,121.83318,0.19736391
C0X230,鹽水,2025-11-20,23.272621,120.247641,0.99993336
C2H9H0,苗改南投蜂場,2025-11-20,23.852589,120.693481,0.7549317
C0R950,萬隆國小,2025-11-20,22.507667,120.587817,0.0064711957
467540,大武,2025-11-20,22.35572,120.90374,0.09587616
C0V370,古亭坑,2025-11-20,22.893178,120.401947,0.99960154
C1I340,新興橋,2025-11-20,23.563333,120.868728,1.3358575e-08
C0SA80,土坂,2025-11-20,22.453108,120.887572,0.07277623
C0R160,鹽埔,2025-11-20,22.739558,120.530778,0.81626767
C0AC40,大屯山,2025-11-20,25.175675,121.522408,0.0027294245
466850,五分山雷達站,2025-11-20,25.071182,121.781205,0.00064567017
C2H9L0,馬烈霸,2025-11-20,24.1512,121.201772,2.6914847e-08
C1AI50,國三N016K,2025-11-20,25.034164,121.619664,0.9828559
C1V600,藤枝,2025-11-20,23.071961,120.757042,3.858107e-06
C1E601,南勢,2025-11-20,24.572486,120.734842,0.9992916
C0O980,新市,2025-11-20,23.061614,120.298197,0.9998533
C0K420,西螺,2025-11-20,23.800407,120.467394,0.9987552
C0Z050,佳心,2025-11-20,23.34567,121.21316,0.98768693
C0AD30,蘆洲,2025-11-20,25.086594,121.472331,0.98696893
C0V610,梓官,2025-11-20,22.760558,120.267211,0.99897003
K2F750,種苗改良場,2025-11-20,24.225972,120.800917,0.9998811
C0UA80,大溪漁港,2025-11-20,24.941801,121.902955,0.049635574
C1AI60,國一39K邊坡,2025-11-20,25.064361,121.383836,0.06857517
C0W150,金寧,2025-11-20,24.457703,118.328989,0.9993374
C0R960,內埔,2025-11-20,22.608483,120.570714,0.0062381187
V2C250,八德合作社,2025-11-20,24.93775,121.266389,0.99502444
C2H9S0,龍南,2025-11-20,23.953536,120.833183,0.6948601
C0AH40,平等,2025-11-20,25.129142,121.577086,0.999965
C0R540,佳冬,2025-11-20,22.419456,120.552375,0.006343197
466950,彭佳嶼,2025-11-20,25.627975,122.079744,0.9997506
C0A890,雙溪,2025-11-20,25.036003,121.864242,0.9829728
C0C480,桃園,2025-11-20,24.992425,121.323172,0.9905027
C0AH50,林口,2025-11-20,25.072181,121.38084,0.47293273
A2K360,水試臺西試驗場,2025-11-20,23.717231,120.190522,0.999888
C2M960,外寮,2025-11-20,23.562643,120.665688,3.2226744e-08
C0F9S0,烏日,2025-11-20,24.107058,120.624103,0.99995357
C0C490,八德,2025-11-20,24.928708,121.283289,0.99527335
C0R190,赤山,2025-11-20,22.592333,120.614306,0.006497439
C0T820,天祥,2025-11-20,24.179597,121.495639,0.9866505
C1F9E1,龍安,2025-11-20,24.1605,120.831961,0.99987745
C0V820,小林,2025-11-20,23.148408,120.63325,0.0029892104
C2G870,芳苑,2025-11-20,23.922303,120.320025,0.9998862
C0E850,大河,2025-11-20,24.618069,120.948578,0.9994241
C1U670,寒溪,2025-11-20,24.634,121.71691,0.027881239
C0N020,城西,2025-11-20,23.0568,120.0956,0.9999318
C1Z110,三棧,2025-11-20,24.11557,121.60501,0.9914127
C0R280,檳榔,2025-11-20,22.076078,120.836777,0.86805755
C2H9J0,中台,2025-11-20,23.9996,120.938739,2.7477024e-06
C0F9L0,后里,2025-11-20,24.310436,120.729725,0.9993936
467441,高雄,2025-11-20,22.730432,120.312516,0.9991295
C0Z180,新城,2025-11-20,24.040486,121.604878,0.8405071
C0D540,橫山,2025-11-20,24.71116,121.11693,0.9857558
C1D420,太閣南,2025-11-20,24.632808,121.160575,7.014233e-07
C1E770,公館,2025-11-20,24.526914,120.830806,0.9994357
CAN130,水試所海水繁養殖中心,2025-11-20,23.120802,120.07968,0.9999316
C1I430,翠華,2025-11-20,24.191961,121.224339,2.4641281e-08
C1M400,菜瓜坪,2025-11-20,23.251928,120.576103,0.0047110436
C0G730,二林,2025-11-20,23.903325,120.376081,0.9999523
72M360,南改義竹分場,2025-11-20,23.360694,120.279361,0.9999328
V2K620,麥寮合作社,2025-11-20,23.753836,120.294783,0.9998859
C0Z070,舞鶴,2025-11-20,23.46811,121.37407,0.9918519
C0B040,大武崙,2025-11-20,25.166676,121.706993,0.9846023
C1Z030,紅葉,2025-11-20,23.493119,121.338806,0.9865298
C1I050,丹大,2025-11-20,23.753747,121.141147,2.6028912e-08
C0I080,信義,2025-11-20,23.689694,120.851036,4.3275e-06
C0D750,樂山林道6k,2025-11-20,24.49999,121.08773,2.4415549e-08
C2M920,朴子農改,2025-11-20,23.469889,120.259383,0.99995804
C2A880,福隆,2025-11-20,25.017842,121.942083,0.049635574
C0Z160,鳳林,2025-11-20,23.746114,121.453411,0.95457965
C0UB80,翠峰林道6K,2025-11-20,24.49773,121.568625,2.7476283e-08
C0V210,復興,2025-11-20,23.222403,120.806089,9.569991e-08
C0H990,昆陽,2025-11-20,24.121322,121.273642,3.5363048e-08
C0R741,獅子,2025-11-20,22.202308,120.705236,0.0070097274
C0S710,鹿野,2025-11-20,22.917711,121.122994,0.90408367
C0I530,小奇萊,2025-11-20,24.131764,121.295717,3.6718134e-08
C0FA70,大雪山埡口,2025-11-20,24.26867,121.03062,2.6524926e-08
C2K630,荷苞,2025-11-20,23.657717,120.595144,0.74694324
C0Z080,富源,2025-11-20,23.587642,121.378225,0.9959685
C0SB10,美和,2025-11-20,22.682078,121.060236,0.5799077
C2K620,馬光農場,2025-11-20,23.721453,120.378864,0.99908155
C1I140,卡奈托灣,2025-11-20,23.754364,121.087872,3.8404384e-08
C0I520,玉山風口,2025-11-20,23.470489,120.955994,6.30969e-08
C1G691,下水埔,2025-11-20,23.816114,120.5676,0.99802744
C0X110,臺南市南區,2025-11-20,22.961189,120.188378,0.9998519
C0V680,仁武,2025-11-20,22.701083,120.347722,0.999173
C2G840,北斗,2025-11-20,23.877586,120.514222,0.9999538
C0R900,竹坑,2025-11-20,22.1385,120.7022,0.006381433
C0K250,崙背,2025-11-20,23.75555,120.318925,0.9998795
C0G860,社頭,2025-11-20,23.897647,120.5862,0.99995404
C0X150,安定,2025-11-20,23.102614,120.227839,0.9998527
C0R590,里港,2025-11-20,22.77919,120.49459,0.8158609
C0E610,馬都安,2025-11-20,24.451272,120.930192,0.967432
C0E550,明德,2025-11-20,24.583486,120.885411,0.99948204
C0R150,三地門,2025-11-20,22.709889,120.639944,0.9760863
C0G910,花壇,2025-11-20,24.032076,120.549461,0.9999531
C1D400,鳥嘴山,2025-11-20,24.71909,121.28387,0.9258873
C0K500,元長,2025-11-20,23.64981,120.315024,0.9998794
C0F0B0,石岡,2025-11-20,24.276061,120.777644,0.9996755
C2V250,甲仙,2025-11-20,23.080106,120.591758,0.97229624
C0SA20,金崙山,2025-11-20,22.567419,120.959667,0.95861906
C0V350,溪埔,2025-11-20,22.738578,120.446797,0.68563926
C0M660,溪口,2025-11-20,23.604131,120.403569,0.9999561
C1S880,壽卡,2025-11-20,22.238911,120.858903,0.11834323
72D680,桃改新埔分場,2025-11-20,24.834444,121.066111,0.9751847
