站號,站名,日期,lat,lon,BlastGRU-TW
12J990,口湖工作站,2025-01-09,23.589978,120.180394,0.0005906361
12Q970,東港工作站,2025-01-09,22.479997,120.466058,0.07388411
12Q980,恆春工作站,2025-01-09,22.079678,120.714425,0.00024012353
466881,新北,2025-01-09,24.9593,121.52,0.0037281234
466900,淡水,2025-01-09,25.164889,121.448906,0.0010055398
466920,臺北,2025-01-09,25.037658,121.514853,0.0029250404
466940,基隆,2025-01-09,25.133314,121.740475,0.0039094947
466990,花蓮,2025-01-09,23.975128,121.613275,0.0021066726
467050,新屋,2025-01-09,25.006744,121.047486,0.00053346227
467080,宜蘭,2025-01-09,24.763975,121.756528,0.0036515067
467270,田中,2025-01-09,23.873803,120.581286,0.0044277725
467280,後龍,2025-01-09,24.648563,120.831834,0.00065610895
467290,古坑,2025-01-09,23.633639,120.551889,0.016555894
467300,東吉島,2025-01-09,23.25695,119.667467,0.00033867662
467350,澎湖,2025-01-09,23.565503,119.563094,0.00031329758
467410,臺南,2025-01-09,22.993239,120.204772,0.0022716066
467420,永康,2025-01-09,23.038386,120.2367,0.003025159
467441,高雄,2025-01-09,22.7304,120.3125,0.009325638
467480,嘉義,2025-01-09,23.495925,120.432906,0.0041237907
467490,臺中,2025-01-09,24.145736,120.684075,0.008226569
467540,大武,2025-01-09,22.355675,120.903789,0.0026796395
467571,新竹,2025-01-09,24.827853,121.014219,0.00053809996
467590,恆春,2025-01-09,22.003897,120.746339,0.0008114854
467610,成功,2025-01-09,23.097486,121.373428,0.006697142
467620,蘭嶼,2025-01-09,22.036969,121.558339,0.0002908477
467660,臺東,2025-01-09,22.752211,121.154586,0.0043561757
467790,墾丁雷達站,2025-01-09,21.948235,120.808028,0.00073962304
72AI40,桃改樹林分場,2025-01-09,24.944503,121.386972,0.0011547767
72C440,桃園農改,2025-01-09,24.950944,121.030583,0.00042787366
72C440,桃園農改場,2025-01-09,24.950944,121.030583,0.00042787366
72D680,桃改新埔分場,2025-01-09,24.834444,121.066111,0.00049954763
72G600,臺中農改,2025-01-09,24.003028,120.534389,0.004543417
72G600,臺中農改場,2025-01-09,24.003028,120.534389,0.004543417
72K220,南改斗南分場,2025-01-09,23.634556,120.477333,0.003723148
72M360,南改義竹分場,2025-01-09,23.360694,120.279361,0.002950264
72M700,南改鹿草分場,2025-01-09,23.416869,120.283061,0.0032227924
72N100,臺南農改,2025-01-09,23.0605,120.342194,0.0047058035
72N100,臺南農改場,2025-01-09,23.0605,120.342194,0.0047058035
72N240,七股研究中心,2025-01-09,23.081672,120.062894,0.0014455443
72Q010,高雄農改,2025-01-09,22.709333,120.525889,0.05022822
72Q010,高雄農改場,2025-01-09,22.709333,120.525889,0.05022822
72S200,東改班鳩分場,2025-01-09,22.829528,121.077694,0.003364514
72S590,東改賓朗果園,2025-01-09,22.813889,121.071278,0.003070799
72T250,花蓮農改,2025-01-09,23.975222,121.563889,0.001980485
72T250,花蓮農改場,2025-01-09,23.975222,121.563889,0.001980485
72U480,花改蘭陽分場,2025-01-09,24.686306,121.716583,0.007533503
72V140,高改旗南分場,2025-01-09,22.857861,120.516667,0.045276206
82A750,茶改北部分場,2025-01-09,24.955778,121.631222,0.0025401928
82C160,茶改場,2025-01-09,24.908472,121.185333,0.00048949494
82H840,茶改南部分場,2025-01-09,23.762528,120.7405,0.0069429968
82S580,茶改東部分場,2025-01-09,22.907694,121.130139,0.0038547833
A2C560,農工中心,2025-01-09,24.985917,121.239833,0.000574904
A2K360,水試臺西試驗場,2025-01-09,23.717231,120.190522,0.0005151255
A2K570,古坑花卉中心,2025-01-09,23.63353,120.55239,0.016555894
A2K630,臺大雲林校區,2025-01-09,23.730628,120.423903,0.0032831402
A2N290,臺南蘭花園區,2025-01-09,23.340258,120.379661,0.0042914385
B2E890,畜試北區分所,2025-01-09,24.527806,120.770972,0.00087453553
B2N890,畜產試驗所,2025-01-09,23.058972,120.336406,0.0047058035
B2N890,畜試所,2025-01-09,23.058972,120.336406,0.0047058035
B2Q810,畜試南區分所,2025-01-09,21.945583,120.802167,0.0009331097
B2U990,畜試東區分所,2025-01-09,24.669039,121.832561,0.036236547
C0A520,山佳,2025-01-09,24.974944,121.402008,0.002716127
C0A530,坪林,2025-01-09,24.938183,121.70975,0.0016065357
C0A550,泰平,2025-01-09,24.971197,121.823711,0.002466421
C0A570,桶後,2025-01-09,24.848222,121.597992,0.002754337
C0A640,石碇,2025-01-09,24.993969,121.662917,0.0034946434
C0A770,科教館,2025-01-09,25.096356,121.516507,0.0030248268
C0A860,大坪,2025-01-09,25.165914,121.632969,0.0012391821
C0A890,雙溪,2025-01-09,25.036003,121.864242,0.0042989305
C0A931,三和,2025-01-09,25.233153,121.595236,0.0021052703
C0A940,金山,2025-01-09,25.223628,121.643967,0.006197135
C0A950,鼻頭角,2025-01-09,25.129036,121.923372,0.0010837405
C0A970,三貂角,2025-01-09,25.007606,122.002058,0.009153654
C0A980,社子,2025-01-09,25.109508,121.469681,0.0010744741
C0A9C0,天母,2025-01-09,25.117494,121.537169,0.0018713813
C0A9F0,內湖,2025-01-09,25.079422,121.57545,0.0029250404
C0AC60,三峽,2025-01-09,24.939025,121.369728,0.0011012554
C0AC70,信義,2025-01-09,25.037822,121.564597,0.0029250404
C0AC80,文山,2025-01-09,25.00235,121.575728,0.0034288676
C0ACA0,新莊,2025-01-09,25.051478,121.446756,0.002085461
C0AD10,八里,2025-01-09,25.150211,121.403947,0.0010398543
C0AD30,蘆洲,2025-01-09,25.086594,121.472331,0.0030248284
C0AD40,土城,2025-01-09,24.973208,121.445169,0.0038396572
C0AD50,鶯歌,2025-01-09,24.951533,121.346294,0.0010263388
C0AG80,中和,2025-01-09,24.991622,121.491792,0.0038396572
C0AH00,汐止,2025-01-09,25.066881,121.658778,0.0029250404
C0AH10,永和,2025-01-09,25.01125,121.508111,0.003928178
C0AH40,平等,2025-01-09,25.129142,121.577086,0.0010687573
C0AH50,林口,2025-01-09,25.072181,121.38084,0.00078073796
C0AH70,松山,2025-01-09,25.04871,121.55042,0.0029250362
C0AH80,深坑,2025-01-09,25.002703,121.628328,0.0034623013
C0AI00,五股,2025-01-09,25.07445,121.42728,0.0009176058
C0AI10,屈尺,2025-01-09,24.92184,121.54475,0.009253969
C0AI20,白沙灣,2025-01-09,25.283128,121.519058,0.0014300144
C0AI30,三重,2025-01-09,25.057328,121.500629,0.0030248268
C0AI40,石牌,2025-01-09,25.115597,121.513139,0.0019167839
C0AJ20,野柳,2025-01-09,25.20703,121.690021,0.006926964
C0AJ30,淡水觀海,2025-01-09,25.184591,121.408616,0.0022774488
C0AJ40,石門,2025-01-09,25.273672,121.601198,0.000954589
C0AJ50,水湳洞,2025-01-09,25.123695,121.862238,0.0035503309
C0AJ60,六塊厝,2025-01-09,25.24,121.4481,0.0015186722
C0AJ70,田寮,2025-01-09,25.2698,121.4886,0.0014770166
C0AJ80,板橋,2025-01-09,25.0107,121.4489,0.003928178
C0AJ90,澳底,2025-01-09,25.0552,121.9253,0.005580132
C0B010,七堵,2025-01-09,25.094819,121.71713,0.0045790016
C0B020,基隆嶼,2025-01-09,25.19141,121.78391,0.00067733426
C0B040,大武崙,2025-01-09,25.166676,121.706993,0.0032379264
C0B050,八斗子,2025-01-09,25.144754,121.79167,0.0041110925
C0B060,暖暖,2025-01-09,25.0957,121.7403,0.003534675
C0C460,復興,2025-01-09,24.820208,121.352281,0.0010724063
C0C480,桃園,2025-01-09,24.992425,121.323172,0.00092886266
C0C490,八德,2025-01-09,24.928708,121.283289,0.00081829535
C0C590,觀音,2025-01-09,25.027072,121.153317,0.00064376317
C0C620,蘆竹,2025-01-09,25.084275,121.265767,0.0006546823
C0C630,大溪,2025-01-09,24.882853,121.265547,0.0008126581
C0C650,平鎮,2025-01-09,24.897503,121.214636,0.00072704756
C0C660,楊梅,2025-01-09,24.912375,121.143047,0.00052686466
C0C670,龍潭,2025-01-09,24.870056,121.221389,0.0007363963
C0C680,龜山,2025-01-09,25.02846,121.38656,0.00081616204
C0C700,中壢,2025-01-09,24.977661,121.256375,0.0008696131
C0C710,大溪永福,2025-01-09,24.892936,121.324975,0.0026816106
C0C720,竹圍,2025-01-09,25.112692,121.239824,0.0010398543
C0C730,中大臨海站,2025-01-09,24.966126,121.008581,0.00056202384
C0C740,觀音工業區,2025-01-09,25.064764,121.114856,0.0010113877
C0C750,新興坑尾,2025-01-09,25.0061,121.0971,0.00048148562
C0D430,峨眉,2025-01-09,24.6905,121.017189,0.00015311703
C0D480,打鐵坑,2025-01-09,24.849664,121.150789,0.00072929513
C0D540,橫山,2025-01-09,24.71116,121.11693,0.001279358
C0D560,竹東,2025-01-09,24.767147,121.057881,0.0013515874
C0D580,寶山,2025-01-09,24.735006,121.025192,0.0016502591
C0D590,新豐,2025-01-09,24.87068,120.97721,0.0002815902
C0D650,湖口,2025-01-09,24.904794,121.043628,0.000410256
C0D660,新竹市東區,2025-01-09,24.798681,120.986942,0.00063810806
C0D670,海天一線,2025-01-09,24.831986,120.914438,0.00030340295
C0D680,香山濕地,2025-01-09,24.783581,120.914988,0.0006853951
C0D690,外湖,2025-01-09,24.917735,120.968711,0.00044869163
C0D700,關西,2025-01-09,24.7977,121.1732,0.0012845662
C0E420,竹南,2025-01-09,24.708978,120.888897,0.0005011143
C0E430,南庄,2025-01-09,24.601775,121.000214,0.0019900696
C0E550,明德,2025-01-09,24.583486,120.885411,0.0007203127
C0E590,通霄,2025-01-09,24.471892,120.704622,0.0003390974
C0E730,頭份,2025-01-09,24.688247,120.912206,0.00050533377
C0E740,造橋,2025-01-09,24.637056,120.864778,0.0006686788
C0E750,苗栗,2025-01-09,24.564569,120.824575,0.00074281817
C0E780,銅鑼,2025-01-09,24.489681,120.790853,0.0007373604
C0E791,卓蘭,2025-01-09,24.3126,120.8244,0.0024299752
C0E810,西湖,2025-01-09,24.562947,120.7485,0.00037425364
C0E820,獅潭,2025-01-09,24.539133,120.920042,0.0020539616
C0E830,苑裡,2025-01-09,24.439714,120.653053,0.00046945017
C0E850,大河,2025-01-09,24.618069,120.948578,0.0016938911
C0E870,高鐵苗栗,2025-01-09,24.60725,120.826094,0.0006686788
C0E910,海埔,2025-01-09,24.648767,120.772435,0.0006870378
C0E920,通霄漁港,2025-01-09,24.498589,120.673876,0.00034770078
C0E930,龍鳳,2025-01-09,24.700034,120.859125,0.0005190451
C0F0B0,石岡,2025-01-09,24.276061,120.777644,0.002846198
C0F850,東勢,2025-01-09,24.246428,120.833047,0.001804133
C0F970,大坑,2025-01-09,24.173142,120.722289,0.006115749
C0F9I0,神岡,2025-01-09,24.272481,120.658314,0.0013223315
C0F9K0,大安,2025-01-09,24.345061,120.588025,0.0005505337
C0F9L0,后里,2025-01-09,24.310436,120.729725,0.0036334447
C0F9M0,豐原,2025-01-09,24.254322,120.720692,0.0040795016
C0F9N0,大里,2025-01-09,24.092464,120.701378,0.013667316
C0F9O0,潭子,2025-01-09,24.213106,120.703933,0.0041485713
C0F9P0,清水,2025-01-09,24.312297,120.562242,0.0006837057
C0F9Q0,外埔,2025-01-09,24.347817,120.705686,0.0011280914
C0F9R0,龍井,2025-01-09,24.184536,120.528972,0.000874591
C0F9S0,烏日,2025-01-09,24.107058,120.624103,0.017559057
C0F9T0,西屯,2025-01-09,24.179494,120.641275,0.0029402664
C0F9U0,南屯,2025-01-09,24.137006,120.637969,0.0032890956
C0F9X0,大雅(中科園區),2025-01-09,24.21528,120.62445,0.001760302
C0FA10,松柏,2025-01-09,24.429115,120.617482,0.00047676102
C0FA20,溫寮,2025-01-09,24.372177,120.583125,0.0005604712
C0FA30,梧棲,2025-01-09,24.256003,120.523381,0.0006837057
C0FA40,臺中電廠,2025-01-09,24.2146,120.4907,0.000874591
C0FA50,霧峰,2025-01-09,24.0419,120.6995,0.0072025154
C0G620,芬園,2025-01-09,24.015678,120.6213,0.006063381
C0G650,員林,2025-01-09,23.946503,120.585597,0.006261426
C0G660,溪湖,2025-01-09,23.94835,120.479122,0.0031676723
C0G720,溪州,2025-01-09,23.851589,120.499093,0.0031900606
C0G730,二林,2025-01-09,23.903325,120.376081,0.0008978649
C0G740,大城,2025-01-09,23.852487,120.320935,0.00033528553
C0G770,福興,2025-01-09,24.041289,120.437669,0.0010141941
C0G780,秀水,2025-01-09,24.03405,120.503869,0.004543417
C0G800,埔鹽,2025-01-09,24.000394,120.431683,0.0010141941
C0G810,埔心,2025-01-09,23.947633,120.525456,0.0030390876
C0G820,田尾,2025-01-09,23.901669,120.509389,0.0030390876
C0G830,埤頭,2025-01-09,23.866003,120.452806,0.0033122855
C0G860,社頭,2025-01-09,23.897647,120.5862,0.004641009
C0G880,二水,2025-01-09,23.810742,120.6173,0.012987412
C0G890,伸港,2025-01-09,24.148933,120.484403,0.0010947911
C0G900,線西,2025-01-09,24.143358,120.443536,0.0010947911
C0G910,花壇,2025-01-09,24.032076,120.549461,0.004171603
C0G920,永靖,2025-01-09,23.924703,120.547533,0.0030390876
C0G940,竹塘,2025-01-09,23.848253,120.386764,0.0010173882
C0G950,防潮門,2025-01-09,24.1835,120.4871,0.000874591
C0G960,福寶,2025-01-09,24.0443,120.3814,0.0012422819
C0G970,三豐,2025-01-09,23.882,120.2895,0.00033676383
C0H890,埔里,2025-01-09,23.972169,120.952425,0.006177031
C0H960,草屯,2025-01-09,23.973672,120.68085,0.006217641
C0I110,竹山,2025-01-09,23.761225,120.688156,0.007864937
C0I360,水里,2025-01-09,23.812553,120.849792,0.016338855
C0I380,集集,2025-01-09,23.828206,120.801467,0.017242853
C0I410,名間,2025-01-09,23.837053,120.701447,0.006024044
C0I420,國姓,2025-01-09,24.037803,120.855072,0.004065863
C0I460,南投,2025-01-09,23.911469,120.687331,0.013658749
C0K250,崙背,2025-01-09,23.75555,120.318925,0.0017461394
C0K280,四湖,2025-01-09,23.630414,120.227125,0.0004456101
C0K291,宜梧,2025-01-09,23.536281,120.169329,0.0016210198
C0K330,虎尾,2025-01-09,23.719183,120.442036,0.0031683985
C0K390,土庫,2025-01-09,23.679029,120.395574,0.0029136036
C0K400,斗六,2025-01-09,23.720583,120.541127,0.0049602794
C0K410,北港,2025-01-09,23.573957,120.292802,0.001782026
C0K420,西螺,2025-01-09,23.800407,120.467394,0.0034921216
C0K430,褒忠,2025-01-09,23.690938,120.303634,0.0017461394
C0K440,二崙,2025-01-09,23.772797,120.408944,0.0036230006
C0K450,大埤,2025-01-09,23.646074,120.431537,0.0038998453
C0K460,斗南,2025-01-09,23.678734,120.478359,0.0037231534
C0K470,林內,2025-01-09,23.748675,120.609642,0.0143180005
C0K480,莿桐,2025-01-09,23.761192,120.502372,0.0048883646
C0K500,元長,2025-01-09,23.64981,120.315024,0.0019143723
C0K510,水林,2025-01-09,23.572924,120.24597,0.0018295281
C0K530,臺西,2025-01-09,23.701547,120.197559,0.0005106893
C0K550,蔦松,2025-01-09,23.514319,120.229736,0.0016210198
C0K560,棋山,2025-01-09,23.68645,120.603417,0.014639135
C0K580,高鐵雲林,2025-01-09,23.737456,120.417944,0.0032831402
C0K590,雲林東勢,2025-01-09,23.674192,120.255721,0.0018644497
C0K600,箔子寮,2025-01-09,23.6197,120.14,0.0005906361
C0M520,東後寮,2025-01-09,23.369908,120.248065,0.002950264
C0M640,中埔,2025-01-09,23.42538,120.5229,0.008689604
C0M650,朴子,2025-01-09,23.43463,120.23902,0.0032227924
C0M660,溪口,2025-01-09,23.604131,120.403569,0.0034922261
C0M670,大林,2025-01-09,23.600616,120.45841,0.0032342752
C0M680,太保,2025-01-09,23.455062,120.331455,0.00510249
C0M690,水上,2025-01-09,23.419734,120.388909,0.004883195
C0M700,竹崎,2025-01-09,23.526178,120.555508,0.008309753
C0M710,東石,2025-01-09,23.458927,120.15385,0.0015423689
C0M720,番路,2025-01-09,23.464657,120.554156,0.0056694266
C0M730,嘉義市東區,2025-01-09,23.457673,120.460531,0.018279867
C0M740,六腳,2025-01-09,23.492871,120.290625,0.0031345335
C0M750,布袋,2025-01-09,23.380878,120.167789,0.0030538235
C0M760,民雄,2025-01-09,23.551754,120.428457,0.0033641527
C0M770,嘉義梅山,2025-01-09,23.585398,120.555587,0.006189197
C0M780,鹿草,2025-01-09,23.41134,120.30835,0.0031084826
C0M790,新港,2025-01-09,23.553269,120.345728,0.002734478
C0M800,茶山,2025-01-09,23.299075,120.664767,0.021119382
C0M880,好美里,2025-01-09,23.3364,120.138,0.0026623823
C0N010,鯤鯓國小,2025-01-09,23.1879,120.0889,0.0020401175
C0N020,城西,2025-01-09,23.0568,120.0956,0.0024007293
C0N030,四草,2025-01-09,23.0235,120.1116,0.0024682225
C0N040,蘆竹溝,2025-01-09,23.2344,120.0961,0.0025178182
C0N050,蚵寮,2025-01-09,23.301,120.1104,0.0026623823
C0O830,北寮,2025-01-09,23.079561,120.495008,0.02969091
C0O840,王爺宮,2025-01-09,23.222064,120.40085,0.0026375277
C0O860,大內,2025-01-09,23.11885,120.36083,0.004906365
C0O900,善化,2025-01-09,23.112883,120.297219,0.0053442824
C0O960,崎頂,2025-01-09,22.959547,120.369317,0.00439956
C0O970,虎頭埤,2025-01-09,23.021375,120.347878,0.0071835206
C0O980,新市,2025-01-09,23.061614,120.298197,0.0053442824
C0O990,媽廟,2025-01-09,22.99175,120.293525,0.0028067399
C0R150,三地門,2025-01-09,22.709889,120.639944,0.21648642
C0R160,鹽埔,2025-01-09,22.739558,120.530778,0.05022822
C0R170,屏東,2025-01-09,22.660269,120.494072,0.0345448
C0R190,赤山,2025-01-09,22.592333,120.614306,0.16031182
C0R220,潮州,2025-01-09,22.534361,120.54,0.15164495
C0R240,來義,2025-01-09,22.527306,120.625111,0.087503
C0R260,春日,2025-01-09,22.370361,120.628306,0.09205763
C0R270,琉球嶼,2025-01-09,22.332244,120.362236,0.017635101
C0R280,檳榔,2025-01-09,22.076078,120.836777,0.0005691721
C0R320,車城,2025-01-09,22.0744,120.716247,0.00024012353
C0R341,牡丹,2025-01-09,22.130036,120.792639,0.000582049
C0R350,貓鼻頭,2025-01-09,21.921774,120.7358,0.0005577113
C0R470,高樹,2025-01-09,22.826389,120.600806,0.02930808
C0R480,長治,2025-01-09,22.693128,120.542622,0.028286183
C0R490,九如,2025-01-09,22.7405,120.490503,0.053489465
C0R520,崁頂,2025-01-09,22.514781,120.506914,0.16150455
C0R540,佳冬,2025-01-09,22.419456,120.552375,0.071893625
C0R550,新埤,2025-01-09,22.467947,120.582894,0.061625216
C0R560,新園,2025-01-09,22.5434,120.461558,0.06029675
C0R570,麟洛,2025-01-09,22.65078,120.52719,0.0345448
C0R580,南州,2025-01-09,22.48591,120.50274,0.07388417
C0R590,里港,2025-01-09,22.77919,120.49459,0.034909703
C0R620,墾雷,2025-01-09,21.900836,120.855269,0.0005190896
C0R640,東港,2025-01-09,22.46247,120.44074,0.07388417
C0R650,竹田,2025-01-09,22.58486,120.54344,0.17989641
C0R660,枋寮,2025-01-09,22.367722,120.590647,0.071893625
C0R670,楓港,2025-01-09,22.190131,120.692156,0.00073834026
C0R680,佳樂水,2025-01-09,21.993578,120.861633,0.0008860514
C0R690,墾丁,2025-01-09,21.966756,120.810269,0.00048351966
C0R700,枋山,2025-01-09,22.246844,120.661086,0.0063635074
C0R710,龍磐,2025-01-09,21.931672,120.838942,0.00085409125
C0R720,旭海,2025-01-09,22.205403,120.887614,0.0004885382
C0R730,大坪頂,2025-01-09,22.024633,120.69355,0.0019393455
C0R741,獅子,2025-01-09,22.202308,120.705236,0.0009137936
C0R760,南仁湖,2025-01-09,22.084681,120.863353,0.00045958205
C0R770,保力,2025-01-09,22.071122,120.764111,0.001527979
C0R780,滿州,2025-01-09,22.024403,120.839892,0.000766719
C0R790,九棚,2025-01-09,22.14195,120.889281,0.0007894138
C0R800,丹路,2025-01-09,22.204481,120.750989,0.0006483532
C0R810,內獅,2025-01-09,22.305064,120.642986,0.0040477333
C0R830,高士,2025-01-09,22.121825,120.836781,0.0004173792
C0R850,林邊,2025-01-09,22.4634,120.5339,0.06952123
C0R860,鼻頭,2025-01-09,22.1043,120.8979,0.0038891418
C0R870,興海,2025-01-09,21.9752,120.8439,0.0009331097
C0R880,後壁湖,2025-01-09,21.9457,120.7457,0.00041926463
C0R890,山海,2025-01-09,21.9878,120.7091,0.00042993348
C0R900,竹坑,2025-01-09,22.1385,120.7022,0.0002401501
C0R910,下寮,2025-01-09,22.3929,120.5548,0.071893625
C0R920,塭仔,2025-01-09,22.4169,120.5197,0.06833334
C0R930,萬丹,2025-01-09,22.5885,120.4851,0.060577758
C0R940,加祿堂,2025-01-09,22.3363,120.6217,0.003877201
C0S710,鹿野,2025-01-09,22.917711,121.122994,0.0022618328
C0S730,綠島,2025-01-09,22.6672,121.47533,0.00037098897
C0S740,池上,2025-01-09,23.119628,121.209469,0.0034508924
C0S770,大溪山,2025-01-09,22.478475,120.943325,0.00093689363
C0S790,金崙,2025-01-09,22.538122,120.966875,0.0058198962
C0S810,東河,2025-01-09,22.972672,121.303986,0.0038110455
C0S830,長濱,2025-01-09,23.286817,121.411975,0.0040176385
C0S840,南田,2025-01-09,22.279725,120.889208,0.0006350747
C0S890,關山,2025-01-09,23.0395,121.175017,0.002495409
C0S900,蘭嶼高中,2025-01-09,22.04909,121.51214,0.00064867886
C0S910,蘭嶼燈塔,2025-01-09,22.081197,121.503117,0.0004343553
C0S920,金峰嘉蘭,2025-01-09,22.594789,120.960825,0.015507615
C0S930,延平,2025-01-09,22.902581,121.084058,0.0034697324
C0S940,石寧山,2025-01-09,23.223772,121.406639,0.0069511184
C0S950,七塊厝,2025-01-09,22.954453,121.229922,0.002112947
C0S960,香蘭,2025-01-09,22.587569,120.993375,0.022849206
C0S970,加津林,2025-01-09,22.416211,120.926942,0.0021942612
C0S990,山豬窟,2025-01-09,22.318619,120.857372,0.00046874702
C0SA00,歷坵,2025-01-09,22.520969,120.89185,0.0018052825
C0SA10,檳榔四格山,2025-01-09,22.810031,121.109308,0.002647097
C0SA30,都歷,2025-01-09,23.020333,121.323642,0.0033819247
C0SA40,瑞和,2025-01-09,22.974361,121.156697,0.0033813978
C0SA60,知本（水試所）,2025-01-09,22.702394,121.082761,0.03175278
C0SA80,土坂,2025-01-09,22.453108,120.887572,0.0028355941
C0SA90,達仁林場,2025-01-09,22.264347,120.823972,0.0003610241
C0T870,鯉魚潭,2025-01-09,23.935639,121.508944,0.002186211
C0T900,西林,2025-01-09,23.8119,121.441458,0.0030108632
C0T960,光復,2025-01-09,23.660694,121.424964,0.0029248165
C0T9A0,月眉山,2025-01-09,23.809928,121.539828,0.0015055528
C0T9D0,和中,2025-01-09,24.26676,121.74103,0.025197785
C0T9E0,大坑,2025-01-09,23.880628,121.581981,0.0016419527
C0T9F0,水璉,2025-01-09,23.797131,121.542514,0.002448859
C0T9I0,豐濱,2025-01-09,23.583897,121.514806,0.0033867273
C0T9M0,靜浦,2025-01-09,23.455167,121.495028,0.0047834422
C0T9N0,富里,2025-01-09,23.171639,121.249378,0.0038007984
C0U600,礁溪,2025-01-09,24.817539,121.765608,0.005036094
C0U650,玉蘭,2025-01-09,24.675286,121.587061,0.0016892457
C0U750,龜山島,2025-01-09,24.841667,121.953133,0.0008109018
C0U760,東澳,2025-01-09,24.52196,121.83318,0.015525038
C0U770,南澳,2025-01-09,24.44935,121.81022,0.005303726
C0U780,五結,2025-01-09,24.68637,121.79794,0.00887998
C0U860,頭城,2025-01-09,24.85323,121.8308,0.0052545876
C0U870,大礁溪,2025-01-09,24.791042,121.675047,0.0015909601
C0U880,北關,2025-01-09,24.9072,121.8734,0.008253441
C0U890,三星,2025-01-09,24.66812,121.65302,0.01133753
C0U900,內城,2025-01-09,24.71813,121.68766,0.0067892754
C0U910,冬山,2025-01-09,24.63373,121.7937,0.036236547
C0U940,羅東,2025-01-09,24.68184,121.74934,0.007973238
C0U970,大福,2025-01-09,24.80064,121.81389,0.0038012336
C0U990,員山,2025-01-09,24.74435,121.72247,0.008389664
C0UA00,土場,2025-01-09,24.576533,121.495333,0.0026766276
C0UA80,大溪漁港,2025-01-09,24.941801,121.902955,0.0077224104
C0UA90,石城,2025-01-09,24.980444,121.951214,0.015036626
C0UB00,淡江大學蘭陽校園,2025-01-09,24.823239,121.730383,0.0020955505
C0UB10,蘇澳,2025-01-09,24.5969,121.8571,0.034303386
C0UB20,壯圍,2025-01-09,24.7359,121.8163,0.00887998
C0V310,美濃,2025-01-09,22.898742,120.519153,0.045276206
C0V350,溪埔,2025-01-09,22.738578,120.446797,0.028797492
C0V360,內門,2025-01-09,22.975481,120.466769,0.014141521
C0V370,古亭坑,2025-01-09,22.893178,120.401947,0.011880904
C0V400,阿公店,2025-01-09,22.804194,120.355528,0.015038553
C0V440,鳳山,2025-01-09,22.646653,120.356122,0.0068535954
C0V450,鳳森,2025-01-09,22.545064,120.392592,0.041621994
C0V490,新興,2025-01-09,22.627422,120.298803,0.029938249
C0V530,阿蓮,2025-01-09,22.883208,120.327508,0.0054835714
C0V610,梓官,2025-01-09,22.760558,120.267211,0.009816915
C0V620,永安,2025-01-09,22.82315,120.236856,0.0035011403
C0V630,茄萣,2025-01-09,22.906642,120.182608,0.0018615191
C0V640,湖內,2025-01-09,22.887139,120.2445,0.001818479
C0V650,彌陀,2025-01-09,22.783806,120.246361,0.0035011403
C0V660,岡山,2025-01-09,22.797078,120.294958,0.0035011403
C0V680,仁武,2025-01-09,22.701083,120.347722,0.007694362
C0V690,鼓山,2025-01-09,22.623325,120.275575,0.029938249
C0V700,三民,2025-01-09,22.645017,120.311233,0.007694362
C0V710,苓雅,2025-01-09,22.622742,120.330669,0.029938249
C0V720,林園,2025-01-09,22.507747,120.394511,0.060296707
C0V730,大寮,2025-01-09,22.605614,120.395717,0.027746854
C0V740,旗山,2025-01-09,22.888614,120.483597,0.042171042
C0V750,路竹,2025-01-09,22.854997,120.259439,0.0017788698
C0V760,橋頭,2025-01-09,22.757806,120.30575,0.009816915
C0V770,大社,2025-01-09,22.730306,120.346639,0.009325635
C0V790,萬山,2025-01-09,22.905944,120.688056,0.0070243366
C0V800,六龜,2025-01-09,22.997889,120.633583,0.008349321
C0V810,左營,2025-01-09,22.67491,120.28491,0.0076943547
C0V820,小林,2025-01-09,23.148408,120.63325,0.005754343
C0V840,鳳鼻頭,2025-01-09,22.5083,120.3591,0.06399175
C0V850,蚵仔寮,2025-01-09,22.7256,120.2527,0.010400425
C0V860,南寮,2025-01-09,22.7616,120.2339,0.01054693
C0V870,文安,2025-01-09,22.8025,120.2164,0.003615249
C0V880,興達,2025-01-09,22.8778,120.2127,0.00186152
C0V890,前鎮,2025-01-09,22.5718,120.3117,0.03182055
C0V900,汕尾,2025-01-09,22.4782,120.4151,0.07388411
C0W200,湖西,2025-01-09,23.596314,119.67275,0.0003051013
C0X050,東河,2025-01-09,23.296598,120.385608,0.00649071
C0X060,下營,2025-01-09,23.22695,120.256261,0.003888159
C0X080,佳里,2025-01-09,23.173039,120.145086,0.0020401175
C0X100,臺南市北區,2025-01-09,23.010394,120.194228,0.0024007293
C0X110,臺南市南區,2025-01-09,22.961189,120.188378,0.0024708032
C0X120,麻豆,2025-01-09,23.183289,120.248611,0.0050305733
C0X130,官田,2025-01-09,23.193217,120.315422,0.005913303
C0X140,西港,2025-01-09,23.125608,120.203108,0.0037187166
C0X150,安定,2025-01-09,23.102614,120.227839,0.0037187166
C0X160,仁德,2025-01-09,22.968258,120.257689,0.0024708032
C0X170,關廟,2025-01-09,22.963017,120.327797,0.0063732266
C0X180,山上,2025-01-09,23.0757,120.363253,0.008291325
C0X190,安平,2025-01-09,22.993161,120.152181,0.0024007293
C0X200,左鎮,2025-01-09,23.056758,120.408522,0.007542418
C0X210,白河,2025-01-09,23.347466,120.414427,0.011686471
C0X220,學甲,2025-01-09,23.230367,120.182187,0.0024437262
C0X230,鹽水,2025-01-09,23.272621,120.247641,0.0025797298
C0X240,關子嶺,2025-01-09,23.331169,120.508025,0.0030432977
C0X250,新營,2025-01-09,23.310689,120.316681,0.003139202
C0X260,後壁,2025-01-09,23.366358,120.362326,0.0042914385
C0X280,將軍,2025-01-09,23.214999,120.13577,0.0025178231
C0X290,北門,2025-01-09,23.267772,120.125481,0.0025178231
C0X300,鹿寮,2025-01-09,23.386047,120.477331,0.009275955
C0X320,柳營,2025-01-09,23.253328,120.375253,0.004821206
C0Z020,明里,2025-01-09,23.208717,121.262342,0.0045137573
C0Z061,玉里,2025-01-09,23.3215,121.339656,0.0059775724
C0Z070,舞鶴,2025-01-09,23.46811,121.37407,0.0027419247
C0Z080,富源,2025-01-09,23.587642,121.378225,0.007091138
C0Z100,東華,2025-01-09,23.89525,121.549833,0.004180723
C0Z150,吉安光華,2025-01-09,23.930925,121.595153,0.0032062605
C0Z160,鳳林,2025-01-09,23.746114,121.453411,0.0073739123
C0Z170,卓溪,2025-01-09,23.3443,121.3029,0.0038430896
C0Z180,新城,2025-01-09,24.03946,121.60454,0.0020615836
C0Z190,富世,2025-01-09,24.14743,121.6297,0.00154836
C0Z200,萬榮,2025-01-09,23.709219,121.420106,0.0062425076
C0Z210,瑞穗,2025-01-09,23.5239,121.39021,0.0040041655
C0Z230,和平,2025-01-09,24.30717,121.77007,0.026495842
C0Z270,蕃薯寮,2025-01-09,23.73835,121.540108,0.0032929762
C0Z280,德武,2025-01-09,23.47426,121.41071,0.0031823206
C0Z300,東里,2025-01-09,23.26853,121.30547,0.0058177607
C0Z310,清水斷崖,2025-01-09,24.218294,121.689142,0.0027083124
C0Z330,安通山,2025-01-09,23.290728,121.348528,0.0019404829
C2A540,四堵,2025-01-09,24.8926,121.745736,0.0012603741
C2A560,福山,2025-01-09,24.776203,121.502811,0.0065169064
C2A650,火燒寮,2025-01-09,25.002719,121.742892,0.0030173499
C2A660,瑞芳,2025-01-09,25.113169,121.801147,0.0022997076
C2A880,福隆,2025-01-09,25.017842,121.942083,0.016034888
C2A920,富貴角,2025-01-09,25.263783,121.565258,0.0008524936
C2E520,大湖,2025-01-09,24.414939,120.870872,0.0024012348
C2E540,後龍,2025-01-09,24.606489,120.783933,0.00067613274
C2E540,龍溪,2025-01-09,24.606489,120.783933,0.00067613274
C2F000,大肚,2025-01-09,24.15295,120.572117,0.0028859496
C2F930,大甲,2025-01-09,24.347667,120.640403,0.0005101485
C2F9A0,中竹林,2025-01-09,24.103556,120.751061,0.0028102107
C2G640,鹿港,2025-01-09,24.0753,120.430481,0.0012422825
C2G840,北斗,2025-01-09,23.877586,120.514222,0.0031900606
C2G870,芳苑,2025-01-09,23.922303,120.320025,0.00029069194
C2H950,中寮,2025-01-09,23.884447,120.766406,0.005293324
C2M410,馬頭山,2025-01-09,23.324361,120.582017,0.00510472
C2N160,西拉雅風管處,2025-01-09,23.189481,120.335297,0.0056752795
C2O810,曾文,2025-01-09,23.219681,120.497328,0.010594319
C2O930,玉井,2025-01-09,23.126042,120.46055,0.008291325
C2O950,安南,2025-01-09,23.076694,120.144861,0.0014155431
C2V250,甲仙,2025-01-09,23.080106,120.591758,0.008825689
C2V260,月眉,2025-01-09,22.971003,120.539853,0.016978966
C2W230,畜試所澎湖,2025-01-09,23.628342,119.513206,0.00031114637
CAG100,王功漁港,2025-01-09,23.96824,120.32586,0.00029149788
CAH030,茶改場竹圍站,2025-01-09,23.860083,120.637528,0.008921732
CAJ050,海口故事園區,2025-01-09,23.57543,120.14121,0.0005906361
CAL110,布袋國中,2025-01-09,23.35893,120.18026,0.0030538235
CAN130,水試所海水繁養殖中心,2025-01-09,23.120802,120.07968,0.0014455436
CAN140,六官養殖協會,2025-01-09,23.22881,120.29962,0.003888159
CAQ030,崎峰國小,2025-01-09,22.42565,120.49521,0.07388417
E2K600,四湖植物園,2025-01-09,23.676986,120.163433,0.0004456101
E2P980,林試六龜中心,2025-01-09,22.991703,120.645722,0.0075935773
E2S960,林試太麻里2,2025-01-09,22.598014,120.989761,0.022849206
E2S960,林試太麻里2,2025-01-09,22.598,120.99775,0.024063574
E2S980,林試太麻里1,2025-01-09,22.598922,120.980044,0.016097028
G2AI50,關渡,2025-01-09,25.11575,121.492,0.0010398543
G2F820,農業試驗所,2025-01-09,24.031261,120.688133,0.0075913356
G2F820,農試所(霧峰),2025-01-09,24.031261,120.688133,0.0075913356
G2L020,農試嘉義分所,2025-01-09,23.485028,120.473806,0.012903584
G2M350,農試溪口農場,2025-01-09,23.58565,120.408111,0.0034922261
G2P820,農試鳳山分所,2025-01-09,22.646611,120.356083,0.0068535954
K2E360,苗栗農改,2025-01-09,24.495722,120.829111,0.00081801385
K2E360,苗栗農改場,2025-01-09,24.495722,120.829111,0.00081801385
K2E710,苗改生物防治研究中心,2025-01-09,24.422861,120.871833,0.00272241
K2F750,種苗改良場,2025-01-09,24.225972,120.800917,0.004141291
K2F750,種苗繁殖,2025-01-09,24.225972,120.800917,0.004141291
U2HA50,臺大竹山,2025-01-09,23.756972,120.681556,0.008644538
V2C250,八德合作社,2025-01-09,24.93775,121.266389,0.00082570553
V2C260,八德蔬果,2025-01-09,24.978508,121.281819,0.00091239635
V2K610,大庄合作社,2025-01-09,23.8068,120.367939,0.0014486491
V2K620,麥寮合作社,2025-01-09,23.753836,120.294783,0.0017461394
