站號,站名,日期,lat,lon,BLBTSLS
C0R710,龍磐,2025-04-12,21.931672,120.838942,0.40668604
C1F9D1,白毛台,2025-04-12,24.158325,120.886933,1.3192489e-09
C0G940,竹塘,2025-04-12,23.848253,120.386764,7.13402e-10
467590,恆春,2025-04-12,22.003897,120.746339,0.8128014
C1O850,環湖,2025-04-12,23.148617,120.418633,1.8821937e-09
C0U710,太平山,2025-04-12,24.505486,121.525656,2.4536273e-08
C0E820,獅潭,2025-04-12,24.539133,120.920042,6.373913e-10
C0V880,興達,2025-04-12,22.8778,120.2127,0.8270458
C0S890,關山,2025-04-12,23.0395,121.175017,7.599443e-10
C0SB30,新蘭,2025-04-12,22.869214,121.223228,8.710383e-09
C2R970,屏科大,2025-04-12,22.648275,120.619247,2.5285498e-09
C1Z130,銅門,2025-04-12,23.965694,121.492842,2.4460798e-09
C0AD40,土城,2025-04-12,24.973208,121.445169,8.469407e-09
CAN140,六官養殖協會,2025-04-12,23.22881,120.29962,1.9421038e-09
C0X180,山上,2025-04-12,23.0757,120.363253,1.8084634e-08
C0F9Z0,雪山東峰,2025-04-12,24.388792,121.268675,2.9278715e-08
C1M480,獨立山,2025-04-12,23.537022,120.607797,7.0926526e-10
C0X220,學甲,2025-04-12,23.230367,120.182187,2.1943094e-08
467650,日月潭,2025-04-12,23.881325,120.90805,5.42344e-09
C0K600,箔子寮,2025-04-12,23.6197,120.14,4.8829257e-08
C0G830,埤頭,2025-04-12,23.866003,120.452806,3.5534542e-10
C0S950,七塊厝,2025-04-12,22.954453,121.229922,7.0197476e-10
467110,金門,2025-04-12,24.407306,118.289281,3.6344157e-09
C0AH80,深坑,2025-04-12,25.002703,121.628328,7.605566e-09
C0A970,三貂角,2025-04-12,25.007606,122.002058,2.4200872e-09
C2D730,寶山農場,2025-04-12,24.732444,120.976153,7.5448925e-10
C0K430,褒忠,2025-04-12,23.690938,120.303634,5.490822e-10
467480,嘉義,2025-04-12,23.495925,120.432906,5.938829e-10
C0V400,阿公店,2025-04-12,22.804194,120.355528,2.9210506e-07
C0E960,觀霧分站,2025-04-12,24.505781,121.113921,1.6018769e-08
467550,玉山,2025-04-12,23.48718,120.95943,2.579829e-08
C0R440,大漢山,2025-04-12,22.405264,120.753181,1.0659733e-08
C0K280,四湖,2025-04-12,23.630414,120.227125,2.6916439e-08
C1F9B1,桐林,2025-04-12,24.066172,120.735194,4.379519e-10
C2H9U0,鳳鵬,2025-04-12,23.763919,120.788061,3.5019146e-10
C0K390,土庫,2025-04-12,23.679029,120.395574,4.681426e-10
C1I450,望鄉山,2025-04-12,23.594153,120.944286,1.5793479e-08
C0E910,海埔,2025-04-12,24.648767,120.772435,1.1405026e-09
B2E890,畜試北區分所,2025-04-12,24.527806,120.770972,5.392431e-10
C0R750,四林格山,2025-04-12,22.076989,120.802439,0.03268066
C0F0C0,中坑,2025-04-12,24.248517,120.903319,2.8730038e-09
C1I121,大鞍,2025-04-12,23.678381,120.760017,1.2864814e-08
72U480,花改蘭陽分場,2025-04-12,24.686306,121.716583,5.737061e-10
C0A770,科教館,2025-04-12,25.096356,121.516507,1.3645862e-09
C0AJ60,六塊厝,2025-04-12,25.24,121.4481,4.885047e-05
C0R620,墾雷,2025-04-12,21.900836,120.855269,0.76498324
467420,永康,2025-04-12,23.038386,120.2367,1.09444045e-05
C0I410,名間,2025-04-12,23.837053,120.701447,4.278753e-10
A2C560,農工中心,2025-04-12,24.985917,121.239833,5.553981e-09
C0V740,旗山,2025-04-12,22.888614,120.483597,6.766927e-10
C0Z061,玉里,2025-04-12,23.3215,121.339656,1.3983914e-09
C0S840,南田,2025-04-12,22.279725,120.889208,0.9938705
C1I470,杉林溪,2025-04-12,23.639517,120.786444,1.4282811e-08
C1X040,東原,2025-04-12,23.291597,120.463822,2.6333197e-10
C0R660,枋寮,2025-04-12,22.367722,120.590647,8.008463e-09
C1R120,上德文,2025-04-12,22.763272,120.704442,5.5339716e-10
C0K450,大埤,2025-04-12,23.646074,120.431537,4.9485427e-10
C0UA00,土場,2025-04-12,24.576533,121.495333,5.8621237e-09
467080,宜蘭,2025-04-12,24.763975,121.756528,8.7312696e-10
C0N030,四草,2025-04-12,23.0235,120.1116,2.5555073e-06
467410,臺南,2025-04-12,22.99328,120.20492,8.896906e-07
C0V650,彌陀,2025-04-12,22.783806,120.246361,0.9914368
C0D660,新竹市東區,2025-04-12,24.798681,120.986942,1.1856749e-09
82S580,茶改東部分場,2025-04-12,22.907694,121.130139,1.8844064e-09
C0SB40,興隆,2025-04-12,22.913661,121.257469,5.9943104e-09
467050,新屋,2025-04-12,25.006725,121.047492,6.682409e-08
C0C710,大溪永福,2025-04-12,24.892936,121.324975,1.9956554e-09
C0FA20,溫寮,2025-04-12,24.372177,120.583125,2.6041116e-09
C0V640,湖內,2025-04-12,22.887139,120.2445,0.78297865
C0R910,下寮,2025-04-12,22.3929,120.5548,8.008463e-09
C0Z020,明里,2025-04-12,23.208717,121.262342,1.9624835e-09
C0M770,嘉義梅山,2025-04-12,23.585398,120.555587,7.1396966e-10
C0C660,楊梅,2025-04-12,24.912375,121.143047,3.1959595e-09
C1E511,新開,2025-04-12,24.347703,120.827019,4.9646337e-10
G2F820,農試所(霧峰),2025-04-12,24.031261,120.688133,4.3184684e-10
C1I070,和社,2025-04-12,23.591131,120.888861,5.5373e-09
C2F000,大肚,2025-04-12,24.15295,120.572117,4.384241e-10
C1S850,豐南,2025-04-12,23.122139,121.262389,1.0628747e-09
C2A920,富貴角,2025-04-12,25.263783,121.565258,4.319571e-06
CAH030,茶改場竹圍站,2025-04-12,23.860083,120.637528,3.685084e-10
C0T960,光復,2025-04-12,23.660694,121.424964,4.6938087e-10
C0F9M0,豐原,2025-04-12,24.254322,120.720692,5.1983184e-10
C0R720,旭海,2025-04-12,22.205403,120.887614,0.99617743
C0V710,苓雅,2025-04-12,22.622742,120.330669,0.6321917
C0C740,觀音工業區,2025-04-12,25.064764,121.114856,3.527945e-06
CAC040,拉拉山,2025-04-12,24.699317,121.427133,2.5252735e-08
C0V790,萬山,2025-04-12,22.905944,120.688056,3.5161707e-10
U2HA30,臺大和社,2025-04-12,23.590856,120.888864,5.5373e-09
C0AJ90,澳底,2025-04-12,25.0552,121.9253,5.1932098e-08
C0Z100,東華,2025-04-12,23.89525,121.549833,1.9082054e-09
C0G970,三豐,2025-04-12,23.882,120.2895,2.0783407e-05
V2K610,大庄合作社,2025-04-12,23.8068,120.367939,6.3058336e-10
C0V900,汕尾,2025-04-12,22.4782,120.4151,0.98009753
C1R630,龍泉,2025-04-12,22.66701,120.59091,4.4067874e-09
C1AC50,關渡,2025-04-12,25.133486,121.469331,2.323113e-09
C0C800,四稜,2025-04-12,24.64733,121.4293,2.0005576e-08
C0F9I0,神岡,2025-04-12,24.272481,120.658314,3.1223643e-10
C0K460,斗南,2025-04-12,23.678734,120.478359,4.870039e-10
C2O810,曾文,2025-04-12,23.219681,120.497328,3.1942152e-10
467280,後龍,2025-04-12,24.648563,120.831834,1.0903944e-09
C1F9J1,清水林,2025-04-12,24.071242,120.820419,1.090877e-09
C2A650,火燒寮,2025-04-12,25.002719,121.742892,2.8280196e-09
466930,竹子湖,2025-04-12,25.162078,121.544547,2.567536e-09
C1I220,樟湖,2025-04-12,23.905333,120.846983,5.001189e-09
C0I390,仁愛,2025-04-12,24.022122,121.132206,6.5548944e-09
C0Z300,東里,2025-04-12,23.26853,121.30547,1.8506181e-09
C1V590,新發,2025-04-12,23.057019,120.646064,8.918418e-10
C0K510,水林,2025-04-12,23.572924,120.24597,8.2099694e-10
72S590,東改賓朗果園,2025-04-12,22.813889,121.071278,2.3074582e-09
82A750,茶改北部分場,2025-04-12,24.955778,121.631222,1.1960671e-08
C1A750,石碇服務區,2025-04-12,25.00872,121.646242,5.574953e-09
C0X300,鹿寮,2025-04-12,23.386047,120.477331,5.954379e-10
G2AI50,關渡,2025-04-12,25.11575,121.492,9.0345725e-07
C0K590,雲林東勢,2025-04-12,23.674192,120.255721,6.107559e-10
C0A570,桶後,2025-04-12,24.848222,121.597992,4.5406505e-09
C1S800,華源,2025-04-12,22.657883,121.02325,3.532927e-08
C0G720,溪州,2025-04-12,23.851589,120.499093,3.5252362e-10
C1V160,達卡努瓦,2025-04-12,23.279811,120.705319,2.4468685e-09
C2M410,馬頭山,2025-04-12,23.324361,120.582017,2.508895e-10
C0V850,蚵仔寮,2025-04-12,22.7256,120.2527,0.91083395
C0S740,池上,2025-04-12,23.119628,121.209469,4.1361314e-09
C1V390,尖山,2025-04-12,22.813153,120.367789,1.10069486e-07
C0AH70,松山,2025-04-12,25.04871,121.55042,1.3582296e-09
C0N010,鯤鯓國小,2025-04-12,23.1879,120.0889,9.64615e-09
C0R550,新埤,2025-04-12,22.467947,120.582894,0.9693543
C0SA60,知本（水試所）,2025-04-12,22.702394,121.082761,6.9471355e-08
C0T9I0,豐濱,2025-04-12,23.583897,121.514806,5.7021077e-10
C0UB00,淡江大學蘭陽校園,2025-04-12,24.823239,121.730383,4.94881e-09
C0W240,九宮,2025-04-12,24.423753,118.240186,3.6757073e-09
C0T9N0,富里,2025-04-12,23.171639,121.249378,1.9539268e-09
U2HA50,臺大竹山,2025-04-12,23.756972,120.681556,7.5981527e-10
C0V840,鳳鼻頭,2025-04-12,22.5083,120.3591,4.5521833e-06
C0X140,西港,2025-04-12,23.125608,120.203108,1.8628264e-06
72D080,桃改五峰分場,2025-04-12,24.612194,121.157167,4.1068646e-09
C2H9P0,伊拿谷,2025-04-12,23.963211,121.088264,4.0921413e-09
C2H9F0,柑林,2025-04-12,24.018658,120.847072,4.677472e-10
C0TA20,加灣,2025-04-12,24.082025,121.608944,2.643461e-09
C0V530,阿蓮,2025-04-12,22.883208,120.327508,0.0015950828
C0FB30,八仙山苗圃,2025-04-12,24.192719,121.001366,2.7698634e-09
C1O880,關山,2025-04-12,23.173397,120.594092,2.2519979e-10
C0E791,卓蘭,2025-04-12,24.3126,120.8244,5.321035e-10
C1I030,武界,2025-04-12,23.913225,121.052483,4.209608e-09
C0R520,崁頂,2025-04-12,22.514781,120.506914,0.7734021
C0R341,牡丹,2025-04-12,22.130036,120.792639,0.9940126
C0R930,萬丹,2025-04-12,22.5885,120.4851,4.1739998e-08
C0S760,紅石,2025-04-12,23.069131,121.126219,7.120976e-08
C2C410,中央大學,2025-04-12,24.967652,121.185165,5.4069966e-09
C1M610,石磐龍,2025-04-12,23.496606,120.663506,2.4525781e-09
C0C790,東眼山,2025-04-12,24.8284,121.40888,1.26231345e-08
C0UA10,鴛鴦湖,2025-04-12,24.590269,121.412228,2.5698448e-08
V2C260,八德蔬果,2025-04-12,24.978508,121.281819,2.9118252e-09
C0R800,丹路,2025-04-12,22.204481,120.750989,0.99774677
C0G920,永靖,2025-04-12,23.924703,120.547533,3.6491607e-10
C2M950,太和,2025-04-12,23.538372,120.702961,3.3145047e-09
C1A630,下盆,2025-04-12,24.771003,121.538622,4.6138537e-09
B2N890,畜產試驗所,2025-04-12,23.058972,120.336406,8.3578485e-08
C0UA30,白嶺,2025-04-12,24.527819,121.519031,1.5591446e-08
C1V580,溪南(特生中心),2025-04-12,23.084972,120.788475,4.780093e-09
C1T970,大農,2025-04-12,23.615233,121.413331,5.9522787e-10
C0R650,竹田,2025-04-12,22.58486,120.54344,2.4841992e-07
C1H900,清流,2025-04-12,24.080775,120.962997,2.4269193e-09
C1C510,水尾,2025-04-12,24.940081,121.087161,1.1092829e-08
C0F9X0,大雅(中科園區),2025-04-12,24.21528,120.62445,2.9248212e-10
C0SB60,白守蓮,2025-04-12,23.126769,121.401914,3.2933332e-07
C0O970,虎頭埤,2025-04-12,23.021375,120.347878,1.0230797e-08
C0C730,中大臨海站,2025-04-12,24.966126,121.008581,7.6486295e-08
C0X250,新營,2025-04-12,23.310689,120.316681,1.1293825e-09
C0V700,三民,2025-04-12,22.645017,120.311233,0.9937141
C0U870,大礁溪,2025-04-12,24.791042,121.675047,4.176164e-09
C0E870,高鐵苗栗,2025-04-12,24.60725,120.826094,1.100461e-09
A2K570,古坑花卉中心,2025-04-12,23.63353,120.55239,1.8115834e-09
C0TA30,鹽寮,2025-04-12,23.845606,121.592664,1.899052e-09
C0M860,新美,2025-04-12,23.338017,120.683169,5.5019345e-10
C1E701,八卦,2025-04-12,24.491756,120.927619,1.8605208e-09
C0I420,國姓,2025-04-12,24.037803,120.855072,4.7857834e-10
C2D720,關西工作站,2025-04-12,24.757275,121.184792,1.1405722e-09
C0S960,香蘭,2025-04-12,22.587569,120.993375,2.2828729e-07
467620,蘭嶼,2025-04-12,22.0369,121.55843,0.99659395
C0R260,春日,2025-04-12,22.370361,120.628306,2.6031184e-09
72G600,臺中農改場,2025-04-12,24.003028,120.534389,3.5161238e-10
C0Z210,瑞穗,2025-04-12,23.5239,121.39021,6.2050165e-10
C0M820,達邦,2025-04-12,23.453994,120.749517,1.717045e-09
C0V860,南寮,2025-04-12,22.7616,120.2339,0.9102178
C0G740,大城,2025-04-12,23.852487,120.320935,1.6169499e-05
C0R920,塭仔,2025-04-12,22.4169,120.5197,8.674207e-09
C0R470,高樹,2025-04-12,22.826389,120.600806,2.716216e-10
C0R680,佳樂水,2025-04-12,21.993578,120.861633,0.06149538
C1O870,大棟山,2025-04-12,23.31157,120.52226,1.4000033e-09
C0D360,梅花,2025-04-12,24.678347,121.208558,1.2985581e-09
C0Z190,富世,2025-04-12,24.14743,121.6297,5.9208145e-09
C0AI10,屈尺,2025-04-12,24.92184,121.54475,5.9148775e-09
B2U990,畜試東區分所,2025-04-12,24.669039,121.832561,5.732664e-10
C0SB80,長濱漁港,2025-04-12,23.313644,121.459994,1.2317739e-09
C0R240,來義,2025-04-12,22.527306,120.625111,0.09573457
C0V910,大樹,2025-04-12,22.684645,120.432803,4.723595e-06
C1R610,西大武山,2025-04-12,22.617719,120.7322,1.984955e-08
C0G900,線西,2025-04-12,24.143358,120.443536,2.4093652e-09
C0M700,竹崎,2025-04-12,23.526178,120.555508,5.210836e-10
C2E880,三義,2025-04-12,24.405478,120.749819,7.1123496e-10
C0C720,竹圍,2025-04-12,25.112692,121.239824,9.069691e-07
C0F9P0,清水,2025-04-12,24.312297,120.562242,2.21868e-09
C0Z150,吉安光華,2025-04-12,23.930925,121.595153,2.592055e-09
C0FA80,小雪山天池,2025-04-12,24.28025,121.02627,3.1171194e-08
467300,東吉島,2025-04-12,23.25727,119.66762,0.9910076
C1D640,外坪(五指山),2025-04-12,24.644447,121.090961,2.5347693e-09
C0F9O0,潭子,2025-04-12,24.213106,120.703933,6.0917593e-10
C2H9R0,卓社,2025-04-12,23.887894,121.000086,9.898342e-09
72T250,花蓮農改場,2025-04-12,23.975222,121.563889,5.5593543e-09
C0E780,銅鑼,2025-04-12,24.489681,120.790853,5.4209137e-10
C1T950,太安,2025-04-12,23.666719,121.370128,8.155337e-08
C0E830,苑裡,2025-04-12,24.439714,120.653053,6.3728707e-09
467270,田中,2025-04-12,23.873803,120.581286,5.068156e-10
C0SA10,檳榔四格山,2025-04-12,22.810031,121.109308,2.2003814e-09
C1T830,布洛灣,2025-04-12,24.17184,121.57127,5.785609e-07
C0F970,大坑,2025-04-12,24.173142,120.722289,4.6861603e-10
C1U920,思源,2025-04-12,24.393125,121.347214,1.7101398e-08
C0A931,三和,2025-04-12,25.233153,121.595236,2.8876723e-09
C0I010,廬山,2025-04-12,24.033311,121.181808,9.03328e-09
C2M940,日野賀,2025-04-12,23.434056,120.727169,2.2210764e-09
C0R860,鼻頭,2025-04-12,22.1043,120.8979,0.9865638
C0UB20,壯圍,2025-04-12,24.7359,121.8163,5.6155147e-10
C0R790,九棚,2025-04-12,22.14195,120.889281,0.99401504
C0W110,東莒,2025-04-12,25.9652,119.98069,3.7565012e-08
C1U930,粉鳥林,2025-04-12,24.497088,121.842479,2.3976523e-09
C1I211,蘆竹湳,2025-04-12,23.934019,120.811994,7.102792e-10
C0S830,長濱,2025-04-12,23.286817,121.411975,1.5787958e-09
C1F9F1,伯公龍,2025-04-12,24.272392,120.849047,9.0332924e-10
C0UB90,太平山莊,2025-04-12,24.494171,121.536209,2.474669e-08
C0E810,西湖,2025-04-12,24.562947,120.7485,3.6881366e-07
C1I440,新高口,2025-04-12,23.478744,120.878939,1.0027367e-08
C0O840,王爺宮,2025-04-12,23.222064,120.40085,4.9162463e-10
C0T9G0,鳳林山,2025-04-12,23.735269,121.420131,3.2023055e-09
C0X080,佳里,2025-04-12,23.173039,120.145086,9.64615e-09
C0FB70,大甲溪埔,2025-04-12,24.370625,120.620067,2.1765139e-09
C0Z310,清水斷崖,2025-04-12,24.218294,121.689142,3.5591878e-09
C0M680,太保,2025-04-12,23.455062,120.331455,7.061579e-10
C1S820,金峰,2025-04-12,22.590969,120.933236,5.9806545e-08
C0AD10,八里,2025-04-12,25.150211,121.403947,9.069691e-07
C2K240,草嶺,2025-04-12,23.59555,120.693461,3.3584078e-09
C1SA70,都蘭,2025-04-12,22.87794,121.226881,6.0022733e-09
C0K440,二崙,2025-04-12,23.772797,120.408944,3.6241826e-10
C1A760,坪林交控,2025-04-12,24.94284,121.713442,2.4224796e-09
C0F9N0,大里,2025-04-12,24.092464,120.701378,4.61555e-10
C0SA90,達仁林場,2025-04-12,22.264347,120.823972,5.554552e-06
C1R290,石門山,2025-04-12,22.112611,120.756597,0.9896406
42HA10,萬大發電廠,2025-04-12,23.978875,121.139639,4.3670343e-09
C0R890,山海,2025-04-12,21.9878,120.7091,0.22335918
C0T9A0,月眉山,2025-04-12,23.809928,121.539828,2.6069642e-09
C0AC70,信義,2025-04-12,25.037822,121.564597,1.3582296e-09
C0K560,棋山,2025-04-12,23.68645,120.603417,1.557824e-09
C2FB50,出雲,2025-04-12,24.206469,120.902794,3.1518166e-09
C1Z240,中平林道,2025-04-12,23.42115,121.26763,1.5225297e-07
U2H480,溪頭,2025-04-12,23.670306,120.798194,4.260676e-09
C0M880,好美里,2025-04-12,23.3364,120.138,5.1288978e-09
C0T9E0,大坑,2025-04-12,23.880628,121.581981,2.7677933e-09
C0K530,臺西,2025-04-12,23.701547,120.197559,3.364e-08
C1E900,國一N128K,2025-04-12,24.560997,120.844186,6.4707817e-10
C0AJ50,水湳洞,2025-04-12,25.123695,121.862238,3.990826e-09
C0AI20,白沙灣,2025-04-12,25.283128,121.519058,3.8331218e-05
C2V310,美濃,2025-04-12,22.898792,120.51907,6.9651596e-10
C0A860,大坪,2025-04-12,25.165914,121.632969,1.7503029e-09
C1U850,觀音海岸,2025-04-12,24.38319,121.77856,2.9249732e-09
C2K610,草嶺石壁,2025-04-12,23.602469,120.707731,3.4307592e-09
C0U950,鶯子嶺,2025-04-12,24.89754,121.79244,1.2887998e-08
C0O900,善化,2025-04-12,23.112883,120.297219,1.9388187e-07
C0K550,蔦松,2025-04-12,23.514319,120.229736,1.8700914e-09
E2P980,林試六龜中心,2025-04-12,22.991703,120.645722,2.829896e-10
C0E590,通霄,2025-04-12,24.471892,120.704622,2.6036963e-07
C1I310,西巒,2025-04-12,23.754486,120.883956,1.4399996e-08
C0A550,泰平,2025-04-12,24.971197,121.823711,5.477039e-09
C0I360,水里,2025-04-12,23.812553,120.849792,3.451057e-10
C0R830,高士,2025-04-12,22.121825,120.836781,0.9561831
C1I101,溪頭,2025-04-12,23.661789,120.807647,1.4003913e-08
C0AJ20,野柳,2025-04-12,25.20703,121.690021,2.4225812e-09
C0B060,暖暖,2025-04-12,25.0957,121.7403,1.5908719e-09
C1H920,長豐,2025-04-12,24.102039,120.879897,1.9262774e-09
C0V360,內門,2025-04-12,22.975481,120.466769,7.2161177e-10
C0R850,林邊,2025-04-12,22.4634,120.5339,0.9753786
C0E930,龍鳳,2025-04-12,24.700034,120.859125,3.604984e-09
C0U910,冬山,2025-04-12,24.63373,121.7937,5.732664e-10
C1E721,泰安,2025-04-12,24.489017,120.968036,9.665267e-09
82H320,茶改中部分場,2025-04-12,23.875611,120.913583,4.9637934e-09
C0M750,布袋,2025-04-12,23.380878,120.167789,1.7545011e-09
C1S860,利嘉,2025-04-12,22.809417,121.050528,1.4297503e-08
E2S980,林試太麻里1,2025-04-12,22.598922,120.980044,1.2208542e-07
C0X170,關廟,2025-04-12,22.963017,120.327797,1.4305741e-08
C0V720,林園,2025-04-12,22.507747,120.394511,2.9315988e-06
C1I510,線浸林道,2025-04-12,23.761508,120.832956,9.2012264e-09
C0D690,外湖,2025-04-12,24.917735,120.968711,1.3643189e-08
C0C750,新興坑尾,2025-04-12,25.0061,121.0971,4.8550746e-08
B2Q810,畜試南區分所,2025-04-12,21.945583,120.802167,0.059846587
C0S790,金崙,2025-04-12,22.538122,120.966875,1.00316555e-07
C0AH90,福山植物園,2025-04-12,24.760717,121.58135,1.19925145e-08
C0I540,奇萊稜線,2025-04-12,24.109231,121.326456,2.6650032e-08
C0M850,表湖,2025-04-12,23.24186,120.64166,9.568523e-10
C0S770,大溪山,2025-04-12,22.478475,120.943325,8.118585e-08
C0AG80,中和,2025-04-12,24.991622,121.491792,8.469407e-09
C0T790,大禹嶺,2025-04-12,24.186117,121.316086,1.4667999e-08
C0T9B0,水源,2025-04-12,23.991861,121.537169,5.8131215e-09
C0R840,牡丹池山,2025-04-12,22.168389,120.841225,0.7527463
C1I131,桶頭,2025-04-12,23.641944,120.654117,5.651327e-10
CAL110,布袋國中,2025-04-12,23.35893,120.18026,1.7545011e-09
467571,新竹,2025-04-12,24.827853,121.014219,2.7529565e-09
C0Z290,赤柯山,2025-04-12,23.36893,121.38293,1.41609355e-08
C0X280,將軍,2025-04-12,23.214999,120.13577,2.7164878e-08
C0S690,太麻里,2025-04-12,22.60902,120.98533,2.0490466e-08
C0U880,北關,2025-04-12,24.9072,121.8734,1.984057e-09
C0G810,埔心,2025-04-12,23.947633,120.525456,3.6491607e-10
C0U970,大福,2025-04-12,24.80064,121.81389,8.6488267e-10
C2H9N0,仁愛東眼,2025-04-12,24.026875,121.1205,8.198285e-09
C1E670,南礦,2025-04-12,24.538278,121.002836,6.8220336e-09
C0M520,東後寮,2025-04-12,23.369908,120.248065,1.6403701e-09
C1E461,松安,2025-04-12,24.397972,120.986022,8.9139e-09
C2N160,西拉雅風管處,2025-04-12,23.189481,120.335297,9.806056e-09
C2M970,碧湖,2025-04-12,23.568632,120.624165,3.0185874e-09
C0A640,石碇,2025-04-12,24.993969,121.662917,5.5527627e-09
E2S960,林試太麻里2,2025-04-12,22.598,120.99775,2.5360697e-07
C0F9Y0,桃山,2025-04-12,24.432739,121.303808,2.5077924e-08
C1I020,萬大,2025-04-12,23.979817,121.132261,6.6184125e-09
C0U940,羅東,2025-04-12,24.68184,121.74934,5.6916544e-10
C0M650,朴子,2025-04-12,23.43463,120.23902,9.654079e-10
C1I500,大尖山,2025-04-12,23.858572,120.994889,1.5911732e-08
C0FB40,中橫21.6k,2025-04-12,24.2499,121.1455,1.0105088e-08
C0G820,田尾,2025-04-12,23.901669,120.509389,3.6491607e-10
E2K600,四湖植物園,2025-04-12,23.676986,120.163433,3.2644145e-08
C0S730,綠島,2025-04-12,22.6672,121.47533,0.8567387
12Q970,東港工作站,2025-04-12,22.479997,120.466058,0.98009753
C0E430,南庄,2025-04-12,24.601775,121.000214,6.410098e-10
C1TA00,太魯閣,2025-04-12,24.15773,121.6236,6.0409326e-09
466920,臺北,2025-04-12,25.037658,121.514853,1.3582296e-09
C0R600,舊泰武,2025-04-12,22.588194,120.664944,4.2863169e-10
C1I260,北坑,2025-04-12,23.9246,121.006903,7.5045054e-10
466910,鞍部,2025-04-12,25.182586,121.529731,6.7265367e-09
C1I230,九份二山,2025-04-12,23.961944,120.845,3.868447e-09
C2A660,瑞芳,2025-04-12,25.113169,121.801147,3.833872e-09
C0R270,琉球嶼,2025-04-12,22.332244,120.362236,7.4163857e-09
C1T990,高寮,2025-04-12,23.394239,121.356808,8.794347e-10
C0G620,芬園,2025-04-12,24.015678,120.6213,4.2352324e-10
C1Z140,荖溪,2025-04-12,23.890575,121.45964,3.3188144e-08
C1I201,中心崙,2025-04-12,23.728722,120.712097,4.9733245e-10
C1I400,凌霄,2025-04-12,24.018778,121.004456,8.080795e-09
C1M640,十字,2025-04-12,23.492153,120.753683,7.676161e-09
G2P820,農試鳳山分所,2025-04-12,22.646611,120.356083,0.9900387
C0Z270,蕃薯寮,2025-04-12,23.73835,121.540108,2.1882982e-09
C0FB10,出雲山苗圃,2025-04-12,24.23105,120.90475,2.8730038e-09
C0F9Q0,外埔,2025-04-12,24.347817,120.705686,4.2430348e-10
C0K580,高鐵雲林,2025-04-12,23.737456,120.417944,4.0521547e-10
C2I090,鳳凰,2025-04-12,23.728081,120.787347,2.045098e-09
C0U990,員山,2025-04-12,24.74435,121.72247,5.6671945e-10
C0V770,大社,2025-04-12,22.730306,120.346639,0.8080633
C0X120,麻豆,2025-04-12,23.183289,120.248611,5.3627605e-09
C0C670,龍潭,2025-04-12,24.870056,121.221389,1.245146e-09
C0D680,香山濕地,2025-04-12,24.783581,120.914988,1.2714129e-09
C0S980,勝林山,2025-04-12,22.430439,120.8938,2.0241202e-08
C0V730,大寮,2025-04-12,22.605614,120.395717,0.5281718
C0R570,麟洛,2025-04-12,22.65078,120.52719,5.501389e-10
C2M930,石卓,2025-04-12,23.478744,120.702264,8.773275e-09
C0G9B0,和美,2025-04-12,24.105169,120.492131,1.5167182e-09
CAG100,王功漁港,2025-04-12,23.96824,120.32586,0.008855426
C0X290,北門,2025-04-12,23.267772,120.125481,2.7164878e-08
C2F930,大甲,2025-04-12,24.347667,120.640403,1.3949921e-09
C0D650,湖口,2025-04-12,24.904794,121.043628,1.1648312e-08
C0E420,竹南,2025-04-12,24.708978,120.888897,3.0675271e-09
C0U780,五結,2025-04-12,24.68637,121.79794,5.6155147e-10
C1I250,鯉潭,2025-04-12,23.961922,120.991131,3.623666e-09
C0R130,阿禮,2025-04-12,22.742908,120.743678,7.533633e-10
C0X100,臺南市北區,2025-04-12,23.010394,120.194228,1.8397515e-06
C0S920,金峰嘉蘭,2025-04-12,22.594789,120.960825,1.1523253e-07
C0V490,新興,2025-04-12,22.627422,120.298803,0.6321917
C0F9K0,大安,2025-04-12,24.345061,120.588025,2.2401325e-09
467290,古坑,2025-04-12,23.633639,120.551889,1.8115834e-09
C2E970,八甲,2025-04-12,24.535811,120.795983,6.511018e-10
C0V440,鳳山,2025-04-12,22.646653,120.356122,0.9900387
C1T940,大觀,2025-04-12,23.714206,121.373133,2.7440132e-09
C0E740,造橋,2025-04-12,24.637056,120.864778,1.100461e-09
C0R100,尾寮山,2025-04-12,22.833111,120.683889,8.4215607e-10
A2K630,臺大雲林校區,2025-04-12,23.730628,120.423903,4.0521547e-10
467990,馬祖,2025-04-12,26.169467,119.923158,1.8420652e-08
C0D580,寶山,2025-04-12,24.735006,121.025192,9.412597e-10
E2P990,林試扇平站,2025-04-12,22.9677,120.6857,7.9901047e-10
C0AI30,三重,2025-04-12,25.057328,121.500629,1.3645862e-09
C0AH00,汐止,2025-04-12,25.066881,121.658778,1.3582296e-09
C1Z040,立山,2025-04-12,23.443356,121.327375,1.3011695e-08
466881,新北,2025-04-12,24.959207,121.525196,7.872478e-09
C0W130,花嶼,2025-04-12,23.40007,119.32276,0.9918589
C0A950,鼻頭角,2025-04-12,25.129036,121.923372,0.0004605506
C0K470,林內,2025-04-12,23.748675,120.609642,1.5089217e-09
C2F990,摩天嶺,2025-04-12,24.322458,120.936819,3.823006e-09
82C160,茶改場,2025-04-12,24.908472,121.185333,3.0929543e-09
C0Z320,清水林道,2025-04-12,23.27125,121.188272,1.5599715e-08
C0R760,南仁湖,2025-04-12,22.084681,120.863353,0.9896406
C0M670,大林,2025-04-12,23.600616,120.45841,5.57645e-10
C0M800,茶山,2025-04-12,23.299075,120.664767,4.994437e-10
C0A9C0,天母,2025-04-12,25.117494,121.537169,2.2346616e-09
72K220,南改斗南分場,2025-04-12,23.634556,120.477333,4.869779e-10
72AI40,桃改樹林分場,2025-04-12,24.944503,121.386972,1.9635844e-09
C0S910,蘭嶼燈塔,2025-04-12,22.081197,121.503117,0.98271763
C0B050,八斗子,2025-04-12,25.144754,121.79167,3.730502e-09
C0U900,內城,2025-04-12,24.71813,121.68766,5.814749e-10
C0X320,柳營,2025-04-12,23.253328,120.375253,1.3243846e-09
C0M790,新港,2025-04-12,23.553269,120.345728,7.486592e-10
C0F9T0,西屯,2025-04-12,24.179494,120.641275,2.6541755e-10
C0E950,松安,2025-04-12,24.39792,120.98599,8.9139e-09
C0SA30,都歷,2025-04-12,23.020333,121.323642,9.497683e-10
C0C620,蘆竹,2025-04-12,25.084275,121.265767,8.321582e-08
C0R730,大坪頂,2025-04-12,22.024633,120.69355,0.98652965
C0AJ40,石門,2025-04-12,25.273672,121.601198,8.294353e-06
C0E750,苗栗,2025-04-12,24.564569,120.824575,6.4938777e-10
C0T870,鯉魚潭,2025-04-12,23.935639,121.508944,2.3966007e-09
C1V170,排雲,2025-04-12,23.463619,120.954147,1.7809354e-08
C2H950,中寮,2025-04-12,23.884447,120.766406,4.1263742e-10
C0R350,貓鼻頭,2025-04-12,21.921774,120.7358,0.22195934
C0V660,岡山,2025-04-12,22.797078,120.294958,0.9914545
C1H941,雙冬,2025-04-12,23.967378,120.802189,7.6840817e-10
C0AJ70,田寮,2025-04-12,25.2698,121.4886,3.7947942e-05
C0AI00,五股,2025-04-12,25.07445,121.42728,5.1812656e-09
C0Z280,德武,2025-04-12,23.47426,121.41071,7.5673323e-10
C0R700,枋山,2025-04-12,22.246844,120.661086,0.48481977
C0C460,復興,2025-04-12,24.820208,121.352281,1.9921225e-09
E2H360,蓮華池,2025-04-12,23.918333,120.885278,8.605271e-10
C0M640,中埔,2025-04-12,23.42538,120.5229,4.3933152e-10
C0W140,金沙,2025-04-12,24.488292,118.408778,3.6269436e-09
C2A540,四堵,2025-04-12,24.8926,121.745736,2.924711e-09
C0ACA0,新莊,2025-04-12,25.051478,121.446756,1.9347022e-09
C0R220,潮州,2025-04-12,22.534361,120.54,0.7391857
U2HA40,臺大內茅埔,2025-04-12,23.689722,120.851117,2.6276212e-09
467490,臺中,2025-04-12,24.145736,120.684075,5.0446236e-10
C0UB60,明池,2025-04-12,24.650688,121.475277,1.9890823e-08
C0U960,翠峰湖,2025-04-12,24.510856,121.608044,2.1961519e-08
E2HA20,林試畢祿溪站,2025-04-12,24.226944,121.308522,2.0784858e-08
C0V890,前鎮,2025-04-12,22.5718,120.3117,0.7133275
C1F941,雪嶺,2025-04-12,24.280586,121.026642,3.1171194e-08
C2H9E0,國姓南港,2025-04-12,23.911108,120.846556,5.1727636e-09
C0AC80,文山,2025-04-12,25.00235,121.575728,7.615117e-09
C0F9R0,龍井,2025-04-12,24.184536,120.528972,2.3419096e-09
C0M760,民雄,2025-04-12,23.551754,120.428457,5.680766e-10
C0UA40,西德山,2025-04-12,24.560647,121.752608,1.0650893e-08
C1T920,中興,2025-04-12,23.769503,121.498653,1.4744315e-09
C0D550,雪霸,2025-04-12,24.526972,121.11605,1.3971923e-08
C2F860,梨山,2025-04-12,24.247522,121.243669,2.1223928e-08
C0R320,車城,2025-04-12,22.0744,120.716247,0.3188042
C1S870,南美山,2025-04-12,23.15025,121.382333,1.9633934e-09
C0B020,基隆嶼,2025-04-12,25.19141,121.78391,0.0056577944
C1U501,牛鬥,2025-04-12,24.637836,121.573656,1.9202246e-09
C0M730,嘉義市東區,2025-04-12,23.457673,120.460531,6.212311e-10
C0S700,知本,2025-04-12,22.684866,121.005642,1.4727711e-08
C1N001,沙崙,2025-04-12,22.935472,120.309406,1.7717266e-08
C0V760,橋頭,2025-04-12,22.757806,120.30575,0.86453396
C0G960,福寶,2025-04-12,24.0443,120.3814,1.6804109e-09
C0X210,白河,2025-04-12,23.347466,120.414427,6.967299e-10
C0S810,東河,2025-04-12,22.972672,121.303986,0.99790114
C2R170,屏東,2025-04-12,22.66027,120.49403,5.501389e-10
C0R670,楓港,2025-04-12,22.190131,120.692156,0.5179369
C0FA50,霧峰,2025-04-12,24.0419,120.6995,4.2925183e-10
C0UB10,蘇澳,2025-04-12,24.5969,121.8571,3.0201193e-09
C0G950,防潮門,2025-04-12,24.1835,120.4871,2.3419096e-09
C0M740,六腳,2025-04-12,23.492871,120.290625,8.933945e-10
C1R250,力里,2025-04-12,22.428117,120.629228,8.039612e-08
C0K330,虎尾,2025-04-12,23.719183,120.442036,3.8931153e-10
C2FA00,烏石坑,2025-04-12,24.273503,120.947617,3.7672265e-09
C0V620,永安,2025-04-12,22.82315,120.236856,0.9914368
C1I330,楓樹林,2025-04-12,23.986803,121.076117,7.165047e-09
C0W200,湖西,2025-04-12,23.596314,119.67275,0.98989743
72Q010,高雄農改場,2025-04-12,22.709333,120.525889,2.5256083e-10
C0SA40,瑞和,2025-04-12,22.974361,121.156697,7.910917e-10
C0C680,龜山,2025-04-12,25.02846,121.38656,4.842356e-09
C2V260,月眉,2025-04-12,22.971003,120.539853,3.403559e-10
C0V450,鳳森,2025-04-12,22.545064,120.392592,5.5776565e-07
C0FA90,小雪山林道,2025-04-12,24.29515,121.03651,3.685116e-08
C0U720,南山,2025-04-12,24.43742,121.38167,1.920929e-08
A2N290,臺南蘭花園區,2025-04-12,23.340258,120.379661,5.4769317e-10
C0R560,新園,2025-04-12,22.5434,120.461558,2.9315988e-06
C0U890,三星,2025-04-12,24.66812,121.65302,1.8568092e-09
C1V300,御油山,2025-04-12,23.001983,120.715364,4.410168e-09
C0U600,礁溪,2025-04-12,24.817539,121.765608,1.2351687e-09
C1T980,龍澗,2025-04-12,24.023289,121.411328,5.705834e-08
C0D670,海天一線,2025-04-12,24.831986,120.914438,4.51646e-05
C0SA00,歷坵,2025-04-12,22.520969,120.89185,3.5542374e-08
C0M710,東石,2025-04-12,23.458927,120.15385,1.27137705e-08
C0M780,鹿草,2025-04-12,23.41134,120.30835,9.377081e-10
C0U520,雙連埤,2025-04-12,24.753033,121.641303,4.223739e-09
C0B010,七堵,2025-04-12,25.094819,121.71713,1.5286723e-09
C0R480,長治,2025-04-12,22.693128,120.542622,2.9327537e-06
C1V830,國三S383K,2025-04-12,22.781967,120.426475,3.849007e-10
12Q980,恆春工作站,2025-04-12,22.079678,120.714425,0.3188042
C1O940,東山服務區,2025-04-12,23.286016,120.398472,1.0157044e-09
C1U840,東澳嶺,2025-04-12,24.5378,121.8485,5.2998073e-09
C1D630,飛鳳山,2025-04-12,24.766464,121.119178,1.4250179e-09
C0S940,石寧山,2025-04-12,23.223772,121.406639,1.7897642e-09
C0K410,北港,2025-04-12,23.573957,120.292802,7.970317e-10
C2M620,瑞里,2025-04-12,23.545133,120.675197,2.9103318e-09
C0SB70,小港漁港,2025-04-12,23.158558,121.400431,2.4957663e-09
C2O950,安南,2025-04-12,23.076694,120.144861,5.0436046e-07
C0F0E0,南湖圈谷,2025-04-12,24.363714,121.444667,3.925712e-08
467610,成功,2025-04-12,23.097486,121.373428,1.7462997e-07
C0G890,伸港,2025-04-12,24.148933,120.484403,2.4095996e-09
C2E540,龍溪,2025-04-12,24.606489,120.783933,1.1301129e-09
C1V200,梅山,2025-04-12,23.268447,120.823556,2.1450848e-09
C0T9H0,加路蘭山,2025-04-12,23.682947,121.5274,4.908584e-09
C2O930,玉井,2025-04-12,23.126042,120.46055,1.8084634e-08
C1F911,新伯公,2025-04-12,24.221361,120.841069,9.610994e-10
C0R490,九如,2025-04-12,22.7405,120.490503,2.550841e-10
C0X200,左鎮,2025-04-12,23.056758,120.408522,1.1814359e-08
C0FA60,鞍馬山工作站,2025-04-12,24.267064,121.000793,2.1451184e-08
C0SB50,叭嗡嗡,2025-04-12,23.047062,121.343223,1.1905766e-09
C1F891,稍來,2025-04-12,24.265689,121.001142,2.0942164e-08
72N240,七股研究中心,2025-04-12,23.081672,120.062894,6.5242193e-07
C0C700,中壢,2025-04-12,24.977661,121.256375,2.881411e-09
C0M690,水上,2025-04-12,23.419734,120.388909,6.7159184e-10
C0V690,鼓山,2025-04-12,22.623325,120.275575,0.6319061
C0O860,大內,2025-04-12,23.11885,120.36083,1.1071082e-07
C0Z200,萬榮,2025-04-12,23.709219,121.420106,1.7682685e-09
C0T9D0,和中,2025-04-12,24.26676,121.74103,1.1149655e-08
C1O921,楠西,2025-04-12,23.183511,120.484083,1.4051584e-09
C0AJ30,淡水觀海,2025-04-12,25.184591,121.408616,7.856547e-09
C0V810,左營,2025-04-12,22.67491,120.28491,0.9937141
C0UA70,桃源谷,2025-04-12,24.962606,121.888875,6.1996843e-09
C0X130,官田,2025-04-12,23.193217,120.315422,1.0836235e-08
C1H000,翠峰,2025-04-12,24.109397,121.205211,1.4852567e-08
C0UA90,石城,2025-04-12,24.980444,121.951214,2.311114e-09
C1E681,南勢山,2025-04-12,24.421669,120.923831,1.9711341e-09
C0A9F0,內湖,2025-04-12,25.079422,121.57545,1.3582296e-09
C0K291,宜梧,2025-04-12,23.536281,120.169329,1.8700914e-09
C1K540,口湖,2025-04-12,23.585344,120.180517,4.8815103e-08
C0R780,滿州,2025-04-12,22.024403,120.839892,0.88607204
C0V870,文安,2025-04-12,22.8025,120.2164,0.99287015
C0U650,玉蘭,2025-04-12,24.675286,121.587061,3.1962888e-09
C0R640,東港,2025-04-12,22.46247,120.44074,0.98009753
C0AJ80,板橋,2025-04-12,25.0107,121.4489,8.595548e-09
C0S660,下馬,2025-04-12,23.150427,121.070312,1.3901083e-08
C1H9B1,阿眉,2025-04-12,24.1263,120.994672,2.0445063e-08
C0UA20,多加屯,2025-04-12,24.368614,121.373189,1.1874045e-08
C0E730,頭份,2025-04-12,24.688247,120.912206,3.1764094e-09
72V140,高改旗南分場,2025-04-12,22.857861,120.516667,6.965146e-10
C0K480,莿桐,2025-04-12,23.761192,120.502372,5.25408e-10
C0U980,坪林石牌,2025-04-12,24.86478,121.77396,6.152412e-09
C0T900,西林,2025-04-12,23.8119,121.441458,1.677852e-09
C1I150,青雲,2025-04-12,23.793361,120.949378,7.1463724e-10
467350,澎湖,2025-04-12,23.565503,119.563094,0.9956636
C0G800,埔鹽,2025-04-12,24.000394,120.431683,1.2058843e-09
C0H960,草屯,2025-04-12,23.973672,120.68085,4.244071e-10
C1V780,多納林道,2025-04-12,22.888028,120.737917,1.1566701e-09
C0E920,通霄漁港,2025-04-12,24.498589,120.673876,6.3318845e-07
C0Z330,安通山,2025-04-12,23.290728,121.348528,2.1524866e-09
C0AH10,永和,2025-04-12,25.01125,121.508111,8.595548e-09
C0AK10,太平里,2025-04-12,25.134937,121.364899,8.290464e-07
C2G640,鹿港,2025-04-12,24.0753,120.430481,1.6801546e-09
C1E890,國三N149K,2025-04-12,24.463414,120.680019,4.5145794e-09
C1R110,口社,2025-04-12,22.770111,120.645222,2.4973568e-09
C1M870,國三N285K,2025-04-12,23.550319,120.505833,8.594986e-10
C1E480,鳳美,2025-04-12,24.554803,121.034747,1.4887929e-09
C0M530,奮起湖,2025-04-12,23.493903,120.699253,3.3603236e-09
C0C590,觀音,2025-04-12,25.027072,121.153317,2.650319e-06
C0T9M0,靜浦,2025-04-12,23.455167,121.495028,6.566241e-10
C2H9M0,發祥,2025-04-12,24.154094,121.164517,1.6901032e-08
C0AI40,石牌,2025-04-12,25.115597,121.513139,2.231284e-09
C1F871,上谷關,2025-04-12,24.203483,121.018644,2.8853488e-09
C2H9G0,百勝,2025-04-12,24.051142,120.909361,8.0399876e-10
C0G880,二水,2025-04-12,23.810742,120.6173,6.2546374e-10
C0R940,加祿堂,2025-04-12,22.3363,120.6217,1.544111e-05
C0W220,北竿,2025-04-12,26.220358,119.974881,2.398806e-08
C0O960,崎頂,2025-04-12,22.959547,120.369317,3.7229033e-09
C0S750,向陽,2025-04-12,23.248397,120.986133,6.0289387e-09
C0T9F0,水璉,2025-04-12,23.797131,121.542514,1.9155972e-09
C1M600,頭凍,2025-04-12,23.406364,120.603339,3.959799e-09
467660,臺東,2025-04-12,22.752211,121.154586,0.71532905
C1D380,新埔,2025-04-12,24.84745,121.03834,2.2550897e-09
C2G980,田頭村,2025-04-12,23.8263,120.444175,3.6241826e-10
C0V750,路竹,2025-04-12,22.854997,120.259439,0.65280336
C0N050,蚵寮,2025-04-12,23.301,120.1104,5.1288978e-09
72M700,南改鹿草分場,2025-04-12,23.416869,120.283061,9.65406e-10
C1SA50,利嘉林道,2025-04-12,22.82325,121.009389,1.4213241e-08
C0UB70,太平山中間站,2025-04-12,24.542003,121.513453,8.077065e-09
C0A940,金山,2025-04-12,25.223628,121.643967,2.440213e-09
C1V340,大津,2025-04-12,22.888322,120.645986,3.6715575e-10
C0W180,七美,2025-04-12,23.219333,119.444892,0.99030006
C1F9C1,白冷,2025-04-12,24.182844,120.929889,1.1428369e-09
K2E710,苗改生物防治研究中心,2025-04-12,24.422861,120.871833,5.0992227e-10
C0N040,蘆竹溝,2025-04-12,23.2344,120.0961,2.7164878e-08
C0D760,大坪苗圃,2025-04-12,24.5362,121.1108,7.8961175e-09
C2W230,畜試所澎湖,2025-04-12,23.628342,119.513206,0.99092376
C0R880,後壁湖,2025-04-12,21.9457,120.7457,0.22000249
C1I280,埔中,2025-04-12,23.820778,120.642594,3.714539e-10
467790,墾丁雷達站,2025-04-12,21.948235,120.808028,0.07339656
C0W190,望安,2025-04-12,23.380564,119.494075,0.9948677
C0Z170,卓溪,2025-04-12,23.3443,121.3029,9.763538e-10
C0F850,東勢,2025-04-12,24.246428,120.833047,5.8517097e-10
466900,淡水,2025-04-12,25.164889,121.448906,8.290464e-07
C0I370,魚池,2025-04-12,23.895703,120.94135,7.237014e-10
C0C630,大溪,2025-04-12,24.882853,121.265547,1.2138827e-09
C0A520,山佳,2025-04-12,24.974944,121.402008,2.6480076e-09
C0I110,竹山,2025-04-12,23.761225,120.688156,4.661974e-10
82H840,茶改南部分場,2025-04-12,23.762528,120.7405,3.6337833e-10
C0G660,溪湖,2025-04-12,23.94835,120.479122,3.7133632e-10
C1T800,洛韶,2025-04-12,24.204558,121.453956,6.0268604e-08
C1T810,慈恩,2025-04-12,24.192044,121.388386,7.790264e-09
C1E451,象鼻,2025-04-12,24.368617,120.940228,1.8059737e-09
C0AC60,三峽,2025-04-12,24.939025,121.369728,1.928737e-09
C0I490,萬大林道,2025-04-12,23.928228,121.091411,1.0096977e-08
C1I290,豐丘,2025-04-12,23.668178,120.887417,4.4842765e-09
C1I320,奧萬大,2025-04-12,23.952956,121.178556,7.777437e-09
C2M910,嘉義大學,2025-04-12,23.471325,120.485903,5.326112e-10
C0U770,南澳,2025-04-12,24.44935,121.81022,2.4312883e-09
C0A980,社子,2025-04-12,25.109508,121.469681,9.305045e-07
C0V800,六龜,2025-04-12,22.997889,120.633583,2.843867e-10
C1G9D0,國一S218K,2025-04-12,23.890641,120.493253,3.5525732e-10
C0E570,白沙屯,2025-04-12,24.549447,120.696803,7.068828e-07
C2F9A0,中竹林,2025-04-12,24.103556,120.751061,5.12429e-10
C0FA40,臺中電廠,2025-04-12,24.2146,120.4907,2.3419096e-09
C2G9A0,畜試所彰化,2025-04-12,23.86045,120.557964,5.068156e-10
C0H9C0,合歡山,2025-04-12,24.143442,121.272547,2.7363422e-08
C0X060,下營,2025-04-12,23.22695,120.256261,1.941415e-09
G2M350,農試溪口農場,2025-04-12,23.58565,120.408111,5.842252e-10
C0U860,頭城,2025-04-12,24.85323,121.8308,1.2349144e-09
C0R580,南州,2025-04-12,22.48591,120.50274,0.98009753
C0D430,峨眉,2025-04-12,24.6905,121.017189,7.5374273e-10
C0G780,秀水,2025-04-12,24.03405,120.503869,3.5573333e-10
72N100,臺南農改場,2025-04-12,23.0605,120.342194,8.3730065e-08
C0S900,蘭嶼高中,2025-04-12,22.04909,121.51214,0.96346265
C1F9W0,德基,2025-04-12,24.254783,121.190261,1.8318588e-08
C1Z120,壽豐,2025-04-12,23.870853,121.508081,1.9082054e-09
C0W160,烏坵,2025-04-12,24.9944,119.44956,0.06075619
C1I240,外大坪,2025-04-12,23.958697,120.917931,3.6555017e-09
C1I550,國六W023K,2025-04-12,23.979067,120.867742,5.9664756e-10
C0R870,興海,2025-04-12,21.9752,120.8439,0.059846617
C0R140,瑪家,2025-04-12,22.682903,120.686639,4.2603487e-10
C0A530,坪林,2025-04-12,24.938183,121.70975,2.6913705e-09
C0X260,後壁,2025-04-12,23.366358,120.362326,5.477705e-10
C0Z230,和平,2025-04-12,24.30717,121.77007,1.2332343e-08
C0G770,福興,2025-04-12,24.041289,120.437669,1.2058843e-09
C0H9A0,神木村,2025-04-12,23.532742,120.843667,7.845766e-09
C0I460,南投,2025-04-12,23.911469,120.687331,4.5755716e-10
C0I480,梅峰,2025-04-12,24.085272,121.173572,1.2429683e-08
C1V570,吉東,2025-04-12,22.85422,120.5454,6.393443e-10
C2D740,屯原,2025-04-12,24.067969,121.209389,1.12382175e-08
C2A560,福山,2025-04-12,24.776203,121.502811,1.0116022e-08
C0AH30,五分山,2025-04-12,25.07125,121.780794,4.4615915e-09
C0FA10,松柏,2025-04-12,24.429115,120.617482,8.002966e-09
72S200,東改班鳩分場,2025-04-12,22.829528,121.077694,2.9278309e-09
72HA00,中改埔里分場,2025-04-12,23.903208,120.963364,8.054892e-10
C2H9W0,大坪頂農水,2025-04-12,24.043122,120.932781,1.936755e-09
C0C650,平鎮,2025-04-12,24.897503,121.214636,1.74106e-09
C0S930,延平,2025-04-12,22.902581,121.084058,1.4947595e-09
C0UA60,樟樹山,2025-04-12,24.41393,121.78325,1.033163e-08
C1S670,摩天,2025-04-12,23.199503,121.027,6.909473e-08
C0V630,茄萣,2025-04-12,22.906642,120.182608,0.8270458
466940,基隆,2025-04-12,25.133314,121.740475,3.7467465e-09
C0X050,東河,2025-04-12,23.296598,120.385608,1.192613e-09
C0R770,保力,2025-04-12,22.071122,120.764111,0.6012249
G2L020,農試嘉義分所,2025-04-12,23.485028,120.473806,6.5862343e-10
C0X240,關子嶺,2025-04-12,23.331169,120.508025,2.4939759e-10
C0I380,集集,2025-04-12,23.828206,120.801467,3.4548636e-10
466990,花蓮,2025-04-12,23.975128,121.613275,5.36363e-09
C1V220,小關山,2025-04-12,23.154217,120.813603,4.5373696e-09
C1F9G1,慶福山,2025-04-12,24.180853,120.848378,1.5355103e-09
C0FB20,雪山橋,2025-04-12,24.23192,120.9786,3.0772156e-08
C0Z250,瑞穗林道,2025-04-12,23.49284,121.30688,1.8208829e-07
C0D590,新豐,2025-04-12,24.87068,120.97721,1.3455963e-06
C0A870,五指山,2025-04-12,25.132153,121.608692,2.838509e-09
C0UA50,西帽山,2025-04-12,24.555361,121.802628,7.771358e-09
C0X160,仁德,2025-04-12,22.968258,120.257689,0.06784579
C1H971,六分寮,2025-04-12,23.92507,120.6378,4.928e-10
C0W120,西嶼,2025-04-12,23.5626,119.468436,0.9744293
C0G650,員林,2025-04-12,23.946503,120.585597,4.0975748e-10
C0AD50,鶯歌,2025-04-12,24.951533,121.346294,1.8750774e-09
C2H9Q0,北東眼山,2025-04-12,24.120939,121.189303,2.1598986e-08
C2H9T0,名間竹圍,2025-04-12,23.859914,120.637572,3.685084e-10
C0S990,山豬窟,2025-04-12,22.318619,120.857372,1.1942831e-06
C0X190,安平,2025-04-12,22.993161,120.152181,1.8397515e-06
C0K400,斗六,2025-04-12,23.720583,120.541127,5.487325e-10
12J990,口湖工作站,2025-04-12,23.589978,120.180394,4.8829257e-08
C0O830,北寮,2025-04-12,23.079561,120.495008,3.0580152e-10
C1D410,白蘭,2025-04-12,24.579364,121.079947,7.2854354e-09
C0S970,加津林,2025-04-12,22.416211,120.926942,0.00093286484
C0D700,關西,2025-04-12,24.7977,121.1732,1.1359825e-09
C0M810,里佳,2025-04-12,23.389125,120.716647,5.636743e-09
C0U750,龜山島,2025-04-12,24.841667,121.953133,6.430409e-05
C0R810,內獅,2025-04-12,22.305064,120.642986,2.3024091e-05
C1M390,龍美,2025-04-12,23.406728,120.654417,4.601032e-09
C2FB60,頭櫃山,2025-04-12,24.129842,120.858925,5.4553735e-09
C1H840,國三N238K,2025-04-12,23.841008,120.707711,3.570548e-10
CAQ030,崎峰國小,2025-04-12,22.42565,120.49521,0.98009753
C2E520,大湖,2025-04-12,24.414939,120.870872,5.301382e-10
467530,阿里山,2025-04-12,23.508208,120.813242,1.5522902e-08
C1E691,南湖,2025-04-12,24.40135,120.837533,1.4642471e-09
C0FA30,梧棲,2025-04-12,24.256003,120.523381,2.21868e-09
C1V231,高中,2025-04-12,23.134911,120.716711,6.5676437e-10
C0AK30,硬漢嶺,2025-04-12,25.136097,121.426372,2.455944e-09
C0F9V0,新社,2025-04-12,24.200172,120.815806,1.0582202e-09
C0H890,埔里,2025-04-12,23.972169,120.952425,6.4865985e-10
C0R690,墾丁,2025-04-12,21.966756,120.810269,0.99732244
C0F0D0,審馬陣,2025-04-12,24.381675,121.4203,1.6879415e-08
C2W030,金門農試所,2025-04-12,24.448431,118.451786,3.8295234e-09
C0R820,白鷺,2025-04-12,22.454275,120.666219,4.4329102e-10
C0FB00,大雪山,2025-04-12,24.254668,121.007374,2.5539979e-08
C1V190,南天池,2025-04-12,23.27403,120.91176,8.70839e-09
C0E940,雪見,2025-04-12,24.42595,121.01347,1.4433461e-08
K2E360,苗栗農改場,2025-04-12,24.495722,120.829111,5.392349e-10
CAJ050,海口故事園區,2025-04-12,23.57543,120.14121,4.8829257e-08
C2H9D0,三隻寮,2025-04-12,24.093078,120.861578,1.9753044e-09
C0O990,媽廟,2025-04-12,22.99175,120.293525,6.0165344e-06
C0D480,打鐵坑,2025-04-12,24.849664,121.150789,1.2554601e-09
C0Z220,和平林道,2025-04-12,24.343922,121.656317,2.7561615e-09
C0TA10,花蓮漁港,2025-04-12,23.995322,121.638331,5.4818043e-09
72C440,桃園農改場,2025-04-12,24.950944,121.030583,1.1412995e-08
C1E711,馬拉邦山,2025-04-12,24.367306,120.901656,1.8972273e-09
C0SB20,富岡,2025-04-12,22.792467,121.192669,2.932847e-07
C0D560,竹東,2025-04-12,24.767147,121.057881,1.1343132e-09
C0F9U0,南屯,2025-04-12,24.137006,120.637969,2.6867222e-10
C0M720,番路,2025-04-12,23.464657,120.554156,3.7703585e-10
C0F0A0,雪山圈谷,2025-04-12,24.388594,121.236339,2.4087322e-08
C1A9N0,四十份,2025-04-12,24.934158,121.593283,1.2351741e-08
C0U760,東澳,2025-04-12,24.52196,121.83318,2.304929e-09
C0X230,鹽水,2025-04-12,23.272621,120.247641,4.386e-09
C2H9H0,苗改南投蜂場,2025-04-12,23.852589,120.693481,4.352073e-10
C0R950,萬隆國小,2025-04-12,22.507667,120.587817,0.40528837
467540,大武,2025-04-12,22.35572,120.90374,0.0029760173
C0V370,古亭坑,2025-04-12,22.893178,120.401947,1.3660785e-09
C1I340,新興橋,2025-04-12,23.563333,120.868728,2.6493716e-09
C0SA80,土坂,2025-04-12,22.453108,120.887572,7.843043e-07
C0R160,鹽埔,2025-04-12,22.739558,120.530778,2.5256083e-10
C0AC40,大屯山,2025-04-12,25.175675,121.522408,9.215769e-09
466850,五分山雷達站,2025-04-12,25.071182,121.781205,4.5005826e-09
C2H9L0,馬烈霸,2025-04-12,24.1512,121.201772,2.139749e-08
C1AI50,國三N016K,2025-04-12,25.034164,121.619664,1.3728253e-09
C1V600,藤枝,2025-04-12,23.071961,120.757042,4.211471e-09
C1E601,南勢,2025-04-12,24.572486,120.734842,5.971183e-08
C0Z180,新城,2025-04-12,24.03946,121.60454,1.625282e-08
C0O980,新市,2025-04-12,23.061614,120.298197,1.9388187e-07
C0K420,西螺,2025-04-12,23.800407,120.467394,3.5361591e-10
C0Z050,佳心,2025-04-12,23.34567,121.21316,1.3388061e-08
C0AD30,蘆洲,2025-04-12,25.086594,121.472331,1.3645862e-09
C0V610,梓官,2025-04-12,22.760558,120.267211,0.86453396
K2F750,種苗改良場,2025-04-12,24.225972,120.800917,9.698835e-10
C0UA80,大溪漁港,2025-04-12,24.941801,121.902955,1.9898896e-09
C1AI60,國一39K邊坡,2025-04-12,25.064361,121.383836,4.9819002e-09
C0W150,金寧,2025-04-12,24.457703,118.328989,3.781394e-09
C0R960,內埔,2025-04-12,22.608483,120.570714,1.8726894e-07
V2C250,八德合作社,2025-04-12,24.93775,121.266389,1.7598736e-09
C2H9S0,龍南,2025-04-12,23.953536,120.833183,1.4813489e-09
C0AH40,平等,2025-04-12,25.129142,121.577086,1.9135704e-09
C0R540,佳冬,2025-04-12,22.419456,120.552375,8.008463e-09
466950,彭佳嶼,2025-04-12,25.627975,122.079744,0.9987749
C0A890,雙溪,2025-04-12,25.036003,121.864242,4.6652605e-08
C0C480,桃園,2025-04-12,24.992425,121.323172,2.7784142e-09
C0AH50,林口,2025-04-12,25.072181,121.38084,4.719756e-09
A2K360,水試臺西試驗場,2025-04-12,23.717231,120.190522,3.6796166e-08
C2M960,外寮,2025-04-12,23.562643,120.665688,3.1375293e-09
C0F9S0,烏日,2025-04-12,24.107058,120.624103,4.847334e-10
C0C490,八德,2025-04-12,24.928708,121.283289,1.7607835e-09
C0R190,赤山,2025-04-12,22.592333,120.614306,1.6261617e-07
C0T820,天祥,2025-04-12,24.179597,121.495639,2.7204163e-07
C1F9E1,龍安,2025-04-12,24.1605,120.831961,7.817902e-10
C0V820,小林,2025-04-12,23.148408,120.63325,2.2055527e-10
C2G870,芳苑,2025-04-12,23.922303,120.320025,0.0074826563
C0E850,大河,2025-04-12,24.618069,120.948578,7.236558e-10
C1U670,寒溪,2025-04-12,24.634,121.71691,6.246614e-10
C0N020,城西,2025-04-12,23.0568,120.0956,1.8397515e-06
C1Z110,三棧,2025-04-12,24.11557,121.60501,1.6056997e-07
C0R280,檳榔,2025-04-12,22.076078,120.836777,0.99488205
C2H9J0,中台,2025-04-12,23.9996,120.938739,1.1478374e-09
C0F9L0,后里,2025-04-12,24.310436,120.729725,5.194433e-10
467441,高雄,2025-04-12,22.730432,120.312516,0.8077868
C0Z180,新城,2025-04-12,24.040486,121.604878,5.6697487e-09
C0D540,橫山,2025-04-12,24.71116,121.11693,9.807155e-10
C1D420,太閣南,2025-04-12,24.632808,121.160575,7.8527425e-09
C1E770,公館,2025-04-12,24.526914,120.830806,5.392431e-10
CAN130,水試所海水繁養殖中心,2025-04-12,23.120802,120.07968,6.5242193e-07
C1I430,翠華,2025-04-12,24.191961,121.224339,1.0417529e-08
C1M400,菜瓜坪,2025-04-12,23.251928,120.576103,3.9968034e-10
C0G730,二林,2025-04-12,23.903325,120.376081,1.2527451e-09
72M360,南改義竹分場,2025-04-12,23.360694,120.279361,1.64539e-09
V2K620,麥寮合作社,2025-04-12,23.753836,120.294783,5.490822e-10
C0Z070,舞鶴,2025-04-12,23.46811,121.37407,7.780415e-10
C0B040,大武崙,2025-04-12,25.166676,121.706993,3.9342254e-09
C1Z030,紅葉,2025-04-12,23.493119,121.338806,6.361355e-10
C1I050,丹大,2025-04-12,23.753747,121.141147,1.1396028e-08
C0I080,信義,2025-04-12,23.689694,120.851036,2.6276212e-09
C0D750,樂山林道6k,2025-04-12,24.49999,121.08773,1.8987958e-08
C2M920,朴子農改,2025-04-12,23.469889,120.259383,9.65406e-10
C2A880,福隆,2025-04-12,25.017842,121.942083,2.2875242e-09
C0Z160,鳳林,2025-04-12,23.746114,121.453411,1.7072382e-09
C0UB80,翠峰林道6K,2025-04-12,24.49773,121.568625,2.5582395e-08
C0V210,復興,2025-04-12,23.222403,120.806089,2.0608393e-09
C0H990,昆陽,2025-04-12,24.121322,121.273642,2.1004128e-08
C0R741,獅子,2025-04-12,22.202308,120.705236,0.9983252
C0S710,鹿野,2025-04-12,22.917711,121.122994,7.168584e-10
C0I530,小奇萊,2025-04-12,24.131764,121.295717,2.1925356e-08
C0FA70,大雪山埡口,2025-04-12,24.26867,121.03062,3.0907092e-08
C2K630,荷苞,2025-04-12,23.657717,120.595144,1.1338611e-09
C0Z080,富源,2025-04-12,23.587642,121.378225,6.2418173e-09
C0SB10,美和,2025-04-12,22.682078,121.060236,6.9471355e-08
C2K620,馬光農場,2025-04-12,23.721453,120.378864,4.091577e-10
C1I140,卡奈托灣,2025-04-12,23.754364,121.087872,6.3430146e-09
C0I520,玉山風口,2025-04-12,23.470489,120.955994,2.8451558e-08
C1G691,下水埔,2025-04-12,23.816114,120.5676,4.892906e-10
C0X110,臺南市南區,2025-04-12,22.961189,120.188378,0.06784579
C0V680,仁武,2025-04-12,22.701083,120.347722,0.9937141
C2G840,北斗,2025-04-12,23.877586,120.514222,3.5257877e-10
C0R900,竹坑,2025-04-12,22.1385,120.7022,0.3601512
C0K250,崙背,2025-04-12,23.75555,120.318925,5.490822e-10
C0G860,社頭,2025-04-12,23.897647,120.5862,5.1768273e-10
C0X150,安定,2025-04-12,23.102614,120.227839,1.8628264e-06
C0R590,里港,2025-04-12,22.77919,120.49459,5.789948e-10
C0E610,馬都安,2025-04-12,24.451272,120.930192,1.5565943e-09
C0E550,明德,2025-04-12,24.583486,120.885411,6.432438e-10
C0R150,三地門,2025-04-12,22.709889,120.639944,2.7727867e-09
C0G910,花壇,2025-04-12,24.032076,120.549461,3.464683e-10
C1D400,鳥嘴山,2025-04-12,24.71909,121.28387,3.8004466e-09
C0K500,元長,2025-04-12,23.64981,120.315024,6.350105e-10
C0F0B0,石岡,2025-04-12,24.276061,120.777644,5.2089977e-10
C2V250,甲仙,2025-04-12,23.080106,120.591758,2.0659859e-10
C0SA20,金崙山,2025-04-12,22.567419,120.959667,1.674691e-08
C0V350,溪埔,2025-04-12,22.738578,120.446797,5.2463416e-09
C0M660,溪口,2025-04-12,23.604131,120.403569,5.842252e-10
C1S880,壽卡,2025-04-12,22.238911,120.858903,8.501856e-06
72D680,桃改新埔分場,2025-04-12,24.834444,121.066111,2.312737e-09
