站號,站名,日期,lat,lon,BlastGRU-TW
C0R710,龍磐,2025-07-23,21.931672,120.838942,0.99574846
C1F9D1,白毛台,2025-07-23,24.158325,120.886933,0.80101967
C0G940,竹塘,2025-07-23,23.848253,120.386764,0.048158508
467590,恆春,2025-07-23,22.003897,120.746339,0.99500656
C1O850,環湖,2025-07-23,23.148617,120.418633,0.041115507
C0U710,太平山,2025-07-23,24.505486,121.525656,0.52340907
C0E820,獅潭,2025-07-23,24.539133,120.920042,0.5922695
C0V880,興達,2025-07-23,22.8778,120.2127,0.02306952
C0S890,關山,2025-07-23,23.0395,121.175017,0.999934
C0SB30,新蘭,2025-07-23,22.869214,121.223228,0.9992142
C2R970,屏科大,2025-07-23,22.648275,120.619247,0.07500748
C1Z130,銅門,2025-07-23,23.965694,121.492842,0.9972656
C0AD40,土城,2025-07-23,24.973208,121.445169,0.14500213
CAN140,六官養殖協會,2025-07-23,23.22881,120.29962,0.018457402
C0X180,山上,2025-07-23,23.0757,120.363253,0.03606016
C0F9Z0,雪山東峰,2025-07-23,24.388792,121.268675,0.0020834843
C1M480,獨立山,2025-07-23,23.537022,120.607797,0.9214575
C0X220,學甲,2025-07-23,23.230367,120.182187,0.023476984
467650,日月潭,2025-07-23,23.881325,120.90805,0.9151328
C0K600,箔子寮,2025-07-23,23.6197,120.14,0.02949887
C0G830,埤頭,2025-07-23,23.866003,120.452806,0.0444967
C0S950,七塊厝,2025-07-23,22.954453,121.229922,0.99952215
467110,金門,2025-07-23,24.407306,118.289281,0.03273069
C0AH80,深坑,2025-07-23,25.002703,121.628328,0.1544681
C0A970,三貂角,2025-07-23,25.007606,122.002058,0.98162985
C2D730,寶山農場,2025-07-23,24.732444,120.976153,0.36075354
C0K430,褒忠,2025-07-23,23.690938,120.303634,0.14291382
467480,嘉義,2025-07-23,23.495925,120.432906,0.028898787
C0V400,阿公店,2025-07-23,22.804194,120.355528,0.11817722
C0E960,觀霧分站,2025-07-23,24.505781,121.113921,0.3291873
467550,玉山,2025-07-23,23.48718,120.95943,0.0021229025
C0R440,大漢山,2025-07-23,22.405264,120.753181,0.83996433
C0K280,四湖,2025-07-23,23.630414,120.227125,0.09370669
C1F9B1,桐林,2025-07-23,24.066172,120.735194,0.110890545
C2H9U0,鳳鵬,2025-07-23,23.763919,120.788061,0.53958756
C0K390,土庫,2025-07-23,23.679029,120.395574,0.12384329
C1I450,望鄉山,2025-07-23,23.594153,120.944286,0.0038825804
C0E910,海埔,2025-07-23,24.648767,120.772435,0.06635568
B2E890,畜試北區分所,2025-07-23,24.527806,120.770972,0.119180165
C0R750,四林格山,2025-07-23,22.076989,120.802439,0.9539439
C0F0C0,中坑,2025-07-23,24.248517,120.903319,0.8799894
C1I121,大鞍,2025-07-23,23.678381,120.760017,0.7407995
72U480,花改蘭陽分場,2025-07-23,24.686306,121.716583,0.9567172
C0A770,科教館,2025-07-23,25.096356,121.516507,0.1262123
C0AJ60,六塊厝,2025-07-23,25.24,121.4481,0.14856866
C0R620,墾雷,2025-07-23,21.900836,120.855269,0.99644935
467420,永康,2025-07-23,23.038386,120.2367,0.022608379
C0I410,名間,2025-07-23,23.837053,120.701447,0.08326092
A2C560,農工中心,2025-07-23,24.985917,121.239833,0.2568393
C0V740,旗山,2025-07-23,22.888614,120.483597,0.08603764
C0Z061,玉里,2025-07-23,23.3215,121.339656,0.99884945
C0S840,南田,2025-07-23,22.279725,120.889208,0.7411967
C1I470,杉林溪,2025-07-23,23.639517,120.786444,0.70310205
C1X040,東原,2025-07-23,23.291597,120.463822,0.047335234
C0R660,枋寮,2025-07-23,22.367722,120.590647,0.32003155
C1R120,上德文,2025-07-23,22.763272,120.704442,0.9801097
C0K450,大埤,2025-07-23,23.646074,120.431537,0.1225084
C0UA00,土場,2025-07-23,24.576533,121.495333,0.9217142
467080,宜蘭,2025-07-23,24.763975,121.756528,0.96006864
C0N030,四草,2025-07-23,23.0235,120.1116,0.022645714
467410,臺南,2025-07-23,22.99328,120.20492,0.025103211
C0V650,彌陀,2025-07-23,22.783806,120.246361,0.077286765
C0D660,新竹市東區,2025-07-23,24.798681,120.986942,0.08815736
82S580,茶改東部分場,2025-07-23,22.907694,121.130139,0.9998699
C0SB40,興隆,2025-07-23,22.913661,121.257469,0.9993665
467050,新屋,2025-07-23,25.006725,121.047492,0.20487279
C0C710,大溪永福,2025-07-23,24.892936,121.324975,0.1518384
C0FA20,溫寮,2025-07-23,24.372177,120.583125,0.078771695
C0V640,湖內,2025-07-23,22.887139,120.2445,0.023583418
C0R910,下寮,2025-07-23,22.3929,120.5548,0.31923953
C0Z020,明里,2025-07-23,23.208717,121.262342,0.99980634
C0M770,嘉義梅山,2025-07-23,23.585398,120.555587,0.2670668
C0C660,楊梅,2025-07-23,24.912375,121.143047,0.32599533
C1E511,新開,2025-07-23,24.347703,120.827019,0.14051117
G2F820,農試所(霧峰),2025-07-23,24.031261,120.688133,0.093642384
C1I070,和社,2025-07-23,23.591131,120.888861,0.81460875
C0TA80,立霧山,2025-07-23,24.183258,121.641899,0.95106965
C2F000,大肚,2025-07-23,24.15295,120.572117,0.16521765
C1S850,豐南,2025-07-23,23.122139,121.262389,0.9993123
C2A920,富貴角,2025-07-23,25.263783,121.565258,0.4603442
CAH030,茶改場竹圍站,2025-07-23,23.860083,120.637528,0.076378874
C0T960,光復,2025-07-23,23.660694,121.424964,0.9958796
C0F9M0,豐原,2025-07-23,24.254322,120.720692,0.3197644
C0R720,旭海,2025-07-23,22.205403,120.887614,0.58633727
C0V710,苓雅,2025-07-23,22.622742,120.330669,0.17040485
C0C740,觀音工業區,2025-07-23,25.064764,121.114856,0.22438076
CAC040,拉拉山,2025-07-23,24.699317,121.427133,0.26163045
C0V790,萬山,2025-07-23,22.905944,120.688056,0.07581978
U2HA30,臺大和社,2025-07-23,23.590856,120.888864,0.8146088
C0AJ90,澳底,2025-07-23,25.0552,121.9253,0.96286976
C0Z100,東華,2025-07-23,23.89525,121.549833,0.9954675
C0G970,三豐,2025-07-23,23.882,120.2895,0.08303177
V2K610,大庄合作社,2025-07-23,23.8068,120.367939,0.1029693
C0V900,汕尾,2025-07-23,22.4782,120.4151,0.107439466
C1R630,龍泉,2025-07-23,22.66701,120.59091,0.064335056
C1AC50,關渡,2025-07-23,25.133486,121.469331,0.17980771
C0C800,四稜,2025-07-23,24.64733,121.4293,0.75245076
C0F9I0,神岡,2025-07-23,24.272481,120.658314,0.27206132
C0K460,斗南,2025-07-23,23.678734,120.478359,0.12669957
C2O810,曾文,2025-07-23,23.219681,120.497328,0.025486534
467280,後龍,2025-07-23,24.648563,120.831834,0.08162589
C1F9J1,清水林,2025-07-23,24.071242,120.820419,0.7007462
C2A650,火燒寮,2025-07-23,25.002719,121.742892,0.99842745
466930,竹子湖,2025-07-23,25.162078,121.544547,0.85904384
C1I220,樟湖,2025-07-23,23.905333,120.846983,0.7594833
C0I390,仁愛,2025-07-23,24.022122,121.132206,0.8151363
C0Z300,東里,2025-07-23,23.26853,121.30547,0.99964666
C1V590,新發,2025-07-23,23.057019,120.646064,0.7422159
C0K510,水林,2025-07-23,23.572924,120.24597,0.04553362
72S590,東改賓朗果園,2025-07-23,22.813889,121.071278,0.99957263
82A750,茶改北部分場,2025-07-23,24.955778,121.631222,0.28634232
C1A750,石碇服務區,2025-07-23,25.00872,121.646242,0.20228462
C0X300,鹿寮,2025-07-23,23.386047,120.477331,0.050222404
G2AI50,關渡,2025-07-23,25.11575,121.492,0.22757311
C0K590,雲林東勢,2025-07-23,23.674192,120.255721,0.15486673
C0A570,桶後,2025-07-23,24.848222,121.597992,0.9676807
C1S800,華源,2025-07-23,22.657883,121.02325,0.999526
C0G720,溪州,2025-07-23,23.851589,120.499093,0.04736188
C1V160,達卡努瓦,2025-07-23,23.279811,120.705319,0.72216284
C2M410,馬頭山,2025-07-23,23.324361,120.582017,0.056953512
C0V850,蚵仔寮,2025-07-23,22.7256,120.2527,0.09095093
C0S740,池上,2025-07-23,23.119628,121.209469,0.9996257
C1V390,尖山,2025-07-23,22.813153,120.367789,0.12970573
C0AH70,松山,2025-07-23,25.04871,121.55042,0.12858391
C0N010,鯤鯓國小,2025-07-23,23.1879,120.0889,0.025213385
C0R550,新埤,2025-07-23,22.467947,120.582894,0.11777812
C0SA60,知本（水試所）,2025-07-23,22.702394,121.082761,0.99811023
C0T9I0,豐濱,2025-07-23,23.583897,121.514806,0.99560964
C0UB00,淡江大學蘭陽校園,2025-07-23,24.823239,121.730383,0.97548646
C0W240,九宮,2025-07-23,24.423753,118.240186,0.03255117
C0T9N0,富里,2025-07-23,23.171639,121.249378,0.99932355
U2HA50,臺大竹山,2025-07-23,23.756972,120.681556,0.2416762
C0V840,鳳鼻頭,2025-07-23,22.5083,120.3591,0.059759412
C0X140,西港,2025-07-23,23.125608,120.203108,0.019497436
72D080,桃改五峰分場,2025-07-23,24.612194,121.157167,0.91227126
C2H9P0,伊拿谷,2025-07-23,23.963211,121.088264,0.91211665
C2H9F0,柑林,2025-07-23,24.018658,120.847072,0.11277739
C0TA20,加灣,2025-07-23,24.082025,121.608944,0.9975223
C0V530,阿蓮,2025-07-23,22.883208,120.327508,0.0361137
C0FB30,八仙山苗圃,2025-07-23,24.192719,121.001366,0.8936329
C1O880,關山,2025-07-23,23.173397,120.594092,0.041512027
C0E791,卓蘭,2025-07-23,24.3126,120.8244,0.15369633
C1I030,武界,2025-07-23,23.913225,121.052483,0.89838856
C0R520,崁頂,2025-07-23,22.514781,120.506914,0.116165176
C0R341,牡丹,2025-07-23,22.130036,120.792639,0.7792295
C0R930,萬丹,2025-07-23,22.5885,120.4851,0.08500638
C0S760,紅石,2025-07-23,23.069131,121.126219,0.796546
C2C410,中央大學,2025-07-23,24.967652,121.185165,0.28386438
C1M610,石磐龍,2025-07-23,23.496606,120.663506,0.7851867
C0C790,東眼山,2025-07-23,24.8284,121.40888,0.9300016
C0UA10,鴛鴦湖,2025-07-23,24.590269,121.412228,0.3789788
V2C260,八德蔬果,2025-07-23,24.978508,121.281819,0.1718428
C0R800,丹路,2025-07-23,22.204481,120.750989,0.75662035
C0G920,永靖,2025-07-23,23.924703,120.547533,0.08624541
C2M950,太和,2025-07-23,23.538372,120.702961,0.6633393
C1A630,下盆,2025-07-23,24.771003,121.538622,0.80861664
B2N890,畜產試驗所,2025-07-23,23.058972,120.336406,0.02175296
C0UA30,白嶺,2025-07-23,24.527819,121.519031,0.68791795
C1V580,溪南(特生中心),2025-07-23,23.084972,120.788475,0.90312415
C1T970,大農,2025-07-23,23.615233,121.413331,0.9968441
C0R650,竹田,2025-07-23,22.58486,120.54344,0.26495665
C1H900,清流,2025-07-23,24.080775,120.962997,0.83022505
C1C510,水尾,2025-07-23,24.940081,121.087161,0.31298733
C0F9X0,大雅(中科園區),2025-07-23,24.21528,120.62445,0.17352162
C0SB60,白守蓮,2025-07-23,23.126769,121.401914,0.99109423
C0O970,虎頭埤,2025-07-23,23.021375,120.347878,0.047836434
C0C730,中大臨海站,2025-07-23,24.966126,121.008581,0.18082818
C0X250,新營,2025-07-23,23.310689,120.316681,0.019515261
C0V700,三民,2025-07-23,22.645017,120.311233,0.117648765
C0U870,大礁溪,2025-07-23,24.791042,121.675047,0.91990715
C0E870,高鐵苗栗,2025-07-23,24.60725,120.826094,0.078546405
A2K570,古坑花卉中心,2025-07-23,23.63353,120.55239,0.25016174
C0TA30,鹽寮,2025-07-23,23.845606,121.592664,0.99567604
C0M860,新美,2025-07-23,23.338017,120.683169,0.17666675
C1E701,八卦,2025-07-23,24.491756,120.927619,0.972478
C0I420,國姓,2025-07-23,24.037803,120.855072,0.13336724
C2D720,關西工作站,2025-07-23,24.757275,121.184792,0.4444793
C0S960,香蘭,2025-07-23,22.587569,120.993375,0.9024941
467620,蘭嶼,2025-07-23,22.0369,121.55843,0.9974891
C0R260,春日,2025-07-23,22.370361,120.628306,0.4111161
72G600,臺中農改場,2025-07-23,24.003028,120.534389,0.06482679
C0Z210,瑞穗,2025-07-23,23.5239,121.39021,0.9958355
C0M820,達邦,2025-07-23,23.453994,120.749517,0.8057002
C0V860,南寮,2025-07-23,22.7616,120.2339,0.09024499
C0G740,大城,2025-07-23,23.852487,120.320935,0.08645808
C0R920,塭仔,2025-07-23,22.4169,120.5197,0.3144425
C0R470,高樹,2025-07-23,22.826389,120.600806,0.035258897
C0R680,佳樂水,2025-07-23,21.993578,120.861633,0.9940135
C1O870,大棟山,2025-07-23,23.31157,120.52226,0.49039236
C0D360,梅花,2025-07-23,24.678347,121.208558,0.8894035
C0Z190,富世,2025-07-23,24.14743,121.6297,0.9961332
C0AI10,屈尺,2025-07-23,24.92184,121.54475,0.20597579
B2U990,畜試東區分所,2025-07-23,24.669039,121.832561,0.9612247
C0SB80,長濱漁港,2025-07-23,23.313644,121.459994,0.99305
C0TA50,和仁,2025-07-23,24.241394,121.712472,0.9962549
C0R240,來義,2025-07-23,22.527306,120.625111,0.15812929
C0V910,大樹,2025-07-23,22.684645,120.432803,0.020069677
C1R610,西大武山,2025-07-23,22.617719,120.7322,0.9179077
C0G900,線西,2025-07-23,24.143358,120.443536,0.07963642
C0M700,竹崎,2025-07-23,23.526178,120.555508,0.11843827
C2E880,三義,2025-07-23,24.405478,120.749819,0.48275134
C0C720,竹圍,2025-07-23,25.112692,121.239824,0.22837013
C0F9P0,清水,2025-07-23,24.312297,120.562242,0.089676775
C0Z150,吉安光華,2025-07-23,23.930925,121.595153,0.9958689
C0FA80,小雪山天池,2025-07-23,24.28025,121.02627,0.01102803
467300,東吉島,2025-07-23,23.25727,119.66762,0.84515274
C1D640,外坪(五指山),2025-07-23,24.644447,121.090961,0.971604
C0F9O0,潭子,2025-07-23,24.213106,120.703933,0.26836753
C2H9R0,卓社,2025-07-23,23.887894,121.000086,0.8372886
72T250,花蓮農改場,2025-07-23,23.975222,121.563889,0.9959666
C0E780,銅鑼,2025-07-23,24.489681,120.790853,0.22931771
C1T950,太安,2025-07-23,23.666719,121.370128,0.96523696
C0E830,苑裡,2025-07-23,24.439714,120.653053,0.0897949
467270,田中,2025-07-23,23.873803,120.581286,0.04800196
C0SA10,檳榔四格山,2025-07-23,22.810031,121.109308,0.9992887
C1T830,布洛灣,2025-07-23,24.17184,121.57127,0.98048353
C0F970,大坑,2025-07-23,24.173142,120.722289,0.22797881
C1U920,思源,2025-07-23,24.393125,121.347214,0.35064447
C0A931,三和,2025-07-23,25.233153,121.595236,0.44097817
C0I010,廬山,2025-07-23,24.033311,121.181808,0.6305757
C2M940,日野賀,2025-07-23,23.434056,120.727169,0.6979273
C0R860,鼻頭,2025-07-23,22.1043,120.8979,0.99412334
C0UB20,壯圍,2025-07-23,24.7359,121.8163,0.9385487
C0R790,九棚,2025-07-23,22.14195,120.889281,0.19731858
C0W110,東莒,2025-07-23,25.9652,119.98069,0.3734923
C1U930,粉鳥林,2025-07-23,24.497088,121.842479,0.99509627
C1I211,蘆竹湳,2025-07-23,23.934019,120.811994,0.4867759
C0S830,長濱,2025-07-23,23.286817,121.411975,0.99963135
C1F9F1,伯公龍,2025-07-23,24.272392,120.849047,0.41039616
C0UB90,太平山莊,2025-07-23,24.494171,121.536209,0.5019041
C0E810,西湖,2025-07-23,24.562947,120.7485,0.11284251
C1I440,新高口,2025-07-23,23.478744,120.878939,0.054164555
C0O840,王爺宮,2025-07-23,23.222064,120.40085,0.01775792
C0T9G0,鳳林山,2025-07-23,23.735269,121.420131,0.9643284
C0X080,佳里,2025-07-23,23.173039,120.145086,0.02516881
C0FB70,大甲溪埔,2025-07-23,24.370625,120.620067,0.09455579
C0Z310,清水斷崖,2025-07-23,24.218294,121.689142,0.99517983
C0M680,太保,2025-07-23,23.455062,120.331455,0.026702385
C1S820,金峰,2025-07-23,22.590969,120.933236,0.91100454
C0AD10,八里,2025-07-23,25.150211,121.403947,0.22901475
C2K240,草嶺,2025-07-23,23.59555,120.693461,0.8633167
C1SA70,都蘭,2025-07-23,22.87794,121.226881,0.9993725
C0K440,二崙,2025-07-23,23.772797,120.408944,0.054069813
C1A760,坪林交控,2025-07-23,24.94284,121.713442,0.9974046
C0F9N0,大里,2025-07-23,24.092464,120.701378,0.056636512
C0SA90,達仁林場,2025-07-23,22.264347,120.823972,0.9308587
C1R290,石門山,2025-07-23,22.112611,120.756597,0.9774786
42HA10,萬大發電廠,2025-07-23,23.978875,121.139639,0.7774315
C0R890,山海,2025-07-23,21.9878,120.7091,0.99474823
C0T9A0,月眉山,2025-07-23,23.809928,121.539828,0.9890132
C0AC70,信義,2025-07-23,25.037822,121.564597,0.12868583
C0K560,棋山,2025-07-23,23.68645,120.603417,0.26683715
C2FB50,出雲,2025-07-23,24.206469,120.902794,0.8224892
C1Z240,中平林道,2025-07-23,23.42115,121.26763,0.9445966
U2H480,溪頭,2025-07-23,23.670306,120.798194,0.94420564
C0M880,好美里,2025-07-23,23.3364,120.138,0.030067496
C0T9E0,大坑,2025-07-23,23.880628,121.581981,0.99541175
C0K530,臺西,2025-07-23,23.701547,120.197559,0.10008227
C1E900,國一N128K,2025-07-23,24.560997,120.844186,0.106577076
C0AJ50,水湳洞,2025-07-23,25.123695,121.862238,0.1762511
C0AI20,白沙灣,2025-07-23,25.283128,121.519058,0.16005772
C2V310,美濃,2025-07-23,22.898792,120.51907,0.08323594
C0A860,大坪,2025-07-23,25.165914,121.632969,0.2131338
C1U850,觀音海岸,2025-07-23,24.38319,121.77856,0.97239727
C2K610,草嶺石壁,2025-07-23,23.602469,120.707731,0.8569627
C0U950,鶯子嶺,2025-07-23,24.89754,121.79244,0.7961317
C0O900,善化,2025-07-23,23.112883,120.297219,0.020353943
C0K550,蔦松,2025-07-23,23.514319,120.229736,0.045211487
E2P980,林試六龜中心,2025-07-23,22.991703,120.645722,0.03830421
C0E590,通霄,2025-07-23,24.471892,120.704622,0.12485834
C1I310,西巒,2025-07-23,23.754486,120.883956,0.91776824
C0A550,泰平,2025-07-23,24.971197,121.823711,0.28441727
C0I360,水里,2025-07-23,23.812553,120.849792,0.08065187
C0R830,高士,2025-07-23,22.121825,120.836781,0.9731804
C1I101,溪頭,2025-07-23,23.661789,120.807647,0.71367925
C0AJ20,野柳,2025-07-23,25.20703,121.690021,0.12058442
C0B060,暖暖,2025-07-23,25.0957,121.7403,0.17916621
C1H920,長豐,2025-07-23,24.102039,120.879897,0.6422679
C0V360,內門,2025-07-23,22.975481,120.466769,0.037323717
C0R850,林邊,2025-07-23,22.4634,120.5339,0.11167866
C0E930,龍鳳,2025-07-23,24.700034,120.859125,0.08801162
C0U910,冬山,2025-07-23,24.63373,121.7937,0.9612247
C1E721,泰安,2025-07-23,24.489017,120.968036,0.6930882
82H320,茶改中部分場,2025-07-23,23.875611,120.913583,0.9531606
C0M750,布袋,2025-07-23,23.380878,120.167789,0.04384024
C1S860,利嘉,2025-07-23,22.809417,121.050528,0.9837851
E2S980,林試太麻里1,2025-07-23,22.598922,120.980044,0.9160888
C0X170,關廟,2025-07-23,22.963017,120.327797,0.046201434
C0V720,林園,2025-07-23,22.507747,120.394511,0.082170084
C1I510,線浸林道,2025-07-23,23.761508,120.832956,0.66739744
C0D690,外湖,2025-07-23,24.917735,120.968711,0.1639483
C0C750,新興坑尾,2025-07-23,25.0061,121.0971,0.27873924
B2Q810,畜試南區分所,2025-07-23,21.945583,120.802167,0.99398285
C0S790,金崙,2025-07-23,22.538122,120.966875,0.928055
C0AH90,福山植物園,2025-07-23,24.760717,121.58135,0.9479223
C0I540,奇萊稜線,2025-07-23,24.109231,121.326456,0.0031879265
C0M850,表湖,2025-07-23,23.24186,120.64166,0.48977754
C0S770,大溪山,2025-07-23,22.478475,120.943325,0.9802358
C0AG80,中和,2025-07-23,24.991622,121.491792,0.14509265
C0T790,大禹嶺,2025-07-23,24.186117,121.316086,0.0049963593
C0T9B0,水源,2025-07-23,23.991861,121.537169,0.94383913
C0R840,牡丹池山,2025-07-23,22.168389,120.841225,0.86395687
C1I131,桶頭,2025-07-23,23.641944,120.654117,0.2321646
CAL110,布袋國中,2025-07-23,23.35893,120.18026,0.034151062
467571,新竹,2025-07-23,24.827853,121.014219,0.06304303
C0Z290,赤柯山,2025-07-23,23.36893,121.38293,0.9883052
C0X280,將軍,2025-07-23,23.214999,120.13577,0.023277815
C0S690,太麻里,2025-07-23,22.60902,120.98533,0.991995
C0U880,北關,2025-07-23,24.9072,121.8734,0.20432776
C0G810,埔心,2025-07-23,23.947633,120.525456,0.083489746
C0U970,大福,2025-07-23,24.80064,121.81389,0.95233595
C2H9N0,仁愛東眼,2025-07-23,24.026875,121.1205,0.6492628
C1E670,南礦,2025-07-23,24.538278,121.002836,0.84719753
C0M520,東後寮,2025-07-23,23.369908,120.248065,0.034588803
C1E461,松安,2025-07-23,24.397972,120.986022,0.72516733
C2N160,西拉雅風管處,2025-07-23,23.189481,120.335297,0.021000523
C2M970,碧湖,2025-07-23,23.568632,120.624165,0.88305384
C0A640,石碇,2025-07-23,24.993969,121.662917,0.985271
E2S960,林試太麻里2,2025-07-23,22.598,120.99775,0.8991286
C0F9Y0,桃山,2025-07-23,24.432739,121.303808,0.0019426914
C1I020,萬大,2025-07-23,23.979817,121.132261,0.8101667
C0U940,羅東,2025-07-23,24.68184,121.74934,0.950226
C0M650,朴子,2025-07-23,23.43463,120.23902,0.034754984
C1I500,大尖山,2025-07-23,23.858572,120.994889,0.6993107
C0FB40,中橫21.6k,2025-07-23,24.2499,121.1455,0.70393044
C0G820,田尾,2025-07-23,23.901669,120.509389,0.084585324
E2K600,四湖植物園,2025-07-23,23.676986,120.163433,0.09451124
C0S730,綠島,2025-07-23,22.6672,121.47533,0.99822855
12Q970,東港工作站,2025-07-23,22.479997,120.466058,0.108550765
C0E430,南庄,2025-07-23,24.601775,121.000214,0.60904074
C1TA00,太魯閣,2025-07-23,24.15773,121.6236,0.99582654
466920,臺北,2025-07-23,25.037658,121.514853,0.12858391
C0R600,舊泰武,2025-07-23,22.588194,120.664944,0.9490388
C1I260,北坑,2025-07-23,23.9246,121.006903,0.59440595
466910,鞍部,2025-07-23,25.182586,121.529731,0.96162415
C1I230,九份二山,2025-07-23,23.961944,120.845,0.93755317
C2A660,瑞芳,2025-07-23,25.113169,121.801147,0.21100831
C0R270,琉球嶼,2025-07-23,22.332244,120.362236,0.30949312
C1T990,高寮,2025-07-23,23.394239,121.356808,0.997557
C0G620,芬園,2025-07-23,24.015678,120.6213,0.09831188
C1Z140,荖溪,2025-07-23,23.890575,121.45964,0.87983435
C1I201,中心崙,2025-07-23,23.728722,120.712097,0.94845885
C1I400,凌霄,2025-07-23,24.018778,121.004456,0.6488555
C1M640,十字,2025-07-23,23.492153,120.753683,0.7732686
G2P820,農試鳳山分所,2025-07-23,22.646611,120.356083,0.124098524
C0Z270,蕃薯寮,2025-07-23,23.73835,121.540108,0.9966218
C0FB10,出雲山苗圃,2025-07-23,24.23105,120.90475,0.8796124
C0F9Q0,外埔,2025-07-23,24.347817,120.705686,0.21061008
C0K580,高鐵雲林,2025-07-23,23.737456,120.417944,0.092477486
C2I090,鳳凰,2025-07-23,23.728081,120.787347,0.9571397
C0U990,員山,2025-07-23,24.74435,121.72247,0.94662994
C0V770,大社,2025-07-23,22.730306,120.346639,0.09668836
C0X120,麻豆,2025-07-23,23.183289,120.248611,0.016835907
C0C670,龍潭,2025-07-23,24.870056,121.221389,0.46248245
C0D680,香山濕地,2025-07-23,24.783581,120.914988,0.06660406
C0S980,勝林山,2025-07-23,22.430439,120.8938,0.98467326
C0V730,大寮,2025-07-23,22.605614,120.395717,0.25200856
C0R570,麟洛,2025-07-23,22.65078,120.52719,0.019128863
C2M930,石卓,2025-07-23,23.478744,120.702264,0.7757614
C0G9B0,和美,2025-07-23,24.105169,120.492131,0.07744149
CAG100,王功漁港,2025-07-23,23.96824,120.32586,0.0759724
C0X290,北門,2025-07-23,23.267772,120.125481,0.023182018
C2F930,大甲,2025-07-23,24.347667,120.640403,0.13872033
C0D650,湖口,2025-07-23,24.904794,121.043628,0.28623414
C0E420,竹南,2025-07-23,24.708978,120.888897,0.10985546
C0U780,五結,2025-07-23,24.68637,121.79794,0.9396588
C1I250,鯉潭,2025-07-23,23.961922,120.991131,0.82337344
C0R130,阿禮,2025-07-23,22.742908,120.743678,0.979195
C0X100,臺南市北區,2025-07-23,23.010394,120.194228,0.024081592
C0S920,金峰嘉蘭,2025-07-23,22.594789,120.960825,0.9171546
C0V490,新興,2025-07-23,22.627422,120.298803,0.16813976
C0F9K0,大安,2025-07-23,24.345061,120.588025,0.09076128
467290,古坑,2025-07-23,23.633639,120.551889,0.25016174
C2E970,八甲,2025-07-23,24.535811,120.795983,0.2780884
C0V440,鳳山,2025-07-23,22.646653,120.356122,0.124098524
C1T940,大觀,2025-07-23,23.714206,121.373133,0.99042356
C0E740,造橋,2025-07-23,24.637056,120.864778,0.07465645
C0R100,尾寮山,2025-07-23,22.833111,120.683889,0.9736521
A2K630,臺大雲林校區,2025-07-23,23.730628,120.423903,0.09299986
467990,馬祖,2025-07-23,26.169467,119.923158,0.060835913
C0D580,寶山,2025-07-23,24.735006,121.025192,0.36456698
E2P990,林試扇平站,2025-07-23,22.9677,120.6857,0.9102467
C0AI30,三重,2025-07-23,25.057328,121.500629,0.1262123
C0AH00,汐止,2025-07-23,25.066881,121.658778,0.12858382
C1Z040,立山,2025-07-23,23.443356,121.327375,0.99829924
466881,新北,2025-07-23,24.959207,121.525196,0.14971553
C0W130,花嶼,2025-07-23,23.40007,119.32276,0.7491092
C0A950,鼻頭角,2025-07-23,25.129036,121.923372,0.9632459
C0K470,林內,2025-07-23,23.748675,120.609642,0.17115045
C2F990,摩天嶺,2025-07-23,24.322458,120.936819,0.86776364
82C160,茶改場,2025-07-23,24.908472,121.185333,0.52305996
C0Z320,清水林道,2025-07-23,23.27125,121.188272,0.9937932
C0R760,南仁湖,2025-07-23,22.084681,120.863353,0.97725004
C0M670,大林,2025-07-23,23.600616,120.45841,0.0484928
C0M800,茶山,2025-07-23,23.299075,120.664767,0.0688471
C0A9C0,天母,2025-07-23,25.117494,121.537169,0.1298096
72K220,南改斗南分場,2025-07-23,23.634556,120.477333,0.12898423
72AI40,桃改樹林分場,2025-07-23,24.944503,121.386972,0.21386126
C0S910,蘭嶼燈塔,2025-07-23,22.081197,121.503117,0.99859756
C0B050,八斗子,2025-07-23,25.144754,121.79167,0.16845948
C0U900,內城,2025-07-23,24.71813,121.68766,0.9638145
C0X320,柳營,2025-07-23,23.253328,120.375253,0.027043803
C0M790,新港,2025-07-23,23.553269,120.345728,0.046558607
C0F9T0,西屯,2025-07-23,24.179494,120.641275,0.1122475
C0E950,松安,2025-07-23,24.39792,120.98599,0.72516733
C0SA30,都歷,2025-07-23,23.020333,121.323642,0.9997541
C0C620,蘆竹,2025-07-23,25.084275,121.265767,0.27663466
C0R730,大坪頂,2025-07-23,22.024633,120.69355,0.98357594
C0AJ40,石門,2025-07-23,25.273672,121.601198,0.35310516
C0E750,苗栗,2025-07-23,24.564569,120.824575,0.09961508
C0T870,鯉魚潭,2025-07-23,23.935639,121.508944,0.99644804
C1V170,排雲,2025-07-23,23.463619,120.954147,0.0033989535
C2H950,中寮,2025-07-23,23.884447,120.766406,0.15331294
C0R350,貓鼻頭,2025-07-23,21.921774,120.7358,0.99690247
C0V660,岡山,2025-07-23,22.797078,120.294958,0.07833127
C1H941,雙冬,2025-07-23,23.967378,120.802189,0.63509154
C0AJ70,田寮,2025-07-23,25.2698,121.4886,0.15575677
C0AI00,五股,2025-07-23,25.07445,121.42728,0.3814659
C0Z280,德武,2025-07-23,23.47426,121.41071,0.99892277
C0R700,枋山,2025-07-23,22.246844,120.661086,0.518087
C0C460,復興,2025-07-23,24.820208,121.352281,0.4722336
E2H360,蓮華池,2025-07-23,23.918333,120.885278,0.75663114
C0M640,中埔,2025-07-23,23.42538,120.5229,0.07682764
C0W140,金沙,2025-07-23,24.488292,118.408778,0.02870469
C2A540,四堵,2025-07-23,24.8926,121.745736,0.32232293
C0ACA0,新莊,2025-07-23,25.051478,121.446756,0.14655584
C0R220,潮州,2025-07-23,22.534361,120.54,0.11956699
U2HA40,臺大內茅埔,2025-07-23,23.689722,120.851117,0.880087
467490,臺中,2025-07-23,24.145736,120.684075,0.11296059
C0UB60,明池,2025-07-23,24.650688,121.475277,0.75263864
C0U960,翠峰湖,2025-07-23,24.510856,121.608044,0.46601915
E2HA20,林試畢祿溪站,2025-07-23,24.226944,121.308522,0.08871671
C0V890,前鎮,2025-07-23,22.5718,120.3117,0.16483328
C1F941,雪嶺,2025-07-23,24.280586,121.026642,0.01102803
C2H9E0,國姓南港,2025-07-23,23.911108,120.846556,0.7365469
C0AC80,文山,2025-07-23,25.00235,121.575728,0.15447421
C0F9R0,龍井,2025-07-23,24.184536,120.528972,0.09213276
C0M760,民雄,2025-07-23,23.551754,120.428457,0.047749884
C0UA40,西德山,2025-07-23,24.560647,121.752608,0.77876407
C1T920,中興,2025-07-23,23.769503,121.498653,0.9949037
C0D550,雪霸,2025-07-23,24.526972,121.11605,0.38874826
C2F860,梨山,2025-07-23,24.247522,121.243669,0.072528206
C0R320,車城,2025-07-23,22.0744,120.716247,0.99024755
C1S870,南美山,2025-07-23,23.15025,121.382333,0.9993055
C0B020,基隆嶼,2025-07-23,25.19141,121.78391,0.24676414
C1U501,牛鬥,2025-07-23,24.637836,121.573656,0.9964283
C0M730,嘉義市東區,2025-07-23,23.457673,120.460531,0.027517408
C0S700,知本,2025-07-23,22.684866,121.005642,0.97993386
C1N001,沙崙,2025-07-23,22.935472,120.309406,0.0443748
C0V760,橋頭,2025-07-23,22.757806,120.30575,0.09380052
C0G960,福寶,2025-07-23,24.0443,120.3814,0.07398036
C0X210,白河,2025-07-23,23.347466,120.414427,0.025155637
C0S810,東河,2025-07-23,22.972672,121.303986,0.9964884
C2R170,屏東,2025-07-23,22.66027,120.49403,0.019011602
C0R670,楓港,2025-07-23,22.190131,120.692156,0.12499543
C0FA50,霧峰,2025-07-23,24.0419,120.6995,0.096549645
C0UB10,蘇澳,2025-07-23,24.5969,121.8571,0.9943809
C0G950,防潮門,2025-07-23,24.1835,120.4871,0.090791814
C0M740,六腳,2025-07-23,23.492871,120.290625,0.035763968
C1R250,力里,2025-07-23,22.428117,120.629228,0.7934334
C0K330,虎尾,2025-07-23,23.719183,120.442036,0.09559656
C2FA00,烏石坑,2025-07-23,24.273503,120.947617,0.8757808
C0V620,永安,2025-07-23,22.82315,120.236856,0.077286765
C1I330,楓樹林,2025-07-23,23.986803,121.076117,0.6841815
C0W200,湖西,2025-07-23,23.596314,119.67275,0.57046926
72Q010,高雄農改場,2025-07-23,22.709333,120.525889,0.021833127
C0SA40,瑞和,2025-07-23,22.974361,121.156697,0.999908
C0C680,龜山,2025-07-23,25.02846,121.38656,0.98569715
C2V260,月眉,2025-07-23,22.971003,120.539853,0.035935905
C0V450,鳳森,2025-07-23,22.545064,120.392592,0.09768584
C0FA90,小雪山林道,2025-07-23,24.29515,121.03651,0.0046057864
C0U720,南山,2025-07-23,24.43742,121.38167,0.8294894
A2N290,臺南蘭花園區,2025-07-23,23.340258,120.379661,0.026027163
C0R560,新園,2025-07-23,22.5434,120.461558,0.082170084
C0U890,三星,2025-07-23,24.66812,121.65302,0.9794589
C1V300,御油山,2025-07-23,23.001983,120.715364,0.9212328
C0U600,礁溪,2025-07-23,24.817539,121.765608,0.970643
C1T980,龍澗,2025-07-23,24.023289,121.411328,0.9068891
C0D670,海天一線,2025-07-23,24.831986,120.914438,0.06855068
C0SA00,歷坵,2025-07-23,22.520969,120.89185,0.97876817
C0M710,東石,2025-07-23,23.458927,120.15385,0.046391483
C0M780,鹿草,2025-07-23,23.41134,120.30835,0.036138147
C0U520,雙連埤,2025-07-23,24.753033,121.641303,0.9174636
C0B010,七堵,2025-07-23,25.094819,121.71713,0.16315182
C0R480,長治,2025-07-23,22.693128,120.542622,0.02102742
C1V830,國三S383K,2025-07-23,22.781967,120.426475,0.025939934
12Q980,恆春工作站,2025-07-23,22.079678,120.714425,0.99022955
C1O940,東山服務區,2025-07-23,23.286016,120.398472,0.029022358
C1U840,東澳嶺,2025-07-23,24.5378,121.8485,0.94016147
C1D630,飛鳳山,2025-07-23,24.766464,121.119178,0.7276307
C0S940,石寧山,2025-07-23,23.223772,121.406639,0.9993541
C0K410,北港,2025-07-23,23.573957,120.292802,0.046184454
C2M620,瑞里,2025-07-23,23.545133,120.675197,0.71642834
C0SB70,小港漁港,2025-07-23,23.158558,121.400431,0.9887287
C2O950,安南,2025-07-23,23.076694,120.144861,0.029133948
C0F0E0,南湖圈谷,2025-07-23,24.363714,121.444667,0.0051729674
467610,成功,2025-07-23,23.097486,121.373428,0.9935012
C0G890,伸港,2025-07-23,24.148933,120.484403,0.08092694
C2E540,龍溪,2025-07-23,24.606489,120.783933,0.07382233
C1V200,梅山,2025-07-23,23.268447,120.823556,0.9100294
C0T9H0,加路蘭山,2025-07-23,23.682947,121.5274,0.9644742
C2O930,玉井,2025-07-23,23.126042,120.46055,0.04807942
C1F911,新伯公,2025-07-23,24.221361,120.841069,0.2204646
C0R490,九如,2025-07-23,22.7405,120.490503,0.02166065
C0X200,左鎮,2025-07-23,23.056758,120.408522,0.14052892
C0FA60,鞍馬山工作站,2025-07-23,24.267064,121.000793,0.08052727
C0SB50,叭嗡嗡,2025-07-23,23.047062,121.343223,0.9991014
C1F891,稍來,2025-07-23,24.265689,121.001142,0.10424453
72N240,七股研究中心,2025-07-23,23.081672,120.062894,0.027273929
C0C700,中壢,2025-07-23,24.977661,121.256375,0.20557094
C0M690,水上,2025-07-23,23.419734,120.388909,0.027791545
C0V690,鼓山,2025-07-23,22.623325,120.275575,0.16718708
C0O860,大內,2025-07-23,23.11885,120.36083,0.021423845
C0Z200,萬榮,2025-07-23,23.709219,121.420106,0.9973038
C0T9D0,和中,2025-07-23,24.26676,121.74103,0.99391824
C1O921,楠西,2025-07-23,23.183511,120.484083,0.045388877
C0AJ30,淡水觀海,2025-07-23,25.184591,121.408616,0.13912916
C0V810,左營,2025-07-23,22.67491,120.28491,0.117746636
C0UA70,桃源谷,2025-07-23,24.962606,121.888875,0.9418378
C0X130,官田,2025-07-23,23.193217,120.315422,0.020607736
C1H000,翠峰,2025-07-23,24.109397,121.205211,0.025173517
C0UA90,石城,2025-07-23,24.980444,121.951214,0.96350837
C1E681,南勢山,2025-07-23,24.421669,120.923831,0.91774786
C0A9F0,內湖,2025-07-23,25.079422,121.57545,0.12858391
C0K291,宜梧,2025-07-23,23.536281,120.169329,0.044776704
C1K540,口湖,2025-07-23,23.585344,120.180517,0.02935614
C0R780,滿州,2025-07-23,22.024403,120.839892,0.9949209
C0V870,文安,2025-07-23,22.8025,120.2164,0.07575925
C0U650,玉蘭,2025-07-23,24.675286,121.587061,0.9340795
C0R640,東港,2025-07-23,22.46247,120.44074,0.108283736
C0AJ80,板橋,2025-07-23,25.0107,121.4489,0.14282697
C0S660,下馬,2025-07-23,23.150427,121.070312,0.99277335
C1H9B1,阿眉,2025-07-23,24.1263,120.994672,0.4405849
C0UA20,多加屯,2025-07-23,24.368614,121.373189,0.009063333
C0E730,頭份,2025-07-23,24.688247,120.912206,0.10730444
72V140,高改旗南分場,2025-07-23,22.857861,120.516667,0.024367385
C0K480,莿桐,2025-07-23,23.761192,120.502372,0.06475823
C0U980,坪林石牌,2025-07-23,24.86478,121.77396,0.9151797
C0T900,西林,2025-07-23,23.8119,121.441458,0.9969496
C1I150,青雲,2025-07-23,23.793361,120.949378,0.32411087
467350,澎湖,2025-07-23,23.565503,119.563094,0.4392187
C0G800,埔鹽,2025-07-23,24.000394,120.431683,0.08762778
C0H960,草屯,2025-07-23,23.973672,120.68085,0.1051116
C1V780,多納林道,2025-07-23,22.888028,120.737917,0.9471214
C0E920,通霄漁港,2025-07-23,24.498589,120.673876,0.07647681
C0Z330,安通山,2025-07-23,23.290728,121.348528,0.99761665
C0AH10,永和,2025-07-23,25.01125,121.508111,0.14263947
C0AK10,太平里,2025-07-23,25.134937,121.364899,0.23391652
C2G640,鹿港,2025-07-23,24.0753,120.430481,0.074650966
C1E890,國三N149K,2025-07-23,24.463414,120.680019,0.15045646
C1R110,口社,2025-07-23,22.770111,120.645222,0.0846905
C1M870,國三N285K,2025-07-23,23.550319,120.505833,0.22727121
C1E480,鳳美,2025-07-23,24.554803,121.034747,0.88937074
C0M530,奮起湖,2025-07-23,23.493903,120.699253,0.6589548
C0C590,觀音,2025-07-23,25.027072,121.153317,0.3650901
C0T9M0,靜浦,2025-07-23,23.455167,121.495028,0.99593467
C2H9M0,發祥,2025-07-23,24.154094,121.164517,0.6069772
C0AI40,石牌,2025-07-23,25.115597,121.513139,0.12730855
C1F871,上谷關,2025-07-23,24.203483,121.018644,0.86507773
C2H9G0,百勝,2025-07-23,24.051142,120.909361,0.26774842
C0G880,二水,2025-07-23,23.810742,120.6173,0.08447555
C0R940,加祿堂,2025-07-23,22.3363,120.6217,0.28829923
C0W220,北竿,2025-07-23,26.220358,119.974881,0.028845424
C0O960,崎頂,2025-07-23,22.959547,120.369317,0.05648293
C0TA40,秀林,2025-07-23,24.302864,121.731144,0.9112453
C0S750,向陽,2025-07-23,23.248397,120.986133,0.112076275
C0T9F0,水璉,2025-07-23,23.797131,121.542514,0.9965625
C1M600,頭凍,2025-07-23,23.406364,120.603339,0.82893527
467660,臺東,2025-07-23,22.752211,121.154586,0.9966786
C1D380,新埔,2025-07-23,24.84745,121.03834,0.3523971
C2G980,田頭村,2025-07-23,23.8263,120.444175,0.053826895
C0V750,路竹,2025-07-23,22.854997,120.259439,0.074926555
C0N050,蚵寮,2025-07-23,23.301,120.1104,0.029986117
72M700,南改鹿草分場,2025-07-23,23.416869,120.283061,0.035050288
C1SA50,利嘉林道,2025-07-23,22.82325,121.009389,0.90550035
C0UB70,太平山中間站,2025-07-23,24.542003,121.513453,0.8699154
C0A940,金山,2025-07-23,25.223628,121.643967,0.12861383
C1V340,大津,2025-07-23,22.888322,120.645986,0.041422974
C0W180,七美,2025-07-23,23.219333,119.444892,0.9773112
C1F9C1,白冷,2025-07-23,24.182844,120.929889,0.7644304
K2E710,苗改生物防治研究中心,2025-07-23,24.422861,120.871833,0.82375467
C0N040,蘆竹溝,2025-07-23,23.2344,120.0961,0.023132497
C0D760,大坪苗圃,2025-07-23,24.5362,121.1108,0.7765771
C2W230,畜試所澎湖,2025-07-23,23.628342,119.513206,0.47447753
C0R880,後壁湖,2025-07-23,21.9457,120.7457,0.99475724
C1I280,埔中,2025-07-23,23.820778,120.642594,0.5729084
467790,墾丁雷達站,2025-07-23,21.948235,120.808028,0.99385
C0W190,望安,2025-07-23,23.380564,119.494075,0.83052886
C0Z170,卓溪,2025-07-23,23.3443,121.3029,0.99837303
C0F850,東勢,2025-07-23,24.246428,120.833047,0.20596056
466900,淡水,2025-07-23,25.164889,121.448906,0.23425068
C0I370,魚池,2025-07-23,23.895703,120.94135,0.8147997
C0C630,大溪,2025-07-23,24.882853,121.265547,0.36703426
C0A520,山佳,2025-07-23,24.974944,121.402008,0.16288747
C0I110,竹山,2025-07-23,23.761225,120.688156,0.11410243
82H840,茶改南部分場,2025-07-23,23.762528,120.7405,0.68707263
C0G660,溪湖,2025-07-23,23.94835,120.479122,0.0800641
C1T800,洛韶,2025-07-23,24.204558,121.453956,0.8952744
C1T810,慈恩,2025-07-23,24.192044,121.388386,0.36304143
C1E451,象鼻,2025-07-23,24.368617,120.940228,0.9112006
C0AC60,三峽,2025-07-23,24.939025,121.369728,0.115029156
C0I490,萬大林道,2025-07-23,23.928228,121.091411,0.6778011
C1I290,豐丘,2025-07-23,23.668178,120.887417,0.8772479
C1I320,奧萬大,2025-07-23,23.952956,121.178556,0.76239455
C2M910,嘉義大學,2025-07-23,23.471325,120.485903,0.053958055
C0U770,南澳,2025-07-23,24.44935,121.81022,0.99462306
C0A980,社子,2025-07-23,25.109508,121.469681,0.22482507
C0V800,六龜,2025-07-23,22.997889,120.633583,0.036742862
C1G9D0,國一S218K,2025-07-23,23.890641,120.493253,0.0757048
C0E570,白沙屯,2025-07-23,24.549447,120.696803,0.08481056
C2F9A0,中竹林,2025-07-23,24.103556,120.751061,0.4524743
C0FA40,臺中電廠,2025-07-23,24.2146,120.4907,0.09251715
C2G9A0,畜試所彰化,2025-07-23,23.86045,120.557964,0.047776673
C0H9C0,合歡山,2025-07-23,24.143442,121.272547,0.0022895618
C0X060,下營,2025-07-23,23.22695,120.256261,0.01831017
G2M350,農試溪口農場,2025-07-23,23.58565,120.408111,0.045017723
C0U860,頭城,2025-07-23,24.85323,121.8308,0.9652792
C0R580,南州,2025-07-23,22.48591,120.50274,0.108283736
C0D430,峨眉,2025-07-23,24.6905,121.017189,0.3745107
C0G780,秀水,2025-07-23,24.03405,120.503869,0.06421454
72N100,臺南農改場,2025-07-23,23.0605,120.342194,0.021926844
C0S900,蘭嶼高中,2025-07-23,22.04909,121.51214,0.9992329
C1F9W0,德基,2025-07-23,24.254783,121.190261,0.30567953
C1Z120,壽豐,2025-07-23,23.870853,121.508081,0.9954675
C0W160,烏坵,2025-07-23,24.9944,119.44956,0.83278704
C1I240,外大坪,2025-07-23,23.958697,120.917931,0.8259634
C1I550,國六W023K,2025-07-23,23.979067,120.867742,0.17945765
C0R870,興海,2025-07-23,21.9752,120.8439,0.99397403
C0R140,瑪家,2025-07-23,22.682903,120.686639,0.943364
C0A530,坪林,2025-07-23,24.938183,121.70975,0.9984469
C0X260,後壁,2025-07-23,23.366358,120.362326,0.019505838
C0Z230,和平,2025-07-23,24.30717,121.77007,0.99403715
C0G770,福興,2025-07-23,24.041289,120.437669,0.086663105
C0H9A0,神木村,2025-07-23,23.532742,120.843667,0.6932876
C0I460,南投,2025-07-23,23.911469,120.687331,0.08521643
C0I480,梅峰,2025-07-23,24.085272,121.173572,0.13379736
C1V570,吉東,2025-07-23,22.85422,120.5454,0.025350133
C2D740,屯原,2025-07-23,24.067969,121.209389,0.36198324
C2A560,福山,2025-07-23,24.776203,121.502811,0.3383832
C0AH30,五分山,2025-07-23,25.07125,121.780794,0.94158417
C0FA10,松柏,2025-07-23,24.429115,120.617482,0.07928205
72S200,東改班鳩分場,2025-07-23,22.829528,121.077694,0.999754
72HA00,中改埔里分場,2025-07-23,23.903208,120.963364,0.70484555
C2H9W0,大坪頂農水,2025-07-23,24.043122,120.932781,0.6457114
C0C650,平鎮,2025-07-23,24.897503,121.214636,0.4467871
C0S930,延平,2025-07-23,22.902581,121.084058,0.99985504
C0UA60,樟樹山,2025-07-23,24.41393,121.78325,0.922797
C1S670,摩天,2025-07-23,23.199503,121.027,0.76621825
C0V630,茄萣,2025-07-23,22.906642,120.182608,0.023117665
466940,基隆,2025-07-23,25.133314,121.740475,0.17080517
C0X050,東河,2025-07-23,23.296598,120.385608,0.027715156
C0R770,保力,2025-07-23,22.071122,120.764111,0.98836803
G2L020,農試嘉義分所,2025-07-23,23.485028,120.473806,0.087402664
C0X240,關子嶺,2025-07-23,23.331169,120.508025,0.11212976
C0I380,集集,2025-07-23,23.828206,120.801467,0.0752806
466990,花蓮,2025-07-23,23.975128,121.613275,0.9963296
C1V220,小關山,2025-07-23,23.154217,120.813603,0.747611
C1F9G1,慶福山,2025-07-23,24.180853,120.848378,0.923014
C0FB20,雪山橋,2025-07-23,24.23192,120.9786,0.19281022
C0Z250,瑞穗林道,2025-07-23,23.49284,121.30688,0.9557748
C0D590,新豐,2025-07-23,24.87068,120.97721,0.6763661
C0A870,五指山,2025-07-23,25.132153,121.608692,0.9289238
C0UA50,西帽山,2025-07-23,24.555361,121.802628,0.9358782
C0X160,仁德,2025-07-23,22.968258,120.257689,0.027508916
C1H971,六分寮,2025-07-23,23.92507,120.6378,0.38989338
C0W120,西嶼,2025-07-23,23.5626,119.468436,0.44156966
C0G650,員林,2025-07-23,23.946503,120.585597,0.06452298
C0AD50,鶯歌,2025-07-23,24.951533,121.346294,0.12890306
C2H9Q0,北東眼山,2025-07-23,24.120939,121.189303,0.31206754
C2H9T0,名間竹圍,2025-07-23,23.859914,120.637572,0.07668227
C0S990,山豬窟,2025-07-23,22.318619,120.857372,0.95967776
C0X190,安平,2025-07-23,22.993161,120.152181,0.024170414
C0K400,斗六,2025-07-23,23.720583,120.541127,0.09887257
12J990,口湖工作站,2025-07-23,23.589978,120.180394,0.02949887
C0O830,北寮,2025-07-23,23.079561,120.495008,0.029600734
C1D410,白蘭,2025-07-23,24.579364,121.079947,0.81469923
C0S970,加津林,2025-07-23,22.416211,120.926942,0.88313407
C0D700,關西,2025-07-23,24.7977,121.1732,0.32389897
C0M810,里佳,2025-07-23,23.389125,120.716647,0.65615726
C0U750,龜山島,2025-07-23,24.841667,121.953133,0.98672134
C0R810,內獅,2025-07-23,22.305064,120.642986,0.28553766
C1M390,龍美,2025-07-23,23.406728,120.654417,0.77146274
C2FB60,頭櫃山,2025-07-23,24.129842,120.858925,0.72697854
C1H840,國三N238K,2025-07-23,23.841008,120.707711,0.060716394
CAQ030,崎峰國小,2025-07-23,22.42565,120.49521,0.108283736
C2E520,大湖,2025-07-23,24.414939,120.870872,0.105482996
467530,阿里山,2025-07-23,23.508208,120.813242,0.12260748
C1E691,南湖,2025-07-23,24.40135,120.837533,0.9446114
C0FA30,梧棲,2025-07-23,24.256003,120.523381,0.08932823
C1V231,高中,2025-07-23,23.134911,120.716711,0.5221367
C0AK30,硬漢嶺,2025-07-23,25.136097,121.426372,0.7949196
C0F9V0,新社,2025-07-23,24.200172,120.815806,0.4782164
C0H890,埔里,2025-07-23,23.972169,120.952425,0.20429732
C0R690,墾丁,2025-07-23,21.966756,120.810269,0.9897549
C0F0D0,審馬陣,2025-07-23,24.381675,121.4203,0.0035302944
C2W030,金門農試所,2025-07-23,24.448431,118.451786,0.031819694
C0R820,白鷺,2025-07-23,22.454275,120.666219,0.94366145
C0FB00,大雪山,2025-07-23,24.254668,121.007374,0.09552513
C1V190,南天池,2025-07-23,23.27403,120.91176,0.03422353
C0E940,雪見,2025-07-23,24.42595,121.01347,0.33067712
K2E360,苗栗農改場,2025-07-23,24.495722,120.829111,0.16046952
CAJ050,海口故事園區,2025-07-23,23.57543,120.14121,0.029424807
C2H9D0,三隻寮,2025-07-23,24.093078,120.861578,0.65475124
C0O990,媽廟,2025-07-23,22.99175,120.293525,0.023302894
C0D480,打鐵坑,2025-07-23,24.849664,121.150789,0.46706334
C0Z220,和平林道,2025-07-23,24.343922,121.656317,0.9397575
C0TA10,花蓮漁港,2025-07-23,23.995322,121.638331,0.9965147
72C440,桃園農改場,2025-07-23,24.950944,121.030583,0.20741498
C1E711,馬拉邦山,2025-07-23,24.367306,120.901656,0.89534175
C0SB20,富岡,2025-07-23,22.792467,121.192669,0.99775374
C0D560,竹東,2025-07-23,24.767147,121.057881,0.33363095
C0F9U0,南屯,2025-07-23,24.137006,120.637969,0.07501857
C0M720,番路,2025-07-23,23.464657,120.554156,0.026478201
C0F0A0,雪山圈谷,2025-07-23,24.388594,121.236339,0.001262873
C1A9N0,四十份,2025-07-23,24.934158,121.593283,0.4130905
C0U760,東澳,2025-07-23,24.52196,121.83318,0.99455035
C0X230,鹽水,2025-07-23,23.272621,120.247641,0.030404935
C2H9H0,苗改南投蜂場,2025-07-23,23.852589,120.693481,0.07937284
C0R950,萬隆國小,2025-07-23,22.507667,120.587817,0.13210458
467540,大武,2025-07-23,22.35572,120.90374,0.86897737
C0V370,古亭坑,2025-07-23,22.893178,120.401947,0.12789105
C1I340,新興橋,2025-07-23,23.563333,120.868728,0.9168395
C0SA80,土坂,2025-07-23,22.453108,120.887572,0.95363617
C0R160,鹽埔,2025-07-23,22.739558,120.530778,0.022077568
C0AC40,大屯山,2025-07-23,25.175675,121.522408,0.8279155
466850,五分山雷達站,2025-07-23,25.071182,121.781205,0.9419983
C2H9L0,馬烈霸,2025-07-23,24.1512,121.201772,0.23710242
C1AI50,國三N016K,2025-07-23,25.034164,121.619664,0.13817672
C1V600,藤枝,2025-07-23,23.071961,120.757042,0.9276554
C1E601,南勢,2025-07-23,24.572486,120.734842,0.231467
C0O980,新市,2025-07-23,23.061614,120.298197,0.020515712
C0K420,西螺,2025-07-23,23.800407,120.467394,0.057265714
C0Z050,佳心,2025-07-23,23.34567,121.21316,0.988801
C0AD30,蘆洲,2025-07-23,25.086594,121.472331,0.12653916
C0V610,梓官,2025-07-23,22.760558,120.267211,0.093274
K2F750,種苗改良場,2025-07-23,24.225972,120.800917,0.32406154
C0UA80,大溪漁港,2025-07-23,24.941801,121.902955,0.9663833
C1AI60,國一39K邊坡,2025-07-23,25.064361,121.383836,0.9828843
C0W150,金寧,2025-07-23,24.457703,118.328989,0.03210811
C0R960,內埔,2025-07-23,22.608483,120.570714,0.27303553
V2C250,八德合作社,2025-07-23,24.93775,121.266389,0.24155672
C2H9S0,龍南,2025-07-23,23.953536,120.833183,0.8117948
C0AH40,平等,2025-07-23,25.129142,121.577086,0.33807957
C0R540,佳冬,2025-07-23,22.419456,120.552375,0.32408574
466950,彭佳嶼,2025-07-23,25.627975,122.079744,0.9928355
C0A890,雙溪,2025-07-23,25.036003,121.864242,0.3749487
C0C480,桃園,2025-07-23,24.992425,121.323172,0.16409911
C0AH50,林口,2025-07-23,25.072181,121.38084,0.9878945
A2K360,水試臺西試驗場,2025-07-23,23.717231,120.190522,0.098849446
C2M960,外寮,2025-07-23,23.562643,120.665688,0.8752012
C0F9S0,烏日,2025-07-23,24.107058,120.624103,0.073907755
C0C490,八德,2025-07-23,24.928708,121.283289,0.253394
C0R190,赤山,2025-07-23,22.592333,120.614306,0.28066432
C0T820,天祥,2025-07-23,24.179597,121.495639,0.9733791
C1F9E1,龍安,2025-07-23,24.1605,120.831961,0.7585187
C0V820,小林,2025-07-23,23.148408,120.63325,0.106344104
C2G870,芳苑,2025-07-23,23.922303,120.320025,0.07670161
C0E850,大河,2025-07-23,24.618069,120.948578,0.097143136
C1U670,寒溪,2025-07-23,24.634,121.71691,0.9838398
C0N020,城西,2025-07-23,23.0568,120.0956,0.02286314
C1Z110,三棧,2025-07-23,24.11557,121.60501,0.9575429
C0R280,檳榔,2025-07-23,22.076078,120.836777,0.98238796
C2H9J0,中台,2025-07-23,23.9996,120.938739,0.28423733
C0F9L0,后里,2025-07-23,24.310436,120.729725,0.12827772
467441,高雄,2025-07-23,22.730432,120.312516,0.09558355
C0Z180,新城,2025-07-23,24.040486,121.604878,0.99610984
C0D540,橫山,2025-07-23,24.71116,121.11693,0.56955355
C1D420,太閣南,2025-07-23,24.632808,121.160575,0.8242563
C1E770,公館,2025-07-23,24.526914,120.830806,0.119180165
CAN130,水試所海水繁養殖中心,2025-07-23,23.120802,120.07968,0.027436538
C1I430,翠華,2025-07-23,24.191961,121.224339,0.023570715
C1M400,菜瓜坪,2025-07-23,23.251928,120.576103,0.07080684
C0G730,二林,2025-07-23,23.903325,120.376081,0.07401354
72M360,南改義竹分場,2025-07-23,23.360694,120.279361,0.03485437
V2K620,麥寮合作社,2025-07-23,23.753836,120.294783,0.14153655
C0Z070,舞鶴,2025-07-23,23.46811,121.37407,0.9988309
C0B040,大武崙,2025-07-23,25.166676,121.706993,0.18214738
C1Z030,紅葉,2025-07-23,23.493119,121.338806,0.99790716
C1I050,丹大,2025-07-23,23.753747,121.141147,0.03743754
C0I080,信義,2025-07-23,23.689694,120.851036,0.880087
C0D750,樂山林道6k,2025-07-23,24.49999,121.08773,0.07995917
C2M920,朴子農改,2025-07-23,23.469889,120.259383,0.034400813
C2A880,福隆,2025-07-23,25.017842,121.942083,0.95893407
C0Z160,鳳林,2025-07-23,23.746114,121.453411,0.99634564
C0UB80,翠峰林道6K,2025-07-23,24.49773,121.568625,0.18481666
C0V210,復興,2025-07-23,23.222403,120.806089,0.85152197
C0H990,昆陽,2025-07-23,24.121322,121.273642,0.0049064257
C0R741,獅子,2025-07-23,22.202308,120.705236,0.5603791
C0S710,鹿野,2025-07-23,22.917711,121.122994,0.9996249
C0I530,小奇萊,2025-07-23,24.131764,121.295717,0.004477878
C0FA70,大雪山埡口,2025-07-23,24.26867,121.03062,0.011672677
C2K630,荷苞,2025-07-23,23.657717,120.595144,0.32368046
C0Z080,富源,2025-07-23,23.587642,121.378225,0.99736696
C0SB10,美和,2025-07-23,22.682078,121.060236,0.9981788
C2K620,馬光農場,2025-07-23,23.721453,120.378864,0.09013802
C1I140,卡奈托灣,2025-07-23,23.754364,121.087872,0.76738185
C0I520,玉山風口,2025-07-23,23.470489,120.955994,0.0028169213
C1G691,下水埔,2025-07-23,23.816114,120.5676,0.06982547
C0X110,臺南市南區,2025-07-23,22.961189,120.188378,0.027241131
C0V680,仁武,2025-07-23,22.701083,120.347722,0.11888268
C2G840,北斗,2025-07-23,23.877586,120.514222,0.07774722
C0R900,竹坑,2025-07-23,22.1385,120.7022,0.08574959
C0K250,崙背,2025-07-23,23.75555,120.318925,0.14333184
C0G860,社頭,2025-07-23,23.897647,120.5862,0.07094692
C0X150,安定,2025-07-23,23.102614,120.227839,0.020276375
C0R590,里港,2025-07-23,22.77919,120.49459,0.021373201
C0E610,馬都安,2025-07-23,24.451272,120.930192,0.94294083
C0E550,明德,2025-07-23,24.583486,120.885411,0.113418505
C0R150,三地門,2025-07-23,22.709889,120.639944,0.08323898
C0G910,花壇,2025-07-23,24.032076,120.549461,0.069875225
C1D400,鳥嘴山,2025-07-23,24.71909,121.28387,0.9479802
C0K500,元長,2025-07-23,23.64981,120.315024,0.15317489
C0F0B0,石岡,2025-07-23,24.276061,120.777644,0.1638708
C2V250,甲仙,2025-07-23,23.080106,120.591758,0.042745788
C0SA20,金崙山,2025-07-23,22.567419,120.959667,0.9841555
C0V350,溪埔,2025-07-23,22.738578,120.446797,0.01733053
C0M660,溪口,2025-07-23,23.604131,120.403569,0.045142632
C1S880,壽卡,2025-07-23,22.238911,120.858903,0.9312525
72D680,桃改新埔分場,2025-07-23,24.834444,121.066111,0.32283306
