站號,站名,日期,lat,lon,BlastGRU-TW
C0R710,龍磐,2025-08-21,21.931672,120.838942,0.38088128
C1F9D1,白毛台,2025-08-21,24.158325,120.886933,0.99674803
C0G940,竹塘,2025-08-21,23.848253,120.386764,0.98273
467590,恆春,2025-08-21,22.003897,120.746339,0.035272725
C1O850,環湖,2025-08-21,23.148617,120.418633,0.9875509
C0U710,太平山,2025-08-21,24.505486,121.525656,0.8352918
C0E820,獅潭,2025-08-21,24.539133,120.920042,0.7825518
C0V880,興達,2025-08-21,22.8778,120.2127,0.112702385
C0S890,關山,2025-08-21,23.0395,121.175017,0.06618677
C0SB30,新蘭,2025-08-21,22.869214,121.223228,0.034245335
C2R970,屏科大,2025-08-21,22.648275,120.619247,0.86439246
C1Z130,銅門,2025-08-21,23.965694,121.492842,0.5351987
C0AD40,土城,2025-08-21,24.973208,121.445169,0.053758502
CAN140,六官養殖協會,2025-08-21,23.22881,120.29962,0.85923946
C0X180,山上,2025-08-21,23.0757,120.363253,0.98876053
C0F9Z0,雪山東峰,2025-08-21,24.388792,121.268675,0.011932444
C1M480,獨立山,2025-08-21,23.537022,120.607797,0.99800664
C0X220,學甲,2025-08-21,23.230367,120.182187,0.96745116
467650,日月潭,2025-08-21,23.881325,120.90805,0.987395
C0K600,箔子寮,2025-08-21,23.6197,120.14,0.88158435
C0G830,埤頭,2025-08-21,23.866003,120.452806,0.9613165
C0S950,七塊厝,2025-08-21,22.954453,121.229922,0.91278654
467110,金門,2025-08-21,24.407306,118.289281,0.35873428
C0AH80,深坑,2025-08-21,25.002703,121.628328,0.056246873
C0A970,三貂角,2025-08-21,25.007606,122.002058,0.053349588
C2D730,寶山農場,2025-08-21,24.732444,120.976153,0.8321957
C0K430,褒忠,2025-08-21,23.690938,120.303634,0.9209597
467480,嘉義,2025-08-21,23.495925,120.432906,0.9786595
C0V400,阿公店,2025-08-21,22.804194,120.355528,0.9012593
C0E960,觀霧分站,2025-08-21,24.505781,121.113921,0.195934
467550,玉山,2025-08-21,23.48718,120.95943,0.004016476
C0R440,大漢山,2025-08-21,22.405264,120.753181,0.93083626
C0K280,四湖,2025-08-21,23.630414,120.227125,0.8838382
C1F9B1,桐林,2025-08-21,24.066172,120.735194,0.9990897
C2H9U0,鳳鵬,2025-08-21,23.763919,120.788061,0.9470554
C0K390,土庫,2025-08-21,23.679029,120.395574,0.86419606
C1I450,望鄉山,2025-08-21,23.594153,120.944286,0.009408242
C0E910,海埔,2025-08-21,24.648767,120.772435,0.89656234
B2E890,畜試北區分所,2025-08-21,24.527806,120.770972,0.68680054
C0R750,四林格山,2025-08-21,22.076989,120.802439,0.9973309
C0F0C0,中坑,2025-08-21,24.248517,120.903319,0.9953885
C1I121,大鞍,2025-08-21,23.678381,120.760017,0.9743009
72U480,花改蘭陽分場,2025-08-21,24.686306,121.716583,0.008990696
C0A770,科教館,2025-08-21,25.096356,121.516507,0.042032775
C0AJ60,六塊厝,2025-08-21,25.24,121.4481,0.13946159
C0R620,墾雷,2025-08-21,21.900836,120.855269,0.63767767
467420,永康,2025-08-21,23.038386,120.2367,0.56708497
C0I410,名間,2025-08-21,23.837053,120.701447,0.9886729
A2C560,農工中心,2025-08-21,24.985917,121.239833,0.458683
C0V740,旗山,2025-08-21,22.888614,120.483597,0.40335834
C0Z061,玉里,2025-08-21,23.3215,121.339656,0.025986472
C0S840,南田,2025-08-21,22.279725,120.889208,0.10765652
C1I470,杉林溪,2025-08-21,23.639517,120.786444,0.9596371
C1X040,東原,2025-08-21,23.291597,120.463822,0.9688698
C0R660,枋寮,2025-08-21,22.367722,120.590647,0.041708592
C1R120,上德文,2025-08-21,22.763272,120.704442,0.9968628
C0K450,大埤,2025-08-21,23.646074,120.431537,0.98658997
C0UA00,土場,2025-08-21,24.576533,121.495333,0.08918936
467080,宜蘭,2025-08-21,24.763975,121.756528,0.07484691
C0N030,四草,2025-08-21,23.0235,120.1116,0.56542367
467410,臺南,2025-08-21,22.99328,120.20492,0.5121765
C0V650,彌陀,2025-08-21,22.783806,120.246361,0.38180745
C0D660,新竹市東區,2025-08-21,24.798681,120.986942,0.80916095
82S580,茶改東部分場,2025-08-21,22.907694,121.130139,0.12273748
C0SB40,興隆,2025-08-21,22.913661,121.257469,0.037081983
467050,新屋,2025-08-21,25.006725,121.047492,0.88321054
C0C710,大溪永福,2025-08-21,24.892936,121.324975,0.12409708
C0FA20,溫寮,2025-08-21,24.372177,120.583125,0.7152301
C0V640,湖內,2025-08-21,22.887139,120.2445,0.11383462
C0R910,下寮,2025-08-21,22.3929,120.5548,0.0418411
C0Z020,明里,2025-08-21,23.208717,121.262342,0.13292158
C0M770,嘉義梅山,2025-08-21,23.585398,120.555587,0.9956945
C0C660,楊梅,2025-08-21,24.912375,121.143047,0.39408183
C1E511,新開,2025-08-21,24.347703,120.827019,0.9989131
G2F820,農試所(霧峰),2025-08-21,24.031261,120.688133,0.9981204
C1I070,和社,2025-08-21,23.591131,120.888861,0.99596274
C0TA80,立霧山,2025-08-21,24.183258,121.641899,0.98973763
C2F000,大肚,2025-08-21,24.15295,120.572117,0.9993953
C1S850,豐南,2025-08-21,23.122139,121.262389,0.9932526
C2A920,富貴角,2025-08-21,25.263783,121.565258,0.21878071
CAH030,茶改場竹圍站,2025-08-21,23.860083,120.637528,0.48975194
C0T960,光復,2025-08-21,23.660694,121.424964,0.10334652
C0F9M0,豐原,2025-08-21,24.254322,120.720692,0.9989792
C0R720,旭海,2025-08-21,22.205403,120.887614,0.14050946
C0V710,苓雅,2025-08-21,22.622742,120.330669,0.5285633
C0C740,觀音工業區,2025-08-21,25.064764,121.114856,0.9021591
CAC040,拉拉山,2025-08-21,24.699317,121.427133,0.70828325
C0V790,萬山,2025-08-21,22.905944,120.688056,0.9988858
U2HA30,臺大和社,2025-08-21,23.590856,120.888864,0.99596274
C0AJ90,澳底,2025-08-21,25.0552,121.9253,0.042936116
C0Z100,東華,2025-08-21,23.89525,121.549833,0.025020963
C0G970,三豐,2025-08-21,23.882,120.2895,0.9884238
V2K610,大庄合作社,2025-08-21,23.8068,120.367939,0.95753646
C0V900,汕尾,2025-08-21,22.4782,120.4151,0.9880785
C1R630,龍泉,2025-08-21,22.66701,120.59091,0.769508
C1AC50,關渡,2025-08-21,25.133486,121.469331,0.08704898
C0C800,四稜,2025-08-21,24.64733,121.4293,0.8903622
C0F9I0,神岡,2025-08-21,24.272481,120.658314,0.99381787
C0K460,斗南,2025-08-21,23.678734,120.478359,0.9873759
C2O810,曾文,2025-08-21,23.219681,120.497328,0.98811686
467280,後龍,2025-08-21,24.648563,120.831834,0.90739876
C1F9J1,清水林,2025-08-21,24.071242,120.820419,0.9968302
C2A650,火燒寮,2025-08-21,25.002719,121.742892,0.07753861
466930,竹子湖,2025-08-21,25.162078,121.544547,0.6780892
C1I220,樟湖,2025-08-21,23.905333,120.846983,0.96666116
C0I390,仁愛,2025-08-21,24.022122,121.132206,0.9673554
C0Z300,東里,2025-08-21,23.26853,121.30547,0.04143346
C1V590,新發,2025-08-21,23.057019,120.646064,0.99951446
C0K510,水林,2025-08-21,23.572924,120.24597,0.8778238
72S590,東改賓朗果園,2025-08-21,22.813889,121.071278,0.9301971
82A750,茶改北部分場,2025-08-21,24.955778,121.631222,0.069069155
C1A750,石碇服務區,2025-08-21,25.00872,121.646242,0.047365
C0X300,鹿寮,2025-08-21,23.386047,120.477331,0.9689876
G2AI50,關渡,2025-08-21,25.11575,121.492,0.1768219
C0K590,雲林東勢,2025-08-21,23.674192,120.255721,0.9001024
C0A570,桶後,2025-08-21,24.848222,121.597992,0.360861
C1S800,華源,2025-08-21,22.657883,121.02325,0.015944315
C0G720,溪州,2025-08-21,23.851589,120.499093,0.9629487
C1V160,達卡努瓦,2025-08-21,23.279811,120.705319,0.996933
C2M410,馬頭山,2025-08-21,23.324361,120.582017,0.98378336
C0V850,蚵仔寮,2025-08-21,22.7256,120.2527,0.9030798
C0S740,池上,2025-08-21,23.119628,121.209469,0.99806935
C1V390,尖山,2025-08-21,22.813153,120.367789,0.91275144
C0AH70,松山,2025-08-21,25.04871,121.55042,0.042375986
C0N010,鯤鯓國小,2025-08-21,23.1879,120.0889,0.91054195
C0R550,新埤,2025-08-21,22.467947,120.582894,0.9895265
C0SA60,知本（水試所）,2025-08-21,22.702394,121.082761,0.013565347
C0T9I0,豐濱,2025-08-21,23.583897,121.514806,0.055688836
C0UB00,淡江大學蘭陽校園,2025-08-21,24.823239,121.730383,0.465616
C0W240,九宮,2025-08-21,24.423753,118.240186,0.35070547
C0T9N0,富里,2025-08-21,23.171639,121.249378,0.9978363
U2HA50,臺大竹山,2025-08-21,23.756972,120.681556,0.9911246
C0V840,鳳鼻頭,2025-08-21,22.5083,120.3591,0.82739943
C0X140,西港,2025-08-21,23.125608,120.203108,0.7219071
72D080,桃改五峰分場,2025-08-21,24.612194,121.157167,0.88263756
C2H9P0,伊拿谷,2025-08-21,23.963211,121.088264,0.98856497
C2H9F0,柑林,2025-08-21,24.018658,120.847072,0.99821436
C0TA20,加灣,2025-08-21,24.082025,121.608944,0.9985121
C0V530,阿蓮,2025-08-21,22.883208,120.327508,0.71158385
C0FB30,八仙山苗圃,2025-08-21,24.192719,121.001366,0.9959483
C1O880,關山,2025-08-21,23.173397,120.594092,0.965965
C0E791,卓蘭,2025-08-21,24.3126,120.8244,0.99940175
C1I030,武界,2025-08-21,23.913225,121.052483,0.98653704
C0R520,崁頂,2025-08-21,22.514781,120.506914,0.9966743
C0R341,牡丹,2025-08-21,22.130036,120.792639,0.047011428
C0R930,萬丹,2025-08-21,22.5885,120.4851,0.8513638
C0S760,紅石,2025-08-21,23.069131,121.126219,0.9812523
C2C410,中央大學,2025-08-21,24.967652,121.185165,0.46775228
C1M610,石磐龍,2025-08-21,23.496606,120.663506,0.9925178
C0C790,東眼山,2025-08-21,24.8284,121.40888,0.97377867
C0UA10,鴛鴦湖,2025-08-21,24.590269,121.412228,0.9365559
V2C260,八德蔬果,2025-08-21,24.978508,121.281819,0.18958372
C0R800,丹路,2025-08-21,22.204481,120.750989,0.07656598
C0G920,永靖,2025-08-21,23.924703,120.547533,0.9681068
C2M950,太和,2025-08-21,23.538372,120.702961,0.975497
C1A630,下盆,2025-08-21,24.771003,121.538622,0.8302515
B2N890,畜產試驗所,2025-08-21,23.058972,120.336406,0.955851
C0UA30,白嶺,2025-08-21,24.527819,121.519031,0.92718977
C1V580,溪南(特生中心),2025-08-21,23.084972,120.788475,0.9937413
C1T970,大農,2025-08-21,23.615233,121.413331,0.07680593
C0R650,竹田,2025-08-21,22.58486,120.54344,0.9810436
C1H900,清流,2025-08-21,24.080775,120.962997,0.9923004
C1C510,水尾,2025-08-21,24.940081,121.087161,0.9104672
C0F9X0,大雅(中科園區),2025-08-21,24.21528,120.62445,0.9967139
C0SB60,白守蓮,2025-08-21,23.126769,121.401914,0.027105557
C0O970,虎頭埤,2025-08-21,23.021375,120.347878,0.9672334
C0C730,中大臨海站,2025-08-21,24.966126,121.008581,0.8730542
C0X250,新營,2025-08-21,23.310689,120.316681,0.87752473
C0V700,三民,2025-08-21,22.645017,120.311233,0.35506067
C0U870,大礁溪,2025-08-21,24.791042,121.675047,0.4397454
C0E870,高鐵苗栗,2025-08-21,24.60725,120.826094,0.91897404
A2K570,古坑花卉中心,2025-08-21,23.63353,120.55239,0.97902226
C0TA30,鹽寮,2025-08-21,23.845606,121.592664,0.023047145
C0M860,新美,2025-08-21,23.338017,120.683169,0.9963053
C1E701,八卦,2025-08-21,24.491756,120.927619,0.99084806
C0I420,國姓,2025-08-21,24.037803,120.855072,0.99873537
C2D720,關西工作站,2025-08-21,24.757275,121.184792,0.4449045
C0S960,香蘭,2025-08-21,22.587569,120.993375,0.009011192
467620,蘭嶼,2025-08-21,22.0369,121.55843,0.9996864
C0R260,春日,2025-08-21,22.370361,120.628306,0.0416207
72G600,臺中農改場,2025-08-21,24.003028,120.534389,0.95479894
C0Z210,瑞穗,2025-08-21,23.5239,121.39021,0.03190468
C0M820,達邦,2025-08-21,23.453994,120.749517,0.99198645
C0V860,南寮,2025-08-21,22.7616,120.2339,0.9035976
C0G740,大城,2025-08-21,23.852487,120.320935,0.98881084
C0R920,塭仔,2025-08-21,22.4169,120.5197,0.041617297
C0R470,高樹,2025-08-21,22.826389,120.600806,0.91992664
C0R680,佳樂水,2025-08-21,21.993578,120.861633,0.042299706
C1O870,大棟山,2025-08-21,23.31157,120.52226,0.98550767
C0D360,梅花,2025-08-21,24.678347,121.208558,0.54135954
C0Z190,富世,2025-08-21,24.14743,121.6297,0.988377
C0AI10,屈尺,2025-08-21,24.92184,121.54475,0.050746147
B2U990,畜試東區分所,2025-08-21,24.669039,121.832561,0.047934484
C0SB80,長濱漁港,2025-08-21,23.313644,121.459994,0.015748518
C0TA50,和仁,2025-08-21,24.241394,121.712472,0.976318
C0R240,來義,2025-08-21,22.527306,120.625111,0.9975227
C0V910,大樹,2025-08-21,22.684645,120.432803,0.9763734
C1R610,西大武山,2025-08-21,22.617719,120.7322,0.8313505
C0G900,線西,2025-08-21,24.143358,120.443536,0.9736351
C0M700,竹崎,2025-08-21,23.526178,120.555508,0.98824733
C2E880,三義,2025-08-21,24.405478,120.749819,0.9993746
C0C720,竹圍,2025-08-21,25.112692,121.239824,0.17701538
C0F9P0,清水,2025-08-21,24.312297,120.562242,0.8623609
C0Z150,吉安光華,2025-08-21,23.930925,121.595153,0.020735145
C0FA80,小雪山天池,2025-08-21,24.28025,121.02627,0.18660475
467300,東吉島,2025-08-21,23.25727,119.66762,0.9997394
C1D640,外坪(五指山),2025-08-21,24.644447,121.090961,0.9682096
C0F9O0,潭子,2025-08-21,24.213106,120.703933,0.9990206
C2H9R0,卓社,2025-08-21,23.887894,121.000086,0.94413304
72T250,花蓮農改場,2025-08-21,23.975222,121.563889,0.053297717
C0E780,銅鑼,2025-08-21,24.489681,120.790853,0.8009523
C1T950,太安,2025-08-21,23.666719,121.370128,0.9849943
C0E830,苑裡,2025-08-21,24.439714,120.653053,0.735414
467270,田中,2025-08-21,23.873803,120.581286,0.9927956
C0SA10,檳榔四格山,2025-08-21,22.810031,121.109308,0.99273175
C1T830,布洛灣,2025-08-21,24.17184,121.57127,0.024155542
C0F970,大坑,2025-08-21,24.173142,120.722289,0.99910265
C1U920,思源,2025-08-21,24.393125,121.347214,0.8009766
C0A931,三和,2025-08-21,25.233153,121.595236,0.0728171
C0I010,廬山,2025-08-21,24.033311,121.181808,0.9209396
C2M940,日野賀,2025-08-21,23.434056,120.727169,0.98359466
C0R860,鼻頭,2025-08-21,22.1043,120.8979,0.034951128
C0UB20,壯圍,2025-08-21,24.7359,121.8163,0.009127875
C0R790,九棚,2025-08-21,22.14195,120.889281,0.043746833
C0W110,東莒,2025-08-21,25.9652,119.98069,0.9682496
C1U930,粉鳥林,2025-08-21,24.497088,121.842479,0.007338584
C1I211,蘆竹湳,2025-08-21,23.934019,120.811994,0.98973286
C0S830,長濱,2025-08-21,23.286817,121.411975,0.09584433
C1F9F1,伯公龍,2025-08-21,24.272392,120.849047,0.9973647
C0UB90,太平山莊,2025-08-21,24.494171,121.536209,0.82500726
C0E810,西湖,2025-08-21,24.562947,120.7485,0.86436343
C1I440,新高口,2025-08-21,23.478744,120.878939,0.422594
C0O840,王爺宮,2025-08-21,23.222064,120.40085,0.9899
C0T9G0,鳳林山,2025-08-21,23.735269,121.420131,0.991931
C0X080,佳里,2025-08-21,23.173039,120.145086,0.910488
C0FB70,大甲溪埔,2025-08-21,24.370625,120.620067,0.744537
C0Z310,清水斷崖,2025-08-21,24.218294,121.689142,0.99885166
C0M680,太保,2025-08-21,23.455062,120.331455,0.95421576
C1S820,金峰,2025-08-21,22.590969,120.933236,0.010479816
C0AD10,八里,2025-08-21,25.150211,121.403947,0.1770298
C2K240,草嶺,2025-08-21,23.59555,120.693461,0.9943366
C1SA70,都蘭,2025-08-21,22.87794,121.226881,0.03711625
C0K440,二崙,2025-08-21,23.772797,120.408944,0.91671103
C1A760,坪林交控,2025-08-21,24.94284,121.713442,0.107423276
C0F9N0,大里,2025-08-21,24.092464,120.701378,0.99882823
C0SA90,達仁林場,2025-08-21,22.264347,120.823972,0.9953741
C1R290,石門山,2025-08-21,22.112611,120.756597,0.23343514
42HA10,萬大發電廠,2025-08-21,23.978875,121.139639,0.9909399
C0R890,山海,2025-08-21,21.9878,120.7091,0.028585035
C0T9A0,月眉山,2025-08-21,23.809928,121.539828,0.9955124
C0AC70,信義,2025-08-21,25.037822,121.564597,0.042359114
C0K560,棋山,2025-08-21,23.68645,120.603417,0.982467
C2FB50,出雲,2025-08-21,24.206469,120.902794,0.9933659
C1Z240,中平林道,2025-08-21,23.42115,121.26763,0.98778343
U2H480,溪頭,2025-08-21,23.670306,120.798194,0.96747947
C0M880,好美里,2025-08-21,23.3364,120.138,0.9834657
C0T9E0,大坑,2025-08-21,23.880628,121.581981,0.9932883
C0K530,臺西,2025-08-21,23.701547,120.197559,0.9527769
C1E900,國一N128K,2025-08-21,24.560997,120.844186,0.80487156
C0AJ50,水湳洞,2025-08-21,25.123695,121.862238,0.042886954
C0AI20,白沙灣,2025-08-21,25.283128,121.519058,0.14368801
C2V310,美濃,2025-08-21,22.898792,120.51907,0.40516827
C0A860,大坪,2025-08-21,25.165914,121.632969,0.13162434
C1U850,觀音海岸,2025-08-21,24.38319,121.77856,0.9843321
C2K610,草嶺石壁,2025-08-21,23.602469,120.707731,0.99371624
C0U950,鶯子嶺,2025-08-21,24.89754,121.79244,0.96875364
C0O900,善化,2025-08-21,23.112883,120.297219,0.95075625
C0K550,蔦松,2025-08-21,23.514319,120.229736,0.9528711
E2P980,林試六龜中心,2025-08-21,22.991703,120.645722,0.9936683
C0E590,通霄,2025-08-21,24.471892,120.704622,0.76640576
C1I310,西巒,2025-08-21,23.754486,120.883956,0.99042344
C0A550,泰平,2025-08-21,24.971197,121.823711,0.5587131
C0I360,水里,2025-08-21,23.812553,120.849792,0.7174369
C0R830,高士,2025-08-21,22.121825,120.836781,0.60365176
C1I101,溪頭,2025-08-21,23.661789,120.807647,0.85341036
C0AJ20,野柳,2025-08-21,25.20703,121.690021,0.051871035
C0B060,暖暖,2025-08-21,25.0957,121.7403,0.037486307
C1H920,長豐,2025-08-21,24.102039,120.879897,0.9960158
C0V360,內門,2025-08-21,22.975481,120.466769,0.61573184
C0R850,林邊,2025-08-21,22.4634,120.5339,0.9885514
C0E930,龍鳳,2025-08-21,24.700034,120.859125,0.94764405
C0U910,冬山,2025-08-21,24.63373,121.7937,0.047934476
C1E721,泰安,2025-08-21,24.489017,120.968036,0.80771714
82H320,茶改中部分場,2025-08-21,23.875611,120.913583,0.99521303
C0M750,布袋,2025-08-21,23.380878,120.167789,0.950245
C1S860,利嘉,2025-08-21,22.809417,121.050528,0.99544346
E2S980,林試太麻里1,2025-08-21,22.598922,120.980044,0.009178595
C0X170,關廟,2025-08-21,22.963017,120.327797,0.8625317
C0V720,林園,2025-08-21,22.507747,120.394511,0.8535784
C1I510,線浸林道,2025-08-21,23.761508,120.832956,0.98068494
C0D690,外湖,2025-08-21,24.917735,120.968711,0.85271335
C0C750,新興坑尾,2025-08-21,25.0061,121.0971,0.9049648
B2Q810,畜試南區分所,2025-08-21,21.945583,120.802167,0.041391104
C0S790,金崙,2025-08-21,22.538122,120.966875,0.012193077
C0AH90,福山植物園,2025-08-21,24.760717,121.58135,0.9927019
C0I540,奇萊稜線,2025-08-21,24.109231,121.326456,0.007194514
C0M850,表湖,2025-08-21,23.24186,120.64166,0.9993567
C0S770,大溪山,2025-08-21,22.478475,120.943325,0.94555414
C0AG80,中和,2025-08-21,24.991622,121.491792,0.053733308
C0T790,大禹嶺,2025-08-21,24.186117,121.316086,0.041743305
C0T9B0,水源,2025-08-21,23.991861,121.537169,0.98608345
C0R840,牡丹池山,2025-08-21,22.168389,120.841225,0.9779394
C1I131,桶頭,2025-08-21,23.641944,120.654117,0.99774003
CAL110,布袋國中,2025-08-21,23.35893,120.18026,0.9514069
467571,新竹,2025-08-21,24.827853,121.014219,0.83884704
C0Z290,赤柯山,2025-08-21,23.36893,121.38293,0.9666862
C0X280,將軍,2025-08-21,23.214999,120.13577,0.9661724
C0S690,太麻里,2025-08-21,22.60902,120.98533,0.9920617
C0U880,北關,2025-08-21,24.9072,121.8734,0.033613235
C0G810,埔心,2025-08-21,23.947633,120.525456,0.96826464
C0U970,大福,2025-08-21,24.80064,121.81389,0.07284579
C2H9N0,仁愛東眼,2025-08-21,24.026875,121.1205,0.9326512
C1E670,南礦,2025-08-21,24.538278,121.002836,0.9434775
C0M520,東後寮,2025-08-21,23.369908,120.248065,0.9535042
C1E461,松安,2025-08-21,24.397972,120.986022,0.93225074
C2N160,西拉雅風管處,2025-08-21,23.189481,120.335297,0.9821527
C2M970,碧湖,2025-08-21,23.568632,120.624165,0.99597406
C0A640,石碇,2025-08-21,24.993969,121.662917,0.067737505
E2S960,林試太麻里2,2025-08-21,22.598,120.99775,0.009004424
C0F9Y0,桃山,2025-08-21,24.432739,121.303808,0.005981597
C1I020,萬大,2025-08-21,23.979817,121.132261,0.96656185
C0U940,羅東,2025-08-21,24.68184,121.74934,0.009055098
C0M650,朴子,2025-08-21,23.43463,120.23902,0.9613084
C1I500,大尖山,2025-08-21,23.858572,120.994889,0.22071123
C0FB40,中橫21.6k,2025-08-21,24.2499,121.1455,0.9843975
C0G820,田尾,2025-08-21,23.901669,120.509389,0.9682155
E2K600,四湖植物園,2025-08-21,23.676986,120.163433,0.88439846
C0S730,綠島,2025-08-21,22.6672,121.47533,0.8880551
12Q970,東港工作站,2025-08-21,22.479997,120.466058,0.98799
C0E430,南庄,2025-08-21,24.601775,121.000214,0.7925563
C1TA00,太魯閣,2025-08-21,24.15773,121.6236,0.9970824
466920,臺北,2025-08-21,25.037658,121.514853,0.042375986
C0R600,舊泰武,2025-08-21,22.588194,120.664944,0.99705935
C1I260,北坑,2025-08-21,23.9246,121.006903,0.99213135
466910,鞍部,2025-08-21,25.182586,121.529731,0.74544275
C1I230,九份二山,2025-08-21,23.961944,120.845,0.9922148
C2A660,瑞芳,2025-08-21,25.113169,121.801147,0.046392772
C0R270,琉球嶼,2025-08-21,22.332244,120.362236,0.9653731
C1T990,高寮,2025-08-21,23.394239,121.356808,0.03313671
C0G620,芬園,2025-08-21,24.015678,120.6213,0.9980722
C1Z140,荖溪,2025-08-21,23.890575,121.45964,0.9931017
C1I201,中心崙,2025-08-21,23.728722,120.712097,0.9979584
C1I400,凌霄,2025-08-21,24.018778,121.004456,0.93557894
C1M640,十字,2025-08-21,23.492153,120.753683,0.9840181
G2P820,農試鳳山分所,2025-08-21,22.646611,120.356083,0.36716276
C0Z270,蕃薯寮,2025-08-21,23.73835,121.540108,0.66491157
C0FB10,出雲山苗圃,2025-08-21,24.23105,120.90475,0.99537146
C0F9Q0,外埔,2025-08-21,24.347817,120.705686,0.8497964
C0K580,高鐵雲林,2025-08-21,23.737456,120.417944,0.85015154
C2I090,鳳凰,2025-08-21,23.728081,120.787347,0.98243165
C0U990,員山,2025-08-21,24.74435,121.72247,0.009054841
C0V770,大社,2025-08-21,22.730306,120.346639,0.90739346
C0X120,麻豆,2025-08-21,23.183289,120.248611,0.7924637
C0C670,龍潭,2025-08-21,24.870056,121.221389,0.25732112
C0D680,香山濕地,2025-08-21,24.783581,120.914988,0.76509637
C0S980,勝林山,2025-08-21,22.430439,120.8938,0.9938776
C0V730,大寮,2025-08-21,22.605614,120.395717,0.50096196
C0R570,麟洛,2025-08-21,22.65078,120.52719,0.78100526
C2M930,石卓,2025-08-21,23.478744,120.702264,0.98519367
C0G9B0,和美,2025-08-21,24.105169,120.492131,0.9833391
CAG100,王功漁港,2025-08-21,23.96824,120.32586,0.9915807
C0X290,北門,2025-08-21,23.267772,120.125481,0.9661146
C2F930,大甲,2025-08-21,24.347667,120.640403,0.8198229
C0D650,湖口,2025-08-21,24.904794,121.043628,0.9055672
C0E420,竹南,2025-08-21,24.708978,120.888897,0.9551855
C0U780,五結,2025-08-21,24.68637,121.79794,0.009106066
C1I250,鯉潭,2025-08-21,23.961922,120.991131,0.99390244
C0R130,阿禮,2025-08-21,22.742908,120.743678,0.9941512
C0X100,臺南市北區,2025-08-21,23.010394,120.194228,0.49551293
C0S920,金峰嘉蘭,2025-08-21,22.594789,120.960825,0.009235238
C0V490,新興,2025-08-21,22.627422,120.298803,0.5319502
C0F9K0,大安,2025-08-21,24.345061,120.588025,0.73305374
467290,古坑,2025-08-21,23.633639,120.551889,0.97902226
C2E970,八甲,2025-08-21,24.535811,120.795983,0.8875247
C0V440,鳳山,2025-08-21,22.646653,120.356122,0.36716276
C1T940,大觀,2025-08-21,23.714206,121.373133,0.9916025
C0E740,造橋,2025-08-21,24.637056,120.864778,0.9036626
C0R100,尾寮山,2025-08-21,22.833111,120.683889,0.9931098
A2K630,臺大雲林校區,2025-08-21,23.730628,120.423903,0.85022086
467990,馬祖,2025-08-21,26.169467,119.923158,0.8975457
C0D580,寶山,2025-08-21,24.735006,121.025192,0.27210557
E2P990,林試扇平站,2025-08-21,22.9677,120.6857,0.99677813
C0AI30,三重,2025-08-21,25.057328,121.500629,0.042032775
C0AH00,汐止,2025-08-21,25.066881,121.658778,0.042375986
C1Z040,立山,2025-08-21,23.443356,121.327375,0.9616035
466881,新北,2025-08-21,24.959207,121.525196,0.054947652
C0W130,花嶼,2025-08-21,23.40007,119.32276,0.99614275
C0A950,鼻頭角,2025-08-21,25.129036,121.923372,0.045931783
C0K470,林內,2025-08-21,23.748675,120.609642,0.9822051
C2F990,摩天嶺,2025-08-21,24.322458,120.936819,0.99500775
82C160,茶改場,2025-08-21,24.908472,121.185333,0.4647051
C0Z320,清水林道,2025-08-21,23.27125,121.188272,0.9851576
C0R760,南仁湖,2025-08-21,22.084681,120.863353,0.2374981
C0M670,大林,2025-08-21,23.600616,120.45841,0.98963344
C0M800,茶山,2025-08-21,23.299075,120.664767,0.98598915
C0A9C0,天母,2025-08-21,25.117494,121.537169,0.07469137
72K220,南改斗南分場,2025-08-21,23.634556,120.477333,0.987516
72AI40,桃改樹林分場,2025-08-21,24.944503,121.386972,0.09562872
C0S910,蘭嶼燈塔,2025-08-21,22.081197,121.503117,0.99200064
C0B050,八斗子,2025-08-21,25.144754,121.79167,0.041996002
C0U900,內城,2025-08-21,24.71813,121.68766,0.008933416
C0X320,柳營,2025-08-21,23.253328,120.375253,0.9863857
C0M790,新港,2025-08-21,23.553269,120.345728,0.8818107
C0F9T0,西屯,2025-08-21,24.179494,120.641275,0.9886443
C0E950,松安,2025-08-21,24.39792,120.98599,0.93225074
C0SA30,都歷,2025-08-21,23.020333,121.323642,0.014873707
C0C620,蘆竹,2025-08-21,25.084275,121.265767,0.36834753
C0R730,大坪頂,2025-08-21,22.024633,120.69355,0.017729623
C0AJ40,石門,2025-08-21,25.273672,121.601198,0.19137676
C0E750,苗栗,2025-08-21,24.564569,120.824575,0.7977751
C0T870,鯉魚潭,2025-08-21,23.935639,121.508944,0.21866101
C1V170,排雲,2025-08-21,23.463619,120.954147,0.010127271
C2H950,中寮,2025-08-21,23.884447,120.766406,0.99754906
C0R350,貓鼻頭,2025-08-21,21.921774,120.7358,0.16218169
C0V660,岡山,2025-08-21,22.797078,120.294958,0.3788152
C1H941,雙冬,2025-08-21,23.967378,120.802189,0.9924203
C0AJ70,田寮,2025-08-21,25.2698,121.4886,0.14146563
C0AI00,五股,2025-08-21,25.07445,121.42728,0.3302831
C0Z280,德武,2025-08-21,23.47426,121.41071,0.05663566
C0R700,枋山,2025-08-21,22.246844,120.661086,0.020070922
C0C460,復興,2025-08-21,24.820208,121.352281,0.4366543
E2H360,蓮華池,2025-08-21,23.918333,120.885278,0.99115527
C0M640,中埔,2025-08-21,23.42538,120.5229,0.98594403
C0W140,金沙,2025-08-21,24.488292,118.408778,0.4260943
C2A540,四堵,2025-08-21,24.8926,121.745736,0.22227122
C0ACA0,新莊,2025-08-21,25.051478,121.446756,0.046974782
C0R220,潮州,2025-08-21,22.534361,120.54,0.99673235
U2HA40,臺大內茅埔,2025-08-21,23.689722,120.851117,0.28929737
467490,臺中,2025-08-21,24.145736,120.684075,0.999033
C0UB60,明池,2025-08-21,24.650688,121.475277,0.8929166
C0U960,翠峰湖,2025-08-21,24.510856,121.608044,0.5926878
E2HA20,林試畢祿溪站,2025-08-21,24.226944,121.308522,0.76519924
C0V890,前鎮,2025-08-21,22.5718,120.3117,0.5212025
C1F941,雪嶺,2025-08-21,24.280586,121.026642,0.18660475
C2H9E0,國姓南港,2025-08-21,23.911108,120.846556,0.9638306
C0AC80,文山,2025-08-21,25.00235,121.575728,0.05622755
C0F9R0,龍井,2025-08-21,24.184536,120.528972,0.96330106
C0M760,民雄,2025-08-21,23.551754,120.428457,0.98907846
C0UA40,西德山,2025-08-21,24.560647,121.752608,0.93228334
C1T920,中興,2025-08-21,23.769503,121.498653,0.04478677
C0D550,雪霸,2025-08-21,24.526972,121.11605,0.58122045
C2F860,梨山,2025-08-21,24.247522,121.243669,0.711591
C0R320,車城,2025-08-21,22.0744,120.716247,0.0235881
C1S870,南美山,2025-08-21,23.15025,121.382333,0.99713194
C0B020,基隆嶼,2025-08-21,25.19141,121.78391,0.03771668
C1U501,牛鬥,2025-08-21,24.637836,121.573656,0.04622374
C0M730,嘉義市東區,2025-08-21,23.457673,120.460531,0.96424174
C0S700,知本,2025-08-21,22.684866,121.005642,0.91666424
C1N001,沙崙,2025-08-21,22.935472,120.309406,0.8580454
C0V760,橋頭,2025-08-21,22.757806,120.30575,0.9051431
C0G960,福寶,2025-08-21,24.0443,120.3814,0.9825966
C0X210,白河,2025-08-21,23.347466,120.414427,0.9550105
C0S810,東河,2025-08-21,22.972672,121.303986,0.026453627
C2R170,屏東,2025-08-21,22.66027,120.49403,0.78158045
C0R670,楓港,2025-08-21,22.190131,120.692156,0.070679806
C0FA50,霧峰,2025-08-21,24.0419,120.6995,0.9982552
C0UB10,蘇澳,2025-08-21,24.5969,121.8571,0.017516177
C0G950,防潮門,2025-08-21,24.1835,120.4871,0.96323526
C0M740,六腳,2025-08-21,23.492871,120.290625,0.8737492
C1R250,力里,2025-08-21,22.428117,120.629228,0.85154635
C0K330,虎尾,2025-08-21,23.719183,120.442036,0.85464716
C2FA00,烏石坑,2025-08-21,24.273503,120.947617,0.9953529
C0V620,永安,2025-08-21,22.82315,120.236856,0.38180745
C1I330,楓樹林,2025-08-21,23.986803,121.076117,0.96048594
C0W200,湖西,2025-08-21,23.596314,119.67275,0.9997677
72Q010,高雄農改場,2025-08-21,22.709333,120.525889,0.8301963
C0SA40,瑞和,2025-08-21,22.974361,121.156697,0.045504626
C0C680,龜山,2025-08-21,25.02846,121.38656,0.28471142
C2V260,月眉,2025-08-21,22.971003,120.539853,0.933408
C0V450,鳳森,2025-08-21,22.545064,120.392592,0.88884336
C0FA90,小雪山林道,2025-08-21,24.29515,121.03651,0.052684728
C0U720,南山,2025-08-21,24.43742,121.38167,0.9821194
A2N290,臺南蘭花園區,2025-08-21,23.340258,120.379661,0.8807141
C0R560,新園,2025-08-21,22.5434,120.461558,0.8535784
C0U890,三星,2025-08-21,24.66812,121.65302,0.033099454
C1V300,御油山,2025-08-21,23.001983,120.715364,0.99497694
C0U600,礁溪,2025-08-21,24.817539,121.765608,0.036806334
C1T980,龍澗,2025-08-21,24.023289,121.411328,0.98864824
C0D670,海天一線,2025-08-21,24.831986,120.914438,0.9834542
C0SA00,歷坵,2025-08-21,22.520969,120.89185,0.77029884
C0M710,東石,2025-08-21,23.458927,120.15385,0.9429404
C0M780,鹿草,2025-08-21,23.41134,120.30835,0.96323866
C0U520,雙連埤,2025-08-21,24.753033,121.641303,0.48724526
C0B010,七堵,2025-08-21,25.094819,121.71713,0.035800703
C0R480,長治,2025-08-21,22.693128,120.542622,0.9780339
C1V830,國三S383K,2025-08-21,22.781967,120.426475,0.68768454
12Q980,恆春工作站,2025-08-21,22.079678,120.714425,0.0235605
C1O940,東山服務區,2025-08-21,23.286016,120.398472,0.96200585
C1U840,東澳嶺,2025-08-21,24.5378,121.8485,0.9869331
C1D630,飛鳳山,2025-08-21,24.766464,121.119178,0.76773536
C0S940,石寧山,2025-08-21,23.223772,121.406639,0.025946261
C0K410,北港,2025-08-21,23.573957,120.292802,0.88189524
C2M620,瑞里,2025-08-21,23.545133,120.675197,0.9842713
C0SB70,小港漁港,2025-08-21,23.158558,121.400431,0.040345293
C2O950,安南,2025-08-21,23.076694,120.144861,0.8104702
C0F0E0,南湖圈谷,2025-08-21,24.363714,121.444667,0.002857345
467610,成功,2025-08-21,23.097486,121.373428,0.03646275
C0G890,伸港,2025-08-21,24.148933,120.484403,0.9736323
C2E540,龍溪,2025-08-21,24.606489,120.783933,0.9159581
C1V200,梅山,2025-08-21,23.268447,120.823556,0.99844813
C0T9H0,加路蘭山,2025-08-21,23.682947,121.5274,0.97829884
C2O930,玉井,2025-08-21,23.126042,120.46055,0.992003
C1F911,新伯公,2025-08-21,24.221361,120.841069,0.99918026
C0R490,九如,2025-08-21,22.7405,120.490503,0.82539845
C0X200,左鎮,2025-08-21,23.056758,120.408522,0.9745903
C0FA60,鞍馬山工作站,2025-08-21,24.267064,121.000793,0.6471115
C0SB50,叭嗡嗡,2025-08-21,23.047062,121.343223,0.011868987
C1F891,稍來,2025-08-21,24.265689,121.001142,0.71634567
72N240,七股研究中心,2025-08-21,23.081672,120.062894,0.84510374
C0C700,中壢,2025-08-21,24.977661,121.256375,0.20399638
C0M690,水上,2025-08-21,23.419734,120.388909,0.95668435
C0V690,鼓山,2025-08-21,22.623325,120.275575,0.5329271
C0O860,大內,2025-08-21,23.11885,120.36083,0.9541643
C0Z200,萬榮,2025-08-21,23.709219,121.420106,0.023401624
C0T9D0,和中,2025-08-21,24.26676,121.74103,0.021616902
C1O921,楠西,2025-08-21,23.183511,120.484083,0.98907924
C0AJ30,淡水觀海,2025-08-21,25.184591,121.408616,0.18698414
C0V810,左營,2025-08-21,22.67491,120.28491,0.35413367
C0UA70,桃源谷,2025-08-21,24.962606,121.888875,0.9949889
C0X130,官田,2025-08-21,23.193217,120.315422,0.98149306
C1H000,翠峰,2025-08-21,24.109397,121.205211,0.55276364
C0UA90,石城,2025-08-21,24.980444,121.951214,0.049728487
C1E681,南勢山,2025-08-21,24.421669,120.923831,0.9923993
C0A9F0,內湖,2025-08-21,25.079422,121.57545,0.042375986
C0K291,宜梧,2025-08-21,23.536281,120.169329,0.95258373
C1K540,口湖,2025-08-21,23.585344,120.180517,0.8813908
C0R780,滿州,2025-08-21,22.024403,120.839892,0.036165655
C0V870,文安,2025-08-21,22.8025,120.2164,0.3768265
C0U650,玉蘭,2025-08-21,24.675286,121.587061,0.932821
C0R640,東港,2025-08-21,22.46247,120.44074,0.98801506
C0AJ80,板橋,2025-08-21,25.0107,121.4489,0.05311745
C0S660,下馬,2025-08-21,23.150427,121.070312,0.9946005
C1H9B1,阿眉,2025-08-21,24.1263,120.994672,0.9810324
C0UA20,多加屯,2025-08-21,24.368614,121.373189,0.08331977
C0E730,頭份,2025-08-21,24.688247,120.912206,0.9533867
72V140,高改旗南分場,2025-08-21,22.857861,120.516667,0.49944767
C0K480,莿桐,2025-08-21,23.761192,120.502372,0.9858833
C0U980,坪林石牌,2025-08-21,24.86478,121.77396,0.99620235
C0T900,西林,2025-08-21,23.8119,121.441458,0.162363
C1I150,青雲,2025-08-21,23.793361,120.949378,0.6907121
467350,澎湖,2025-08-21,23.565503,119.563094,0.999634
C0G800,埔鹽,2025-08-21,24.000394,120.431683,0.9875615
C0H960,草屯,2025-08-21,23.973672,120.68085,0.99856585
C1V780,多納林道,2025-08-21,22.888028,120.737917,0.9955498
C0E920,通霄漁港,2025-08-21,24.498589,120.673876,0.7677715
C0Z330,安通山,2025-08-21,23.290728,121.348528,0.9957802
C0AH10,永和,2025-08-21,25.01125,121.508111,0.053129867
C0AK10,太平里,2025-08-21,25.134937,121.364899,0.17963883
C2G640,鹿港,2025-08-21,24.0753,120.430481,0.9825774
C1E890,國三N149K,2025-08-21,24.463414,120.680019,0.74218404
C1R110,口社,2025-08-21,22.770111,120.645222,0.49038827
C1M870,國三N285K,2025-08-21,23.550319,120.505833,0.9930523
C1E480,鳳美,2025-08-21,24.554803,121.034747,0.9584616
C0M530,奮起湖,2025-08-21,23.493903,120.699253,0.97469467
C0C590,觀音,2025-08-21,25.027072,121.153317,0.93024397
C0T9M0,靜浦,2025-08-21,23.455167,121.495028,0.02739006
C2H9M0,發祥,2025-08-21,24.154094,121.164517,0.99370867
C0AI40,石牌,2025-08-21,25.115597,121.513139,0.07385177
C1F871,上谷關,2025-08-21,24.203483,121.018644,0.99513227
C2H9G0,百勝,2025-08-21,24.051142,120.909361,0.9983555
C0G880,二水,2025-08-21,23.810742,120.6173,0.9546691
C0R940,加祿堂,2025-08-21,22.3363,120.6217,0.037683643
C0W220,北竿,2025-08-21,26.220358,119.974881,0.9089237
C0O960,崎頂,2025-08-21,22.959547,120.369317,0.8855535
C0TA40,秀林,2025-08-21,24.302864,121.731144,0.98974115
C0S750,向陽,2025-08-21,23.248397,120.986133,0.819252
C0T9F0,水璉,2025-08-21,23.797131,121.542514,0.7178445
C1M600,頭凍,2025-08-21,23.406364,120.603339,0.9988699
467660,臺東,2025-08-21,22.752211,121.154586,0.04784293
C1D380,新埔,2025-08-21,24.84745,121.03834,0.8940995
C2G980,田頭村,2025-08-21,23.8263,120.444175,0.9166873
C0V750,路竹,2025-08-21,22.854997,120.259439,0.098917596
C0N050,蚵寮,2025-08-21,23.301,120.1104,0.9834464
72M700,南改鹿草分場,2025-08-21,23.416869,120.283061,0.96149653
C1SA50,利嘉林道,2025-08-21,22.82325,121.009389,0.98602444
C0UB70,太平山中間站,2025-08-21,24.542003,121.513453,0.9471921
C0A940,金山,2025-08-21,25.223628,121.643967,0.052807212
C1V340,大津,2025-08-21,22.888322,120.645986,0.98966086
C0W180,七美,2025-08-21,23.219333,119.444892,0.9995263
C1F9C1,白冷,2025-08-21,24.182844,120.929889,0.9995865
K2E710,苗改生物防治研究中心,2025-08-21,24.422861,120.871833,0.9876334
C0N040,蘆竹溝,2025-08-21,23.2344,120.0961,0.96606255
C0D760,大坪苗圃,2025-08-21,24.5362,121.1108,0.8412001
C2W230,畜試所澎湖,2025-08-21,23.628342,119.513206,0.9996641
C0R880,後壁湖,2025-08-21,21.9457,120.7457,0.028441692
C1I280,埔中,2025-08-21,23.820778,120.642594,0.98310715
467790,墾丁雷達站,2025-08-21,21.948235,120.808028,0.04797903
C0W190,望安,2025-08-21,23.380564,119.494075,0.99927145
C0Z170,卓溪,2025-08-21,23.3443,121.3029,0.07166038
C0F850,東勢,2025-08-21,24.246428,120.833047,0.99946976
466900,淡水,2025-08-21,25.164889,121.448906,0.17966002
C0I370,魚池,2025-08-21,23.895703,120.94135,0.98661757
C0C630,大溪,2025-08-21,24.882853,121.265547,0.17413895
C0A520,山佳,2025-08-21,24.974944,121.402008,0.062451076
C0I110,竹山,2025-08-21,23.761225,120.688156,0.97666794
82H840,茶改南部分場,2025-08-21,23.762528,120.7405,0.98734045
C0G660,溪湖,2025-08-21,23.94835,120.479122,0.9668458
C1T800,洛韶,2025-08-21,24.204558,121.453956,0.9884059
C1T810,慈恩,2025-08-21,24.192044,121.388386,0.9148253
C1E451,象鼻,2025-08-21,24.368617,120.940228,0.9967161
C0AC60,三峽,2025-08-21,24.939025,121.369728,0.15581559
C0I490,萬大林道,2025-08-21,23.928228,121.091411,0.91580373
C1I290,豐丘,2025-08-21,23.668178,120.887417,0.97099125
C1I320,奧萬大,2025-08-21,23.952956,121.178556,0.95628417
C2M910,嘉義大學,2025-08-21,23.471325,120.485903,0.9741082
C0U770,南澳,2025-08-21,24.44935,121.81022,0.016697258
C0A980,社子,2025-08-21,25.109508,121.469681,0.17417794
C0V800,六龜,2025-08-21,22.997889,120.633583,0.9932657
C1G9D0,國一S218K,2025-08-21,23.890641,120.493253,0.9539077
C0E570,白沙屯,2025-08-21,24.549447,120.696803,0.86944306
C2F9A0,中竹林,2025-08-21,24.103556,120.751061,0.99931765
C0FA40,臺中電廠,2025-08-21,24.2146,120.4907,0.96328735
C2G9A0,畜試所彰化,2025-08-21,23.86045,120.557964,0.99279726
C0H9C0,合歡山,2025-08-21,24.143442,121.272547,0.0065353853
C0X060,下營,2025-08-21,23.22695,120.256261,0.85876113
G2M350,農試溪口農場,2025-08-21,23.58565,120.408111,0.988156
C0U860,頭城,2025-08-21,24.85323,121.8308,0.036065347
C0R580,南州,2025-08-21,22.48591,120.50274,0.98801506
C0D430,峨眉,2025-08-21,24.6905,121.017189,0.83254343
C0G780,秀水,2025-08-21,24.03405,120.503869,0.9548417
72N100,臺南農改場,2025-08-21,23.0605,120.342194,0.9557761
C0S900,蘭嶼高中,2025-08-21,22.04909,121.51214,0.9742586
C1F9W0,德基,2025-08-21,24.254783,121.190261,0.90393555
C1Z120,壽豐,2025-08-21,23.870853,121.508081,0.025020963
C0W160,烏坵,2025-08-21,24.9944,119.44956,0.99644196
C1I240,外大坪,2025-08-21,23.958697,120.917931,0.99359125
C1I550,國六W023K,2025-08-21,23.979067,120.867742,0.9913414
C0R870,興海,2025-08-21,21.9752,120.8439,0.041391775
C0R140,瑪家,2025-08-21,22.682903,120.686639,0.99892545
C0A530,坪林,2025-08-21,24.938183,121.70975,0.21008623
C0X260,後壁,2025-08-21,23.366358,120.362326,0.88199174
C0Z230,和平,2025-08-21,24.30717,121.77007,0.020232737
C0G770,福興,2025-08-21,24.041289,120.437669,0.9875939
C0H9A0,神木村,2025-08-21,23.532742,120.843667,0.98378193
C0I460,南投,2025-08-21,23.911469,120.687331,0.9956936
C0I480,梅峰,2025-08-21,24.085272,121.173572,0.6815344
C1V570,吉東,2025-08-21,22.85422,120.5454,0.51107085
C2D740,屯原,2025-08-21,24.067969,121.209389,0.7815318
C2A560,福山,2025-08-21,24.776203,121.502811,0.15982638
C0AH30,五分山,2025-08-21,25.07125,121.780794,0.9919541
C0FA10,松柏,2025-08-21,24.429115,120.617482,0.71979904
72S200,東改班鳩分場,2025-08-21,22.829528,121.077694,0.7112601
72HA00,中改埔里分場,2025-08-21,23.903208,120.963364,0.9922468
C2H9W0,大坪頂農水,2025-08-21,24.043122,120.932781,0.99589205
C0C650,平鎮,2025-08-21,24.897503,121.214636,0.25777635
C0S930,延平,2025-08-21,22.902581,121.084058,0.28723744
C0UA60,樟樹山,2025-08-21,24.41393,121.78325,0.03076812
C1S670,摩天,2025-08-21,23.199503,121.027,0.98906404
C0V630,茄萣,2025-08-21,22.906642,120.182608,0.11258936
466940,基隆,2025-08-21,25.133314,121.740475,0.04228856
C0X050,東河,2025-08-21,23.296598,120.385608,0.9578893
C0R770,保力,2025-08-21,22.071122,120.764111,0.016657704
G2L020,農試嘉義分所,2025-08-21,23.485028,120.473806,0.97542334
C0X240,關子嶺,2025-08-21,23.331169,120.508025,0.99363124
C0I380,集集,2025-08-21,23.828206,120.801467,0.7034916
466990,花蓮,2025-08-21,23.975128,121.613275,0.037503935
C1V220,小關山,2025-08-21,23.154217,120.813603,0.9798276
C1F9G1,慶福山,2025-08-21,24.180853,120.848378,0.9950046
C0FB20,雪山橋,2025-08-21,24.23192,120.9786,0.960779
C0Z250,瑞穗林道,2025-08-21,23.49284,121.30688,0.98962986
C0D590,新豐,2025-08-21,24.87068,120.97721,0.99153537
C0A870,五指山,2025-08-21,25.132153,121.608692,0.7551328
C0UA50,西帽山,2025-08-21,24.555361,121.802628,0.98561317
C0X160,仁德,2025-08-21,22.968258,120.257689,0.37633798
C1H971,六分寮,2025-08-21,23.92507,120.6378,0.9995602
C0W120,西嶼,2025-08-21,23.5626,119.468436,0.99959964
C0G650,員林,2025-08-21,23.946503,120.585597,0.9960728
C0AD50,鶯歌,2025-08-21,24.951533,121.346294,0.166039
C2H9Q0,北東眼山,2025-08-21,24.120939,121.189303,0.830006
C2H9T0,名間竹圍,2025-08-21,23.859914,120.637572,0.48978436
C0S990,山豬窟,2025-08-21,22.318619,120.857372,0.9820836
C0X190,安平,2025-08-21,22.993161,120.152181,0.4947047
C0K400,斗六,2025-08-21,23.720583,120.541127,0.98482084
12J990,口湖工作站,2025-08-21,23.589978,120.180394,0.88158435
C0O830,北寮,2025-08-21,23.079561,120.495008,0.95081025
C1D410,白蘭,2025-08-21,24.579364,121.079947,0.90057737
C0S970,加津林,2025-08-21,22.416211,120.926942,0.03092421
C0D700,關西,2025-08-21,24.7977,121.1732,0.3527382
C0M810,里佳,2025-08-21,23.389125,120.716647,0.99247026
C0U750,龜山島,2025-08-21,24.841667,121.953133,0.5141278
C0R810,內獅,2025-08-21,22.305064,120.642986,0.0372757
C1M390,龍美,2025-08-21,23.406728,120.654417,0.9964415
C2FB60,頭櫃山,2025-08-21,24.129842,120.858925,0.98534155
C1H840,國三N238K,2025-08-21,23.841008,120.707711,0.40791363
CAQ030,崎峰國小,2025-08-21,22.42565,120.49521,0.98801506
C2E520,大湖,2025-08-21,24.414939,120.870872,0.9834019
467530,阿里山,2025-08-21,23.508208,120.813242,0.12417375
C1E691,南湖,2025-08-21,24.40135,120.837533,0.99747914
C0FA30,梧棲,2025-08-21,24.256003,120.523381,0.86227715
C1V231,高中,2025-08-21,23.134911,120.716711,0.9990475
C0AK30,硬漢嶺,2025-08-21,25.136097,121.426372,0.6107596
C0F9V0,新社,2025-08-21,24.200172,120.815806,0.99958
C0H890,埔里,2025-08-21,23.972169,120.952425,0.998064
C0R690,墾丁,2025-08-21,21.966756,120.810269,0.6116968
C0F0D0,審馬陣,2025-08-21,24.381675,121.4203,0.014634231
C2W030,金門農試所,2025-08-21,24.448431,118.451786,0.33068725
C0R820,白鷺,2025-08-21,22.454275,120.666219,0.99861205
C0FB00,大雪山,2025-08-21,24.254668,121.007374,0.7860707
C1V190,南天池,2025-08-21,23.27403,120.91176,0.4558594
C0E940,雪見,2025-08-21,24.42595,121.01347,0.8919358
K2E360,苗栗農改場,2025-08-21,24.495722,120.829111,0.72748774
CAJ050,海口故事園區,2025-08-21,23.57543,120.14121,0.8814812
C2H9D0,三隻寮,2025-08-21,24.093078,120.861578,0.9956078
C0O990,媽廟,2025-08-21,22.99175,120.293525,0.5795481
C0D480,打鐵坑,2025-08-21,24.849664,121.150789,0.2619609
C0Z220,和平林道,2025-08-21,24.343922,121.656317,0.98788327
C0TA10,花蓮漁港,2025-08-21,23.995322,121.638331,0.031236859
72C440,桃園農改場,2025-08-21,24.950944,121.030583,0.8817012
C1E711,馬拉邦山,2025-08-21,24.367306,120.901656,0.99769956
C0SB20,富岡,2025-08-21,22.792467,121.192669,0.030252637
C0D560,竹東,2025-08-21,24.767147,121.057881,0.37817535
C0F9U0,南屯,2025-08-21,24.137006,120.637969,0.97558177
C0M720,番路,2025-08-21,23.464657,120.554156,0.99104655
C0F0A0,雪山圈谷,2025-08-21,24.388594,121.236339,0.0074539515
C1A9N0,四十份,2025-08-21,24.934158,121.593283,0.087350026
C0U760,東澳,2025-08-21,24.52196,121.83318,0.007609488
C0X230,鹽水,2025-08-21,23.272621,120.247641,0.9840731
C2H9H0,苗改南投蜂場,2025-08-21,23.852589,120.693481,0.9868108
C0R950,萬隆國小,2025-08-21,22.507667,120.587817,0.9970467
467540,大武,2025-08-21,22.35572,120.90374,0.02912444
C0V370,古亭坑,2025-08-21,22.893178,120.401947,0.6971494
C1I340,新興橋,2025-08-21,23.563333,120.868728,0.9962491
C0SA80,土坂,2025-08-21,22.453108,120.887572,0.024347374
C0R160,鹽埔,2025-08-21,22.739558,120.530778,0.82876396
C0AC40,大屯山,2025-08-21,25.175675,121.522408,0.5419026
466850,五分山雷達站,2025-08-21,25.071182,121.781205,0.99202645
C2H9L0,馬烈霸,2025-08-21,24.1512,121.201772,0.8582666
C1AI50,國三N016K,2025-08-21,25.034164,121.619664,0.043882933
C1V600,藤枝,2025-08-21,23.071961,120.757042,0.99360144
C1E601,南勢,2025-08-21,24.572486,120.734842,0.9029085
C0O980,新市,2025-08-21,23.061614,120.298197,0.95067364
C0K420,西螺,2025-08-21,23.800407,120.467394,0.91931826
C0Z050,佳心,2025-08-21,23.34567,121.21316,0.97380054
C0AD30,蘆洲,2025-08-21,25.086594,121.472331,0.041990645
C0V610,梓官,2025-08-21,22.760558,120.267211,0.90553
K2F750,種苗改良場,2025-08-21,24.225972,120.800917,0.99948704
C0UA80,大溪漁港,2025-08-21,24.941801,121.902955,0.04772685
C1AI60,國一39K邊坡,2025-08-21,25.064361,121.383836,0.25100917
C0W150,金寧,2025-08-21,24.457703,118.328989,0.33889896
C0R960,內埔,2025-08-21,22.608483,120.570714,0.9814601
V2C250,八德合作社,2025-08-21,24.93775,121.266389,0.21037947
C2H9S0,龍南,2025-08-21,23.953536,120.833183,0.97008735
C0AH40,平等,2025-08-21,25.129142,121.577086,0.19136105
C0R540,佳冬,2025-08-21,22.419456,120.552375,0.041357383
466950,彭佳嶼,2025-08-21,25.627975,122.079744,0.20645763
C0A890,雙溪,2025-08-21,25.036003,121.864242,0.03630293
C0C480,桃園,2025-08-21,24.992425,121.323172,0.18568549
C0AH50,林口,2025-08-21,25.072181,121.38084,0.31174698
A2K360,水試臺西試驗場,2025-08-21,23.717231,120.190522,0.95113397
C2M960,外寮,2025-08-21,23.562643,120.665688,0.9954077
C0F9S0,烏日,2025-08-21,24.107058,120.624103,0.99844825
C0C490,八德,2025-08-21,24.928708,121.283289,0.21300502
C0R190,赤山,2025-08-21,22.592333,120.614306,0.9818396
C0T820,天祥,2025-08-21,24.179597,121.495639,0.91340697
C1F9E1,龍安,2025-08-21,24.1605,120.831961,0.99967074
C0V820,小林,2025-08-21,23.148408,120.63325,0.9913215
C2G870,芳苑,2025-08-21,23.922303,120.320025,0.9919102
C0E850,大河,2025-08-21,24.618069,120.948578,0.7723152
C1U670,寒溪,2025-08-21,24.634,121.71691,0.060463723
C0N020,城西,2025-08-21,23.0568,120.0956,0.5741464
C1Z110,三棧,2025-08-21,24.11557,121.60501,0.9917548
C0R280,檳榔,2025-08-21,22.076078,120.836777,0.082781106
C2H9J0,中台,2025-08-21,23.9996,120.938739,0.9950582
C0F9L0,后里,2025-08-21,24.310436,120.729725,0.9988718
467441,高雄,2025-08-21,22.730432,120.312516,0.90815616
C0Z180,新城,2025-08-21,24.040486,121.604878,0.042927183
C0D540,橫山,2025-08-21,24.71116,121.11693,0.4114388
C1D420,太閣南,2025-08-21,24.632808,121.160575,0.9326626
C1E770,公館,2025-08-21,24.526914,120.830806,0.68680054
CAN130,水試所海水繁養殖中心,2025-08-21,23.120802,120.07968,0.84525263
C1I430,翠華,2025-08-21,24.191961,121.224339,0.34337938
C1M400,菜瓜坪,2025-08-21,23.251928,120.576103,0.94083214
C0G730,二林,2025-08-21,23.903325,120.376081,0.9853982
72M360,南改義竹分場,2025-08-21,23.360694,120.279361,0.95389175
V2K620,麥寮合作社,2025-08-21,23.753836,120.294783,0.920884
C0Z070,舞鶴,2025-08-21,23.46811,121.37407,0.10469343
C0B040,大武崙,2025-08-21,25.166676,121.706993,0.04349969
C1Z030,紅葉,2025-08-21,23.493119,121.338806,0.06534374
C1I050,丹大,2025-08-21,23.753747,121.141147,0.26114064
C0I080,信義,2025-08-21,23.689694,120.851036,0.28929767
C0D750,樂山林道6k,2025-08-21,24.49999,121.08773,0.023776753
C2M920,朴子農改,2025-08-21,23.469889,120.259383,0.96108425
C2A880,福隆,2025-08-21,25.017842,121.942083,0.049279172
C0Z160,鳳林,2025-08-21,23.746114,121.453411,0.018622546
C0UB80,翠峰林道6K,2025-08-21,24.49773,121.568625,0.77262723
C0V210,復興,2025-08-21,23.222403,120.806089,0.99861676
C0H990,昆陽,2025-08-21,24.121322,121.273642,0.033164583
C0R741,獅子,2025-08-21,22.202308,120.705236,0.06358991
C0S710,鹿野,2025-08-21,22.917711,121.122994,0.74494326
C0I530,小奇萊,2025-08-21,24.131764,121.295717,0.02594707
C0FA70,大雪山埡口,2025-08-21,24.26867,121.03062,0.20037286
C2K630,荷苞,2025-08-21,23.657717,120.595144,0.9900048
C0Z080,富源,2025-08-21,23.587642,121.378225,0.17817576
C0SB10,美和,2025-08-21,22.682078,121.060236,0.013546471
C2K620,馬光農場,2025-08-21,23.721453,120.378864,0.84533846
C1I140,卡奈托灣,2025-08-21,23.754364,121.087872,0.86207885
C0I520,玉山風口,2025-08-21,23.470489,120.955994,0.009255342
C1G691,下水埔,2025-08-21,23.816114,120.5676,0.9872571
C0X110,臺南市南區,2025-08-21,22.961189,120.188378,0.37806302
C0V680,仁武,2025-08-21,22.701083,120.347722,0.35193473
C2G840,北斗,2025-08-21,23.877586,120.514222,0.9562426
C0R900,竹坑,2025-08-21,22.1385,120.7022,0.020284746
C0K250,崙背,2025-08-21,23.75555,120.318925,0.9209611
C0G860,社頭,2025-08-21,23.897647,120.5862,0.9911488
C0X150,安定,2025-08-21,23.102614,120.227839,0.6364827
C0R590,里港,2025-08-21,22.77919,120.49459,0.6244226
C0E610,馬都安,2025-08-21,24.451272,120.930192,0.9969004
C0E550,明德,2025-08-21,24.583486,120.885411,0.8108278
C0R150,三地門,2025-08-21,22.709889,120.639944,0.47000358
C0G910,花壇,2025-08-21,24.032076,120.549461,0.9592212
C1D400,鳥嘴山,2025-08-21,24.71909,121.28387,0.96826524
C0K500,元長,2025-08-21,23.64981,120.315024,0.897077
C0F0B0,石岡,2025-08-21,24.276061,120.777644,0.99923325
C2V250,甲仙,2025-08-21,23.080106,120.591758,0.9832221
C0SA20,金崙山,2025-08-21,22.567419,120.959667,0.98912233
C0V350,溪埔,2025-08-21,22.738578,120.446797,0.83134204
C0M660,溪口,2025-08-21,23.604131,120.403569,0.9881798
C1S880,壽卡,2025-08-21,22.238911,120.858903,0.9914675
72D680,桃改新埔分場,2025-08-21,24.834444,121.066111,0.88943774
