站號,站名,日期,lat,lon,BLBTSLS
C0R710,龍磐,2025-06-13,21.931672,120.838942,0.010866126
C1F9D1,白毛台,2025-06-13,24.158325,120.886933,2.863093e-08
C0G940,竹塘,2025-06-13,23.848253,120.386764,2.8242885e-06
467590,恆春,2025-06-13,22.003897,120.746339,0.31900156
C1O850,環湖,2025-06-13,23.148617,120.418633,0.19032235
C0U710,太平山,2025-06-13,24.505486,121.525656,2.1001362e-08
C0E820,獅潭,2025-06-13,24.539133,120.920042,1.624594e-08
C0V880,興達,2025-06-13,22.8778,120.2127,0.8741849
C0S890,關山,2025-06-13,23.0395,121.175017,0.16599718
C0SB30,新蘭,2025-06-13,22.869214,121.223228,0.44923878
C2R970,屏科大,2025-06-13,22.648275,120.619247,0.04136052
C1Z130,銅門,2025-06-13,23.965694,121.492842,0.0029514171
C0AD40,土城,2025-06-13,24.973208,121.445169,0.0046874587
CAN140,六官養殖協會,2025-06-13,23.22881,120.29962,0.012941819
C0X180,山上,2025-06-13,23.0757,120.363253,0.369774
C0F9Z0,雪山東峰,2025-06-13,24.388792,121.268675,1.2631709e-08
C1M480,獨立山,2025-06-13,23.537022,120.607797,5.12483e-09
C0X220,學甲,2025-06-13,23.230367,120.182187,0.0028028816
467650,日月潭,2025-06-13,23.881325,120.90805,3.8794474e-07
C0K600,箔子寮,2025-06-13,23.6197,120.14,0.0003137597
C0G830,埤頭,2025-06-13,23.866003,120.452806,0.00038398945
C0S950,七塊厝,2025-06-13,22.954453,121.229922,0.00039225112
467110,金門,2025-06-13,24.407306,118.289281,0.18687467
C0AH80,深坑,2025-06-13,25.002703,121.628328,0.0020348085
C0A970,三貂角,2025-06-13,25.007606,122.002058,0.92385715
C2D730,寶山農場,2025-06-13,24.732444,120.976153,2.767763e-08
C0K430,褒忠,2025-06-13,23.690938,120.303634,0.00023538819
467480,嘉義,2025-06-13,23.495925,120.432906,0.00061963254
C0V400,阿公店,2025-06-13,22.804194,120.355528,0.91926974
C0E960,觀霧分站,2025-06-13,24.505781,121.113921,4.0252575e-09
467550,玉山,2025-06-13,23.48718,120.95943,1.6376418e-08
C0R440,大漢山,2025-06-13,22.405264,120.753181,1.0137346e-08
C0K280,四湖,2025-06-13,23.630414,120.227125,0.00023051267
C1F9B1,桐林,2025-06-13,24.066172,120.735194,0.14259149
C2H9U0,鳳鵬,2025-06-13,23.763919,120.788061,0.00011339712
C0K390,土庫,2025-06-13,23.679029,120.395574,3.5418e-06
C1I450,望鄉山,2025-06-13,23.594153,120.944286,1.0843058e-08
C0E910,海埔,2025-06-13,24.648767,120.772435,6.9428964e-08
B2E890,畜試北區分所,2025-06-13,24.527806,120.770972,3.573529e-08
C0R750,四林格山,2025-06-13,22.076989,120.802439,1.1236079e-07
C0F0C0,中坑,2025-06-13,24.248517,120.903319,6.4417964e-09
C1I121,大鞍,2025-06-13,23.678381,120.760017,2.8813027e-08
72U480,花改蘭陽分場,2025-06-13,24.686306,121.716583,0.019236768
C0A770,科教館,2025-06-13,25.096356,121.516507,0.004310161
C0AJ60,六塊厝,2025-06-13,25.24,121.4481,4.935713e-05
C0R620,墾雷,2025-06-13,21.900836,120.855269,0.0027421191
467420,永康,2025-06-13,23.038386,120.2367,0.30202264
C0I410,名間,2025-06-13,23.837053,120.701447,0.0010074418
A2C560,農工中心,2025-06-13,24.985917,121.239833,2.3463667e-07
C0V740,旗山,2025-06-13,22.888614,120.483597,0.91069305
C0Z061,玉里,2025-06-13,23.3215,121.339656,2.2198974e-06
C0S840,南田,2025-06-13,22.279725,120.889208,0.06276711
C1I470,杉林溪,2025-06-13,23.639517,120.786444,1.8111525e-08
C1X040,東原,2025-06-13,23.291597,120.463822,0.8671165
C0R660,枋寮,2025-06-13,22.367722,120.590647,0.11414925
C1R120,上德文,2025-06-13,22.763272,120.704442,1.7842665e-07
C0K450,大埤,2025-06-13,23.646074,120.431537,8.933622e-05
C0UA00,土場,2025-06-13,24.576533,121.495333,0.9611612
467080,宜蘭,2025-06-13,24.763975,121.756528,0.21930237
C0N030,四草,2025-06-13,23.0235,120.1116,0.44328016
467410,臺南,2025-06-13,22.99328,120.20492,0.5114178
C0V650,彌陀,2025-06-13,22.783806,120.246361,0.8939791
C0D660,新竹市東區,2025-06-13,24.798681,120.986942,1.8045239e-07
82S580,茶改東部分場,2025-06-13,22.907694,121.130139,0.77558213
C0SB40,興隆,2025-06-13,22.913661,121.257469,0.511294
467050,新屋,2025-06-13,25.006725,121.047492,3.782723e-06
C0C710,大溪永福,2025-06-13,24.892936,121.324975,4.7291343e-07
C0FA20,溫寮,2025-06-13,24.372177,120.583125,0.00011050365
C0V640,湖內,2025-06-13,22.887139,120.2445,0.9011395
C0R910,下寮,2025-06-13,22.3929,120.5548,0.11414927
C0Z020,明里,2025-06-13,23.208717,121.262342,3.726182e-05
C0M770,嘉義梅山,2025-06-13,23.585398,120.555587,3.3626442e-05
C0C660,楊梅,2025-06-13,24.912375,121.143047,5.452651e-08
C1E511,新開,2025-06-13,24.347703,120.827019,1.8653174e-07
G2F820,農試所(霧峰),2025-06-13,24.031261,120.688133,0.12671494
C1I070,和社,2025-06-13,23.591131,120.888861,0.7265382
C2F000,大肚,2025-06-13,24.15295,120.572117,0.00017608322
C1S850,豐南,2025-06-13,23.122139,121.262389,5.7280786e-08
C2A920,富貴角,2025-06-13,25.263783,121.565258,6.302729e-05
CAH030,茶改場竹圍站,2025-06-13,23.860083,120.637528,0.00921762
C0T960,光復,2025-06-13,23.660694,121.424964,0.89558524
C0F9M0,豐原,2025-06-13,24.254322,120.720692,2.699176e-06
C0R720,旭海,2025-06-13,22.205403,120.887614,0.0012848986
C0V710,苓雅,2025-06-13,22.622742,120.330669,0.59840906
C0C740,觀音工業區,2025-06-13,25.064764,121.114856,4.3771247e-06
CAC040,拉拉山,2025-06-13,24.699317,121.427133,1.6257749e-08
C0V790,萬山,2025-06-13,22.905944,120.688056,0.00017146688
U2HA30,臺大和社,2025-06-13,23.590856,120.888864,0.7265382
C0AJ90,澳底,2025-06-13,25.0552,121.9253,0.9782929
C0Z100,東華,2025-06-13,23.89525,121.549833,0.018732073
C0G970,三豐,2025-06-13,23.882,120.2895,1.9981466e-05
V2K610,大庄合作社,2025-06-13,23.8068,120.367939,2.7712751e-05
C0V900,汕尾,2025-06-13,22.4782,120.4151,0.01848032
C1R630,龍泉,2025-06-13,22.66701,120.59091,0.079677284
C1AC50,關渡,2025-06-13,25.133486,121.469331,0.0009417955
C0C800,四稜,2025-06-13,24.64733,121.4293,9.2724406e-08
C0F9I0,神岡,2025-06-13,24.272481,120.658314,7.972124e-07
C0K460,斗南,2025-06-13,23.678734,120.478359,7.9041354e-05
C2O810,曾文,2025-06-13,23.219681,120.497328,0.8960303
467280,後龍,2025-06-13,24.648563,120.831834,5.250158e-08
C1F9J1,清水林,2025-06-13,24.071242,120.820419,4.495943e-08
C2A650,火燒寮,2025-06-13,25.002719,121.742892,0.011638203
466930,竹子湖,2025-06-13,25.162078,121.544547,4.065511e-09
C1I220,樟湖,2025-06-13,23.905333,120.846983,2.3041697e-08
C0I390,仁愛,2025-06-13,24.022122,121.132206,1.699655e-07
C0Z300,東里,2025-06-13,23.26853,121.30547,0.004293303
C1V590,新發,2025-06-13,23.057019,120.646064,2.072989e-07
C0K510,水林,2025-06-13,23.572924,120.24597,0.00026432227
72S590,東改賓朗果園,2025-06-13,22.813889,121.071278,0.04167896
82A750,茶改北部分場,2025-06-13,24.955778,121.631222,1.8045498e-07
C1A750,石碇服務區,2025-06-13,25.00872,121.646242,0.017854966
C0X300,鹿寮,2025-06-13,23.386047,120.477331,0.027810464
G2AI50,關渡,2025-06-13,25.11575,121.492,0.00062052696
C0K590,雲林東勢,2025-06-13,23.674192,120.255721,0.0001681686
C0A570,桶後,2025-06-13,24.848222,121.597992,0.0174309
C1S800,華源,2025-06-13,22.657883,121.02325,0.25506166
C0G720,溪州,2025-06-13,23.851589,120.499093,0.00033210713
C1V160,達卡努瓦,2025-06-13,23.279811,120.705319,2.7447578e-08
C2M410,馬頭山,2025-06-13,23.324361,120.582017,0.32837403
C0V850,蚵仔寮,2025-06-13,22.7256,120.2527,0.9396848
C0S740,池上,2025-06-13,23.119628,121.209469,0.0007058504
C1V390,尖山,2025-06-13,22.813153,120.367789,0.95261306
C0AH70,松山,2025-06-13,25.04871,121.55042,0.0036556395
C0N010,鯤鯓國小,2025-06-13,23.1879,120.0889,0.66123855
C0R550,新埤,2025-06-13,22.467947,120.582894,0.026956102
C0SA60,知本（水試所）,2025-06-13,22.702394,121.082761,0.04545898
C0T9I0,豐濱,2025-06-13,23.583897,121.514806,0.0054477584
C0UB00,淡江大學蘭陽校園,2025-06-13,24.823239,121.730383,0.0058931108
C0W240,九宮,2025-06-13,24.423753,118.240186,0.24530335
C0T9N0,富里,2025-06-13,23.171639,121.249378,0.0018368154
U2HA50,臺大竹山,2025-06-13,23.756972,120.681556,3.5806324e-06
C0V840,鳳鼻頭,2025-06-13,22.5083,120.3591,0.07097716
C0X140,西港,2025-06-13,23.125608,120.203108,0.30512682
72D080,桃改五峰分場,2025-06-13,24.612194,121.157167,1.6234717e-09
C2H9P0,伊拿谷,2025-06-13,23.963211,121.088264,1.5078097e-06
C2H9F0,柑林,2025-06-13,24.018658,120.847072,0.09390042
C0TA20,加灣,2025-06-13,24.082025,121.608944,0.00013477424
C0V530,阿蓮,2025-06-13,22.883208,120.327508,0.5279342
C0FB30,八仙山苗圃,2025-06-13,24.192719,121.001366,7.0174218e-09
C1O880,關山,2025-06-13,23.173397,120.594092,0.17752548
C0E791,卓蘭,2025-06-13,24.3126,120.8244,5.5396265e-07
C1I030,武界,2025-06-13,23.913225,121.052483,4.7342064e-07
C0R520,崁頂,2025-06-13,22.514781,120.506914,0.024783706
C0R341,牡丹,2025-06-13,22.130036,120.792639,0.016295431
C0R930,萬丹,2025-06-13,22.5885,120.4851,0.13948333
C0S760,紅石,2025-06-13,23.069131,121.126219,9.443082e-09
C2C410,中央大學,2025-06-13,24.967652,121.185165,2.0380884e-07
C1M610,石磐龍,2025-06-13,23.496606,120.663506,7.263458e-09
C0C790,東眼山,2025-06-13,24.8284,121.40888,1.255284e-07
C0UA10,鴛鴦湖,2025-06-13,24.590269,121.412228,2.3915057e-08
V2C260,八德蔬果,2025-06-13,24.978508,121.281819,1.2731515e-07
C0R800,丹路,2025-06-13,22.204481,120.750989,0.028680425
C0G920,永靖,2025-06-13,23.924703,120.547533,0.006282795
C2M950,太和,2025-06-13,23.538372,120.702961,4.5553197e-09
C1A630,下盆,2025-06-13,24.771003,121.538622,3.3562962e-08
B2N890,畜產試驗所,2025-06-13,23.058972,120.336406,0.5927829
C0UA30,白嶺,2025-06-13,24.527819,121.519031,6.2891075e-08
C1V580,溪南(特生中心),2025-06-13,23.084972,120.788475,8.280744e-09
C1T970,大農,2025-06-13,23.615233,121.413331,0.00029849866
C0R650,竹田,2025-06-13,22.58486,120.54344,0.028351009
C1H900,清流,2025-06-13,24.080775,120.962997,1.3225904e-08
C1C510,水尾,2025-06-13,24.940081,121.087161,1.0900259e-06
C0F9X0,大雅(中科園區),2025-06-13,24.21528,120.62445,0.0023921577
C0SB60,白守蓮,2025-06-13,23.126769,121.401914,0.1097994
C0O970,虎頭埤,2025-06-13,23.021375,120.347878,0.957195
C0C730,中大臨海站,2025-06-13,24.966126,121.008581,3.897079e-06
C0X250,新營,2025-06-13,23.310689,120.316681,0.0008567595
C0V700,三民,2025-06-13,22.645017,120.311233,0.98693883
C0U870,大礁溪,2025-06-13,24.791042,121.675047,1.3838646e-06
C0E870,高鐵苗栗,2025-06-13,24.60725,120.826094,1.6223775e-07
A2K570,古坑花卉中心,2025-06-13,23.63353,120.55239,0.00012222657
C0TA30,鹽寮,2025-06-13,23.845606,121.592664,0.031443723
C0M860,新美,2025-06-13,23.338017,120.683169,7.501709e-06
C1E701,八卦,2025-06-13,24.491756,120.927619,4.0667985e-09
C0I420,國姓,2025-06-13,24.037803,120.855072,0.034844052
C2D720,關西工作站,2025-06-13,24.757275,121.184792,3.7485638e-08
C0S960,香蘭,2025-06-13,22.587569,120.993375,0.10209008
467620,蘭嶼,2025-06-13,22.0369,121.55843,0.09016002
C0R260,春日,2025-06-13,22.370361,120.628306,0.22879997
72G600,臺中農改場,2025-06-13,24.003028,120.534389,0.0051736007
C0Z210,瑞穗,2025-06-13,23.5239,121.39021,8.468877e-05
C0M820,達邦,2025-06-13,23.453994,120.749517,1.5439456e-08
C0V860,南寮,2025-06-13,22.7616,120.2339,0.9393834
C0G740,大城,2025-06-13,23.852487,120.320935,1.5498943e-05
C0R920,塭仔,2025-06-13,22.4169,120.5197,0.10325392
C0R470,高樹,2025-06-13,22.826389,120.600806,0.4155381
C0R680,佳樂水,2025-06-13,21.993578,120.861633,0.11598689
C1O870,大棟山,2025-06-13,23.31157,120.52226,9.558605e-09
C0D360,梅花,2025-06-13,24.678347,121.208558,3.1722973e-07
C0Z190,富世,2025-06-13,24.14743,121.6297,0.0028475
C0AI10,屈尺,2025-06-13,24.92184,121.54475,0.08864418
B2U990,畜試東區分所,2025-06-13,24.669039,121.832561,0.00855015
C0SB80,長濱漁港,2025-06-13,23.313644,121.459994,0.0035109962
C0R240,來義,2025-06-13,22.527306,120.625111,0.08718405
C0V910,大樹,2025-06-13,22.684645,120.432803,0.26195917
C1R610,西大武山,2025-06-13,22.617719,120.7322,6.990957e-09
C0G900,線西,2025-06-13,24.143358,120.443536,0.0014162125
C0M700,竹崎,2025-06-13,23.526178,120.555508,4.034923e-05
C2E880,三義,2025-06-13,24.405478,120.749819,5.1962292e-09
C0C720,竹圍,2025-06-13,25.112692,121.239824,0.0006309722
C0F9P0,清水,2025-06-13,24.312297,120.562242,0.0007462228
C0Z150,吉安光華,2025-06-13,23.930925,121.595153,0.06630413
C0FA80,小雪山天池,2025-06-13,24.28025,121.02627,8.837213e-09
467300,東吉島,2025-06-13,23.25727,119.66762,0.020933561
C1D640,外坪(五指山),2025-06-13,24.644447,121.090961,3.7901184e-08
C0F9O0,潭子,2025-06-13,24.213106,120.703933,0.00014402911
C2H9R0,卓社,2025-06-13,23.887894,121.000086,2.0801396e-08
72T250,花蓮農改場,2025-06-13,23.975222,121.563889,0.13390507
C0E780,銅鑼,2025-06-13,24.489681,120.790853,1.3015915e-08
C1T950,太安,2025-06-13,23.666719,121.370128,1.659279e-07
C0E830,苑裡,2025-06-13,24.439714,120.653053,5.5883816e-06
467270,田中,2025-06-13,23.873803,120.581286,0.0056279725
C0SA10,檳榔四格山,2025-06-13,22.810031,121.109308,0.002607676
C1T830,布洛灣,2025-06-13,24.17184,121.57127,0.99821264
C0F970,大坑,2025-06-13,24.173142,120.722289,0.0022107132
C1U920,思源,2025-06-13,24.393125,121.347214,4.295649e-09
C0A931,三和,2025-06-13,25.233153,121.595236,6.783358e-08
C0I010,廬山,2025-06-13,24.033311,121.181808,2.301082e-08
C2M940,日野賀,2025-06-13,23.434056,120.727169,6.964472e-09
C0R860,鼻頭,2025-06-13,22.1043,120.8979,0.93249714
C0UB20,壯圍,2025-06-13,24.7359,121.8163,0.022689888
C0R790,九棚,2025-06-13,22.14195,120.889281,0.7981082
C0W110,東莒,2025-06-13,25.9652,119.98069,0.16792846
C1U930,粉鳥林,2025-06-13,24.497088,121.842479,0.47085372
C1I211,蘆竹湳,2025-06-13,23.934019,120.811994,0.0025570127
C0S830,長濱,2025-06-13,23.286817,121.411975,1.0394846e-07
C1F9F1,伯公龍,2025-06-13,24.272392,120.849047,1.9683124e-07
C0UB90,太平山莊,2025-06-13,24.494171,121.536209,2.073287e-08
C0E810,西湖,2025-06-13,24.562947,120.7485,3.6511207e-08
C1I440,新高口,2025-06-13,23.478744,120.878939,5.6979896e-09
C0O840,王爺宮,2025-06-13,23.222064,120.40085,0.027767148
C0T9G0,鳳林山,2025-06-13,23.735269,121.420131,6.1273184e-08
C0X080,佳里,2025-06-13,23.173039,120.145086,0.660469
C0FB70,大甲溪埔,2025-06-13,24.370625,120.620067,8.464404e-05
C0Z310,清水斷崖,2025-06-13,24.218294,121.689142,0.00026223483
C0M680,太保,2025-06-13,23.455062,120.331455,0.00087595335
C1S820,金峰,2025-06-13,22.590969,120.933236,0.5519184
C0AD10,八里,2025-06-13,25.150211,121.403947,0.00065445044
C2K240,草嶺,2025-06-13,23.59555,120.693461,3.987904e-09
C1SA70,都蘭,2025-06-13,22.87794,121.226881,0.51157737
C0K440,二崙,2025-06-13,23.772797,120.408944,0.00022101923
C1A760,坪林交控,2025-06-13,24.94284,121.713442,0.7968545
C0F9N0,大里,2025-06-13,24.092464,120.701378,0.028797207
C0SA90,達仁林場,2025-06-13,22.264347,120.823972,5.7824263e-07
C1R290,石門山,2025-06-13,22.112611,120.756597,0.00024448047
42HA10,萬大發電廠,2025-06-13,23.978875,121.139639,7.452221e-08
C0R890,山海,2025-06-13,21.9878,120.7091,0.034710813
C0T9A0,月眉山,2025-06-13,23.809928,121.539828,3.6799744e-08
C0AC70,信義,2025-06-13,25.037822,121.564597,0.0036687476
C0K560,棋山,2025-06-13,23.68645,120.603417,8.351993e-05
C2FB50,出雲,2025-06-13,24.206469,120.902794,1.1982271e-08
C1Z240,中平林道,2025-06-13,23.42115,121.26763,1.3373904e-07
U2H480,溪頭,2025-06-13,23.670306,120.798194,7.551304e-09
C0M880,好美里,2025-06-13,23.3364,120.138,0.00022773672
C0T9E0,大坑,2025-06-13,23.880628,121.581981,1.2459894e-07
C0K530,臺西,2025-06-13,23.701547,120.197559,0.00015311674
C1E900,國一N128K,2025-06-13,24.560997,120.844186,2.1688773e-08
C0AJ50,水湳洞,2025-06-13,25.123695,121.862238,0.00814562
C0AI20,白沙灣,2025-06-13,25.283128,121.519058,5.4528664e-05
C2V310,美濃,2025-06-13,22.898792,120.51907,0.91300493
C0A860,大坪,2025-06-13,25.165914,121.632969,1.8002417e-08
C1U850,觀音海岸,2025-06-13,24.38319,121.77856,3.6688245e-05
C2K610,草嶺石壁,2025-06-13,23.602469,120.707731,3.7200711e-09
C0U950,鶯子嶺,2025-06-13,24.89754,121.79244,2.1723427e-08
C0O900,善化,2025-06-13,23.112883,120.297219,0.41888896
C0K550,蔦松,2025-06-13,23.514319,120.229736,8.453232e-05
E2P980,林試六龜中心,2025-06-13,22.991703,120.645722,0.06735447
C0E590,通霄,2025-06-13,24.471892,120.704622,1.13627706e-07
C1I310,西巒,2025-06-13,23.754486,120.883956,2.0237378e-06
C0A550,泰平,2025-06-13,24.971197,121.823711,2.4356012e-08
C0I360,水里,2025-06-13,23.812553,120.849792,0.00058650936
C0R830,高士,2025-06-13,22.121825,120.836781,3.891931e-06
C1I101,溪頭,2025-06-13,23.661789,120.807647,1.8897307e-08
C0AJ20,野柳,2025-06-13,25.20703,121.690021,0.00020254213
C0B060,暖暖,2025-06-13,25.0957,121.7403,0.00091246946
C1H920,長豐,2025-06-13,24.102039,120.879897,3.434644e-08
C0V360,內門,2025-06-13,22.975481,120.466769,0.96459746
C0R850,林邊,2025-06-13,22.4634,120.5339,0.020553092
C0E930,龍鳳,2025-06-13,24.700034,120.859125,8.660175e-08
C0U910,冬山,2025-06-13,24.63373,121.7937,0.00855015
C1E721,泰安,2025-06-13,24.489017,120.968036,2.5557851e-09
82H320,茶改中部分場,2025-06-13,23.875611,120.913583,0.00014850944
C0M750,布袋,2025-06-13,23.380878,120.167789,0.00029695852
C1S860,利嘉,2025-06-13,22.809417,121.050528,4.0810628e-05
E2S980,林試太麻里1,2025-06-13,22.598922,120.980044,0.36086756
C0X170,關廟,2025-06-13,22.963017,120.327797,0.731202
C0V720,林園,2025-06-13,22.507747,120.394511,0.09272377
C1I510,線浸林道,2025-06-13,23.761508,120.832956,1.4383087e-08
C0D690,外湖,2025-06-13,24.917735,120.968711,4.821245e-06
C0C750,新興坑尾,2025-06-13,25.0061,121.0971,2.69541e-06
B2Q810,畜試南區分所,2025-06-13,21.945583,120.802167,0.09466632
C0S790,金崙,2025-06-13,22.538122,120.966875,0.6783974
C0AH90,福山植物園,2025-06-13,24.760717,121.58135,2.2545773e-07
C0I540,奇萊稜線,2025-06-13,24.109231,121.326456,1.1142066e-08
C0M850,表湖,2025-06-13,23.24186,120.64166,4.5620124e-07
C0S770,大溪山,2025-06-13,22.478475,120.943325,0.00049028243
C0AG80,中和,2025-06-13,24.991622,121.491792,0.0046874587
C0T790,大禹嶺,2025-06-13,24.186117,121.316086,3.5251708e-09
C0T9B0,水源,2025-06-13,23.991861,121.537169,3.176804e-06
C0R840,牡丹池山,2025-06-13,22.168389,120.841225,2.7781118e-07
C1I131,桶頭,2025-06-13,23.641944,120.654117,3.6159187e-07
CAL110,布袋國中,2025-06-13,23.35893,120.18026,0.000116288786
467571,新竹,2025-06-13,24.827853,121.014219,6.372618e-07
C0Z290,赤柯山,2025-06-13,23.36893,121.38293,1.6042188e-08
C0X280,將軍,2025-06-13,23.214999,120.13577,0.0033336752
C0S690,太麻里,2025-06-13,22.60902,120.98533,0.0013039625
C0U880,北關,2025-06-13,24.9072,121.8734,0.9349795
C0G810,埔心,2025-06-13,23.947633,120.525456,0.006238758
C0U970,大福,2025-06-13,24.80064,121.81389,0.18411285
C2H9N0,仁愛東眼,2025-06-13,24.026875,121.1205,3.269755e-08
C1E670,南礦,2025-06-13,24.538278,121.002836,1.9588973e-09
C0M520,東後寮,2025-06-13,23.369908,120.248065,9.739948e-05
C1E461,松安,2025-06-13,24.397972,120.986022,3.6320527e-09
C2N160,西拉雅風管處,2025-06-13,23.189481,120.335297,0.46399125
C2M970,碧湖,2025-06-13,23.568632,120.624165,5.9736407e-09
C0A640,石碇,2025-06-13,24.993969,121.662917,0.011205381
E2S960,林試太麻里2,2025-06-13,22.598,120.99775,0.08650683
C0F9Y0,桃山,2025-06-13,24.432739,121.303808,9.875787e-09
C1I020,萬大,2025-06-13,23.979817,121.132261,1.5368566e-07
C0U940,羅東,2025-06-13,24.68184,121.74934,0.019718349
C0M650,朴子,2025-06-13,23.43463,120.23902,0.00017353008
C1I500,大尖山,2025-06-13,23.858572,120.994889,1.7819003e-08
C0FB40,中橫21.6k,2025-06-13,24.2499,121.1455,5.8325604e-08
C0G820,田尾,2025-06-13,23.901669,120.509389,0.0062534
E2K600,四湖植物園,2025-06-13,23.676986,120.163433,0.00023133325
C0S730,綠島,2025-06-13,22.6672,121.47533,0.0017848612
12Q970,東港工作站,2025-06-13,22.479997,120.466058,0.018507568
C0E430,南庄,2025-06-13,24.601775,121.000214,1.4453654e-08
C1TA00,太魯閣,2025-06-13,24.15773,121.6236,0.0007616746
466920,臺北,2025-06-13,25.037658,121.514853,0.0036556395
C0R600,舊泰武,2025-06-13,22.588194,120.664944,2.2547166e-08
C1I260,北坑,2025-06-13,23.9246,121.006903,0.000378873
466910,鞍部,2025-06-13,25.182586,121.529731,3.5435068e-09
C1I230,九份二山,2025-06-13,23.961944,120.845,5.8023783e-05
C2A660,瑞芳,2025-06-13,25.113169,121.801147,0.0003751159
C0R270,琉球嶼,2025-06-13,22.332244,120.362236,0.07361078
C1T990,高寮,2025-06-13,23.394239,121.356808,4.3519426e-06
C0G620,芬園,2025-06-13,24.015678,120.6213,0.07677523
C1Z140,荖溪,2025-06-13,23.890575,121.45964,7.2412934e-07
C1I201,中心崙,2025-06-13,23.728722,120.712097,1.1695798e-08
C1I400,凌霄,2025-06-13,24.018778,121.004456,3.6599058e-08
C1M640,十字,2025-06-13,23.492153,120.753683,1.0499836e-08
G2P820,農試鳳山分所,2025-06-13,22.646611,120.356083,0.99053586
C0Z270,蕃薯寮,2025-06-13,23.73835,121.540108,2.4867046e-07
C0FB10,出雲山苗圃,2025-06-13,24.23105,120.90475,6.469526e-09
C0F9Q0,外埔,2025-06-13,24.347817,120.705686,4.1318643e-07
C0K580,高鐵雲林,2025-06-13,23.737456,120.417944,8.583437e-06
C2I090,鳳凰,2025-06-13,23.728081,120.787347,3.3844273e-08
C0U990,員山,2025-06-13,24.74435,121.72247,0.023344487
C0V770,大社,2025-06-13,22.730306,120.346639,0.96235484
C0X120,麻豆,2025-06-13,23.183289,120.248611,0.2583811
C0C670,龍潭,2025-06-13,24.870056,121.221389,2.8266298e-08
C0D680,香山濕地,2025-06-13,24.783581,120.914988,4.5482588e-07
C0S980,勝林山,2025-06-13,22.430439,120.8938,4.0319256e-07
C0V730,大寮,2025-06-13,22.605614,120.395717,0.72653687
C0R570,麟洛,2025-06-13,22.65078,120.52719,0.094688594
C2M930,石卓,2025-06-13,23.478744,120.702264,1.6150596e-08
C0G9B0,和美,2025-06-13,24.105169,120.492131,0.00011125296
CAG100,王功漁港,2025-06-13,23.96824,120.32586,1.0295571e-05
C0X290,北門,2025-06-13,23.267772,120.125481,0.0033058943
C2F930,大甲,2025-06-13,24.347667,120.640403,2.0837268e-05
C0D650,湖口,2025-06-13,24.904794,121.043628,1.3792938e-06
C0E420,竹南,2025-06-13,24.708978,120.888897,6.25128e-08
C0U780,五結,2025-06-13,24.68637,121.79794,0.022449924
C1I250,鯉潭,2025-06-13,23.961922,120.991131,0.009641148
C0R130,阿禮,2025-06-13,22.742908,120.743678,2.204537e-08
C0X100,臺南市北區,2025-06-13,23.010394,120.194228,0.5639892
C0S920,金峰嘉蘭,2025-06-13,22.594789,120.960825,0.40113878
C0V490,新興,2025-06-13,22.627422,120.298803,0.58643425
C0F9K0,大安,2025-06-13,24.345061,120.588025,9.305546e-05
467290,古坑,2025-06-13,23.633639,120.551889,0.00012222657
C2E970,八甲,2025-06-13,24.535811,120.795983,6.351731e-09
C0V440,鳳山,2025-06-13,22.646653,120.356122,0.99053586
C1T940,大觀,2025-06-13,23.714206,121.373133,1.5343518e-08
C0E740,造橋,2025-06-13,24.637056,120.864778,5.6729533e-08
C0R100,尾寮山,2025-06-13,22.833111,120.683889,7.639561e-08
A2K630,臺大雲林校區,2025-06-13,23.730628,120.423903,8.589497e-06
467990,馬祖,2025-06-13,26.169467,119.923158,0.9971823
C0D580,寶山,2025-06-13,24.735006,121.025192,7.913027e-07
E2P990,林試扇平站,2025-06-13,22.9677,120.6857,0.005528641
C0AI30,三重,2025-06-13,25.057328,121.500629,0.004310161
C0AH00,汐止,2025-06-13,25.066881,121.658778,0.0036556395
C1Z040,立山,2025-06-13,23.443356,121.327375,1.379215e-06
466881,新北,2025-06-13,24.959207,121.525196,0.0031115662
C0W130,花嶼,2025-06-13,23.40007,119.32276,0.9982383
C0A950,鼻頭角,2025-06-13,25.129036,121.923372,0.9996626
C0K470,林內,2025-06-13,23.748675,120.609642,2.955563e-05
C2F990,摩天嶺,2025-06-13,24.322458,120.936819,1.0001371e-08
82C160,茶改場,2025-06-13,24.908472,121.185333,2.0795127e-08
C0Z320,清水林道,2025-06-13,23.27125,121.188272,0.00014030475
C0R760,南仁湖,2025-06-13,22.084681,120.863353,0.00024453783
C0M670,大林,2025-06-13,23.600616,120.45841,0.00037596564
C0M800,茶山,2025-06-13,23.299075,120.664767,0.2676267
C0A9C0,天母,2025-06-13,25.117494,121.537169,0.005549975
72K220,南改斗南分場,2025-06-13,23.634556,120.477333,7.912001e-05
72AI40,桃改樹林分場,2025-06-13,24.944503,121.386972,4.776154e-07
C0S910,蘭嶼燈塔,2025-06-13,22.081197,121.503117,0.0304724
C0B050,八斗子,2025-06-13,25.144754,121.79167,0.021465365
C0U900,內城,2025-06-13,24.71813,121.68766,0.013568128
C0X320,柳營,2025-06-13,23.253328,120.375253,0.544393
C0M790,新港,2025-06-13,23.553269,120.345728,2.4342944e-05
C0F9T0,西屯,2025-06-13,24.179494,120.641275,0.006885225
C0E950,松安,2025-06-13,24.39792,120.98599,3.6320527e-09
C0SA30,都歷,2025-06-13,23.020333,121.323642,0.40741608
C0C620,蘆竹,2025-06-13,25.084275,121.265767,1.8969653e-05
C0R730,大坪頂,2025-06-13,22.024633,120.69355,0.98626494
C0AJ40,石門,2025-06-13,25.273672,121.601198,9.551624e-05
C0E750,苗栗,2025-06-13,24.564569,120.824575,2.2778378e-08
C0T870,鯉魚潭,2025-06-13,23.935639,121.508944,0.009280706
C1V170,排雲,2025-06-13,23.463619,120.954147,1.4079949e-08
C2H950,中寮,2025-06-13,23.884447,120.766406,0.012573157
C0R350,貓鼻頭,2025-06-13,21.921774,120.7358,0.001422863
C0V660,岡山,2025-06-13,22.797078,120.294958,0.8940647
C1H941,雙冬,2025-06-13,23.967378,120.802189,0.00015937701
C0AJ70,田寮,2025-06-13,25.2698,121.4886,4.7709214e-05
C0AI00,五股,2025-06-13,25.07445,121.42728,1.11299905e-05
C0Z280,德武,2025-06-13,23.47426,121.41071,7.297816e-07
C0R700,枋山,2025-06-13,22.246844,120.661086,0.20660996
C0C460,復興,2025-06-13,24.820208,121.352281,2.5120346e-07
E2H360,蓮華池,2025-06-13,23.918333,120.885278,3.2970052e-06
C0M640,中埔,2025-06-13,23.42538,120.5229,0.00030427662
C0W140,金沙,2025-06-13,24.488292,118.408778,0.08098982
C2A540,四堵,2025-06-13,24.8926,121.745736,3.8924136e-06
C0ACA0,新莊,2025-06-13,25.051478,121.446756,0.008091633
C0R220,潮州,2025-06-13,22.534361,120.54,0.025768615
U2HA40,臺大內茅埔,2025-06-13,23.689722,120.851117,0.5329301
467490,臺中,2025-06-13,24.145736,120.684075,0.01498898
C0UB60,明池,2025-06-13,24.650688,121.475277,9.9440626e-08
C0U960,翠峰湖,2025-06-13,24.510856,121.608044,2.165397e-08
E2HA20,林試畢祿溪站,2025-06-13,24.226944,121.308522,4.694769e-09
C0V890,前鎮,2025-06-13,22.5718,120.3117,0.5180012
C1F941,雪嶺,2025-06-13,24.280586,121.026642,8.837213e-09
C2H9E0,國姓南港,2025-06-13,23.911108,120.846556,1.9068093e-08
C0AC80,文山,2025-06-13,25.00235,121.575728,0.0020470775
C0F9R0,龍井,2025-06-13,24.184536,120.528972,0.0019163012
C0M760,民雄,2025-06-13,23.551754,120.428457,0.00040250923
C0UA40,西德山,2025-06-13,24.560647,121.752608,1.6034235e-08
C1T920,中興,2025-06-13,23.769503,121.498653,0.015083867
C0D550,雪霸,2025-06-13,24.526972,121.11605,6.3484005e-09
C2F860,梨山,2025-06-13,24.247522,121.243669,4.8423376e-09
C0R320,車城,2025-06-13,22.0744,120.716247,0.9781512
C1S870,南美山,2025-06-13,23.15025,121.382333,0.0029910326
C0B020,基隆嶼,2025-06-13,25.19141,121.78391,0.99817777
C1U501,牛鬥,2025-06-13,24.637836,121.573656,0.00021712997
C0M730,嘉義市東區,2025-06-13,23.457673,120.460531,0.00588728
C0S700,知本,2025-06-13,22.684866,121.005642,5.3237083e-05
C1N001,沙崙,2025-06-13,22.935472,120.309406,0.67348355
C0V760,橋頭,2025-06-13,22.757806,120.30575,0.95385087
C0G960,福寶,2025-06-13,24.0443,120.3814,0.000114118586
C0X210,白河,2025-06-13,23.347466,120.414427,0.16875143
C0S810,東河,2025-06-13,22.972672,121.303986,0.27527076
C2R170,屏東,2025-06-13,22.66027,120.49403,0.09455759
C0R670,楓港,2025-06-13,22.190131,120.692156,0.92606336
C0FA50,霧峰,2025-06-13,24.0419,120.6995,0.11616106
C0UB10,蘇澳,2025-06-13,24.5969,121.8571,0.123226404
C0G950,防潮門,2025-06-13,24.1835,120.4871,0.0018292739
C0M740,六腳,2025-06-13,23.492871,120.290625,4.384499e-05
C1R250,力里,2025-06-13,22.428117,120.629228,0.12042992
C0K330,虎尾,2025-06-13,23.719183,120.442036,7.2264024e-06
C2FA00,烏石坑,2025-06-13,24.273503,120.947617,1.0489387e-08
C0V620,永安,2025-06-13,22.82315,120.236856,0.8939791
C1I330,楓樹林,2025-06-13,23.986803,121.076117,3.180576e-08
C0W200,湖西,2025-06-13,23.596314,119.67275,0.5915205
72Q010,高雄農改場,2025-06-13,22.709333,120.525889,0.18707636
C0SA40,瑞和,2025-06-13,22.974361,121.156697,0.68355775
C0C680,龜山,2025-06-13,25.02846,121.38656,0.0033201613
C2V260,月眉,2025-06-13,22.971003,120.539853,0.6770091
C0V450,鳳森,2025-06-13,22.545064,120.392592,0.24049783
C0FA90,小雪山林道,2025-06-13,24.29515,121.03651,1.1919996e-08
C0U720,南山,2025-06-13,24.43742,121.38167,1.2433795e-06
A2N290,臺南蘭花園區,2025-06-13,23.340258,120.379661,0.0017533529
C0R560,新園,2025-06-13,22.5434,120.461558,0.09272377
C0U890,三星,2025-06-13,24.66812,121.65302,0.021652965
C1V300,御油山,2025-06-13,23.001983,120.715364,6.643024e-09
C0U600,礁溪,2025-06-13,24.817539,121.765608,0.74199694
C1T980,龍澗,2025-06-13,24.023289,121.411328,5.975147e-08
C0D670,海天一線,2025-06-13,24.831986,120.914438,8.600395e-07
C0SA00,歷坵,2025-06-13,22.520969,120.89185,0.0061262064
C0M710,東石,2025-06-13,23.458927,120.15385,3.047051e-05
C0M780,鹿草,2025-06-13,23.41134,120.30835,0.00014565744
C0U520,雙連埤,2025-06-13,24.753033,121.641303,1.1345732e-06
C0B010,七堵,2025-06-13,25.094819,121.71713,0.014631591
C0R480,長治,2025-06-13,22.693128,120.542622,0.30653322
C1V830,國三S383K,2025-06-13,22.781967,120.426475,0.43746346
12Q980,恆春工作站,2025-06-13,22.079678,120.714425,0.9781665
C1O940,東山服務區,2025-06-13,23.286016,120.398472,0.11265316
C1U840,東澳嶺,2025-06-13,24.5378,121.8485,2.436777e-08
C1D630,飛鳳山,2025-06-13,24.766464,121.119178,4.212815e-08
C0S940,石寧山,2025-06-13,23.223772,121.406639,0.030992948
C0K410,北港,2025-06-13,23.573957,120.292802,0.00022385606
C2M620,瑞里,2025-06-13,23.545133,120.675197,5.1698144e-09
C0SB70,小港漁港,2025-06-13,23.158558,121.400431,0.33854485
C2O950,安南,2025-06-13,23.076694,120.144861,0.17670332
C0F0E0,南湖圈谷,2025-06-13,24.363714,121.444667,2.0139996e-08
467610,成功,2025-06-13,23.097486,121.373428,0.12879506
C0G890,伸港,2025-06-13,24.148933,120.484403,0.0014927102
C2E540,龍溪,2025-06-13,24.606489,120.783933,1.8536065e-07
C1V200,梅山,2025-06-13,23.268447,120.823556,3.7332948e-06
C0T9H0,加路蘭山,2025-06-13,23.682947,121.5274,3.4365833e-08
C2O930,玉井,2025-06-13,23.126042,120.46055,0.39656806
C1F911,新伯公,2025-06-13,24.221361,120.841069,6.0952507e-06
C0R490,九如,2025-06-13,22.7405,120.490503,0.17429575
C0X200,左鎮,2025-06-13,23.056758,120.408522,0.9835182
C0FA60,鞍馬山工作站,2025-06-13,24.267064,121.000793,8.65966e-09
C0SB50,叭嗡嗡,2025-06-13,23.047062,121.343223,0.29199782
C1F891,稍來,2025-06-13,24.265689,121.001142,8.455091e-09
72N240,七股研究中心,2025-06-13,23.081672,120.062894,0.12692167
C0C700,中壢,2025-06-13,24.977661,121.256375,6.232398e-08
C0M690,水上,2025-06-13,23.419734,120.388909,0.0008995965
C0V690,鼓山,2025-06-13,22.623325,120.275575,0.58585167
C0O860,大內,2025-06-13,23.11885,120.36083,0.5362641
C0Z200,萬榮,2025-06-13,23.709219,121.420106,0.0003264386
C0T9D0,和中,2025-06-13,24.26676,121.74103,0.1422661
C1O921,楠西,2025-06-13,23.183511,120.484083,0.30263665
C0AJ30,淡水觀海,2025-06-13,25.184591,121.408616,0.0005041939
C0V810,左營,2025-06-13,22.67491,120.28491,0.98689663
C0UA70,桃源谷,2025-06-13,24.962606,121.888875,3.2559267e-08
C0X130,官田,2025-06-13,23.193217,120.315422,0.41844735
C1H000,翠峰,2025-06-13,24.109397,121.205211,3.5337338e-09
C0UA90,石城,2025-06-13,24.980444,121.951214,0.9525615
C1E681,南勢山,2025-06-13,24.421669,120.923831,1.6102234e-09
C0A9F0,內湖,2025-06-13,25.079422,121.57545,0.0036556395
C0K291,宜梧,2025-06-13,23.536281,120.169329,8.4261505e-05
C1K540,口湖,2025-06-13,23.585344,120.180517,0.0003137597
C0R780,滿州,2025-06-13,22.024403,120.839892,0.3520861
C0V870,文安,2025-06-13,22.8025,120.2164,0.83502895
C0U650,玉蘭,2025-06-13,24.675286,121.587061,3.8649237e-06
C0R640,東港,2025-06-13,22.46247,120.44074,0.018507577
C0AJ80,板橋,2025-06-13,25.0107,121.4489,0.005855446
C0S660,下馬,2025-06-13,23.150427,121.070312,6.661615e-08
C1H9B1,阿眉,2025-06-13,24.1263,120.994672,1.3023364e-08
C0UA20,多加屯,2025-06-13,24.368614,121.373189,3.215992e-09
C0E730,頭份,2025-06-13,24.688247,120.912206,7.0897514e-08
72V140,高改旗南分場,2025-06-13,22.857861,120.516667,0.78739977
C0K480,莿桐,2025-06-13,23.761192,120.502372,0.00072915194
C0U980,坪林石牌,2025-06-13,24.86478,121.77396,9.251829e-07
C0T900,西林,2025-06-13,23.8119,121.441458,0.00033196912
C1I150,青雲,2025-06-13,23.793361,120.949378,0.8043988
467350,澎湖,2025-06-13,23.565503,119.563094,0.99807405
C0G800,埔鹽,2025-06-13,24.000394,120.431683,3.7399448e-05
C0H960,草屯,2025-06-13,23.973672,120.68085,0.099707715
C1V780,多納林道,2025-06-13,22.888028,120.737917,1.2299051e-07
C0E920,通霄漁港,2025-06-13,24.498589,120.673876,1.7794483e-06
C0Z330,安通山,2025-06-13,23.290728,121.348528,6.7307204e-09
C0AH10,永和,2025-06-13,25.01125,121.508111,0.0068986453
C0AK10,太平里,2025-06-13,25.134937,121.364899,0.00069058524
C2G640,鹿港,2025-06-13,24.0753,120.430481,0.000114118586
C1E890,國三N149K,2025-06-13,24.463414,120.680019,1.8130143e-07
C1R110,口社,2025-06-13,22.770111,120.645222,0.09077527
C1M870,國三N285K,2025-06-13,23.550319,120.505833,0.000106927226
C1E480,鳳美,2025-06-13,24.554803,121.034747,1.0188326e-08
C0M530,奮起湖,2025-06-13,23.493903,120.699253,4.466411e-09
C0C590,觀音,2025-06-13,25.027072,121.153317,3.6988552e-06
C0T9M0,靜浦,2025-06-13,23.455167,121.495028,7.744411e-05
C2H9M0,發祥,2025-06-13,24.154094,121.164517,1.787067e-08
C0AI40,石牌,2025-06-13,25.115597,121.513139,0.0076397443
C1F871,上谷關,2025-06-13,24.203483,121.018644,1.4670014e-08
C2H9G0,百勝,2025-06-13,24.051142,120.909361,1.73621e-05
C0G880,二水,2025-06-13,23.810742,120.6173,2.3837403e-05
C0R940,加祿堂,2025-06-13,22.3363,120.6217,0.5553042
C0W220,北竿,2025-06-13,26.220358,119.974881,0.97335863
C0O960,崎頂,2025-06-13,22.959547,120.369317,0.93695843
C0S750,向陽,2025-06-13,23.248397,120.986133,8.852649e-09
C0T9F0,水璉,2025-06-13,23.797131,121.542514,2.973515e-05
C1M600,頭凍,2025-06-13,23.406364,120.603339,3.0605918e-08
467660,臺東,2025-06-13,22.752211,121.154586,0.0015152091
C1D380,新埔,2025-06-13,24.84745,121.03834,1.5458748e-07
C2G980,田頭村,2025-06-13,23.8263,120.444175,0.00022221627
C0V750,路竹,2025-06-13,22.854997,120.259439,0.98498976
C0N050,蚵寮,2025-06-13,23.301,120.1104,0.00022716355
72M700,南改鹿草分場,2025-06-13,23.416869,120.283061,0.00017417892
C1SA50,利嘉林道,2025-06-13,22.82325,121.009389,6.4561143e-09
C0UB70,太平山中間站,2025-06-13,24.542003,121.513453,6.711776e-08
C0A940,金山,2025-06-13,25.223628,121.643967,0.00013091353
C1V340,大津,2025-06-13,22.888322,120.645986,0.4353298
C0W180,七美,2025-06-13,23.219333,119.444892,0.9442215
C1F9C1,白冷,2025-06-13,24.182844,120.929889,7.351197e-08
K2E710,苗改生物防治研究中心,2025-06-13,24.422861,120.871833,2.9384003e-08
C0N040,蘆竹溝,2025-06-13,23.2344,120.0961,0.0033058943
C0D760,大坪苗圃,2025-06-13,24.5362,121.1108,1.8908584e-09
C2W230,畜試所澎湖,2025-06-13,23.628342,119.513206,0.99905485
C0R880,後壁湖,2025-06-13,21.9457,120.7457,0.027061714
C1I280,埔中,2025-06-13,23.820778,120.642594,1.0202394e-05
467790,墾丁雷達站,2025-06-13,21.948235,120.808028,0.2500843
C0W190,望安,2025-06-13,23.380564,119.494075,0.9981235
C0Z170,卓溪,2025-06-13,23.3443,121.3029,2.9236676e-07
C0F850,東勢,2025-06-13,24.246428,120.833047,1.6421903e-06
466900,淡水,2025-06-13,25.164889,121.448906,0.00069371855
C0I370,魚池,2025-06-13,23.895703,120.94135,8.36749e-05
C0C630,大溪,2025-06-13,24.882853,121.265547,9.312745e-08
C0A520,山佳,2025-06-13,24.974944,121.402008,1.0788568e-05
C0I110,竹山,2025-06-13,23.761225,120.688156,2.118342e-06
82H840,茶改南部分場,2025-06-13,23.762528,120.7405,8.713885e-06
C0G660,溪湖,2025-06-13,23.94835,120.479122,0.006858128
C1T800,洛韶,2025-06-13,24.204558,121.453956,5.996337e-08
C1T810,慈恩,2025-06-13,24.192044,121.388386,1.5480937e-09
C1E451,象鼻,2025-06-13,24.368617,120.940228,1.731116e-09
C0AC60,三峽,2025-06-13,24.939025,121.369728,1.8218225e-07
C0I490,萬大林道,2025-06-13,23.928228,121.091411,3.770837e-08
C1I290,豐丘,2025-06-13,23.668178,120.887417,3.7913312e-09
C1I320,奧萬大,2025-06-13,23.952956,121.178556,4.57603e-08
C2M910,嘉義大學,2025-06-13,23.471325,120.485903,0.0017370773
C0U770,南澳,2025-06-13,24.44935,121.81022,0.8953932
C0A980,社子,2025-06-13,25.109508,121.469681,0.0006086288
C0V800,六龜,2025-06-13,22.997889,120.633583,0.093551144
C1G9D0,國一S218K,2025-06-13,23.890641,120.493253,0.005582572
C0E570,白沙屯,2025-06-13,24.549447,120.696803,2.0465707e-07
C2F9A0,中竹林,2025-06-13,24.103556,120.751061,0.0002846528
C0FA40,臺中電廠,2025-06-13,24.2146,120.4907,0.0019248108
C2G9A0,畜試所彰化,2025-06-13,23.86045,120.557964,0.005602673
C0H9C0,合歡山,2025-06-13,24.143442,121.272547,1.0330901e-08
C0X060,下營,2025-06-13,23.22695,120.256261,0.012894501
G2M350,農試溪口農場,2025-06-13,23.58565,120.408111,0.00041678082
C0U860,頭城,2025-06-13,24.85323,121.8308,0.7083925
C0R580,南州,2025-06-13,22.48591,120.50274,0.018507568
C0D430,峨眉,2025-06-13,24.6905,121.017189,2.7660427e-08
C0G780,秀水,2025-06-13,24.03405,120.503869,0.005162297
72N100,臺南農改場,2025-06-13,23.0605,120.342194,0.5978644
C0S900,蘭嶼高中,2025-06-13,22.04909,121.51214,0.0038836263
C1F9W0,德基,2025-06-13,24.254783,121.190261,1.3042505e-08
C1Z120,壽豐,2025-06-13,23.870853,121.508081,0.018732073
C0W160,烏坵,2025-06-13,24.9944,119.44956,0.9973379
C1I240,外大坪,2025-06-13,23.958697,120.917931,0.0043169213
C1I550,國六W023K,2025-06-13,23.979067,120.867742,0.00017668905
C0R870,興海,2025-06-13,21.9752,120.8439,0.094786294
C0R140,瑪家,2025-06-13,22.682903,120.686639,1.8500462e-07
C0A530,坪林,2025-06-13,24.938183,121.70975,0.043034285
C0X260,後壁,2025-06-13,23.366358,120.362326,0.00044635643
C0Z230,和平,2025-06-13,24.30717,121.77007,0.14178957
C0G770,福興,2025-06-13,24.041289,120.437669,3.7259724e-05
C0H9A0,神木村,2025-06-13,23.532742,120.843667,7.6653635e-09
C0I460,南投,2025-06-13,23.911469,120.687331,0.53477216
C0I480,梅峰,2025-06-13,24.085272,121.173572,4.270284e-09
C1V570,吉東,2025-06-13,22.85422,120.5454,0.7796994
C2D740,屯原,2025-06-13,24.067969,121.209389,7.0609496e-09
C2A560,福山,2025-06-13,24.776203,121.502811,0.002068602
C0AH30,五分山,2025-06-13,25.07125,121.780794,7.0457875e-09
C0FA10,松柏,2025-06-13,24.429115,120.617482,6.792622e-06
72S200,東改班鳩分場,2025-06-13,22.829528,121.077694,0.09173948
72HA00,中改埔里分場,2025-06-13,23.903208,120.963364,3.0685253e-05
C2H9W0,大坪頂農水,2025-06-13,24.043122,120.932781,3.070766e-08
C0C650,平鎮,2025-06-13,24.897503,121.214636,1.3912675e-08
C0S930,延平,2025-06-13,22.902581,121.084058,0.8471444
C0UA60,樟樹山,2025-06-13,24.41393,121.78325,0.06538885
C1S670,摩天,2025-06-13,23.199503,121.027,9.977022e-09
C0V630,茄萣,2025-06-13,22.906642,120.182608,0.8739268
466940,基隆,2025-06-13,25.133314,121.740475,0.019552603
C0X050,東河,2025-06-13,23.296598,120.385608,0.15277553
C0R770,保力,2025-06-13,22.071122,120.764111,0.966827
G2L020,農試嘉義分所,2025-06-13,23.485028,120.473806,0.00020582952
C0X240,關子嶺,2025-06-13,23.331169,120.508025,0.0015579166
C0I380,集集,2025-06-13,23.828206,120.801467,0.0011617574
466990,花蓮,2025-06-13,23.975128,121.613275,0.16097583
C1V220,小關山,2025-06-13,23.154217,120.813603,1.0367024e-08
C1F9G1,慶福山,2025-06-13,24.180853,120.848378,6.521038e-09
C0FB20,雪山橋,2025-06-13,24.23192,120.9786,7.737635e-09
C0Z250,瑞穗林道,2025-06-13,23.49284,121.30688,2.4157447e-07
C0D590,新豐,2025-06-13,24.87068,120.97721,7.05651e-08
C0A870,五指山,2025-06-13,25.132153,121.608692,3.3995449e-09
C0UA50,西帽山,2025-06-13,24.555361,121.802628,5.203551e-08
C0X160,仁德,2025-06-13,22.968258,120.257689,0.4654816
C1H971,六分寮,2025-06-13,23.92507,120.6378,1.9658599e-05
C0W120,西嶼,2025-06-13,23.5626,119.468436,0.99940604
C0G650,員林,2025-06-13,23.946503,120.585597,0.11017623
C0AD50,鶯歌,2025-06-13,24.951533,121.346294,1.07093804e-07
C2H9Q0,北東眼山,2025-06-13,24.120939,121.189303,9.474998e-09
C2H9T0,名間竹圍,2025-06-13,23.859914,120.637572,0.009022479
C0S990,山豬窟,2025-06-13,22.318619,120.857372,3.528796e-06
C0X190,安平,2025-06-13,22.993161,120.152181,0.5643559
C0K400,斗六,2025-06-13,23.720583,120.541127,0.00018722226
12J990,口湖工作站,2025-06-13,23.589978,120.180394,0.0003137597
C0O830,北寮,2025-06-13,23.079561,120.495008,0.34895998
C1D410,白蘭,2025-06-13,24.579364,121.079947,1.8926625e-09
C0S970,加津林,2025-06-13,22.416211,120.926942,0.048345614
C0D700,關西,2025-06-13,24.7977,121.1732,7.758594e-08
C0M810,里佳,2025-06-13,23.389125,120.716647,5.876901e-09
C0U750,龜山島,2025-06-13,24.841667,121.953133,0.9876705
C0R810,內獅,2025-06-13,22.305064,120.642986,0.52896166
C1M390,龍美,2025-06-13,23.406728,120.654417,1.069774e-08
C2FB60,頭櫃山,2025-06-13,24.129842,120.858925,2.2050038e-08
C1H840,國三N238K,2025-06-13,23.841008,120.707711,0.141524
CAQ030,崎峰國小,2025-06-13,22.42565,120.49521,0.018507577
C2E520,大湖,2025-06-13,24.414939,120.870872,5.5068952e-08
467530,阿里山,2025-06-13,23.508208,120.813242,5.4218057e-09
C1E691,南湖,2025-06-13,24.40135,120.837533,2.3177136e-09
C0FA30,梧棲,2025-06-13,24.256003,120.523381,0.0007462228
C1V231,高中,2025-06-13,23.134911,120.716711,1.9929823e-08
C0AK30,硬漢嶺,2025-06-13,25.136097,121.426372,4.535492e-09
C0F9V0,新社,2025-06-13,24.200172,120.815806,3.7198785e-07
C0H890,埔里,2025-06-13,23.972169,120.952425,1.1899222e-06
C0R690,墾丁,2025-06-13,21.966756,120.810269,0.0066093383
C0F0D0,審馬陣,2025-06-13,24.381675,121.4203,6.330312e-09
C2W030,金門農試所,2025-06-13,24.448431,118.451786,0.30846646
C0R820,白鷺,2025-06-13,22.454275,120.666219,0.0017231297
C0FB00,大雪山,2025-06-13,24.254668,121.007374,6.6451022e-09
C1V190,南天池,2025-06-13,23.27403,120.91176,6.6686296e-09
C0E940,雪見,2025-06-13,24.42595,121.01347,8.248697e-09
K2E360,苗栗農改場,2025-06-13,24.495722,120.829111,2.4550129e-08
CAJ050,海口故事園區,2025-06-13,23.57543,120.14121,0.0003137597
C2H9D0,三隻寮,2025-06-13,24.093078,120.861578,2.6513495e-08
C0O990,媽廟,2025-06-13,22.99175,120.293525,0.41923726
C0D480,打鐵坑,2025-06-13,24.849664,121.150789,2.6638547e-08
C0Z220,和平林道,2025-06-13,24.343922,121.656317,0.008988121
C0TA10,花蓮漁港,2025-06-13,23.995322,121.638331,0.17094582
72C440,桃園農改場,2025-06-13,24.950944,121.030583,2.8014522e-06
C1E711,馬拉邦山,2025-06-13,24.367306,120.901656,3.8727066e-09
C0SB20,富岡,2025-06-13,22.792467,121.192669,0.05886492
C0D560,竹東,2025-06-13,24.767147,121.057881,7.181003e-08
C0F9U0,南屯,2025-06-13,24.137006,120.637969,0.0083125625
C0M720,番路,2025-06-13,23.464657,120.554156,1.8023782e-05
C0F0A0,雪山圈谷,2025-06-13,24.388594,121.236339,1.0421444e-08
C1A9N0,四十份,2025-06-13,24.934158,121.593283,4.403275e-06
C0U760,東澳,2025-06-13,24.52196,121.83318,0.5190897
C0X230,鹽水,2025-06-13,23.272621,120.247641,0.00018254963
C2H9H0,苗改南投蜂場,2025-06-13,23.852589,120.693481,0.001738434
C0R950,萬隆國小,2025-06-13,22.507667,120.587817,0.03777972
467540,大武,2025-06-13,22.35572,120.90374,0.030860825
C0V370,古亭坑,2025-06-13,22.893178,120.401947,0.973285
C1I340,新興橋,2025-06-13,23.563333,120.868728,2.2164224e-08
C0SA80,土坂,2025-06-13,22.453108,120.887572,0.5640904
C0R160,鹽埔,2025-06-13,22.739558,120.530778,0.18698296
C0AC40,大屯山,2025-06-13,25.175675,121.522408,3.1010352e-09
466850,五分山雷達站,2025-06-13,25.071182,121.781205,7.019564e-09
C2H9L0,馬烈霸,2025-06-13,24.1512,121.201772,8.22841e-09
C1AI50,國三N016K,2025-06-13,25.034164,121.619664,0.0015348195
C1V600,藤枝,2025-06-13,23.071961,120.757042,1.2755645e-08
C1E601,南勢,2025-06-13,24.572486,120.734842,1.9490889e-08
C0O980,新市,2025-06-13,23.061614,120.298197,0.42534697
C0K420,西螺,2025-06-13,23.800407,120.467394,0.00026456986
C0Z050,佳心,2025-06-13,23.34567,121.21316,2.305607e-08
C0AD30,蘆洲,2025-06-13,25.086594,121.472331,0.0044684247
C0V610,梓官,2025-06-13,22.760558,120.267211,0.9537819
K2F750,種苗改良場,2025-06-13,24.225972,120.800917,1.2034078e-06
C0UA80,大溪漁港,2025-06-13,24.941801,121.902955,0.9540354
C1AI60,國一39K邊坡,2025-06-13,25.064361,121.383836,0.0045517795
C0W150,金寧,2025-06-13,24.457703,118.328989,0.23940755
C0R960,內埔,2025-06-13,22.608483,120.570714,0.034100223
V2C250,八德合作社,2025-06-13,24.93775,121.266389,3.0591035e-08
C2H9S0,龍南,2025-06-13,23.953536,120.833183,1.3739262e-08
C0AH40,平等,2025-06-13,25.129142,121.577086,1.0818083e-08
C0R540,佳冬,2025-06-13,22.419456,120.552375,0.114399806
466950,彭佳嶼,2025-06-13,25.627975,122.079744,0.9959716
C0A890,雙溪,2025-06-13,25.036003,121.864242,0.4621168
C0C480,桃園,2025-06-13,24.992425,121.323172,1.4922584e-07
C0AH50,林口,2025-06-13,25.072181,121.38084,0.0022795973
A2K360,水試臺西試驗場,2025-06-13,23.717231,120.190522,0.00015645873
C2M960,外寮,2025-06-13,23.562643,120.665688,4.9617865e-09
C0F9S0,烏日,2025-06-13,24.107058,120.624103,0.17891808
C0C490,八德,2025-06-13,24.928708,121.283289,2.9124767e-08
C0R190,赤山,2025-06-13,22.592333,120.614306,0.03894976
C0T820,天祥,2025-06-13,24.179597,121.495639,0.009646768
C1F9E1,龍安,2025-06-13,24.1605,120.831961,2.9845856e-07
C0V820,小林,2025-06-13,23.148408,120.63325,2.8299204e-05
C2G870,芳苑,2025-06-13,23.922303,120.320025,8.914062e-06
C0E850,大河,2025-06-13,24.618069,120.948578,3.08312e-08
C1U670,寒溪,2025-06-13,24.634,121.71691,0.0027750179
C0N020,城西,2025-06-13,23.0568,120.0956,0.43758836
C1Z110,三棧,2025-06-13,24.11557,121.60501,7.675419e-06
C0R280,檳榔,2025-06-13,22.076078,120.836777,0.69143593
C2H9J0,中台,2025-06-13,23.9996,120.938739,1.4660115e-05
C0F9L0,后里,2025-06-13,24.310436,120.729725,1.0840504e-06
467441,高雄,2025-06-13,22.730432,120.312516,0.9621916
C0Z180,新城,2025-06-13,24.040486,121.604878,0.15887108
C0D540,橫山,2025-06-13,24.71116,121.11693,8.801236e-08
C1D420,太閣南,2025-06-13,24.632808,121.160575,1.1925015e-07
C1E770,公館,2025-06-13,24.526914,120.830806,3.5735223e-08
CAN130,水試所海水繁養殖中心,2025-06-13,23.120802,120.07968,0.13015829
C1I430,翠華,2025-06-13,24.191961,121.224339,2.093173e-09
C1M400,菜瓜坪,2025-06-13,23.251928,120.576103,0.21223526
C0G730,二林,2025-06-13,23.903325,120.376081,5.3927557e-05
72M360,南改義竹分場,2025-06-13,23.360694,120.279361,9.795088e-05
V2K620,麥寮合作社,2025-06-13,23.753836,120.294783,0.00023375664
C0Z070,舞鶴,2025-06-13,23.46811,121.37407,1.4058621e-07
C0B040,大武崙,2025-06-13,25.166676,121.706993,0.0044810423
C1Z030,紅葉,2025-06-13,23.493119,121.338806,2.5890727e-06
C1I050,丹大,2025-06-13,23.753747,121.141147,9.9552375e-09
C0I080,信義,2025-06-13,23.689694,120.851036,0.5329301
C0D750,樂山林道6k,2025-06-13,24.49999,121.08773,5.1620894e-09
C2M920,朴子農改,2025-06-13,23.469889,120.259383,0.00017020105
C2A880,福隆,2025-06-13,25.017842,121.942083,0.9492286
C0Z160,鳳林,2025-06-13,23.746114,121.453411,0.0011912669
C0UB80,翠峰林道6K,2025-06-13,24.49773,121.568625,7.81898e-09
C0V210,復興,2025-06-13,23.222403,120.806089,0.00051602063
C0H990,昆陽,2025-06-13,24.121322,121.273642,5.856759e-09
C0R741,獅子,2025-06-13,22.202308,120.705236,0.27202234
C0S710,鹿野,2025-06-13,22.917711,121.122994,0.0044405647
C0I530,小奇萊,2025-06-13,24.131764,121.295717,6.2686856e-09
C0FA70,大雪山埡口,2025-06-13,24.26867,121.03062,8.715003e-09
C2K630,荷苞,2025-06-13,23.657717,120.595144,2.1873517e-05
C0Z080,富源,2025-06-13,23.587642,121.378225,0.2751781
C0SB10,美和,2025-06-13,22.682078,121.060236,0.045503397
C2K620,馬光農場,2025-06-13,23.721453,120.378864,1.0579286e-05
C1I140,卡奈托灣,2025-06-13,23.754364,121.087872,7.942004e-09
C0I520,玉山風口,2025-06-13,23.470489,120.955994,2.074272e-08
C1G691,下水埔,2025-06-13,23.816114,120.5676,0.00069588766
C0X110,臺南市南區,2025-06-13,22.961189,120.188378,0.458865
C0V680,仁武,2025-06-13,22.701083,120.347722,0.9869569
C2G840,北斗,2025-06-13,23.877586,120.514222,0.0051230416
C0R900,竹坑,2025-06-13,22.1385,120.7022,0.94813865
C0K250,崙背,2025-06-13,23.75555,120.318925,0.00023593439
C0G860,社頭,2025-06-13,23.897647,120.5862,0.034125727
C0X150,安定,2025-06-13,23.102614,120.227839,0.37449512
C0R590,里港,2025-06-13,22.77919,120.49459,0.65096307
C0E610,馬都安,2025-06-13,24.451272,120.930192,1.9862265e-09
C0E550,明德,2025-06-13,24.583486,120.885411,1.9280428e-08
C0R150,三地門,2025-06-13,22.709889,120.639944,0.097877994
C0G910,花壇,2025-06-13,24.032076,120.549461,0.004417177
C1D400,鳥嘴山,2025-06-13,24.71909,121.28387,5.007393e-09
C0K500,元長,2025-06-13,23.64981,120.315024,0.00019588044
C0F0B0,石岡,2025-06-13,24.276061,120.777644,3.5364707e-07
C2V250,甲仙,2025-06-13,23.080106,120.591758,0.17366065
C0SA20,金崙山,2025-06-13,22.567419,120.959667,4.8871375e-08
C0V350,溪埔,2025-06-13,22.738578,120.446797,0.49099973
C0M660,溪口,2025-06-13,23.604131,120.403569,0.00041737244
C1S880,壽卡,2025-06-13,22.238911,120.858903,9.850711e-07
72D680,桃改新埔分場,2025-06-13,24.834444,121.066111,1.7425384e-07
