站號,站名,日期,lat,lon,BLBTSLS
C0R710,龍磐,2025-05-16,21.931672,120.838942,0.011559577
C1F9D1,白毛台,2025-05-16,24.158325,120.886933,3.5233846e-08
C0G940,竹塘,2025-05-16,23.848253,120.386764,0.21836539
467590,恆春,2025-05-16,22.003897,120.746339,0.0016532014
C1O850,環湖,2025-05-16,23.148617,120.418633,0.8913837
C0U710,太平山,2025-05-16,24.505486,121.525656,1.5668062e-08
C0E820,獅潭,2025-05-16,24.539133,120.920042,1.3365147e-06
C0V880,興達,2025-05-16,22.8778,120.2127,0.9750359
C0S890,關山,2025-05-16,23.0395,121.175017,0.93613946
C0SB30,新蘭,2025-05-16,22.869214,121.223228,0.9967449
C2R970,屏科大,2025-05-16,22.648275,120.619247,0.9767542
C1Z130,銅門,2025-05-16,23.965694,121.492842,0.99614954
C0AD40,土城,2025-05-16,24.973208,121.445169,0.72682565
CAN140,六官養殖協會,2025-05-16,23.22881,120.29962,0.99100286
C0X180,山上,2025-05-16,23.0757,120.363253,0.9768654
C0F9Z0,雪山東峰,2025-05-16,24.388792,121.268675,3.1099397e-08
C1M480,獨立山,2025-05-16,23.537022,120.607797,6.062113e-09
C0X220,學甲,2025-05-16,23.230367,120.182187,0.98676556
467650,日月潭,2025-05-16,23.881325,120.90805,1.2586327e-08
C0K600,箔子寮,2025-05-16,23.6197,120.14,0.94025004
C0G830,埤頭,2025-05-16,23.866003,120.452806,0.32896948
C0S950,七塊厝,2025-05-16,22.954453,121.229922,0.008457108
467110,金門,2025-05-16,24.407306,118.289281,0.00013755243
C0AH80,深坑,2025-05-16,25.002703,121.628328,0.64345187
C0A970,三貂角,2025-05-16,25.007606,122.002058,0.07714088
C2D730,寶山農場,2025-05-16,24.732444,120.976153,5.0214494e-06
C0K430,褒忠,2025-05-16,23.690938,120.303634,0.9850538
467480,嘉義,2025-05-16,23.495925,120.432906,0.9770023
C0V400,阿公店,2025-05-16,22.804194,120.355528,0.99407715
467550,玉山,2025-05-16,23.48718,120.95943,3.0810035e-08
C0R440,大漢山,2025-05-16,22.405264,120.753181,9.098314e-09
C0K280,四湖,2025-05-16,23.630414,120.227125,0.97345066
C1F9B1,桐林,2025-05-16,24.066172,120.735194,0.24416256
C2H9U0,鳳鵬,2025-05-16,23.763919,120.788061,4.5296196e-07
C0K390,土庫,2025-05-16,23.679029,120.395574,0.65637404
C1I450,望鄉山,2025-05-16,23.594153,120.944286,1.6029496e-08
C0E910,海埔,2025-05-16,24.648767,120.772435,0.00014774982
B2E890,畜試北區分所,2025-05-16,24.527806,120.770972,0.0005604404
C0R750,四林格山,2025-05-16,22.076989,120.802439,0.007831165
C0F0C0,中坑,2025-05-16,24.248517,120.903319,7.605189e-09
C1I121,大鞍,2025-05-16,23.678381,120.760017,6.519384e-09
72U480,花改蘭陽分場,2025-05-16,24.686306,121.716583,0.5413095
C0A770,科教館,2025-05-16,25.096356,121.516507,0.7729153
C0AJ60,六塊厝,2025-05-16,25.24,121.4481,0.43211877
C0R620,墾雷,2025-05-16,21.900836,120.855269,0.004527886
467420,永康,2025-05-16,23.038386,120.2367,0.9762074
C0I410,名間,2025-05-16,23.837053,120.701447,0.00014139639
A2C560,農工中心,2025-05-16,24.985917,121.239833,0.018462919
C0V740,旗山,2025-05-16,22.888614,120.483597,0.9963724
C0Z061,玉里,2025-05-16,23.3215,121.339656,0.9961899
C0S840,南田,2025-05-16,22.279725,120.889208,0.47168675
C1I470,杉林溪,2025-05-16,23.639517,120.786444,7.0785604e-09
C1X040,東原,2025-05-16,23.291597,120.463822,0.29225406
C0R660,枋寮,2025-05-16,22.367722,120.590647,0.99042684
C1R120,上德文,2025-05-16,22.763272,120.704442,8.428109e-08
C0K450,大埤,2025-05-16,23.646074,120.431537,0.9135177
C0UA00,土場,2025-05-16,24.576533,121.495333,0.00084743253
467080,宜蘭,2025-05-16,24.763975,121.756528,0.5900512
C0N030,四草,2025-05-16,23.0235,120.1116,0.98723257
467410,臺南,2025-05-16,22.99328,120.20492,0.98454887
C0V650,彌陀,2025-05-16,22.783806,120.246361,0.98609275
C0D660,新竹市東區,2025-05-16,24.798681,120.986942,6.286918e-05
82S580,茶改東部分場,2025-05-16,22.907694,121.130139,0.99292696
C0SB40,興隆,2025-05-16,22.913661,121.257469,0.996892
467050,新屋,2025-05-16,25.006725,121.047492,0.23317187
C0C710,大溪永福,2025-05-16,24.892936,121.324975,0.091124624
C0FA20,溫寮,2025-05-16,24.372177,120.583125,0.3738209
C0V640,湖內,2025-05-16,22.887139,120.2445,0.975096
C0R910,下寮,2025-05-16,22.3929,120.5548,0.9904236
C0Z020,明里,2025-05-16,23.208717,121.262342,0.9891236
C0M770,嘉義梅山,2025-05-16,23.585398,120.555587,0.007759534
C0C660,楊梅,2025-05-16,24.912375,121.143047,0.00026336408
C1E511,新開,2025-05-16,24.347703,120.827019,3.9883e-05
G2F820,農試所(霧峰),2025-05-16,24.031261,120.688133,0.90560704
C1I070,和社,2025-05-16,23.591131,120.888861,5.050405e-08
C2F000,大肚,2025-05-16,24.15295,120.572117,1.0047298e-05
C1S850,豐南,2025-05-16,23.122139,121.262389,0.0001862412
C2A920,富貴角,2025-05-16,25.263783,121.565258,0.09849027
CAH030,茶改場竹圍站,2025-05-16,23.860083,120.637528,1.8751017e-06
C0T960,光復,2025-05-16,23.660694,121.424964,0.99587727
C0F9M0,豐原,2025-05-16,24.254322,120.720692,7.705538e-05
C0R720,旭海,2025-05-16,22.205403,120.887614,0.1778628
C0V710,苓雅,2025-05-16,22.622742,120.330669,0.9950328
C0C740,觀音工業區,2025-05-16,25.064764,121.114856,0.24292247
CAC040,拉拉山,2025-05-16,24.699317,121.427133,1.5516065e-08
C0V790,萬山,2025-05-16,22.905944,120.688056,0.0002085235
U2HA30,臺大和社,2025-05-16,23.590856,120.888864,5.050405e-08
C0AJ90,澳底,2025-05-16,25.0552,121.9253,0.26342714
C0Z100,東華,2025-05-16,23.89525,121.549833,0.9656087
C0G970,三豐,2025-05-16,23.882,120.2895,0.24800718
V2K610,大庄合作社,2025-05-16,23.8068,120.367939,0.9810019
C0V900,汕尾,2025-05-16,22.4782,120.4151,0.9925064
C1R630,龍泉,2025-05-16,22.66701,120.59091,0.9769749
C1AC50,關渡,2025-05-16,25.133486,121.469331,0.7693977
C0F9I0,神岡,2025-05-16,24.272481,120.658314,0.00018135531
C0K460,斗南,2025-05-16,23.678734,120.478359,0.8710192
C2O810,曾文,2025-05-16,23.219681,120.497328,0.7797023
467280,後龍,2025-05-16,24.648563,120.831834,0.00012504551
C1F9J1,清水林,2025-05-16,24.071242,120.820419,1.0954145e-08
C2A650,火燒寮,2025-05-16,25.002719,121.742892,3.621687e-05
466930,竹子湖,2025-05-16,25.162078,121.544547,1.128366e-07
C1I220,樟湖,2025-05-16,23.905333,120.846983,7.95301e-09
C0I390,仁愛,2025-05-16,24.022122,121.132206,8.7604e-09
C0Z300,東里,2025-05-16,23.26853,121.30547,0.99590486
C1V590,新發,2025-05-16,23.057019,120.646064,2.8544996e-08
C0K510,水林,2025-05-16,23.572924,120.24597,0.9401449
72S590,東改賓朗果園,2025-05-16,22.813889,121.071278,0.85654795
82A750,茶改北部分場,2025-05-16,24.955778,121.631222,1.2453329e-06
C1A750,石碇服務區,2025-05-16,25.00872,121.646242,0.58757776
C0X300,鹿寮,2025-05-16,23.386047,120.477331,0.33018172
G2AI50,關渡,2025-05-16,25.11575,121.492,0.5758251
C0K590,雲林東勢,2025-05-16,23.674192,120.255721,0.97985226
C0A570,桶後,2025-05-16,24.848222,121.597992,0.0026853113
C1S800,華源,2025-05-16,22.657883,121.02325,0.98703194
C0G720,溪州,2025-05-16,23.851589,120.499093,0.21354534
C1V160,達卡努瓦,2025-05-16,23.279811,120.705319,5.7624403e-09
C2M410,馬頭山,2025-05-16,23.324361,120.582017,0.014396862
C0V850,蚵仔寮,2025-05-16,22.7256,120.2527,0.9897716
C0S740,池上,2025-05-16,23.119628,121.209469,0.74247986
C1V390,尖山,2025-05-16,22.813153,120.367789,0.99635977
C0AH70,松山,2025-05-16,25.04871,121.55042,0.75184315
C0N010,鯤鯓國小,2025-05-16,23.1879,120.0889,0.98578244
C0R550,新埤,2025-05-16,22.467947,120.582894,0.99235773
C0SA60,知本（水試所）,2025-05-16,22.702394,121.082761,0.97823906
C0T9I0,豐濱,2025-05-16,23.583897,121.514806,0.9957955
C0UB00,淡江大學蘭陽校園,2025-05-16,24.823239,121.730383,2.1954645e-06
C0W240,九宮,2025-05-16,24.423753,118.240186,0.00013904017
C0T9N0,富里,2025-05-16,23.171639,121.249378,0.9289303
U2HA50,臺大竹山,2025-05-16,23.756972,120.681556,0.0022672112
C0V840,鳳鼻頭,2025-05-16,22.5083,120.3591,0.9931093
C0X140,西港,2025-05-16,23.125608,120.203108,0.98952204
72D080,桃改五峰分場,2025-05-16,24.612194,121.157167,8.729643e-09
C2H9P0,伊拿谷,2025-05-16,23.963211,121.088264,1.5566902e-08
C2H9F0,柑林,2025-05-16,24.018658,120.847072,0.000101968246
C0TA20,加灣,2025-05-16,24.082025,121.608944,0.98814
C0V530,阿蓮,2025-05-16,22.883208,120.327508,0.98688555
C1O880,關山,2025-05-16,23.173397,120.594092,0.030638173
C0E791,卓蘭,2025-05-16,24.3126,120.8244,4.62663e-05
C1I030,武界,2025-05-16,23.913225,121.052483,1.4047652e-08
C0R520,崁頂,2025-05-16,22.514781,120.506914,0.99298483
C0R341,牡丹,2025-05-16,22.130036,120.792639,0.8914617
C0R930,萬丹,2025-05-16,22.5885,120.4851,0.99145365
C0S760,紅石,2025-05-16,23.069131,121.126219,8.1532185e-09
C2C410,中央大學,2025-05-16,24.967652,121.185165,0.013510251
C1M610,石磐龍,2025-05-16,23.496606,120.663506,4.2224744e-09
C0UA10,鴛鴦湖,2025-05-16,24.590269,121.412228,1.1710173e-08
V2C260,八德蔬果,2025-05-16,24.978508,121.281819,0.05151727
C0R800,丹路,2025-05-16,22.204481,120.750989,0.97974133
C0G920,永靖,2025-05-16,23.924703,120.547533,0.9072416
C2M950,太和,2025-05-16,23.538372,120.702961,3.7661776e-09
C1A630,下盆,2025-05-16,24.771003,121.538622,3.0899375e-07
B2N890,畜產試驗所,2025-05-16,23.058972,120.336406,0.9877243
C0UA30,白嶺,2025-05-16,24.527819,121.519031,3.0245655e-08
C1V580,溪南(特生中心),2025-05-16,23.084972,120.788475,5.581762e-09
C1T970,大農,2025-05-16,23.615233,121.413331,0.9926033
C0R650,竹田,2025-05-16,22.58486,120.54344,0.99247193
C1H900,清流,2025-05-16,24.080775,120.962997,1.641601e-08
C1C510,水尾,2025-05-16,24.940081,121.087161,0.030250937
C0F9X0,大雅(中科園區),2025-05-16,24.21528,120.62445,0.030353745
C0SB60,白守蓮,2025-05-16,23.126769,121.401914,0.994968
C0O970,虎頭埤,2025-05-16,23.021375,120.347878,0.98336864
C0C730,中大臨海站,2025-05-16,24.966126,121.008581,0.24062903
C0X250,新營,2025-05-16,23.310689,120.316681,0.9892714
C0V700,三民,2025-05-16,22.645017,120.311233,0.9932289
C0U870,大礁溪,2025-05-16,24.791042,121.675047,6.3117295e-07
C0E870,高鐵苗栗,2025-05-16,24.60725,120.826094,0.0028277605
A2K570,古坑花卉中心,2025-05-16,23.63353,120.55239,0.4053913
C0TA30,鹽寮,2025-05-16,23.845606,121.592664,0.93695164
C0M860,新美,2025-05-16,23.338017,120.683169,4.108316e-08
C1E701,八卦,2025-05-16,24.491756,120.927619,2.6387722e-08
C0I420,國姓,2025-05-16,24.037803,120.855072,2.0282812e-05
C2D720,關西工作站,2025-05-16,24.757275,121.184792,4.16336e-06
C0S960,香蘭,2025-05-16,22.587569,120.993375,0.7699425
467620,蘭嶼,2025-05-16,22.0369,121.55843,1.3812678e-05
C0R260,春日,2025-05-16,22.370361,120.628306,0.99250185
72G600,臺中農改場,2025-05-16,24.003028,120.534389,0.94004136
C0Z210,瑞穗,2025-05-16,23.5239,121.39021,0.99738854
C0M820,達邦,2025-05-16,23.453994,120.749517,6.6429227e-09
C0V860,南寮,2025-05-16,22.7616,120.2339,0.98959297
C0G740,大城,2025-05-16,23.852487,120.320935,0.27720356
C0R920,塭仔,2025-05-16,22.4169,120.5197,0.9912782
C0R470,高樹,2025-05-16,22.826389,120.600806,0.9578488
C0R680,佳樂水,2025-05-16,21.993578,120.861633,0.0012994491
C1O870,大棟山,2025-05-16,23.31157,120.52226,5.5249147e-09
C0D360,梅花,2025-05-16,24.678347,121.208558,1.276288e-07
C0Z190,富世,2025-05-16,24.14743,121.6297,0.9552183
C0AI10,屈尺,2025-05-16,24.92184,121.54475,0.69083625
B2U990,畜試東區分所,2025-05-16,24.669039,121.832561,0.39176768
C0SB80,長濱漁港,2025-05-16,23.313644,121.459994,0.9950099
C0R240,來義,2025-05-16,22.527306,120.625111,0.9958868
C0V910,大樹,2025-05-16,22.684645,120.432803,0.931074
C1R610,西大武山,2025-05-16,22.617719,120.7322,1.0074854e-08
C0G900,線西,2025-05-16,24.143358,120.443536,0.28830573
C0M700,竹崎,2025-05-16,23.526178,120.555508,0.012725398
C2E880,三義,2025-05-16,24.405478,120.749819,1.2815067e-07
C0C720,竹圍,2025-05-16,25.112692,121.239824,0.57732636
C0F9P0,清水,2025-05-16,24.312297,120.562242,0.46410263
C0Z150,吉安光華,2025-05-16,23.930925,121.595153,0.97710687
467300,東吉島,2025-05-16,23.25727,119.66762,0.9784353
C1D640,外坪(五指山),2025-05-16,24.644447,121.090961,4.960587e-08
C0F9O0,潭子,2025-05-16,24.213106,120.703933,0.0003964089
C2H9R0,卓社,2025-05-16,23.887894,121.000086,8.091281e-09
72T250,花蓮農改場,2025-05-16,23.975222,121.563889,0.9893085
C0E780,銅鑼,2025-05-16,24.489681,120.790853,0.00011899692
C1T950,太安,2025-05-16,23.666719,121.370128,1.5108865e-08
C0E830,苑裡,2025-05-16,24.439714,120.653053,0.1751852
467270,田中,2025-05-16,23.873803,120.581286,0.28095788
C0SA10,檳榔四格山,2025-05-16,22.810031,121.109308,0.1752628
C1T830,布洛灣,2025-05-16,24.17184,121.57127,0.034696586
C0F970,大坑,2025-05-16,24.173142,120.722289,0.0013219242
C1U920,思源,2025-05-16,24.393125,121.347214,9.844662e-09
C0A931,三和,2025-05-16,25.233153,121.595236,0.48262525
C0I010,廬山,2025-05-16,24.033311,121.181808,7.1126247e-09
C2M940,日野賀,2025-05-16,23.434056,120.727169,4.7028172e-09
C0R860,鼻頭,2025-05-16,22.1043,120.8979,0.0016635187
C0UB20,壯圍,2025-05-16,24.7359,121.8163,0.62424445
C0R790,九棚,2025-05-16,22.14195,120.889281,0.4488091
C0W110,東莒,2025-05-16,25.9652,119.98069,2.4029266e-06
C1U930,粉鳥林,2025-05-16,24.497088,121.842479,0.9937909
C1I211,蘆竹湳,2025-05-16,23.934019,120.811994,4.7057174e-08
C0S830,長濱,2025-05-16,23.286817,121.411975,0.9741396
C1F9F1,伯公龍,2025-05-16,24.272392,120.849047,3.9693785e-07
C0E810,西湖,2025-05-16,24.562947,120.7485,0.000529586
C1I440,新高口,2025-05-16,23.478744,120.878939,1.0035959e-08
C0O840,王爺宮,2025-05-16,23.222064,120.40085,0.9145243
C0T9G0,鳳林山,2025-05-16,23.735269,121.420131,8.969073e-06
C0X080,佳里,2025-05-16,23.173039,120.145086,0.9854184
C0FB70,大甲溪埔,2025-05-16,24.370625,120.620067,0.35599872
C0Z310,清水斷崖,2025-05-16,24.218294,121.689142,0.57078797
C0M680,太保,2025-05-16,23.455062,120.331455,0.96039397
C1S820,金峰,2025-05-16,22.590969,120.933236,0.381879
C0AD10,八里,2025-05-16,25.150211,121.403947,0.57859206
C2K240,草嶺,2025-05-16,23.59555,120.693461,3.8763424e-09
C1SA70,都蘭,2025-05-16,22.87794,121.226881,0.9968988
C0K440,二崙,2025-05-16,23.772797,120.408944,0.68003285
C1A760,坪林交控,2025-05-16,24.94284,121.713442,0.000941617
C0F9N0,大里,2025-05-16,24.092464,120.701378,0.03124475
C0SA90,達仁林場,2025-05-16,22.264347,120.823972,3.47905e-05
C1R290,石門山,2025-05-16,22.112611,120.756597,0.018141508
42HA10,萬大發電廠,2025-05-16,23.978875,121.139639,1.1893243e-08
C0R890,山海,2025-05-16,21.9878,120.7091,0.0014446898
C0T9A0,月眉山,2025-05-16,23.809928,121.539828,8.443364e-05
C0AC70,信義,2025-05-16,25.037822,121.564597,0.74754894
C0K560,棋山,2025-05-16,23.68645,120.603417,0.13229962
C2FB50,出雲,2025-05-16,24.206469,120.902794,7.701826e-09
C1Z240,中平林道,2025-05-16,23.42115,121.26763,1.364652e-08
U2H480,溪頭,2025-05-16,23.670306,120.798194,6.7215735e-09
C0M880,好美里,2025-05-16,23.3364,120.138,0.98520726
C0T9E0,大坑,2025-05-16,23.880628,121.581981,0.013136938
C0K530,臺西,2025-05-16,23.701547,120.197559,0.9701459
C1E900,國一N128K,2025-05-16,24.560997,120.844186,0.00047431278
C0AJ50,水湳洞,2025-05-16,25.123695,121.862238,0.8757029
C0AI20,白沙灣,2025-05-16,25.283128,121.519058,0.4152746
C2V310,美濃,2025-05-16,22.898792,120.51907,0.99570125
C0A860,大坪,2025-05-16,25.165914,121.632969,2.268961e-06
C1U850,觀音海岸,2025-05-16,24.38319,121.77856,1.6850183e-07
C2K610,草嶺石壁,2025-05-16,23.602469,120.707731,3.7264343e-09
C0U950,鶯子嶺,2025-05-16,24.89754,121.79244,3.8272397e-08
C0O900,善化,2025-05-16,23.112883,120.297219,0.98371947
C0K550,蔦松,2025-05-16,23.514319,120.229736,0.96133393
E2P980,林試六龜中心,2025-05-16,22.991703,120.645722,0.038822535
C0E590,通霄,2025-05-16,24.471892,120.704622,0.0077746743
C1I310,西巒,2025-05-16,23.754486,120.883956,9.630156e-09
C0A550,泰平,2025-05-16,24.971197,121.823711,7.9820745e-07
C0I360,水里,2025-05-16,23.812553,120.849792,2.0630367e-05
C0R830,高士,2025-05-16,22.121825,120.836781,0.021620922
C1I101,溪頭,2025-05-16,23.661789,120.807647,7.505626e-09
C0AJ20,野柳,2025-05-16,25.20703,121.690021,0.81419
C0B060,暖暖,2025-05-16,25.0957,121.7403,0.7346765
C1H920,長豐,2025-05-16,24.102039,120.879897,1.3659514e-08
C0V360,內門,2025-05-16,22.975481,120.466769,0.8726201
C0R850,林邊,2025-05-16,22.4634,120.5339,0.9919666
C0E930,龍鳳,2025-05-16,24.700034,120.859125,5.6531997e-05
C0U910,冬山,2025-05-16,24.63373,121.7937,0.39176768
C1E721,泰安,2025-05-16,24.489017,120.968036,5.630371e-09
82H320,茶改中部分場,2025-05-16,23.875611,120.913583,2.3177986e-08
C0M750,布袋,2025-05-16,23.380878,120.167789,0.94642663
C1S860,利嘉,2025-05-16,22.809417,121.050528,2.9152445e-05
E2S980,林試太麻里1,2025-05-16,22.598922,120.980044,0.8217911
C0X170,關廟,2025-05-16,22.963017,120.327797,0.98495567
C0V720,林園,2025-05-16,22.507747,120.394511,0.98976356
C1I510,線浸林道,2025-05-16,23.761508,120.832956,4.6329016e-09
C0D690,外湖,2025-05-16,24.917735,120.968711,0.072868675
C0C750,新興坑尾,2025-05-16,25.0061,121.0971,0.2040756
B2Q810,畜試南區分所,2025-05-16,21.945583,120.802167,0.0013334366
C0S790,金崙,2025-05-16,22.538122,120.966875,0.18560892
C0AH90,福山植物園,2025-05-16,24.760717,121.58135,1.2307687e-07
C0I540,奇萊稜線,2025-05-16,24.109231,121.326456,2.3402631e-08
C0M850,表湖,2025-05-16,23.24186,120.64166,9.418097e-09
C0S770,大溪山,2025-05-16,22.478475,120.943325,0.0011497167
C0AG80,中和,2025-05-16,24.991622,121.491792,0.72519183
C0T790,大禹嶺,2025-05-16,24.186117,121.316086,2.0676044e-08
C0T9B0,水源,2025-05-16,23.991861,121.537169,3.214224e-05
C0R840,牡丹池山,2025-05-16,22.168389,120.841225,3.667614e-05
C1I131,桶頭,2025-05-16,23.641944,120.654117,3.0045507e-05
CAL110,布袋國中,2025-05-16,23.35893,120.18026,0.98302555
467571,新竹,2025-05-16,24.827853,121.014219,5.9722883e-05
C0Z290,赤柯山,2025-05-16,23.36893,121.38293,5.820469e-08
C0X280,將軍,2025-05-16,23.214999,120.13577,0.9870334
C0S690,太麻里,2025-05-16,22.60902,120.98533,3.895436e-05
C0U880,北關,2025-05-16,24.9072,121.8734,0.9456144
C0G810,埔心,2025-05-16,23.947633,120.525456,0.9110329
C0U970,大福,2025-05-16,24.80064,121.81389,0.6144966
C2H9N0,仁愛東眼,2025-05-16,24.026875,121.1205,7.044135e-09
C1E670,南礦,2025-05-16,24.538278,121.002836,5.796337e-09
C0M520,東後寮,2025-05-16,23.369908,120.248065,0.98262054
C1E461,松安,2025-05-16,24.397972,120.986022,6.9413306e-09
C2N160,西拉雅風管處,2025-05-16,23.189481,120.335297,0.98745847
C2M970,碧湖,2025-05-16,23.568632,120.624165,4.5860413e-09
C0A640,石碇,2025-05-16,24.993969,121.662917,0.00015786516
E2S960,林試太麻里2,2025-05-16,22.598,120.99775,0.7129694
C0F9Y0,桃山,2025-05-16,24.432739,121.303808,3.374211e-08
C1I020,萬大,2025-05-16,23.979817,121.132261,8.731175e-09
C0U940,羅東,2025-05-16,24.68184,121.74934,0.5812585
C0M650,朴子,2025-05-16,23.43463,120.23902,0.9317634
C1I500,大尖山,2025-05-16,23.858572,120.994889,7.74422e-09
C0G820,田尾,2025-05-16,23.901669,120.509389,0.9099654
E2K600,四湖植物園,2025-05-16,23.676986,120.163433,0.9744219
C0S730,綠島,2025-05-16,22.6672,121.47533,0.5643898
12Q970,東港工作站,2025-05-16,22.479997,120.466058,0.9918206
C0E430,南庄,2025-05-16,24.601775,121.000214,9.827787e-07
C1TA00,太魯閣,2025-05-16,24.15773,121.6236,0.83990663
466920,臺北,2025-05-16,25.037658,121.514853,0.75184315
C0R600,舊泰武,2025-05-16,22.588194,120.664944,2.6496611e-08
C1I260,北坑,2025-05-16,23.9246,121.006903,3.3146264e-08
466910,鞍部,2025-05-16,25.182586,121.529731,3.8532566e-08
C1I230,九份二山,2025-05-16,23.961944,120.845,2.3499917e-08
C2A660,瑞芳,2025-05-16,25.113169,121.801147,0.7983456
C0R270,琉球嶼,2025-05-16,22.332244,120.362236,0.22748612
C1T990,高寮,2025-05-16,23.394239,121.356808,0.9981337
C0G620,芬園,2025-05-16,24.015678,120.6213,0.46723008
C1Z140,荖溪,2025-05-16,23.890575,121.45964,1.5052136e-07
C1I201,中心崙,2025-05-16,23.728722,120.712097,1.4301485e-08
C1I400,凌霄,2025-05-16,24.018778,121.004456,7.0761845e-09
C1M640,十字,2025-05-16,23.492153,120.753683,5.542171e-09
G2P820,農試鳳山分所,2025-05-16,22.646611,120.356083,0.99490917
C0Z270,蕃薯寮,2025-05-16,23.73835,121.540108,0.27340913
C0F9Q0,外埔,2025-05-16,24.347817,120.705686,0.00037849302
C0K580,高鐵雲林,2025-05-16,23.737456,120.417944,0.75997305
C2I090,鳳凰,2025-05-16,23.728081,120.787347,1.5960792e-08
C0U990,員山,2025-05-16,24.74435,121.72247,0.5976146
C0V770,大社,2025-05-16,22.730306,120.346639,0.99229115
C0X120,麻豆,2025-05-16,23.183289,120.248611,0.989823
C0C670,龍潭,2025-05-16,24.870056,121.221389,1.9465776e-06
C0D680,香山濕地,2025-05-16,24.783581,120.914988,9.81199e-05
C0S980,勝林山,2025-05-16,22.430439,120.8938,7.79272e-08
C0V730,大寮,2025-05-16,22.605614,120.395717,0.99102277
C0R570,麟洛,2025-05-16,22.65078,120.52719,0.955317
C2M930,石卓,2025-05-16,23.478744,120.702264,5.3003935e-09
C0G9B0,和美,2025-05-16,24.105169,120.492131,0.27414227
CAG100,王功漁港,2025-05-16,23.96824,120.32586,0.14568934
C0X290,北門,2025-05-16,23.267772,120.125481,0.98671687
C2F930,大甲,2025-05-16,24.347667,120.640403,0.17169587
C0D650,湖口,2025-05-16,24.904794,121.043628,0.035916302
C0E420,竹南,2025-05-16,24.708978,120.888897,4.03697e-05
C0U780,五結,2025-05-16,24.68637,121.79794,0.6228577
C1I250,鯉潭,2025-05-16,23.961922,120.991131,1.3356154e-08
C0R130,阿禮,2025-05-16,22.742908,120.743678,1.9243835e-08
C0X100,臺南市北區,2025-05-16,23.010394,120.194228,0.98380065
C0S920,金峰嘉蘭,2025-05-16,22.594789,120.960825,0.8083311
C0V490,新興,2025-05-16,22.627422,120.298803,0.9949268
C0F9K0,大安,2025-05-16,24.345061,120.588025,0.38320732
467290,古坑,2025-05-16,23.633639,120.551889,0.4053913
C2E970,八甲,2025-05-16,24.535811,120.795983,6.168536e-05
C0V440,鳳山,2025-05-16,22.646653,120.356122,0.99490917
C1T940,大觀,2025-05-16,23.714206,121.373133,3.1932013e-05
C0E740,造橋,2025-05-16,24.637056,120.864778,0.00013454158
C0R100,尾寮山,2025-05-16,22.833111,120.683889,1.8676541e-08
A2K630,臺大雲林校區,2025-05-16,23.730628,120.423903,0.75859284
467990,馬祖,2025-05-16,26.169467,119.923158,5.681768e-08
C0D580,寶山,2025-05-16,24.735006,121.025192,3.276798e-05
E2P990,林試扇平站,2025-05-16,22.9677,120.6857,6.3388086e-08
C0AI30,三重,2025-05-16,25.057328,121.500629,0.7729153
C0AH00,汐止,2025-05-16,25.066881,121.658778,0.75184315
C1Z040,立山,2025-05-16,23.443356,121.327375,0.0004118791
466881,新北,2025-05-16,24.959207,121.525196,0.6839215
C0W130,花嶼,2025-05-16,23.40007,119.32276,0.9982013
C0A950,鼻頭角,2025-05-16,25.129036,121.923372,0.5897395
C0K470,林內,2025-05-16,23.748675,120.609642,0.2931669
C2F990,摩天嶺,2025-05-16,24.322458,120.936819,8.791316e-09
82C160,茶改場,2025-05-16,24.908472,121.185333,3.1002153e-05
C0Z320,清水林道,2025-05-16,23.27125,121.188272,1.3299895e-06
C0R760,南仁湖,2025-05-16,22.084681,120.863353,0.01952676
C0M670,大林,2025-05-16,23.600616,120.45841,0.98443836
C0M800,茶山,2025-05-16,23.299075,120.664767,1.6752009e-06
C0A9C0,天母,2025-05-16,25.117494,121.537169,0.9322956
72K220,南改斗南分場,2025-05-16,23.634556,120.477333,0.8650284
72AI40,桃改樹林分場,2025-05-16,24.944503,121.386972,0.17167196
C0S910,蘭嶼燈塔,2025-05-16,22.081197,121.503117,7.208831e-06
C0B050,八斗子,2025-05-16,25.144754,121.79167,0.8982409
C0U900,內城,2025-05-16,24.71813,121.68766,0.49348494
C0X320,柳營,2025-05-16,23.253328,120.375253,0.96539634
C0M790,新港,2025-05-16,23.553269,120.345728,0.9041401
C0F9T0,西屯,2025-05-16,24.179494,120.641275,0.61488056
C0SA30,都歷,2025-05-16,23.020333,121.323642,0.9964097
C0C620,蘆竹,2025-05-16,25.084275,121.265767,0.7216806
C0R730,大坪頂,2025-05-16,22.024633,120.69355,0.0025218742
C0AJ40,石門,2025-05-16,25.273672,121.601198,0.19438086
C0E750,苗栗,2025-05-16,24.564569,120.824575,0.0005137633
C0T870,鯉魚潭,2025-05-16,23.935639,121.508944,0.995818
C1V170,排雲,2025-05-16,23.463619,120.954147,2.685731e-08
C2H950,中寮,2025-05-16,23.884447,120.766406,0.15921296
C0R350,貓鼻頭,2025-05-16,21.921774,120.7358,0.0037895255
C0V660,岡山,2025-05-16,22.797078,120.294958,0.9865208
C1H941,雙冬,2025-05-16,23.967378,120.802189,2.8312378e-08
C0AJ70,田寮,2025-05-16,25.2698,121.4886,0.4136852
C0AI00,五股,2025-05-16,25.07445,121.42728,0.024785329
C0Z280,德武,2025-05-16,23.47426,121.41071,0.99374413
C0R700,枋山,2025-05-16,22.246844,120.661086,0.90520215
C0C460,復興,2025-05-16,24.820208,121.352281,3.1633218e-07
E2H360,蓮華池,2025-05-16,23.918333,120.885278,1.5857802e-08
C0M640,中埔,2025-05-16,23.42538,120.5229,0.006387398
C0W140,金沙,2025-05-16,24.488292,118.408778,0.00024647338
C2A540,四堵,2025-05-16,24.8926,121.745736,4.5069173e-06
C0ACA0,新莊,2025-05-16,25.051478,121.446756,0.66079897
C0R220,潮州,2025-05-16,22.534361,120.54,0.9935212
U2HA40,臺大內茅埔,2025-05-16,23.689722,120.851117,1.02788576e-07
467490,臺中,2025-05-16,24.145736,120.684075,0.36235774
C0U960,翠峰湖,2025-05-16,24.510856,121.608044,2.0778913e-08
E2HA20,林試畢祿溪站,2025-05-16,24.226944,121.308522,1.708868e-08
C0V890,前鎮,2025-05-16,22.5718,120.3117,0.9947504
C1F941,雪嶺,2025-05-16,24.280586,121.026642,2.3085995e-08
C2H9E0,國姓南港,2025-05-16,23.911108,120.846556,7.585632e-09
C0AC80,文山,2025-05-16,25.00235,121.575728,0.64465076
C0F9R0,龍井,2025-05-16,24.184536,120.528972,0.32121897
C0M760,民雄,2025-05-16,23.551754,120.428457,0.98518264
C0UA40,西德山,2025-05-16,24.560647,121.752608,2.9397626e-08
C1T920,中興,2025-05-16,23.769503,121.498653,0.988668
C0D550,雪霸,2025-05-16,24.526972,121.11605,9.7631325e-09
C2F860,梨山,2025-05-16,24.247522,121.243669,1.7423632e-08
C0R320,車城,2025-05-16,22.0744,120.716247,0.0018248231
C1S870,南美山,2025-05-16,23.15025,121.382333,0.9420975
C0B020,基隆嶼,2025-05-16,25.19141,121.78391,0.9946558
C1U501,牛鬥,2025-05-16,24.637836,121.573656,0.0031464924
C0M730,嘉義市東區,2025-05-16,23.457673,120.460531,0.9611242
C0S700,知本,2025-05-16,22.684866,121.005642,6.1927414e-05
C1N001,沙崙,2025-05-16,22.935472,120.309406,0.9829619
C0V760,橋頭,2025-05-16,22.757806,120.30575,0.9907376
C0G960,福寶,2025-05-16,24.0443,120.3814,0.2896183
C0X210,白河,2025-05-16,23.347466,120.414427,0.9675425
C0S810,東河,2025-05-16,22.972672,121.303986,0.9952013
C2R170,屏東,2025-05-16,22.66027,120.49403,0.9550658
C0R670,楓港,2025-05-16,22.190131,120.692156,0.90492076
C0FA50,霧峰,2025-05-16,24.0419,120.6995,0.89241374
C0UB10,蘇澳,2025-05-16,24.5969,121.8571,0.9944956
C0G950,防潮門,2025-05-16,24.1835,120.4871,0.31224394
C0M740,六腳,2025-05-16,23.492871,120.290625,0.9175816
C1R250,力里,2025-05-16,22.428117,120.629228,0.9928296
C0K330,虎尾,2025-05-16,23.719183,120.442036,0.66991705
C2FA00,烏石坑,2025-05-16,24.273503,120.947617,8.976944e-09
C0V620,永安,2025-05-16,22.82315,120.236856,0.98609275
C1I330,楓樹林,2025-05-16,23.986803,121.076117,8.732174e-09
C0W200,湖西,2025-05-16,23.596314,119.67275,0.98928106
72Q010,高雄農改場,2025-05-16,22.709333,120.525889,0.95063466
C0SA40,瑞和,2025-05-16,22.974361,121.156697,0.9831284
C0C680,龜山,2025-05-16,25.02846,121.38656,8.316626e-06
C2V260,月眉,2025-05-16,22.971003,120.539853,0.8415501
C0V450,鳳森,2025-05-16,22.545064,120.392592,0.9915889
C0U720,南山,2025-05-16,24.43742,121.38167,2.5460846e-08
A2N290,臺南蘭花園區,2025-05-16,23.340258,120.379661,0.97104657
C0R560,新園,2025-05-16,22.5434,120.461558,0.98976356
C0U890,三星,2025-05-16,24.66812,121.65302,0.46538317
C1V300,御油山,2025-05-16,23.001983,120.715364,4.8812567e-09
C0U600,礁溪,2025-05-16,24.817539,121.765608,0.53778154
C1T980,龍澗,2025-05-16,24.023289,121.411328,5.425429e-08
C0D670,海天一線,2025-05-16,24.831986,120.914438,0.00032213356
C0SA00,歷坵,2025-05-16,22.520969,120.89185,0.0001993627
C0M710,東石,2025-05-16,23.458927,120.15385,0.9071732
C0M780,鹿草,2025-05-16,23.41134,120.30835,0.91385794
C0U520,雙連埤,2025-05-16,24.753033,121.641303,6.082332e-07
C0B010,七堵,2025-05-16,25.094819,121.71713,0.81866765
C0R480,長治,2025-05-16,22.693128,120.542622,0.93844634
C1V830,國三S383K,2025-05-16,22.781967,120.426475,0.8667283
12Q980,恆春工作站,2025-05-16,22.079678,120.714425,0.0018264881
C1O940,東山服務區,2025-05-16,23.286016,120.398472,0.96757567
C1U840,東澳嶺,2025-05-16,24.5378,121.8485,6.900215e-08
C1D630,飛鳳山,2025-05-16,24.766464,121.119178,7.437573e-07
C0S940,石寧山,2025-05-16,23.223772,121.406639,0.9968563
C0K410,北港,2025-05-16,23.573957,120.292802,0.9348789
C2M620,瑞里,2025-05-16,23.545133,120.675197,3.8462717e-09
C0SB70,小港漁港,2025-05-16,23.158558,121.400431,0.97644013
C2O950,安南,2025-05-16,23.076694,120.144861,0.9816279
C0F0E0,南湖圈谷,2025-05-16,24.363714,121.444667,3.304243e-08
467610,成功,2025-05-16,23.097486,121.373428,0.99591506
C0G890,伸港,2025-05-16,24.148933,120.484403,0.2956385
C2E540,龍溪,2025-05-16,24.606489,120.783933,0.0030255632
C1V200,梅山,2025-05-16,23.268447,120.823556,1.1330012e-08
C0T9H0,加路蘭山,2025-05-16,23.682947,121.5274,9.689031e-07
C2O930,玉井,2025-05-16,23.126042,120.46055,0.92135185
C1F911,新伯公,2025-05-16,24.221361,120.841069,2.614104e-06
C0R490,九如,2025-05-16,22.7405,120.490503,0.95030516
C0X200,左鎮,2025-05-16,23.056758,120.408522,0.9930021
C0SB50,叭嗡嗡,2025-05-16,23.047062,121.343223,0.9967546
C1F891,稍來,2025-05-16,24.265689,121.001142,1.6126647e-08
72N240,七股研究中心,2025-05-16,23.081672,120.062894,0.9866843
C0C700,中壢,2025-05-16,24.977661,121.256375,0.040917296
C0M690,水上,2025-05-16,23.419734,120.388909,0.9580095
C0V690,鼓山,2025-05-16,22.623325,120.275575,0.9948916
C0O860,大內,2025-05-16,23.11885,120.36083,0.9873371
C0Z200,萬榮,2025-05-16,23.709219,121.420106,0.9917779
C0T9D0,和中,2025-05-16,24.26676,121.74103,0.99838495
C1O921,楠西,2025-05-16,23.183511,120.484083,0.79402345
C0AJ30,淡水觀海,2025-05-16,25.184591,121.408616,0.733078
C0V810,左營,2025-05-16,22.67491,120.28491,0.9932458
C0UA70,桃源谷,2025-05-16,24.962606,121.888875,2.303456e-07
C0X130,官田,2025-05-16,23.193217,120.315422,0.9868549
C1H000,翠峰,2025-05-16,24.109397,121.205211,1.4714851e-08
C0UA90,石城,2025-05-16,24.980444,121.951214,0.20253675
C1E681,南勢山,2025-05-16,24.421669,120.923831,8.519975e-09
C0A9F0,內湖,2025-05-16,25.079422,121.57545,0.7518433
C0K291,宜梧,2025-05-16,23.536281,120.169329,0.9610059
C1K540,口湖,2025-05-16,23.585344,120.180517,0.9400501
C0R780,滿州,2025-05-16,22.024403,120.839892,0.0015066247
C0V870,文安,2025-05-16,22.8025,120.2164,0.98542976
C0U650,玉蘭,2025-05-16,24.675286,121.587061,1.1291265e-06
C0R640,東港,2025-05-16,22.46247,120.44074,0.9918186
C0AJ80,板橋,2025-05-16,25.0107,121.4489,0.74970466
C0S660,下馬,2025-05-16,23.150427,121.070312,1.4926798e-07
C1H9B1,阿眉,2025-05-16,24.1263,120.994672,2.537576e-08
C0UA20,多加屯,2025-05-16,24.368614,121.373189,1.9828208e-08
C0E730,頭份,2025-05-16,24.688247,120.912206,4.1689626e-05
72V140,高改旗南分場,2025-05-16,22.857861,120.516667,0.8917122
C0K480,莿桐,2025-05-16,23.761192,120.502372,0.4981037
C0U980,坪林石牌,2025-05-16,24.86478,121.77396,2.1668704e-07
C0T900,西林,2025-05-16,23.8119,121.441458,0.98881465
C1I150,青雲,2025-05-16,23.793361,120.949378,4.1191092e-07
467350,澎湖,2025-05-16,23.565503,119.563094,0.996615
C0G800,埔鹽,2025-05-16,24.000394,120.431683,0.27764675
C0H960,草屯,2025-05-16,23.973672,120.68085,0.7715938
C1V780,多納林道,2025-05-16,22.888028,120.737917,4.999682e-09
C0E920,通霄漁港,2025-05-16,24.498589,120.673876,0.18145636
C0Z330,安通山,2025-05-16,23.290728,121.348528,0.00051262864
C0AH10,永和,2025-05-16,25.01125,121.508111,0.75428927
C0AK10,太平里,2025-05-16,25.134937,121.364899,0.5642482
C2G640,鹿港,2025-05-16,24.0753,120.430481,0.28776622
C1E890,國三N149K,2025-05-16,24.463414,120.680019,0.003715734
C1R110,口社,2025-05-16,22.770111,120.645222,0.976887
C1M870,國三N285K,2025-05-16,23.550319,120.505833,0.08906857
C1E480,鳳美,2025-05-16,24.554803,121.034747,6.8677835e-08
C0M530,奮起湖,2025-05-16,23.493903,120.699253,3.793335e-09
C0C590,觀音,2025-05-16,25.027072,121.153317,0.2359071
C0T9M0,靜浦,2025-05-16,23.455167,121.495028,0.9982638
C2H9M0,發祥,2025-05-16,24.154094,121.164517,1.9753543e-08
C0AI40,石牌,2025-05-16,25.115597,121.513139,0.93717325
C1F871,上谷關,2025-05-16,24.203483,121.018644,8.786841e-09
C2H9G0,百勝,2025-05-16,24.051142,120.909361,3.9919357e-07
C0G880,二水,2025-05-16,23.810742,120.6173,0.02981164
C0R940,加祿堂,2025-05-16,22.3363,120.6217,0.9865869
C0W220,北竿,2025-05-16,26.220358,119.974881,1.3024476e-07
C0O960,崎頂,2025-05-16,22.959547,120.369317,0.9789676
C0S750,向陽,2025-05-16,23.248397,120.986133,7.15475e-09
C0T9F0,水璉,2025-05-16,23.797131,121.542514,0.8866688
C1M600,頭凍,2025-05-16,23.406364,120.603339,6.8470754e-09
467660,臺東,2025-05-16,22.752211,121.154586,0.98651344
C1D380,新埔,2025-05-16,24.84745,121.03834,6.205914e-06
C2G980,田頭村,2025-05-16,23.8263,120.444175,0.6796675
C0V750,路竹,2025-05-16,22.854997,120.259439,0.9849772
C0N050,蚵寮,2025-05-16,23.301,120.1104,0.9852113
72M700,南改鹿草分場,2025-05-16,23.416869,120.283061,0.9316795
C1SA50,利嘉林道,2025-05-16,22.82325,121.009389,4.4805746e-09
C0A940,金山,2025-05-16,25.223628,121.643967,0.7919738
C1V340,大津,2025-05-16,22.888322,120.645986,0.9291658
C0W180,七美,2025-05-16,23.219333,119.444892,0.9967376
C1F9C1,白冷,2025-05-16,24.182844,120.929889,5.6702273e-08
K2E710,苗改生物防治研究中心,2025-05-16,24.422861,120.871833,5.996635e-08
C0N040,蘆竹溝,2025-05-16,23.2344,120.0961,0.9867065
C2W230,畜試所澎湖,2025-05-16,23.628342,119.513206,0.9947903
C0R880,後壁湖,2025-05-16,21.9457,120.7457,0.0014519492
C1I280,埔中,2025-05-16,23.820778,120.642594,2.444356e-07
467790,墾丁雷達站,2025-05-16,21.948235,120.808028,0.0012083644
C0W190,望安,2025-05-16,23.380564,119.494075,0.9972834
C0Z170,卓溪,2025-05-16,23.3443,121.3029,0.9963732
C0F850,東勢,2025-05-16,24.246428,120.833047,7.0223577e-06
466900,淡水,2025-05-16,25.164889,121.448906,0.56587595
C0I370,魚池,2025-05-16,23.895703,120.94135,1.785258e-08
C0C630,大溪,2025-05-16,24.882853,121.265547,0.006633247
C0A520,山佳,2025-05-16,24.974944,121.402008,0.51493347
C0I110,竹山,2025-05-16,23.761225,120.688156,0.00021725091
82H840,茶改南部分場,2025-05-16,23.762528,120.7405,1.7851328e-07
C0G660,溪湖,2025-05-16,23.94835,120.479122,0.91832125
C1T800,洛韶,2025-05-16,24.204558,121.453956,3.7676305e-08
C1T810,慈恩,2025-05-16,24.192044,121.388386,1.0568309e-08
C1E451,象鼻,2025-05-16,24.368617,120.940228,8.25463e-09
C0AC60,三峽,2025-05-16,24.939025,121.369728,0.044057697
C0I490,萬大林道,2025-05-16,23.928228,121.091411,6.0661263e-09
C1I290,豐丘,2025-05-16,23.668178,120.887417,4.637251e-09
C1I320,奧萬大,2025-05-16,23.952956,121.178556,7.254361e-09
C2M910,嘉義大學,2025-05-16,23.471325,120.485903,0.45483345
C0U770,南澳,2025-05-16,24.44935,121.81022,0.97116613
C0A980,社子,2025-05-16,25.109508,121.469681,0.590176
C0V800,六龜,2025-05-16,22.997889,120.633583,0.05037392
C1G9D0,國一S218K,2025-05-16,23.890641,120.493253,0.8755754
C0E570,白沙屯,2025-05-16,24.549447,120.696803,0.011457515
C2F9A0,中竹林,2025-05-16,24.103556,120.751061,2.2630907e-07
C0FA40,臺中電廠,2025-05-16,24.2146,120.4907,0.3211774
C2G9A0,畜試所彰化,2025-05-16,23.86045,120.557964,0.2868504
C0H9C0,合歡山,2025-05-16,24.143442,121.272547,3.073397e-08
C0X060,下營,2025-05-16,23.22695,120.256261,0.9908423
G2M350,農試溪口農場,2025-05-16,23.58565,120.408111,0.9857202
C0U860,頭城,2025-05-16,24.85323,121.8308,0.5778155
C0R580,南州,2025-05-16,22.48591,120.50274,0.9918186
C0D430,峨眉,2025-05-16,24.6905,121.017189,4.820891e-06
C0G780,秀水,2025-05-16,24.03405,120.503869,0.94961447
72N100,臺南農改場,2025-05-16,23.0605,120.342194,0.98796046
C0S900,蘭嶼高中,2025-05-16,22.04909,121.51214,0.00010230874
C1F9W0,德基,2025-05-16,24.254783,121.190261,9.593508e-09
C1Z120,壽豐,2025-05-16,23.870853,121.508081,0.9656087
C0W160,烏坵,2025-05-16,24.9944,119.44956,0.00019674088
C1I240,外大坪,2025-05-16,23.958697,120.917931,1.2900148e-08
C1I550,國六W023K,2025-05-16,23.979067,120.867742,3.6069227e-07
C0R870,興海,2025-05-16,21.9752,120.8439,0.0013341163
C0R140,瑪家,2025-05-16,22.682903,120.686639,7.183647e-08
C0A530,坪林,2025-05-16,24.938183,121.70975,3.0134202e-05
C0X260,後壁,2025-05-16,23.366358,120.362326,0.9888624
C0Z230,和平,2025-05-16,24.30717,121.77007,0.9983758
C0G770,福興,2025-05-16,24.041289,120.437669,0.27820638
C0H9A0,神木村,2025-05-16,23.532742,120.843667,6.4798993e-09
C0I460,南投,2025-05-16,23.911469,120.687331,0.76128674
C0I480,梅峰,2025-05-16,24.085272,121.173572,1.35953915e-08
C1V570,吉東,2025-05-16,22.85422,120.5454,0.8885876
C2D740,屯原,2025-05-16,24.067969,121.209389,8.150513e-09
C2A560,福山,2025-05-16,24.776203,121.502811,1.675896e-06
C0AH30,五分山,2025-05-16,25.07125,121.780794,5.9057943e-08
C0FA10,松柏,2025-05-16,24.429115,120.617482,0.18945375
72S200,東改班鳩分場,2025-05-16,22.829528,121.077694,0.9635703
72HA00,中改埔里分場,2025-05-16,23.903208,120.963364,2.0268168e-08
C2H9W0,大坪頂農水,2025-05-16,24.043122,120.932781,1.3342176e-08
C0C650,平鎮,2025-05-16,24.897503,121.214636,0.0004777382
C0S930,延平,2025-05-16,22.902581,121.084058,0.96347994
C0UA60,樟樹山,2025-05-16,24.41393,121.78325,1.2187955e-06
C1S670,摩天,2025-05-16,23.199503,121.027,1.1201388e-08
C0V630,茄萣,2025-05-16,22.906642,120.182608,0.97507375
466940,基隆,2025-05-16,25.133314,121.740475,0.88985175
C0X050,東河,2025-05-16,23.296598,120.385608,0.97329175
C0R770,保力,2025-05-16,22.071122,120.764111,0.0020524228
G2L020,農試嘉義分所,2025-05-16,23.485028,120.473806,0.4648442
C0X240,關子嶺,2025-05-16,23.331169,120.508025,8.614132e-06
C0I380,集集,2025-05-16,23.828206,120.801467,6.5754626e-05
466990,花蓮,2025-05-16,23.975128,121.613275,0.98144203
C1V220,小關山,2025-05-16,23.154217,120.813603,6.251325e-09
C1F9G1,慶福山,2025-05-16,24.180853,120.848378,1.0270898e-08
C0Z250,瑞穗林道,2025-05-16,23.49284,121.30688,1.4826358e-08
C0D590,新豐,2025-05-16,24.87068,120.97721,0.0011972438
C0A870,五指山,2025-05-16,25.132153,121.608692,7.5928575e-08
C0UA50,西帽山,2025-05-16,24.555361,121.802628,8.520807e-08
C0X160,仁德,2025-05-16,22.968258,120.257689,0.9833078
C1H971,六分寮,2025-05-16,23.92507,120.6378,1.3826823e-07
C0W120,西嶼,2025-05-16,23.5626,119.468436,0.99724305
C0G650,員林,2025-05-16,23.946503,120.585597,0.89713985
C0AD50,鶯歌,2025-05-16,24.951533,121.346294,0.032111134
C2H9Q0,北東眼山,2025-05-16,24.120939,121.189303,1.10572556e-08
C2H9T0,名間竹圍,2025-05-16,23.859914,120.637572,1.8473854e-06
C0S990,山豬窟,2025-05-16,22.318619,120.857372,0.00076812826
C0X190,安平,2025-05-16,22.993161,120.152181,0.98385453
C0K400,斗六,2025-05-16,23.720583,120.541127,0.72977895
12J990,口湖工作站,2025-05-16,23.589978,120.180394,0.94025004
C0O830,北寮,2025-05-16,23.079561,120.495008,0.7525334
C1D410,白蘭,2025-05-16,24.579364,121.079947,5.7230194e-09
C0S970,加津林,2025-05-16,22.416211,120.926942,0.93608433
C0D700,關西,2025-05-16,24.7977,121.1732,0.0042227544
C0M810,里佳,2025-05-16,23.389125,120.716647,4.7081214e-09
C0U750,龜山島,2025-05-16,24.841667,121.953133,0.00026657316
C0R810,內獅,2025-05-16,22.305064,120.642986,0.98667
C1M390,龍美,2025-05-16,23.406728,120.654417,5.089392e-09
C2FB60,頭櫃山,2025-05-16,24.129842,120.858925,9.074242e-09
C1H840,國三N238K,2025-05-16,23.841008,120.707711,2.7769627e-05
CAQ030,崎峰國小,2025-05-16,22.42565,120.49521,0.9918186
C2E520,大湖,2025-05-16,24.414939,120.870872,2.3184273e-05
467530,阿里山,2025-05-16,23.508208,120.813242,1.1885986e-08
C1E691,南湖,2025-05-16,24.40135,120.837533,1.20851205e-08
C0FA30,梧棲,2025-05-16,24.256003,120.523381,0.46400338
C1V231,高中,2025-05-16,23.134911,120.716711,7.567409e-09
C0AK30,硬漢嶺,2025-05-16,25.136097,121.426372,1.3866571e-07
C0F9V0,新社,2025-05-16,24.200172,120.815806,1.9467114e-07
C0H890,埔里,2025-05-16,23.972169,120.952425,8.964154e-07
C0R690,墾丁,2025-05-16,21.966756,120.810269,0.0018197733
C0F0D0,審馬陣,2025-05-16,24.381675,121.4203,3.402466e-08
C2W030,金門農試所,2025-05-16,24.448431,118.451786,0.00019718203
C0R820,白鷺,2025-05-16,22.454275,120.666219,4.237538e-06
C1V190,南天池,2025-05-16,23.27403,120.91176,8.5575635e-09
K2E360,苗栗農改場,2025-05-16,24.495722,120.829111,0.00029240584
CAJ050,海口故事園區,2025-05-16,23.57543,120.14121,0.9402185
C2H9D0,三隻寮,2025-05-16,24.093078,120.861578,1.241523e-08
C0O990,媽廟,2025-05-16,22.99175,120.293525,0.9798221
C0D480,打鐵坑,2025-05-16,24.849664,121.150789,1.8859373e-06
C0Z220,和平林道,2025-05-16,24.343922,121.656317,3.053856e-06
C0TA10,花蓮漁港,2025-05-16,23.995322,121.638331,0.9735369
72C440,桃園農改場,2025-05-16,24.950944,121.030583,0.051979
C1E711,馬拉邦山,2025-05-16,24.367306,120.901656,9.631718e-09
C0SB20,富岡,2025-05-16,22.792467,121.192669,0.9958321
C0D560,竹東,2025-05-16,24.767147,121.057881,1.5668153e-05
C0F9U0,南屯,2025-05-16,24.137006,120.637969,0.65049875
C0M720,番路,2025-05-16,23.464657,120.554156,0.031534735
C0F0A0,雪山圈谷,2025-05-16,24.388594,121.236339,3.8367045e-08
C1A9N0,四十份,2025-05-16,24.934158,121.593283,1.1335533e-06
C0U760,東澳,2025-05-16,24.52196,121.83318,0.99351954
C0X230,鹽水,2025-05-16,23.272621,120.247641,0.98558044
C2H9H0,苗改南投蜂場,2025-05-16,23.852589,120.693481,0.00023861724
C0R950,萬隆國小,2025-05-16,22.507667,120.587817,0.9944666
467540,大武,2025-05-16,22.35572,120.90374,0.92222023
C0V370,古亭坑,2025-05-16,22.893178,120.401947,0.9967193
C1I340,新興橋,2025-05-16,23.563333,120.868728,4.537707e-09
C0SA80,土坂,2025-05-16,22.453108,120.887572,0.86078185
C0R160,鹽埔,2025-05-16,22.739558,120.530778,0.9508749
C0AC40,大屯山,2025-05-16,25.175675,121.522408,2.5000364e-08
466850,五分山雷達站,2025-05-16,25.071182,121.781205,5.53098e-08
C2H9L0,馬烈霸,2025-05-16,24.1512,121.201772,1.1780899e-08
C1AI50,國三N016K,2025-05-16,25.034164,121.619664,0.6880419
C1V600,藤枝,2025-05-16,23.071961,120.757042,6.704173e-09
C1E601,南勢,2025-05-16,24.572486,120.734842,0.00017740515
C0O980,新市,2025-05-16,23.061614,120.298197,0.98413
C0K420,西螺,2025-05-16,23.800407,120.467394,0.58019793
C0Z050,佳心,2025-05-16,23.34567,121.21316,1.06727576e-07
C0AD30,蘆洲,2025-05-16,25.086594,121.472331,0.7674015
C0V610,梓官,2025-05-16,22.760558,120.267211,0.99065506
K2F750,種苗改良場,2025-05-16,24.225972,120.800917,5.275962e-07
C0UA80,大溪漁港,2025-05-16,24.941801,121.902955,0.51018363
C1AI60,國一39K邊坡,2025-05-16,25.064361,121.383836,3.0036083e-05
C0W150,金寧,2025-05-16,24.457703,118.328989,0.00016569954
C0R960,內埔,2025-05-16,22.608483,120.570714,0.9931481
V2C250,八德合作社,2025-05-16,24.93775,121.266389,0.0053880187
C2H9S0,龍南,2025-05-16,23.953536,120.833183,9.513751e-09
C0AH40,平等,2025-05-16,25.129142,121.577086,9.232624e-07
C0R540,佳冬,2025-05-16,22.419456,120.552375,0.9904524
466950,彭佳嶼,2025-05-16,25.627975,122.079744,0.954676
C0A890,雙溪,2025-05-16,25.036003,121.864242,0.72165436
C0C480,桃園,2025-05-16,24.992425,121.323172,0.057752956
C0AH50,林口,2025-05-16,25.072181,121.38084,4.3148934e-06
A2K360,水試臺西試驗場,2025-05-16,23.717231,120.190522,0.9686837
C2M960,外寮,2025-05-16,23.562643,120.665688,4.2088537e-09
C0F9S0,烏日,2025-05-16,24.107058,120.624103,0.7117191
C0C490,八德,2025-05-16,24.928708,121.283289,0.0051672286
C0R190,赤山,2025-05-16,22.592333,120.614306,0.9931484
C0T820,天祥,2025-05-16,24.179597,121.495639,3.5225265e-05
C1F9E1,龍安,2025-05-16,24.1605,120.831961,1.1596344e-07
C0V820,小林,2025-05-16,23.148408,120.63325,1.047608e-06
C2G870,芳苑,2025-05-16,23.922303,120.320025,0.14456877
C0E850,大河,2025-05-16,24.618069,120.948578,0.0001859433
C1U670,寒溪,2025-05-16,24.634,121.71691,0.20096996
C0N020,城西,2025-05-16,23.0568,120.0956,0.9871807
C1Z110,三棧,2025-05-16,24.11557,121.60501,3.5593162e-06
C0R280,檳榔,2025-05-16,22.076078,120.836777,0.004091492
C2H9J0,中台,2025-05-16,23.9996,120.938739,6.531833e-08
C0F9L0,后里,2025-05-16,24.310436,120.729725,7.664682e-05
467441,高雄,2025-05-16,22.730432,120.312516,0.9911502
C0Z180,新城,2025-05-16,24.040486,121.604878,0.9851845
C0D540,橫山,2025-05-16,24.71116,121.11693,2.3731247e-06
C1D420,太閣南,2025-05-16,24.632808,121.160575,3.5441982e-08
C1E770,公館,2025-05-16,24.526914,120.830806,0.0005604404
CAN130,水試所海水繁養殖中心,2025-05-16,23.120802,120.07968,0.98677397
C1I430,翠華,2025-05-16,24.191961,121.224339,1.5712802e-08
C1M400,菜瓜坪,2025-05-16,23.251928,120.576103,2.6555588e-06
C0G730,二林,2025-05-16,23.903325,120.376081,0.4263994
72M360,南改義竹分場,2025-05-16,23.360694,120.279361,0.9826913
V2K620,麥寮合作社,2025-05-16,23.753836,120.294783,0.9851903
C0Z070,舞鶴,2025-05-16,23.46811,121.37407,0.98052347
C0B040,大武崙,2025-05-16,25.166676,121.706993,0.860786
C1Z030,紅葉,2025-05-16,23.493119,121.338806,0.99267185
C1I050,丹大,2025-05-16,23.753747,121.141147,9.479318e-09
C0I080,信義,2025-05-16,23.689694,120.851036,1.02788576e-07
C2M920,朴子農改,2025-05-16,23.469889,120.259383,0.9319127
C2A880,福隆,2025-05-16,25.017842,121.942083,0.2228497
C0Z160,鳳林,2025-05-16,23.746114,121.453411,0.9935406
C0V210,復興,2025-05-16,23.222403,120.806089,8.511626e-09
C0H990,昆陽,2025-05-16,24.121322,121.273642,2.2171411e-08
C0R741,獅子,2025-05-16,22.202308,120.705236,0.96937734
C0S710,鹿野,2025-05-16,22.917711,121.122994,0.04226683
C0I530,小奇萊,2025-05-16,24.131764,121.295717,2.31093e-08
C2K630,荷苞,2025-05-16,23.657717,120.595144,0.004862491
C0Z080,富源,2025-05-16,23.587642,121.378225,0.8753017
C0SB10,美和,2025-05-16,22.682078,121.060236,0.97844434
C2K620,馬光農場,2025-05-16,23.721453,120.378864,0.7847045
C1I140,卡奈托灣,2025-05-16,23.754364,121.087872,5.0414712e-09
C0I520,玉山風口,2025-05-16,23.470489,120.955994,3.2043356e-08
C1G691,下水埔,2025-05-16,23.816114,120.5676,0.2446443
C0X110,臺南市南區,2025-05-16,22.961189,120.188378,0.9828429
C0V680,仁武,2025-05-16,22.701083,120.347722,0.9940092
C2G840,北斗,2025-05-16,23.877586,120.514222,0.86578065
C0R900,竹坑,2025-05-16,22.1385,120.7022,0.25938115
C0K250,崙背,2025-05-16,23.75555,120.318925,0.98504984
C0G860,社頭,2025-05-16,23.897647,120.5862,0.9226101
C0X150,安定,2025-05-16,23.102614,120.227839,0.9873565
C0R590,里港,2025-05-16,22.77919,120.49459,0.88080865
C0E610,馬都安,2025-05-16,24.451272,120.930192,1.0644089e-08
C0E550,明德,2025-05-16,24.583486,120.885411,0.00044891154
C0R150,三地門,2025-05-16,22.709889,120.639944,0.97750074
C0G910,花壇,2025-05-16,24.032076,120.549461,0.9299505
C1D400,鳥嘴山,2025-05-16,24.71909,121.28387,2.3297213e-08
C0K500,元長,2025-05-16,23.64981,120.315024,0.9806136
C0F0B0,石岡,2025-05-16,24.276061,120.777644,5.5924547e-06
C2V250,甲仙,2025-05-16,23.080106,120.591758,0.012792676
C0SA20,金崙山,2025-05-16,22.567419,120.959667,6.435929e-08
C0V350,溪埔,2025-05-16,22.738578,120.446797,0.8948894
C0M660,溪口,2025-05-16,23.604131,120.403569,0.9857727
C1S880,壽卡,2025-05-16,22.238911,120.858903,6.6919536e-05
72D680,桃改新埔分場,2025-05-16,24.834444,121.066111,8.974763e-06
