站號,站名,日期,lat,lon,BLBTSLS
CAH030,茶改場竹圍站,2025-12-12,23.860083,120.637528,5.3595267e-10
V2K610,大庄合作社,2025-12-12,23.8068,120.367939,0.000402953
G2AI50,關渡,2025-12-12,25.11575,121.492,4.3836953e-06
V2C260,八德蔬果,2025-12-12,24.978508,121.281819,0.00023937922
A2K570,古坑花卉中心,2025-12-12,23.63353,120.55239,3.3922694e-05
467571,新竹,2025-12-12,24.827853,121.014219,0.9966394
C0E430,南庄,2025-12-12,24.601775,121.000214,7.884014e-10
C0E420,竹南,2025-12-12,24.708978,120.888897,0.6603036
C0M530,奮起湖,2025-12-12,23.493903,120.699253,1.5700571e-09
C0C590,觀音,2025-12-12,25.027072,121.153317,0.99989206
C0M810,里佳,2025-12-12,23.389125,120.716647,2.1227886e-09
V2C250,八德合作社,2025-12-12,24.93775,121.266389,0.0004320238
