站號,站名,日期,lat,lon,BlastGRU-TW
C0R710,龍磐,2025-11-09,21.931672,120.838942,0.089778855
C1F9D1,白毛台,2025-11-09,24.158325,120.886933,0.15136226
C0G940,竹塘,2025-11-09,23.848253,120.386764,0.23705393
467590,恆春,2025-11-09,22.003897,120.746339,0.8221807
C1O850,環湖,2025-11-09,23.148617,120.418633,0.59387827
C0U710,太平山,2025-11-09,24.505486,121.525656,0.87386036
C0E820,獅潭,2025-11-09,24.539133,120.920042,0.9830525
C0V880,興達,2025-11-09,22.8778,120.2127,0.7273573
C0S890,關山,2025-11-09,23.0395,121.175017,0.9560911
C0SB30,新蘭,2025-11-09,22.869214,121.223228,0.9393018
C2R970,屏科大,2025-11-09,22.648275,120.619247,0.61843127
C1Z130,銅門,2025-11-09,23.965694,121.492842,0.91543806
C0AD40,土城,2025-11-09,24.973208,121.445169,0.9994055
CAN140,六官養殖協會,2025-11-09,23.22881,120.29962,0.31036884
C0X180,山上,2025-11-09,23.0757,120.363253,0.48199654
C0F9Z0,雪山東峰,2025-11-09,24.388792,121.268675,0.000600466
C1M480,獨立山,2025-11-09,23.537022,120.607797,0.29266235
C0X220,學甲,2025-11-09,23.230367,120.182187,0.19118379
467650,日月潭,2025-11-09,23.881325,120.90805,0.553994
C0K600,箔子寮,2025-11-09,23.6197,120.14,0.5466578
C0G830,埤頭,2025-11-09,23.866003,120.452806,0.2956643
C0S950,七塊厝,2025-11-09,22.954453,121.229922,0.9117032
467110,金門,2025-11-09,24.407306,118.289281,0.010030702
C0AH80,深坑,2025-11-09,25.002703,121.628328,0.9994056
C0A970,三貂角,2025-11-09,25.007606,122.002058,0.99303
C2D730,寶山農場,2025-11-09,24.732444,120.976153,0.9648787
C0K430,褒忠,2025-11-09,23.690938,120.303634,0.36997473
467480,嘉義,2025-11-09,23.495925,120.432906,0.75933784
C0V400,阿公店,2025-11-09,22.804194,120.355528,0.7921381
C0E960,觀霧分站,2025-11-09,24.505781,121.113921,0.01359932
467550,玉山,2025-11-09,23.48718,120.95943,0.00025603158
C0R440,大漢山,2025-11-09,22.405264,120.753181,0.0033619474
C0K280,四湖,2025-11-09,23.630414,120.227125,0.5619174
C1F9B1,桐林,2025-11-09,24.066172,120.735194,0.37091875
C2H9U0,鳳鵬,2025-11-09,23.763919,120.788061,0.17759137
C0K390,土庫,2025-11-09,23.679029,120.395574,0.29818827
C1I450,望鄉山,2025-11-09,23.594153,120.944286,0.00035801422
C0E910,海埔,2025-11-09,24.648767,120.772435,0.9448753
B2E890,畜試北區分所,2025-11-09,24.527806,120.770972,0.9715543
C0R750,四林格山,2025-11-09,22.076989,120.802439,0.96237665
C0F0C0,中坑,2025-11-09,24.248517,120.903319,0.79666895
C1I121,大鞍,2025-11-09,23.678381,120.760017,0.081035465
72U480,花改蘭陽分場,2025-11-09,24.686306,121.716583,0.987414
C0A770,科教館,2025-11-09,25.096356,121.516507,0.99925244
C0AJ60,六塊厝,2025-11-09,25.24,121.4481,0.9522161
C0R620,墾雷,2025-11-09,21.900836,120.855269,0.015572824
467420,永康,2025-11-09,23.038386,120.2367,0.6168043
C0I410,名間,2025-11-09,23.837053,120.701447,0.30743828
A2C560,農工中心,2025-11-09,24.985917,121.239833,0.9902635
C0V740,旗山,2025-11-09,22.888614,120.483597,0.53205246
C0Z061,玉里,2025-11-09,23.3215,121.339656,0.9404222
C0S840,南田,2025-11-09,22.279725,120.889208,0.18107723
C1I470,杉林溪,2025-11-09,23.639517,120.786444,0.018972663
C1X040,東原,2025-11-09,23.291597,120.463822,0.45649922
C0R660,枋寮,2025-11-09,22.367722,120.590647,0.3702203
C1R120,上德文,2025-11-09,22.763272,120.704442,0.5810475
C0K450,大埤,2025-11-09,23.646074,120.431537,0.6019666
C0UA00,土場,2025-11-09,24.576533,121.495333,0.9992334
467080,宜蘭,2025-11-09,24.763975,121.756528,0.9947774
C0N030,四草,2025-11-09,23.0235,120.1116,0.27649552
467410,臺南,2025-11-09,22.99328,120.20492,0.28348315
C0V650,彌陀,2025-11-09,22.783806,120.246361,0.58092624
C0D660,新竹市東區,2025-11-09,24.798681,120.986942,0.93317145
82S580,茶改東部分場,2025-11-09,22.907694,121.130139,0.94792444
C0SB40,興隆,2025-11-09,22.913661,121.257469,0.9419219
467050,新屋,2025-11-09,25.006725,121.047492,0.9824572
C0C710,大溪永福,2025-11-09,24.892936,121.324975,0.9990033
C0FA20,溫寮,2025-11-09,24.372177,120.583125,0.80514
C0V640,湖內,2025-11-09,22.887139,120.2445,0.73409116
C0R910,下寮,2025-11-09,22.3929,120.5548,0.3707349
C0Z020,明里,2025-11-09,23.208717,121.262342,0.9218903
C0M770,嘉義梅山,2025-11-09,23.585398,120.555587,0.39866483
C0C660,楊梅,2025-11-09,24.912375,121.143047,0.99200255
C1E511,新開,2025-11-09,24.347703,120.827019,0.98502743
G2F820,農試所(霧峰),2025-11-09,24.031261,120.688133,0.41755545
C1I070,和社,2025-11-09,23.591131,120.888861,0.4767783
C0TA80,立霧山,2025-11-09,24.183258,121.641899,0.8110903
C2F000,大肚,2025-11-09,24.15295,120.572117,0.61378556
C1S850,豐南,2025-11-09,23.122139,121.262389,0.8881443
C2A920,富貴角,2025-11-09,25.263783,121.565258,0.91729444
CAH030,茶改場竹圍站,2025-11-09,23.860083,120.637528,0.25451753
C0T960,光復,2025-11-09,23.660694,121.424964,0.9197808
C0F9M0,豐原,2025-11-09,24.254322,120.720692,0.92987174
C0R720,旭海,2025-11-09,22.205403,120.887614,0.75408715
C0V710,苓雅,2025-11-09,22.622742,120.330669,0.9615485
C0C740,觀音工業區,2025-11-09,25.064764,121.114856,0.9742046
CAC040,拉拉山,2025-11-09,24.699317,121.427133,0.99685943
C0V790,萬山,2025-11-09,22.905944,120.688056,0.20466074
U2HA30,臺大和社,2025-11-09,23.590856,120.888864,0.4767783
C2H9K0,屯原,2025-11-09,24.067969,121.209389,0.003654589
C0AJ90,澳底,2025-11-09,25.0552,121.9253,0.99408466
C0Z100,東華,2025-11-09,23.89525,121.549833,0.96626693
C0G970,三豐,2025-11-09,23.882,120.2895,0.7112619
V2K610,大庄合作社,2025-11-09,23.8068,120.367939,0.3636473
C0V900,汕尾,2025-11-09,22.4782,120.4151,0.33252904
C1R630,龍泉,2025-11-09,22.66701,120.59091,0.59395623
C1AC50,關渡,2025-11-09,25.133486,121.469331,0.9965984
C0C800,四稜,2025-11-09,24.64733,121.4293,0.9949703
C0F9I0,神岡,2025-11-09,24.272481,120.658314,0.92778534
C0K460,斗南,2025-11-09,23.678734,120.478359,0.59823287
C2O810,曾文,2025-11-09,23.219681,120.497328,0.4182279
467280,後龍,2025-11-09,24.648563,120.831834,0.94481176
C1F9J1,清水林,2025-11-09,24.071242,120.820419,0.20818223
C2A650,火燒寮,2025-11-09,25.002719,121.742892,0.9915104
466930,竹子湖,2025-11-09,25.162078,121.544547,0.9799712
C1I220,樟湖,2025-11-09,23.905333,120.846983,0.2402866
C0I390,仁愛,2025-11-09,24.022122,121.132206,0.7892857
C0Z300,東里,2025-11-09,23.26853,121.30547,0.9381893
C1V590,新發,2025-11-09,23.057019,120.646064,0.45774963
C0K510,水林,2025-11-09,23.572924,120.24597,0.39876622
72S590,東改賓朗果園,2025-11-09,22.813889,121.071278,0.92374635
82A750,茶改北部分場,2025-11-09,24.955778,121.631222,0.9980915
C1A750,石碇服務區,2025-11-09,25.00872,121.646242,0.9993254
C0X300,鹿寮,2025-11-09,23.386047,120.477331,0.5413392
G2AI50,關渡,2025-11-09,25.11575,121.492,0.9911134
C0K590,雲林東勢,2025-11-09,23.674192,120.255721,0.40223143
C0A570,桶後,2025-11-09,24.848222,121.597992,0.9974723
C1S800,華源,2025-11-09,22.657883,121.02325,0.93006814
C0G720,溪州,2025-11-09,23.851589,120.499093,0.28814197
C1V160,達卡努瓦,2025-11-09,23.279811,120.705319,0.1819848
C2M410,馬頭山,2025-11-09,23.324361,120.582017,0.46557704
C0V850,蚵仔寮,2025-11-09,22.7256,120.2527,0.6892459
C0S740,池上,2025-11-09,23.119628,121.209469,0.89681906
C1V390,尖山,2025-11-09,22.813153,120.367789,0.79760283
C0AH70,松山,2025-11-09,25.04871,121.55042,0.99925315
C0N010,鯤鯓國小,2025-11-09,23.1879,120.0889,0.17132297
C0R550,新埤,2025-11-09,22.467947,120.582894,0.3329908
C0SA60,知本（水試所）,2025-11-09,22.702394,121.082761,0.93717974
C0T9I0,豐濱,2025-11-09,23.583897,121.514806,0.89853644
C0UB00,淡江大學蘭陽校園,2025-11-09,24.823239,121.730383,0.99685514
C0W240,九宮,2025-11-09,24.423753,118.240186,0.010490858
C0T9N0,富里,2025-11-09,23.171639,121.249378,0.8930073
U2HA50,臺大竹山,2025-11-09,23.756972,120.681556,0.5001706
C0V840,鳳鼻頭,2025-11-09,22.5083,120.3591,0.40449682
C0X140,西港,2025-11-09,23.125608,120.203108,0.20431244
72D080,桃改五峰分場,2025-11-09,24.612194,121.157167,0.9960179
C2H9P0,伊拿谷,2025-11-09,23.963211,121.088264,0.42092976
C2H9F0,柑林,2025-11-09,24.018658,120.847072,0.3118516
C0TA20,加灣,2025-11-09,24.082025,121.608944,0.9430574
C0V530,阿蓮,2025-11-09,22.883208,120.327508,0.590311
C0FB30,八仙山苗圃,2025-11-09,24.192719,121.001366,0.8182678
C1O880,關山,2025-11-09,23.173397,120.594092,0.64837044
C0E791,卓蘭,2025-11-09,24.3126,120.8244,0.9561252
C1I030,武界,2025-11-09,23.913225,121.052483,0.40376446
C0R520,崁頂,2025-11-09,22.514781,120.506914,0.3790636
C0R341,牡丹,2025-11-09,22.130036,120.792639,0.85077804
C0R930,萬丹,2025-11-09,22.5885,120.4851,0.2411529
C0S760,紅石,2025-11-09,23.069131,121.126219,0.005108715
C2C410,中央大學,2025-11-09,24.967652,121.185165,0.98998016
C1M610,石磐龍,2025-11-09,23.496606,120.663506,0.7143227
C0C790,東眼山,2025-11-09,24.8284,121.40888,0.9996617
C0UA10,鴛鴦湖,2025-11-09,24.590269,121.412228,0.9498493
V2C260,八德蔬果,2025-11-09,24.978508,121.281819,0.9975755
C0R800,丹路,2025-11-09,22.204481,120.750989,0.44113752
C0G920,永靖,2025-11-09,23.924703,120.547533,0.37063387
C2M950,太和,2025-11-09,23.538372,120.702961,0.43691638
C1A630,下盆,2025-11-09,24.771003,121.538622,0.97556627
B2N890,畜產試驗所,2025-11-09,23.058972,120.336406,0.44667602
C0UA30,白嶺,2025-11-09,24.527819,121.519031,0.9942408
C1V580,溪南(特生中心),2025-11-09,23.084972,120.788475,0.031249503
C1T970,大農,2025-11-09,23.615233,121.413331,0.88403016
C0R650,竹田,2025-11-09,22.58486,120.54344,0.3972607
C1H900,清流,2025-11-09,24.080775,120.962997,0.68308073
C1C510,水尾,2025-11-09,24.940081,121.087161,0.9611567
C0F9X0,大雅(中科園區),2025-11-09,24.21528,120.62445,0.7284884
C0SB60,白守蓮,2025-11-09,23.126769,121.401914,0.9214443
C0O970,虎頭埤,2025-11-09,23.021375,120.347878,0.7172066
C0C730,中大臨海站,2025-11-09,24.966126,121.008581,0.98382044
C0X250,新營,2025-11-09,23.310689,120.316681,0.8404316
C0V700,三民,2025-11-09,22.645017,120.311233,0.8521662
C0U870,大礁溪,2025-11-09,24.791042,121.675047,0.99097234
C0E870,高鐵苗栗,2025-11-09,24.60725,120.826094,0.9427348
A2K570,古坑花卉中心,2025-11-09,23.63353,120.55239,0.46994287
C0TA30,鹽寮,2025-11-09,23.845606,121.592664,0.9706228
C0M860,新美,2025-11-09,23.338017,120.683169,0.18687798
C1E701,八卦,2025-11-09,24.491756,120.927619,0.9249934
C0I420,國姓,2025-11-09,24.037803,120.855072,0.30768442
C2D720,關西工作站,2025-11-09,24.757275,121.184792,0.9697297
C0S960,香蘭,2025-11-09,22.587569,120.993375,0.7107891
467620,蘭嶼,2025-11-09,22.0369,121.55843,0.81396455
C0R260,春日,2025-11-09,22.370361,120.628306,0.39056
72G600,臺中農改場,2025-11-09,24.003028,120.534389,0.44387633
C0Z210,瑞穗,2025-11-09,23.5239,121.39021,0.88648856
C0M820,達邦,2025-11-09,23.453994,120.749517,0.5641979
C0V860,南寮,2025-11-09,22.7616,120.2339,0.6920571
C0G740,大城,2025-11-09,23.852487,120.320935,0.70714927
C0R920,塭仔,2025-11-09,22.4169,120.5197,0.36250728
C0R470,高樹,2025-11-09,22.826389,120.600806,0.29657057
C0R680,佳樂水,2025-11-09,21.993578,120.861633,0.23239006
C1O870,大棟山,2025-11-09,23.31157,120.52226,0.48895457
C0D360,梅花,2025-11-09,24.678347,121.208558,0.99852324
C0Z190,富世,2025-11-09,24.14743,121.6297,0.9538923
C0AI10,屈尺,2025-11-09,24.92184,121.54475,0.99952
B2U990,畜試東區分所,2025-11-09,24.669039,121.832561,0.9794487
C0SB80,長濱漁港,2025-11-09,23.313644,121.459994,0.97144115
C0TA50,和仁,2025-11-09,24.241394,121.712472,0.9456832
C0V910,大樹,2025-11-09,22.684645,120.432803,0.83110636
C1R610,西大武山,2025-11-09,22.617719,120.7322,0.0036231498
C0G900,線西,2025-11-09,24.143358,120.443536,0.5441683
C0M700,竹崎,2025-11-09,23.526178,120.555508,0.4860559
C2E880,三義,2025-11-09,24.405478,120.749819,0.9610721
C0C720,竹圍,2025-11-09,25.112692,121.239824,0.99113727
C0F9P0,清水,2025-11-09,24.312297,120.562242,0.69768035
C0Z150,吉安光華,2025-11-09,23.930925,121.595153,0.9582554
C0FA80,小雪山天池,2025-11-09,24.28025,121.02627,0.00075541966
467300,東吉島,2025-11-09,23.25727,119.66762,0.15983276
C1D640,外坪(五指山),2025-11-09,24.644447,121.090961,0.9985981
C0F9O0,潭子,2025-11-09,24.213106,120.703933,0.82031095
C2H9R0,卓社,2025-11-09,23.887894,121.000086,0.4565925
72T250,花蓮農改場,2025-11-09,23.975222,121.563889,0.94955456
C0E780,銅鑼,2025-11-09,24.489681,120.790853,0.9743507
C1T950,太安,2025-11-09,23.666719,121.370128,0.55105615
C0E830,苑裡,2025-11-09,24.439714,120.653053,0.88434476
467270,田中,2025-11-09,23.873803,120.581286,0.6230853
C0SA10,檳榔四格山,2025-11-09,22.810031,121.109308,0.91577035
C1T830,布洛灣,2025-11-09,24.17184,121.57127,0.06215828
C0F970,大坑,2025-11-09,24.173142,120.722289,0.4411779
C1U920,思源,2025-11-09,24.393125,121.347214,0.037330087
C0A931,三和,2025-11-09,25.233153,121.595236,0.98994005
C0I010,廬山,2025-11-09,24.033311,121.181808,0.1977803
C2M940,日野賀,2025-11-09,23.434056,120.727169,0.3358757
C0R860,鼻頭,2025-11-09,22.1043,120.8979,0.9156759
C0UB20,壯圍,2025-11-09,24.7359,121.8163,0.98750997
C0R790,九棚,2025-11-09,22.14195,120.889281,0.7793423
C0W110,東莒,2025-11-09,25.9652,119.98069,0.0020641587
C1U930,粉鳥林,2025-11-09,24.497088,121.842479,0.9962184
C1I211,蘆竹湳,2025-11-09,23.934019,120.811994,0.64766586
C0S830,長濱,2025-11-09,23.286817,121.411975,0.9069176
C1F9F1,伯公龍,2025-11-09,24.272392,120.849047,0.21670307
C0UB90,太平山莊,2025-11-09,24.494171,121.536209,0.8743103
C0E810,西湖,2025-11-09,24.562947,120.7485,0.8978004
C1I440,新高口,2025-11-09,23.478744,120.878939,0.0007311863
C0O840,王爺宮,2025-11-09,23.222064,120.40085,0.47771645
C0T9G0,鳳林山,2025-11-09,23.735269,121.420131,0.7531888
C0X080,佳里,2025-11-09,23.173039,120.145086,0.17202532
C0FB70,大甲溪埔,2025-11-09,24.370625,120.620067,0.8029472
C0Z310,清水斷崖,2025-11-09,24.218294,121.689142,0.94796765
C0M680,太保,2025-11-09,23.455062,120.331455,0.8420202
C1S820,金峰,2025-11-09,22.590969,120.933236,0.73006505
C0AD10,八里,2025-11-09,25.150211,121.403947,0.99115914
C2K240,草嶺,2025-11-09,23.59555,120.693461,0.71832895
C1SA70,都蘭,2025-11-09,22.87794,121.226881,0.94186276
C0K440,二崙,2025-11-09,23.772797,120.408944,0.3148768
C1A760,坪林交控,2025-11-09,24.94284,121.713442,0.9938238
C0F9N0,大里,2025-11-09,24.092464,120.701378,0.43185982
C0SA90,達仁林場,2025-11-09,22.264347,120.823972,0.8738328
C1R290,石門山,2025-11-09,22.112611,120.756597,0.9411313
42HA10,萬大發電廠,2025-11-09,23.978875,121.139639,0.41814265
C0R890,山海,2025-11-09,21.9878,120.7091,0.09681747
C0T9A0,月眉山,2025-11-09,23.809928,121.539828,0.71922654
C0AC70,信義,2025-11-09,25.037822,121.564597,0.99925286
C0K560,棋山,2025-11-09,23.68645,120.603417,0.45332474
C2FB50,出雲,2025-11-09,24.206469,120.902794,0.8429339
C1Z240,中平林道,2025-11-09,23.42115,121.26763,0.7629044
U2H480,溪頭,2025-11-09,23.670306,120.798194,0.29052478
C0M880,好美里,2025-11-09,23.3364,120.138,0.5120778
C0T9E0,大坑,2025-11-09,23.880628,121.581981,0.8135318
C0K530,臺西,2025-11-09,23.701547,120.197559,0.57090867
C1E900,國一N128K,2025-11-09,24.560997,120.844186,0.9633372
C0AJ50,水湳洞,2025-11-09,25.123695,121.862238,0.9963068
C0AI20,白沙灣,2025-11-09,25.283128,121.519058,0.9525166
C2V310,美濃,2025-11-09,22.898792,120.51907,0.529904
C0A860,大坪,2025-11-09,25.165914,121.632969,0.99350613
C1U850,觀音海岸,2025-11-09,24.38319,121.77856,0.9141977
C2K610,草嶺石壁,2025-11-09,23.602469,120.707731,0.6982374
C0U950,鶯子嶺,2025-11-09,24.89754,121.79244,0.99274313
C0O900,善化,2025-11-09,23.112883,120.297219,0.4503256
C0K550,蔦松,2025-11-09,23.514319,120.229736,0.39374503
E2P980,林試六龜中心,2025-11-09,22.991703,120.645722,0.27702117
C0E590,通霄,2025-11-09,24.471892,120.704622,0.89802563
C1I310,西巒,2025-11-09,23.754486,120.883956,0.4107778
C0A550,泰平,2025-11-09,24.971197,121.823711,0.99749756
C0I360,水里,2025-11-09,23.812553,120.849792,0.22342679
C0R830,高士,2025-11-09,22.121825,120.836781,0.95287496
C1I101,溪頭,2025-11-09,23.661789,120.807647,0.014607472
C0AJ20,野柳,2025-11-09,25.20703,121.690021,0.99486357
C0B060,暖暖,2025-11-09,25.0957,121.7403,0.9989912
C1H920,長豐,2025-11-09,24.102039,120.879897,0.8350743
C0V360,內門,2025-11-09,22.975481,120.466769,0.60275316
C0R850,林邊,2025-11-09,22.4634,120.5339,0.3314327
C0E930,龍鳳,2025-11-09,24.700034,120.859125,0.93745285
C0U910,冬山,2025-11-09,24.63373,121.7937,0.9794487
C1E721,泰安,2025-11-09,24.489017,120.968036,0.8356507
82H320,茶改中部分場,2025-11-09,23.875611,120.913583,0.6797135
C0M750,布袋,2025-11-09,23.380878,120.167789,0.8998914
C1S860,利嘉,2025-11-09,22.809417,121.050528,0.8447576
E2S980,林試太麻里1,2025-11-09,22.598922,120.980044,0.736658
C0X170,關廟,2025-11-09,22.963017,120.327797,0.62769
C0V720,林園,2025-11-09,22.507747,120.394511,0.3153835
C1I510,線浸林道,2025-11-09,23.761508,120.832956,0.3201302
C0D690,外湖,2025-11-09,24.917735,120.968711,0.9714379
C0C750,新興坑尾,2025-11-09,25.0061,121.0971,0.9785852
B2Q810,畜試南區分所,2025-11-09,21.945583,120.802167,0.19998762
C0S790,金崙,2025-11-09,22.538122,120.966875,0.38643217
C0AH90,福山植物園,2025-11-09,24.760717,121.58135,0.99811494
C0I540,奇萊稜線,2025-11-09,24.109231,121.326456,0.00075246964
C0M850,表湖,2025-11-09,23.24186,120.64166,0.3320324
C0S770,大溪山,2025-11-09,22.478475,120.943325,0.4075182
C0AG80,中和,2025-11-09,24.991622,121.491792,0.99940544
C0T790,大禹嶺,2025-11-09,24.186117,121.316086,0.0008402066
C0T9B0,水源,2025-11-09,23.991861,121.537169,0.8629331
C0R840,牡丹池山,2025-11-09,22.168389,120.841225,0.9409597
C1I131,桶頭,2025-11-09,23.641944,120.654117,0.40577775
CAL110,布袋國中,2025-11-09,23.35893,120.18026,0.8765579
467571,新竹,2025-11-09,24.827853,121.014219,0.9731747
C0Z290,赤柯山,2025-11-09,23.36893,121.38293,0.2873227
C0X280,將軍,2025-11-09,23.214999,120.13577,0.19367738
C0S690,太麻里,2025-11-09,22.60902,120.98533,0.32889122
C0U880,北關,2025-11-09,24.9072,121.8734,0.99535257
C0G810,埔心,2025-11-09,23.947633,120.525456,0.37963668
C0U970,大福,2025-11-09,24.80064,121.81389,0.9948904
C2H9N0,仁愛東眼,2025-11-09,24.026875,121.1205,0.41548246
C1E670,南礦,2025-11-09,24.538278,121.002836,0.9864936
C0M520,東後寮,2025-11-09,23.369908,120.248065,0.8783987
C1E461,松安,2025-11-09,24.397972,120.986022,0.666341
C2N160,西拉雅風管處,2025-11-09,23.189481,120.335297,0.41821116
C2M970,碧湖,2025-11-09,23.568632,120.624165,0.77796096
C0A640,石碇,2025-11-09,24.993969,121.662917,0.99934655
E2S960,林試太麻里2,2025-11-09,22.598,120.99775,0.70259076
C0F9Y0,桃山,2025-11-09,24.432739,121.303808,0.0018075291
C1I020,萬大,2025-11-09,23.979817,121.132261,0.7850718
C0U940,羅東,2025-11-09,24.68184,121.74934,0.98748994
C0M650,朴子,2025-11-09,23.43463,120.23902,0.84576154
C1I500,大尖山,2025-11-09,23.858572,120.994889,0.0017272506
C0FB40,中橫21.6k,2025-11-09,24.2499,121.1455,0.6894153
C0G820,田尾,2025-11-09,23.901669,120.509389,0.37746057
E2K600,四湖植物園,2025-11-09,23.676986,120.163433,0.55912113
C0S730,綠島,2025-11-09,22.6672,121.47533,0.96272284
12Q970,東港工作站,2025-11-09,22.479997,120.466058,0.3294771
C0E430,南庄,2025-11-09,24.601775,121.000214,0.982858
C1TA00,太魯閣,2025-11-09,24.15773,121.6236,0.94759566
466920,臺北,2025-11-09,25.037658,121.514853,0.99925315
C0R600,舊泰武,2025-11-09,22.588194,120.664944,0.92691636
C1I260,北坑,2025-11-09,23.9246,121.006903,0.6547988
466910,鞍部,2025-11-09,25.182586,121.529731,0.8599375
C1I230,九份二山,2025-11-09,23.961944,120.845,0.4504666
C2A660,瑞芳,2025-11-09,25.113169,121.801147,0.99557567
C0R270,琉球嶼,2025-11-09,22.332244,120.362236,0.961096
C1T990,高寮,2025-11-09,23.394239,121.356808,0.92752546
C0G620,芬園,2025-11-09,24.015678,120.6213,0.42999873
C1Z140,荖溪,2025-11-09,23.890575,121.45964,0.80849594
C1I201,中心崙,2025-11-09,23.728722,120.712097,0.11121012
C1I400,凌霄,2025-11-09,24.018778,121.004456,0.46862024
C1M640,十字,2025-11-09,23.492153,120.753683,0.17927894
G2P820,農試鳳山分所,2025-11-09,22.646611,120.356083,0.8546516
C0Z270,蕃薯寮,2025-11-09,23.73835,121.540108,0.7837993
C0FB10,出雲山苗圃,2025-11-09,24.23105,120.90475,0.7964865
C0F9Q0,外埔,2025-11-09,24.347817,120.705686,0.9576366
C0K580,高鐵雲林,2025-11-09,23.737456,120.417944,0.30393824
C2I090,鳳凰,2025-11-09,23.728081,120.787347,0.608006
C0U990,員山,2025-11-09,24.74435,121.72247,0.9874591
C0V770,大社,2025-11-09,22.730306,120.346639,0.68327236
C0X120,麻豆,2025-11-09,23.183289,120.248611,0.24143793
C0C670,龍潭,2025-11-09,24.870056,121.221389,0.99756837
C0D680,香山濕地,2025-11-09,24.783581,120.914988,0.9341442
C0S980,勝林山,2025-11-09,22.430439,120.8938,0.7125319
C0V730,大寮,2025-11-09,22.605614,120.395717,0.94334805
C0R570,麟洛,2025-11-09,22.65078,120.52719,0.24606979
C2M930,石卓,2025-11-09,23.478744,120.702264,0.090079024
C0G9B0,和美,2025-11-09,24.105169,120.492131,0.41073263
CAG100,王功漁港,2025-11-09,23.96824,120.32586,0.7218628
C0X290,北門,2025-11-09,23.267772,120.125481,0.19373943
C2F930,大甲,2025-11-09,24.347667,120.640403,0.80277246
C0D650,湖口,2025-11-09,24.904794,121.043628,0.96177435
C0E420,竹南,2025-11-09,24.708978,120.888897,0.9401116
C0U780,五結,2025-11-09,24.68637,121.79794,0.9874757
C1I250,鯉潭,2025-11-09,23.961922,120.991131,0.58919
C0R130,阿禮,2025-11-09,22.742908,120.743678,0.33297336
C0X100,臺南市北區,2025-11-09,23.010394,120.194228,0.2874074
C0S920,金峰嘉蘭,2025-11-09,22.594789,120.960825,0.7422528
C0V490,新興,2025-11-09,22.627422,120.298803,0.9618762
C0F9K0,大安,2025-11-09,24.345061,120.588025,0.80193335
467290,古坑,2025-11-09,23.633639,120.551889,0.46994287
C2E970,八甲,2025-11-09,24.535811,120.795983,0.9676541
C0V440,鳳山,2025-11-09,22.646653,120.356122,0.8546516
C1T940,大觀,2025-11-09,23.714206,121.373133,0.6491732
C0E740,造橋,2025-11-09,24.637056,120.864778,0.9448564
C0R100,尾寮山,2025-11-09,22.833111,120.683889,0.39022723
A2K630,臺大雲林校區,2025-11-09,23.730628,120.423903,0.3019039
467990,馬祖,2025-11-09,26.169467,119.923158,0.0032546844
C0D580,寶山,2025-11-09,24.735006,121.025192,0.9969093
E2P990,林試扇平站,2025-11-09,22.9677,120.6857,0.9057168
C0AI30,三重,2025-11-09,25.057328,121.500629,0.99925244
C0AH00,汐止,2025-11-09,25.066881,121.658778,0.99925315
C1Z040,立山,2025-11-09,23.443356,121.327375,0.7587591
466881,新北,2025-11-09,24.959207,121.525196,0.99940735
C0W130,花嶼,2025-11-09,23.40007,119.32276,0.006097505
C0A950,鼻頭角,2025-11-09,25.129036,121.923372,0.99751085
C0K470,林內,2025-11-09,23.748675,120.609642,0.56189024
C2F990,摩天嶺,2025-11-09,24.322458,120.936819,0.89633936
82C160,茶改場,2025-11-09,24.908472,121.185333,0.9908845
C0Z320,清水林道,2025-11-09,23.27125,121.188272,0.573558
C0R760,南仁湖,2025-11-09,22.084681,120.863353,0.9412835
C0M670,大林,2025-11-09,23.600616,120.45841,0.6481538
C0M800,茶山,2025-11-09,23.299075,120.664767,0.19204192
C0A9C0,天母,2025-11-09,25.117494,121.537169,0.9969569
72K220,南改斗南分場,2025-11-09,23.634556,120.477333,0.5938281
72AI40,桃改樹林分場,2025-11-09,24.944503,121.386972,0.997132
C0S910,蘭嶼燈塔,2025-11-09,22.081197,121.503117,0.9492883
C0B050,八斗子,2025-11-09,25.144754,121.79167,0.9963428
C0U900,內城,2025-11-09,24.71813,121.68766,0.98736113
C0X320,柳營,2025-11-09,23.253328,120.375253,0.5415912
C0M790,新港,2025-11-09,23.553269,120.345728,0.46617252
C0F9T0,西屯,2025-11-09,24.179494,120.641275,0.4552471
C0E950,松安,2025-11-09,24.39792,120.98599,0.66634107
C0SA30,都歷,2025-11-09,23.020333,121.323642,0.95826703
C0C620,蘆竹,2025-11-09,25.084275,121.265767,0.9912957
C0R730,大坪頂,2025-11-09,22.024633,120.69355,0.75946873
C0AJ40,石門,2025-11-09,25.273672,121.601198,0.9360274
C0E750,苗栗,2025-11-09,24.564569,120.824575,0.9632241
C0T870,鯉魚潭,2025-11-09,23.935639,121.508944,0.9286809
C1V170,排雲,2025-11-09,23.463619,120.954147,0.00033374838
C2H950,中寮,2025-11-09,23.884447,120.766406,0.23097864
C0R350,貓鼻頭,2025-11-09,21.921774,120.7358,0.025167966
C0V660,岡山,2025-11-09,22.797078,120.294958,0.5782511
C1H941,雙冬,2025-11-09,23.967378,120.802189,0.6583868
C0AJ70,田寮,2025-11-09,25.2698,121.4886,0.9525454
C0AI00,五股,2025-11-09,25.07445,121.42728,0.9935953
C0Z280,德武,2025-11-09,23.47426,121.41071,0.87881094
C0R700,枋山,2025-11-09,22.246844,120.661086,0.24668983
C0C460,復興,2025-11-09,24.820208,121.352281,0.99930096
E2H360,蓮華池,2025-11-09,23.918333,120.885278,0.6743718
C0M640,中埔,2025-11-09,23.42538,120.5229,0.60078204
C0W140,金沙,2025-11-09,24.488292,118.408778,0.020653304
C2A540,四堵,2025-11-09,24.8926,121.745736,0.98467565
C0ACA0,新莊,2025-11-09,25.051478,121.446756,0.99902177
C0R220,潮州,2025-11-09,22.534361,120.54,0.3815409
U2HA40,臺大內茅埔,2025-11-09,23.689722,120.851117,0.6635774
467490,臺中,2025-11-09,24.145736,120.684075,0.49873006
C0UB60,明池,2025-11-09,24.650688,121.475277,0.9950301
C0U960,翠峰湖,2025-11-09,24.510856,121.608044,0.9822597
E2HA20,林試畢祿溪站,2025-11-09,24.226944,121.308522,0.0020398698
C0V890,前鎮,2025-11-09,22.5718,120.3117,0.96057683
C1F941,雪嶺,2025-11-09,24.280586,121.026642,0.00075541966
C2H9E0,國姓南港,2025-11-09,23.911108,120.846556,0.2071266
C0AC80,文山,2025-11-09,25.00235,121.575728,0.9994043
C0F9R0,龍井,2025-11-09,24.184536,120.528972,0.568585
C0M760,民雄,2025-11-09,23.551754,120.428457,0.6505448
C0UA40,西德山,2025-11-09,24.560647,121.752608,0.999616
C1T920,中興,2025-11-09,23.769503,121.498653,0.9556549
C0D550,雪霸,2025-11-09,24.526972,121.11605,0.03810988
C2F860,梨山,2025-11-09,24.247522,121.243669,0.0018120928
C0R320,車城,2025-11-09,22.0744,120.716247,0.32955784
C1S870,南美山,2025-11-09,23.15025,121.382333,0.8953193
C0B020,基隆嶼,2025-11-09,25.19141,121.78391,0.99537444
C1U501,牛鬥,2025-11-09,24.637836,121.573656,0.9983188
C0M730,嘉義市東區,2025-11-09,23.457673,120.460531,0.75475633
C0S700,知本,2025-11-09,22.684866,121.005642,0.92532486
C1N001,沙崙,2025-11-09,22.935472,120.309406,0.6253096
C0V760,橋頭,2025-11-09,22.757806,120.30575,0.68664366
C0G960,福寶,2025-11-09,24.0443,120.3814,0.4073604
C0X210,白河,2025-11-09,23.347466,120.414427,0.72347564
C0S810,東河,2025-11-09,22.972672,121.303986,0.9195924
C2R170,屏東,2025-11-09,22.66027,120.49403,0.24747315
C0R670,楓港,2025-11-09,22.190131,120.692156,0.1430801
C0FA50,霧峰,2025-11-09,24.0419,120.6995,0.39967993
C0UB10,蘇澳,2025-11-09,24.5969,121.8571,0.9995293
C0G950,防潮門,2025-11-09,24.1835,120.4871,0.5737812
C0M740,六腳,2025-11-09,23.492871,120.290625,0.70377755
C1R250,力里,2025-11-09,22.428117,120.629228,0.95587856
C0K330,虎尾,2025-11-09,23.719183,120.442036,0.29871204
C2FA00,烏石坑,2025-11-09,24.273503,120.947617,0.89895093
C0V620,永安,2025-11-09,22.82315,120.236856,0.58092624
C1I330,楓樹林,2025-11-09,23.986803,121.076117,0.70135504
C0W200,湖西,2025-11-09,23.596314,119.67275,0.008364127
72Q010,高雄農改場,2025-11-09,22.709333,120.525889,0.3481259
C0SA40,瑞和,2025-11-09,22.974361,121.156697,0.9602571
C0C680,龜山,2025-11-09,25.02846,121.38656,0.9913535
C2V260,月眉,2025-11-09,22.971003,120.539853,0.34247503
C0V450,鳳森,2025-11-09,22.545064,120.392592,0.33672187
C0FA90,小雪山林道,2025-11-09,24.29515,121.03651,0.00044924568
C0U720,南山,2025-11-09,24.43742,121.38167,0.9594814
A2N290,臺南蘭花園區,2025-11-09,23.340258,120.379661,0.885123
C0R560,新園,2025-11-09,22.5434,120.461558,0.3153835
C0U890,三星,2025-11-09,24.66812,121.65302,0.99814254
C1V300,御油山,2025-11-09,23.001983,120.715364,0.034022227
C0U600,礁溪,2025-11-09,24.817539,121.765608,0.9951294
C1T980,龍澗,2025-11-09,24.023289,121.411328,0.5599203
C0D670,海天一線,2025-11-09,24.831986,120.914438,0.93011326
C0SA00,歷坵,2025-11-09,22.520969,120.89185,0.43793043
C0M710,東石,2025-11-09,23.458927,120.15385,0.46391076
C0M780,鹿草,2025-11-09,23.41134,120.30835,0.8494489
C0U520,雙連埤,2025-11-09,24.753033,121.641303,0.9907843
C0B010,七堵,2025-11-09,25.094819,121.71713,0.9989742
C0R480,長治,2025-11-09,22.693128,120.542622,0.8468675
C1V830,國三S383K,2025-11-09,22.781967,120.426475,0.38168642
12Q980,恆春工作站,2025-11-09,22.079678,120.714425,0.3302471
C1O940,東山服務區,2025-11-09,23.286016,120.398472,0.6303012
C1U840,東澳嶺,2025-11-09,24.5378,121.8485,0.9994986
C1D630,飛鳳山,2025-11-09,24.766464,121.119178,0.9977531
C0S940,石寧山,2025-11-09,23.223772,121.406639,0.94817144
C0K410,北港,2025-11-09,23.573957,120.292802,0.40005964
C2M620,瑞里,2025-11-09,23.545133,120.675197,0.58965886
C0SB70,小港漁港,2025-11-09,23.158558,121.400431,0.84582096
C2O950,安南,2025-11-09,23.076694,120.144861,0.15413967
C0F0E0,南湖圈谷,2025-11-09,24.363714,121.444667,0.0043237847
467610,成功,2025-11-09,23.097486,121.373428,0.936622
C0G890,伸港,2025-11-09,24.148933,120.484403,0.5398077
C2E540,龍溪,2025-11-09,24.606489,120.783933,0.9433863
C1V200,梅山,2025-11-09,23.268447,120.823556,0.40293518
C0T9H0,加路蘭山,2025-11-09,23.682947,121.5274,0.640773
C2O930,玉井,2025-11-09,23.126042,120.46055,0.5482276
C1F911,新伯公,2025-11-09,24.221361,120.841069,0.28917864
C0R490,九如,2025-11-09,22.7405,120.490503,0.345428
C0X200,左鎮,2025-11-09,23.056758,120.408522,0.7250049
C0FA60,鞍馬山工作站,2025-11-09,24.267064,121.000793,0.0017376984
C0SB50,叭嗡嗡,2025-11-09,23.047062,121.343223,0.9537304
C1F891,稍來,2025-11-09,24.265689,121.001142,0.0019705766
72N240,七股研究中心,2025-11-09,23.081672,120.062894,0.15025727
C0C700,中壢,2025-11-09,24.977661,121.256375,0.9972674
C0M690,水上,2025-11-09,23.419734,120.388909,0.84209025
C0V690,鼓山,2025-11-09,22.623325,120.275575,0.96200246
C0O860,大內,2025-11-09,23.11885,120.36083,0.44786963
C0Z200,萬榮,2025-11-09,23.709219,121.420106,0.9218837
C0T9D0,和中,2025-11-09,24.26676,121.74103,0.9801051
C1O921,楠西,2025-11-09,23.183511,120.484083,0.5684097
C0AJ30,淡水觀海,2025-11-09,25.184591,121.408616,0.9889974
C0V810,左營,2025-11-09,22.67491,120.28491,0.8515751
C0UA70,桃源谷,2025-11-09,24.962606,121.888875,0.9985904
C0X130,官田,2025-11-09,23.193217,120.315422,0.41609988
C1H000,翠峰,2025-11-09,24.109397,121.205211,0.0027452244
C0UA90,石城,2025-11-09,24.980444,121.951214,0.9931201
C1E681,南勢山,2025-11-09,24.421669,120.923831,0.67550474
C0A9F0,內湖,2025-11-09,25.079422,121.57545,0.99925315
C0K291,宜梧,2025-11-09,23.536281,120.169329,0.3965772
C1K540,口湖,2025-11-09,23.585344,120.180517,0.54764783
C0R780,滿州,2025-11-09,22.024403,120.839892,0.872128
C0V870,文安,2025-11-09,22.8025,120.2164,0.5721746
C0U650,玉蘭,2025-11-09,24.675286,121.587061,0.9899461
C0R640,東港,2025-11-09,22.46247,120.44074,0.3299258
C0AJ80,板橋,2025-11-09,25.0107,121.4489,0.9994037
C0S660,下馬,2025-11-09,23.150427,121.070312,0.39089674
C1H9B1,阿眉,2025-11-09,24.1263,120.994672,0.017517017
C0UA20,多加屯,2025-11-09,24.368614,121.373189,0.0020038805
C0E730,頭份,2025-11-09,24.688247,120.912206,0.93930006
72V140,高改旗南分場,2025-11-09,22.857861,120.516667,0.38667047
C0K480,莿桐,2025-11-09,23.761192,120.502372,0.66464293
C0U980,坪林石牌,2025-11-09,24.86478,121.77396,0.994358
C0T900,西林,2025-11-09,23.8119,121.441458,0.90993637
C1I150,青雲,2025-11-09,23.793361,120.949378,0.2675859
467350,澎湖,2025-11-09,23.565503,119.563094,0.0038602308
C0G800,埔鹽,2025-11-09,24.000394,120.431683,0.32338384
C0H960,草屯,2025-11-09,23.973672,120.68085,0.35580042
C1V780,多納林道,2025-11-09,22.888028,120.737917,0.6834275
C0E920,通霄漁港,2025-11-09,24.498589,120.673876,0.9065746
C0Z330,安通山,2025-11-09,23.290728,121.348528,0.811405
C0AH10,永和,2025-11-09,25.01125,121.508111,0.999404
C0AK10,太平里,2025-11-09,25.134937,121.364899,0.9912232
C2G640,鹿港,2025-11-09,24.0753,120.430481,0.4058583
C1E890,國三N149K,2025-11-09,24.463414,120.680019,0.8690936
C1R110,口社,2025-11-09,22.770111,120.645222,0.8234109
C1M870,國三N285K,2025-11-09,23.550319,120.505833,0.4196325
C1E480,鳳美,2025-11-09,24.554803,121.034747,0.987201
C0M530,奮起湖,2025-11-09,23.493903,120.699253,0.42158067
C0C590,觀音,2025-11-09,25.027072,121.153317,0.96907604
C0T9M0,靜浦,2025-11-09,23.455167,121.495028,0.93103254
C2H9M0,發祥,2025-11-09,24.154094,121.164517,0.37754592
C0AI40,石牌,2025-11-09,25.115597,121.513139,0.99695104
C1F871,上谷關,2025-11-09,24.203483,121.018644,0.87371427
C2H9G0,百勝,2025-11-09,24.051142,120.909361,0.08941269
C0G880,二水,2025-11-09,23.810742,120.6173,0.4753939
C0R940,加祿堂,2025-11-09,22.3363,120.6217,0.13985908
C0W220,北竿,2025-11-09,26.220358,119.974881,0.0041070147
C0O960,崎頂,2025-11-09,22.959547,120.369317,0.6458258
C0TA40,秀林,2025-11-09,24.302864,121.731144,0.8434712
C0S750,向陽,2025-11-09,23.248397,120.986133,0.0015494219
C0T9F0,水璉,2025-11-09,23.797131,121.542514,0.8556839
C1M600,頭凍,2025-11-09,23.406364,120.603339,0.47125265
467660,臺東,2025-11-09,22.752211,121.154586,0.86484367
C1D380,新埔,2025-11-09,24.84745,121.03834,0.9724583
C2G980,田頭村,2025-11-09,23.8263,120.444175,0.31518242
C0V750,路竹,2025-11-09,22.854997,120.259439,0.7364159
C0N050,蚵寮,2025-11-09,23.301,120.1104,0.51285595
72M700,南改鹿草分場,2025-11-09,23.416869,120.283061,0.8473141
C1SA50,利嘉林道,2025-11-09,22.82325,121.009389,0.22580895
C0UB70,太平山中間站,2025-11-09,24.542003,121.513453,0.99859077
C0A940,金山,2025-11-09,25.223628,121.643967,0.9947143
C1V340,大津,2025-11-09,22.888322,120.645986,0.31238946
C0W180,七美,2025-11-09,23.219333,119.444892,0.02147206
C1F9C1,白冷,2025-11-09,24.182844,120.929889,0.49528006
K2E710,苗改生物防治研究中心,2025-11-09,24.422861,120.871833,0.9800775
C0N040,蘆竹溝,2025-11-09,23.2344,120.0961,0.19373916
C0D760,大坪苗圃,2025-11-09,24.5362,121.1108,0.98693544
C2W230,畜試所澎湖,2025-11-09,23.628342,119.513206,0.0036166438
C0R880,後壁湖,2025-11-09,21.9457,120.7457,0.087245926
C1I280,埔中,2025-11-09,23.820778,120.642594,0.15229805
467790,墾丁雷達站,2025-11-09,21.948235,120.808028,0.41026235
C0W190,望安,2025-11-09,23.380564,119.494075,0.0069710435
C0Z170,卓溪,2025-11-09,23.3443,121.3029,0.94987464
C0F850,東勢,2025-11-09,24.246428,120.833047,0.9149909
466900,淡水,2025-11-09,25.164889,121.448906,0.9912286
C0I370,魚池,2025-11-09,23.895703,120.94135,0.73529416
C0C630,大溪,2025-11-09,24.882853,121.265547,0.9974667
C0A520,山佳,2025-11-09,24.974944,121.402008,0.9991298
C0I110,竹山,2025-11-09,23.761225,120.688156,0.4070007
82H840,茶改南部分場,2025-11-09,23.762528,120.7405,0.1589593
C0G660,溪湖,2025-11-09,23.94835,120.479122,0.38583732
C1T800,洛韶,2025-11-09,24.204558,121.453956,0.73232013
C1T810,慈恩,2025-11-09,24.192044,121.388386,0.014943317
C1E451,象鼻,2025-11-09,24.368617,120.940228,0.5325243
C0AC60,三峽,2025-11-09,24.939025,121.369728,0.99693555
C0I490,萬大林道,2025-11-09,23.928228,121.091411,0.06008645
C1I290,豐丘,2025-11-09,23.668178,120.887417,0.27259272
C1I320,奧萬大,2025-11-09,23.952956,121.178556,0.5821588
C2M910,嘉義大學,2025-11-09,23.471325,120.485903,0.62557167
C0U770,南澳,2025-11-09,24.44935,121.81022,0.9947003
C0A980,社子,2025-11-09,25.109508,121.469681,0.9910628
C0V800,六龜,2025-11-09,22.997889,120.633583,0.28561333
C1G9D0,國一S218K,2025-11-09,23.890641,120.493253,0.34981814
C0E570,白沙屯,2025-11-09,24.549447,120.696803,0.9093155
C2F9A0,中竹林,2025-11-09,24.103556,120.751061,0.23537664
C0FA40,臺中電廠,2025-11-09,24.2146,120.4907,0.56791246
C2G9A0,畜試所彰化,2025-11-09,23.86045,120.557964,0.62466854
C0H9C0,合歡山,2025-11-09,24.143442,121.272547,0.00043575247
C0X060,下營,2025-11-09,23.22695,120.256261,0.3157719
G2M350,農試溪口農場,2025-11-09,23.58565,120.408111,0.6637052
C0U860,頭城,2025-11-09,24.85323,121.8308,0.9951785
C0R580,南州,2025-11-09,22.48591,120.50274,0.3299258
C0D430,峨眉,2025-11-09,24.6905,121.017189,0.9647118
C0G780,秀水,2025-11-09,24.03405,120.503869,0.4463438
72N100,臺南農改場,2025-11-09,23.0605,120.342194,0.44381127
C0S900,蘭嶼高中,2025-11-09,22.04909,121.51214,0.5084443
C1F9W0,德基,2025-11-09,24.254783,121.190261,0.0044898232
C1Z120,壽豐,2025-11-09,23.870853,121.508081,0.96626693
C0W160,烏坵,2025-11-09,24.9944,119.44956,0.0014545787
C1I240,外大坪,2025-11-09,23.958697,120.917931,0.59567297
C1I550,國六W023K,2025-11-09,23.979067,120.867742,0.25851497
C0R870,興海,2025-11-09,21.9752,120.8439,0.20067352
C0R140,瑪家,2025-11-09,22.682903,120.686639,0.87733847
C0A530,坪林,2025-11-09,24.938183,121.70975,0.99278045
C0X260,後壁,2025-11-09,23.366358,120.362326,0.873914
C0Z230,和平,2025-11-09,24.30717,121.77007,0.9795015
C0G770,福興,2025-11-09,24.041289,120.437669,0.32579073
C0H9A0,神木村,2025-11-09,23.532742,120.843667,0.09066879
C0I460,南投,2025-11-09,23.911469,120.687331,0.3969488
C0I480,梅峰,2025-11-09,24.085272,121.173572,0.0027505227
C1V570,吉東,2025-11-09,22.85422,120.5454,0.3906112
C2D740,屯原,2025-11-09,24.067969,121.209389,0.003654589
C2A560,福山,2025-11-09,24.776203,121.502811,0.9985767
C0AH30,五分山,2025-11-09,25.07125,121.780794,0.99265045
C0FA10,松柏,2025-11-09,24.429115,120.617482,0.8851593
72S200,東改班鳩分場,2025-11-09,22.829528,121.077694,0.92367536
72HA00,中改埔里分場,2025-11-09,23.903208,120.963364,0.66433626
C2H9W0,大坪頂農水,2025-11-09,24.043122,120.932781,0.83820206
C0C650,平鎮,2025-11-09,24.897503,121.214636,0.9971936
C0S930,延平,2025-11-09,22.902581,121.084058,0.94777256
C0UA60,樟樹山,2025-11-09,24.41393,121.78325,0.99713814
C1S670,摩天,2025-11-09,23.199503,121.027,0.013716113
C0V630,茄萣,2025-11-09,22.906642,120.182608,0.72680056
466940,基隆,2025-11-09,25.133314,121.740475,0.99634266
C0X050,東河,2025-11-09,23.296598,120.385608,0.62996864
C0R770,保力,2025-11-09,22.071122,120.764111,0.58582807
G2L020,農試嘉義分所,2025-11-09,23.485028,120.473806,0.52624786
C0X240,關子嶺,2025-11-09,23.331169,120.508025,0.3941402
C0I380,集集,2025-11-09,23.828206,120.801467,0.23523903
466990,花蓮,2025-11-09,23.975128,121.613275,0.9454007
C1V220,小關山,2025-11-09,23.154217,120.813603,0.011719744
C1F9G1,慶福山,2025-11-09,24.180853,120.848378,0.46104237
C0FB20,雪山橋,2025-11-09,24.23192,120.9786,0.0032780732
C0Z250,瑞穗林道,2025-11-09,23.49284,121.30688,0.68533844
C0D590,新豐,2025-11-09,24.87068,120.97721,0.9442858
C0A870,五指山,2025-11-09,25.132153,121.608692,0.97167015
C0UA50,西帽山,2025-11-09,24.555361,121.802628,0.9995949
C0X160,仁德,2025-11-09,22.968258,120.257689,0.821594
C1H971,六分寮,2025-11-09,23.92507,120.6378,0.31589222
C0W120,西嶼,2025-11-09,23.5626,119.468436,0.004223213
C0G650,員林,2025-11-09,23.946503,120.585597,0.694114
C0AD50,鶯歌,2025-11-09,24.951533,121.346294,0.9971081
C2H9Q0,北東眼山,2025-11-09,24.120939,121.189303,0.0028023645
C2H9T0,名間竹圍,2025-11-09,23.859914,120.637572,0.25331134
C0S990,山豬窟,2025-11-09,22.318619,120.857372,0.6285935
C0X190,安平,2025-11-09,22.993161,120.152181,0.28603593
C0K400,斗六,2025-11-09,23.720583,120.541127,0.7707164
12J990,口湖工作站,2025-11-09,23.589978,120.180394,0.5466578
C0O830,北寮,2025-11-09,23.079561,120.495008,0.49665418
C1D410,白蘭,2025-11-09,24.579364,121.079947,0.9869233
C0S970,加津林,2025-11-09,22.416211,120.926942,0.14257035
C0D700,關西,2025-11-09,24.7977,121.1732,0.97876334
C0M810,里佳,2025-11-09,23.389125,120.716647,0.11558668
C0U750,龜山島,2025-11-09,24.841667,121.953133,0.92249906
C0R810,內獅,2025-11-09,22.305064,120.642986,0.1331887
C1M390,龍美,2025-11-09,23.406728,120.654417,0.31358856
C2FB60,頭櫃山,2025-11-09,24.129842,120.858925,0.6848846
C1H840,國三N238K,2025-11-09,23.841008,120.707711,0.2996815
CAQ030,崎峰國小,2025-11-09,22.42565,120.49521,0.3299258
C2E520,大湖,2025-11-09,24.414939,120.870872,0.9825401
467530,阿里山,2025-11-09,23.508208,120.813242,0.001381245
C1E691,南湖,2025-11-09,24.40135,120.837533,0.79346526
C0FA30,梧棲,2025-11-09,24.256003,120.523381,0.69785446
C1V231,高中,2025-11-09,23.134911,120.716711,0.3767578
C0AK30,硬漢嶺,2025-11-09,25.136097,121.426372,0.9829409
C0F9V0,新社,2025-11-09,24.200172,120.815806,0.3644745
C0H890,埔里,2025-11-09,23.972169,120.952425,0.14780837
C0R690,墾丁,2025-11-09,21.966756,120.810269,0.77128124
C0F0D0,審馬陣,2025-11-09,24.381675,121.4203,0.0009488645
C2W030,金門農試所,2025-11-09,24.448431,118.451786,0.012124071
C0R820,白鷺,2025-11-09,22.454275,120.666219,0.2727609
C0FB00,大雪山,2025-11-09,24.254668,121.007374,0.0021532604
C1V190,南天池,2025-11-09,23.27403,120.91176,0.0011297367
C0E940,雪見,2025-11-09,24.42595,121.01347,0.025568994
K2E360,苗栗農改場,2025-11-09,24.495722,120.829111,0.97269225
CAJ050,海口故事園區,2025-11-09,23.57543,120.14121,0.5471872
C2H9D0,三隻寮,2025-11-09,24.093078,120.861578,0.8437263
C0O990,媽廟,2025-11-09,22.99175,120.293525,0.6299119
C0D480,打鐵坑,2025-11-09,24.849664,121.150789,0.99756056
C0Z220,和平林道,2025-11-09,24.343922,121.656317,0.9700261
C0TA10,花蓮漁港,2025-11-09,23.995322,121.638331,0.9410366
72C440,桃園農改場,2025-11-09,24.950944,121.030583,0.9659986
C1E711,馬拉邦山,2025-11-09,24.367306,120.901656,0.7413416
C0SB20,富岡,2025-11-09,22.792467,121.192669,0.89555013
C0D560,竹東,2025-11-09,24.767147,121.057881,0.97322357
C0F9U0,南屯,2025-11-09,24.137006,120.637969,0.5534234
C0M720,番路,2025-11-09,23.464657,120.554156,0.674458
C0F0A0,雪山圈谷,2025-11-09,24.388594,121.236339,0.0008283321
C1A9N0,四十份,2025-11-09,24.934158,121.593283,0.998749
C0U760,東澳,2025-11-09,24.52196,121.83318,0.9963374
C0X230,鹽水,2025-11-09,23.272621,120.247641,0.51609683
C2H9H0,苗改南投蜂場,2025-11-09,23.852589,120.693481,0.31413022
C0R950,萬隆國小,2025-11-09,22.507667,120.587817,0.3973918
467540,大武,2025-11-09,22.35572,120.90374,0.1251295
C0V370,古亭坑,2025-11-09,22.893178,120.401947,0.806746
C1I340,新興橋,2025-11-09,23.563333,120.868728,0.8650412
C0SA80,土坂,2025-11-09,22.453108,120.887572,0.29413214
C0R160,鹽埔,2025-11-09,22.739558,120.530778,0.34548312
C0AC40,大屯山,2025-11-09,25.175675,121.522408,0.869893
466850,五分山雷達站,2025-11-09,25.071182,121.781205,0.9924813
C2H9L0,馬烈霸,2025-11-09,24.1512,121.201772,0.0031244669
C1AI50,國三N016K,2025-11-09,25.034164,121.619664,0.9992489
C1V600,藤枝,2025-11-09,23.071961,120.757042,0.062239587
C1E601,南勢,2025-11-09,24.572486,120.734842,0.9082405
C0O980,新市,2025-11-09,23.061614,120.298197,0.44787508
C0K420,西螺,2025-11-09,23.800407,120.467394,0.30698836
C0Z050,佳心,2025-11-09,23.34567,121.21316,0.4002884
C0AD30,蘆洲,2025-11-09,25.086594,121.472331,0.9992521
C0V610,梓官,2025-11-09,22.760558,120.267211,0.6884507
K2F750,種苗改良場,2025-11-09,24.225972,120.800917,0.3180006
C0UA80,大溪漁港,2025-11-09,24.941801,121.902955,0.9946883
C1AI60,國一39K邊坡,2025-11-09,25.064361,121.383836,0.9935476
C0W150,金寧,2025-11-09,24.457703,118.328989,0.011514813
C0R960,內埔,2025-11-09,22.608483,120.570714,0.39433354
V2C250,八德合作社,2025-11-09,24.93775,121.266389,0.99737823
C2H9S0,龍南,2025-11-09,23.953536,120.833183,0.5844432
C0AH40,平等,2025-11-09,25.129142,121.577086,0.9918207
C0R540,佳冬,2025-11-09,22.419456,120.552375,0.36667383
466950,彭佳嶼,2025-11-09,25.627975,122.079744,0.9864657
C0A890,雙溪,2025-11-09,25.036003,121.864242,0.9955811
C0C480,桃園,2025-11-09,24.992425,121.323172,0.9976572
C0AH50,林口,2025-11-09,25.072181,121.38084,0.9893246
A2K360,水試臺西試驗場,2025-11-09,23.717231,120.190522,0.5674342
C2M960,外寮,2025-11-09,23.562643,120.665688,0.7554469
C0F9S0,烏日,2025-11-09,24.107058,120.624103,0.5618793
C0C490,八德,2025-11-09,24.928708,121.283289,0.99737364
C0R190,赤山,2025-11-09,22.592333,120.614306,0.3976877
C0T820,天祥,2025-11-09,24.179597,121.495639,0.6041028
C1F9E1,龍安,2025-11-09,24.1605,120.831961,0.3761609
C0V820,小林,2025-11-09,23.148408,120.63325,0.5405713
C2G870,芳苑,2025-11-09,23.922303,120.320025,0.7195194
C0E850,大河,2025-11-09,24.618069,120.948578,0.98925596
C1U670,寒溪,2025-11-09,24.634,121.71691,0.9805689
C0N020,城西,2025-11-09,23.0568,120.0956,0.27841896
C1Z110,三棧,2025-11-09,24.11557,121.60501,0.8092178
C0R280,檳榔,2025-11-09,22.076078,120.836777,0.9170224
C2H9J0,中台,2025-11-09,23.9996,120.938739,0.47398317
C0F9L0,后里,2025-11-09,24.310436,120.729725,0.96201485
467441,高雄,2025-11-09,22.730432,120.312516,0.6871128
C0Z180,新城,2025-11-09,24.040486,121.604878,0.9469999
C0D540,橫山,2025-11-09,24.71116,121.11693,0.9956412
C1D420,太閣南,2025-11-09,24.632808,121.160575,0.9971742
C1E770,公館,2025-11-09,24.526914,120.830806,0.9715543
CAN130,水試所海水繁養殖中心,2025-11-09,23.120802,120.07968,0.14898384
C1I430,翠華,2025-11-09,24.191961,121.224339,0.001845932
C1M400,菜瓜坪,2025-11-09,23.251928,120.576103,0.2740658
C0G730,二林,2025-11-09,23.903325,120.376081,0.279922
72M360,南改義竹分場,2025-11-09,23.360694,120.279361,0.8779198
V2K620,麥寮合作社,2025-11-09,23.753836,120.294783,0.37357768
C0Z070,舞鶴,2025-11-09,23.46811,121.37407,0.8508023
C0B040,大武崙,2025-11-09,25.166676,121.706993,0.9962304
C1Z030,紅葉,2025-11-09,23.493119,121.338806,0.8436413
C1I050,丹大,2025-11-09,23.753747,121.141147,0.00076602196
C0I080,信義,2025-11-09,23.689694,120.851036,0.6635774
C0D750,樂山林道6k,2025-11-09,24.49999,121.08773,0.0056140623
C2M920,朴子農改,2025-11-09,23.469889,120.259383,0.846396
C2A880,福隆,2025-11-09,25.017842,121.942083,0.9931058
C0Z160,鳳林,2025-11-09,23.746114,121.453411,0.93861693
C0UB80,翠峰林道6K,2025-11-09,24.49773,121.568625,0.9127858
C0V210,復興,2025-11-09,23.222403,120.806089,0.4732912
C0H990,昆陽,2025-11-09,24.121322,121.273642,0.0012468423
C0R741,獅子,2025-11-09,22.202308,120.705236,0.20975412
C0S710,鹿野,2025-11-09,22.917711,121.122994,0.9236093
C0I530,小奇萊,2025-11-09,24.131764,121.295717,0.0011780497
C0FA70,大雪山埡口,2025-11-09,24.26867,121.03062,0.0007792425
C2K630,荷苞,2025-11-09,23.657717,120.595144,0.41614562
C0Z080,富源,2025-11-09,23.587642,121.378225,0.8025909
C0SB10,美和,2025-11-09,22.682078,121.060236,0.93724877
C2K620,馬光農場,2025-11-09,23.721453,120.378864,0.30511564
C1I140,卡奈托灣,2025-11-09,23.754364,121.087872,0.005091394
C0I520,玉山風口,2025-11-09,23.470489,120.955994,0.00027791806
C1G691,下水埔,2025-11-09,23.816114,120.5676,0.66048825
C0X110,臺南市南區,2025-11-09,22.961189,120.188378,0.8227482
C0V680,仁武,2025-11-09,22.701083,120.347722,0.8495234
C2G840,北斗,2025-11-09,23.877586,120.514222,0.34525976
C0R900,竹坑,2025-11-09,22.1385,120.7022,0.08915622
C0K250,崙背,2025-11-09,23.75555,120.318925,0.36828238
C0G860,社頭,2025-11-09,23.897647,120.5862,0.6687616
C0X150,安定,2025-11-09,23.102614,120.227839,0.21514702
C0R590,里港,2025-11-09,22.77919,120.49459,0.3910799
C0E610,馬都安,2025-11-09,24.451272,120.930192,0.7803559
C0E550,明德,2025-11-09,24.583486,120.885411,0.9635668
C0R150,三地門,2025-11-09,22.709889,120.639944,0.8182567
C0G910,花壇,2025-11-09,24.032076,120.549461,0.42642188
C1D400,鳥嘴山,2025-11-09,24.71909,121.28387,0.99939555
C0K500,元長,2025-11-09,23.64981,120.315024,0.40345696
C0F0B0,石岡,2025-11-09,24.276061,120.777644,0.9660387
C2V250,甲仙,2025-11-09,23.080106,120.591758,0.46760964
C0SA20,金崙山,2025-11-09,22.567419,120.959667,0.22128044
C0V350,溪埔,2025-11-09,22.738578,120.446797,0.58466697
C0M660,溪口,2025-11-09,23.604131,120.403569,0.6632251
C1S880,壽卡,2025-11-09,22.238911,120.858903,0.86424506
72D680,桃改新埔分場,2025-11-09,24.834444,121.066111,0.9719582
