站號,站名,日期,lat,lon,BlastGRU-TW
CAH030,茶改場竹圍站,2025-12-26,23.860083,120.637528,0.028958919
V2K610,大庄合作社,2025-12-26,23.8068,120.367939,0.073742285
G2AI50,關渡,2025-12-26,25.11575,121.492,0.0053492733
V2C260,八德蔬果,2025-12-26,24.978508,121.281819,0.0035351792
A2K570,古坑花卉中心,2025-12-26,23.63353,120.55239,0.0049857935
467571,新竹,2025-12-26,24.827853,121.014219,0.0040568593
V2C250,八德合作社,2025-12-26,24.93775,121.266389,0.0017553194
