站號,站名,日期,lat,lon,BLBTSLS
C0R710,龍磐,2025-10-04,21.931672,120.838942,0.8900092
C1F9D1,白毛台,2025-10-04,24.158325,120.886933,3.8730485e-07
C0G940,竹塘,2025-10-04,23.848253,120.386764,0.11549551
467590,恆春,2025-10-04,22.003897,120.746339,0.4581892
C1O850,環湖,2025-10-04,23.148617,120.418633,0.0032226867
C0U710,太平山,2025-10-04,24.505486,121.525656,2.2605071e-09
C0E820,獅潭,2025-10-04,24.539133,120.920042,0.018611142
C0V880,興達,2025-10-04,22.8778,120.2127,0.17358594
C0S890,關山,2025-10-04,23.0395,121.175017,0.009988251
C0SB30,新蘭,2025-10-04,22.869214,121.223228,0.06207051
C2R970,屏科大,2025-10-04,22.648275,120.619247,3.2940177e-05
C1Z130,銅門,2025-10-04,23.965694,121.492842,0.021577666
C0AD40,土城,2025-10-04,24.973208,121.445169,0.5769408
CAN140,六官養殖協會,2025-10-04,23.22881,120.29962,0.13315909
C0X180,山上,2025-10-04,23.0757,120.363253,0.015905438
C0F9Z0,雪山東峰,2025-10-04,24.388792,121.268675,5.764683e-09
C1M480,獨立山,2025-10-04,23.537022,120.607797,9.054342e-09
C0X220,學甲,2025-10-04,23.230367,120.182187,0.7099106
467650,日月潭,2025-10-04,23.881325,120.90805,4.4000936e-09
C0K600,箔子寮,2025-10-04,23.6197,120.14,0.2710906
C0G830,埤頭,2025-10-04,23.866003,120.452806,0.11426118
C0S950,七塊厝,2025-10-04,22.954453,121.229922,0.00036493747
467110,金門,2025-10-04,24.407306,118.289281,0.57254475
C0AH80,深坑,2025-10-04,25.002703,121.628328,0.37455878
C0A970,三貂角,2025-10-04,25.007606,122.002058,0.9998226
C2D730,寶山農場,2025-10-04,24.732444,120.976153,0.012569978
C0K430,褒忠,2025-10-04,23.690938,120.303634,0.60201484
467480,嘉義,2025-10-04,23.495925,120.432906,0.15767719
C0V400,阿公店,2025-10-04,22.804194,120.355528,0.1088984
C0E960,觀霧分站,2025-10-04,24.505781,121.113921,2.2119575e-09
467550,玉山,2025-10-04,23.48718,120.95943,1.5054354e-08
C0R440,大漢山,2025-10-04,22.405264,120.753181,2.16884e-06
C0K280,四湖,2025-10-04,23.630414,120.227125,0.57598877
C1F9B1,桐林,2025-10-04,24.066172,120.735194,0.93991506
C2H9U0,鳳鵬,2025-10-04,23.763919,120.788061,0.00092200795
C0K390,土庫,2025-10-04,23.679029,120.395574,0.37789357
C1I450,望鄉山,2025-10-04,23.594153,120.944286,5.4137557e-09
C0E910,海埔,2025-10-04,24.648767,120.772435,0.9845699
B2E890,畜試北區分所,2025-10-04,24.527806,120.770972,0.86887425
C0R750,四林格山,2025-10-04,22.076989,120.802439,0.9998537
C0F0C0,中坑,2025-10-04,24.248517,120.903319,2.3538137e-08
C1I121,大鞍,2025-10-04,23.678381,120.760017,3.916937e-09
72U480,花改蘭陽分場,2025-10-04,24.686306,121.716583,0.13342753
C0A770,科教館,2025-10-04,25.096356,121.516507,0.22159284
C0AJ60,六塊厝,2025-10-04,25.24,121.4481,0.034477454
C0R620,墾雷,2025-10-04,21.900836,120.855269,0.94733953
467420,永康,2025-10-04,23.038386,120.2367,0.9766434
C0I410,名間,2025-10-04,23.837053,120.701447,0.0051727714
A2C560,農工中心,2025-10-04,24.985917,121.239833,0.04317958
C0V740,旗山,2025-10-04,22.888614,120.483597,0.06529252
C0Z061,玉里,2025-10-04,23.3215,121.339656,0.8604721
C0S840,南田,2025-10-04,22.279725,120.889208,0.46385986
C1I470,杉林溪,2025-10-04,23.639517,120.786444,3.3642933e-09
C1X040,東原,2025-10-04,23.291597,120.463822,0.011575819
C0R660,枋寮,2025-10-04,22.367722,120.590647,0.10022821
C1R120,上德文,2025-10-04,22.763272,120.704442,3.0533581e-06
C0K450,大埤,2025-10-04,23.646074,120.431537,0.5039859
C0UA00,土場,2025-10-04,24.576533,121.495333,0.012775498
467080,宜蘭,2025-10-04,24.763975,121.756528,0.11724123
C0N030,四草,2025-10-04,23.0235,120.1116,0.94935554
467410,臺南,2025-10-04,22.99328,120.20492,0.95143616
C0V650,彌陀,2025-10-04,22.783806,120.246361,0.023913503
C0D660,新竹市東區,2025-10-04,24.798681,120.986942,0.17917852
82S580,茶改東部分場,2025-10-04,22.907694,121.130139,0.0485219
C0SB40,興隆,2025-10-04,22.913661,121.257469,0.06352015
467050,新屋,2025-10-04,25.006725,121.047492,0.011853188
C0C710,大溪永福,2025-10-04,24.892936,121.324975,0.0054072617
C0FA20,溫寮,2025-10-04,24.372177,120.583125,0.8692859
C0V640,湖內,2025-10-04,22.887139,120.2445,0.16589817
C0R910,下寮,2025-10-04,22.3929,120.5548,0.10022821
C0Z020,明里,2025-10-04,23.208717,121.262342,0.9299085
C0M770,嘉義梅山,2025-10-04,23.585398,120.555587,0.0065189074
C0C660,楊梅,2025-10-04,24.912375,121.143047,0.37736905
C1E511,新開,2025-10-04,24.347703,120.827019,0.8904845
G2F820,農試所(霧峰),2025-10-04,24.031261,120.688133,0.9868285
C1I070,和社,2025-10-04,23.591131,120.888861,0.013992352
C0TA80,立霧山,2025-10-04,24.183258,121.641899,2.1269518e-08
C2F000,大肚,2025-10-04,24.15295,120.572117,0.9943861
C1S850,豐南,2025-10-04,23.122139,121.262389,0.00045101586
C2A920,富貴角,2025-10-04,25.263783,121.565258,0.049500935
CAH030,茶改場竹圍站,2025-10-04,23.860083,120.637528,0.0068603563
C0T960,光復,2025-10-04,23.660694,121.424964,0.20097007
C0F9M0,豐原,2025-10-04,24.254322,120.720692,0.996795
C0R720,旭海,2025-10-04,22.205403,120.887614,0.9807783
C0V710,苓雅,2025-10-04,22.622742,120.330669,0.50784373
C0C740,觀音工業區,2025-10-04,25.064764,121.114856,0.14919704
CAC040,拉拉山,2025-10-04,24.699317,121.427133,4.3617003e-08
C0V790,萬山,2025-10-04,22.905944,120.688056,3.2726064e-08
U2HA30,臺大和社,2025-10-04,23.590856,120.888864,0.013992352
C2H9K0,屯原,2025-10-04,24.067969,121.209389,1.13593535e-08
C0AJ90,澳底,2025-10-04,25.0552,121.9253,0.9997874
C0Z100,東華,2025-10-04,23.89525,121.549833,0.02965375
C0G970,三豐,2025-10-04,23.882,120.2895,0.0039895903
V2K610,大庄合作社,2025-10-04,23.8068,120.367939,0.6908643
C0V900,汕尾,2025-10-04,22.4782,120.4151,0.061618723
C1R630,龍泉,2025-10-04,22.66701,120.59091,0.0009664827
C1AC50,關渡,2025-10-04,25.133486,121.469331,0.008413944
C0C800,四稜,2025-10-04,24.64733,121.4293,3.8502634e-07
C0F9I0,神岡,2025-10-04,24.272481,120.658314,0.9814134
C0K460,斗南,2025-10-04,23.678734,120.478359,0.45844185
C2O810,曾文,2025-10-04,23.219681,120.497328,0.004149381
467280,後龍,2025-10-04,24.648563,120.831834,0.98677725
C1F9J1,清水林,2025-10-04,24.071242,120.820419,3.818714e-09
C2A650,火燒寮,2025-10-04,25.002719,121.742892,0.9998348
466930,竹子湖,2025-10-04,25.162078,121.544547,0.0081506
C1I220,樟湖,2025-10-04,23.905333,120.846983,1.4870957e-09
C0I390,仁愛,2025-10-04,24.022122,121.132206,2.3660796e-08
C0Z300,東里,2025-10-04,23.26853,121.30547,0.8873044
C1V590,新發,2025-10-04,23.057019,120.646064,3.38754e-08
C0K510,水林,2025-10-04,23.572924,120.24597,0.30386853
72S590,東改賓朗果園,2025-10-04,22.813889,121.071278,0.0019488317
82A750,茶改北部分場,2025-10-04,24.955778,121.631222,0.9996482
C1A750,石碇服務區,2025-10-04,25.00872,121.646242,0.045499522
C0X300,鹿寮,2025-10-04,23.386047,120.477331,0.050514136
G2AI50,關渡,2025-10-04,25.11575,121.492,0.20207688
C0K590,雲林東勢,2025-10-04,23.674192,120.255721,0.8576189
C0A570,桶後,2025-10-04,24.848222,121.597992,0.9998033
C1S800,華源,2025-10-04,22.657883,121.02325,0.033823792
C0G720,溪州,2025-10-04,23.851589,120.499093,0.115114816
C1V160,達卡努瓦,2025-10-04,23.279811,120.705319,4.81312e-09
C2M410,馬頭山,2025-10-04,23.324361,120.582017,0.00079957716
C0V850,蚵仔寮,2025-10-04,22.7256,120.2527,0.008990215
C0S740,池上,2025-10-04,23.119628,121.209469,0.014868397
C1V390,尖山,2025-10-04,22.813153,120.367789,0.1660447
C0AH70,松山,2025-10-04,25.04871,121.55042,0.21062164
C0N010,鯤鯓國小,2025-10-04,23.1879,120.0889,0.799143
C0R550,新埤,2025-10-04,22.467947,120.582894,0.057287112
C0SA60,知本（水試所）,2025-10-04,22.702394,121.082761,0.029171012
C0T9I0,豐濱,2025-10-04,23.583897,121.514806,0.16542493
C0UB00,淡江大學蘭陽校園,2025-10-04,24.823239,121.730383,0.9998361
C0W240,九宮,2025-10-04,24.423753,118.240186,0.5975007
C0T9N0,富里,2025-10-04,23.171639,121.249378,0.047508903
U2HA50,臺大竹山,2025-10-04,23.756972,120.681556,0.005685087
C0V840,鳳鼻頭,2025-10-04,22.5083,120.3591,0.9843279
C0X140,西港,2025-10-04,23.125608,120.203108,0.98186374
72D080,桃改五峰分場,2025-10-04,24.612194,121.157167,8.977577e-09
C2H9P0,伊拿谷,2025-10-04,23.963211,121.088264,5.7753473e-09
C2H9F0,柑林,2025-10-04,24.018658,120.847072,0.00778952
C0TA20,加灣,2025-10-04,24.082025,121.608944,0.006908914
C0V530,阿蓮,2025-10-04,22.883208,120.327508,0.18618073
C0FB30,八仙山苗圃,2025-10-04,24.192719,121.001366,3.7229196e-08
C1O880,關山,2025-10-04,23.173397,120.594092,0.00027747752
C0E791,卓蘭,2025-10-04,24.3126,120.8244,0.99882436
C1I030,武界,2025-10-04,23.913225,121.052483,4.3506643e-09
C0R520,崁頂,2025-10-04,22.514781,120.506914,0.9815856
C0R341,牡丹,2025-10-04,22.130036,120.792639,0.9948749
C0R930,萬丹,2025-10-04,22.5885,120.4851,0.033491977
C0S760,紅石,2025-10-04,23.069131,121.126219,3.9493393e-08
C2C410,中央大學,2025-10-04,24.967652,121.185165,0.04344284
C1M610,石磐龍,2025-10-04,23.496606,120.663506,2.6813291e-08
C0C790,東眼山,2025-10-04,24.8284,121.40888,8.666645e-06
C0UA10,鴛鴦湖,2025-10-04,24.590269,121.412228,5.3963434e-09
V2C260,八德蔬果,2025-10-04,24.978508,121.281819,0.008032207
C0R800,丹路,2025-10-04,22.204481,120.750989,0.9537018
C0G920,永靖,2025-10-04,23.924703,120.547533,0.50036883
C2M950,太和,2025-10-04,23.538372,120.702961,6.900659e-09
C1A630,下盆,2025-10-04,24.771003,121.538622,0.95393854
B2N890,畜產試驗所,2025-10-04,23.058972,120.336406,0.98549175
C0UA30,白嶺,2025-10-04,24.527819,121.519031,3.929531e-09
C1V580,溪南(特生中心),2025-10-04,23.084972,120.788475,5.3041656e-09
C1T970,大農,2025-10-04,23.615233,121.413331,0.08363723
C0R650,竹田,2025-10-04,22.58486,120.54344,0.0021502962
C1H900,清流,2025-10-04,24.080775,120.962997,3.5561412e-09
C1C510,水尾,2025-10-04,24.940081,121.087161,0.013541324
C0F9X0,大雅(中科園區),2025-10-04,24.21528,120.62445,0.97572494
C0SB60,白守蓮,2025-10-04,23.126769,121.401914,0.0033085144
C0O970,虎頭埤,2025-10-04,23.021375,120.347878,0.02389234
C0C730,中大臨海站,2025-10-04,24.966126,121.008581,0.013367979
C0X250,新營,2025-10-04,23.310689,120.316681,0.046646852
C0V700,三民,2025-10-04,22.645017,120.311233,0.012238779
C0U870,大礁溪,2025-10-04,24.791042,121.675047,0.99904394
C0E870,高鐵苗栗,2025-10-04,24.60725,120.826094,0.98603505
A2K570,古坑花卉中心,2025-10-04,23.63353,120.55239,0.053463303
C0TA30,鹽寮,2025-10-04,23.845606,121.592664,0.0275952
C0M860,新美,2025-10-04,23.338017,120.683169,4.670479e-06
C1E701,八卦,2025-10-04,24.491756,120.927619,5.4399028e-05
C0I420,國姓,2025-10-04,24.037803,120.855072,0.0021037874
C2D720,關西工作站,2025-10-04,24.757275,121.184792,0.5820257
C0S960,香蘭,2025-10-04,22.587569,120.993375,0.033663575
467620,蘭嶼,2025-10-04,22.0369,121.55843,0.94532275
C0R260,春日,2025-10-04,22.370361,120.628306,0.122827366
72G600,臺中農改場,2025-10-04,24.003028,120.534389,0.90628207
C0Z210,瑞穗,2025-10-04,23.5239,121.39021,0.3799076
C0M820,達邦,2025-10-04,23.453994,120.749517,2.049668e-08
C0V860,南寮,2025-10-04,22.7616,120.2339,0.008990215
C0G740,大城,2025-10-04,23.852487,120.320935,0.0039145243
C0R920,塭仔,2025-10-04,22.4169,120.5197,0.09748635
C0R470,高樹,2025-10-04,22.826389,120.600806,0.00034800344
C0R680,佳樂水,2025-10-04,21.993578,120.861633,0.1706831
C1O870,大棟山,2025-10-04,23.31157,120.52226,3.91817e-09
C0D360,梅花,2025-10-04,24.678347,121.208558,1.2954574e-06
C0Z190,富世,2025-10-04,24.14743,121.6297,0.0004092512
C0AI10,屈尺,2025-10-04,24.92184,121.54475,0.0008988819
B2U990,畜試東區分所,2025-10-04,24.669039,121.832561,0.0058264933
C0SB80,長濱漁港,2025-10-04,23.313644,121.459994,0.5308663
C0TA50,和仁,2025-10-04,24.241394,121.712472,6.788729e-08
C0V910,大樹,2025-10-04,22.684645,120.432803,0.015741793
C1R610,西大武山,2025-10-04,22.617719,120.7322,3.883897e-07
C0G900,線西,2025-10-04,24.143358,120.443536,0.54437745
C0M700,竹崎,2025-10-04,23.526178,120.555508,0.0013751221
C2E880,三義,2025-10-04,24.405478,120.749819,7.570862e-08
C0C720,竹圍,2025-10-04,25.112692,121.239824,0.20207688
C0F9P0,清水,2025-10-04,24.312297,120.562242,0.51833904
C0Z150,吉安光華,2025-10-04,23.930925,121.595153,0.014560614
C0FA80,小雪山天池,2025-10-04,24.28025,121.02627,4.781534e-09
467300,東吉島,2025-10-04,23.25727,119.66762,0.003793533
C1D640,外坪(五指山),2025-10-04,24.644447,121.090961,4.6409e-06
C0F9O0,潭子,2025-10-04,24.213106,120.703933,0.99325
C2H9R0,卓社,2025-10-04,23.887894,121.000086,3.6234589e-09
72T250,花蓮農改場,2025-10-04,23.975222,121.563889,0.015012048
C0E780,銅鑼,2025-10-04,24.489681,120.790853,0.8394002
C1T950,太安,2025-10-04,23.666719,121.370128,5.006746e-08
C0E830,苑裡,2025-10-04,24.439714,120.653053,0.91343963
467270,田中,2025-10-04,23.873803,120.581286,0.59468144
C0SA10,檳榔四格山,2025-10-04,22.810031,121.109308,0.00023265179
C1T830,布洛灣,2025-10-04,24.17184,121.57127,0.052973196
C0F970,大坑,2025-10-04,24.173142,120.722289,0.94432074
C1U920,思源,2025-10-04,24.393125,121.347214,4.7714486e-09
C0A931,三和,2025-10-04,25.233153,121.595236,0.75860286
C0I010,廬山,2025-10-04,24.033311,121.181808,2.3618132e-09
C2M940,日野賀,2025-10-04,23.434056,120.727169,7.399134e-09
C0R860,鼻頭,2025-10-04,22.1043,120.8979,0.9661792
C0UB20,壯圍,2025-10-04,24.7359,121.8163,0.12617345
C0R790,九棚,2025-10-04,22.14195,120.889281,0.99041426
C0W110,東莒,2025-10-04,25.9652,119.98069,0.62733227
C1U930,粉鳥林,2025-10-04,24.497088,121.842479,0.27440077
C1I211,蘆竹湳,2025-10-04,23.934019,120.811994,4.5357275e-08
C0S830,長濱,2025-10-04,23.286817,121.411975,0.6189479
C1F9F1,伯公龍,2025-10-04,24.272392,120.849047,0.0110422205
C0UB90,太平山莊,2025-10-04,24.494171,121.536209,2.2785276e-09
C0E810,西湖,2025-10-04,24.562947,120.7485,0.9591543
C1I440,新高口,2025-10-04,23.478744,120.878939,4.95735e-09
C0O840,王爺宮,2025-10-04,23.222064,120.40085,0.0048048208
C0T9G0,鳳林山,2025-10-04,23.735269,121.420131,4.4863387e-05
C0X080,佳里,2025-10-04,23.173039,120.145086,0.799143
C0FB70,大甲溪埔,2025-10-04,24.370625,120.620067,0.9066435
C0Z310,清水斷崖,2025-10-04,24.218294,121.689142,3.1712716e-08
C0M680,太保,2025-10-04,23.455062,120.331455,0.82753474
C1S820,金峰,2025-10-04,22.590969,120.933236,0.028599363
C0AD10,八里,2025-10-04,25.150211,121.403947,0.20207688
C2K240,草嶺,2025-10-04,23.59555,120.693461,2.7060107e-08
C1SA70,都蘭,2025-10-04,22.87794,121.226881,0.06352015
C0K440,二崙,2025-10-04,23.772797,120.408944,0.33984113
C1A760,坪林交控,2025-10-04,24.94284,121.713442,0.9998084
C0F9N0,大里,2025-10-04,24.092464,120.701378,0.84369195
C0SA90,達仁林場,2025-10-04,22.264347,120.823972,0.99982744
C1R290,石門山,2025-10-04,22.112611,120.756597,0.9987508
42HA10,萬大發電廠,2025-10-04,23.978875,121.139639,2.7764329e-09
C0R890,山海,2025-10-04,21.9878,120.7091,0.24995393
C0T9A0,月眉山,2025-10-04,23.809928,121.539828,0.026365725
C0AC70,信義,2025-10-04,25.037822,121.564597,0.21062164
C0K560,棋山,2025-10-04,23.68645,120.603417,0.050305463
C2FB50,出雲,2025-10-04,24.206469,120.902794,8.767839e-09
C1Z240,中平林道,2025-10-04,23.42115,121.26763,4.1945263e-08
U2H480,溪頭,2025-10-04,23.670306,120.798194,1.1160954e-08
C0M880,好美里,2025-10-04,23.3364,120.138,0.09010335
C0T9E0,大坑,2025-10-04,23.880628,121.581981,0.050477747
C0K530,臺西,2025-10-04,23.701547,120.197559,0.35570896
C1E900,國一N128K,2025-10-04,24.560997,120.844186,0.9639555
C0AJ50,水湳洞,2025-10-04,25.123695,121.862238,0.47782218
C0AI20,白沙灣,2025-10-04,25.283128,121.519058,0.033103656
C2V310,美濃,2025-10-04,22.898792,120.51907,0.06884938
C0A860,大坪,2025-10-04,25.165914,121.632969,0.5819707
C1U850,觀音海岸,2025-10-04,24.38319,121.77856,2.714209e-08
C2K610,草嶺石壁,2025-10-04,23.602469,120.707731,2.3333234e-08
C0U950,鶯子嶺,2025-10-04,24.89754,121.79244,0.024009142
C0O900,善化,2025-10-04,23.112883,120.297219,0.9827264
C0K550,蔦松,2025-10-04,23.514319,120.229736,0.08625939
E2P980,林試六龜中心,2025-10-04,22.991703,120.645722,0.056600273
C0E590,通霄,2025-10-04,24.471892,120.704622,0.0009929725
C1I310,西巒,2025-10-04,23.754486,120.883956,1.3112646e-08
C0A550,泰平,2025-10-04,24.971197,121.823711,0.9997178
C0I360,水里,2025-10-04,23.812553,120.849792,0.0043180487
C0R830,高士,2025-10-04,22.121825,120.836781,0.99950254
C1I101,溪頭,2025-10-04,23.661789,120.807647,2.296407e-09
C0AJ20,野柳,2025-10-04,25.20703,121.690021,0.18059605
C0B060,暖暖,2025-10-04,25.0957,121.7403,0.025723364
C1H920,長豐,2025-10-04,24.102039,120.879897,1.42951855e-08
C0V360,內門,2025-10-04,22.975481,120.466769,0.2301405
C0R850,林邊,2025-10-04,22.4634,120.5339,0.058319673
C0E930,龍鳳,2025-10-04,24.700034,120.859125,0.7730509
C0U910,冬山,2025-10-04,24.63373,121.7937,0.0058264933
C1E721,泰安,2025-10-04,24.489017,120.968036,2.5531651e-08
82H320,茶改中部分場,2025-10-04,23.875611,120.913583,1.39371625e-08
C0M750,布袋,2025-10-04,23.380878,120.167789,0.08692
C1S860,利嘉,2025-10-04,22.809417,121.050528,0.08935297
E2S980,林試太麻里1,2025-10-04,22.598922,120.980044,0.025873655
C0X170,關廟,2025-10-04,22.963017,120.327797,0.10051614
C0V720,林園,2025-10-04,22.507747,120.394511,0.98371404
C1I510,線浸林道,2025-10-04,23.761508,120.832956,2.3714866e-09
C0D690,外湖,2025-10-04,24.917735,120.968711,0.0118738245
C0C750,新興坑尾,2025-10-04,25.0061,121.0971,0.00899969
B2Q810,畜試南區分所,2025-10-04,21.945583,120.802167,0.16827303
C0S790,金崙,2025-10-04,22.538122,120.966875,0.02348464
C0AH90,福山植物園,2025-10-04,24.760717,121.58135,0.9925445
C0I540,奇萊稜線,2025-10-04,24.109231,121.326456,2.4977533e-08
C0M850,表湖,2025-10-04,23.24186,120.64166,2.2246543e-07
C0S770,大溪山,2025-10-04,22.478475,120.943325,0.8158196
C0AG80,中和,2025-10-04,24.991622,121.491792,0.5769408
C0T790,大禹嶺,2025-10-04,24.186117,121.316086,7.921732e-09
C0T9B0,水源,2025-10-04,23.991861,121.537169,1.5551654e-05
C0R840,牡丹池山,2025-10-04,22.168389,120.841225,0.9997506
C1I131,桶頭,2025-10-04,23.641944,120.654117,0.0046021063
CAL110,布袋國中,2025-10-04,23.35893,120.18026,0.08692002
467571,新竹,2025-10-04,24.827853,121.014219,0.044190604
C0Z290,赤柯山,2025-10-04,23.36893,121.38293,6.5706445e-08
C0X280,將軍,2025-10-04,23.214999,120.13577,0.7001397
C0S690,太麻里,2025-10-04,22.60902,120.98533,0.12581141
C0U880,北關,2025-10-04,24.9072,121.8734,0.9986056
C0G810,埔心,2025-10-04,23.947633,120.525456,0.50036883
C0U970,大福,2025-10-04,24.80064,121.81389,0.11478358
C2H9N0,仁愛東眼,2025-10-04,24.026875,121.1205,3.1484397e-09
C1E670,南礦,2025-10-04,24.538278,121.002836,6.098682e-08
C0M520,東後寮,2025-10-04,23.369908,120.248065,0.08379089
C1E461,松安,2025-10-04,24.397972,120.986022,2.5919128e-08
C2N160,西拉雅風管處,2025-10-04,23.189481,120.335297,0.035351876
C2M970,碧湖,2025-10-04,23.568632,120.624165,7.454653e-08
C0A640,石碇,2025-10-04,24.993969,121.662917,0.04912786
E2S960,林試太麻里2,2025-10-04,22.598,120.99775,0.035941735
C0F9Y0,桃山,2025-10-04,24.432739,121.303808,6.604403e-09
C1I020,萬大,2025-10-04,23.979817,121.132261,2.2223826e-08
C0U940,羅東,2025-10-04,24.68184,121.74934,0.12826772
C0M650,朴子,2025-10-04,23.43463,120.23902,0.34371006
C1I500,大尖山,2025-10-04,23.858572,120.994889,2.0288502e-09
C0FB40,中橫21.6k,2025-10-04,24.2499,121.1455,2.1580536e-08
C0G820,田尾,2025-10-04,23.901669,120.509389,0.50036883
E2K600,四湖植物園,2025-10-04,23.676986,120.163433,0.57598877
C0S730,綠島,2025-10-04,22.6672,121.47533,0.08028165
12Q970,東港工作站,2025-10-04,22.479997,120.466058,0.061650522
C0E430,南庄,2025-10-04,24.601775,121.000214,0.017374868
C1TA00,太魯閣,2025-10-04,24.15773,121.6236,9.5881456e-05
466920,臺北,2025-10-04,25.037658,121.514853,0.21062164
C0R600,舊泰武,2025-10-04,22.588194,120.664944,4.4318156e-08
C1I260,北坑,2025-10-04,23.9246,121.006903,2.4768696e-08
466910,鞍部,2025-10-04,25.182586,121.529731,7.29468e-05
C1I230,九份二山,2025-10-04,23.961944,120.845,1.3058411e-08
C2A660,瑞芳,2025-10-04,25.113169,121.801147,0.7321359
C0R270,琉球嶼,2025-10-04,22.332244,120.362236,0.003700751
C1T990,高寮,2025-10-04,23.394239,121.356808,0.566688
C0G620,芬園,2025-10-04,24.015678,120.6213,0.99106795
C1Z140,荖溪,2025-10-04,23.890575,121.45964,1.02762314e-07
C1I201,中心崙,2025-10-04,23.728722,120.712097,1.6782761e-07
C1I400,凌霄,2025-10-04,24.018778,121.004456,3.469962e-09
C1M640,十字,2025-10-04,23.492153,120.753683,7.442119e-09
G2P820,農試鳳山分所,2025-10-04,22.646611,120.356083,0.011631975
C0Z270,蕃薯寮,2025-10-04,23.73835,121.540108,0.022011986
C0FB10,出雲山苗圃,2025-10-04,24.23105,120.90475,2.3538137e-08
C0F9Q0,外埔,2025-10-04,24.347817,120.705686,0.8574235
C0K580,高鐵雲林,2025-10-04,23.737456,120.417944,0.28189117
C2I090,鳳凰,2025-10-04,23.728081,120.787347,2.6068758e-08
C0U990,員山,2025-10-04,24.74435,121.72247,0.13184513
C0V770,大社,2025-10-04,22.730306,120.346639,0.011793588
C0X120,麻豆,2025-10-04,23.183289,120.248611,0.9759318
C0C670,龍潭,2025-10-04,24.870056,121.221389,0.71081936
C0D680,香山濕地,2025-10-04,24.783581,120.914988,0.22518688
C0S980,勝林山,2025-10-04,22.430439,120.8938,0.9964401
C0V730,大寮,2025-10-04,22.605614,120.395717,0.44158474
C0R570,麟洛,2025-10-04,22.65078,120.52719,7.817103e-06
C2M930,石卓,2025-10-04,23.478744,120.702264,5.7090315e-09
C0G9B0,和美,2025-10-04,24.105169,120.492131,0.5052891
CAG100,王功漁港,2025-10-04,23.96824,120.32586,0.0006952136
C0X290,北門,2025-10-04,23.267772,120.125481,0.70013964
C2F930,大甲,2025-10-04,24.347667,120.640403,0.957274
C0D650,湖口,2025-10-04,24.904794,121.043628,0.013200846
C0E420,竹南,2025-10-04,24.708978,120.888897,0.8483064
C0U780,五結,2025-10-04,24.68637,121.79794,0.12617345
C1I250,鯉潭,2025-10-04,23.961922,120.991131,1.2698447e-07
C0R130,阿禮,2025-10-04,22.742908,120.743678,1.2562337e-07
C0X100,臺南市北區,2025-10-04,23.010394,120.194228,0.9496975
C0S920,金峰嘉蘭,2025-10-04,22.594789,120.960825,0.02568242
C0V490,新興,2025-10-04,22.627422,120.298803,0.50784373
C0F9K0,大安,2025-10-04,24.345061,120.588025,0.8988733
467290,古坑,2025-10-04,23.633639,120.551889,0.053463303
C2E970,八甲,2025-10-04,24.535811,120.795983,0.9114821
C0V440,鳳山,2025-10-04,22.646653,120.356122,0.011631975
C1T940,大觀,2025-10-04,23.714206,121.373133,0.0007358056
C0E740,造橋,2025-10-04,24.637056,120.864778,0.9860165
C0R100,尾寮山,2025-10-04,22.833111,120.683889,1.666957e-06
A2K630,臺大雲林校區,2025-10-04,23.730628,120.423903,0.28219873
467990,馬祖,2025-10-04,26.169467,119.923158,0.5887974
C0D580,寶山,2025-10-04,24.735006,121.025192,0.010210992
E2P990,林試扇平站,2025-10-04,22.9677,120.6857,0.00030723447
C0AI30,三重,2025-10-04,25.057328,121.500629,0.22159284
C0AH00,汐止,2025-10-04,25.066881,121.658778,0.21062164
C1Z040,立山,2025-10-04,23.443356,121.327375,0.006837221
466881,新北,2025-10-04,24.959207,121.525196,0.4782439
C0W130,花嶼,2025-10-04,23.40007,119.32276,0.0021470084
C0A950,鼻頭角,2025-10-04,25.129036,121.923372,0.9996682
C0K470,林內,2025-10-04,23.748675,120.609642,0.011828238
C2F990,摩天嶺,2025-10-04,24.322458,120.936819,1.491254e-07
82C160,茶改場,2025-10-04,24.908472,121.185333,0.34219214
C0Z320,清水林道,2025-10-04,23.27125,121.188272,9.271259e-06
C0R760,南仁湖,2025-10-04,22.084681,120.863353,0.9987509
C0M670,大林,2025-10-04,23.600616,120.45841,0.12382642
C0M800,茶山,2025-10-04,23.299075,120.664767,0.0018465442
C0A9C0,天母,2025-10-04,25.117494,121.537169,0.01413746
72K220,南改斗南分場,2025-10-04,23.634556,120.477333,0.45844185
72AI40,桃改樹林分場,2025-10-04,24.944503,121.386972,0.116852
C0S910,蘭嶼燈塔,2025-10-04,22.081197,121.503117,0.97618186
C0B050,八斗子,2025-10-04,25.144754,121.79167,0.40625072
C0U900,內城,2025-10-04,24.71813,121.68766,0.1346221
C0X320,柳營,2025-10-04,23.253328,120.375253,0.009568293
C0M790,新港,2025-10-04,23.553269,120.345728,0.34607276
C0F9T0,西屯,2025-10-04,24.179494,120.641275,0.92525965
C0E950,松安,2025-10-04,24.39792,120.98599,2.5919078e-08
C0SA30,都歷,2025-10-04,23.020333,121.323642,0.035009317
C0C620,蘆竹,2025-10-04,25.084275,121.265767,0.06572145
C0R730,大坪頂,2025-10-04,22.024633,120.69355,0.98715913
C0AJ40,石門,2025-10-04,25.273672,121.601198,0.038460504
C0E750,苗栗,2025-10-04,24.564569,120.824575,0.9687073
C0T870,鯉魚潭,2025-10-04,23.935639,121.508944,0.021530885
C1V170,排雲,2025-10-04,23.463619,120.954147,3.727396e-08
C2H950,中寮,2025-10-04,23.884447,120.766406,0.003511575
C0R350,貓鼻頭,2025-10-04,21.921774,120.7358,0.97187227
C0V660,岡山,2025-10-04,22.797078,120.294958,0.02391349
C1H941,雙冬,2025-10-04,23.967378,120.802189,1.989754e-08
C0AJ70,田寮,2025-10-04,25.2698,121.4886,0.033039935
C0AI00,五股,2025-10-04,25.07445,121.42728,0.025085889
C0Z280,德武,2025-10-04,23.47426,121.41071,0.5950118
C0R700,枋山,2025-10-04,22.246844,120.661086,0.043642275
C0C460,復興,2025-10-04,24.820208,121.352281,0.0007323033
E2H360,蓮華池,2025-10-04,23.918333,120.885278,8.8308605e-09
C0M640,中埔,2025-10-04,23.42538,120.5229,0.006461181
C0W140,金沙,2025-10-04,24.488292,118.408778,0.374211
C2A540,四堵,2025-10-04,24.8926,121.745736,0.99973357
C0ACA0,新莊,2025-10-04,25.051478,121.446756,0.17243347
C0R220,潮州,2025-10-04,22.534361,120.54,0.98216426
U2HA40,臺大內茅埔,2025-10-04,23.689722,120.851117,0.110914946
467490,臺中,2025-10-04,24.145736,120.684075,0.8764727
C0UB60,明池,2025-10-04,24.650688,121.475277,4.2415869e-07
C0U960,翠峰湖,2025-10-04,24.510856,121.608044,3.197569e-09
E2HA20,林試畢祿溪站,2025-10-04,24.226944,121.308522,4.79699e-09
C0V890,前鎮,2025-10-04,22.5718,120.3117,0.5788729
C1F941,雪嶺,2025-10-04,24.280586,121.026642,4.781534e-09
C2H9E0,國姓南港,2025-10-04,23.911108,120.846556,1.3710041e-09
C0AC80,文山,2025-10-04,25.00235,121.575728,0.37455878
C0F9R0,龍井,2025-10-04,24.184536,120.528972,0.3741394
C0M760,民雄,2025-10-04,23.551754,120.428457,0.12003887
C0UA40,西德山,2025-10-04,24.560647,121.752608,8.179636e-09
C1T920,中興,2025-10-04,23.769503,121.498653,0.041598212
C0D550,雪霸,2025-10-04,24.526972,121.11605,2.0639193e-09
C2F860,梨山,2025-10-04,24.247522,121.243669,4.739982e-09
C0R320,車城,2025-10-04,22.0744,120.716247,0.06654426
C1S870,南美山,2025-10-04,23.15025,121.382333,0.038704917
C0B020,基隆嶼,2025-10-04,25.19141,121.78391,0.9595695
C1U501,牛鬥,2025-10-04,24.637836,121.573656,0.27107292
C0M730,嘉義市東區,2025-10-04,23.457673,120.460531,0.021650085
C0S700,知本,2025-10-04,22.684866,121.005642,0.13503157
C1N001,沙崙,2025-10-04,22.935472,120.309406,0.09416139
C0V760,橋頭,2025-10-04,22.757806,120.30575,0.009306011
C0G960,福寶,2025-10-04,24.0443,120.3814,0.49456564
C0X210,白河,2025-10-04,23.347466,120.414427,0.06270019
C0S810,東河,2025-10-04,22.972672,121.303986,0.21834426
C2R170,屏東,2025-10-04,22.66027,120.49403,7.817103e-06
C0R670,楓港,2025-10-04,22.190131,120.692156,0.5377579
C0FA50,霧峰,2025-10-04,24.0419,120.6995,0.9881708
C0UB10,蘇澳,2025-10-04,24.5969,121.8571,0.111685246
C0G950,防潮門,2025-10-04,24.1835,120.4871,0.37305757
C0M740,六腳,2025-10-04,23.492871,120.290625,0.2728102
C1R250,力里,2025-10-04,22.428117,120.629228,0.14542715
C0K330,虎尾,2025-10-04,23.719183,120.442036,0.24505927
C2FA00,烏石坑,2025-10-04,24.273503,120.947617,2.0789383e-07
C0V620,永安,2025-10-04,22.82315,120.236856,0.02391349
C1I330,楓樹林,2025-10-04,23.986803,121.076117,8.307194e-09
C0W200,湖西,2025-10-04,23.596314,119.67275,0.00066416594
72Q010,高雄農改場,2025-10-04,22.709333,120.525889,2.0291169e-05
C0SA40,瑞和,2025-10-04,22.974361,121.156697,0.050905906
C0C680,龜山,2025-10-04,25.02846,121.38656,0.009511392
C2V260,月眉,2025-10-04,22.971003,120.539853,0.05002222
C0V450,鳳森,2025-10-04,22.545064,120.392592,0.9613677
C0FA90,小雪山林道,2025-10-04,24.29515,121.03651,6.4740435e-09
C0U720,南山,2025-10-04,24.43742,121.38167,1.0416853e-08
A2N290,臺南蘭花園區,2025-10-04,23.340258,120.379661,0.63525176
C0R560,新園,2025-10-04,22.5434,120.461558,0.98371404
C0U890,三星,2025-10-04,24.66812,121.65302,0.14481522
C1V300,御油山,2025-10-04,23.001983,120.715364,4.569521e-09
C0U600,礁溪,2025-10-04,24.817539,121.765608,0.9890584
C1T980,龍澗,2025-10-04,24.023289,121.411328,1.6665336e-08
C0D670,海天一線,2025-10-04,24.831986,120.914438,0.00021098927
C0SA00,歷坵,2025-10-04,22.520969,120.89185,0.09709412
C0M710,東石,2025-10-04,23.458927,120.15385,0.21411912
C0M780,鹿草,2025-10-04,23.41134,120.30835,0.35372922
C0U520,雙連埤,2025-10-04,24.753033,121.641303,0.99889743
C0B010,七堵,2025-10-04,25.094819,121.71713,0.023038674
C0R480,長治,2025-10-04,22.693128,120.542622,0.010786267
C1V830,國三S383K,2025-10-04,22.781967,120.426475,0.0008127461
12Q980,恆春工作站,2025-10-04,22.079678,120.714425,0.06654426
C1O940,東山服務區,2025-10-04,23.286016,120.398472,0.026440663
C1U840,東澳嶺,2025-10-04,24.5378,121.8485,4.4081848e-08
C1D630,飛鳳山,2025-10-04,24.766464,121.119178,0.0032846422
C0S940,石寧山,2025-10-04,23.223772,121.406639,0.7745065
C0K410,北港,2025-10-04,23.573957,120.292802,0.28681642
C2M620,瑞里,2025-10-04,23.545133,120.675197,1.00108375e-08
C0SB70,小港漁港,2025-10-04,23.158558,121.400431,0.0064454917
C2O950,安南,2025-10-04,23.076694,120.144861,0.25996253
C0F0E0,南湖圈谷,2025-10-04,24.363714,121.444667,1.6336143e-08
467610,成功,2025-10-04,23.097486,121.373428,0.0036478392
C0G890,伸港,2025-10-04,24.148933,120.484403,0.5440566
C2E540,龍溪,2025-10-04,24.606489,120.783933,0.98545784
C1V200,梅山,2025-10-04,23.268447,120.823556,1.5247558e-05
C0T9H0,加路蘭山,2025-10-04,23.682947,121.5274,1.5422215e-07
C2O930,玉井,2025-10-04,23.126042,120.46055,0.015905438
C1F911,新伯公,2025-10-04,24.221361,120.841069,0.006579575
C0R490,九如,2025-10-04,22.7405,120.490503,2.747887e-05
C0X200,左鎮,2025-10-04,23.056758,120.408522,0.026191492
C0FA60,鞍馬山工作站,2025-10-04,24.267064,121.000793,2.953125e-09
C0SB50,叭嗡嗡,2025-10-04,23.047062,121.343223,0.042059187
C1F891,稍來,2025-10-04,24.265689,121.001142,2.871415e-09
72N240,七股研究中心,2025-10-04,23.081672,120.062894,0.2561935
C0C700,中壢,2025-10-04,24.977661,121.256375,0.006817069
C0M690,水上,2025-10-04,23.419734,120.388909,0.83644164
C0V690,鼓山,2025-10-04,22.623325,120.275575,0.50784373
C0O860,大內,2025-10-04,23.11885,120.36083,0.9844626
C0Z200,萬榮,2025-10-04,23.709219,121.420106,0.086478114
C0T9D0,和中,2025-10-04,24.26676,121.74103,0.00090231036
C1O921,楠西,2025-10-04,23.183511,120.484083,0.0017088507
C0AJ30,淡水觀海,2025-10-04,25.184591,121.408616,0.01452421
C0V810,左營,2025-10-04,22.67491,120.28491,0.012238779
C0UA70,桃源谷,2025-10-04,24.962606,121.888875,0.99954545
C0X130,官田,2025-10-04,23.193217,120.315422,0.035673536
C1H000,翠峰,2025-10-04,24.109397,121.205211,3.01677e-08
C0UA90,石城,2025-10-04,24.980444,121.951214,0.99972117
C1E681,南勢山,2025-10-04,24.421669,120.923831,7.169121e-09
C0A9F0,內湖,2025-10-04,25.079422,121.57545,0.21062164
C0K291,宜梧,2025-10-04,23.536281,120.169329,0.09186519
C1K540,口湖,2025-10-04,23.585344,120.180517,0.2710906
C0R780,滿州,2025-10-04,22.024403,120.839892,0.5672668
C0V870,文安,2025-10-04,22.8025,120.2164,0.023995822
C0U650,玉蘭,2025-10-04,24.675286,121.587061,0.9195885
C0R640,東港,2025-10-04,22.46247,120.44074,0.061650522
C0AJ80,板橋,2025-10-04,25.0107,121.4489,0.6486827
C0S660,下馬,2025-10-04,23.150427,121.070312,6.99032e-08
C1H9B1,阿眉,2025-10-04,24.1263,120.994672,1.7446601e-09
C0UA20,多加屯,2025-10-04,24.368614,121.373189,4.530028e-09
C0E730,頭份,2025-10-04,24.688247,120.912206,0.82576877
72V140,高改旗南分場,2025-10-04,22.857861,120.516667,0.06884938
C0K480,莿桐,2025-10-04,23.761192,120.502372,0.26973844
C0U980,坪林石牌,2025-10-04,24.86478,121.77396,0.9994711
C0T900,西林,2025-10-04,23.8119,121.441458,0.060607523
C1I150,青雲,2025-10-04,23.793361,120.949378,0.0030431242
467350,澎湖,2025-10-04,23.565503,119.563094,0.0015171677
C0G800,埔鹽,2025-10-04,24.000394,120.431683,0.14953043
C0H960,草屯,2025-10-04,23.973672,120.68085,0.9905314
C1V780,多納林道,2025-10-04,22.888028,120.737917,1.0689836e-06
C0E920,通霄漁港,2025-10-04,24.498589,120.673876,0.0015175901
C0Z330,安通山,2025-10-04,23.290728,121.348528,0.006051284
C0AH10,永和,2025-10-04,25.01125,121.508111,0.64690745
C0AK10,太平里,2025-10-04,25.134937,121.364899,0.17644745
C2G640,鹿港,2025-10-04,24.0753,120.430481,0.4944959
C1E890,國三N149K,2025-10-04,24.463414,120.680019,0.94910276
C1R110,口社,2025-10-04,22.770111,120.645222,0.009398675
C1M870,國三N285K,2025-10-04,23.550319,120.505833,0.008545151
C1E480,鳳美,2025-10-04,24.554803,121.034747,7.608094e-06
C0M530,奮起湖,2025-10-04,23.493903,120.699253,6.9059656e-09
C0C590,觀音,2025-10-04,25.027072,121.153317,0.05460291
C0T9M0,靜浦,2025-10-04,23.455167,121.495028,0.7718997
C2H9M0,發祥,2025-10-04,24.154094,121.164517,6.633439e-09
C0AI40,石牌,2025-10-04,25.115597,121.513139,0.014664682
C1F871,上谷關,2025-10-04,24.203483,121.018644,1.8621586e-08
C2H9G0,百勝,2025-10-04,24.051142,120.909361,3.7420914e-08
C0G880,二水,2025-10-04,23.810742,120.6173,0.028898695
C0R940,加祿堂,2025-10-04,22.3363,120.6217,0.015404535
C0W220,北竿,2025-10-04,26.220358,119.974881,0.6968839
C0O960,崎頂,2025-10-04,22.959547,120.369317,0.14387853
C0TA40,秀林,2025-10-04,24.302864,121.731144,5.4946828e-08
C0S750,向陽,2025-10-04,23.248397,120.986133,1.5118955e-08
C0T9F0,水璉,2025-10-04,23.797131,121.542514,0.079938576
C1M600,頭凍,2025-10-04,23.406364,120.603339,3.0879338e-08
467660,臺東,2025-10-04,22.752211,121.154586,0.0025057124
C1D380,新埔,2025-10-04,24.84745,121.03834,0.04504847
C2G980,田頭村,2025-10-04,23.8263,120.444175,0.33984113
C0V750,路竹,2025-10-04,22.854997,120.259439,0.16521765
C0N050,蚵寮,2025-10-04,23.301,120.1104,0.09010335
72M700,南改鹿草分場,2025-10-04,23.416869,120.283061,0.34371006
C1SA50,利嘉林道,2025-10-04,22.82325,121.009389,1.504739e-05
C0UB70,太平山中間站,2025-10-04,24.542003,121.513453,3.5680667e-08
C0A940,金山,2025-10-04,25.223628,121.643967,0.21019424
C1V340,大津,2025-10-04,22.888322,120.645986,0.00035284407
C0W180,七美,2025-10-04,23.219333,119.444892,0.01576199
C1F9C1,白冷,2025-10-04,24.182844,120.929889,1.7488658e-06
K2E710,苗改生物防治研究中心,2025-10-04,24.422861,120.871833,0.0008461948
C0N040,蘆竹溝,2025-10-04,23.2344,120.0961,0.7001397
C0D760,大坪苗圃,2025-10-04,24.5362,121.1108,1.8633985e-08
C2W230,畜試所澎湖,2025-10-04,23.628342,119.513206,0.0012066477
C0R880,後壁湖,2025-10-04,21.9457,120.7457,0.2664511
C1I280,埔中,2025-10-04,23.820778,120.642594,9.336345e-05
467790,墾丁雷達站,2025-10-04,21.948235,120.808028,0.18694347
C0W190,望安,2025-10-04,23.380564,119.494075,0.0066115055
C0Z170,卓溪,2025-10-04,23.3443,121.3029,0.29518744
C0F850,東勢,2025-10-04,24.246428,120.833047,0.9992341
466900,淡水,2025-10-04,25.164889,121.448906,0.17644745
C0I370,魚池,2025-10-04,23.895703,120.94135,3.844638e-08
C0C630,大溪,2025-10-04,24.882853,121.265547,0.6713808
C0A520,山佳,2025-10-04,24.974944,121.402008,0.8445916
C0I110,竹山,2025-10-04,23.761225,120.688156,0.010418447
82H840,茶改南部分場,2025-10-04,23.762528,120.7405,0.00026857705
C0G660,溪湖,2025-10-04,23.94835,120.479122,0.49381036
C1T800,洛韶,2025-10-04,24.204558,121.453956,1.5884169e-08
C1T810,慈恩,2025-10-04,24.192044,121.388386,4.443513e-08
C1E451,象鼻,2025-10-04,24.368617,120.940228,4.2631796e-09
C0AC60,三峽,2025-10-04,24.939025,121.369728,0.11291732
C0I490,萬大林道,2025-10-04,23.928228,121.091411,2.3548006e-09
C1I290,豐丘,2025-10-04,23.668178,120.887417,8.389101e-09
C1I320,奧萬大,2025-10-04,23.952956,121.178556,7.6938385e-09
C2M910,嘉義大學,2025-10-04,23.471325,120.485903,0.016421292
C0U770,南澳,2025-10-04,24.44935,121.81022,1.0277315e-06
C0A980,社子,2025-10-04,25.109508,121.469681,0.21414757
C0V800,六龜,2025-10-04,22.997889,120.633583,0.0863303
C1G9D0,國一S218K,2025-10-04,23.890641,120.493253,0.11426118
C0E570,白沙屯,2025-10-04,24.549447,120.696803,0.9348337
C2F9A0,中竹林,2025-10-04,24.103556,120.751061,1.5621514e-05
C0FA40,臺中電廠,2025-10-04,24.2146,120.4907,0.3741394
C2G9A0,畜試所彰化,2025-10-04,23.86045,120.557964,0.5943849
C0H9C0,合歡山,2025-10-04,24.143442,121.272547,1.249019e-08
C0X060,下營,2025-10-04,23.22695,120.256261,0.13315906
G2M350,農試溪口農場,2025-10-04,23.58565,120.408111,0.1411814
C0U860,頭城,2025-10-04,24.85323,121.8308,0.987912
C0R580,南州,2025-10-04,22.48591,120.50274,0.061650522
C0D430,峨眉,2025-10-04,24.6905,121.017189,0.012569978
C0G780,秀水,2025-10-04,24.03405,120.503869,0.90628207
72N100,臺南農改場,2025-10-04,23.0605,120.342194,0.9854882
C0S900,蘭嶼高中,2025-10-04,22.04909,121.51214,0.98731244
C1F9W0,德基,2025-10-04,24.254783,121.190261,2.6128133e-09
C1Z120,壽豐,2025-10-04,23.870853,121.508081,0.02965375
C0W160,烏坵,2025-10-04,24.9944,119.44956,0.013169602
C1I240,外大坪,2025-10-04,23.958697,120.917931,8.0854846e-08
C1I550,國六W023K,2025-10-04,23.979067,120.867742,1.9662464e-06
C0R870,興海,2025-10-04,21.9752,120.8439,0.16827303
C0R140,瑪家,2025-10-04,22.682903,120.686639,2.4179028e-06
C0A530,坪林,2025-10-04,24.938183,121.70975,0.9997954
C0X260,後壁,2025-10-04,23.366358,120.362326,0.63525176
C0Z230,和平,2025-10-04,24.30717,121.77007,0.0010078109
C0G770,福興,2025-10-04,24.041289,120.437669,0.14953043
C0H9A0,神木村,2025-10-04,23.532742,120.843667,6.9949184e-09
C0I460,南投,2025-10-04,23.911469,120.687331,0.11048454
C0I480,梅峰,2025-10-04,24.085272,121.173572,9.4692165e-09
C1V570,吉東,2025-10-04,22.85422,120.5454,0.052382667
C2D740,屯原,2025-10-04,24.067969,121.209389,1.13593535e-08
C2A560,福山,2025-10-04,24.776203,121.502811,0.99922144
C0AH30,五分山,2025-10-04,25.07125,121.780794,0.9544206
C0FA10,松柏,2025-10-04,24.429115,120.617482,0.8915116
72S200,東改班鳩分場,2025-10-04,22.829528,121.077694,0.004943217
72HA00,中改埔里分場,2025-10-04,23.903208,120.963364,1.3515836e-08
C2H9W0,大坪頂農水,2025-10-04,24.043122,120.932781,1.3017851e-08
C0C650,平鎮,2025-10-04,24.897503,121.214636,0.054324508
C0S930,延平,2025-10-04,22.902581,121.084058,0.032224208
C0UA60,樟樹山,2025-10-04,24.41393,121.78325,0.00011168343
C1S670,摩天,2025-10-04,23.199503,121.027,1.5697974e-08
C0V630,茄萣,2025-10-04,22.906642,120.182608,0.17358594
466940,基隆,2025-10-04,25.133314,121.740475,0.4201762
C0X050,東河,2025-10-04,23.296598,120.385608,0.02902516
C0R770,保力,2025-10-04,22.071122,120.764111,0.9710972
G2L020,農試嘉義分所,2025-10-04,23.485028,120.473806,0.0041070087
C0X240,關子嶺,2025-10-04,23.331169,120.508025,1.3404333e-05
C0I380,集集,2025-10-04,23.828206,120.801467,0.004504735
466990,花蓮,2025-10-04,23.975128,121.613275,0.01349356
C1V220,小關山,2025-10-04,23.154217,120.813603,4.9634337e-09
C1F9G1,慶福山,2025-10-04,24.180853,120.848378,1.9953786e-08
C0FB20,雪山橋,2025-10-04,24.23192,120.9786,3.7191419e-09
C0Z250,瑞穗林道,2025-10-04,23.49284,121.30688,1.0688545e-07
C0D590,新豐,2025-10-04,24.87068,120.97721,0.00055594766
C0A870,五指山,2025-10-04,25.132153,121.608692,0.0013411612
C0UA50,西帽山,2025-10-04,24.555361,121.802628,5.5062547e-08
C0X160,仁德,2025-10-04,22.968258,120.257689,0.7906311
C1H971,六分寮,2025-10-04,23.92507,120.6378,9.017177e-06
C0W120,西嶼,2025-10-04,23.5626,119.468436,0.0012192613
C0G650,員林,2025-10-04,23.946503,120.585597,0.94361985
C0AD50,鶯歌,2025-10-04,24.951533,121.346294,0.110000744
C2H9Q0,北東眼山,2025-10-04,24.120939,121.189303,3.9108454e-09
C2H9T0,名間竹圍,2025-10-04,23.859914,120.637572,0.0068603563
C0S990,山豬窟,2025-10-04,22.318619,120.857372,0.9976302
C0X190,安平,2025-10-04,22.993161,120.152181,0.9496975
C0K400,斗六,2025-10-04,23.720583,120.541127,0.101958066
12J990,口湖工作站,2025-10-04,23.589978,120.180394,0.2710906
C0O830,北寮,2025-10-04,23.079561,120.495008,0.04224454
C1D410,白蘭,2025-10-04,24.579364,121.079947,3.0464218e-08
C0S970,加津林,2025-10-04,22.416211,120.926942,0.2682625
C0D700,關西,2025-10-04,24.7977,121.1732,0.60000247
C0M810,里佳,2025-10-04,23.389125,120.716647,4.2172266e-09
C0U750,龜山島,2025-10-04,24.841667,121.953133,0.99989176
C0R810,內獅,2025-10-04,22.305064,120.642986,0.014549458
C1M390,龍美,2025-10-04,23.406728,120.654417,8.4890734e-09
C2FB60,頭櫃山,2025-10-04,24.129842,120.858925,8.275281e-09
C1H840,國三N238K,2025-10-04,23.841008,120.707711,0.019489912
CAQ030,崎峰國小,2025-10-04,22.42565,120.49521,0.061650522
C2E520,大湖,2025-10-04,24.414939,120.870872,0.00023593259
467530,阿里山,2025-10-04,23.508208,120.813242,2.9472786e-09
C1E691,南湖,2025-10-04,24.40135,120.837533,7.991179e-08
C0FA30,梧棲,2025-10-04,24.256003,120.523381,0.5183389
C1V231,高中,2025-10-04,23.134911,120.716711,3.9434607e-08
C0AK30,硬漢嶺,2025-10-04,25.136097,121.426372,0.018574255
C0F9V0,新社,2025-10-04,24.200172,120.815806,0.00055278256
C0H890,埔里,2025-10-04,23.972169,120.952425,1.3758844e-07
C0R690,墾丁,2025-10-04,21.966756,120.810269,0.95392025
C0F0D0,審馬陣,2025-10-04,24.381675,121.4203,6.5967987e-09
C2W030,金門農試所,2025-10-04,24.448431,118.451786,0.63583946
C0R820,白鷺,2025-10-04,22.454275,120.666219,0.9851985
C0FB00,大雪山,2025-10-04,24.254668,121.007374,3.948486e-09
C1V190,南天池,2025-10-04,23.27403,120.91176,2.3246256e-08
C0E940,雪見,2025-10-04,24.42595,121.01347,1.7313736e-09
K2E360,苗栗農改場,2025-10-04,24.495722,120.829111,0.84166443
CAJ050,海口故事園區,2025-10-04,23.57543,120.14121,0.2710906
C2H9D0,三隻寮,2025-10-04,24.093078,120.861578,1.1068566e-08
C0O990,媽廟,2025-10-04,22.99175,120.293525,0.97790015
C0D480,打鐵坑,2025-10-04,24.849664,121.150789,0.71429056
C0Z220,和平林道,2025-10-04,24.343922,121.656317,6.664932e-08
C0TA10,花蓮漁港,2025-10-04,23.995322,121.638331,0.012336211
72C440,桃園農改場,2025-10-04,24.950944,121.030583,0.011530225
C1E711,馬拉邦山,2025-10-04,24.367306,120.901656,3.5566838e-09
C0SB20,富岡,2025-10-04,22.792467,121.192669,0.009706071
C0D560,竹東,2025-10-04,24.767147,121.057881,0.68111235
C0F9U0,南屯,2025-10-04,24.137006,120.637969,0.9036693
C0M720,番路,2025-10-04,23.464657,120.554156,0.0020340434
C0F0A0,雪山圈谷,2025-10-04,24.388594,121.236339,1.0566192e-08
C1A9N0,四十份,2025-10-04,24.934158,121.593283,0.8036815
C0U760,東澳,2025-10-04,24.52196,121.83318,0.17247196
C0X230,鹽水,2025-10-04,23.272621,120.247641,0.0885044
C2H9H0,苗改南投蜂場,2025-10-04,23.852589,120.693481,0.0067528146
C0R950,萬隆國小,2025-10-04,22.507667,120.587817,0.98019636
467540,大武,2025-10-04,22.35572,120.90374,0.1825694
C0V370,古亭坑,2025-10-04,22.893178,120.401947,0.32171816
C1I340,新興橋,2025-10-04,23.563333,120.868728,9.834641e-07
C0SA80,土坂,2025-10-04,22.453108,120.887572,0.05431281
C0R160,鹽埔,2025-10-04,22.739558,120.530778,2.0291169e-05
C0AC40,大屯山,2025-10-04,25.175675,121.522408,8.496048e-07
466850,五分山雷達站,2025-10-04,25.071182,121.781205,0.9434445
C2H9L0,馬烈霸,2025-10-04,24.1512,121.201772,3.941759e-09
C1AI50,國三N016K,2025-10-04,25.034164,121.619664,0.14566432
C1V600,藤枝,2025-10-04,23.071961,120.757042,6.8482904e-09
C1E601,南勢,2025-10-04,24.572486,120.734842,0.9871065
C0O980,新市,2025-10-04,23.061614,120.298197,0.9827264
C0K420,西螺,2025-10-04,23.800407,120.467394,0.31785914
C0Z050,佳心,2025-10-04,23.34567,121.21316,1.8719217e-07
C0AD30,蘆洲,2025-10-04,25.086594,121.472331,0.22265631
C0V610,梓官,2025-10-04,22.760558,120.267211,0.009306006
K2F750,種苗改良場,2025-10-04,24.225972,120.800917,0.002697723
C0UA80,大溪漁港,2025-10-04,24.941801,121.902955,0.9987573
C1AI60,國一39K邊坡,2025-10-04,25.064361,121.383836,0.015232354
C0W150,金寧,2025-10-04,24.457703,118.328989,0.6116803
C0R960,內埔,2025-10-04,22.608483,120.570714,0.0017599678
V2C250,八德合作社,2025-10-04,24.93775,121.266389,0.075950965
C2H9S0,龍南,2025-10-04,23.953536,120.833183,1.6190436e-09
C0AH40,平等,2025-10-04,25.129142,121.577086,0.45665646
C0R540,佳冬,2025-10-04,22.419456,120.552375,0.10026652
466950,彭佳嶼,2025-10-04,25.627975,122.079744,0.9969728
C0A890,雙溪,2025-10-04,25.036003,121.864242,0.99985325
C0C480,桃園,2025-10-04,24.992425,121.323172,0.00812222
C0AH50,林口,2025-10-04,25.072181,121.38084,0.006318612
A2K360,水試臺西試驗場,2025-10-04,23.717231,120.190522,0.36253217
C2M960,外寮,2025-10-04,23.562643,120.665688,4.8962903e-08
C0F9S0,烏日,2025-10-04,24.107058,120.624103,0.7301553
C0C490,八德,2025-10-04,24.928708,121.283289,0.067652114
C0R190,赤山,2025-10-04,22.592333,120.614306,0.0013050839
C0T820,天祥,2025-10-04,24.179597,121.495639,0.00016641936
C1F9E1,龍安,2025-10-04,24.1605,120.831961,9.155168e-07
C0V820,小林,2025-10-04,23.148408,120.63325,1.2777655e-06
C2G870,芳苑,2025-10-04,23.922303,120.320025,0.00074202335
C0E850,大河,2025-10-04,24.618069,120.948578,0.0005069939
C1U670,寒溪,2025-10-04,24.634,121.71691,0.004248093
C0N020,城西,2025-10-04,23.0568,120.0956,0.9496975
C1Z110,三棧,2025-10-04,24.11557,121.60501,9.901468e-07
C0R280,檳榔,2025-10-04,22.076078,120.836777,0.9952159
C2H9J0,中台,2025-10-04,23.9996,120.938739,7.28769e-08
C0F9L0,后里,2025-10-04,24.310436,120.729725,0.99740916
467441,高雄,2025-10-04,22.730432,120.312516,0.00907197
C0Z180,新城,2025-10-04,24.040486,121.604878,0.014025832
C0D540,橫山,2025-10-04,24.71116,121.11693,0.0014105513
C1D420,太閣南,2025-10-04,24.632808,121.160575,4.3240277e-08
C1E770,公館,2025-10-04,24.526914,120.830806,0.86887425
CAN130,水試所海水繁養殖中心,2025-10-04,23.120802,120.07968,0.2561935
C1I430,翠華,2025-10-04,24.191961,121.224339,7.3669004e-09
C1M400,菜瓜坪,2025-10-04,23.251928,120.576103,1.6804359e-05
C0G730,二林,2025-10-04,23.903325,120.376081,0.03448672
72M360,南改義竹分場,2025-10-04,23.360694,120.279361,0.08379089
V2K620,麥寮合作社,2025-10-04,23.753836,120.294783,0.60201484
C0Z070,舞鶴,2025-10-04,23.46811,121.37407,0.35391033
C0B040,大武崙,2025-10-04,25.166676,121.706993,0.5338152
C1Z030,紅葉,2025-10-04,23.493119,121.338806,0.17793708
C1I050,丹大,2025-10-04,23.753747,121.141147,3.3954514e-08
C0I080,信義,2025-10-04,23.689694,120.851036,0.110914946
C0D750,樂山林道6k,2025-10-04,24.49999,121.08773,2.7682368e-09
C2M920,朴子農改,2025-10-04,23.469889,120.259383,0.34371
C2A880,福隆,2025-10-04,25.017842,121.942083,0.99970025
C0Z160,鳳林,2025-10-04,23.746114,121.453411,0.06568593
C0UB80,翠峰林道6K,2025-10-04,24.49773,121.568625,2.3970166e-09
C0V210,復興,2025-10-04,23.222403,120.806089,0.0041805385
C0H990,昆陽,2025-10-04,24.121322,121.273642,2.1068244e-08
C0R741,獅子,2025-10-04,22.202308,120.705236,0.88992727
C0S710,鹿野,2025-10-04,22.917711,121.122994,0.0012059957
C0I530,小奇萊,2025-10-04,24.131764,121.295717,2.1580577e-08
C0FA70,大雪山埡口,2025-10-04,24.26867,121.03062,4.7249262e-09
C2K630,荷苞,2025-10-04,23.657717,120.595144,0.036227345
C0Z080,富源,2025-10-04,23.587642,121.378225,0.08957848
C0SB10,美和,2025-10-04,22.682078,121.060236,0.029171012
C2K620,馬光農場,2025-10-04,23.721453,120.378864,0.27408952
C1I140,卡奈托灣,2025-10-04,23.754364,121.087872,2.3002122e-09
C0I520,玉山風口,2025-10-04,23.470489,120.955994,1.727324e-08
C1G691,下水埔,2025-10-04,23.816114,120.5676,0.2639381
C0X110,臺南市南區,2025-10-04,22.961189,120.188378,0.7906311
C0V680,仁武,2025-10-04,22.701083,120.347722,0.012238779
C2G840,北斗,2025-10-04,23.877586,120.514222,0.115060344
C0R900,竹坑,2025-10-04,22.1385,120.7022,0.07099731
C0K250,崙背,2025-10-04,23.75555,120.318925,0.60201484
C0G860,社頭,2025-10-04,23.897647,120.5862,0.6126167
C0X150,安定,2025-10-04,23.102614,120.227839,0.98189986
C0R590,里港,2025-10-04,22.77919,120.49459,0.029931223
C0E610,馬都安,2025-10-04,24.451272,120.930192,3.1467845e-08
C0E550,明德,2025-10-04,24.583486,120.885411,0.961259
C0R150,三地門,2025-10-04,22.709889,120.639944,0.011267034
C0G910,花壇,2025-10-04,24.032076,120.549461,0.9133235
C1D400,鳥嘴山,2025-10-04,24.71909,121.28387,4.1078385e-07
C0K500,元長,2025-10-04,23.64981,120.315024,0.8478562
C0F0B0,石岡,2025-10-04,24.276061,120.777644,0.9984926
C2V250,甲仙,2025-10-04,23.080106,120.591758,0.00024852686
C0SA20,金崙山,2025-10-04,22.567419,120.959667,0.2644435
C0V350,溪埔,2025-10-04,22.738578,120.446797,0.13735372
C0M660,溪口,2025-10-04,23.604131,120.403569,0.1411814
C1S880,壽卡,2025-10-04,22.238911,120.858903,0.99981827
72D680,桃改新埔分場,2025-10-04,24.834444,121.066111,0.044460017
