站號,站名,日期,lat,lon,BlastGRU-TW
C0R710,龍磐,2025-12-22,21.931672,120.838942,0.0007716822
C1F9D1,白毛台,2025-12-22,24.158325,120.886933,0.0012599905
C0G940,竹塘,2025-12-22,23.848253,120.386764,0.094043195
467590,恆春,2025-12-22,22.003897,120.746339,0.0068963785
C1O850,環湖,2025-12-22,23.148617,120.418633,0.47324198
C0U710,太平山,2025-12-22,24.505486,121.525656,0.0006798202
C0E820,獅潭,2025-12-22,24.539133,120.920042,0.010303373
C0V880,興達,2025-12-22,22.8778,120.2127,0.3222419
C0S890,關山,2025-12-22,23.0395,121.175017,0.03257829
C0SB30,新蘭,2025-12-22,22.869214,121.223228,0.31835875
C2R970,屏科大,2025-12-22,22.648275,120.619247,0.073760994
C1Z130,銅門,2025-12-22,23.965694,121.492842,0.23499219
C0AD40,土城,2025-12-22,24.973208,121.445169,0.17542098
CAN140,六官養殖協會,2025-12-22,23.22881,120.29962,0.6718891
C0X180,山上,2025-12-22,23.0757,120.363253,0.3616063
C0F9Z0,雪山東峰,2025-12-22,24.388792,121.268675,0.00037106677
C1M480,獨立山,2025-12-22,23.537022,120.607797,0.0020173131
C0X220,學甲,2025-12-22,23.230367,120.182187,0.50556904
467650,日月潭,2025-12-22,23.881325,120.90805,0.0025061367
C0K600,箔子寮,2025-12-22,23.6197,120.14,0.18982296
C0G830,埤頭,2025-12-22,23.866003,120.452806,0.33290014
C0S950,七塊厝,2025-12-22,22.954453,121.229922,0.004123685
467110,金門,2025-12-22,24.407306,118.289281,0.00073955464
C0AH80,深坑,2025-12-22,25.002703,121.628328,0.084950864
C0A970,三貂角,2025-12-22,25.007606,122.002058,0.9607295
C2D730,寶山農場,2025-12-22,24.732444,120.976153,0.025497003
C0K430,褒忠,2025-12-22,23.690938,120.303634,0.055481344
467480,嘉義,2025-12-22,23.495925,120.432906,0.6782471
C0V400,阿公店,2025-12-22,22.804194,120.355528,0.25978217
C0E960,觀霧分站,2025-12-22,24.505781,121.113921,0.00051454693
467550,玉山,2025-12-22,23.48718,120.95943,0.00036315294
C0R440,大漢山,2025-12-22,22.405264,120.753181,0.00035164843
C0SD30,東清國小,2025-12-22,22.057128,121.564922,0.012904277
C1F9B1,桐林,2025-12-22,24.066172,120.735194,0.005955305
C2H9U0,鳳鵬,2025-12-22,23.763919,120.788061,0.04178735
C0K390,土庫,2025-12-22,23.679029,120.395574,0.43439898
C1I450,望鄉山,2025-12-22,23.594153,120.944286,0.0003551399
C0E910,海埔,2025-12-22,24.648767,120.772435,0.060402427
B2E890,畜試北區分所,2025-12-22,24.527806,120.770972,0.0121459
C0R750,四林格山,2025-12-22,22.076989,120.802439,0.001185636
C0F0C0,中坑,2025-12-22,24.248517,120.903319,0.0006867707
C1I121,大鞍,2025-12-22,23.678381,120.760017,0.00062901416
72U480,花改蘭陽分場,2025-12-22,24.686306,121.716583,0.92554677
C0A770,科教館,2025-12-22,25.096356,121.516507,0.16378573
C0AJ60,六塊厝,2025-12-22,25.24,121.4481,0.30043286
C0R620,墾雷,2025-12-22,21.900836,120.855269,0.002033819
467420,永康,2025-12-22,23.038386,120.2367,0.46961075
C0I410,名間,2025-12-22,23.837053,120.701447,0.0486571
A2C560,農工中心,2025-12-22,24.985917,121.239833,0.016944682
C0V740,旗山,2025-12-22,22.888614,120.483597,0.25491086
C0Z061,玉里,2025-12-22,23.3215,121.339656,0.16744682
C0S840,南田,2025-12-22,22.279725,120.889208,0.041586097
C1I470,杉林溪,2025-12-22,23.639517,120.786444,0.000521985
C1X040,東原,2025-12-22,23.291597,120.463822,0.1520943
C0R660,枋寮,2025-12-22,22.367722,120.590647,0.0336102
C1R120,上德文,2025-12-22,22.763272,120.704442,0.0020153788
C0K450,大埤,2025-12-22,23.646074,120.431537,0.44979414
C0UA00,土場,2025-12-22,24.576533,121.495333,0.31909537
467080,宜蘭,2025-12-22,24.763975,121.756528,0.9015593
C0N030,四草,2025-12-22,23.0235,120.1116,0.54355717
467410,臺南,2025-12-22,22.99328,120.20492,0.41630527
C0V650,彌陀,2025-12-22,22.783806,120.246361,0.20480126
C0D660,新竹市東區,2025-12-22,24.798681,120.986942,0.022093857
82S580,茶改東部分場,2025-12-22,22.907694,121.130139,0.047500882
C0SB40,興隆,2025-12-22,22.913661,121.257469,0.274918
467050,新屋,2025-12-22,25.006725,121.047492,0.01739867
C0C710,大溪永福,2025-12-22,24.892936,121.324975,0.007831272
C0FA20,溫寮,2025-12-22,24.372177,120.583125,0.008026196
C0V640,湖內,2025-12-22,22.887139,120.2445,0.31733233
C0R910,下寮,2025-12-22,22.3929,120.5548,0.033541486
C0Z020,明里,2025-12-22,23.208717,121.262342,0.07126825
C0M770,嘉義梅山,2025-12-22,23.585398,120.555587,0.08419274
C0C660,楊梅,2025-12-22,24.912375,121.143047,0.007121402
C0SD40,牛頭山,2025-12-22,22.676661,121.506944,0.762826
C1E511,新開,2025-12-22,24.347703,120.827019,0.019152096
G2F820,農試所(霧峰),2025-12-22,24.031261,120.688133,0.013604214
C2M990,大巃頂,2025-12-22,23.5547,120.61439,0.002519951
C1I070,和社,2025-12-22,23.591131,120.888861,0.00548078
C2E990,新坪頂,2025-12-22,24.30201,120.8574,0.0016228528
C0TA80,立霧山,2025-12-22,24.183258,121.641899,0.0016840484
C2F000,大肚,2025-12-22,24.15295,120.572117,0.0836195
C1S850,豐南,2025-12-22,23.122139,121.262389,0.0024979177
C2A920,富貴角,2025-12-22,25.263783,121.565258,0.015954534
CAH030,茶改場竹圍站,2025-12-22,23.860083,120.637528,0.0363508
C0T960,光復,2025-12-22,23.660694,121.424964,0.19403487
C0F9M0,豐原,2025-12-22,24.254322,120.720692,0.004992869
C0R720,旭海,2025-12-22,22.205403,120.887614,0.15841152
C0V710,苓雅,2025-12-22,22.622742,120.330669,0.2123226
C0C740,觀音工業區,2025-12-22,25.064764,121.114856,0.02041197
CAC040,拉拉山,2025-12-22,24.699317,121.427133,0.0010369903
C0V790,萬山,2025-12-22,22.905944,120.688056,0.09358427
U2HA30,臺大和社,2025-12-22,23.590856,120.888864,0.00548078
C2H9K0,屯原,2025-12-22,24.067969,121.209389,0.00042735293
C0AJ90,澳底,2025-12-22,25.0552,121.9253,0.943934
C0Z100,東華,2025-12-22,23.89525,121.549833,0.57411563
C0G970,三豐,2025-12-22,23.882,120.2895,0.009817815
V2K610,大庄合作社,2025-12-22,23.8068,120.367939,0.023917517
C0V900,汕尾,2025-12-22,22.4782,120.4151,0.050936867
C1R630,龍泉,2025-12-22,22.66701,120.59091,0.06621849
C1AC50,關渡,2025-12-22,25.133486,121.469331,0.033879932
C0C800,四稜,2025-12-22,24.64733,121.4293,0.0027025768
C0F9I0,神岡,2025-12-22,24.272481,120.658314,0.008888351
C0K460,斗南,2025-12-22,23.678734,120.478359,0.4451224
C2O810,曾文,2025-12-22,23.219681,120.497328,0.1546957
467280,後龍,2025-12-22,24.648563,120.831834,0.041737746
C1F9J1,清水林,2025-12-22,24.071242,120.820419,0.0025188148
C2A650,火燒寮,2025-12-22,25.002719,121.742892,0.763135
466930,竹子湖,2025-12-22,25.162078,121.544547,0.006420107
C1I220,樟湖,2025-12-22,23.905333,120.846983,0.0010679949
C0I390,仁愛,2025-12-22,24.022122,121.132206,0.0013499048
C0Z300,東里,2025-12-22,23.26853,121.30547,0.15409356
C1V590,新發,2025-12-22,23.057019,120.646064,0.0055227214
C0K510,水林,2025-12-22,23.572924,120.24597,0.46643487
72S590,東改賓朗果園,2025-12-22,22.813889,121.071278,0.011578896
82A750,茶改北部分場,2025-12-22,24.955778,121.631222,0.061589133
C1A750,石碇服務區,2025-12-22,25.00872,121.646242,0.069630735
C0X300,鹿寮,2025-12-22,23.386047,120.477331,0.45014042
G2AI50,關渡,2025-12-22,25.11575,121.492,0.13861513
C0K590,雲林東勢,2025-12-22,23.674192,120.255721,0.08876096
C0A570,桶後,2025-12-22,24.848222,121.597992,0.286783
C1S800,華源,2025-12-22,22.657883,121.02325,0.6930549
C0G720,溪州,2025-12-22,23.851589,120.499093,0.32987136
C1V160,達卡努瓦,2025-12-22,23.279811,120.705319,0.0013691618
C2M410,馬頭山,2025-12-22,23.324361,120.582017,0.1978364
C0V850,蚵仔寮,2025-12-22,22.7256,120.2527,0.2140586
C0S740,池上,2025-12-22,23.119628,121.209469,0.010425277
C1V390,尖山,2025-12-22,22.813153,120.367789,0.27061582
C0AH70,松山,2025-12-22,25.04871,121.55042,0.13970049
C0N010,鯤鯓國小,2025-12-22,23.1879,120.0889,0.43939188
C0R550,新埤,2025-12-22,22.467947,120.582894,0.04894094
C0SA60,知本（水試所）,2025-12-22,22.702394,121.082761,0.8011792
C0T9I0,豐濱,2025-12-22,23.583897,121.514806,0.21352683
C0UB00,淡江大學蘭陽校園,2025-12-22,24.823239,121.730383,0.20055194
C0W240,九宮,2025-12-22,24.423753,118.240186,0.000746842
C0T9N0,富里,2025-12-22,23.171639,121.249378,0.08511122
U2HA50,臺大竹山,2025-12-22,23.756972,120.681556,0.12332563
C0V840,鳳鼻頭,2025-12-22,22.5083,120.3591,0.20550981
C0X140,西港,2025-12-22,23.125608,120.203108,0.64348775
72D080,桃改五峰分場,2025-12-22,24.612194,121.157167,0.0007343299
C2H9P0,伊拿谷,2025-12-22,23.963211,121.088264,0.0023947854
C2K250,崙背,2025-12-22,23.75553,120.31893,0.054767136
C2H9F0,柑林,2025-12-22,24.018658,120.847072,0.036538202
C0TA20,加灣,2025-12-22,24.082025,121.608944,0.31714743
C0V530,阿蓮,2025-12-22,22.883208,120.327508,0.42121336
C0FB30,八仙山苗圃,2025-12-22,24.192719,121.001366,0.0007445701
C1O880,關山,2025-12-22,23.173397,120.594092,0.26707557
C0E791,卓蘭,2025-12-22,24.3126,120.8244,0.02001977
C1I030,武界,2025-12-22,23.913225,121.052483,0.00209221
C0R520,崁頂,2025-12-22,22.514781,120.506914,0.047093917
C0R341,牡丹,2025-12-22,22.130036,120.792639,0.012763266
C0R930,萬丹,2025-12-22,22.5885,120.4851,0.039698996
C0S760,紅石,2025-12-22,23.069131,121.126219,0.0008755553
C2C410,中央大學,2025-12-22,24.967652,121.185165,0.015657658
C1M610,石磐龍,2025-12-22,23.496606,120.663506,0.0016477109
C0C790,東眼山,2025-12-22,24.8284,121.40888,0.008866423
C0UA10,鴛鴦湖,2025-12-22,24.590269,121.412228,0.00089477625
V2C260,八德蔬果,2025-12-22,24.978508,121.281819,0.02045538
C0R800,丹路,2025-12-22,22.204481,120.750989,0.016967738
C0G920,永靖,2025-12-22,23.924703,120.547533,0.17654231
C2M950,太和,2025-12-22,23.538372,120.702961,0.0009816656
C1A630,下盆,2025-12-22,24.771003,121.538622,0.010397976
B2N890,畜產試驗所,2025-12-22,23.058972,120.336406,0.50655866
C0UA30,白嶺,2025-12-22,24.527819,121.519031,0.0016256511
C1V580,溪南(特生中心),2025-12-22,23.084972,120.788475,0.0005607495
C1T970,大農,2025-12-22,23.615233,121.413331,0.12564659
C0R650,竹田,2025-12-22,22.58486,120.54344,0.050254848
C1H900,清流,2025-12-22,24.080775,120.962997,0.0035462524
C1C510,水尾,2025-12-22,24.940081,121.087161,0.008156052
C2N170,茅港尾,2025-12-22,23.2061,120.2624,0.6702188
C0F9X0,大雅(中科園區),2025-12-22,24.21528,120.62445,0.004669498
C0SB60,白守蓮,2025-12-22,23.126769,121.401914,0.4781627
C0O970,虎頭埤,2025-12-22,23.021375,120.347878,0.44413018
C0C730,中大臨海站,2025-12-22,24.966126,121.008581,0.025116682
C0X250,新營,2025-12-22,23.310689,120.316681,0.6543318
C0V700,三民,2025-12-22,22.645017,120.311233,0.2123011
C0U870,大礁溪,2025-12-22,24.791042,121.675047,0.10133702
C0E870,高鐵苗栗,2025-12-22,24.60725,120.826094,0.013854108
A2K570,古坑花卉中心,2025-12-22,23.63353,120.55239,0.18148378
C0TA30,鹽寮,2025-12-22,23.845606,121.592664,0.6182969
C0M860,新美,2025-12-22,23.338017,120.683169,0.013969628
C1E701,八卦,2025-12-22,24.491756,120.927619,0.0010338288
C2TA90,加納納,2025-12-22,23.466421,121.359867,0.12453008
C0I420,國姓,2025-12-22,24.037803,120.855072,0.03613426
C2D720,關西工作站,2025-12-22,24.757275,121.184792,0.0063359076
C0S960,香蘭,2025-12-22,22.587569,120.993375,0.09467647
467620,蘭嶼,2025-12-22,22.0369,121.55843,0.00025950492
C0R260,春日,2025-12-22,22.370361,120.628306,0.031435225
72G600,臺中農改場,2025-12-22,24.003028,120.534389,0.17299704
C0Z210,瑞穗,2025-12-22,23.5239,121.39021,0.27693707
C0M820,達邦,2025-12-22,23.453994,120.749517,0.0023194621
C0V860,南寮,2025-12-22,22.7616,120.2339,0.21393828
C0G740,大城,2025-12-22,23.852487,120.320935,0.008480548
C0R920,塭仔,2025-12-22,22.4169,120.5197,0.03404052
C0R470,高樹,2025-12-22,22.826389,120.600806,0.061933447
C0R680,佳樂水,2025-12-22,21.993578,120.861633,0.0033014335
C1O870,大棟山,2025-12-22,23.31157,120.52226,0.0020717613
C0D360,梅花,2025-12-22,24.678347,121.208558,0.007180124
C0Z190,富世,2025-12-22,24.14743,121.6297,0.4108244
C0AI10,屈尺,2025-12-22,24.92184,121.54475,0.05783334
B2U990,畜試東區分所,2025-12-22,24.669039,121.832561,0.95285654
C0SB80,長濱漁港,2025-12-22,23.313644,121.459994,0.53109396
C0TA50,和仁,2025-12-22,24.241394,121.712472,0.47571623
C0V910,大樹,2025-12-22,22.684645,120.432803,0.056309
C1R610,西大武山,2025-12-22,22.617719,120.7322,0.00041508485
C0G900,線西,2025-12-22,24.143358,120.443536,0.010835031
C0M700,竹崎,2025-12-22,23.526178,120.555508,0.119247794
C2E880,三義,2025-12-22,24.405478,120.749819,0.003719987
C0C720,竹圍,2025-12-22,25.112692,121.239824,0.13242045
C0F9P0,清水,2025-12-22,24.312297,120.562242,0.0097166635
C0Z150,吉安光華,2025-12-22,23.930925,121.595153,0.6578874
C0FA80,小雪山天池,2025-12-22,24.28025,121.02627,0.00043108728
467300,東吉島,2025-12-22,23.25727,119.66762,0.0009532866
C1D640,外坪(五指山),2025-12-22,24.644447,121.090961,0.0021019573
C0F9O0,潭子,2025-12-22,24.213106,120.703933,0.0074427626
C2H9R0,卓社,2025-12-22,23.887894,121.000086,0.00082296174
72T250,花蓮農改場,2025-12-22,23.975222,121.563889,0.60846466
C0E780,銅鑼,2025-12-22,24.489681,120.790853,0.0039244746
C1T950,太安,2025-12-22,23.666719,121.370128,0.0049358984
C0E830,苑裡,2025-12-22,24.439714,120.653053,0.004566443
467270,田中,2025-12-22,23.873803,120.581286,0.286457
C0SA10,檳榔四格山,2025-12-22,22.810031,121.109308,0.00505047
C1T830,布洛灣,2025-12-22,24.17184,121.57127,0.76114714
C0F970,大坑,2025-12-22,24.173142,120.722289,0.01703586
C1U920,思源,2025-12-22,24.393125,121.347214,0.00045849054
C2H9Y0,松茗,2025-12-22,23.8167,120.650765,0.032111403
C0A931,三和,2025-12-22,25.233153,121.595236,0.057176054
C0I010,廬山,2025-12-22,24.033311,121.181808,0.00082889665
C2M940,日野賀,2025-12-22,23.434056,120.727169,0.0013234341
C0R860,鼻頭,2025-12-22,22.1043,120.8979,0.039276678
C0UB20,壯圍,2025-12-22,24.7359,121.8163,0.9363663
C0R790,九棚,2025-12-22,22.14195,120.889281,0.08913388
C0W110,東莒,2025-12-22,25.9652,119.98069,0.0007358224
C1U930,粉鳥林,2025-12-22,24.497088,121.842479,0.89801395
C1I211,蘆竹湳,2025-12-22,23.934019,120.811994,0.012716565
C0S830,長濱,2025-12-22,23.286817,121.411975,0.040213212
C1F9F1,伯公龍,2025-12-22,24.272392,120.849047,0.0023419322
C0UB90,太平山莊,2025-12-22,24.494171,121.536209,0.0006706892
C0E810,西湖,2025-12-22,24.562947,120.7485,0.00837827
C1I440,新高口,2025-12-22,23.478744,120.878939,0.0005045975
C0O840,王爺宮,2025-12-22,23.222064,120.40085,0.25858012
C0T9G0,鳳林山,2025-12-22,23.735269,121.420131,0.010203567
C0X080,佳里,2025-12-22,23.173039,120.145086,0.44009045
C0FB70,大甲溪埔,2025-12-22,24.370625,120.620067,0.0053570876
C0Z310,清水斷崖,2025-12-22,24.218294,121.689142,0.22269447
C0M680,太保,2025-12-22,23.455062,120.331455,0.7122669
C1S820,金峰,2025-12-22,22.590969,120.933236,0.28965577
C0AD10,八里,2025-12-22,25.150211,121.403947,0.12868188
C2K240,草嶺,2025-12-22,23.59555,120.693461,0.0017757565
C1SA70,都蘭,2025-12-22,22.87794,121.226881,0.2741612
C0K440,二崙,2025-12-22,23.772797,120.408944,0.34158057
C1A760,坪林交控,2025-12-22,24.94284,121.713442,0.93332165
C0F9N0,大里,2025-12-22,24.092464,120.701378,0.2387835
C0SA90,達仁林場,2025-12-22,22.264347,120.823972,0.031595994
C1R290,石門山,2025-12-22,22.112611,120.756597,0.00053090154
42HA10,萬大發電廠,2025-12-22,23.978875,121.139639,0.0014192971
C0R890,山海,2025-12-22,21.9878,120.7091,0.0031458375
C0T9A0,月眉山,2025-12-22,23.809928,121.539828,0.0049431375
C0AC70,信義,2025-12-22,25.037822,121.564597,0.13554512
C0K560,棋山,2025-12-22,23.68645,120.603417,0.16339473
C2FB50,出雲,2025-12-22,24.206469,120.902794,0.001765909
C1Z240,中平林道,2025-12-22,23.42115,121.26763,0.026446577
U2H480,溪頭,2025-12-22,23.670306,120.798194,0.0014243381
C0M880,好美里,2025-12-22,23.3364,120.138,0.47045958
C0T9E0,大坑,2025-12-22,23.880628,121.581981,0.015009065
C0K530,臺西,2025-12-22,23.701547,120.197559,0.020227078
C1E900,國一N128K,2025-12-22,24.560997,120.844186,0.019227888
C0AJ50,水湳洞,2025-12-22,25.123695,121.862238,0.32586408
C0AI20,白沙灣,2025-12-22,25.283128,121.519058,0.232027
C2V310,美濃,2025-12-22,22.898792,120.51907,0.25215152
C0A860,大坪,2025-12-22,25.165914,121.632969,0.052874297
C1U850,觀音海岸,2025-12-22,24.38319,121.77856,0.010484025
C2K610,草嶺石壁,2025-12-22,23.602469,120.707731,0.0016225383
C0U950,鶯子嶺,2025-12-22,24.89754,121.79244,0.0052400446
C0O900,善化,2025-12-22,23.112883,120.297219,0.48070535
C0K550,蔦松,2025-12-22,23.514319,120.229736,0.4137475
E2P980,林試六龜中心,2025-12-22,22.991703,120.645722,0.25131562
C0E590,通霄,2025-12-22,24.471892,120.704622,0.01491753
C1I310,西巒,2025-12-22,23.754486,120.883956,0.0013155821
C0A550,泰平,2025-12-22,24.971197,121.823711,0.25147566
C0I360,水里,2025-12-22,23.812553,120.849792,0.069471784
C0R830,高士,2025-12-22,22.121825,120.836781,0.0005313038
C1I101,溪頭,2025-12-22,23.661789,120.807647,0.0005245111
C0AJ20,野柳,2025-12-22,25.20703,121.690021,0.58546746
C0B060,暖暖,2025-12-22,25.0957,121.7403,0.07703846
C1H920,長豐,2025-12-22,24.102039,120.879897,0.0030693773
C0V360,內門,2025-12-22,22.975481,120.466769,0.079751156
C0R850,林邊,2025-12-22,22.4634,120.5339,0.05003843
C0E930,龍鳳,2025-12-22,24.700034,120.859125,0.031100718
C0U910,冬山,2025-12-22,24.63373,121.7937,0.95285654
C1E721,泰安,2025-12-22,24.489017,120.968036,0.0009975691
82H320,茶改中部分場,2025-12-22,23.875611,120.913583,0.006050031
C0M750,布袋,2025-12-22,23.380878,120.167789,0.54983103
C1S860,利嘉,2025-12-22,22.809417,121.050528,0.06933108
E2S980,林試太麻里1,2025-12-22,22.598922,120.980044,0.13515767
C0X170,關廟,2025-12-22,22.963017,120.327797,0.4671738
C0V720,林園,2025-12-22,22.507747,120.394511,0.04367845
C1I510,線浸林道,2025-12-22,23.761508,120.832956,0.0007575146
C0D690,外湖,2025-12-22,24.917735,120.968711,0.043067917
C0C750,新興坑尾,2025-12-22,25.0061,121.0971,0.008475656
B2Q810,畜試南區分所,2025-12-22,21.945583,120.802167,0.0036285815
C0S790,金崙,2025-12-22,22.538122,120.966875,0.33568636
C0AH90,福山植物園,2025-12-22,24.760717,121.58135,0.011885613
C0I540,奇萊稜線,2025-12-22,24.109231,121.326456,0.00030333904
C0M850,表湖,2025-12-22,23.24186,120.64166,0.0023698355
C0S770,大溪山,2025-12-22,22.478475,120.943325,0.3162254
C0AG80,中和,2025-12-22,24.991622,121.491792,0.17332788
C0T790,大禹嶺,2025-12-22,24.186117,121.316086,0.00032907614
C0T9B0,水源,2025-12-22,23.991861,121.537169,0.016985932
C0R840,牡丹池山,2025-12-22,22.168389,120.841225,0.029162984
C1I131,桶頭,2025-12-22,23.641944,120.654117,0.049463738
CAL110,布袋國中,2025-12-22,23.35893,120.18026,0.43356025
467571,新竹,2025-12-22,24.827853,121.014219,0.023342079
C0Z290,赤柯山,2025-12-22,23.36893,121.38293,0.0018116592
C0X280,將軍,2025-12-22,23.214999,120.13577,0.5164771
C0S690,太麻里,2025-12-22,22.60902,120.98533,0.01097069
C0U880,北關,2025-12-22,24.9072,121.8734,0.8990608
CAW010,東引,2025-12-22,26.3588,120.4836,0.00072478916
C0G810,埔心,2025-12-22,23.947633,120.525456,0.18291903
C0U970,大福,2025-12-22,24.80064,121.81389,0.91025484
C2H9N0,仁愛東眼,2025-12-22,24.026875,121.1205,0.0009491407
C1E670,南礦,2025-12-22,24.538278,121.002836,0.0012549566
C0M520,東後寮,2025-12-22,23.369908,120.248065,0.42214957
C1E461,松安,2025-12-22,24.397972,120.986022,0.0010190022
C2N160,西拉雅風管處,2025-12-22,23.189481,120.335297,0.6837093
C2M970,碧湖,2025-12-22,23.568632,120.624165,0.0026069467
C0A640,石碇,2025-12-22,24.993969,121.662917,0.36938542
E2S960,林試太麻里2,2025-12-22,22.598,120.99775,0.09227008
C0F9Y0,桃山,2025-12-22,24.432739,121.303808,0.00046940474
C1I020,萬大,2025-12-22,23.979817,121.132261,0.0013270064
C2UC20,長嶺,2025-12-22,24.70894,121.61162,0.20800956
C0U940,羅東,2025-12-22,24.68184,121.74934,0.93026257
C0M650,朴子,2025-12-22,23.43463,120.23902,0.6114116
C1I500,大尖山,2025-12-22,23.858572,120.994889,0.0003309128
C0FB40,中橫21.6k,2025-12-22,24.2499,121.1455,0.0019281043
C0G820,田尾,2025-12-22,23.901669,120.509389,0.18048915
E2K600,四湖植物園,2025-12-22,23.676986,120.163433,0.02919085
C0S730,綠島,2025-12-22,22.6672,121.47533,0.56273216
12Q970,東港工作站,2025-12-22,22.479997,120.466058,0.050494816
C0E430,南庄,2025-12-22,24.601775,121.000214,0.009560009
C1TA00,太魯閣,2025-12-22,24.15773,121.6236,0.2938274
466920,臺北,2025-12-22,25.037658,121.514853,0.13970049
C0R600,舊泰武,2025-12-22,22.588194,120.664944,0.005620055
C1I260,北坑,2025-12-22,23.9246,121.006903,0.009055179
466910,鞍部,2025-12-22,25.182586,121.529731,0.0043228096
C1I230,九份二山,2025-12-22,23.961944,120.845,0.0035583747
C2A660,瑞芳,2025-12-22,25.113169,121.801147,0.10458082
C0R270,琉球嶼,2025-12-22,22.332244,120.362236,0.06266668
C1T990,高寮,2025-12-22,23.394239,121.356808,0.30772763
C0G620,芬園,2025-12-22,24.015678,120.6213,0.088800676
C1Z140,荖溪,2025-12-22,23.890575,121.45964,0.018058298
C1I201,中心崙,2025-12-22,23.728722,120.712097,0.0040956736
C1I400,凌霄,2025-12-22,24.018778,121.004456,0.0009826111
C1M640,十字,2025-12-22,23.492153,120.753683,0.00079395727
G2P820,農試鳳山分所,2025-12-22,22.646611,120.356083,0.20448078
C0Z270,蕃薯寮,2025-12-22,23.73835,121.540108,0.030157084
C0FB10,出雲山苗圃,2025-12-22,24.23105,120.90475,0.0006845679
C0F9Q0,外埔,2025-12-22,24.347817,120.705686,0.00942872
C0K580,高鐵雲林,2025-12-22,23.737456,120.417944,0.38443896
C2I090,鳳凰,2025-12-22,23.728081,120.787347,0.0037779196
C0U990,員山,2025-12-22,24.74435,121.72247,0.93227637
C0V770,大社,2025-12-22,22.730306,120.346639,0.2153156
C0X120,麻豆,2025-12-22,23.183289,120.248611,0.63248366
C0C670,龍潭,2025-12-22,24.870056,121.221389,0.0028194794
C0D680,香山濕地,2025-12-22,24.783581,120.914988,0.038328566
C0S980,勝林山,2025-12-22,22.430439,120.8938,0.0021619815
C0V730,大寮,2025-12-22,22.605614,120.395717,0.04402201
C0R570,麟洛,2025-12-22,22.65078,120.52719,0.056820188
C2M930,石卓,2025-12-22,23.478744,120.702264,0.0006921339
C0G9B0,和美,2025-12-22,24.105169,120.492131,0.03575102
CAG100,王功漁港,2025-12-22,23.96824,120.32586,0.007144004
C0X290,北門,2025-12-22,23.267772,120.125481,0.51776636
C2F930,大甲,2025-12-22,24.347667,120.640403,0.0024752512
C0D650,湖口,2025-12-22,24.904794,121.043628,0.009251434
C0E420,竹南,2025-12-22,24.708978,120.888897,0.02241148
C0U780,五結,2025-12-22,24.68637,121.79794,0.9357714
C1I250,鯉潭,2025-12-22,23.961922,120.991131,0.0023546852
C0R130,阿禮,2025-12-22,22.742908,120.743678,0.0008874831
C0X100,臺南市北區,2025-12-22,23.010394,120.194228,0.4207375
C0S920,金峰嘉蘭,2025-12-22,22.594789,120.960825,0.13667436
C0V490,新興,2025-12-22,22.627422,120.298803,0.21202448
C0F9K0,大安,2025-12-22,24.345061,120.588025,0.005946225
467290,古坑,2025-12-22,23.633639,120.551889,0.18148378
C2E970,八甲,2025-12-22,24.535811,120.795983,0.004749395
C0V440,鳳山,2025-12-22,22.646653,120.356122,0.20448078
C1T940,大觀,2025-12-22,23.714206,121.373133,0.005267502
C0E740,造橋,2025-12-22,24.637056,120.864778,0.0488651
C0R100,尾寮山,2025-12-22,22.833111,120.683889,0.00097187835
A2K630,臺大雲林校區,2025-12-22,23.730628,120.423903,0.38472584
467990,馬祖,2025-12-22,26.169467,119.923158,0.00040087392
C0D580,寶山,2025-12-22,24.735006,121.025192,0.0136422375
E2P990,林試扇平站,2025-12-22,22.9677,120.6857,0.030321434
C0AI30,三重,2025-12-22,25.057328,121.500629,0.16378593
C0AH00,汐止,2025-12-22,25.066881,121.658778,0.13970049
C1Z040,立山,2025-12-22,23.443356,121.327375,0.035520315
466881,新北,2025-12-22,24.959207,121.525196,0.12443139
C0W130,花嶼,2025-12-22,23.40007,119.32276,0.0007441286
C0A950,鼻頭角,2025-12-22,25.129036,121.923372,0.8564017
C0K470,林內,2025-12-22,23.748675,120.609642,0.22134618
C2F990,摩天嶺,2025-12-22,24.322458,120.936819,0.002704751
82C160,茶改場,2025-12-22,24.908472,121.185333,0.0050936695
C0Z320,清水林道,2025-12-22,23.27125,121.188272,0.00793758
C0R760,南仁湖,2025-12-22,22.084681,120.863353,0.00053343043
C0M670,大林,2025-12-22,23.600616,120.45841,0.63062036
C0M800,茶山,2025-12-22,23.299075,120.664767,0.068635784
C0A9C0,天母,2025-12-22,25.117494,121.537169,0.18686055
72K220,南改斗南分場,2025-12-22,23.634556,120.477333,0.4489551
72AI40,桃改樹林分場,2025-12-22,24.944503,121.386972,0.079220235
C0S910,蘭嶼燈塔,2025-12-22,22.081197,121.503117,0.0013519729
C0B050,八斗子,2025-12-22,25.144754,121.79167,0.4183369
C0U900,內城,2025-12-22,24.71813,121.68766,0.91772497
C0X320,柳營,2025-12-22,23.253328,120.375253,0.80181533
C0M790,新港,2025-12-22,23.553269,120.345728,0.6065137
C0F9T0,西屯,2025-12-22,24.179494,120.641275,0.008390866
C0E950,松安,2025-12-22,24.39792,120.98599,0.0010190022
C0SA30,都歷,2025-12-22,23.020333,121.323642,0.2293896
C0C620,蘆竹,2025-12-22,25.084275,121.265767,0.10793048
C0R730,大坪頂,2025-12-22,22.024633,120.69355,0.00080833473
C0AJ40,石門,2025-12-22,25.273672,121.601198,0.02689036
C0E750,苗栗,2025-12-22,24.564569,120.824575,0.021742998
C0T870,鯉魚潭,2025-12-22,23.935639,121.508944,0.31470618
C1V170,排雲,2025-12-22,23.463619,120.954147,0.00040926578
C2H950,中寮,2025-12-22,23.884447,120.766406,0.001567897
C0R350,貓鼻頭,2025-12-22,21.921774,120.7358,0.002855597
C0V660,岡山,2025-12-22,22.797078,120.294958,0.20317489
C1H941,雙冬,2025-12-22,23.967378,120.802189,0.007975769
C0AJ70,田寮,2025-12-22,25.2698,121.4886,0.25406605
C0AI00,五股,2025-12-22,25.07445,121.42728,0.010370002
C0Z280,德武,2025-12-22,23.47426,121.41071,0.18490547
C2RA10,大新,2025-12-22,22.67558,120.57788,0.06615103
C0R700,枋山,2025-12-22,22.246844,120.661086,0.018739393
C0C460,復興,2025-12-22,24.820208,121.352281,0.017760007
C2K300,鹿南,2025-12-22,23.63855,120.3636,0.1682346
E2H360,蓮華池,2025-12-22,23.918333,120.885278,0.0047074924
C0M640,中埔,2025-12-22,23.42538,120.5229,0.21181995
C0W140,金沙,2025-12-22,24.488292,118.408778,0.0008423461
C2A540,四堵,2025-12-22,24.8926,121.745736,0.57245135
C0ACA0,新莊,2025-12-22,25.051478,121.446756,0.26811966
C0R220,潮州,2025-12-22,22.534361,120.54,0.046486493
U2HA40,臺大內茅埔,2025-12-22,23.689722,120.851117,0.041729238
467490,臺中,2025-12-22,24.145736,120.684075,0.010911936
C0UB60,明池,2025-12-22,24.650688,121.475277,0.0027861746
C0U960,翠峰湖,2025-12-22,24.510856,121.608044,0.0005770068
E2HA20,林試畢祿溪站,2025-12-22,24.226944,121.308522,0.00042881933
C0V890,前鎮,2025-12-22,22.5718,120.3117,0.21088523
C1F941,雪嶺,2025-12-22,24.280586,121.026642,0.00043108728
C2H9E0,國姓南港,2025-12-22,23.911108,120.846556,0.0009912187
C0AC80,文山,2025-12-22,25.00235,121.575728,0.080714285
C0F9R0,龍井,2025-12-22,24.184536,120.528972,0.011910762
C0M760,民雄,2025-12-22,23.551754,120.428457,0.64380413
C0UA40,西德山,2025-12-22,24.560647,121.752608,0.004754893
C2TA70,赤科坪,2025-12-22,23.39885,121.39168,0.0022202071
C1T920,中興,2025-12-22,23.769503,121.498653,0.39121327
C0D550,雪霸,2025-12-22,24.526972,121.11605,0.00055076566
C2F860,梨山,2025-12-22,24.247522,121.243669,0.0004205175
C0R320,車城,2025-12-22,22.0744,120.716247,0.0045076157
C1S870,南美山,2025-12-22,23.15025,121.382333,0.09611013
C0B020,基隆嶼,2025-12-22,25.19141,121.78391,0.06240034
C1U501,牛鬥,2025-12-22,24.637836,121.573656,0.6210801
C0M730,嘉義市東區,2025-12-22,23.457673,120.460531,0.40604758
C2R990,泰武,2025-12-22,22.60686,120.69765,0.0014564812
C0S700,知本,2025-12-22,22.684866,121.005642,0.0708329
C1N001,沙崙,2025-12-22,22.935472,120.309406,0.4581894
C0V760,橋頭,2025-12-22,22.757806,120.30575,0.21522544
C0G960,福寶,2025-12-22,24.0443,120.3814,0.038427684
C0X210,白河,2025-12-22,23.347466,120.414427,0.5559338
C0S810,東河,2025-12-22,22.972672,121.303986,0.11533369
C2R170,屏東,2025-12-22,22.66027,120.49403,0.056856256
C0R670,楓港,2025-12-22,22.190131,120.692156,0.013036489
C0FA50,霧峰,2025-12-22,24.0419,120.6995,0.011715907
C0UB10,蘇澳,2025-12-22,24.5969,121.8571,0.9005852
C0G950,防潮門,2025-12-22,24.1835,120.4871,0.012537781
C0M740,六腳,2025-12-22,23.492871,120.290625,0.6193451
C1R250,力里,2025-12-22,22.428117,120.629228,0.03834093
C0K330,虎尾,2025-12-22,23.719183,120.442036,0.38106897
C2FA00,烏石坑,2025-12-22,24.273503,120.947617,0.00289938
C0V620,永安,2025-12-22,22.82315,120.236856,0.20480126
C1I330,楓樹林,2025-12-22,23.986803,121.076117,0.001013642
C0W200,湖西,2025-12-22,23.596314,119.67275,0.00074055995
72Q010,高雄農改場,2025-12-22,22.709333,120.525889,0.06280037
C0SA40,瑞和,2025-12-22,22.974361,121.156697,0.06112043
C0C680,龜山,2025-12-22,25.02846,121.38656,0.25288773
C2V260,月眉,2025-12-22,22.971003,120.539853,0.06624508
C0V450,鳳森,2025-12-22,22.545064,120.392592,0.041602127
C0FA90,小雪山林道,2025-12-22,24.29515,121.03651,0.00040633697
C0U720,南山,2025-12-22,24.43742,121.38167,0.0028186094
A2N290,臺南蘭花園區,2025-12-22,23.340258,120.379661,0.79185486
C0R560,新園,2025-12-22,22.5434,120.461558,0.0436785
C0U890,三星,2025-12-22,24.66812,121.65302,0.90662694
C1V300,御油山,2025-12-22,23.001983,120.715364,0.0005220203
C0U600,礁溪,2025-12-22,24.817539,121.765608,0.95249295
C1T980,龍澗,2025-12-22,24.023289,121.411328,0.006070225
C0D670,海天一線,2025-12-22,24.831986,120.914438,0.020757178
C0SA00,歷坵,2025-12-22,22.520969,120.89185,0.14311825
C0M710,東石,2025-12-22,23.458927,120.15385,0.31048733
C0M780,鹿草,2025-12-22,23.41134,120.30835,0.5931432
C0U520,雙連埤,2025-12-22,24.753033,121.641303,0.09509701
C0B010,七堵,2025-12-22,25.094819,121.71713,0.19910216
C0R480,長治,2025-12-22,22.693128,120.542622,0.056764774
C1V830,國三S383K,2025-12-22,22.781967,120.426475,0.077274516
12Q980,恆春工作站,2025-12-22,22.079678,120.714425,0.004491569
C1O940,東山服務區,2025-12-22,23.286016,120.398472,0.75387
C1U840,東澳嶺,2025-12-22,24.5378,121.8485,0.024541365
C1D630,飛鳳山,2025-12-22,24.766464,121.119178,0.0037929509
C0S940,石寧山,2025-12-22,23.223772,121.406639,0.24678993
C0K410,北港,2025-12-22,23.573957,120.292802,0.450992
C2M620,瑞里,2025-12-22,23.545133,120.675197,0.001171981
C0SB70,小港漁港,2025-12-22,23.158558,121.400431,0.70066684
C2O950,安南,2025-12-22,23.076694,120.144861,0.33331686
C0F0E0,南湖圈谷,2025-12-22,24.363714,121.444667,0.00024191018
467610,成功,2025-12-22,23.097486,121.373428,0.385068
C0G890,伸港,2025-12-22,24.148933,120.484403,0.010279211
C2E540,龍溪,2025-12-22,24.606489,120.783933,0.015416466
C1V200,梅山,2025-12-22,23.268447,120.823556,0.005457561
C0T9H0,加路蘭山,2025-12-22,23.682947,121.5274,0.004587582
C2O930,玉井,2025-12-22,23.126042,120.46055,0.5207129
C1F911,新伯公,2025-12-22,24.221361,120.841069,0.004251776
C0R490,九如,2025-12-22,22.7405,120.490503,0.06266621
C0X200,左鎮,2025-12-22,23.056758,120.408522,0.30201614
C0FA60,鞍馬山工作站,2025-12-22,24.267064,121.000793,0.00041946812
C0SB50,叭嗡嗡,2025-12-22,23.047062,121.343223,0.4562515
C1F891,稍來,2025-12-22,24.265689,121.001142,0.00042793262
72N240,七股研究中心,2025-12-22,23.081672,120.062894,0.4102433
C0C700,中壢,2025-12-22,24.977661,121.256375,0.016474696
C0M690,水上,2025-12-22,23.419734,120.388909,0.6977001
C0V690,鼓山,2025-12-22,22.623325,120.275575,0.21145603
C0O860,大內,2025-12-22,23.11885,120.36083,0.5010805
C0Z200,萬榮,2025-12-22,23.709219,121.420106,0.23972799
C0T9D0,和中,2025-12-22,24.26676,121.74103,0.8331213
C1O921,楠西,2025-12-22,23.183511,120.484083,0.40100378
C0AJ30,淡水觀海,2025-12-22,25.184591,121.408616,0.76388747
C0V810,左營,2025-12-22,22.67491,120.28491,0.21188764
C0UA70,桃源谷,2025-12-22,24.962606,121.888875,0.19032544
C0X130,官田,2025-12-22,23.193217,120.315422,0.67774135
C1H000,翠峰,2025-12-22,24.109397,121.205211,0.00034202385
C0UA90,石城,2025-12-22,24.980444,121.951214,0.9696364
C1E681,南勢山,2025-12-22,24.421669,120.923831,0.00068474736
C0A9F0,內湖,2025-12-22,25.079422,121.57545,0.13970049
C0K291,宜梧,2025-12-22,23.536281,120.169329,0.4181944
C1K540,口湖,2025-12-22,23.585344,120.180517,0.19183317
C0R780,滿州,2025-12-22,22.024403,120.839892,0.005742757
C0V870,文安,2025-12-22,22.8025,120.2164,0.2080615
C0U650,玉蘭,2025-12-22,24.675286,121.587061,0.1902522
C0R640,東港,2025-12-22,22.46247,120.44074,0.050396703
C0AJ80,板橋,2025-12-22,25.0107,121.4489,0.19178039
C0S660,下馬,2025-12-22,23.150427,121.070312,0.0026717288
C1H9B1,阿眉,2025-12-22,24.1263,120.994672,0.0006311653
C0UA20,多加屯,2025-12-22,24.368614,121.373189,0.00045045407
C0E730,頭份,2025-12-22,24.688247,120.912206,0.023577238
72V140,高改旗南分場,2025-12-22,22.857861,120.516667,0.06541146
C0K480,莿桐,2025-12-22,23.761192,120.502372,0.37235156
C0U980,坪林石牌,2025-12-22,24.86478,121.77396,0.028035859
C0T900,西林,2025-12-22,23.8119,121.441458,0.12916234
C1I150,青雲,2025-12-22,23.793361,120.949378,0.04589506
C2E980,和興,2025-12-22,24.505319,120.923016,0.0022852002
467350,澎湖,2025-12-22,23.565503,119.563094,0.0007108655
C0G800,埔鹽,2025-12-22,24.000394,120.431683,0.034074306
C0H960,草屯,2025-12-22,23.973672,120.68085,0.008244257
C1V780,多納林道,2025-12-22,22.888028,120.737917,0.0032647823
C0E920,通霄漁港,2025-12-22,24.498589,120.673876,0.006821922
C0Z330,安通山,2025-12-22,23.290728,121.348528,0.0034053526
C0AH10,永和,2025-12-22,25.01125,121.508111,0.20171504
C0AK10,太平里,2025-12-22,25.134937,121.364899,0.116261244
C2G640,鹿港,2025-12-22,24.0753,120.430481,0.038316946
C1E890,國三N149K,2025-12-22,24.463414,120.680019,0.009751835
C1R110,口社,2025-12-22,22.770111,120.645222,0.06793446
C1M870,國三N285K,2025-12-22,23.550319,120.505833,0.121808924
C1E480,鳳美,2025-12-22,24.554803,121.034747,0.0048528584
C0M530,奮起湖,2025-12-22,23.493903,120.699253,0.00096498284
C0C590,觀音,2025-12-22,25.027072,121.153317,0.006618856
C0T9M0,靜浦,2025-12-22,23.455167,121.495028,0.48864996
C2H9M0,發祥,2025-12-22,24.154094,121.164517,0.0013410526
C0AI40,石牌,2025-12-22,25.115597,121.513139,0.21429871
C1F871,上谷關,2025-12-22,24.203483,121.018644,0.0022689947
C2H9G0,百勝,2025-12-22,24.051142,120.909361,0.0023514526
C0G880,二水,2025-12-22,23.810742,120.6173,0.17154185
C0R940,加祿堂,2025-12-22,22.3363,120.6217,0.019326199
C0W220,北竿,2025-12-22,26.220358,119.974881,0.00043509458
C0O960,崎頂,2025-12-22,22.959547,120.369317,0.47824523
C0TA40,秀林,2025-12-22,24.302864,121.731144,0.0021779123
C0S750,向陽,2025-12-22,23.248397,120.986133,0.0005415729
C0T9F0,水璉,2025-12-22,23.797131,121.542514,0.04467284
C1M600,頭凍,2025-12-22,23.406364,120.603339,0.0016978653
467660,臺東,2025-12-22,22.752211,121.154586,0.52237856
C1D380,新埔,2025-12-22,24.84745,121.03834,0.008458747
C2G980,田頭村,2025-12-22,23.8263,120.444175,0.34118006
C0V750,路竹,2025-12-22,22.854997,120.259439,0.22160861
C0N050,蚵寮,2025-12-22,23.301,120.1104,0.47113496
C2X060,下營,2025-12-22,23.226806,120.256291,0.6700102
72M700,南改鹿草分場,2025-12-22,23.416869,120.283061,0.60906184
C1SA50,利嘉林道,2025-12-22,22.82325,121.009389,0.0018486629
C0UB70,太平山中間站,2025-12-22,24.542003,121.513453,0.009578687
C0A940,金山,2025-12-22,25.223628,121.643967,0.5008318
C1V340,大津,2025-12-22,22.888322,120.645986,0.06754564
C0W180,七美,2025-12-22,23.219333,119.444892,0.0008881717
C1F9C1,白冷,2025-12-22,24.182844,120.929889,0.0013221112
K2E710,苗改生物防治研究中心,2025-12-22,24.422861,120.871833,0.003919959
C0N040,蘆竹溝,2025-12-22,23.2344,120.0961,0.5178535
C0TB40,崇德,2025-12-22,24.166144,121.657414,0.5624774
C0D760,大坪苗圃,2025-12-22,24.5362,121.1108,0.0009600373
C2W230,畜試所澎湖,2025-12-22,23.628342,119.513206,0.00058888993
C0R880,後壁湖,2025-12-22,21.9457,120.7457,0.0034850552
C1I280,埔中,2025-12-22,23.820778,120.642594,0.027931418
467790,墾丁雷達站,2025-12-22,21.948235,120.808028,0.001997508
C0W190,望安,2025-12-22,23.380564,119.494075,0.0006835933
C0Z170,卓溪,2025-12-22,23.3443,121.3029,0.10476848
C0F850,東勢,2025-12-22,24.246428,120.833047,0.009312797
466900,淡水,2025-12-22,25.164889,121.448906,0.11484828
C0I370,魚池,2025-12-22,23.895703,120.94135,0.0064876303
C0C630,大溪,2025-12-22,24.882853,121.265547,0.0046298653
C0A520,山佳,2025-12-22,24.974944,121.402008,0.22166865
C0I110,竹山,2025-12-22,23.761225,120.688156,0.09597337
82H840,茶改南部分場,2025-12-22,23.762528,120.7405,0.026527304
C0G660,溪湖,2025-12-22,23.94835,120.479122,0.1988399
C1T800,洛韶,2025-12-22,24.204558,121.453956,0.002599695
C1T810,慈恩,2025-12-22,24.192044,121.388386,0.0004471351
C1E451,象鼻,2025-12-22,24.368617,120.940228,0.0006281949
C0AC60,三峽,2025-12-22,24.939025,121.369728,0.02674593
C0I490,萬大林道,2025-12-22,23.928228,121.091411,0.00071808556
C1I290,豐丘,2025-12-22,23.668178,120.887417,0.0012850624
C1I320,奧萬大,2025-12-22,23.952956,121.178556,0.00094233186
C2M910,嘉義大學,2025-12-22,23.471325,120.485903,0.32507643
C0U770,南澳,2025-12-22,24.44935,121.81022,0.8349367
C2TB30,吉安,2025-12-22,23.94538,121.54803,0.5072801
C0A980,社子,2025-12-22,25.109508,121.469681,0.14949058
C0V800,六龜,2025-12-22,22.997889,120.633583,0.24475092
C1G9D0,國一S218K,2025-12-22,23.890641,120.493253,0.22646227
C0E570,白沙屯,2025-12-22,24.549447,120.696803,0.0042115166
C2F9A0,中竹林,2025-12-22,24.103556,120.751061,0.018364456
C0FA40,臺中電廠,2025-12-22,24.2146,120.4907,0.01173415
C2G9A0,畜試所彰化,2025-12-22,23.86045,120.557964,0.2858978
C0H9C0,合歡山,2025-12-22,24.143442,121.272547,0.0003166089
G2M350,農試溪口農場,2025-12-22,23.58565,120.408111,0.66245794
C0U860,頭城,2025-12-22,24.85323,121.8308,0.9547225
C0R580,南州,2025-12-22,22.48591,120.50274,0.050396703
C0D430,峨眉,2025-12-22,24.6905,121.017189,0.024712924
C0G780,秀水,2025-12-22,24.03405,120.503869,0.17417298
72N100,臺南農改場,2025-12-22,23.0605,120.342194,0.5101523
C0S900,蘭嶼高中,2025-12-22,22.04909,121.51214,0.0084640235
C2TA60,六十石,2025-12-22,23.22477,121.31861,0.001301144
C1F9W0,德基,2025-12-22,24.254783,121.190261,0.0005382528
C2M980,安和,2025-12-22,23.51377,120.31593,0.60252005
C1Z120,壽豐,2025-12-22,23.870853,121.508081,0.57411563
C0W160,烏坵,2025-12-22,24.9944,119.44956,0.0006005533
C1I240,外大坪,2025-12-22,23.958697,120.917931,0.0022020054
C1I550,國六W023K,2025-12-22,23.979067,120.867742,0.029238045
C0R870,興海,2025-12-22,21.9752,120.8439,0.0036209682
C0R140,瑪家,2025-12-22,22.682903,120.686639,0.021176394
C0A530,坪林,2025-12-22,24.938183,121.70975,0.847998
C0X260,後壁,2025-12-22,23.366358,120.362326,0.6949983
C0Z230,和平,2025-12-22,24.30717,121.77007,0.83673245
C0G770,福興,2025-12-22,24.041289,120.437669,0.034193378
C0H9A0,神木村,2025-12-22,23.532742,120.843667,0.0005652935
C0I460,南投,2025-12-22,23.911469,120.687331,0.005497063
C0I480,梅峰,2025-12-22,24.085272,121.173572,0.0003658079
C1V570,吉東,2025-12-22,22.85422,120.5454,0.067160636
C2A560,福山,2025-12-22,24.776203,121.502811,0.19525063
C0AH30,五分山,2025-12-22,25.07125,121.780794,0.014530793
C0FA10,松柏,2025-12-22,24.429115,120.617482,0.0057600415
72S200,東改班鳩分場,2025-12-22,22.829528,121.077694,0.021691075
72HA00,中改埔里分場,2025-12-22,23.903208,120.963364,0.0062009986
C2H9W0,大坪頂農水,2025-12-22,24.043122,120.932781,0.00297139
C0C650,平鎮,2025-12-22,24.897503,121.214636,0.004604152
C0S930,延平,2025-12-22,22.902581,121.084058,0.021700358
C0UA60,樟樹山,2025-12-22,24.41393,121.78325,0.064451635
C2UC10,出水溪,2025-12-22,24.615822,121.652253,0.05901946
C1S670,摩天,2025-12-22,23.199503,121.027,0.0025345217
C0V630,茄萣,2025-12-22,22.906642,120.182608,0.322082
466940,基隆,2025-12-22,25.133314,121.740475,0.3929945
C0X050,東河,2025-12-22,23.296598,120.385608,0.77086824
C0R770,保力,2025-12-22,22.071122,120.764111,0.002684605
G2L020,農試嘉義分所,2025-12-22,23.485028,120.473806,0.18390381
C0X240,關子嶺,2025-12-22,23.331169,120.508025,0.03803209
C0I380,集集,2025-12-22,23.828206,120.801467,0.078518376
466990,花蓮,2025-12-22,23.975128,121.613275,0.6550734
C1V220,小關山,2025-12-22,23.154217,120.813603,0.0004841141
C1F9G1,慶福山,2025-12-22,24.180853,120.848378,0.0010432041
C0FB20,雪山橋,2025-12-22,24.23192,120.9786,0.0007468502
C0Z250,瑞穗林道,2025-12-22,23.49284,121.30688,0.014649345
C0D590,新豐,2025-12-22,24.87068,120.97721,0.0041110367
C0A870,五指山,2025-12-22,25.132153,121.608692,0.0044706822
C0UA50,西帽山,2025-12-22,24.555361,121.802628,0.020626945
C2R980,竹田國中,2025-12-22,22.61532,120.52412,0.04976809
C0X160,仁德,2025-12-22,22.968258,120.257689,0.40509665
C1H971,六分寮,2025-12-22,23.92507,120.6378,0.021128831
C0W120,西嶼,2025-12-22,23.5626,119.468436,0.00068752974
C0G650,員林,2025-12-22,23.946503,120.585597,0.20572737
C0AD50,鶯歌,2025-12-22,24.951533,121.346294,0.017750295
C2H9Q0,北東眼山,2025-12-22,24.120939,121.189303,0.000447075
C2H9T0,名間竹圍,2025-12-22,23.859914,120.637572,0.03600237
C0S990,山豬窟,2025-12-22,22.318619,120.857372,0.23137686
C0X190,安平,2025-12-22,22.993161,120.152181,0.42097715
C0K400,斗六,2025-12-22,23.720583,120.541127,0.48425865
12J990,口湖工作站,2025-12-22,23.589978,120.180394,0.18982296
C0O830,北寮,2025-12-22,23.079561,120.495008,0.07109285
C1D410,白蘭,2025-12-22,24.579364,121.079947,0.0010837875
C0S970,加津林,2025-12-22,22.416211,120.926942,0.048229113
C0D700,關西,2025-12-22,24.7977,121.1732,0.008725706
C0M810,里佳,2025-12-22,23.389125,120.716647,0.00067091355
C0U750,龜山島,2025-12-22,24.841667,121.953133,0.051504202
C0R810,內獅,2025-12-22,22.305064,120.642986,0.019357877
C1M390,龍美,2025-12-22,23.406728,120.654417,0.0010096423
C2K290,崙內,2025-12-22,23.69525,120.35601,0.05187392
C2FB60,頭櫃山,2025-12-22,24.129842,120.858925,0.0018857996
C1H840,國三N238K,2025-12-22,23.841008,120.707711,0.06829944
CAQ030,崎峰國小,2025-12-22,22.42565,120.49521,0.050396703
C2E520,大湖,2025-12-22,24.414939,120.870872,0.025499279
467530,阿里山,2025-12-22,23.508208,120.813242,0.00044211943
C1E691,南湖,2025-12-22,24.40135,120.837533,0.0009679427
C0FA30,梧棲,2025-12-22,24.256003,120.523381,0.0098001
C1V231,高中,2025-12-22,23.134911,120.716711,0.0020066546
C0AK30,硬漢嶺,2025-12-22,25.136097,121.426372,0.00791606
C0F9V0,新社,2025-12-22,24.200172,120.815806,0.0019158554
C0H890,埔里,2025-12-22,23.972169,120.952425,0.0028773083
C0R690,墾丁,2025-12-22,21.966756,120.810269,0.00021932827
C0SD20,富山,2025-12-22,22.822383,121.190825,0.4966966
C0F0D0,審馬陣,2025-12-22,24.381675,121.4203,0.00041268757
C2W030,金門農試所,2025-12-22,24.448431,118.451786,0.0007793004
C0R820,白鷺,2025-12-22,22.454275,120.666219,0.02216399
C0FB00,大雪山,2025-12-22,24.254668,121.007374,0.0004994212
C1V190,南天池,2025-12-22,23.27403,120.91176,0.00051281584
C0E940,雪見,2025-12-22,24.42595,121.01347,0.00052333507
K2E360,苗栗農改場,2025-12-22,24.495722,120.829111,0.006926912
CAJ050,海口故事園區,2025-12-22,23.57543,120.14121,0.19090849
C2K280,四湖,2025-12-22,23.6304,120.22717,0.030458476
C2H9D0,三隻寮,2025-12-22,24.093078,120.861578,0.002773589
C0O990,媽廟,2025-12-22,22.99175,120.293525,0.48078433
C0D480,打鐵坑,2025-12-22,24.849664,121.150789,0.00275609
C0Z220,和平林道,2025-12-22,24.343922,121.656317,0.011786016
C0TA10,花蓮漁港,2025-12-22,23.995322,121.638331,0.6767349
72C440,桃園農改場,2025-12-22,24.950944,121.030583,0.019116439
C1E711,馬拉邦山,2025-12-22,24.367306,120.901656,0.0017813363
C0SB20,富岡,2025-12-22,22.792467,121.192669,0.45125747
C0D560,竹東,2025-12-22,24.767147,121.057881,0.008412473
C0F9U0,南屯,2025-12-22,24.137006,120.637969,0.1225108
C0M720,番路,2025-12-22,23.464657,120.554156,0.22292525
C0F0A0,雪山圈谷,2025-12-22,24.388594,121.236339,0.0004579871
C1A9N0,四十份,2025-12-22,24.934158,121.593283,0.02745597
C0U760,東澳,2025-12-22,24.52196,121.83318,0.89782524
C0X230,鹽水,2025-12-22,23.272621,120.247641,0.456955
C2H9H0,苗改南投蜂場,2025-12-22,23.852589,120.693481,0.05614374
C0R950,萬隆國小,2025-12-22,22.507667,120.587817,0.044841953
467540,大武,2025-12-22,22.35572,120.90374,0.046213076
C0V370,古亭坑,2025-12-22,22.893178,120.401947,0.31399375
C1I340,新興橋,2025-12-22,23.563333,120.868728,0.0021293592
C0SA80,土坂,2025-12-22,22.453108,120.887572,0.12696798
C0R160,鹽埔,2025-12-22,22.739558,120.530778,0.06285289
C0AC40,大屯山,2025-12-22,25.175675,121.522408,0.001978807
466850,五分山雷達站,2025-12-22,25.071182,121.781205,0.013537471
C2H9L0,馬烈霸,2025-12-22,24.1512,121.201772,0.00044831008
C1AI50,國三N016K,2025-12-22,25.034164,121.619664,0.06851438
C1V600,藤枝,2025-12-22,23.071961,120.757042,0.0005912678
C1E601,南勢,2025-12-22,24.572486,120.734842,0.0036586467
C0O980,新市,2025-12-22,23.061614,120.298197,0.48382285
C0K420,西螺,2025-12-22,23.800407,120.467394,0.33546147
C0Z050,佳心,2025-12-22,23.34567,121.21316,0.0029027257
C0AD30,蘆洲,2025-12-22,25.086594,121.472331,0.15461753
C0V610,梓官,2025-12-22,22.760558,120.267211,0.21472839
K2F750,種苗改良場,2025-12-22,24.225972,120.800917,0.002652469
C0UA80,大溪漁港,2025-12-22,24.941801,121.902955,0.9714942
C1AI60,國一39K邊坡,2025-12-22,25.064361,121.383836,0.35481334
C0W150,金寧,2025-12-22,24.457703,118.328989,0.0007673432
C0R960,內埔,2025-12-22,22.608483,120.570714,0.049180344
V2C250,八德合作社,2025-12-22,24.93775,121.266389,0.007115595
C2H9S0,龍南,2025-12-22,23.953536,120.833183,0.0023777685
C0AH40,平等,2025-12-22,25.129142,121.577086,0.029970504
C0R540,佳冬,2025-12-22,22.419456,120.552375,0.033354577
466950,彭佳嶼,2025-12-22,25.627975,122.079744,0.011120775
C0A890,雙溪,2025-12-22,25.036003,121.864242,0.23487589
C0C480,桃園,2025-12-22,24.992425,121.323172,0.022190074
C0AH50,林口,2025-12-22,25.072181,121.38084,0.19932407
A2K360,水試臺西試驗場,2025-12-22,23.717231,120.190522,0.022660749
C2M960,外寮,2025-12-22,23.562643,120.665688,0.0021822555
C0F9S0,烏日,2025-12-22,24.107058,120.624103,0.17712218
C0C490,八德,2025-12-22,24.928708,121.283289,0.0068738586
C0R190,赤山,2025-12-22,22.592333,120.614306,0.048846204
C0T820,天祥,2025-12-22,24.179597,121.495639,0.35010648
C1F9E1,龍安,2025-12-22,24.1605,120.831961,0.0015628597
C0V820,小林,2025-12-22,23.148408,120.63325,0.029080981
C2G870,芳苑,2025-12-22,23.922303,120.320025,0.0069196993
C0E850,大河,2025-12-22,24.618069,120.948578,0.081067614
C1U670,寒溪,2025-12-22,24.634,121.71691,0.9219528
C0N020,城西,2025-12-22,23.0568,120.0956,0.537421
C1Z110,三棧,2025-12-22,24.11557,121.60501,0.084200606
C0R280,檳榔,2025-12-22,22.076078,120.836777,0.0008453228
C2H9J0,中台,2025-12-22,23.9996,120.938739,0.0076649715
C0F9L0,后里,2025-12-22,24.310436,120.729725,0.07509373
467441,高雄,2025-12-22,22.730432,120.312516,0.21484123
C0Z180,新城,2025-12-22,24.040486,121.604878,0.63438016
C0D540,橫山,2025-12-22,24.71116,121.11693,0.0071197194
C1D420,太閣南,2025-12-22,24.632808,121.160575,0.0013254901
C1E770,公館,2025-12-22,24.526914,120.830806,0.012145912
CAN130,水試所海水繁養殖中心,2025-12-22,23.120802,120.07968,0.40928787
C1I430,翠華,2025-12-22,24.191961,121.224339,0.00036911078
C1M400,菜瓜坪,2025-12-22,23.251928,120.576103,0.062764734
C0G730,二林,2025-12-22,23.903325,120.376081,0.037665922
72M360,南改義竹分場,2025-12-22,23.360694,120.279361,0.42017037
V2K620,麥寮合作社,2025-12-22,23.753836,120.294783,0.058077615
C0Z070,舞鶴,2025-12-22,23.46811,121.37407,0.10433114
C0B040,大武崙,2025-12-22,25.166676,121.706993,0.2593783
C1Z030,紅葉,2025-12-22,23.493119,121.338806,0.113265276
C1I050,丹大,2025-12-22,23.753747,121.141147,0.00050092523
C0I080,信義,2025-12-22,23.689694,120.851036,0.041729238
C0D750,樂山林道6k,2025-12-22,24.49999,121.08773,0.00043455552
C2M920,朴子農改,2025-12-22,23.469889,120.259383,0.61316586
C2A880,福隆,2025-12-22,25.017842,121.942083,0.9699462
C0Z160,鳳林,2025-12-22,23.746114,121.453411,0.33550346
C0UB80,翠峰林道6K,2025-12-22,24.49773,121.568625,0.0006560079
C0V210,復興,2025-12-22,23.222403,120.806089,0.002773543
C0H990,昆陽,2025-12-22,24.121322,121.273642,0.0003104823
C0R741,獅子,2025-12-22,22.202308,120.705236,0.017739996
C0S710,鹿野,2025-12-22,22.917711,121.122994,0.0055870763
C0I530,小奇萊,2025-12-22,24.131764,121.295717,0.00031051604
C0FA70,大雪山埡口,2025-12-22,24.26867,121.03062,0.00043178417
C2K630,荷苞,2025-12-22,23.657717,120.595144,0.10445216
C0Z080,富源,2025-12-22,23.587642,121.378225,0.108183846
C0SB10,美和,2025-12-22,22.682078,121.060236,0.8001511
C2K620,馬光農場,2025-12-22,23.721453,120.378864,0.39038578
C1I140,卡奈托灣,2025-12-22,23.754364,121.087872,0.00047535112
C0I520,玉山風口,2025-12-22,23.470489,120.955994,0.000386772
C1G691,下水埔,2025-12-22,23.816114,120.5676,0.35997513
C0X110,臺南市南區,2025-12-22,22.961189,120.188378,0.40365764
C0V680,仁武,2025-12-22,22.701083,120.347722,0.21167003
C2G840,北斗,2025-12-22,23.877586,120.514222,0.21434306
C0R900,竹坑,2025-12-22,22.1385,120.7022,0.011685209
C0G860,社頭,2025-12-22,23.897647,120.5862,0.1859637
C0X150,安定,2025-12-22,23.102614,120.227839,0.50450706
C0R590,里港,2025-12-22,22.77919,120.49459,0.06687227
C0E610,馬都安,2025-12-22,24.451272,120.930192,0.00087116647
C0E550,明德,2025-12-22,24.583486,120.885411,0.017324945
C0R150,三地門,2025-12-22,22.709889,120.639944,0.06665284
C0G910,花壇,2025-12-22,24.032076,120.549461,0.1496561
C1D400,鳥嘴山,2025-12-22,24.71909,121.28387,0.00077201537
C0K500,元長,2025-12-22,23.64981,120.315024,0.097918876
C0F0B0,石岡,2025-12-22,24.276061,120.777644,0.07208472
C2V250,甲仙,2025-12-22,23.080106,120.591758,0.28788692
C0SA20,金崙山,2025-12-22,22.567419,120.959667,0.0022236747
C0V350,溪埔,2025-12-22,22.738578,120.446797,0.060576275
C0M660,溪口,2025-12-22,23.604131,120.403569,0.66128993
C1S880,壽卡,2025-12-22,22.238911,120.858903,0.040240705
72D680,桃改新埔分場,2025-12-22,24.834444,121.066111,0.009274337
