站號,站名,日期,lat,lon,BLBTSLS
C0R710,龍磐,2025-03-21,21.931672,120.838942,0.9998413
C1F9D1,白毛台,2025-03-21,24.158325,120.886933,4.9688422e-09
C0G940,竹塘,2025-03-21,23.848253,120.386764,8.078116e-08
467590,恆春,2025-03-21,22.003897,120.746339,0.99959874
C1O850,環湖,2025-03-21,23.148617,120.418633,2.1890533e-07
C0U710,太平山,2025-03-21,24.505486,121.525656,1.475625e-08
C0E820,獅潭,2025-03-21,24.539133,120.920042,3.9470272e-08
C0V880,興達,2025-03-21,22.8778,120.2127,0.00021834904
C0S890,關山,2025-03-21,23.0395,121.175017,7.145438e-05
C0SB30,新蘭,2025-03-21,22.869214,121.223228,0.0142105855
C2R970,屏科大,2025-03-21,22.648275,120.619247,0.0003472879
K2F750,種苗繁殖,2025-03-21,24.225972,120.800917,6.5770362e-09
C1Z130,銅門,2025-03-21,23.965694,121.492842,1.9521825e-05
C0AD40,土城,2025-03-21,24.973208,121.445169,2.0151179e-08
CAN140,六官養殖協會,2025-03-21,23.22881,120.29962,2.660451e-06
C0X180,山上,2025-03-21,23.0757,120.363253,2.3667014e-06
C0F9Z0,雪山東峰,2025-03-21,24.388792,121.268675,3.1025753e-08
C1M480,獨立山,2025-03-21,23.537022,120.607797,2.1728888e-09
C0X220,學甲,2025-03-21,23.230367,120.182187,1.7304603e-06
467650,日月潭,2025-03-21,23.881325,120.90805,1.8415232e-09
C0K600,箔子寮,2025-03-21,23.6197,120.14,4.6888345e-06
C0G830,埤頭,2025-03-21,23.866003,120.452806,9.713876e-08
C0S950,七塊厝,2025-03-21,22.954453,121.229922,7.008823e-07
467110,金門,2025-03-21,24.407306,118.289281,1.2115719e-07
C0AH80,深坑,2025-03-21,25.002703,121.628328,1.8283542e-08
467990,馬祖,2025-03-21,26.169269,119.923419,1.6532901e-08
C0A970,三貂角,2025-03-21,25.007606,122.002058,7.190237e-09
C2D730,寶山農場,2025-03-21,24.732444,120.976153,8.458498e-08
C0K430,褒忠,2025-03-21,23.690938,120.303634,8.245371e-07
467480,嘉義,2025-03-21,23.495925,120.432906,7.0981804e-07
C2E540,後龍,2025-03-21,24.606489,120.783933,9.078362e-06
C0V400,阿公店,2025-03-21,22.804194,120.355528,2.2794138e-07
C0R440,大漢山,2025-03-21,22.405264,120.753181,1.5514022e-08
C0K280,四湖,2025-03-21,23.630414,120.227125,2.7009116e-06
C1F9B1,桐林,2025-03-21,24.066172,120.735194,6.078192e-07
C2H9U0,鳳鵬,2025-03-21,23.763919,120.788061,4.321231e-09
C0K390,土庫,2025-03-21,23.679029,120.395574,1.046054e-07
C1I450,望鄉山,2025-03-21,23.594153,120.944286,2.135965e-08
C0E910,海埔,2025-03-21,24.648767,120.772435,3.439171e-07
B2E890,畜試北區分所,2025-03-21,24.527806,120.770972,1.3350672e-07
C0R750,四林格山,2025-03-21,22.076989,120.802439,0.7347808
C0F0C0,中坑,2025-03-21,24.248517,120.903319,6.083634e-09
C1I121,大鞍,2025-03-21,23.678381,120.760017,4.08485e-09
72U480,花改蘭陽分場,2025-03-21,24.686306,121.716583,6.1316645e-09
C0A770,科教館,2025-03-21,25.096356,121.516507,2.2435927e-08
C0AJ60,六塊厝,2025-03-21,25.24,121.4481,2.226375e-08
C0R620,墾雷,2025-03-21,21.900836,120.855269,0.99942017
467420,永康,2025-03-21,23.038386,120.2367,9.778616e-05
467300,東吉島,2025-03-21,23.25695,119.667467,0.99894065
C0I410,名間,2025-03-21,23.837053,120.701447,6.124301e-09
A2C560,農工中心,2025-03-21,24.985917,121.239833,3.9006412e-08
C0V740,旗山,2025-03-21,22.888614,120.483597,1.8727002e-07
C0Z061,玉里,2025-03-21,23.3215,121.339656,0.00039763024
C0S840,南田,2025-03-21,22.279725,120.889208,0.2370219
C1I470,杉林溪,2025-03-21,23.639517,120.786444,4.9484887e-09
C1X040,東原,2025-03-21,23.291597,120.463822,1.4999917e-07
C0R660,枋寮,2025-03-21,22.367722,120.590647,0.0002448257
C1R120,上德文,2025-03-21,22.763272,120.704442,1.8493912e-08
C0K450,大埤,2025-03-21,23.646074,120.431537,7.8839314e-08
C0UA00,土場,2025-03-21,24.576533,121.495333,2.867848e-08
467080,宜蘭,2025-03-21,24.763975,121.756528,6.9459793e-09
C0N030,四草,2025-03-21,23.0235,120.1116,3.321701e-06
C0V650,彌陀,2025-03-21,22.783806,120.246361,4.645752e-07
C0D660,新竹市東區,2025-03-21,24.798681,120.986942,1.7237325e-07
82S580,茶改東部分場,2025-03-21,22.907694,121.130139,0.00012277394
C0SB40,興隆,2025-03-21,22.913661,121.257469,0.010453809
C0C710,大溪永福,2025-03-21,24.892936,121.324975,3.3316578e-08
C0FA20,溫寮,2025-03-21,24.372177,120.583125,1.5389247e-05
C0V640,湖內,2025-03-21,22.887139,120.2445,0.000120202145
C0R910,下寮,2025-03-21,22.3929,120.5548,0.00027792974
C0Z020,明里,2025-03-21,23.208717,121.262342,7.7295444e-05
C0M770,嘉義梅山,2025-03-21,23.585398,120.555587,7.762232e-09
G2F820,農業試驗所,2025-03-21,24.031261,120.688133,1.3206063e-06
C0C660,楊梅,2025-03-21,24.912375,121.143047,3.5547323e-08
C1E511,新開,2025-03-21,24.347703,120.827019,1.0993265e-08
G2F820,農試所(霧峰),2025-03-21,24.031261,120.688133,1.3206063e-06
C1I070,和社,2025-03-21,23.591131,120.888861,2.8547664e-08
C2F000,大肚,2025-03-21,24.15295,120.572117,7.426946e-09
C1S850,豐南,2025-03-21,23.122139,121.262389,3.0013805e-07
C2A920,富貴角,2025-03-21,25.263783,121.565258,1.5323952e-08
CAH030,茶改場竹圍站,2025-03-21,23.860083,120.637528,5.3798077e-09
C0T960,光復,2025-03-21,23.660694,121.424964,3.8901646e-05
C0F9M0,豐原,2025-03-21,24.254322,120.720692,4.6250367e-08
C0R720,旭海,2025-03-21,22.205403,120.887614,4.4820995e-06
C0V710,苓雅,2025-03-21,22.622742,120.330669,1.4206026e-06
C0C740,觀音工業區,2025-03-21,25.064764,121.114856,6.862231e-08
CAC040,拉拉山,2025-03-21,24.699317,121.427133,8.279828e-09
C0V790,萬山,2025-03-21,22.905944,120.688056,4.1353903e-09
U2HA30,臺大和社,2025-03-21,23.590856,120.888864,2.8547664e-08
C0AJ90,澳底,2025-03-21,25.0552,121.9253,7.82868e-09
C0Z100,東華,2025-03-21,23.89525,121.549833,0.0004730569
C0G970,三豐,2025-03-21,23.882,120.2895,3.257985e-06
V2K610,大庄合作社,2025-03-21,23.8068,120.367939,8.160018e-07
C0V900,汕尾,2025-03-21,22.4782,120.4151,0.0002667219
C1R630,龍泉,2025-03-21,22.66701,120.59091,0.66474295
C1AC50,關渡,2025-03-21,25.133486,121.469331,1.8153061e-08
C0F9I0,神岡,2025-03-21,24.272481,120.658314,5.246114e-08
C0K460,斗南,2025-03-21,23.678734,120.478359,6.772163e-08
467410,臺南,2025-03-21,22.993239,120.204772,3.7223606e-05
C2O810,曾文,2025-03-21,23.219681,120.497328,7.1081568e-06
467280,後龍,2025-03-21,24.648563,120.831834,2.4873685e-07
C1F9J1,清水林,2025-03-21,24.071242,120.820419,2.2703677e-09
C2A650,火燒寮,2025-03-21,25.002719,121.742892,6.612596e-09
466930,竹子湖,2025-03-21,25.162078,121.544547,6.49341e-09
C1I220,樟湖,2025-03-21,23.905333,120.846983,2.0368454e-09
C0I390,仁愛,2025-03-21,24.022122,121.132206,2.1964524e-09
C0Z300,東里,2025-03-21,23.26853,121.30547,0.00042682773
C1V590,新發,2025-03-21,23.057019,120.646064,4.377258e-09
C0K510,水林,2025-03-21,23.572924,120.24597,9.084849e-07
72S590,東改賓朗果園,2025-03-21,22.813889,121.071278,4.7760814e-06
82A750,茶改北部分場,2025-03-21,24.955778,121.631222,6.144777e-09
C1A750,石碇服務區,2025-03-21,25.00872,121.646242,1.8405059e-08
C0X300,鹿寮,2025-03-21,23.386047,120.477331,1.8901453e-08
G2AI50,關渡,2025-03-21,25.11575,121.492,2.240907e-08
C0K590,雲林東勢,2025-03-21,23.674192,120.255721,7.5628145e-07
C0A570,桶後,2025-03-21,24.848222,121.597992,4.8422567e-08
C1S800,華源,2025-03-21,22.657883,121.02325,0.0012639926
C0G720,溪州,2025-03-21,23.851589,120.499093,7.7365165e-08
C1V160,達卡努瓦,2025-03-21,23.279811,120.705319,1.8320465e-09
C2M410,馬頭山,2025-03-21,23.324361,120.582017,9.683959e-09
C0V850,蚵仔寮,2025-03-21,22.7256,120.2527,1.040999e-06
C0S740,池上,2025-03-21,23.119628,121.209469,1.0939865e-05
C1V390,尖山,2025-03-21,22.813153,120.367789,8.545302e-08
C0AH70,松山,2025-03-21,25.04871,121.55042,2.2185963e-08
C0N010,鯤鯓國小,2025-03-21,23.1879,120.0889,1.6927959e-06
C0R550,新埤,2025-03-21,22.467947,120.582894,6.4244574e-05
C0SA60,知本（水試所）,2025-03-21,22.702394,121.082761,0.2523752
C0T9I0,豐濱,2025-03-21,23.583897,121.514806,2.6177682e-05
C0UB00,淡江大學蘭陽校園,2025-03-21,24.823239,121.730383,7.453825e-09
C0W240,九宮,2025-03-21,24.423753,118.240186,1.2206657e-07
C0T9N0,富里,2025-03-21,23.171639,121.249378,3.4343575e-05
U2HA50,臺大竹山,2025-03-21,23.756972,120.681556,7.1997883e-09
C0V840,鳳鼻頭,2025-03-21,22.5083,120.3591,1.7435136e-06
C0X140,西港,2025-03-21,23.125608,120.203108,2.185396e-06
72D080,桃改五峰分場,2025-03-21,24.612194,121.157167,6.0732464e-09
C2H9P0,伊拿谷,2025-03-21,23.963211,121.088264,1.6667171e-09
C2H9F0,柑林,2025-03-21,24.018658,120.847072,7.543904e-09
C0TA20,加灣,2025-03-21,24.082025,121.608944,0.0008247092
C0V530,阿蓮,2025-03-21,22.883208,120.327508,1.3261367e-05
C1O880,關山,2025-03-21,23.173397,120.594092,8.527242e-09
C0E791,卓蘭,2025-03-21,24.3126,120.8244,1.1057129e-08
C1I030,武界,2025-03-21,23.913225,121.052483,1.6744088e-09
C0R520,崁頂,2025-03-21,22.514781,120.506914,6.3712694e-05
C0R341,牡丹,2025-03-21,22.130036,120.792639,5.219851e-09
C0R930,萬丹,2025-03-21,22.5885,120.4851,3.700844e-05
C0S760,紅石,2025-03-21,23.069131,121.126219,7.1755095e-09
C1M610,石磐龍,2025-03-21,23.496606,120.663506,3.1761367e-09
C0UA10,鴛鴦湖,2025-03-21,24.590269,121.412228,8.222244e-09
V2C260,八德蔬果,2025-03-21,24.978508,121.281819,4.0884764e-08
C0R800,丹路,2025-03-21,22.204481,120.750989,4.6183374e-08
C0G920,永靖,2025-03-21,23.924703,120.547533,1.7834277e-07
C2M950,太和,2025-03-21,23.538372,120.702961,3.6650034e-09
C1A630,下盆,2025-03-21,24.771003,121.538622,6.326244e-09
B2N890,畜產試驗所,2025-03-21,23.058972,120.336406,1.5672727e-05
C0UA30,白嶺,2025-03-21,24.527819,121.519031,9.072892e-09
C1V580,溪南(特生中心),2025-03-21,23.084972,120.788475,6.2724412e-09
C1T970,大農,2025-03-21,23.615233,121.413331,1.0322704e-05
E2S960,林試太麻里2,2025-03-21,22.598014,120.989761,0.017047156
C0R650,竹田,2025-03-21,22.58486,120.54344,5.9040303e-05
C1H900,清流,2025-03-21,24.080775,120.962997,1.7493551e-09
C1C510,水尾,2025-03-21,24.940081,121.087161,4.6757812e-08
C0F9X0,大雅(中科園區),2025-03-21,24.21528,120.62445,3.318505e-07
C0SB60,白守蓮,2025-03-21,23.126769,121.401914,0.380291
C0O970,虎頭埤,2025-03-21,23.021375,120.347878,2.1115109e-06
C0C730,中大臨海站,2025-03-21,24.966126,121.008581,7.5998265e-08
C0X250,新營,2025-03-21,23.310689,120.316681,2.0119166e-06
C0V700,三民,2025-03-21,22.645017,120.311233,1.2883903e-06
C0U870,大礁溪,2025-03-21,24.791042,121.675047,7.075307e-09
C0E870,高鐵苗栗,2025-03-21,24.60725,120.826094,6.3404564e-06
A2K570,古坑花卉中心,2025-03-21,23.63353,120.55239,1.6163261e-08
C0M860,新美,2025-03-21,23.338017,120.683169,1.8138896e-09
C1E701,八卦,2025-03-21,24.491756,120.927619,6.2242576e-09
C0I420,國姓,2025-03-21,24.037803,120.855072,5.947651e-09
C2D720,關西工作站,2025-03-21,24.757275,121.184792,5.02895e-08
C0S960,香蘭,2025-03-21,22.587569,120.993375,0.019587655
C0R260,春日,2025-03-21,22.370361,120.628306,9.265549e-06
72G600,臺中農改場,2025-03-21,24.003028,120.534389,2.0178202e-07
C0Z210,瑞穗,2025-03-21,23.5239,121.39021,3.812666e-05
C0M820,達邦,2025-03-21,23.453994,120.749517,3.0453569e-09
C0V860,南寮,2025-03-21,22.7616,120.2339,1.1443925e-06
C0G740,大城,2025-03-21,23.852487,120.320935,2.3797902e-06
C0R920,塭仔,2025-03-21,22.4169,120.5197,0.0003076105
C0R470,高樹,2025-03-21,22.826389,120.600806,0.0056106215
C0R680,佳樂水,2025-03-21,21.993578,120.861633,0.9994764
C1O870,大棟山,2025-03-21,23.31157,120.52226,2.3341236e-09
C0D360,梅花,2025-03-21,24.678347,121.208558,5.471734e-09
C0Z190,富世,2025-03-21,24.14743,121.6297,7.35025e-07
C0AI10,屈尺,2025-03-21,24.92184,121.54475,1.4277011e-08
B2U990,畜試東區分所,2025-03-21,24.669039,121.832561,6.1058842e-09
C0SB80,長濱漁港,2025-03-21,23.313644,121.459994,0.048177384
C0R240,來義,2025-03-21,22.527306,120.625111,9.284356e-07
C0V910,大樹,2025-03-21,22.684645,120.432803,0.9348764
C1R610,西大武山,2025-03-21,22.617719,120.7322,1.5253761e-08
C0G900,線西,2025-03-21,24.143358,120.443536,1.4553968e-05
C0M700,竹崎,2025-03-21,23.526178,120.555508,8.647413e-09
C2E880,三義,2025-03-21,24.405478,120.749819,5.604635e-09
C0C720,竹圍,2025-03-21,25.112692,121.239824,2.1743572e-08
C0F9P0,清水,2025-03-21,24.312297,120.562242,1.0861555e-05
C0Z150,吉安光華,2025-03-21,23.930925,121.595153,0.0012110913
C1D640,外坪(五指山),2025-03-21,24.644447,121.090961,5.811536e-09
C0F9O0,潭子,2025-03-21,24.213106,120.703933,5.8006865e-08
C2H9R0,卓社,2025-03-21,23.887894,121.000086,3.6621175e-09
72T250,花蓮農改場,2025-03-21,23.975222,121.563889,0.0006529014
C0E780,銅鑼,2025-03-21,24.489681,120.790853,6.387403e-08
C1T950,太安,2025-03-21,23.666719,121.370128,2.057332e-09
C0E830,苑裡,2025-03-21,24.439714,120.653053,9.519329e-06
467270,田中,2025-03-21,23.873803,120.581286,5.5304948e-08
C0SA10,檳榔四格山,2025-03-21,22.810031,121.109308,9.831424e-07
C1T830,布洛灣,2025-03-21,24.17184,121.57127,3.9750567e-08
C0F970,大坑,2025-03-21,24.173142,120.722289,7.128192e-08
C1U920,思源,2025-03-21,24.393125,121.347214,1.2928006e-08
C0A931,三和,2025-03-21,25.233153,121.595236,1.48530495e-08
C0I010,廬山,2025-03-21,24.033311,121.181808,4.387272e-09
C2M940,日野賀,2025-03-21,23.434056,120.727169,3.1205678e-09
C0R860,鼻頭,2025-03-21,22.1043,120.8979,0.9996632
C0UB20,壯圍,2025-03-21,24.7359,121.8163,6.3401235e-09
C0R790,九棚,2025-03-21,22.14195,120.889281,3.4442397e-05
C0W110,東莒,2025-03-21,25.9652,119.98069,3.3067118e-07
C1U930,粉鳥林,2025-03-21,24.497088,121.842479,1.9411812e-06
C1I211,蘆竹湳,2025-03-21,23.934019,120.811994,2.6508729e-09
C0S830,長濱,2025-03-21,23.286817,121.411975,2.0226176e-05
C1F9F1,伯公龍,2025-03-21,24.272392,120.849047,6.050469e-09
C0E810,西湖,2025-03-21,24.562947,120.7485,2.7558457e-07
C1I440,新高口,2025-03-21,23.478744,120.878939,1.38296e-08
C0O840,王爺宮,2025-03-21,23.222064,120.40085,8.335715e-06
C0T9G0,鳳林山,2025-03-21,23.735269,121.420131,7.3026065e-08
C0X080,佳里,2025-03-21,23.173039,120.145086,1.7102674e-06
C0FB70,大甲溪埔,2025-03-21,24.370625,120.620067,6.9234898e-06
C0Z310,清水斷崖,2025-03-21,24.218294,121.689142,3.0747577e-07
C0M680,太保,2025-03-21,23.455062,120.331455,8.0440344e-07
C1S820,金峰,2025-03-21,22.590969,120.933236,6.7164065e-06
C0AD10,八里,2025-03-21,25.150211,121.403947,2.180633e-08
C2K240,草嶺,2025-03-21,23.59555,120.693461,3.257279e-09
C1SA70,都蘭,2025-03-21,22.87794,121.226881,0.010325769
C0K440,二崙,2025-03-21,23.772797,120.408944,9.862181e-08
C1A760,坪林交控,2025-03-21,24.94284,121.713442,6.666468e-09
C0F9N0,大里,2025-03-21,24.092464,120.701378,2.2575394e-08
C0SA90,達仁林場,2025-03-21,22.264347,120.823972,4.2579156e-08
C1R290,石門山,2025-03-21,22.112611,120.756597,0.9999338
42HA10,萬大發電廠,2025-03-21,23.978875,121.139639,1.9039772e-09
C0R890,山海,2025-03-21,21.9878,120.7091,0.9990277
C0T9A0,月眉山,2025-03-21,23.809928,121.539828,1.8975706e-07
C0AC70,信義,2025-03-21,25.037822,121.564597,2.2307361e-08
C0K560,棋山,2025-03-21,23.68645,120.603417,1.1874747e-08
C2FB50,出雲,2025-03-21,24.206469,120.902794,1.9579858e-09
C1Z240,中平林道,2025-03-21,23.42115,121.26763,3.0398322e-09
U2H480,溪頭,2025-03-21,23.670306,120.798194,2.2553692e-09
C0M880,好美里,2025-03-21,23.3364,120.138,2.561583e-06
C0T9E0,大坑,2025-03-21,23.880628,121.581981,4.154521e-07
C0K530,臺西,2025-03-21,23.701547,120.197559,2.9208018e-06
C1E900,國一N128K,2025-03-21,24.560997,120.844186,1.5555793e-07
C0AJ50,水湳洞,2025-03-21,25.123695,121.862238,2.1121998e-08
C0AI20,白沙灣,2025-03-21,25.283128,121.519058,2.1415945e-08
C0A860,大坪,2025-03-21,25.165914,121.632969,5.827453e-09
C1U850,觀音海岸,2025-03-21,24.38319,121.77856,5.062439e-09
C2K610,草嶺石壁,2025-03-21,23.602469,120.707731,3.31899e-09
C0U950,鶯子嶺,2025-03-21,24.89754,121.79244,7.3579693e-09
C0O900,善化,2025-03-21,23.112883,120.297219,0.000108986256
C0K550,蔦松,2025-03-21,23.514319,120.229736,1.163278e-06
E2P980,林試六龜中心,2025-03-21,22.991703,120.645722,2.7743697e-08
C0E590,通霄,2025-03-21,24.471892,120.704622,2.3342922e-07
C1I310,西巒,2025-03-21,23.754486,120.883956,1.8687578e-09
C0A550,泰平,2025-03-21,24.971197,121.823711,6.222869e-09
C0I360,水里,2025-03-21,23.812553,120.849792,8.010312e-09
C0R830,高士,2025-03-21,22.121825,120.836781,0.9998941
C1I101,溪頭,2025-03-21,23.661789,120.807647,5.779678e-09
C0AJ20,野柳,2025-03-21,25.20703,121.690021,2.1862009e-08
C0B060,暖暖,2025-03-21,25.0957,121.7403,1.9622524e-08
C1H920,長豐,2025-03-21,24.102039,120.879897,2.2648186e-09
C0V360,內門,2025-03-21,22.975481,120.466769,0.007965676
C0R850,林邊,2025-03-21,22.4634,120.5339,0.00017480465
C0E930,龍鳳,2025-03-21,24.700034,120.859125,4.2961432e-07
C0U910,冬山,2025-03-21,24.63373,121.7937,6.1058842e-09
C1E721,泰安,2025-03-21,24.489017,120.968036,4.3149386e-09
82H320,茶改中部分場,2025-03-21,23.875611,120.913583,1.6921698e-09
C0M750,布袋,2025-03-21,23.380878,120.167789,1.1944562e-06
C1S860,利嘉,2025-03-21,22.809417,121.050528,2.4865733e-08
72C440,桃園農改,2025-03-21,24.950944,121.030583,6.029746e-08
E2S980,林試太麻里1,2025-03-21,22.598922,120.980044,0.0006023582
C0X170,關廟,2025-03-21,22.963017,120.327797,5.2301216e-06
C0V720,林園,2025-03-21,22.507747,120.394511,7.648932e-05
C1I510,線浸林道,2025-03-21,23.761508,120.832956,3.238768e-09
C0D690,外湖,2025-03-21,24.917735,120.968711,7.7674336e-08
C0C750,新興坑尾,2025-03-21,25.0061,121.0971,5.360585e-08
B2Q810,畜試南區分所,2025-03-21,21.945583,120.802167,0.99940944
C0S790,金崙,2025-03-21,22.538122,120.966875,2.2397398e-06
C0AH90,福山植物園,2025-03-21,24.760717,121.58135,6.6317947e-09
C0I540,奇萊稜線,2025-03-21,24.109231,121.326456,2.5351378e-08
C0M850,表湖,2025-03-21,23.24186,120.64166,1.4325366e-09
C0S770,大溪山,2025-03-21,22.478475,120.943325,7.7028425e-08
C0AG80,中和,2025-03-21,24.991622,121.491792,2.0113355e-08
C0T790,大禹嶺,2025-03-21,24.186117,121.316086,2.3147502e-08
C0T9B0,水源,2025-03-21,23.991861,121.537169,7.4922845e-08
C0R840,牡丹池山,2025-03-21,22.168389,120.841225,6.926495e-08
C1I131,桶頭,2025-03-21,23.641944,120.654117,5.639539e-09
CAL110,布袋國中,2025-03-21,23.35893,120.18026,3.2428206e-06
467571,新竹,2025-03-21,24.827853,121.014219,2.5676997e-07
C0Z290,赤柯山,2025-03-21,23.36893,121.38293,2.9358457e-08
C0X280,將軍,2025-03-21,23.214999,120.13577,1.9870022e-06
C0S690,太麻里,2025-03-21,22.60902,120.98533,3.0390017e-06
C0U880,北關,2025-03-21,24.9072,121.8734,2.139243e-08
C1H860,瑞岩,2025-03-21,24.123772,121.18345,5.673297e-09
C0G810,埔心,2025-03-21,23.947633,120.525456,2.0254666e-07
C0U970,大福,2025-03-21,24.80064,121.81389,6.9715957e-09
C2H9N0,仁愛東眼,2025-03-21,24.026875,121.1205,3.920547e-09
C1E670,南礦,2025-03-21,24.538278,121.002836,3.5581764e-09
C0M520,東後寮,2025-03-21,23.369908,120.248065,2.7339822e-06
C1E461,松安,2025-03-21,24.397972,120.986022,3.9892885e-09
72G600,臺中農改,2025-03-21,24.003028,120.534389,2.0178202e-07
C2N160,西拉雅風管處,2025-03-21,23.189481,120.335297,1.3429478e-06
C2M970,碧湖,2025-03-21,23.568632,120.624165,3.232128e-09
C0A640,石碇,2025-03-21,24.993969,121.662917,6.486354e-09
E2S960,林試太麻里2,2025-03-21,22.598,120.99775,0.03868599
C0F9Y0,桃山,2025-03-21,24.432739,121.303808,3.255163e-08
C1I020,萬大,2025-03-21,23.979817,121.132261,2.218426e-09
C0U940,羅東,2025-03-21,24.68184,121.74934,6.146758e-09
C0M650,朴子,2025-03-21,23.43463,120.23902,1.086291e-06
C1I500,大尖山,2025-03-21,23.858572,120.994889,6.402403e-09
C0G820,田尾,2025-03-21,23.901669,120.509389,2.0094858e-07
E2K600,四湖植物園,2025-03-21,23.676986,120.163433,2.6432867e-06
C0S730,綠島,2025-03-21,22.6672,121.47533,0.012457571
12Q970,東港工作站,2025-03-21,22.479997,120.466058,0.00022831393
C0E430,南庄,2025-03-21,24.601775,121.000214,3.810988e-08
C1TA00,太魯閣,2025-03-21,24.15773,121.6236,3.6863221e-07
466920,臺北,2025-03-21,25.037658,121.514853,2.2185963e-08
C0R600,舊泰武,2025-03-21,22.588194,120.664944,4.136384e-09
C1I260,北坑,2025-03-21,23.9246,121.006903,2.5041682e-09
466910,鞍部,2025-03-21,25.182586,121.529731,7.5652435e-09
C1I230,九份二山,2025-03-21,23.961944,120.845,1.6321714e-09
C2A660,瑞芳,2025-03-21,25.113169,121.801147,1.7450006e-08
C0R270,琉球嶼,2025-03-21,22.332244,120.362236,0.001441671
C1T990,高寮,2025-03-21,23.394239,121.356808,5.9439924e-05
C0G620,芬園,2025-03-21,24.015678,120.6213,3.677806e-08
C1Z140,荖溪,2025-03-21,23.890575,121.45964,3.677729e-08
C1I201,中心崙,2025-03-21,23.728722,120.712097,2.4336964e-09
C1I400,凌霄,2025-03-21,24.018778,121.004456,3.831123e-09
C1M640,十字,2025-03-21,23.492153,120.753683,4.262692e-09
G2P820,農試鳳山分所,2025-03-21,22.646611,120.356083,5.730051e-07
C0Z270,蕃薯寮,2025-03-21,23.73835,121.540108,9.841406e-07
C0F9Q0,外埔,2025-03-21,24.347817,120.705686,6.680816e-08
C0K580,高鐵雲林,2025-03-21,23.737456,120.417944,9.485705e-08
C2I090,鳳凰,2025-03-21,23.728081,120.787347,1.6645854e-09
C0U990,員山,2025-03-21,24.74435,121.72247,6.202724e-09
C0V770,大社,2025-03-21,22.730306,120.346639,5.529255e-07
C0X120,麻豆,2025-03-21,23.183289,120.248611,2.2077556e-06
C0C670,龍潭,2025-03-21,24.870056,121.221389,3.8927112e-08
C0D680,香山濕地,2025-03-21,24.783581,120.914988,3.4270994e-07
C0S980,勝林山,2025-03-21,22.430439,120.8938,2.0906004e-08
C0V730,大寮,2025-03-21,22.605614,120.395717,5.4651788e-05
C0R570,麟洛,2025-03-21,22.65078,120.52719,0.88350576
C2M930,石卓,2025-03-21,23.478744,120.702264,4.269234e-09
C0G9B0,和美,2025-03-21,24.105169,120.492131,2.0876362e-07
CAG100,王功漁港,2025-03-21,23.96824,120.32586,2.4684641e-06
C0X290,北門,2025-03-21,23.267772,120.125481,2.0377672e-06
C2F930,大甲,2025-03-21,24.347667,120.640403,1.3624332e-06
C0D650,湖口,2025-03-21,24.904794,121.043628,4.7633034e-08
C0E420,竹南,2025-03-21,24.708978,120.888897,2.7650307e-07
C0U780,五結,2025-03-21,24.68637,121.79794,6.330843e-09
C1I250,鯉潭,2025-03-21,23.961922,120.991131,2.2372673e-09
C0R130,阿禮,2025-03-21,22.742908,120.743678,1.3222045e-08
C0X100,臺南市北區,2025-03-21,23.010394,120.194228,0.00015192796
C0S920,金峰嘉蘭,2025-03-21,22.594789,120.960825,0.00058333663
C0V490,新興,2025-03-21,22.627422,120.298803,1.6594038e-06
C0F9K0,大安,2025-03-21,24.345061,120.588025,7.457954e-06
72N100,臺南農改,2025-03-21,23.0605,120.342194,1.1576335e-05
467290,古坑,2025-03-21,23.633639,120.551889,1.6163261e-08
C2E970,八甲,2025-03-21,24.535811,120.795983,6.1965544e-08
C0V440,鳳山,2025-03-21,22.646653,120.356122,5.730045e-07
C1T940,大觀,2025-03-21,23.714206,121.373133,1.6992952e-07
72T250,花蓮農改,2025-03-21,23.975222,121.563889,0.0006529008
C0E740,造橋,2025-03-21,24.637056,120.864778,2.729007e-07
C0R100,尾寮山,2025-03-21,22.833111,120.683889,1.4133735e-08
A2K630,臺大雲林校區,2025-03-21,23.730628,120.423903,9.223615e-08
C0D580,寶山,2025-03-21,24.735006,121.025192,5.681031e-08
E2P990,林試扇平站,2025-03-21,22.9677,120.6857,4.861503e-09
C0AI30,三重,2025-03-21,25.057328,121.500629,2.2435927e-08
C0AH00,汐止,2025-03-21,25.066881,121.658778,2.2185963e-08
C1Z040,立山,2025-03-21,23.443356,121.327375,2.2872291e-07
C0W130,花嶼,2025-03-21,23.40007,119.32276,0.9992269
C0A950,鼻頭角,2025-03-21,25.129036,121.923372,7.467329e-09
C0K470,林內,2025-03-21,23.748675,120.609642,1.6373514e-08
C2F990,摩天嶺,2025-03-21,24.322458,120.936819,1.8462287e-09
82C160,茶改場,2025-03-21,24.908472,121.185333,3.0488746e-08
C0Z320,清水林道,2025-03-21,23.27125,121.188272,5.6628778e-08
C0R760,南仁湖,2025-03-21,22.084681,120.863353,0.9999334
C0M670,大林,2025-03-21,23.600616,120.45841,5.586478e-07
C0M800,茶山,2025-03-21,23.299075,120.664767,2.9712897e-09
C0A9C0,天母,2025-03-21,25.117494,121.537169,2.2264684e-08
72K220,南改斗南分場,2025-03-21,23.634556,120.477333,5.713806e-08
72AI40,桃改樹林分場,2025-03-21,24.944503,121.386972,2.0447402e-08
C0S910,蘭嶼燈塔,2025-03-21,22.081197,121.503117,0.99989265
C0B050,八斗子,2025-03-21,25.144754,121.79167,2.197568e-08
C0U900,內城,2025-03-21,24.71813,121.68766,5.9973067e-09
C0X320,柳營,2025-03-21,23.253328,120.375253,5.2959956e-07
C0M790,新港,2025-03-21,23.553269,120.345728,1.1367404e-06
C0F9T0,西屯,2025-03-21,24.179494,120.641275,8.5801025e-07
C0SA30,都歷,2025-03-21,23.020333,121.323642,0.0084734205
C0C620,蘆竹,2025-03-21,25.084275,121.265767,2.201982e-08
C0R730,大坪頂,2025-03-21,22.024633,120.69355,0.9999201
C0AJ40,石門,2025-03-21,25.273672,121.601198,1.6346428e-08
C0E750,苗栗,2025-03-21,24.564569,120.824575,1.7384916e-07
C0T870,鯉魚潭,2025-03-21,23.935639,121.508944,4.402797e-05
C1V170,排雲,2025-03-21,23.463619,120.954147,3.30903e-08
C2H950,中寮,2025-03-21,23.884447,120.766406,2.5824687e-07
C0R350,貓鼻頭,2025-03-21,21.921774,120.7358,0.9993106
C0V660,岡山,2025-03-21,22.797078,120.294958,3.956174e-07
C1H941,雙冬,2025-03-21,23.967378,120.802189,2.4359068e-09
C0AJ70,田寮,2025-03-21,25.2698,121.4886,2.1530543e-08
C0AI00,五股,2025-03-21,25.07445,121.42728,3.120355e-08
C0Z280,德武,2025-03-21,23.47426,121.41071,7.943271e-06
C0R700,枋山,2025-03-21,22.246844,120.661086,0.0041602342
C0C460,復興,2025-03-21,24.820208,121.352281,5.5958758e-09
E2H360,蓮華池,2025-03-21,23.918333,120.885278,2.2773894e-09
C0M640,中埔,2025-03-21,23.42538,120.5229,7.918152e-09
C0W140,金沙,2025-03-21,24.488292,118.408778,1.4781624e-07
C2A540,四堵,2025-03-21,24.8926,121.745736,6.0357612e-09
C0ACA0,新莊,2025-03-21,25.051478,121.446756,2.186668e-08
C0R220,潮州,2025-03-21,22.534361,120.54,4.109599e-05
U2HA40,臺大內茅埔,2025-03-21,23.689722,120.851117,3.2779583e-09
467490,臺中,2025-03-21,24.145736,120.684075,1.056595e-06
C0U960,翠峰湖,2025-03-21,24.510856,121.608044,1.454486e-08
E2HA20,林試畢祿溪站,2025-03-21,24.226944,121.308522,1.4658154e-08
C0V890,前鎮,2025-03-21,22.5718,120.3117,2.0575724e-06
467620,蘭嶼,2025-03-21,22.036969,121.558339,0.9999465
C1F941,雪嶺,2025-03-21,24.280586,121.026642,2.0839877e-08
C2H9E0,國姓南港,2025-03-21,23.911108,120.846556,2.1262248e-09
C0AC80,文山,2025-03-21,25.00235,121.575728,1.8293065e-08
C0F9R0,龍井,2025-03-21,24.184536,120.528972,1.4669165e-05
C0M760,民雄,2025-03-21,23.551754,120.428457,5.855746e-07
C0UA40,西德山,2025-03-21,24.560647,121.752608,7.52304e-09
C1T920,中興,2025-03-21,23.769503,121.498653,0.00013918131
C0D550,雪霸,2025-03-21,24.526972,121.11605,9.682205e-09
C2F860,梨山,2025-03-21,24.247522,121.243669,1.507996e-08
C0R320,車城,2025-03-21,22.0744,120.716247,0.99908614
C1S870,南美山,2025-03-21,23.15025,121.382333,4.8341677e-05
C0B020,基隆嶼,2025-03-21,25.19141,121.78391,1.7468587e-08
C1U501,牛鬥,2025-03-21,24.637836,121.573656,5.8273866e-09
C0M730,嘉義市東區,2025-03-21,23.457673,120.460531,3.4667926e-07
C0S700,知本,2025-03-21,22.684866,121.005642,3.2484085e-08
C1N001,沙崙,2025-03-21,22.935472,120.309406,1.410773e-05
C0V760,橋頭,2025-03-21,22.757806,120.30575,7.221914e-07
C0G960,福寶,2025-03-21,24.0443,120.3814,2.6469243e-07
C0X210,白河,2025-03-21,23.347466,120.414427,3.0177057e-07
C0S810,東河,2025-03-21,22.972672,121.303986,0.01864998
C2R170,屏東,2025-03-21,22.66027,120.49403,0.8945876
C0R670,楓港,2025-03-21,22.190131,120.692156,1.0430231e-05
C0FA50,霧峰,2025-03-21,24.0419,120.6995,1.0777449e-06
C0UB10,蘇澳,2025-03-21,24.5969,121.8571,1.3506026e-06
C0G950,防潮門,2025-03-21,24.1835,120.4871,1.6763031e-05
C0M740,六腳,2025-03-21,23.492871,120.290625,1.1769713e-06
C1R250,力里,2025-03-21,22.428117,120.629228,4.8937786e-06
C0K330,虎尾,2025-03-21,23.719183,120.442036,7.847115e-08
C2FA00,烏石坑,2025-03-21,24.273503,120.947617,1.8217879e-09
C0V620,永安,2025-03-21,22.82315,120.236856,4.645752e-07
C1I330,楓樹林,2025-03-21,23.986803,121.076117,3.7914396e-09
C0W200,湖西,2025-03-21,23.596314,119.67275,0.9991654
72Q010,高雄農改場,2025-03-21,22.709333,120.525889,0.84129786
C0SA40,瑞和,2025-03-21,22.974361,121.156697,0.00012799818
C0C680,龜山,2025-03-21,25.02846,121.38656,6.0226633e-09
C2V260,月眉,2025-03-21,22.971003,120.539853,0.00027187014
C0V450,鳳森,2025-03-21,22.545064,120.392592,5.9254826e-06
C0U720,南山,2025-03-21,24.43742,121.38167,7.3734654e-09
A2N290,臺南蘭花園區,2025-03-21,23.340258,120.379661,6.0593413e-07
C0R560,新園,2025-03-21,22.5434,120.461558,7.648932e-05
C0U890,三星,2025-03-21,24.66812,121.65302,6.1552052e-09
C1V300,御油山,2025-03-21,23.001983,120.715364,6.0708722e-09
C0U600,礁溪,2025-03-21,24.817539,121.765608,7.5097075e-09
C1T980,龍澗,2025-03-21,24.023289,121.411328,2.8923647e-08
C0D670,海天一線,2025-03-21,24.831986,120.914438,5.1883046e-07
C0SA00,歷坵,2025-03-21,22.520969,120.89185,4.9540155e-08
C0M710,東石,2025-03-21,23.458927,120.15385,1.4811839e-06
C0M780,鹿草,2025-03-21,23.41134,120.30835,8.5212594e-07
C0U520,雙連埤,2025-03-21,24.753033,121.641303,7.0357293e-09
C0B010,七堵,2025-03-21,25.094819,121.71713,2.2211495e-08
C0R480,長治,2025-03-21,22.693128,120.542622,0.76766086
C1V830,國三S383K,2025-03-21,22.781967,120.426475,0.00063922675
12Q980,恆春工作站,2025-03-21,22.079678,120.714425,0.9990933
C1O940,東山服務區,2025-03-21,23.286016,120.398472,3.1994597e-07
C1U840,東澳嶺,2025-03-21,24.5378,121.8485,5.9820096e-09
C1D630,飛鳳山,2025-03-21,24.766464,121.119178,5.8669785e-09
C0S940,石寧山,2025-03-21,23.223772,121.406639,0.0010691818
C0K410,北港,2025-03-21,23.573957,120.292802,8.788518e-07
C2M620,瑞里,2025-03-21,23.545133,120.675197,3.3888112e-09
C0SB70,小港漁港,2025-03-21,23.158558,121.400431,0.20484379
C2O950,安南,2025-03-21,23.076694,120.144861,0.00025737277
C0F0E0,南湖圈谷,2025-03-21,24.363714,121.444667,4.1489574e-08
467610,成功,2025-03-21,23.097486,121.373428,0.09859321
C0G890,伸港,2025-03-21,24.148933,120.484403,1.2820993e-05
C2E540,龍溪,2025-03-21,24.606489,120.783933,9.078362e-06
C1V200,梅山,2025-03-21,23.268447,120.823556,1.538527e-09
C0T9H0,加路蘭山,2025-03-21,23.682947,121.5274,5.026821e-08
C2O930,玉井,2025-03-21,23.126042,120.46055,2.566889e-07
C1F911,新伯公,2025-03-21,24.221361,120.841069,7.673014e-09
C0R490,九如,2025-03-21,22.7405,120.490503,0.895707
C0X200,左鎮,2025-03-21,23.056758,120.408522,1.6221593e-07
C0SB50,叭嗡嗡,2025-03-21,23.047062,121.343223,0.19425572
C1F891,稍來,2025-03-21,24.265689,121.001142,1.43421595e-08
72N240,七股研究中心,2025-03-21,23.081672,120.062894,2.5593536e-06
C0C700,中壢,2025-03-21,24.977661,121.256375,3.6968586e-08
C0M690,水上,2025-03-21,23.419734,120.388909,6.403267e-07
C0V690,鼓山,2025-03-21,22.623325,120.275575,1.7304619e-06
C0O860,大內,2025-03-21,23.11885,120.36083,1.7374025e-05
C0Z200,萬榮,2025-03-21,23.709219,121.420106,2.6225383e-05
C0T9D0,和中,2025-03-21,24.26676,121.74103,1.9442807e-06
C1O921,楠西,2025-03-21,23.183511,120.484083,1.2715e-07
C0AJ30,淡水觀海,2025-03-21,25.184591,121.408616,2.3171886e-08
C0V810,左營,2025-03-21,22.67491,120.28491,1.2809621e-06
C0UA70,桃源谷,2025-03-21,24.962606,121.888875,7.89773e-09
C0X130,官田,2025-03-21,23.193217,120.315422,1.4914518e-06
C1H000,翠峰,2025-03-21,24.109397,121.205211,1.6940438e-08
C0UA90,石城,2025-03-21,24.980444,121.951214,7.605711e-09
C1E681,南勢山,2025-03-21,24.421669,120.923831,5.874055e-09
C0A9F0,內湖,2025-03-21,25.079422,121.57545,2.2185963e-08
C0K291,宜梧,2025-03-21,23.536281,120.169329,1.2145779e-06
C1K540,口湖,2025-03-21,23.585344,120.180517,4.845809e-06
C0R780,滿州,2025-03-21,22.024403,120.839892,0.9997077
C0V870,文安,2025-03-21,22.8025,120.2164,5.7421676e-07
C0U650,玉蘭,2025-03-21,24.675286,121.587061,6.675056e-09
C0R640,東港,2025-03-21,22.46247,120.44074,0.00025836434
K2E360,苗栗農改,2025-03-21,24.495722,120.829111,9.1819274e-08
C0AJ80,板橋,2025-03-21,25.0107,121.4489,2.0457389e-08
C0S660,下馬,2025-03-21,23.150427,121.070312,3.944619e-08
C1H9B1,阿眉,2025-03-21,24.1263,120.994672,8.043321e-09
C0UA20,多加屯,2025-03-21,24.368614,121.373189,2.1856088e-08
C0E730,頭份,2025-03-21,24.688247,120.912206,2.792493e-07
72V140,高改旗南分場,2025-03-21,22.857861,120.516667,0.8060091
C0K480,莿桐,2025-03-21,23.761192,120.502372,5.211179e-08
C0U980,坪林石牌,2025-03-21,24.86478,121.77396,7.639616e-09
C0T900,西林,2025-03-21,23.8119,121.441458,1.1450571e-05
C1I150,青雲,2025-03-21,23.793361,120.949378,3.6244403e-09
467350,澎湖,2025-03-21,23.565503,119.563094,0.99931544
C0G800,埔鹽,2025-03-21,24.000394,120.431683,1.8675601e-07
C0H960,草屯,2025-03-21,23.973672,120.68085,7.693561e-07
C1V780,多納林道,2025-03-21,22.888028,120.737917,1.9662003e-09
C0E920,通霄漁港,2025-03-21,24.498589,120.673876,3.400542e-05
C0Z330,安通山,2025-03-21,23.290728,121.348528,2.5038167e-07
C0AH10,永和,2025-03-21,25.01125,121.508111,2.0481595e-08
C0AK10,太平里,2025-03-21,25.134937,121.364899,2.1670662e-08
C2G640,鹿港,2025-03-21,24.0753,120.430481,2.5356874e-07
C1E890,國三N149K,2025-03-21,24.463414,120.680019,1.6210768e-07
C1R110,口社,2025-03-21,22.770111,120.645222,0.00036469247
C1M870,國三N285K,2025-03-21,23.550319,120.505833,1.1346188e-08
467050,新屋,2025-03-21,25.006744,121.047486,6.569253e-08
C1E480,鳳美,2025-03-21,24.554803,121.034747,5.696284e-09
C0M530,奮起湖,2025-03-21,23.493903,120.699253,3.7197732e-09
C0C590,觀音,2025-03-21,25.027072,121.153317,4.8162356e-08
C0T9M0,靜浦,2025-03-21,23.455167,121.495028,9.643336e-05
C2H9M0,發祥,2025-03-21,24.154094,121.164517,4.0205155e-09
C0AI40,石牌,2025-03-21,25.115597,121.513139,2.2445859e-08
C1F871,上谷關,2025-03-21,24.203483,121.018644,1.8699844e-09
C2H9G0,百勝,2025-03-21,24.051142,120.909361,6.288193e-09
C0G880,二水,2025-03-21,23.810742,120.6173,1.5952635e-08
C0R940,加祿堂,2025-03-21,22.3363,120.6217,2.3383314e-05
C0W220,北竿,2025-03-21,26.220358,119.974881,1.6856573e-08
C0O960,崎頂,2025-03-21,22.959547,120.369317,3.3402767e-07
C0S750,向陽,2025-03-21,23.248397,120.986133,1.0547809e-08
C0T9F0,水璉,2025-03-21,23.797131,121.542514,2.1601043e-06
C1M600,頭凍,2025-03-21,23.406364,120.603339,3.0186047e-09
467660,臺東,2025-03-21,22.752211,121.154586,0.058980577
C1D380,新埔,2025-03-21,24.84745,121.03834,9.027789e-08
C2G980,田頭村,2025-03-21,23.8263,120.444175,1.08712875e-07
C0V750,路竹,2025-03-21,22.854997,120.259439,2.5439422e-07
C0N050,蚵寮,2025-03-21,23.301,120.1104,2.6017678e-06
72M700,南改鹿草分場,2025-03-21,23.416869,120.283061,1.0573945e-06
C1SA50,利嘉林道,2025-03-21,22.82325,121.009389,2.575295e-09
467550,玉山,2025-03-21,23.487614,120.959522,3.6867892e-08
C0A940,金山,2025-03-21,25.223628,121.643967,2.0762393e-08
C1V340,大津,2025-03-21,22.888322,120.645986,1.7688937e-05
C0W180,七美,2025-03-21,23.219333,119.444892,0.9994775
C1F9C1,白冷,2025-03-21,24.182844,120.929889,4.9967075e-09
K2E710,苗改生物防治研究中心,2025-03-21,24.422861,120.871833,2.8911346e-08
C0N040,蘆竹溝,2025-03-21,23.2344,120.0961,2.0443501e-06
C2W230,畜試所澎湖,2025-03-21,23.628342,119.513206,0.99850214
C0R880,後壁湖,2025-03-21,21.9457,120.7457,0.998796
C1I280,埔中,2025-03-21,23.820778,120.642594,4.1962207e-09
467790,墾丁雷達站,2025-03-21,21.948235,120.808028,0.9997064
C0W190,望安,2025-03-21,23.380564,119.494075,0.99921006
466881,新北,2025-03-21,24.9593,121.52,1.9355372e-08
C0Z170,卓溪,2025-03-21,23.3443,121.3029,0.00013052276
C0F850,東勢,2025-03-21,24.246428,120.833047,9.2089865e-09
466900,淡水,2025-03-21,25.164889,121.448906,2.15404e-08
C0I370,魚池,2025-03-21,23.895703,120.94135,2.307489e-09
C0C630,大溪,2025-03-21,24.882853,121.265547,2.8448193e-08
C0A520,山佳,2025-03-21,24.974944,121.402008,1.9302027e-08
C0I110,竹山,2025-03-21,23.761225,120.688156,7.2813098e-09
82H840,茶改南部分場,2025-03-21,23.762528,120.7405,3.3621763e-09
C0G660,溪湖,2025-03-21,23.94835,120.479122,2.4097417e-07
C1T800,洛韶,2025-03-21,24.204558,121.453956,7.9715985e-09
C1T810,慈恩,2025-03-21,24.192044,121.388386,1.2625061e-08
C1E451,象鼻,2025-03-21,24.368617,120.940228,5.876229e-09
C0AC60,三峽,2025-03-21,24.939025,121.369728,5.460373e-08
C0I490,萬大林道,2025-03-21,23.928228,121.091411,4.4259174e-09
C1I290,豐丘,2025-03-21,23.668178,120.887417,3.2822751e-09
C1I320,奧萬大,2025-03-21,23.952956,121.178556,3.6566314e-09
C2M910,嘉義大學,2025-03-21,23.471325,120.485903,2.0083185e-08
C0U770,南澳,2025-03-21,24.44935,121.81022,1.5732692e-06
C0A980,社子,2025-03-21,25.109508,121.469681,2.2446372e-08
C0V800,六龜,2025-03-21,22.997889,120.633583,3.5401783e-08
C1G9D0,國一S218K,2025-03-21,23.890641,120.493253,2.5639045e-07
C0E570,白沙屯,2025-03-21,24.549447,120.696803,3.1228137e-05
C2F9A0,中竹林,2025-03-21,24.103556,120.751061,3.2352734e-09
C0FA40,臺中電廠,2025-03-21,24.2146,120.4907,1.4159689e-05
C2G9A0,畜試所彰化,2025-03-21,23.86045,120.557964,5.8264117e-08
C0H9C0,合歡山,2025-03-21,24.143442,121.272547,3.3922472e-08
C0X060,下營,2025-03-21,23.22695,120.256261,3.2266344e-06
G2M350,農試溪口農場,2025-03-21,23.58565,120.408111,8.348916e-07
C0U860,頭城,2025-03-21,24.85323,121.8308,7.689188e-09
C0R580,南州,2025-03-21,22.48591,120.50274,0.0002583646
C0D430,峨眉,2025-03-21,24.6905,121.017189,7.987735e-08
C0G780,秀水,2025-03-21,24.03405,120.503869,2.141311e-07
72N100,臺南農改場,2025-03-21,23.0605,120.342194,1.1576335e-05
C0S900,蘭嶼高中,2025-03-21,22.04909,121.51214,0.99949443
467540,大武,2025-03-21,22.355675,120.903789,0.013735498
C1F9W0,德基,2025-03-21,24.254783,121.190261,6.866811e-09
C1Z120,壽豐,2025-03-21,23.870853,121.508081,0.00047305666
C0W160,烏坵,2025-03-21,24.9944,119.44956,1.3697701e-05
C1I240,外大坪,2025-03-21,23.958697,120.917931,2.251123e-09
C1I550,國六W023K,2025-03-21,23.979067,120.867742,3.9507464e-09
C0R870,興海,2025-03-21,21.9752,120.8439,0.9994215
C0R140,瑪家,2025-03-21,22.682903,120.686639,4.6552677e-09
C0A530,坪林,2025-03-21,24.938183,121.70975,6.5760952e-09
C0X260,後壁,2025-03-21,23.366358,120.362326,1.6203177e-06
C0Z230,和平,2025-03-21,24.30717,121.77007,2.0380237e-06
C0G770,福興,2025-03-21,24.041289,120.437669,2.1243778e-07
C0H9A0,神木村,2025-03-21,23.532742,120.843667,5.2641433e-09
C0I460,南投,2025-03-21,23.911469,120.687331,8.4957645e-07
C0I480,梅峰,2025-03-21,24.085272,121.173572,1.3301978e-08
C1V570,吉東,2025-03-21,22.85422,120.5454,0.48185682
C2D740,屯原,2025-03-21,24.067969,121.209389,7.183123e-09
C2A560,福山,2025-03-21,24.776203,121.502811,5.8414416e-09
C0AH30,五分山,2025-03-21,25.07125,121.780794,5.7908007e-09
C0FA10,松柏,2025-03-21,24.429115,120.617482,1.9095327e-05
72S200,東改班鳩分場,2025-03-21,22.829528,121.077694,1.6064261e-05
72HA00,中改埔里分場,2025-03-21,23.903208,120.963364,2.347285e-09
C2H9W0,大坪頂農水,2025-03-21,24.043122,120.932781,2.2582145e-09
C0C650,平鎮,2025-03-21,24.897503,121.214636,2.9041281e-08
C0S930,延平,2025-03-21,22.902581,121.084058,3.003402e-05
C0UA60,樟樹山,2025-03-21,24.41393,121.78325,7.4022397e-09
C1S670,摩天,2025-03-21,23.199503,121.027,6.58571e-09
C0V630,茄萣,2025-03-21,22.906642,120.182608,0.00021287984
466940,基隆,2025-03-21,25.133314,121.740475,2.1688773e-08
C0X050,東河,2025-03-21,23.296598,120.385608,4.6487526e-07
C0R770,保力,2025-03-21,22.071122,120.764111,0.99981683
G2L020,農試嘉義分所,2025-03-21,23.485028,120.473806,1.9562023e-08
C0X240,關子嶺,2025-03-21,23.331169,120.508025,3.6897911e-09
C0I380,集集,2025-03-21,23.828206,120.801467,9.7545705e-09
466990,花蓮,2025-03-21,23.975128,121.613275,0.0011173615
C1V220,小關山,2025-03-21,23.154217,120.813603,7.244848e-09
C1F9G1,慶福山,2025-03-21,24.180853,120.848378,5.3238596e-09
C0Z250,瑞穗林道,2025-03-21,23.49284,121.30688,3.1738052e-09
C0D590,新豐,2025-03-21,24.87068,120.97721,7.4496775e-08
C0A870,五指山,2025-03-21,25.132153,121.608692,6.73704e-09
C0UA50,西帽山,2025-03-21,24.555361,121.802628,5.9398513e-09
C0X160,仁德,2025-03-21,22.968258,120.257689,9.261867e-05
C1H971,六分寮,2025-03-21,23.92507,120.6378,2.9505296e-09
C0W120,西嶼,2025-03-21,23.5626,119.468436,0.99930114
C0G650,員林,2025-03-21,23.946503,120.585597,1.7378616e-07
C0AD50,鶯歌,2025-03-21,24.951533,121.346294,5.034305e-08
C2H9Q0,北東眼山,2025-03-21,24.120939,121.189303,7.3397053e-09
C2H9T0,名間竹圍,2025-03-21,23.859914,120.637572,5.367345e-09
C0S990,山豬窟,2025-03-21,22.318619,120.857372,7.595769e-08
72Q010,高雄農改,2025-03-21,22.709333,120.525889,0.84129786
C0X190,安平,2025-03-21,22.993161,120.152181,0.00014581489
C0K400,斗六,2025-03-21,23.720583,120.541127,4.022044e-08
12J990,口湖工作站,2025-03-21,23.589978,120.180394,4.6888345e-06
C0O830,北寮,2025-03-21,23.079561,120.495008,3.2780517e-05
C1D410,白蘭,2025-03-21,24.579364,121.079947,3.905702e-09
C0S970,加津林,2025-03-21,22.416211,120.926942,0.0061813476
C0D700,關西,2025-03-21,24.7977,121.1732,3.121915e-08
C0M810,里佳,2025-03-21,23.389125,120.716647,3.7146117e-09
C0U750,龜山島,2025-03-21,24.841667,121.953133,3.8953107e-08
C0R810,內獅,2025-03-21,22.305064,120.642986,2.5555766e-05
C1M390,龍美,2025-03-21,23.406728,120.654417,3.1265732e-09
C2FB60,頭櫃山,2025-03-21,24.129842,120.858925,2.102167e-09
C1H840,國三N238K,2025-03-21,23.841008,120.707711,8.586339e-09
CAQ030,崎峰國小,2025-03-21,22.42565,120.49521,0.0002583646
C2E520,大湖,2025-03-21,24.414939,120.870872,1.15408785e-08
467530,阿里山,2025-03-21,23.508208,120.813242,1.3066683e-08
C1E691,南湖,2025-03-21,24.40135,120.837533,5.1085514e-09
C0FA30,梧棲,2025-03-21,24.256003,120.523381,1.1693505e-05
C1V231,高中,2025-03-21,23.134911,120.716711,1.4555566e-09
C0F9V0,新社,2025-03-21,24.200172,120.815806,5.688835e-09
C0H890,埔里,2025-03-21,23.972169,120.952425,6.6626034e-09
C0R690,墾丁,2025-03-21,21.966756,120.810269,0.9999515
C0F0D0,審馬陣,2025-03-21,24.381675,121.4203,3.3108545e-08
C0R820,白鷺,2025-03-21,22.454275,120.666219,1.9499218e-08
U2H480,臺大溪頭,2025-03-21,23.670306,120.798194,2.2553692e-09
C1V190,南天池,2025-03-21,23.27403,120.91176,1.2944365e-08
K2E360,苗栗農改場,2025-03-21,24.495722,120.829111,9.1819274e-08
CAJ050,海口故事園區,2025-03-21,23.57543,120.14121,4.8163597e-06
C2H9D0,三隻寮,2025-03-21,24.093078,120.861578,2.2636784e-09
C0O990,媽廟,2025-03-21,22.99175,120.293525,3.2721797e-05
C0D480,打鐵坑,2025-03-21,24.849664,121.150789,3.8591335e-08
C0Z220,和平林道,2025-03-21,24.343922,121.656317,1.7951978e-08
C0TA10,花蓮漁港,2025-03-21,23.995322,121.638331,0.0016515402
72C440,桃園農改場,2025-03-21,24.950944,121.030583,6.029746e-08
C1E711,馬拉邦山,2025-03-21,24.367306,120.901656,1.7898256e-09
C0SB20,富岡,2025-03-21,22.792467,121.192669,0.04810227
C0D560,竹東,2025-03-21,24.767147,121.057881,6.231507e-08
C0F9U0,南屯,2025-03-21,24.137006,120.637969,8.652399e-08
C0M720,番路,2025-03-21,23.464657,120.554156,1.7034141e-08
C0F0A0,雪山圈谷,2025-03-21,24.388594,121.236339,4.0131088e-08
C1A9N0,四十份,2025-03-21,24.934158,121.593283,5.7863625e-09
C0U760,東澳,2025-03-21,24.52196,121.83318,1.236929e-06
C0X230,鹽水,2025-03-21,23.272621,120.247641,2.1345923e-06
C2H9H0,苗改南投蜂場,2025-03-21,23.852589,120.693481,6.7907986e-09
C0R950,萬隆國小,2025-03-21,22.507667,120.587817,8.839373e-06
C0V370,古亭坑,2025-03-21,22.893178,120.401947,7.730631e-08
C1I340,新興橋,2025-03-21,23.563333,120.868728,2.299778e-09
C0SA80,土坂,2025-03-21,22.453108,120.887572,3.7890586e-05
C0R160,鹽埔,2025-03-21,22.739558,120.530778,0.7621294
C0AC40,大屯山,2025-03-21,25.175675,121.522408,9.172594e-09
466850,五分山雷達站,2025-03-21,25.071182,121.781205,5.8738645e-09
C2H9L0,馬烈霸,2025-03-21,24.1512,121.201772,7.236396e-09
C1AI50,國三N016K,2025-03-21,25.034164,121.619664,2.0153868e-08
C1V600,藤枝,2025-03-21,23.071961,120.757042,6.5760073e-09
C1E601,南勢,2025-03-21,24.572486,120.734842,1.11956254e-07
C0Z180,新城,2025-03-21,24.03946,121.60454,0.0009154746
C0O980,新市,2025-03-21,23.061614,120.298197,8.5875436e-05
C0K420,西螺,2025-03-21,23.800407,120.467394,7.6040315e-08
C0Z050,佳心,2025-03-21,23.34567,121.21316,3.492087e-08
C0AD30,蘆洲,2025-03-21,25.086594,121.472331,2.2436826e-08
C0V610,梓官,2025-03-21,22.760558,120.267211,7.496965e-07
K2F750,種苗改良場,2025-03-21,24.225972,120.800917,6.5770362e-09
C0UA80,大溪漁港,2025-03-21,24.941801,121.902955,7.748342e-09
C1AI60,國一39K邊坡,2025-03-21,25.064361,121.383836,6.1455623e-09
C0W150,金寧,2025-03-21,24.457703,118.328989,1.3112052e-07
C0R960,內埔,2025-03-21,22.608483,120.570714,3.640129e-05
V2C250,八德合作社,2025-03-21,24.93775,121.266389,3.6071526e-08
C2H9S0,龍南,2025-03-21,23.953536,120.833183,1.9044566e-09
C0AH40,平等,2025-03-21,25.129142,121.577086,5.8965504e-09
C0R540,佳冬,2025-03-21,22.419456,120.552375,0.00022251774
466950,彭佳嶼,2025-03-21,25.627975,122.079744,1.9634135e-07
C0A890,雙溪,2025-03-21,25.036003,121.864242,1.8026881e-08
C0C480,桃園,2025-03-21,24.992425,121.323172,4.1603048e-08
C0AH50,林口,2025-03-21,25.072181,121.38084,6.047308e-09
A2K360,水試臺西試驗場,2025-03-21,23.717231,120.190522,3.4997863e-06
B2N890,畜試所,2025-03-21,23.058972,120.336406,1.5672727e-05
C2M960,外寮,2025-03-21,23.562643,120.665688,3.2498135e-09
C0F9S0,烏日,2025-03-21,24.107058,120.624103,1.2368072e-07
C0C490,八德,2025-03-21,24.928708,121.283289,3.4622687e-08
C0R190,赤山,2025-03-21,22.592333,120.614306,2.5157313e-05
C0T820,天祥,2025-03-21,24.179597,121.495639,2.0895321e-08
C1F9E1,龍安,2025-03-21,24.1605,120.831961,5.522028e-09
C0V820,小林,2025-03-21,23.148408,120.63325,2.6699472e-09
C2G870,芳苑,2025-03-21,23.922303,120.320025,2.344417e-06
C0E850,大河,2025-03-21,24.618069,120.948578,1.0942309e-07
C1U670,寒溪,2025-03-21,24.634,121.71691,5.6688836e-09
C0N020,城西,2025-03-21,23.0568,120.0956,3.0911008e-06
C1Z110,三棧,2025-03-21,24.11557,121.60501,5.663623e-08
C0R280,檳榔,2025-03-21,22.076078,120.836777,0.99994373
C2H9J0,中台,2025-03-21,23.9996,120.938739,2.7298819e-09
C0F9L0,后里,2025-03-21,24.310436,120.729725,1.0326724e-08
C0D540,橫山,2025-03-21,24.71116,121.11693,3.792519e-08
C1D420,太閣南,2025-03-21,24.632808,121.160575,6.9386434e-09
C1E770,公館,2025-03-21,24.526914,120.830806,1.3350672e-07
CAN130,水試所海水繁養殖中心,2025-03-21,23.120802,120.07968,2.3320767e-06
C1I430,翠華,2025-03-21,24.191961,121.224339,1.7055696e-08
C1M400,菜瓜坪,2025-03-21,23.251928,120.576103,2.982134e-09
C0G730,二林,2025-03-21,23.903325,120.376081,2.1016093e-07
72M360,南改義竹分場,2025-03-21,23.360694,120.279361,2.4373733e-06
V2K620,麥寮合作社,2025-03-21,23.753836,120.294783,8.519683e-07
C0Z070,舞鶴,2025-03-21,23.46811,121.37407,3.3748079e-06
C0B040,大武崙,2025-03-21,25.166676,121.706993,2.0140149e-08
C1Z030,紅葉,2025-03-21,23.493119,121.338806,7.3083716e-06
C1I050,丹大,2025-03-21,23.753747,121.141147,1.4347084e-08
C0I080,信義,2025-03-21,23.689694,120.851036,3.2779583e-09
C2M920,朴子農改,2025-03-21,23.469889,120.259383,1.198467e-06
C2A880,福隆,2025-03-21,25.017842,121.942083,7.706528e-09
C0Z160,鳳林,2025-03-21,23.746114,121.453411,6.021044e-05
C0V210,復興,2025-03-21,23.222403,120.806089,1.4075914e-09
C0H990,昆陽,2025-03-21,24.121322,121.273642,2.755054e-08
C0R741,獅子,2025-03-21,22.202308,120.705236,1.7317348e-06
C0S710,鹿野,2025-03-21,22.917711,121.122994,1.2305778e-06
C0I530,小奇萊,2025-03-21,24.131764,121.295717,2.865076e-08
C2K630,荷苞,2025-03-21,23.657717,120.595144,7.55623e-09
C0Z080,富源,2025-03-21,23.587642,121.378225,1.1291771e-06
467441,高雄,2025-03-21,22.7304,120.3125,5.9738545e-07
C0SB10,美和,2025-03-21,22.682078,121.060236,0.24891502
C2K620,馬光農場,2025-03-21,23.721453,120.378864,1.2582564e-07
C1I140,卡奈托灣,2025-03-21,23.754364,121.087872,5.136103e-09
C0I520,玉山風口,2025-03-21,23.470489,120.955994,3.839618e-08
C1G691,下水埔,2025-03-21,23.816114,120.5676,3.5710283e-08
C0X110,臺南市南區,2025-03-21,22.961189,120.188378,0.000128204
C0V680,仁武,2025-03-21,22.701083,120.347722,1.1690444e-06
C2G840,北斗,2025-03-21,23.877586,120.514222,2.4479695e-07
C0R900,竹坑,2025-03-21,22.1385,120.7022,0.0002492095
C0K250,崙背,2025-03-21,23.75555,120.318925,8.213687e-07
C0G860,社頭,2025-03-21,23.897647,120.5862,1.8550318e-07
C0X150,安定,2025-03-21,23.102614,120.227839,0.00012661408
C0R590,里港,2025-03-21,22.77919,120.49459,0.8262505
C0E610,馬都安,2025-03-21,24.451272,120.930192,5.2989377e-09
C0E550,明德,2025-03-21,24.583486,120.885411,1.4543646e-07
C0R150,三地門,2025-03-21,22.709889,120.639944,0.00078710064
C0G910,花壇,2025-03-21,24.032076,120.549461,1.5855828e-07
C1D400,鳥嘴山,2025-03-21,24.71909,121.28387,5.528351e-09
C0K500,元長,2025-03-21,23.64981,120.315024,7.757941e-07
C0F0B0,石岡,2025-03-21,24.276061,120.777644,6.7361143e-09
C2V250,甲仙,2025-03-21,23.080106,120.591758,1.4370199e-08
C0SA20,金崙山,2025-03-21,22.567419,120.959667,1.75869e-08
C0V350,溪埔,2025-03-21,22.738578,120.446797,0.89539886
C0M660,溪口,2025-03-21,23.604131,120.403569,8.276845e-07
C1S880,壽卡,2025-03-21,22.238911,120.858903,4.8274927e-08
72D680,桃改新埔分場,2025-03-21,24.834444,121.066111,9.7334976e-08
