站號,站名,日期,lat,lon,BLBTSLS
C0K280,四湖,2025-10-04,23.630414,120.227125,0.57598877
A2K570,古坑花卉中心,2025-10-04,23.63353,120.55239,0.053463303
C0E430,南庄,2025-10-04,24.601775,121.000214,0.017374868
C0E420,竹南,2025-10-04,24.708978,120.888897,0.8483064
C0M530,奮起湖,2025-10-04,23.493903,120.699253,6.9059656e-09
C0C590,觀音,2025-10-04,25.027072,121.153317,0.05460291
C0X060,下營,2025-10-04,23.22695,120.256261,0.13315906
C2D740,屯原,2025-10-04,24.067969,121.209389,1.13593535e-08
C0M810,里佳,2025-10-04,23.389125,120.716647,4.2172266e-09
C0K250,崙背,2025-10-04,23.75555,120.318925,0.60201484
