站號,站名,日期,lat,lon,BlastGRU-TW
C0K280,四湖,2025-11-27,23.630414,120.227125,0.81780326
CAH030,茶改場竹圍站,2025-11-27,23.860083,120.637528,0.32129875
V2K610,大庄合作社,2025-11-27,23.8068,120.367939,0.5072333
G2AI50,關渡,2025-11-27,25.11575,121.492,0.24499583
V2C260,八德蔬果,2025-11-27,24.978508,121.281819,0.66864604
A2K570,古坑花卉中心,2025-11-27,23.63353,120.55239,0.08578708
467571,新竹,2025-11-27,24.827853,121.014219,0.5337973
C0E430,南庄,2025-11-27,24.601775,121.000214,0.8804971
C0E420,竹南,2025-11-27,24.708978,120.888897,0.53440744
C0M530,奮起湖,2025-11-27,23.493903,120.699253,0.042398047
C0C590,觀音,2025-11-27,25.027072,121.153317,0.55213886
C0X060,下營,2025-11-27,23.22695,120.256261,0.5221405
C2D740,屯原,2025-11-27,24.067969,121.209389,0.0010971043
C0M810,里佳,2025-11-27,23.389125,120.716647,0.029317992
V2C250,八德合作社,2025-11-27,24.93775,121.266389,0.38387308
C0K250,崙背,2025-11-27,23.75555,120.318925,0.6123084
