站號,站名,日期,lat,lon,BlastGRU-TW
C0R710,龍磐,2025-11-18,21.931672,120.838942,0.010405442
C1F9D1,白毛台,2025-11-18,24.158325,120.886933,0.07849586
C0G940,竹塘,2025-11-18,23.848253,120.386764,0.059158307
467590,恆春,2025-11-18,22.003897,120.746339,0.029304212
C1O850,環湖,2025-11-18,23.148617,120.418633,0.20476411
C0U710,太平山,2025-11-18,24.505486,121.525656,0.0021278458
C0E820,獅潭,2025-11-18,24.539133,120.920042,0.22072269
C0V880,興達,2025-11-18,22.8778,120.2127,0.1880956
C0S890,關山,2025-11-18,23.0395,121.175017,0.781244
C0SB30,新蘭,2025-11-18,22.869214,121.223228,0.948915
C2R970,屏科大,2025-11-18,22.648275,120.619247,0.11539727
C1Z130,銅門,2025-11-18,23.965694,121.492842,0.811158
C0AD40,土城,2025-11-18,24.973208,121.445169,0.015572335
CAN140,六官養殖協會,2025-11-18,23.22881,120.29962,0.1763178
C0X180,山上,2025-11-18,23.0757,120.363253,0.08592496
C0F9Z0,雪山東峰,2025-11-18,24.388792,121.268675,0.00046803913
C1M480,獨立山,2025-11-18,23.537022,120.607797,0.06514507
C0X220,學甲,2025-11-18,23.230367,120.182187,0.14054044
467650,日月潭,2025-11-18,23.881325,120.90805,0.7424991
C0K600,箔子寮,2025-11-18,23.6197,120.14,0.3704283
C0G830,埤頭,2025-11-18,23.866003,120.452806,0.06336209
C0S950,七塊厝,2025-11-18,22.954453,121.229922,0.22154781
467110,金門,2025-11-18,24.407306,118.289281,0.00024100061
C0AH80,深坑,2025-11-18,25.002703,121.628328,0.014706446
C0A970,三貂角,2025-11-18,25.007606,122.002058,0.9630973
C2D730,寶山農場,2025-11-18,24.732444,120.976153,0.093446024
C0K430,褒忠,2025-11-18,23.690938,120.303634,0.5124003
467480,嘉義,2025-11-18,23.495925,120.432906,0.3302414
C0V400,阿公店,2025-11-18,22.804194,120.355528,0.08754954
C0E960,觀霧分站,2025-11-18,24.505781,121.113921,0.0024597934
467550,玉山,2025-11-18,23.48718,120.95943,0.0003938064
C0R440,大漢山,2025-11-18,22.405264,120.753181,0.0015086455
C0K280,四湖,2025-11-18,23.630414,120.227125,0.61654156
C1F9B1,桐林,2025-11-18,24.066172,120.735194,0.42813602
C2H9U0,鳳鵬,2025-11-18,23.763919,120.788061,0.026544807
C0K390,土庫,2025-11-18,23.679029,120.395574,0.06304458
C1I450,望鄉山,2025-11-18,23.594153,120.944286,0.00093973696
C0E910,海埔,2025-11-18,24.648767,120.772435,0.20441687
B2E890,畜試北區分所,2025-11-18,24.527806,120.770972,0.5116219
C0R750,四林格山,2025-11-18,22.076989,120.802439,0.035060458
C0F0C0,中坑,2025-11-18,24.248517,120.903319,0.3345513
C1I121,大鞍,2025-11-18,23.678381,120.760017,0.056478888
72U480,花改蘭陽分場,2025-11-18,24.686306,121.716583,0.9815899
C0A770,科教館,2025-11-18,25.096356,121.516507,0.019772932
C0AJ60,六塊厝,2025-11-18,25.24,121.4481,0.026305715
C0R620,墾雷,2025-11-18,21.900836,120.855269,0.009376454
467420,永康,2025-11-18,23.038386,120.2367,0.11062477
C0I410,名間,2025-11-18,23.837053,120.701447,0.038230408
A2C560,農工中心,2025-11-18,24.985917,121.239833,0.021076964
C0V740,旗山,2025-11-18,22.888614,120.483597,0.059876658
C0Z061,玉里,2025-11-18,23.3215,121.339656,0.9482526
C0S840,南田,2025-11-18,22.279725,120.889208,0.15021853
C1I470,杉林溪,2025-11-18,23.639517,120.786444,0.0155416345
C1X040,東原,2025-11-18,23.291597,120.463822,0.065902516
C0R660,枋寮,2025-11-18,22.367722,120.590647,0.08032079
C1R120,上德文,2025-11-18,22.763272,120.704442,0.2574204
C0K450,大埤,2025-11-18,23.646074,120.431537,0.06108863
C0UA00,土場,2025-11-18,24.576533,121.495333,0.9027317
467080,宜蘭,2025-11-18,24.763975,121.756528,0.94629174
C0N030,四草,2025-11-18,23.0235,120.1116,0.13873075
467410,臺南,2025-11-18,22.99328,120.20492,0.11468078
C0V650,彌陀,2025-11-18,22.783806,120.246361,0.18211974
C0D660,新竹市東區,2025-11-18,24.798681,120.986942,0.254737
82S580,茶改東部分場,2025-11-18,22.907694,121.130139,0.8648969
C0SB40,興隆,2025-11-18,22.913661,121.257469,0.94693017
467050,新屋,2025-11-18,25.006725,121.047492,0.01533948
C0C710,大溪永福,2025-11-18,24.892936,121.324975,0.013998506
C0FA20,溫寮,2025-11-18,24.372177,120.583125,0.4911711
C0V640,湖內,2025-11-18,22.887139,120.2445,0.18299903
C0R910,下寮,2025-11-18,22.3929,120.5548,0.08062949
C0Z020,明里,2025-11-18,23.208717,121.262342,0.89364004
C0M770,嘉義梅山,2025-11-18,23.585398,120.555587,0.0385752
C0C660,楊梅,2025-11-18,24.912375,121.143047,0.040256787
C1E511,新開,2025-11-18,24.347703,120.827019,0.21989754
G2F820,農試所(霧峰),2025-11-18,24.031261,120.688133,0.44831237
C1I070,和社,2025-11-18,23.591131,120.888861,0.70878136
C0TA80,立霧山,2025-11-18,24.183258,121.641899,0.4014076
C2F000,大肚,2025-11-18,24.15295,120.572117,0.03458159
C1S850,豐南,2025-11-18,23.122139,121.262389,0.26390752
C2A920,富貴角,2025-11-18,25.263783,121.565258,0.023284728
CAH030,茶改場竹圍站,2025-11-18,23.860083,120.637528,0.059125546
C0T960,光復,2025-11-18,23.660694,121.424964,0.8040525
C0F9M0,豐原,2025-11-18,24.254322,120.720692,0.36014378
C0R720,旭海,2025-11-18,22.205403,120.887614,0.15674101
C0V710,苓雅,2025-11-18,22.622742,120.330669,0.13324048
C0C740,觀音工業區,2025-11-18,25.064764,121.114856,0.011152656
CAC040,拉拉山,2025-11-18,24.699317,121.427133,0.0048761074
C0V790,萬山,2025-11-18,22.905944,120.688056,0.204917
U2HA30,臺大和社,2025-11-18,23.590856,120.888864,0.70878136
C2H9K0,屯原,2025-11-18,24.067969,121.209389,0.0017875658
C0AJ90,澳底,2025-11-18,25.0552,121.9253,0.96505046
C0Z100,東華,2025-11-18,23.89525,121.549833,0.869245
C0G970,三豐,2025-11-18,23.882,120.2895,0.5876238
V2K610,大庄合作社,2025-11-18,23.8068,120.367939,0.5374674
C0V900,汕尾,2025-11-18,22.4782,120.4151,0.23808551
C1R630,龍泉,2025-11-18,22.66701,120.59091,0.13220637
C1AC50,關渡,2025-11-18,25.133486,121.469331,0.027890742
C0C800,四稜,2025-11-18,24.64733,121.4293,0.04749699
C0F9I0,神岡,2025-11-18,24.272481,120.658314,0.45044437
C0K460,斗南,2025-11-18,23.678734,120.478359,0.06104313
C2O810,曾文,2025-11-18,23.219681,120.497328,0.07714419
467280,後龍,2025-11-18,24.648563,120.831834,0.17657584
C1F9J1,清水林,2025-11-18,24.071242,120.820419,0.03139991
C2A650,火燒寮,2025-11-18,25.002719,121.742892,0.9324685
466930,竹子湖,2025-11-18,25.162078,121.544547,0.09502252
C1I220,樟湖,2025-11-18,23.905333,120.846983,0.6513482
C0I390,仁愛,2025-11-18,24.022122,121.132206,0.6305658
C0Z300,東里,2025-11-18,23.26853,121.30547,0.96163875
C1V590,新發,2025-11-18,23.057019,120.646064,0.751881
C0K510,水林,2025-11-18,23.572924,120.24597,0.30381402
72S590,東改賓朗果園,2025-11-18,22.813889,121.071278,0.32415956
82A750,茶改北部分場,2025-11-18,24.955778,121.631222,0.2854684
C1A750,石碇服務區,2025-11-18,25.00872,121.646242,0.017959656
C0X300,鹿寮,2025-11-18,23.386047,120.477331,0.048214503
G2AI50,關渡,2025-11-18,25.11575,121.492,0.017878681
C0K590,雲林東勢,2025-11-18,23.674192,120.255721,0.52857953
C0A570,桶後,2025-11-18,24.848222,121.597992,0.8651861
C1S800,華源,2025-11-18,22.657883,121.02325,0.86310923
C0G720,溪州,2025-11-18,23.851589,120.499093,0.062107302
C1V160,達卡努瓦,2025-11-18,23.279811,120.705319,0.41021174
C2M410,馬頭山,2025-11-18,23.324361,120.582017,0.15403815
C0V850,蚵仔寮,2025-11-18,22.7256,120.2527,0.11505062
C0S740,池上,2025-11-18,23.119628,121.209469,0.8373312
C1V390,尖山,2025-11-18,22.813153,120.367789,0.08257204
C0AH70,松山,2025-11-18,25.04871,121.55042,0.019617464
C0N010,鯤鯓國小,2025-11-18,23.1879,120.0889,0.11333582
C0R550,新埤,2025-11-18,22.467947,120.582894,0.22978665
C0SA60,知本（水試所）,2025-11-18,22.702394,121.082761,0.91585916
C0T9I0,豐濱,2025-11-18,23.583897,121.514806,0.79853076
C0UB00,淡江大學蘭陽校園,2025-11-18,24.823239,121.730383,0.7978309
C0W240,九宮,2025-11-18,24.423753,118.240186,0.00025835301
C0T9N0,富里,2025-11-18,23.171639,121.249378,0.90211314
U2HA50,臺大竹山,2025-11-18,23.756972,120.681556,0.040904462
C0V840,鳳鼻頭,2025-11-18,22.5083,120.3591,0.17716995
C0X140,西港,2025-11-18,23.125608,120.203108,0.15794072
72D080,桃改五峰分場,2025-11-18,24.612194,121.157167,0.06130292
C2H9P0,伊拿谷,2025-11-18,23.963211,121.088264,0.22161658
C2H9F0,柑林,2025-11-18,24.018658,120.847072,0.026573926
C0TA20,加灣,2025-11-18,24.082025,121.608944,0.8421525
C0V530,阿蓮,2025-11-18,22.883208,120.327508,0.14714631
C0FB30,八仙山苗圃,2025-11-18,24.192719,121.001366,0.42945138
C1O880,關山,2025-11-18,23.173397,120.594092,0.2091988
C0E791,卓蘭,2025-11-18,24.3126,120.8244,0.114825584
C1I030,武界,2025-11-18,23.913225,121.052483,0.3247094
C0R520,崁頂,2025-11-18,22.514781,120.506914,0.19883946
C0R341,牡丹,2025-11-18,22.130036,120.792639,0.07276579
C0R930,萬丹,2025-11-18,22.5885,120.4851,0.112606645
C0S760,紅石,2025-11-18,23.069131,121.126219,0.004017854
C2C410,中央大學,2025-11-18,24.967652,121.185165,0.020553691
C1M610,石磐龍,2025-11-18,23.496606,120.663506,0.6276394
C0C790,東眼山,2025-11-18,24.8284,121.40888,0.30076012
C0UA10,鴛鴦湖,2025-11-18,24.590269,121.412228,0.0042558056
V2C260,八德蔬果,2025-11-18,24.978508,121.281819,0.015855083
C0R800,丹路,2025-11-18,22.204481,120.750989,0.06329872
C0G920,永靖,2025-11-18,23.924703,120.547533,0.20804498
C2M950,太和,2025-11-18,23.538372,120.702961,0.10760898
C1A630,下盆,2025-11-18,24.771003,121.538622,0.826002
B2N890,畜產試驗所,2025-11-18,23.058972,120.336406,0.09939449
C0UA30,白嶺,2025-11-18,24.527819,121.519031,0.0162928
C1V580,溪南(特生中心),2025-11-18,23.084972,120.788475,0.017066726
C1T970,大農,2025-11-18,23.615233,121.413331,0.75744283
C0R650,竹田,2025-11-18,22.58486,120.54344,0.15544568
C1H900,清流,2025-11-18,24.080775,120.962997,0.29484355
C1C510,水尾,2025-11-18,24.940081,121.087161,0.022268767
C0F9X0,大雅(中科園區),2025-11-18,24.21528,120.62445,0.50362897
C0SB60,白守蓮,2025-11-18,23.126769,121.401914,0.9878266
C0O970,虎頭埤,2025-11-18,23.021375,120.347878,0.09439904
C0C730,中大臨海站,2025-11-18,24.966126,121.008581,0.016334787
C0X250,新營,2025-11-18,23.310689,120.316681,0.25626796
C0V700,三民,2025-11-18,22.645017,120.311233,0.12968262
C0U870,大礁溪,2025-11-18,24.791042,121.675047,0.8407679
C0E870,高鐵苗栗,2025-11-18,24.60725,120.826094,0.40589195
A2K570,古坑花卉中心,2025-11-18,23.63353,120.55239,0.04546489
C0TA30,鹽寮,2025-11-18,23.845606,121.592664,0.8783196
C0M860,新美,2025-11-18,23.338017,120.683169,0.6960813
C1E701,八卦,2025-11-18,24.491756,120.927619,0.6316964
C0I420,國姓,2025-11-18,24.037803,120.855072,0.025795262
C2D720,關西工作站,2025-11-18,24.757275,121.184792,0.11067576
C0S960,香蘭,2025-11-18,22.587569,120.993375,0.18568213
467620,蘭嶼,2025-11-18,22.0369,121.55843,0.07904957
C0R260,春日,2025-11-18,22.370361,120.628306,0.07220341
72G600,臺中農改場,2025-11-18,24.003028,120.534389,0.22163247
C0Z210,瑞穗,2025-11-18,23.5239,121.39021,0.8342932
C0M820,達邦,2025-11-18,23.453994,120.749517,0.82870257
C0V860,南寮,2025-11-18,22.7616,120.2339,0.115937725
C0G740,大城,2025-11-18,23.852487,120.320935,0.5789141
C0R920,塭仔,2025-11-18,22.4169,120.5197,0.08096579
C0R470,高樹,2025-11-18,22.826389,120.600806,0.060160123
C0R680,佳樂水,2025-11-18,21.993578,120.861633,0.018326417
C1O870,大棟山,2025-11-18,23.31157,120.52226,0.4221237
C0D360,梅花,2025-11-18,24.678347,121.208558,0.16502048
C0Z190,富世,2025-11-18,24.14743,121.6297,0.9055784
C0AI10,屈尺,2025-11-18,24.92184,121.54475,0.01656421
B2U990,畜試東區分所,2025-11-18,24.669039,121.832561,0.9925142
C0SB80,長濱漁港,2025-11-18,23.313644,121.459994,0.9775012
C0TA50,和仁,2025-11-18,24.241394,121.712472,0.9558903
C0V910,大樹,2025-11-18,22.684645,120.432803,0.06740179
C1R610,西大武山,2025-11-18,22.617719,120.7322,0.00067507906
C0G900,線西,2025-11-18,24.143358,120.443536,0.47688377
C0M700,竹崎,2025-11-18,23.526178,120.555508,0.044793755
C2E880,三義,2025-11-18,24.405478,120.749819,0.13520896
C0C720,竹圍,2025-11-18,25.112692,121.239824,0.017835353
C0F9P0,清水,2025-11-18,24.312297,120.562242,0.54459465
C0Z150,吉安光華,2025-11-18,23.930925,121.595153,0.9019924
C0FA80,小雪山天池,2025-11-18,24.28025,121.02627,0.0007123527
467300,東吉島,2025-11-18,23.25727,119.66762,0.086250395
C1D640,外坪(五指山),2025-11-18,24.644447,121.090961,0.6492222
C0F9O0,潭子,2025-11-18,24.213106,120.703933,0.2969523
C2H9R0,卓社,2025-11-18,23.887894,121.000086,0.12716883
72T250,花蓮農改場,2025-11-18,23.975222,121.563889,0.902371
C0E780,銅鑼,2025-11-18,24.489681,120.790853,0.4238748
C1T950,太安,2025-11-18,23.666719,121.370128,0.67907363
C0E830,苑裡,2025-11-18,24.439714,120.653053,0.4317358
467270,田中,2025-11-18,23.873803,120.581286,0.06366715
C0SA10,檳榔四格山,2025-11-18,22.810031,121.109308,0.20758095
C1T830,布洛灣,2025-11-18,24.17184,121.57127,0.8021103
C0F970,大坑,2025-11-18,24.173142,120.722289,0.20000654
C1U920,思源,2025-11-18,24.393125,121.347214,0.0015182357
C0A931,三和,2025-11-18,25.233153,121.595236,0.12222759
C0I010,廬山,2025-11-18,24.033311,121.181808,0.026405059
C2M940,日野賀,2025-11-18,23.434056,120.727169,0.59990597
C0R860,鼻頭,2025-11-18,22.1043,120.8979,0.4625195
C0UB20,壯圍,2025-11-18,24.7359,121.8163,0.9844337
C0R790,九棚,2025-11-18,22.14195,120.889281,0.19985679
C0W110,東莒,2025-11-18,25.9652,119.98069,0.0005961927
C1U930,粉鳥林,2025-11-18,24.497088,121.842479,0.9874692
C1I211,蘆竹湳,2025-11-18,23.934019,120.811994,0.043035317
C0S830,長濱,2025-11-18,23.286817,121.411975,0.7014322
C1F9F1,伯公龍,2025-11-18,24.272392,120.849047,0.04285969
C0UB90,太平山莊,2025-11-18,24.494171,121.536209,0.002022037
C0E810,西湖,2025-11-18,24.562947,120.7485,0.06922927
C1I440,新高口,2025-11-18,23.478744,120.878939,0.0010475214
C0O840,王爺宮,2025-11-18,23.222064,120.40085,0.08866439
C0T9G0,鳳林山,2025-11-18,23.735269,121.420131,0.82306975
C0X080,佳里,2025-11-18,23.173039,120.145086,0.11342707
C0FB70,大甲溪埔,2025-11-18,24.370625,120.620067,0.4579629
C0Z310,清水斷崖,2025-11-18,24.218294,121.689142,0.92706
C0M680,太保,2025-11-18,23.455062,120.331455,0.39047635
C1S820,金峰,2025-11-18,22.590969,120.933236,0.2005609
C0AD10,八里,2025-11-18,25.150211,121.403947,0.01784008
C2K240,草嶺,2025-11-18,23.59555,120.693461,0.7007897
C1SA70,都蘭,2025-11-18,22.87794,121.226881,0.9467599
C0K440,二崙,2025-11-18,23.772797,120.408944,0.06698984
C1A760,坪林交控,2025-11-18,24.94284,121.713442,0.9264158
C0F9N0,大里,2025-11-18,24.092464,120.701378,0.048102308
C0SA90,達仁林場,2025-11-18,22.264347,120.823972,0.044409443
C1R290,石門山,2025-11-18,22.112611,120.756597,0.048536602
42HA10,萬大發電廠,2025-11-18,23.978875,121.139639,0.71056026
C0R890,山海,2025-11-18,21.9878,120.7091,0.0229214
C0T9A0,月眉山,2025-11-18,23.809928,121.539828,0.34908426
C0AC70,信義,2025-11-18,25.037822,121.564597,0.019578146
C0K560,棋山,2025-11-18,23.68645,120.603417,0.04413039
C2FB50,出雲,2025-11-18,24.206469,120.902794,0.691476
C1Z240,中平林道,2025-11-18,23.42115,121.26763,0.6434252
U2H480,溪頭,2025-11-18,23.670306,120.798194,0.41352582
C0M880,好美里,2025-11-18,23.3364,120.138,0.20647718
C0T9E0,大坑,2025-11-18,23.880628,121.581981,0.49084768
C0K530,臺西,2025-11-18,23.701547,120.197559,0.5965807
C1E900,國一N128K,2025-11-18,24.560997,120.844186,0.41570476
C0AJ50,水湳洞,2025-11-18,25.123695,121.862238,0.06875863
C0AI20,白沙灣,2025-11-18,25.283128,121.519058,0.026544364
C2V310,美濃,2025-11-18,22.898792,120.51907,0.061508022
C0A860,大坪,2025-11-18,25.165914,121.632969,0.2074815
C1U850,觀音海岸,2025-11-18,24.38319,121.77856,0.393283
C2K610,草嶺石壁,2025-11-18,23.602469,120.707731,0.6464311
C0U950,鶯子嶺,2025-11-18,24.89754,121.79244,0.057653233
C0O900,善化,2025-11-18,23.112883,120.297219,0.10685963
C0K550,蔦松,2025-11-18,23.514319,120.229736,0.33425125
E2P980,林試六龜中心,2025-11-18,22.991703,120.645722,0.0813175
C0E590,通霄,2025-11-18,24.471892,120.704622,0.14743967
C1I310,西巒,2025-11-18,23.754486,120.883956,0.8155224
C0A550,泰平,2025-11-18,24.971197,121.823711,0.49074227
C0I360,水里,2025-11-18,23.812553,120.849792,0.053363148
C0R830,高士,2025-11-18,22.121825,120.836781,0.045212183
C1I101,溪頭,2025-11-18,23.661789,120.807647,0.0057073818
C0AJ20,野柳,2025-11-18,25.20703,121.690021,0.08473543
C0B060,暖暖,2025-11-18,25.0957,121.7403,0.031132188
C1H920,長豐,2025-11-18,24.102039,120.879897,0.057644796
C0V360,內門,2025-11-18,22.975481,120.466769,0.05324893
C0R850,林邊,2025-11-18,22.4634,120.5339,0.23432122
C0E930,龍鳳,2025-11-18,24.700034,120.859125,0.07375526
C0U910,冬山,2025-11-18,24.63373,121.7937,0.9925142
C1E721,泰安,2025-11-18,24.489017,120.968036,0.10223276
82H320,茶改中部分場,2025-11-18,23.875611,120.913583,0.17291045
C0M750,布袋,2025-11-18,23.380878,120.167789,0.5907693
C1S860,利嘉,2025-11-18,22.809417,121.050528,0.35016415
E2S980,林試太麻里1,2025-11-18,22.598922,120.980044,0.20229968
C0X170,關廟,2025-11-18,22.963017,120.327797,0.102557555
C0V720,林園,2025-11-18,22.507747,120.394511,0.11452049
C1I510,線浸林道,2025-11-18,23.761508,120.832956,0.30545354
C0D690,外湖,2025-11-18,24.917735,120.968711,0.031875722
C0C750,新興坑尾,2025-11-18,25.0061,121.0971,0.012989294
B2Q810,畜試南區分所,2025-11-18,21.945583,120.802167,0.018372323
C0S790,金崙,2025-11-18,22.538122,120.966875,0.16347574
C0AH90,福山植物園,2025-11-18,24.760717,121.58135,0.62489045
C0I540,奇萊稜線,2025-11-18,24.109231,121.326456,0.00029370227
C0M850,表湖,2025-11-18,23.24186,120.64166,0.66125
C0S770,大溪山,2025-11-18,22.478475,120.943325,0.11886665
C0AG80,中和,2025-11-18,24.991622,121.491792,0.015508205
C0T790,大禹嶺,2025-11-18,24.186117,121.316086,0.0003596288
C0T9B0,水源,2025-11-18,23.991861,121.537169,0.8266803
C0R840,牡丹池山,2025-11-18,22.168389,120.841225,0.0475372
C1I131,桶頭,2025-11-18,23.641944,120.654117,0.05631713
CAL110,布袋國中,2025-11-18,23.35893,120.18026,0.34605366
467571,新竹,2025-11-18,24.827853,121.014219,0.5363505
C0Z290,赤柯山,2025-11-18,23.36893,121.38293,0.18932794
C0X280,將軍,2025-11-18,23.214999,120.13577,0.14117086
C0S690,太麻里,2025-11-18,22.60902,120.98533,0.6813022
C0U880,北關,2025-11-18,24.9072,121.8734,0.24059442
C0G810,埔心,2025-11-18,23.947633,120.525456,0.213094
C0U970,大福,2025-11-18,24.80064,121.81389,0.9508995
C2H9N0,仁愛東眼,2025-11-18,24.026875,121.1205,0.0822774
C1E670,南礦,2025-11-18,24.538278,121.002836,0.27150822
C0M520,東後寮,2025-11-18,23.369908,120.248065,0.3445825
C1E461,松安,2025-11-18,24.397972,120.986022,0.1165038
C2N160,西拉雅風管處,2025-11-18,23.189481,120.335297,0.117506675
C2M970,碧湖,2025-11-18,23.568632,120.624165,0.8140723
C0A640,石碇,2025-11-18,24.993969,121.662917,0.5086788
E2S960,林試太麻里2,2025-11-18,22.598,120.99775,0.18270178
C0F9Y0,桃山,2025-11-18,24.432739,121.303808,0.00039297235
C1I020,萬大,2025-11-18,23.979817,121.132261,0.6182246
C0U940,羅東,2025-11-18,24.68184,121.74934,0.98284566
C0M650,朴子,2025-11-18,23.43463,120.23902,0.4808249
C1I500,大尖山,2025-11-18,23.858572,120.994889,0.0020304278
C0FB40,中橫21.6k,2025-11-18,24.2499,121.1455,0.06795919
C0G820,田尾,2025-11-18,23.901669,120.509389,0.2112559
E2K600,四湖植物園,2025-11-18,23.676986,120.163433,0.6152859
C0S730,綠島,2025-11-18,22.6672,121.47533,0.88008446
12Q970,東港工作站,2025-11-18,22.479997,120.466058,0.23547716
C0E430,南庄,2025-11-18,24.601775,121.000214,0.2149644
C1TA00,太魯閣,2025-11-18,24.15773,121.6236,0.8828991
466920,臺北,2025-11-18,25.037658,121.514853,0.019617464
C0R600,舊泰武,2025-11-18,22.588194,120.664944,0.82292044
C1I260,北坑,2025-11-18,23.9246,121.006903,0.04381542
466910,鞍部,2025-11-18,25.182586,121.529731,0.048362345
C1I230,九份二山,2025-11-18,23.961944,120.845,0.0957413
C2A660,瑞芳,2025-11-18,25.113169,121.801147,0.07550912
C0R270,琉球嶼,2025-11-18,22.332244,120.362236,0.16170982
C1T990,高寮,2025-11-18,23.394239,121.356808,0.80825907
C0G620,芬園,2025-11-18,24.015678,120.6213,0.18616872
C1Z140,荖溪,2025-11-18,23.890575,121.45964,0.76010424
C1I201,中心崙,2025-11-18,23.728722,120.712097,0.031834714
C1I400,凌霄,2025-11-18,24.018778,121.004456,0.10672939
C1M640,十字,2025-11-18,23.492153,120.753683,0.028060744
G2P820,農試鳳山分所,2025-11-18,22.646611,120.356083,0.1254147
C0Z270,蕃薯寮,2025-11-18,23.73835,121.540108,0.6315045
C0FB10,出雲山苗圃,2025-11-18,24.23105,120.90475,0.33104846
C0F9Q0,外埔,2025-11-18,24.347817,120.705686,0.5693608
C0K580,高鐵雲林,2025-11-18,23.737456,120.417944,0.06464333
C2I090,鳳凰,2025-11-18,23.728081,120.787347,0.27605042
C0U990,員山,2025-11-18,24.74435,121.72247,0.9833681
C0V770,大社,2025-11-18,22.730306,120.346639,0.109167084
C0X120,麻豆,2025-11-18,23.183289,120.248611,0.17233358
C0C670,龍潭,2025-11-18,24.870056,121.221389,0.056828212
C0D680,香山濕地,2025-11-18,24.783581,120.914988,0.32414958
C0S980,勝林山,2025-11-18,22.430439,120.8938,0.30613
C0V730,大寮,2025-11-18,22.605614,120.395717,0.08830178
C0R570,麟洛,2025-11-18,22.65078,120.52719,0.10040545
C2M930,石卓,2025-11-18,23.478744,120.702264,0.011668805
C0G9B0,和美,2025-11-18,24.105169,120.492131,0.16417366
CAG100,王功漁港,2025-11-18,23.96824,120.32586,0.48933628
C0X290,北門,2025-11-18,23.267772,120.125481,0.1418049
C2F930,大甲,2025-11-18,24.347667,120.640403,0.3771071
C0D650,湖口,2025-11-18,24.904794,121.043628,0.023367083
C0E420,竹南,2025-11-18,24.708978,120.888897,0.05498135
C0U780,五結,2025-11-18,24.68637,121.79794,0.9842147
C1I250,鯉潭,2025-11-18,23.961922,120.991131,0.04315909
C0R130,阿禮,2025-11-18,22.742908,120.743678,0.10059346
C0X100,臺南市北區,2025-11-18,23.010394,120.194228,0.1207034
C0S920,金峰嘉蘭,2025-11-18,22.594789,120.960825,0.20516212
C0V490,新興,2025-11-18,22.627422,120.298803,0.13596451
C0F9K0,大安,2025-11-18,24.345061,120.588025,0.46750093
467290,古坑,2025-11-18,23.633639,120.551889,0.04546489
C2E970,八甲,2025-11-18,24.535811,120.795983,0.26686692
C0V440,鳳山,2025-11-18,22.646653,120.356122,0.1254147
C1T940,大觀,2025-11-18,23.714206,121.373133,0.43221495
C0E740,造橋,2025-11-18,24.637056,120.864778,0.1876414
C0R100,尾寮山,2025-11-18,22.833111,120.683889,0.14505462
A2K630,臺大雲林校區,2025-11-18,23.730628,120.423903,0.06446843
467990,馬祖,2025-11-18,26.169467,119.923158,0.0031745443
C0D580,寶山,2025-11-18,24.735006,121.025192,0.09366509
E2P990,林試扇平站,2025-11-18,22.9677,120.6857,0.88784486
C0AI30,三重,2025-11-18,25.057328,121.500629,0.019772932
C0AH00,汐止,2025-11-18,25.066881,121.658778,0.019617464
C1Z040,立山,2025-11-18,23.443356,121.327375,0.7249223
466881,新北,2025-11-18,24.959207,121.525196,0.015137146
C0W130,花嶼,2025-11-18,23.40007,119.32276,0.002771386
C0A950,鼻頭角,2025-11-18,25.129036,121.923372,0.9271393
C0K470,林內,2025-11-18,23.748675,120.609642,0.04650866
C2F990,摩天嶺,2025-11-18,24.322458,120.936819,0.64241934
82C160,茶改場,2025-11-18,24.908472,121.185333,0.03647757
C0Z320,清水林道,2025-11-18,23.27125,121.188272,0.7036827
C0R760,南仁湖,2025-11-18,22.084681,120.863353,0.048535835
C0M670,大林,2025-11-18,23.600616,120.45841,0.26916146
C0M800,茶山,2025-11-18,23.299075,120.664767,0.2686884
C0A9C0,天母,2025-11-18,25.117494,121.537169,0.029031644
72K220,南改斗南分場,2025-11-18,23.634556,120.477333,0.05950607
72AI40,桃改樹林分場,2025-11-18,24.944503,121.386972,0.05862794
C0S910,蘭嶼燈塔,2025-11-18,22.081197,121.503117,0.5161737
C0B050,八斗子,2025-11-18,25.144754,121.79167,0.06609946
C0U900,內城,2025-11-18,24.71813,121.68766,0.9799856
C0X320,柳營,2025-11-18,23.253328,120.375253,0.24037126
C0M790,新港,2025-11-18,23.553269,120.345728,0.31268802
C0F9T0,西屯,2025-11-18,24.179494,120.641275,0.41210294
C0E950,松安,2025-11-18,24.39792,120.98599,0.1165038
C0SA30,都歷,2025-11-18,23.020333,121.323642,0.9455049
C0C620,蘆竹,2025-11-18,25.084275,121.265767,0.013348528
C0R730,大坪頂,2025-11-18,22.024633,120.69355,0.029279394
C0AJ40,石門,2025-11-18,25.273672,121.601198,0.025175406
C0E750,苗栗,2025-11-18,24.564569,120.824575,0.424031
C0T870,鯉魚潭,2025-11-18,23.935639,121.508944,0.83538854
C1V170,排雲,2025-11-18,23.463619,120.954147,0.00038441262
C2H950,中寮,2025-11-18,23.884447,120.766406,0.36710566
C0R350,貓鼻頭,2025-11-18,21.921774,120.7358,0.013453421
C0V660,岡山,2025-11-18,22.797078,120.294958,0.18004209
C1H941,雙冬,2025-11-18,23.967378,120.802189,0.044376526
C0AJ70,田寮,2025-11-18,25.2698,121.4886,0.026391344
C0AI00,五股,2025-11-18,25.07445,121.42728,0.010636071
C0Z280,德武,2025-11-18,23.47426,121.41071,0.72333634
C0R700,枋山,2025-11-18,22.246844,120.661086,0.06157592
C0C460,復興,2025-11-18,24.820208,121.352281,0.39665636
E2H360,蓮華池,2025-11-18,23.918333,120.885278,0.050642904
C0M640,中埔,2025-11-18,23.42538,120.5229,0.049271803
C0W140,金沙,2025-11-18,24.488292,118.408778,0.0003925936
C2A540,四堵,2025-11-18,24.8926,121.745736,0.6105779
C0ACA0,新莊,2025-11-18,25.051478,121.446756,0.01872671
C0R220,潮州,2025-11-18,22.534361,120.54,0.19593817
U2HA40,臺大內茅埔,2025-11-18,23.689722,120.851117,0.028915895
467490,臺中,2025-11-18,24.145736,120.684075,0.4536299
C0UB60,明池,2025-11-18,24.650688,121.475277,0.051188204
C0U960,翠峰湖,2025-11-18,24.510856,121.608044,0.0025290535
E2HA20,林試畢祿溪站,2025-11-18,24.226944,121.308522,0.0010353965
C0V890,前鎮,2025-11-18,22.5718,120.3117,0.13690989
C1F941,雪嶺,2025-11-18,24.280586,121.026642,0.0007123527
C2H9E0,國姓南港,2025-11-18,23.911108,120.846556,0.5773787
C0AC80,文山,2025-11-18,25.00235,121.575728,0.0146552855
C0F9R0,龍井,2025-11-18,24.184536,120.528972,0.4500871
C0M760,民雄,2025-11-18,23.551754,120.428457,0.2669373
C0UA40,西德山,2025-11-18,24.560647,121.752608,0.2779117
C1T920,中興,2025-11-18,23.769503,121.498653,0.8328351
C0D550,雪霸,2025-11-18,24.526972,121.11605,0.003473066
C2F860,梨山,2025-11-18,24.247522,121.243669,0.0009594283
C0R320,車城,2025-11-18,22.0744,120.716247,0.0348525
C1S870,南美山,2025-11-18,23.15025,121.382333,0.90749353
C0B020,基隆嶼,2025-11-18,25.19141,121.78391,0.025898715
C1U501,牛鬥,2025-11-18,24.637836,121.573656,0.9695371
C0M730,嘉義市東區,2025-11-18,23.457673,120.460531,0.27142805
C0S700,知本,2025-11-18,22.684866,121.005642,0.23549661
C1N001,沙崙,2025-11-18,22.935472,120.309406,0.106893204
C0V760,橋頭,2025-11-18,22.757806,120.30575,0.11223279
C0G960,福寶,2025-11-18,24.0443,120.3814,0.1660425
C0X210,白河,2025-11-18,23.347466,120.414427,0.23142655
C0S810,東河,2025-11-18,22.972672,121.303986,0.9755798
C2R170,屏東,2025-11-18,22.66027,120.49403,0.10134604
C0R670,楓港,2025-11-18,22.190131,120.692156,0.05990848
C0FA50,霧峰,2025-11-18,24.0419,120.6995,0.4467445
C0UB10,蘇澳,2025-11-18,24.5969,121.8571,0.9931406
C0G950,防潮門,2025-11-18,24.1835,120.4871,0.45371926
C0M740,六腳,2025-11-18,23.492871,120.290625,0.38909823
C1R250,力里,2025-11-18,22.428117,120.629228,0.102455035
C0K330,虎尾,2025-11-18,23.719183,120.442036,0.06408386
C2FA00,烏石坑,2025-11-18,24.273503,120.947617,0.6070526
C0V620,永安,2025-11-18,22.82315,120.236856,0.18211974
C1I330,楓樹林,2025-11-18,23.986803,121.076117,0.23989417
C0W200,湖西,2025-11-18,23.596314,119.67275,0.0035848306
72Q010,高雄農改場,2025-11-18,22.709333,120.525889,0.07494608
C0SA40,瑞和,2025-11-18,22.974361,121.156697,0.8658591
C0C680,龜山,2025-11-18,25.02846,121.38656,0.5874279
C2V260,月眉,2025-11-18,22.971003,120.539853,0.045519862
C0V450,鳳森,2025-11-18,22.545064,120.392592,0.104802966
C0FA90,小雪山林道,2025-11-18,24.29515,121.03651,0.0005093522
C0U720,南山,2025-11-18,24.43742,121.38167,0.12987839
A2N290,臺南蘭花園區,2025-11-18,23.340258,120.379661,0.43548512
C0R560,新園,2025-11-18,22.5434,120.461558,0.11452049
C0U890,三星,2025-11-18,24.66812,121.65302,0.9838862
C1V300,御油山,2025-11-18,23.001983,120.715364,0.020196624
C0U600,礁溪,2025-11-18,24.817539,121.765608,0.93924505
C1T980,龍澗,2025-11-18,24.023289,121.411328,0.17319955
C0D670,海天一線,2025-11-18,24.831986,120.914438,0.04404161
C0SA00,歷坵,2025-11-18,22.520969,120.89185,0.110987656
C0M710,東石,2025-11-18,23.458927,120.15385,0.36718494
C0M780,鹿草,2025-11-18,23.41134,120.30835,0.47088635
C0U520,雙連埤,2025-11-18,24.753033,121.641303,0.8373636
C0B010,七堵,2025-11-18,25.094819,121.71713,0.032252565
C0R480,長治,2025-11-18,22.693128,120.542622,0.06423106
C1V830,國三S383K,2025-11-18,22.781967,120.426475,0.043610997
12Q980,恆春工作站,2025-11-18,22.079678,120.714425,0.034739286
C1O940,東山服務區,2025-11-18,23.286016,120.398472,0.22294326
C1U840,東澳嶺,2025-11-18,24.5378,121.8485,0.8702386
C1D630,飛鳳山,2025-11-18,24.766464,121.119178,0.20889875
C0S940,石寧山,2025-11-18,23.223772,121.406639,0.97270447
C0K410,北港,2025-11-18,23.573957,120.292802,0.30480507
C2M620,瑞里,2025-11-18,23.545133,120.675197,0.26637056
C0SB70,小港漁港,2025-11-18,23.158558,121.400431,0.9860061
C2O950,安南,2025-11-18,23.076694,120.144861,0.09216828
C0F0E0,南湖圈谷,2025-11-18,24.363714,121.444667,0.0002603264
467610,成功,2025-11-18,23.097486,121.373428,0.9877211
C0G890,伸港,2025-11-18,24.148933,120.484403,0.474124
C2E540,龍溪,2025-11-18,24.606489,120.783933,0.4176985
C1V200,梅山,2025-11-18,23.268447,120.823556,0.8369376
C0T9H0,加路蘭山,2025-11-18,23.682947,121.5274,0.7595627
C2O930,玉井,2025-11-18,23.126042,120.46055,0.20744659
C1F911,新伯公,2025-11-18,24.221361,120.841069,0.04825858
C0R490,九如,2025-11-18,22.7405,120.490503,0.07491527
C0X200,左鎮,2025-11-18,23.056758,120.408522,0.09149095
C0FA60,鞍馬山工作站,2025-11-18,24.267064,121.000793,0.001242521
C0SB50,叭嗡嗡,2025-11-18,23.047062,121.343223,0.9572591
C1F891,稍來,2025-11-18,24.265689,121.001142,0.0013572702
72N240,七股研究中心,2025-11-18,23.081672,120.062894,0.10513851
C0C700,中壢,2025-11-18,24.977661,121.256375,0.014960185
C0M690,水上,2025-11-18,23.419734,120.388909,0.38130334
C0V690,鼓山,2025-11-18,22.623325,120.275575,0.13700348
C0O860,大內,2025-11-18,23.11885,120.36083,0.100718215
C0Z200,萬榮,2025-11-18,23.709219,121.420106,0.8161448
C0T9D0,和中,2025-11-18,24.26676,121.74103,0.94232816
C1O921,楠西,2025-11-18,23.183511,120.484083,0.19484481
C0AJ30,淡水觀海,2025-11-18,25.184591,121.408616,0.031536575
C0V810,左營,2025-11-18,22.67491,120.28491,0.12934007
C0UA70,桃源谷,2025-11-18,24.962606,121.888875,0.74566764
C0X130,官田,2025-11-18,23.193217,120.315422,0.119711645
C1H000,翠峰,2025-11-18,24.109397,121.205211,0.0006848936
C0UA90,石城,2025-11-18,24.980444,121.951214,0.9711699
C1E681,南勢山,2025-11-18,24.421669,120.923831,0.23044817
C0A9F0,內湖,2025-11-18,25.079422,121.57545,0.019617464
C0K291,宜梧,2025-11-18,23.536281,120.169329,0.33874193
C1K540,口湖,2025-11-18,23.585344,120.180517,0.37253195
C0R780,滿州,2025-11-18,22.024403,120.839892,0.028961841
C0V870,文安,2025-11-18,22.8025,120.2164,0.18386762
C0U650,玉蘭,2025-11-18,24.675286,121.587061,0.9121071
C0R640,東港,2025-11-18,22.46247,120.44074,0.23623993
C0AJ80,板橋,2025-11-18,25.0107,121.4489,0.015632454
C0S660,下馬,2025-11-18,23.150427,121.070312,0.5763039
C1H9B1,阿眉,2025-11-18,24.1263,120.994672,0.004819035
C0UA20,多加屯,2025-11-18,24.368614,121.373189,0.00052407634
C0E730,頭份,2025-11-18,24.688247,120.912206,0.057234444
72V140,高改旗南分場,2025-11-18,22.857861,120.516667,0.044803813
C0K480,莿桐,2025-11-18,23.761192,120.502372,0.07181743
C0U980,坪林石牌,2025-11-18,24.86478,121.77396,0.6188213
C0T900,西林,2025-11-18,23.8119,121.441458,0.7232668
C1I150,青雲,2025-11-18,23.793361,120.949378,0.035539843
467350,澎湖,2025-11-18,23.565503,119.563094,0.0019683356
C0G800,埔鹽,2025-11-18,24.000394,120.431683,0.1636777
C0H960,草屯,2025-11-18,23.973672,120.68085,0.44405478
C1V780,多納林道,2025-11-18,22.888028,120.737917,0.70515215
C0E920,通霄漁港,2025-11-18,24.498589,120.673876,0.47586638
C0Z330,安通山,2025-11-18,23.290728,121.348528,0.35186213
C0AH10,永和,2025-11-18,25.01125,121.508111,0.015783777
C0AK10,太平里,2025-11-18,25.134937,121.364899,0.017770933
C2G640,鹿港,2025-11-18,24.0753,120.430481,0.16509783
C1E890,國三N149K,2025-11-18,24.463414,120.680019,0.13463923
C1R110,口社,2025-11-18,22.770111,120.645222,0.13241155
C1M870,國三N285K,2025-11-18,23.550319,120.505833,0.040415145
C1E480,鳳美,2025-11-18,24.554803,121.034747,0.7785386
C0M530,奮起湖,2025-11-18,23.493903,120.699253,0.0995474
C0C590,觀音,2025-11-18,25.027072,121.153317,0.008211604
C0T9M0,靜浦,2025-11-18,23.455167,121.495028,0.8226831
C2H9M0,發祥,2025-11-18,24.154094,121.164517,0.13161886
C0AI40,石牌,2025-11-18,25.115597,121.513139,0.028891703
C1F871,上谷關,2025-11-18,24.203483,121.018644,0.6166048
C2H9G0,百勝,2025-11-18,24.051142,120.909361,0.043644655
C0G880,二水,2025-11-18,23.810742,120.6173,0.04375822
C0R940,加祿堂,2025-11-18,22.3363,120.6217,0.0426175
C0W220,北竿,2025-11-18,26.220358,119.974881,0.0026222689
C0O960,崎頂,2025-11-18,22.959547,120.369317,0.08550497
C0TA40,秀林,2025-11-18,24.302864,121.731144,0.70622647
C0S750,向陽,2025-11-18,23.248397,120.986133,0.0017605794
C0T9F0,水璉,2025-11-18,23.797131,121.542514,0.6118253
C1M600,頭凍,2025-11-18,23.406364,120.603339,0.77362067
467660,臺東,2025-11-18,22.752211,121.154586,0.94933
C1D380,新埔,2025-11-18,24.84745,121.03834,0.15913478
C2G980,田頭村,2025-11-18,23.8263,120.444175,0.06729387
C0V750,路竹,2025-11-18,22.854997,120.259439,0.16430503
C0N050,蚵寮,2025-11-18,23.301,120.1104,0.20718649
72M700,南改鹿草分場,2025-11-18,23.416869,120.283061,0.4770747
C1SA50,利嘉林道,2025-11-18,22.82325,121.009389,0.05720445
C0UB70,太平山中間站,2025-11-18,24.542003,121.513453,0.40081307
C0A940,金山,2025-11-18,25.223628,121.643967,0.088293396
C1V340,大津,2025-11-18,22.888322,120.645986,0.06809019
C0W180,七美,2025-11-18,23.219333,119.444892,0.018412843
C1F9C1,白冷,2025-11-18,24.182844,120.929889,0.07105294
K2E710,苗改生物防治研究中心,2025-11-18,24.422861,120.871833,0.19556817
C0N040,蘆竹溝,2025-11-18,23.2344,120.0961,0.1421392
C0D760,大坪苗圃,2025-11-18,24.5362,121.1108,0.05177478
C2W230,畜試所澎湖,2025-11-18,23.628342,119.513206,0.0012859453
C0R880,後壁湖,2025-11-18,21.9457,120.7457,0.0230187
C1I280,埔中,2025-11-18,23.820778,120.642594,0.032110702
467790,墾丁雷達站,2025-11-18,21.948235,120.808028,0.017467076
C0W190,望安,2025-11-18,23.380564,119.494075,0.0029041988
C0Z170,卓溪,2025-11-18,23.3443,121.3029,0.8546356
C0F850,東勢,2025-11-18,24.246428,120.833047,0.07865386
466900,淡水,2025-11-18,25.164889,121.448906,0.01772816
C0I370,魚池,2025-11-18,23.895703,120.94135,0.047892604
C0C630,大溪,2025-11-18,24.882853,121.265547,0.028228058
C0A520,山佳,2025-11-18,24.974944,121.402008,0.016432583
C0I110,竹山,2025-11-18,23.761225,120.688156,0.039146867
82H840,茶改南部分場,2025-11-18,23.762528,120.7405,0.025010744
C0G660,溪湖,2025-11-18,23.94835,120.479122,0.2154058
C1T800,洛韶,2025-11-18,24.204558,121.453956,0.08412827
C1T810,慈恩,2025-11-18,24.192044,121.388386,0.0014539397
C1E451,象鼻,2025-11-18,24.368617,120.940228,0.20201471
C0AC60,三峽,2025-11-18,24.939025,121.369728,0.053816307
C0I490,萬大林道,2025-11-18,23.928228,121.091411,0.013757161
C1I290,豐丘,2025-11-18,23.668178,120.887417,0.1970218
C1I320,奧萬大,2025-11-18,23.952956,121.178556,0.18993984
C2M910,嘉義大學,2025-11-18,23.471325,120.485903,0.056721102
C0U770,南澳,2025-11-18,24.44935,121.81022,0.9697708
C0A980,社子,2025-11-18,25.109508,121.469681,0.017818313
C0V800,六龜,2025-11-18,22.997889,120.633583,0.08191543
C1G9D0,國一S218K,2025-11-18,23.890641,120.493253,0.21194017
C0E570,白沙屯,2025-11-18,24.549447,120.696803,0.28939572
C2F9A0,中竹林,2025-11-18,24.103556,120.751061,0.021736532
C0FA40,臺中電廠,2025-11-18,24.2146,120.4907,0.4494421
C2G9A0,畜試所彰化,2025-11-18,23.86045,120.557964,0.0640541
C0H9C0,合歡山,2025-11-18,24.143442,121.272547,0.00023328752
C0X060,下營,2025-11-18,23.22695,120.256261,0.17947711
G2M350,農試溪口農場,2025-11-18,23.58565,120.408111,0.27725333
C0U860,頭城,2025-11-18,24.85323,121.8308,0.9434177
C0R580,南州,2025-11-18,22.48591,120.50274,0.23623993
C0D430,峨眉,2025-11-18,24.6905,121.017189,0.090734646
C0G780,秀水,2025-11-18,24.03405,120.503869,0.22294334
72N100,臺南農改場,2025-11-18,23.0605,120.342194,0.09816366
C0S900,蘭嶼高中,2025-11-18,22.04909,121.51214,0.5916455
C1F9W0,德基,2025-11-18,24.254783,121.190261,0.0025494096
C1Z120,壽豐,2025-11-18,23.870853,121.508081,0.869245
C0W160,烏坵,2025-11-18,24.9944,119.44956,0.00042054517
C1I240,外大坪,2025-11-18,23.958697,120.917931,0.046144713
C1I550,國六W023K,2025-11-18,23.979067,120.867742,0.02589453
C0R870,興海,2025-11-18,21.9752,120.8439,0.018341599
C0R140,瑪家,2025-11-18,22.682903,120.686639,0.82122463
C0A530,坪林,2025-11-18,24.938183,121.70975,0.89616746
C0X260,後壁,2025-11-18,23.366358,120.362326,0.23053773
C0Z230,和平,2025-11-18,24.30717,121.77007,0.9428271
C0G770,福興,2025-11-18,24.041289,120.437669,0.16449098
C0H9A0,神木村,2025-11-18,23.532742,120.843667,0.013288566
C0I460,南投,2025-11-18,23.911469,120.687331,0.3737414
C0I480,梅峰,2025-11-18,24.085272,121.173572,0.0011000554
C1V570,吉東,2025-11-18,22.85422,120.5454,0.043476205
C2D740,屯原,2025-11-18,24.067969,121.209389,0.0017875658
C2A560,福山,2025-11-18,24.776203,121.502811,0.81326455
C0AH30,五分山,2025-11-18,25.07125,121.780794,0.22605702
C0FA10,松柏,2025-11-18,24.429115,120.617482,0.45563474
72S200,東改班鳩分場,2025-11-18,22.829528,121.077694,0.58210623
72HA00,中改埔里分場,2025-11-18,23.903208,120.963364,0.04620371
C2H9W0,大坪頂農水,2025-11-18,24.043122,120.932781,0.05997944
C0C650,平鎮,2025-11-18,24.897503,121.214636,0.034693226
C0S930,延平,2025-11-18,22.902581,121.084058,0.6489935
C0UA60,樟樹山,2025-11-18,24.41393,121.78325,0.767827
C1S670,摩天,2025-11-18,23.199503,121.027,0.0075865886
C0V630,茄萣,2025-11-18,22.906642,120.182608,0.18776682
466940,基隆,2025-11-18,25.133314,121.740475,0.067187734
C0X050,東河,2025-11-18,23.296598,120.385608,0.22819272
C0R770,保力,2025-11-18,22.071122,120.764111,0.032428183
G2L020,農試嘉義分所,2025-11-18,23.485028,120.473806,0.0495891
C0X240,關子嶺,2025-11-18,23.331169,120.508025,0.19172582
C0I380,集集,2025-11-18,23.828206,120.801467,0.055061642
466990,花蓮,2025-11-18,23.975128,121.613275,0.9097893
C1V220,小關山,2025-11-18,23.154217,120.813603,0.011718323
C1F9G1,慶福山,2025-11-18,24.180853,120.848378,0.29433048
C0FB20,雪山橋,2025-11-18,24.23192,120.9786,0.00191939
C0Z250,瑞穗林道,2025-11-18,23.49284,121.30688,0.5437169
C0D590,新豐,2025-11-18,24.87068,120.97721,0.006117334
C0A870,五指山,2025-11-18,25.132153,121.608692,0.0599991
C0UA50,西帽山,2025-11-18,24.555361,121.802628,0.76151717
C0X160,仁德,2025-11-18,22.968258,120.257689,0.14250173
C1H971,六分寮,2025-11-18,23.92507,120.6378,0.024237517
C0W120,西嶼,2025-11-18,23.5626,119.468436,0.0020193693
C0G650,員林,2025-11-18,23.946503,120.585597,0.25680467
C0AD50,鶯歌,2025-11-18,24.951533,121.346294,0.050606187
C2H9Q0,北東眼山,2025-11-18,24.120939,121.189303,0.0018768455
C2H9T0,名間竹圍,2025-11-18,23.859914,120.637572,0.05902137
C0S990,山豬窟,2025-11-18,22.318619,120.857372,0.08730068
C0X190,安平,2025-11-18,22.993161,120.152181,0.120229945
C0K400,斗六,2025-11-18,23.720583,120.541127,0.075779974
12J990,口湖工作站,2025-11-18,23.589978,120.180394,0.3704283
C0O830,北寮,2025-11-18,23.079561,120.495008,0.05118236
C1D410,白蘭,2025-11-18,24.579364,121.079947,0.1163679
C0S970,加津林,2025-11-18,22.416211,120.926942,0.12694265
C0D700,關西,2025-11-18,24.7977,121.1732,0.045630734
C0M810,里佳,2025-11-18,23.389125,120.716647,0.049803805
C0U750,龜山島,2025-11-18,24.841667,121.953133,0.8453046
C0R810,內獅,2025-11-18,22.305064,120.642986,0.042203937
C1M390,龍美,2025-11-18,23.406728,120.654417,0.36809456
C2FB60,頭櫃山,2025-11-18,24.129842,120.858925,0.7104241
C1H840,國三N238K,2025-11-18,23.841008,120.707711,0.061516654
CAQ030,崎峰國小,2025-11-18,22.42565,120.49521,0.23623993
C2E520,大湖,2025-11-18,24.414939,120.870872,0.15083288
467530,阿里山,2025-11-18,23.508208,120.813242,0.002095462
C1E691,南湖,2025-11-18,24.40135,120.837533,0.3753835
C0FA30,梧棲,2025-11-18,24.256003,120.523381,0.5447741
C1V231,高中,2025-11-18,23.134911,120.716711,0.6986926
C0AK30,硬漢嶺,2025-11-18,25.136097,121.426372,0.11514124
C0F9V0,新社,2025-11-18,24.200172,120.815806,0.049680427
C0H890,埔里,2025-11-18,23.972169,120.952425,0.050458763
C0R690,墾丁,2025-11-18,21.966756,120.810269,0.009303629
C0F0D0,審馬陣,2025-11-18,24.381675,121.4203,0.00028079987
C2W030,金門農試所,2025-11-18,24.448431,118.451786,0.00031347657
C0R820,白鷺,2025-11-18,22.454275,120.666219,0.09733683
C0FB00,大雪山,2025-11-18,24.254668,121.007374,0.0012835604
C1V190,南天池,2025-11-18,23.27403,120.91176,0.0010784226
C0E940,雪見,2025-11-18,24.42595,121.01347,0.0025483319
K2E360,苗栗農改場,2025-11-18,24.495722,120.829111,0.47925478
CAJ050,海口故事園區,2025-11-18,23.57543,120.14121,0.37124032
C2H9D0,三隻寮,2025-11-18,24.093078,120.861578,0.06536424
C0O990,媽廟,2025-11-18,22.99175,120.293525,0.107399605
C0D480,打鐵坑,2025-11-18,24.849664,121.150789,0.05623818
C0Z220,和平林道,2025-11-18,24.343922,121.656317,0.6011107
C0TA10,花蓮漁港,2025-11-18,23.995322,121.638331,0.9136412
72C440,桃園農改場,2025-11-18,24.950944,121.030583,0.02803971
C1E711,馬拉邦山,2025-11-18,24.367306,120.901656,0.52396715
C0SB20,富岡,2025-11-18,22.792467,121.192669,0.95082885
C0D560,竹東,2025-11-18,24.767147,121.057881,0.13597411
C0F9U0,南屯,2025-11-18,24.137006,120.637969,0.18796588
C0M720,番路,2025-11-18,23.464657,120.554156,0.06989785
C0F0A0,雪山圈谷,2025-11-18,24.388594,121.236339,0.00031043525
C1A9N0,四十份,2025-11-18,24.934158,121.593283,0.2130339
C0U760,東澳,2025-11-18,24.52196,121.83318,0.9870754
C0X230,鹽水,2025-11-18,23.272621,120.247641,0.20561758
C2H9H0,苗改南投蜂場,2025-11-18,23.852589,120.693481,0.038366
C0R950,萬隆國小,2025-11-18,22.507667,120.587817,0.18907338
467540,大武,2025-11-18,22.35572,120.90374,0.11811503
C0V370,古亭坑,2025-11-18,22.893178,120.401947,0.074148096
C1I340,新興橋,2025-11-18,23.563333,120.868728,0.47363845
C0SA80,土坂,2025-11-18,22.453108,120.887572,0.16399777
C0R160,鹽埔,2025-11-18,22.739558,120.530778,0.07396921
C0AC40,大屯山,2025-11-18,25.175675,121.522408,0.008265959
466850,五分山雷達站,2025-11-18,25.071182,121.781205,0.2119472
C2H9L0,馬烈霸,2025-11-18,24.1512,121.201772,0.0017695937
C1AI50,國三N016K,2025-11-18,25.034164,121.619664,0.018973453
C1V600,藤枝,2025-11-18,23.071961,120.757042,0.017518058
C1E601,南勢,2025-11-18,24.572486,120.734842,0.03996582
C0O980,新市,2025-11-18,23.061614,120.298197,0.105382994
C0K420,西螺,2025-11-18,23.800407,120.467394,0.066429995
C0Z050,佳心,2025-11-18,23.34567,121.21316,0.38653797
C0AD30,蘆洲,2025-11-18,25.086594,121.472331,0.019710591
C0V610,梓官,2025-11-18,22.760558,120.267211,0.113116525
K2F750,種苗改良場,2025-11-18,24.225972,120.800917,0.047531974
C0UA80,大溪漁港,2025-11-18,24.941801,121.902955,0.96493137
C1AI60,國一39K邊坡,2025-11-18,25.064361,121.383836,0.6281742
C0W150,金寧,2025-11-18,24.457703,118.328989,0.00028634968
C0R960,內埔,2025-11-18,22.608483,120.570714,0.15422326
V2C250,八德合作社,2025-11-18,24.93775,121.266389,0.039250944
C2H9S0,龍南,2025-11-18,23.953536,120.833183,0.73015004
C0AH40,平等,2025-11-18,25.129142,121.577086,0.19327024
C0R540,佳冬,2025-11-18,22.419456,120.552375,0.079450786
466950,彭佳嶼,2025-11-18,25.627975,122.079744,0.010068696
C0A890,雙溪,2025-11-18,25.036003,121.864242,0.22186361
C0C480,桃園,2025-11-18,24.992425,121.323172,0.016111912
C0AH50,林口,2025-11-18,25.072181,121.38084,0.55942035
A2K360,水試臺西試驗場,2025-11-18,23.717231,120.190522,0.59489787
C2M960,外寮,2025-11-18,23.562643,120.665688,0.779979
C0F9S0,烏日,2025-11-18,24.107058,120.624103,0.16841072
C0C490,八德,2025-11-18,24.928708,121.283289,0.038907357
C0R190,赤山,2025-11-18,22.592333,120.614306,0.15278023
C0T820,天祥,2025-11-18,24.179597,121.495639,0.68124145
C1F9E1,龍安,2025-11-18,24.1605,120.831961,0.046972048
C0V820,小林,2025-11-18,23.148408,120.63325,0.31562474
C2G870,芳苑,2025-11-18,23.922303,120.320025,0.4836254
C0E850,大河,2025-11-18,24.618069,120.948578,0.33439463
C1U670,寒溪,2025-11-18,24.634,121.71691,0.9892897
C0N020,城西,2025-11-18,23.0568,120.0956,0.13845803
C1Z110,三棧,2025-11-18,24.11557,121.60501,0.84667236
C0R280,檳榔,2025-11-18,22.076078,120.836777,0.053224992
C2H9J0,中台,2025-11-18,23.9996,120.938739,0.038103074
C0F9L0,后里,2025-11-18,24.310436,120.729725,0.059291705
467441,高雄,2025-11-18,22.730432,120.312516,0.11044248
C0Z180,新城,2025-11-18,24.040486,121.604878,0.90650403
C0D540,橫山,2025-11-18,24.71116,121.11693,0.06940248
C1D420,太閣南,2025-11-18,24.632808,121.160575,0.1665136
C1E770,公館,2025-11-18,24.526914,120.830806,0.5116219
CAN130,水試所海水繁養殖中心,2025-11-18,23.120802,120.07968,0.10451717
C1I430,翠華,2025-11-18,24.191961,121.224339,0.0006144517
C1M400,菜瓜坪,2025-11-18,23.251928,120.576103,0.26843157
C0G730,二林,2025-11-18,23.903325,120.376081,0.16402122
72M360,南改義竹分場,2025-11-18,23.360694,120.279361,0.3410528
V2K620,麥寮合作社,2025-11-18,23.753836,120.294783,0.5144322
C0Z070,舞鶴,2025-11-18,23.46811,121.37407,0.66431135
C0B040,大武崙,2025-11-18,25.166676,121.706993,0.07052278
C1Z030,紅葉,2025-11-18,23.493119,121.338806,0.7687591
C1I050,丹大,2025-11-18,23.753747,121.141147,0.0012358681
C0I080,信義,2025-11-18,23.689694,120.851036,0.028915903
C0D750,樂山林道6k,2025-11-18,24.49999,121.08773,0.0011913741
C2M920,朴子農改,2025-11-18,23.469889,120.259383,0.483426
C2A880,福隆,2025-11-18,25.017842,121.942083,0.97262454
C0Z160,鳳林,2025-11-18,23.746114,121.453411,0.8432072
C0UB80,翠峰林道6K,2025-11-18,24.49773,121.568625,0.0023666034
C0V210,復興,2025-11-18,23.222403,120.806089,0.7674983
C0H990,昆陽,2025-11-18,24.121322,121.273642,0.00030672227
C0R741,獅子,2025-11-18,22.202308,120.705236,0.06654316
C0S710,鹿野,2025-11-18,22.917711,121.122994,0.24105111
C0I530,小奇萊,2025-11-18,24.131764,121.295717,0.00029612563
C0FA70,大雪山埡口,2025-11-18,24.26867,121.03062,0.0007228826
C2K630,荷苞,2025-11-18,23.657717,120.595144,0.040880047
C0Z080,富源,2025-11-18,23.587642,121.378225,0.79929715
C0SB10,美和,2025-11-18,22.682078,121.060236,0.9158371
C2K620,馬光農場,2025-11-18,23.721453,120.378864,0.06548829
C1I140,卡奈托灣,2025-11-18,23.754364,121.087872,0.0117105795
C0I520,玉山風口,2025-11-18,23.470489,120.955994,0.00033561385
C1G691,下水埔,2025-11-18,23.816114,120.5676,0.07025708
C0X110,臺南市南區,2025-11-18,22.961189,120.188378,0.14536169
C0V680,仁武,2025-11-18,22.701083,120.347722,0.12786758
C2G840,北斗,2025-11-18,23.877586,120.514222,0.21170145
C0R900,竹坑,2025-11-18,22.1385,120.7022,0.048255537
C0K250,崙背,2025-11-18,23.75555,120.318925,0.511823
C0G860,社頭,2025-11-18,23.897647,120.5862,0.21480437
C0X150,安定,2025-11-18,23.102614,120.227839,0.13969609
C0R590,里港,2025-11-18,22.77919,120.49459,0.050395228
C0E610,馬都安,2025-11-18,24.451272,120.930192,0.44571233
C0E550,明德,2025-11-18,24.583486,120.885411,0.40764275
C0R150,三地門,2025-11-18,22.709889,120.639944,0.1341767
C0G910,花壇,2025-11-18,24.032076,120.549461,0.21770884
C1D400,鳥嘴山,2025-11-18,24.71909,121.28387,0.1748026
C0K500,元長,2025-11-18,23.64981,120.315024,0.52528596
C0F0B0,石岡,2025-11-18,24.276061,120.777644,0.05742721
C2V250,甲仙,2025-11-18,23.080106,120.591758,0.06192828
C0SA20,金崙山,2025-11-18,22.567419,120.959667,0.09316044
C0V350,溪埔,2025-11-18,22.738578,120.446797,0.0616615
C0M660,溪口,2025-11-18,23.604131,120.403569,0.27632675
C1S880,壽卡,2025-11-18,22.238911,120.858903,0.045701213
72D680,桃改新埔分場,2025-11-18,24.834444,121.066111,0.16882882
