站號,站名,日期,lat,lon,BlastGRU-TW
CAH030,茶改場竹圍站,2025-12-10,23.860083,120.637528,0.058448877
V2K610,大庄合作社,2025-12-10,23.8068,120.367939,0.012633452
G2AI50,關渡,2025-12-10,25.11575,121.492,0.0007227727
V2C260,八德蔬果,2025-12-10,24.978508,121.281819,0.0071664047
A2K570,古坑花卉中心,2025-12-10,23.63353,120.55239,0.035224896
467571,新竹,2025-12-10,24.827853,121.014219,0.0048977886
C0E430,南庄,2025-12-10,24.601775,121.000214,0.0063459272
C0E420,竹南,2025-12-10,24.708978,120.888897,0.00063942024
C0M530,奮起湖,2025-12-10,23.493903,120.699253,0.00554505
C0C590,觀音,2025-12-10,25.027072,121.153317,8.3943596e-05
C0M810,里佳,2025-12-10,23.389125,120.716647,0.0048856377
V2C250,八德合作社,2025-12-10,24.93775,121.266389,0.0062803067
