站號,站名,日期,lat,lon,BlastGRU-TW
12J990,口湖工作站,2025-04-18,23.589978,120.180394,0.544875
12Q970,東港工作站,2025-04-18,22.479997,120.466058,0.85283136
12Q980,恆春工作站,2025-04-18,22.079678,120.714425,0.008893498
466881,新北,2025-04-18,24.959207,121.525196,0.6288651
466900,淡水,2025-04-18,25.164889,121.448906,0.69376147
466920,臺北,2025-04-18,25.037658,121.514853,0.7721312
466940,基隆,2025-04-18,25.133314,121.740475,0.93966556
466990,花蓮,2025-04-18,23.975128,121.613275,0.24395958
467050,新屋,2025-04-18,25.006725,121.047492,0.14572687
467080,宜蘭,2025-04-18,24.763975,121.756528,0.5860265
467270,田中,2025-04-18,23.873803,120.581286,0.96620405
467280,後龍,2025-04-18,24.648563,120.831834,0.7365456
467290,古坑,2025-04-18,23.633639,120.551889,0.85162723
467300,東吉島,2025-04-18,23.25727,119.66762,0.0041005835
467350,澎湖,2025-04-18,23.565503,119.563094,0.0031224329
467410,臺南,2025-04-18,22.99328,120.20492,0.84606516
467420,永康,2025-04-18,23.038386,120.2367,0.858243
467441,高雄,2025-04-18,22.730432,120.312516,0.78231376
467480,嘉義,2025-04-18,23.495925,120.432906,0.88563985
467490,臺中,2025-04-18,24.145736,120.684075,0.9607826
467540,大武,2025-04-18,22.35572,120.90374,0.17178333
467571,新竹,2025-04-18,24.827853,121.014219,0.29927254
467590,恆春,2025-04-18,22.003897,120.746339,0.016995989
467610,成功,2025-04-18,23.097486,121.373428,0.1766098
467620,蘭嶼,2025-04-18,22.0369,121.55843,0.00014925632
467660,臺東,2025-04-18,22.752211,121.154586,0.5210355
467790,墾丁雷達站,2025-04-18,21.948235,120.808028,0.006124508
72AI40,桃改樹林分場,2025-04-18,24.944503,121.386972,0.79894
72C440,桃園農改場,2025-04-18,24.950944,121.030583,0.1348295
72D680,桃改新埔分場,2025-04-18,24.834444,121.066111,0.14203514
72G600,臺中農改場,2025-04-18,24.003028,120.534389,0.8858187
72K220,南改斗南分場,2025-04-18,23.634556,120.477333,0.9459184
72M360,南改義竹分場,2025-04-18,23.360694,120.279361,0.8130603
72M700,南改鹿草分場,2025-04-18,23.416869,120.283061,0.837808
72N100,臺南農改場,2025-04-18,23.0605,120.342194,0.8844757
72N240,七股研究中心,2025-04-18,23.081672,120.062894,0.79716265
72Q010,高雄農改場,2025-04-18,22.709333,120.525889,0.8264314
72S200,東改班鳩分場,2025-04-18,22.829528,121.077694,0.12708643
72S590,東改賓朗果園,2025-04-18,22.813889,121.071278,0.085792534
72T250,花蓮農改場,2025-04-18,23.975222,121.563889,0.2032915
72U480,花改蘭陽分場,2025-04-18,24.686306,121.716583,0.8771537
72V140,高改旗南分場,2025-04-18,22.857861,120.516667,0.8516818
82A750,茶改北部分場,2025-04-18,24.955778,121.631222,0.117691614
82C160,茶改場,2025-04-18,24.908472,121.185333,0.39049518
82H840,茶改南部分場,2025-04-18,23.762528,120.7405,0.090603665
82S580,茶改東部分場,2025-04-18,22.907694,121.130139,0.1084804
A2C560,農工中心,2025-04-18,24.985917,121.239833,0.27622795
A2K360,水試臺西試驗場,2025-04-18,23.717231,120.190522,0.92142236
A2K570,古坑花卉中心,2025-04-18,23.63353,120.55239,0.85162723
A2K630,臺大雲林校區,2025-04-18,23.730628,120.423903,0.89298165
A2N290,臺南蘭花園區,2025-04-18,23.340258,120.379661,0.84608644
B2E890,畜試北區分所,2025-04-18,24.527806,120.770972,0.7572251
B2N890,畜產試驗所,2025-04-18,23.058972,120.336406,0.88714606
B2Q810,畜試南區分所,2025-04-18,21.945583,120.802167,0.008622308
B2U990,畜試東區分所,2025-04-18,24.669039,121.832561,0.9830455
C0A520,山佳,2025-04-18,24.974944,121.402008,0.83024096
C0A530,坪林,2025-04-18,24.938183,121.70975,0.29494956
C0A550,泰平,2025-04-18,24.971197,121.823711,0.30544093
C0A570,桶後,2025-04-18,24.848222,121.597992,0.14188038
C0A640,石碇,2025-04-18,24.993969,121.662917,0.06196402
C0A770,科教館,2025-04-18,25.096356,121.516507,0.8041286
C0A860,大坪,2025-04-18,25.165914,121.632969,0.20852669
C0A890,雙溪,2025-04-18,25.036003,121.864242,0.8308656
C0A931,三和,2025-04-18,25.233153,121.595236,0.67812127
C0A940,金山,2025-04-18,25.223628,121.643967,0.9727519
C0A950,鼻頭角,2025-04-18,25.129036,121.923372,0.40552157
C0A970,三貂角,2025-04-18,25.007606,122.002058,0.92609376
C0A980,社子,2025-04-18,25.109508,121.469681,0.7416853
C0A9C0,天母,2025-04-18,25.117494,121.537169,0.8443955
C0A9F0,內湖,2025-04-18,25.079422,121.57545,0.7721312
C0AC60,三峽,2025-04-18,24.939025,121.369728,0.76711243
C0AC70,信義,2025-04-18,25.037822,121.564597,0.7721312
C0AC80,文山,2025-04-18,25.00235,121.575728,0.5325873
C0ACA0,新莊,2025-04-18,25.051478,121.446756,0.7801288
C0AD10,八里,2025-04-18,25.150211,121.403947,0.38896686
C0AD30,蘆洲,2025-04-18,25.086594,121.472331,0.79194045
C0AD40,土城,2025-04-18,24.973208,121.445169,0.6869593
C0AD50,鶯歌,2025-04-18,24.951533,121.346294,0.6987689
C0AG80,中和,2025-04-18,24.991622,121.491792,0.6869593
C0AH00,汐止,2025-04-18,25.066881,121.658778,0.7721312
C0AH10,永和,2025-04-18,25.01125,121.508111,0.71199524
C0AH40,平等,2025-04-18,25.129142,121.577086,0.15444791
C0AH50,林口,2025-04-18,25.072181,121.38084,0.28894064
C0AH70,松山,2025-04-18,25.04871,121.55042,0.7721312
C0AH80,深坑,2025-04-18,25.002703,121.628328,0.56204927
C0AI00,五股,2025-04-18,25.07445,121.42728,0.30860063
C0AI10,屈尺,2025-04-18,24.92184,121.54475,0.8825534
C0AI20,白沙灣,2025-04-18,25.283128,121.519058,0.89665824
C0AI30,三重,2025-04-18,25.057328,121.500629,0.7920063
C0AI40,石牌,2025-04-18,25.115597,121.513139,0.8579705
C0AJ20,野柳,2025-04-18,25.20703,121.690021,0.91529375
C0AJ30,淡水觀海,2025-04-18,25.184591,121.408616,0.75617373
C0AJ40,石門,2025-04-18,25.273672,121.601198,0.41754872
C0AJ50,水湳洞,2025-04-18,25.123695,121.862238,0.892561
C0AJ60,六塊厝,2025-04-18,25.24,121.4481,0.91830826
C0AJ70,田寮,2025-04-18,25.2698,121.4886,0.9062155
C0AJ80,板橋,2025-04-18,25.0107,121.4489,0.71199524
C0AJ90,澳底,2025-04-18,25.0552,121.9253,0.8739206
C0AK10,太平里,2025-04-18,25.134937,121.364899,0.38175058
C0B010,七堵,2025-04-18,25.094819,121.71713,0.7901227
C0B020,基隆嶼,2025-04-18,25.19141,121.78391,0.3978619
C0B040,大武崙,2025-04-18,25.166676,121.706993,0.91405284
C0B050,八斗子,2025-04-18,25.144754,121.79167,0.94462496
C0B060,暖暖,2025-04-18,25.0957,121.7403,0.6231493
C0C460,復興,2025-04-18,24.820208,121.352281,0.01911936
C0C480,桃園,2025-04-18,24.992425,121.323172,0.4789901
C0C490,八德,2025-04-18,24.928708,121.283289,0.49970672
C0C590,觀音,2025-04-18,25.027072,121.153317,0.03811843
C0C620,蘆竹,2025-04-18,25.084275,121.265767,0.18618487
C0C630,大溪,2025-04-18,24.882853,121.265547,0.21489865
C0C650,平鎮,2025-04-18,24.897503,121.214636,0.41346756
C0C660,楊梅,2025-04-18,24.912375,121.143047,0.47273406
C0C670,龍潭,2025-04-18,24.870056,121.221389,0.16251446
C0C680,龜山,2025-04-18,25.02846,121.38656,0.21175866
C0C700,中壢,2025-04-18,24.977661,121.256375,0.31358993
C0C710,大溪永福,2025-04-18,24.892936,121.324975,0.60025877
C0C720,竹圍,2025-04-18,25.112692,121.239824,0.18444788
C0C730,中大臨海站,2025-04-18,24.966126,121.008581,0.18105443
C0C740,觀音工業區,2025-04-18,25.064764,121.114856,0.09972852
C0C750,新興坑尾,2025-04-18,25.0061,121.0971,0.09202942
C0D430,峨眉,2025-04-18,24.6905,121.017189,0.45443943
C0D480,打鐵坑,2025-04-18,24.849664,121.150789,0.15911976
C0D540,橫山,2025-04-18,24.71116,121.11693,0.29892728
C0D560,竹東,2025-04-18,24.767147,121.057881,0.34663892
C0D580,寶山,2025-04-18,24.735006,121.025192,0.51658624
C0D590,新豐,2025-04-18,24.87068,120.97721,0.020326583
C0D650,湖口,2025-04-18,24.904794,121.043628,0.14712296
C0D660,新竹市東區,2025-04-18,24.798681,120.986942,0.37480316
C0D670,海天一線,2025-04-18,24.831986,120.914438,0.10944221
C0D680,香山濕地,2025-04-18,24.783581,120.914988,0.547694
C0D690,外湖,2025-04-18,24.917735,120.968711,0.35628268
C0D700,關西,2025-04-18,24.7977,121.1732,0.31713206
C0E420,竹南,2025-04-18,24.708978,120.888897,0.3990496
C0E430,南庄,2025-04-18,24.601775,121.000214,0.20384169
C0E550,明德,2025-04-18,24.583486,120.885411,0.45664227
C0E570,白沙屯,2025-04-18,24.549447,120.696803,0.7671286
C0E590,通霄,2025-04-18,24.471892,120.704622,0.6763132
C0E730,頭份,2025-04-18,24.688247,120.912206,0.42819223
C0E740,造橋,2025-04-18,24.637056,120.864778,0.78745806
C0E750,苗栗,2025-04-18,24.564569,120.824575,0.54960227
C0E780,銅鑼,2025-04-18,24.489681,120.790853,0.34068033
C0E791,卓蘭,2025-04-18,24.3126,120.8244,0.355957
C0E810,西湖,2025-04-18,24.562947,120.7485,0.41694725
C0E820,獅潭,2025-04-18,24.539133,120.920042,0.28202862
C0E830,苑裡,2025-04-18,24.439714,120.653053,0.23152451
C0E850,大河,2025-04-18,24.618069,120.948578,0.69268554
C0E870,高鐵苗栗,2025-04-18,24.60725,120.826094,0.7678328
C0E910,海埔,2025-04-18,24.648767,120.772435,0.8001327
C0E920,通霄漁港,2025-04-18,24.498589,120.673876,0.5069092
C0E930,龍鳳,2025-04-18,24.700034,120.859125,0.5320566
C0F0B0,石岡,2025-04-18,24.276061,120.777644,0.53292507
C0F850,東勢,2025-04-18,24.246428,120.833047,0.22988312
C0F970,大坑,2025-04-18,24.173142,120.722289,0.9549215
C0F9I0,神岡,2025-04-18,24.272481,120.658314,0.13480031
C0F9K0,大安,2025-04-18,24.345061,120.588025,0.45160845
C0F9L0,后里,2025-04-18,24.310436,120.729725,0.7309968
C0F9M0,豐原,2025-04-18,24.254322,120.720692,0.8258505
C0F9N0,大里,2025-04-18,24.092464,120.701378,0.98212916
C0F9O0,潭子,2025-04-18,24.213106,120.703933,0.8969305
C0F9P0,清水,2025-04-18,24.312297,120.562242,0.22182377
C0F9Q0,外埔,2025-04-18,24.347817,120.705686,0.46160853
C0F9R0,龍井,2025-04-18,24.184536,120.528972,0.5270494
C0F9S0,烏日,2025-04-18,24.107058,120.624103,0.9856014
C0F9T0,西屯,2025-04-18,24.179494,120.641275,0.8502198
C0F9U0,南屯,2025-04-18,24.137006,120.637969,0.90358764
C0F9X0,大雅(中科園區),2025-04-18,24.21528,120.62445,0.1836063
C0FA10,松柏,2025-04-18,24.429115,120.617482,0.52985823
C0FA20,溫寮,2025-04-18,24.372177,120.583125,0.5274428
C0FA30,梧棲,2025-04-18,24.256003,120.523381,0.22182377
C0FA40,臺中電廠,2025-04-18,24.2146,120.4907,0.38859123
C0FA50,霧峰,2025-04-18,24.0419,120.6995,0.9805269
C0FB70,大甲溪埔,2025-04-18,24.370625,120.620067,0.42212802
C0G620,芬園,2025-04-18,24.015678,120.6213,0.9732866
C0G650,員林,2025-04-18,23.946503,120.585597,0.9624196
C0G660,溪湖,2025-04-18,23.94835,120.479122,0.8362209
C0G720,溪州,2025-04-18,23.851589,120.499093,0.91551286
C0G730,二林,2025-04-18,23.903325,120.376081,0.46752173
C0G740,大城,2025-04-18,23.852487,120.320935,0.5698938
C0G770,福興,2025-04-18,24.041289,120.437669,0.41541305
C0G780,秀水,2025-04-18,24.03405,120.503869,0.89517146
C0G800,埔鹽,2025-04-18,24.000394,120.431683,0.4014196
C0G810,埔心,2025-04-18,23.947633,120.525456,0.8101413
C0G820,田尾,2025-04-18,23.901669,120.509389,0.91867536
C0G830,埤頭,2025-04-18,23.866003,120.452806,0.9236495
C0G860,社頭,2025-04-18,23.897647,120.5862,0.9682932
C0G880,二水,2025-04-18,23.810742,120.6173,0.87761563
C0G890,伸港,2025-04-18,24.148933,120.484403,0.5513659
C0G900,線西,2025-04-18,24.143358,120.443536,0.56735855
C0G910,花壇,2025-04-18,24.032076,120.549461,0.86163145
C0G920,永靖,2025-04-18,23.924703,120.547533,0.91867536
C0G940,竹塘,2025-04-18,23.848253,120.386764,0.51734084
C0G950,防潮門,2025-04-18,24.1835,120.4871,0.5270494
C0G960,福寶,2025-04-18,24.0443,120.3814,0.44324484
C0G970,三豐,2025-04-18,23.882,120.2895,0.52753145
C0G9B0,和美,2025-04-18,24.105169,120.492131,0.5285141
C0H890,埔里,2025-04-18,23.972169,120.952425,0.5308434
C0H960,草屯,2025-04-18,23.973672,120.68085,0.9747527
C0I110,竹山,2025-04-18,23.761225,120.688156,0.7697824
C0I360,水里,2025-04-18,23.812553,120.849792,0.47169486
C0I380,集集,2025-04-18,23.828206,120.801467,0.5075335
C0I410,名間,2025-04-18,23.837053,120.701447,0.75833577
C0I420,國姓,2025-04-18,24.037803,120.855072,0.82943463
C0I460,南投,2025-04-18,23.911469,120.687331,0.9735921
C0K250,崙背,2025-04-18,23.75555,120.318925,0.8446308
C0K280,四湖,2025-04-18,23.630414,120.227125,0.92155147
C0K291,宜梧,2025-04-18,23.536281,120.169329,0.7630641
C0K330,虎尾,2025-04-18,23.719183,120.442036,0.8963458
C0K390,土庫,2025-04-18,23.679029,120.395574,0.8731019
C0K400,斗六,2025-04-18,23.720583,120.541127,0.9027836
C0K410,北港,2025-04-18,23.573957,120.292802,0.86691725
C0K420,西螺,2025-04-18,23.800407,120.467394,0.8591949
C0K430,褒忠,2025-04-18,23.690938,120.303634,0.7821234
C0K440,二崙,2025-04-18,23.772797,120.408944,0.85377485
C0K450,大埤,2025-04-18,23.646074,120.431537,0.94065195
C0K460,斗南,2025-04-18,23.678734,120.478359,0.9459184
C0K470,林內,2025-04-18,23.748675,120.609642,0.8299509
C0K480,莿桐,2025-04-18,23.761192,120.502372,0.9137758
C0K500,元長,2025-04-18,23.64981,120.315024,0.90090615
C0K510,水林,2025-04-18,23.572924,120.24597,0.8737823
C0K530,臺西,2025-04-18,23.701547,120.197559,0.9068676
C0K550,蔦松,2025-04-18,23.514319,120.229736,0.7630641
C0K560,棋山,2025-04-18,23.68645,120.603417,0.8410121
C0K580,高鐵雲林,2025-04-18,23.737456,120.417944,0.89298165
C0K590,雲林東勢,2025-04-18,23.674192,120.255721,0.85856485
C0K600,箔子寮,2025-04-18,23.6197,120.14,0.544875
C0M520,東後寮,2025-04-18,23.369908,120.248065,0.81903535
C0M640,中埔,2025-04-18,23.42538,120.5229,0.7185582
C0M650,朴子,2025-04-18,23.43463,120.23902,0.84270424
C0M660,溪口,2025-04-18,23.604131,120.403569,0.9054165
C0M670,大林,2025-04-18,23.600616,120.45841,0.9169601
C0M680,太保,2025-04-18,23.455062,120.331455,0.87007004
C0M690,水上,2025-04-18,23.419734,120.388909,0.8460309
C0M700,竹崎,2025-04-18,23.526178,120.555508,0.761917
C0M710,東石,2025-04-18,23.458927,120.15385,0.6831415
C0M720,番路,2025-04-18,23.464657,120.554156,0.7166576
C0M730,嘉義市東區,2025-04-18,23.457673,120.460531,0.8098871
C0M740,六腳,2025-04-18,23.492871,120.290625,0.84769833
C0M750,布袋,2025-04-18,23.380878,120.167789,0.82413304
C0M760,民雄,2025-04-18,23.551754,120.428457,0.90731573
C0M770,嘉義梅山,2025-04-18,23.585398,120.555587,0.9076746
C0M780,鹿草,2025-04-18,23.41134,120.30835,0.8271348
C0M790,新港,2025-04-18,23.553269,120.345728,0.92296946
C0M800,茶山,2025-04-18,23.299075,120.664767,0.6042515
C0M880,好美里,2025-04-18,23.3364,120.138,0.8234427
C0N010,鯤鯓國小,2025-04-18,23.1879,120.0889,0.8376172
C0N020,城西,2025-04-18,23.0568,120.0956,0.8583921
C0N030,四草,2025-04-18,23.0235,120.1116,0.8580891
C0N040,蘆竹溝,2025-04-18,23.2344,120.0961,0.8452939
C0N050,蚵寮,2025-04-18,23.301,120.1104,0.8258263
C0O830,北寮,2025-04-18,23.079561,120.495008,0.8496664
C0O840,王爺宮,2025-04-18,23.222064,120.40085,0.77042943
C0O860,大內,2025-04-18,23.11885,120.36083,0.90995127
C0O900,善化,2025-04-18,23.112883,120.297219,0.8943825
C0O960,崎頂,2025-04-18,22.959547,120.369317,0.8143936
C0O970,虎頭埤,2025-04-18,23.021375,120.347878,0.87390625
C0O980,新市,2025-04-18,23.061614,120.298197,0.86613035
C0O990,媽廟,2025-04-18,22.99175,120.293525,0.8535672
C0R150,三地門,2025-04-18,22.709889,120.639944,0.6106338
C0R160,鹽埔,2025-04-18,22.739558,120.530778,0.8264314
C0R190,赤山,2025-04-18,22.592333,120.614306,0.76795787
C0R220,潮州,2025-04-18,22.534361,120.54,0.84075934
C0R240,來義,2025-04-18,22.527306,120.625111,0.7359376
C0R260,春日,2025-04-18,22.370361,120.628306,0.6252216
C0R270,琉球嶼,2025-04-18,22.332244,120.362236,0.83421576
C0R280,檳榔,2025-04-18,22.076078,120.836777,0.0074732066
C0R320,車城,2025-04-18,22.0744,120.716247,0.008893498
C0R341,牡丹,2025-04-18,22.130036,120.792639,0.007972427
C0R350,貓鼻頭,2025-04-18,21.921774,120.7358,0.0030085894
C0R470,高樹,2025-04-18,22.826389,120.600806,0.7832305
C0R480,長治,2025-04-18,22.693128,120.542622,0.8535989
C0R490,九如,2025-04-18,22.7405,120.490503,0.8314989
C0R520,崁頂,2025-04-18,22.514781,120.506914,0.84629446
C0R540,佳冬,2025-04-18,22.419456,120.552375,0.6720026
C0R550,新埤,2025-04-18,22.467947,120.582894,0.80986494
C0R560,新園,2025-04-18,22.5434,120.461558,0.84038925
C0R570,麟洛,2025-04-18,22.65078,120.52719,0.7933903
C0R580,南州,2025-04-18,22.48591,120.50274,0.85283136
C0R590,里港,2025-04-18,22.77919,120.49459,0.87698764
C0R620,墾雷,2025-04-18,21.900836,120.855269,0.0012385297
C0R640,東港,2025-04-18,22.46247,120.44074,0.85283136
C0R650,竹田,2025-04-18,22.58486,120.54344,0.7616514
C0R660,枋寮,2025-04-18,22.367722,120.590647,0.6816995
C0R670,楓港,2025-04-18,22.190131,120.692156,0.024886884
C0R680,佳樂水,2025-04-18,21.993578,120.861633,0.008351907
C0R690,墾丁,2025-04-18,21.966756,120.810269,0.0039931317
C0R700,枋山,2025-04-18,22.246844,120.661086,0.073238656
C0R710,龍磐,2025-04-18,21.931672,120.838942,0.0011156588
C0R720,旭海,2025-04-18,22.205403,120.887614,0.011289862
C0R730,大坪頂,2025-04-18,22.024633,120.69355,0.002788002
C0R741,獅子,2025-04-18,22.202308,120.705236,0.042658795
C0R760,南仁湖,2025-04-18,22.084681,120.863353,0.003991425
C0R770,保力,2025-04-18,22.071122,120.764111,0.0062381336
C0R780,滿州,2025-04-18,22.024403,120.839892,0.015247068
C0R790,九棚,2025-04-18,22.14195,120.889281,0.0111733945
C0R800,丹路,2025-04-18,22.204481,120.750989,0.025401525
C0R810,內獅,2025-04-18,22.305064,120.642986,0.08051578
C0R830,高士,2025-04-18,22.121825,120.836781,0.0024607505
C0R850,林邊,2025-04-18,22.4634,120.5339,0.8473987
C0R860,鼻頭,2025-04-18,22.1043,120.8979,0.013499406
C0R870,興海,2025-04-18,21.9752,120.8439,0.008622308
C0R880,後壁湖,2025-04-18,21.9457,120.7457,0.0064967778
C0R890,山海,2025-04-18,21.9878,120.7091,0.0063086525
C0R900,竹坑,2025-04-18,22.1385,120.7022,0.008694971
C0R910,下寮,2025-04-18,22.3929,120.5548,0.6816995
C0R920,塭仔,2025-04-18,22.4169,120.5197,0.68001014
C0R930,萬丹,2025-04-18,22.5885,120.4851,0.7892451
C0R940,加祿堂,2025-04-18,22.3363,120.6217,0.33427364
C0R950,萬隆國小,2025-04-18,22.507667,120.587817,0.7922033
C0R960,內埔,2025-04-18,22.608483,120.570714,0.7444234
C0S710,鹿野,2025-04-18,22.917711,121.122994,0.034990683
C0S730,綠島,2025-04-18,22.6672,121.47533,0.010380019
C0S740,池上,2025-04-18,23.119628,121.209469,0.0037004028
C0S770,大溪山,2025-04-18,22.478475,120.943325,0.19148684
C0S790,金崙,2025-04-18,22.538122,120.966875,0.38926992
C0S810,東河,2025-04-18,22.972672,121.303986,0.13107088
C0S830,長濱,2025-04-18,23.286817,121.411975,0.055849526
C0S840,南田,2025-04-18,22.279725,120.889208,0.09792088
C0S890,關山,2025-04-18,23.0395,121.175017,0.061143946
C0S900,蘭嶼高中,2025-04-18,22.04909,121.51214,0.010281084
C0S910,蘭嶼燈塔,2025-04-18,22.081197,121.503117,0.003219037
C0S920,金峰嘉蘭,2025-04-18,22.594789,120.960825,0.5353423
C0S930,延平,2025-04-18,22.902581,121.084058,0.06912371
C0S940,石寧山,2025-04-18,23.223772,121.406639,0.30622494
C0S950,七塊厝,2025-04-18,22.954453,121.229922,0.0054762643
C0S960,香蘭,2025-04-18,22.587569,120.993375,0.6040142
C0S970,加津林,2025-04-18,22.416211,120.926942,0.16676019
C0S990,山豬窟,2025-04-18,22.318619,120.857372,0.016226131
C0SA00,歷坵,2025-04-18,22.520969,120.89185,0.1445654
C0SA10,檳榔四格山,2025-04-18,22.810031,121.109308,0.06428531
C0SA30,都歷,2025-04-18,23.020333,121.323642,0.19302818
C0SA40,瑞和,2025-04-18,22.974361,121.156697,0.08843501
C0SA60,知本（水試所）,2025-04-18,22.702394,121.082761,0.66267866
C0SA80,土坂,2025-04-18,22.453108,120.887572,0.44389513
C0SA90,達仁林場,2025-04-18,22.264347,120.823972,0.001456337
C0SB10,美和,2025-04-18,22.682078,121.060236,0.6560374
C0SB20,富岡,2025-04-18,22.792467,121.192669,0.4691105
C0SB30,新蘭,2025-04-18,22.869214,121.223228,0.33929715
C0SB40,興隆,2025-04-18,22.913661,121.257469,0.31461555
C0SB50,叭嗡嗡,2025-04-18,23.047062,121.343223,0.33117613
C0SB60,白守蓮,2025-04-18,23.126769,121.401914,0.22327065
C0SB70,小港漁港,2025-04-18,23.158558,121.400431,0.3676068
C0SB80,長濱漁港,2025-04-18,23.313644,121.459994,0.4334703
C0T870,鯉魚潭,2025-04-18,23.935639,121.508944,0.14140548
C0T900,西林,2025-04-18,23.8119,121.441458,0.11445304
C0T960,光復,2025-04-18,23.660694,121.424964,0.20200491
C0T9A0,月眉山,2025-04-18,23.809928,121.539828,0.0026414315
C0T9D0,和中,2025-04-18,24.26676,121.74103,0.28819442
C0T9E0,大坑,2025-04-18,23.880628,121.581981,0.003138301
C0T9F0,水璉,2025-04-18,23.797131,121.542514,0.05461125
C0T9I0,豐濱,2025-04-18,23.583897,121.514806,0.2120513
C0T9M0,靜浦,2025-04-18,23.455167,121.495028,0.29864407
C0T9N0,富里,2025-04-18,23.171639,121.249378,0.018672451
C0TA10,花蓮漁港,2025-04-18,23.995322,121.638331,0.2726548
C0TA20,加灣,2025-04-18,24.082025,121.608944,0.015553685
C0TA30,鹽寮,2025-04-18,23.845606,121.592664,0.34076074
C0U600,礁溪,2025-04-18,24.817539,121.765608,0.47555333
C0U650,玉蘭,2025-04-18,24.675286,121.587061,0.20576416
C0U750,龜山島,2025-04-18,24.841667,121.953133,0.0055777295
C0U760,東澳,2025-04-18,24.52196,121.83318,0.9270522
C0U770,南澳,2025-04-18,24.44935,121.81022,0.18371259
C0U780,五結,2025-04-18,24.68637,121.79794,0.88957554
C0U860,頭城,2025-04-18,24.85323,121.8308,0.49551016
C0U870,大礁溪,2025-04-18,24.791042,121.675047,0.0504819
C0U880,北關,2025-04-18,24.9072,121.8734,0.89103717
C0U890,三星,2025-04-18,24.66812,121.65302,0.9467049
C0U900,內城,2025-04-18,24.71813,121.68766,0.865625
C0U910,冬山,2025-04-18,24.63373,121.7937,0.9830455
C0U940,羅東,2025-04-18,24.68184,121.74934,0.8824186
C0U970,大福,2025-04-18,24.80064,121.81389,0.6027623
C0U990,員山,2025-04-18,24.74435,121.72247,0.8845553
C0UA00,土場,2025-04-18,24.576533,121.495333,0.15529533
C0UA80,大溪漁港,2025-04-18,24.941801,121.902955,0.8718663
C0UA90,石城,2025-04-18,24.980444,121.951214,0.9516204
C0UB00,淡江大學蘭陽校園,2025-04-18,24.823239,121.730383,0.11193132
C0UB10,蘇澳,2025-04-18,24.5969,121.8571,0.9825752
C0UB20,壯圍,2025-04-18,24.7359,121.8163,0.8923683
C0V350,溪埔,2025-04-18,22.738578,120.446797,0.8696647
C0V360,內門,2025-04-18,22.975481,120.466769,0.84678805
C0V370,古亭坑,2025-04-18,22.893178,120.401947,0.8189902
C0V400,阿公店,2025-04-18,22.804194,120.355528,0.80521715
C0V440,鳳山,2025-04-18,22.646653,120.356122,0.7927698
C0V450,鳳森,2025-04-18,22.545064,120.392592,0.7633759
C0V490,新興,2025-04-18,22.627422,120.298803,0.807112
C0V530,阿蓮,2025-04-18,22.883208,120.327508,0.8288771
C0V610,梓官,2025-04-18,22.760558,120.267211,0.7802348
C0V620,永安,2025-04-18,22.82315,120.236856,0.79113257
C0V630,茄萣,2025-04-18,22.906642,120.182608,0.8279043
C0V640,湖內,2025-04-18,22.887139,120.2445,0.806754
C0V650,彌陀,2025-04-18,22.783806,120.246361,0.7764079
C0V660,岡山,2025-04-18,22.797078,120.294958,0.7764079
C0V680,仁武,2025-04-18,22.701083,120.347722,0.7989312
C0V690,鼓山,2025-04-18,22.623325,120.275575,0.807112
C0V700,三民,2025-04-18,22.645017,120.311233,0.7900428
C0V710,苓雅,2025-04-18,22.622742,120.330669,0.8141749
C0V720,林園,2025-04-18,22.507747,120.394511,0.81195223
C0V730,大寮,2025-04-18,22.605614,120.395717,0.8084842
C0V740,旗山,2025-04-18,22.888614,120.483597,0.84556293
C0V750,路竹,2025-04-18,22.854997,120.259439,0.8020061
C0V760,橋頭,2025-04-18,22.757806,120.30575,0.7802348
C0V770,大社,2025-04-18,22.730306,120.346639,0.78231376
C0V790,萬山,2025-04-18,22.905944,120.688056,0.4627869
C0V800,六龜,2025-04-18,22.997889,120.633583,0.6650013
C0V810,左營,2025-04-18,22.67491,120.28491,0.7900428
C0V820,小林,2025-04-18,23.148408,120.63325,0.4166119
C0V840,鳳鼻頭,2025-04-18,22.5083,120.3591,0.84580344
C0V850,蚵仔寮,2025-04-18,22.7256,120.2527,0.7857237
C0V860,南寮,2025-04-18,22.7616,120.2339,0.7857237
C0V870,文安,2025-04-18,22.8025,120.2164,0.7837004
C0V880,興達,2025-04-18,22.8778,120.2127,0.8125394
C0V890,前鎮,2025-04-18,22.5718,120.3117,0.8070065
C0V900,汕尾,2025-04-18,22.4782,120.4151,0.85283136
C0V910,大樹,2025-04-18,22.684645,120.432803,0.81669605
C0W200,湖西,2025-04-18,23.596314,119.67275,0.0040222146
C0X050,東河,2025-04-18,23.296598,120.385608,0.8385945
C0X060,下營,2025-04-18,23.22695,120.256261,0.9071635
C0X080,佳里,2025-04-18,23.173039,120.145086,0.8376172
C0X100,臺南市北區,2025-04-18,23.010394,120.194228,0.85469604
C0X110,臺南市南區,2025-04-18,22.961189,120.188378,0.83081424
C0X120,麻豆,2025-04-18,23.183289,120.248611,0.8924991
C0X130,官田,2025-04-18,23.193217,120.315422,0.8880323
C0X140,西港,2025-04-18,23.125608,120.203108,0.8855667
C0X150,安定,2025-04-18,23.102614,120.227839,0.8855667
C0X160,仁德,2025-04-18,22.968258,120.257689,0.8281334
C0X170,關廟,2025-04-18,22.963017,120.327797,0.8567469
C0X180,山上,2025-04-18,23.0757,120.363253,0.9088527
C0X190,安平,2025-04-18,22.993161,120.152181,0.85469604
C0X200,左鎮,2025-04-18,23.056758,120.408522,0.87852645
C0X210,白河,2025-04-18,23.347466,120.414427,0.82626617
C0X220,學甲,2025-04-18,23.230367,120.182187,0.8417222
C0X230,鹽水,2025-04-18,23.272621,120.247641,0.84168446
C0X240,關子嶺,2025-04-18,23.331169,120.508025,0.5616728
C0X250,新營,2025-04-18,23.310689,120.316681,0.8894903
C0X260,後壁,2025-04-18,23.366358,120.362326,0.84608644
C0X280,將軍,2025-04-18,23.214999,120.13577,0.8452939
C0X290,北門,2025-04-18,23.267772,120.125481,0.8452939
C0X300,鹿寮,2025-04-18,23.386047,120.477331,0.83317786
C0X320,柳營,2025-04-18,23.253328,120.375253,0.8508697
C0Z020,明里,2025-04-18,23.208717,121.262342,0.12899804
C0Z061,玉里,2025-04-18,23.3215,121.339656,0.22026302
C0Z070,舞鶴,2025-04-18,23.46811,121.37407,0.0368941
C0Z080,富源,2025-04-18,23.587642,121.378225,0.09995306
C0Z100,東華,2025-04-18,23.89525,121.549833,0.30404693
C0Z150,吉安光華,2025-04-18,23.930925,121.595153,0.323164
C0Z160,鳳林,2025-04-18,23.746114,121.453411,0.24746187
C0Z170,卓溪,2025-04-18,23.3443,121.3029,0.04971555
C0Z180,新城,2025-04-18,24.040486,121.604878,0.22954957
C0Z190,富世,2025-04-18,24.14743,121.6297,0.022889366
C0Z200,萬榮,2025-04-18,23.709219,121.420106,0.19820146
C0Z210,瑞穗,2025-04-18,23.5239,121.39021,0.22960682
C0Z230,和平,2025-04-18,24.30717,121.77007,0.29657793
C0Z270,蕃薯寮,2025-04-18,23.73835,121.540108,0.05862502
C0Z280,德武,2025-04-18,23.47426,121.41071,0.099282905
C0Z300,東里,2025-04-18,23.26853,121.30547,0.23249185
C0Z310,清水斷崖,2025-04-18,24.218294,121.689142,0.021122886
C0Z330,安通山,2025-04-18,23.290728,121.348528,0.045312744
C2A540,四堵,2025-04-18,24.8926,121.745736,0.19536719
C2A560,福山,2025-04-18,24.776203,121.502811,0.77074945
C2A650,火燒寮,2025-04-18,25.002719,121.742892,0.35784802
C2A660,瑞芳,2025-04-18,25.113169,121.801147,0.8188968
C2A880,福隆,2025-04-18,25.017842,121.942083,0.95397097
C2A920,富貴角,2025-04-18,25.263783,121.565258,0.33088568
C2C410,中央大學,2025-04-18,24.967652,121.185165,0.20923074
C2D720,關西工作站,2025-04-18,24.757275,121.184792,0.28067848
C2D730,寶山農場,2025-04-18,24.732444,120.976153,0.46742296
C2E520,大湖,2025-04-18,24.414939,120.870872,0.29230377
C2E540,龍溪,2025-04-18,24.606489,120.783933,0.76973504
C2E970,八甲,2025-04-18,24.535811,120.795983,0.26664573
C2F000,大肚,2025-04-18,24.15295,120.572117,0.3921417
C2F930,大甲,2025-04-18,24.347667,120.640403,0.18674575
C2F9A0,中竹林,2025-04-18,24.103556,120.751061,0.6949828
C2G640,鹿港,2025-04-18,24.0753,120.430481,0.44324484
C2G840,北斗,2025-04-18,23.877586,120.514222,0.91800314
C2G870,芳苑,2025-04-18,23.922303,120.320025,0.2961657
C2G980,田頭村,2025-04-18,23.8263,120.444175,0.9186202
C2G9A0,畜試所彰化,2025-04-18,23.86045,120.557964,0.9673218
C2H950,中寮,2025-04-18,23.884447,120.766406,0.745925
C2H9F0,柑林,2025-04-18,24.018658,120.847072,0.88311905
C2H9H0,苗改南投蜂場,2025-04-18,23.852589,120.693481,0.7898485
C2H9T0,名間竹圍,2025-04-18,23.859914,120.637572,0.3714692
C2H9U0,鳳鵬,2025-04-18,23.763919,120.788061,0.1672818
C2K620,馬光農場,2025-04-18,23.721453,120.378864,0.9003672
C2K630,荷苞,2025-04-18,23.657717,120.595144,0.7885169
C2M410,馬頭山,2025-04-18,23.324361,120.582017,0.7418173
C2M910,嘉義大學,2025-04-18,23.471325,120.485903,0.791993
C2M920,朴子農改,2025-04-18,23.469889,120.259383,0.8363221
C2N160,西拉雅風管處,2025-04-18,23.189481,120.335297,0.88747656
C2O810,曾文,2025-04-18,23.219681,120.497328,0.8161194
C2O930,玉井,2025-04-18,23.126042,120.46055,0.9088527
C2O950,安南,2025-04-18,23.076694,120.144861,0.7813234
C2R170,屏東,2025-04-18,22.66027,120.49403,0.7933903
C2R970,屏科大,2025-04-18,22.648275,120.619247,0.6915607
C2V250,甲仙,2025-04-18,23.080106,120.591758,0.64054835
C2V260,月眉,2025-04-18,22.971003,120.539853,0.83901924
C2V310,美濃,2025-04-18,22.898792,120.51907,0.8516818
C2W230,畜試所澎湖,2025-04-18,23.628342,119.513206,0.0036251475
CAG100,王功漁港,2025-04-18,23.96824,120.32586,0.23964931
CAH030,茶改場竹圍站,2025-04-18,23.860083,120.637528,0.3714692
CAJ050,海口故事園區,2025-04-18,23.57543,120.14121,0.55211496
CAL110,布袋國中,2025-04-18,23.35893,120.18026,0.82413304
CAN130,水試所海水繁養殖中心,2025-04-18,23.120802,120.07968,0.79716265
CAN140,六官養殖協會,2025-04-18,23.22881,120.29962,0.9071635
CAQ030,崎峰國小,2025-04-18,22.42565,120.49521,0.85283136
E2K600,四湖植物園,2025-04-18,23.676986,120.163433,0.9178087
E2P980,林試六龜中心,2025-04-18,22.991703,120.645722,0.6376295
E2S960,林試太麻里2,2025-04-18,22.598,120.99775,0.61000943
E2S980,林試太麻里1,2025-04-18,22.598922,120.980044,0.53535557
G2AI50,關渡,2025-04-18,25.11575,121.492,0.71769875
G2F820,農試所(霧峰),2025-04-18,24.031261,120.688133,0.98176986
G2L020,農試嘉義分所,2025-04-18,23.485028,120.473806,0.8305373
G2M350,農試溪口農場,2025-04-18,23.58565,120.408111,0.9054165
G2P820,農試鳳山分所,2025-04-18,22.646611,120.356083,0.7927698
K2E360,苗栗農改場,2025-04-18,24.495722,120.829111,0.2879739
K2E710,苗改生物防治研究中心,2025-04-18,24.422861,120.871833,0.36957005
K2F750,種苗改良場,2025-04-18,24.225972,120.800917,0.23749018
U2HA50,臺大竹山,2025-04-18,23.756972,120.681556,0.7593073
V2C250,八德合作社,2025-04-18,24.93775,121.266389,0.38632175
V2C260,八德蔬果,2025-04-18,24.978508,121.281819,0.3783623
V2K610,大庄合作社,2025-04-18,23.8068,120.367939,0.7577383
V2K620,麥寮合作社,2025-04-18,23.753836,120.294783,0.78977555
