站號,站名,日期,lat,lon,BlastGRU-TW
K2F750,種苗繁殖,2025-01-29,24.225972,120.800917,0.0018347543
C0R170,屏東,2025-01-29,22.660269,120.494072,0.0035211993
467990,馬祖,2025-01-29,26.169269,119.923419,0.000326936
C2E540,後龍,2025-01-29,24.606489,120.783933,0.0008575578
467300,東吉島,2025-01-29,23.25695,119.667467,0.00046865744
G2F820,農業試驗所,2025-01-29,24.031261,120.688133,0.005480943
467410,臺南,2025-01-29,22.993239,120.204772,0.0010460559
C0V310,美濃,2025-01-29,22.898742,120.519153,0.0066935965
E2S960,林試太麻里2,2025-01-29,22.598014,120.989761,0.00023422403
72C440,桃園農改,2025-01-29,24.950944,121.030583,0.00081373873
C1H860,瑞岩,2025-01-29,24.123772,121.18345,0.0003542477
72G600,臺中農改,2025-01-29,24.003028,120.534389,0.0022960783
72N100,臺南農改,2025-01-29,23.0605,120.342194,0.0030009102
72T250,花蓮農改,2025-01-29,23.975222,121.563889,0.00075600337
467620,蘭嶼,2025-01-29,22.036969,121.558339,0.0003311242
K2E360,苗栗農改,2025-01-29,24.495722,120.829111,0.0008052342
467050,新屋,2025-01-29,25.006744,121.047486,0.0010555913
467550,玉山,2025-01-29,23.487614,120.959522,0.00032015023
466881,新北,2025-01-29,24.9593,121.52,0.00086725765
467540,大武,2025-01-29,22.355675,120.903789,0.0013984053
72Q010,高雄農改,2025-01-29,22.709333,120.525889,0.002192996
U2H480,臺大溪頭,2025-01-29,23.670306,120.798194,0.0012034796
C0Z180,新城,2025-01-29,24.03946,121.60454,0.00073041354
B2N890,畜試所,2025-01-29,23.058972,120.336406,0.0030009102
467441,高雄,2025-01-29,22.7304,120.3125,0.0012156032
