站號,站名,日期,lat,lon,BlastGRU-TW
CAH030,茶改場竹圍站,2025-12-30,23.860083,120.637528,0.009901803
V2K610,大庄合作社,2025-12-30,23.8068,120.367939,0.11021917
G2AI50,關渡,2025-12-30,25.11575,121.492,0.36984846
V2C260,八德蔬果,2025-12-30,24.978508,121.281819,0.016923139
A2K570,古坑花卉中心,2025-12-30,23.63353,120.55239,0.094796896
467571,新竹,2025-12-30,24.827853,121.014219,0.004269501
V2C250,八德合作社,2025-12-30,24.93775,121.266389,0.0059692175
