站號,站名,日期,lat,lon,BlastGRU-TW
12J990,口湖工作站,2025-06-05,23.589978,120.180394,0.2125215
12Q970,東港工作站,2025-06-05,22.479997,120.466058,0.81234336
12Q980,恆春工作站,2025-06-05,22.079678,120.714425,0.101062804
466881,新北,2025-06-05,24.959207,121.525196,0.49155664
466900,淡水,2025-06-05,25.164889,121.448906,0.8769983
466920,臺北,2025-06-05,25.037658,121.514853,0.2977112
466940,基隆,2025-06-05,25.133314,121.740475,0.24180372
466990,花蓮,2025-06-05,23.975128,121.613275,0.71275425
467050,新屋,2025-06-05,25.006725,121.047492,0.9889532
467080,宜蘭,2025-06-05,24.763975,121.756528,0.8871756
467270,田中,2025-06-05,23.873803,120.581286,0.18542409
467280,後龍,2025-06-05,24.648563,120.831834,0.97130525
467290,古坑,2025-06-05,23.633639,120.551889,0.24208559
467300,東吉島,2025-06-05,23.25727,119.66762,0.5860604
467350,澎湖,2025-06-05,23.565503,119.563094,0.8045891
467410,臺南,2025-06-05,22.99328,120.20492,0.140184
467420,永康,2025-06-05,23.038386,120.2367,0.09879649
467441,高雄,2025-06-05,22.730432,120.312516,0.44658184
467480,嘉義,2025-06-05,23.495925,120.432906,0.095263064
467490,臺中,2025-06-05,24.145736,120.684075,0.009786042
467540,大武,2025-06-05,22.35572,120.90374,0.084575444
467571,新竹,2025-06-05,24.827853,121.014219,0.9377375
467590,恆春,2025-06-05,22.003897,120.746339,0.14188229
467610,成功,2025-06-05,23.097486,121.373428,0.2957687
467620,蘭嶼,2025-06-05,22.0369,121.55843,0.9962706
467660,臺東,2025-06-05,22.752211,121.154586,0.18859245
467790,墾丁雷達站,2025-06-05,21.948235,120.808028,0.11489825
72AI40,桃改樹林分場,2025-06-05,24.944503,121.386972,0.25049478
72C440,桃園農改場,2025-06-05,24.950944,121.030583,0.98998547
72D680,桃改新埔分場,2025-06-05,24.834444,121.066111,0.9818427
72G600,臺中農改場,2025-06-05,24.003028,120.534389,0.44508636
72K220,南改斗南分場,2025-06-05,23.634556,120.477333,0.49280247
72M360,南改義竹分場,2025-06-05,23.360694,120.279361,0.119797654
72M700,南改鹿草分場,2025-06-05,23.416869,120.283061,0.11696557
72N100,臺南農改場,2025-06-05,23.0605,120.342194,0.07532265
72N240,七股研究中心,2025-06-05,23.081672,120.062894,0.14243777
72Q010,高雄農改場,2025-06-05,22.709333,120.525889,0.08406997
72S200,東改班鳩分場,2025-06-05,22.829528,121.077694,0.38198018
72S590,東改賓朗果園,2025-06-05,22.813889,121.071278,0.5314006
72T250,花蓮農改場,2025-06-05,23.975222,121.563889,0.83009225
72U480,花改蘭陽分場,2025-06-05,24.686306,121.716583,0.8918616
72V140,高改旗南分場,2025-06-05,22.857861,120.516667,0.052705012
82A750,茶改北部分場,2025-06-05,24.955778,121.631222,0.8580487
82C160,茶改場,2025-06-05,24.908472,121.185333,0.96431774
82H840,茶改南部分場,2025-06-05,23.762528,120.7405,0.7358345
82S580,茶改東部分場,2025-06-05,22.907694,121.130139,0.36487398
A2C560,農工中心,2025-06-05,24.985917,121.239833,0.9602393
A2K360,水試臺西試驗場,2025-06-05,23.717231,120.190522,0.17700131
A2K570,古坑花卉中心,2025-06-05,23.63353,120.55239,0.24208559
A2K630,臺大雲林校區,2025-06-05,23.730628,120.423903,0.23389943
A2N290,臺南蘭花園區,2025-06-05,23.340258,120.379661,0.093225196
B2E890,畜試北區分所,2025-06-05,24.527806,120.770972,0.9560889
B2N890,畜產試驗所,2025-06-05,23.058972,120.336406,0.075946994
B2Q810,畜試南區分所,2025-06-05,21.945583,120.802167,0.10120721
B2U990,畜試東區分所,2025-06-05,24.669039,121.832561,0.63566655
C0A520,山佳,2025-06-05,24.974944,121.402008,0.352651
C0A530,坪林,2025-06-05,24.938183,121.70975,0.951772
C0A550,泰平,2025-06-05,24.971197,121.823711,0.8779882
C0A570,桶後,2025-06-05,24.848222,121.597992,0.85789084
C0A640,石碇,2025-06-05,24.993969,121.662917,0.95155054
C0A770,科教館,2025-06-05,25.096356,121.516507,0.37161213
C0A860,大坪,2025-06-05,25.165914,121.632969,0.96449345
C0A890,雙溪,2025-06-05,25.036003,121.864242,0.85014486
C0A931,三和,2025-06-05,25.233153,121.595236,0.8308909
C0A940,金山,2025-06-05,25.223628,121.643967,0.16187482
C0A950,鼻頭角,2025-06-05,25.129036,121.923372,0.9092488
C0A970,三貂角,2025-06-05,25.007606,122.002058,0.81070787
C0A980,社子,2025-06-05,25.109508,121.469681,0.82856596
C0A9C0,天母,2025-06-05,25.117494,121.537169,0.5106158
C0A9F0,內湖,2025-06-05,25.079422,121.57545,0.2977112
C0AC60,三峽,2025-06-05,24.939025,121.369728,0.29459262
C0AC70,信義,2025-06-05,25.037822,121.564597,0.29771146
C0AC80,文山,2025-06-05,25.00235,121.575728,0.58860666
C0ACA0,新莊,2025-06-05,25.051478,121.446756,0.26774308
C0AD10,八里,2025-06-05,25.150211,121.403947,0.7260297
C0AD30,蘆洲,2025-06-05,25.086594,121.472331,0.38480684
C0AD40,土城,2025-06-05,24.973208,121.445169,0.41722256
C0AD50,鶯歌,2025-06-05,24.951533,121.346294,0.38834703
C0AG80,中和,2025-06-05,24.991622,121.491792,0.41722256
C0AH00,汐止,2025-06-05,25.066881,121.658778,0.29771146
C0AH10,永和,2025-06-05,25.01125,121.508111,0.38447884
C0AH40,平等,2025-06-05,25.129142,121.577086,0.9484151
C0AH50,林口,2025-06-05,25.072181,121.38084,0.9587146
C0AH70,松山,2025-06-05,25.04871,121.55042,0.29771146
C0AH80,深坑,2025-06-05,25.002703,121.628328,0.5722532
C0AI00,五股,2025-06-05,25.07445,121.42728,0.9218368
C0AI10,屈尺,2025-06-05,24.92184,121.54475,0.44314778
C0AI20,白沙灣,2025-06-05,25.283128,121.519058,0.61544836
C0AI30,三重,2025-06-05,25.057328,121.500629,0.26744217
C0AI40,石牌,2025-06-05,25.115597,121.513139,0.46766895
C0AJ20,野柳,2025-06-05,25.20703,121.690021,0.07848416
C0AJ30,淡水觀海,2025-06-05,25.184591,121.408616,0.5176249
C0AJ40,石門,2025-06-05,25.273672,121.601198,0.9293736
C0AJ50,水湳洞,2025-06-05,25.123695,121.862238,0.15464394
C0AJ60,六塊厝,2025-06-05,25.24,121.4481,0.5293441
C0AJ70,田寮,2025-06-05,25.2698,121.4886,0.57964885
C0AJ80,板橋,2025-06-05,25.0107,121.4489,0.38447884
C0AJ90,澳底,2025-06-05,25.0552,121.9253,0.6904693
C0AK10,太平里,2025-06-05,25.134937,121.364899,0.7541869
C0B010,七堵,2025-06-05,25.094819,121.71713,0.39572686
C0B020,基隆嶼,2025-06-05,25.19141,121.78391,0.651391
C0B040,大武崙,2025-06-05,25.166676,121.706993,0.36441624
C0B050,八斗子,2025-06-05,25.144754,121.79167,0.21822573
C0B060,暖暖,2025-06-05,25.0957,121.7403,0.6527831
C0C460,復興,2025-06-05,24.820208,121.352281,0.9093154
C0C480,桃園,2025-06-05,24.992425,121.323172,0.6661781
C0C490,八德,2025-06-05,24.928708,121.283289,0.67434686
C0C590,觀音,2025-06-05,25.027072,121.153317,0.98809856
C0C620,蘆竹,2025-06-05,25.084275,121.265767,0.8834389
C0C630,大溪,2025-06-05,24.882853,121.265547,0.90993994
C0C650,平鎮,2025-06-05,24.897503,121.214636,0.87297845
C0C660,楊梅,2025-06-05,24.912375,121.143047,0.91143596
C0C670,龍潭,2025-06-05,24.870056,121.221389,0.95551866
C0C680,龜山,2025-06-05,25.02846,121.38656,0.94155353
C0C700,中壢,2025-06-05,24.977661,121.256375,0.8795725
C0C710,大溪永福,2025-06-05,24.892936,121.324975,0.51488185
C0C720,竹圍,2025-06-05,25.112692,121.239824,0.8000459
C0C730,中大臨海站,2025-06-05,24.966126,121.008581,0.98559886
C0C740,觀音工業區,2025-06-05,25.064764,121.114856,0.98890364
C0C750,新興坑尾,2025-06-05,25.0061,121.0971,0.9811507
C0D430,峨眉,2025-06-05,24.6905,121.017189,0.9801661
C0D480,打鐵坑,2025-06-05,24.849664,121.150789,0.9569473
C0D540,橫山,2025-06-05,24.71116,121.11693,0.9707427
C0D560,竹東,2025-06-05,24.767147,121.057881,0.9671766
C0D580,寶山,2025-06-05,24.735006,121.025192,0.9439221
C0D590,新豐,2025-06-05,24.87068,120.97721,0.99291605
C0D650,湖口,2025-06-05,24.904794,121.043628,0.97398615
C0D660,新竹市東區,2025-06-05,24.798681,120.986942,0.946724
C0D670,海天一線,2025-06-05,24.831986,120.914438,0.9927676
C0D680,香山濕地,2025-06-05,24.783581,120.914988,0.86561966
C0D690,外湖,2025-06-05,24.917735,120.968711,0.86842036
C0D700,關西,2025-06-05,24.7977,121.1732,0.9548185
C0E420,竹南,2025-06-05,24.708978,120.888897,0.98441535
C0E430,南庄,2025-06-05,24.601775,121.000214,0.9827249
C0E550,明德,2025-06-05,24.583486,120.885411,0.9787377
C0E570,白沙屯,2025-06-05,24.549447,120.696803,0.9699539
C0E590,通霄,2025-06-05,24.471892,120.704622,0.9764502
C0E730,頭份,2025-06-05,24.688247,120.912206,0.98208094
C0E740,造橋,2025-06-05,24.637056,120.864778,0.9651146
C0E750,苗栗,2025-06-05,24.564569,120.824575,0.97114503
C0E780,銅鑼,2025-06-05,24.489681,120.790853,0.9908257
C0E791,卓蘭,2025-06-05,24.3126,120.8244,0.024562364
C0E810,西湖,2025-06-05,24.562947,120.7485,0.99598366
C0E820,獅潭,2025-06-05,24.539133,120.920042,0.99025226
C0E830,苑裡,2025-06-05,24.439714,120.653053,0.99412304
C0E850,大河,2025-06-05,24.618069,120.948578,0.93682754
C0E870,高鐵苗栗,2025-06-05,24.60725,120.826094,0.96695405
C0E910,海埔,2025-06-05,24.648767,120.772435,0.98458993
C0E920,通霄漁港,2025-06-05,24.498589,120.673876,0.99051994
C0E930,龍鳳,2025-06-05,24.700034,120.859125,0.97211236
C0F0B0,石岡,2025-06-05,24.276061,120.777644,0.018080406
C0F850,東勢,2025-06-05,24.246428,120.833047,0.007237247
C0F970,大坑,2025-06-05,24.173142,120.722289,0.011931914
C0F9I0,神岡,2025-06-05,24.272481,120.658314,0.020871405
C0F9K0,大安,2025-06-05,24.345061,120.588025,0.9492115
C0F9L0,后里,2025-06-05,24.310436,120.729725,0.015040305
C0F9M0,豐原,2025-06-05,24.254322,120.720692,0.014084085
C0F9N0,大里,2025-06-05,24.092464,120.701378,0.018360142
C0F9O0,潭子,2025-06-05,24.213106,120.703933,0.0058514113
C0F9P0,清水,2025-06-05,24.312297,120.562242,0.50138277
C0F9Q0,外埔,2025-06-05,24.347817,120.705686,0.03627543
C0F9R0,龍井,2025-06-05,24.184536,120.528972,0.3898228
C0F9S0,烏日,2025-06-05,24.107058,120.624103,0.01757192
C0F9T0,西屯,2025-06-05,24.179494,120.641275,0.08236657
C0F9U0,南屯,2025-06-05,24.137006,120.637969,0.06847104
C0F9X0,大雅(中科園區),2025-06-05,24.21528,120.62445,0.032541733
C0FA10,松柏,2025-06-05,24.429115,120.617482,0.9675441
C0FA20,溫寮,2025-06-05,24.372177,120.583125,0.92807597
C0FA30,梧棲,2025-06-05,24.256003,120.523381,0.50138277
C0FA40,臺中電廠,2025-06-05,24.2146,120.4907,0.46661386
C0FA50,霧峰,2025-06-05,24.0419,120.6995,0.030932527
C0FB70,大甲溪埔,2025-06-05,24.370625,120.620067,0.95616907
C0G620,芬園,2025-06-05,24.015678,120.6213,0.033140715
C0G650,員林,2025-06-05,23.946503,120.585597,0.026298556
C0G660,溪湖,2025-06-05,23.94835,120.479122,0.34587675
C0G720,溪州,2025-06-05,23.851589,120.499093,0.34758803
C0G730,二林,2025-06-05,23.903325,120.376081,0.6861014
C0G740,大城,2025-06-05,23.852487,120.320935,0.28170583
C0G770,福興,2025-06-05,24.041289,120.437669,0.44673878
C0G780,秀水,2025-06-05,24.03405,120.503869,0.43378156
C0G800,埔鹽,2025-06-05,24.000394,120.431683,0.45107427
C0G810,埔心,2025-06-05,23.947633,120.525456,0.3800589
C0G820,田尾,2025-06-05,23.901669,120.509389,0.1870502
C0G830,埤頭,2025-06-05,23.866003,120.452806,0.29914162
C0G860,社頭,2025-06-05,23.897647,120.5862,0.1695229
C0G880,二水,2025-06-05,23.810742,120.6173,0.1958055
C0G890,伸港,2025-06-05,24.148933,120.484403,0.2595958
C0G900,線西,2025-06-05,24.143358,120.443536,0.25496292
C0G910,花壇,2025-06-05,24.032076,120.549461,0.5006249
C0G920,永靖,2025-06-05,23.924703,120.547533,0.18704973
C0G940,竹塘,2025-06-05,23.848253,120.386764,0.38019195
C0G950,防潮門,2025-06-05,24.1835,120.4871,0.3898228
C0G960,福寶,2025-06-05,24.0443,120.3814,0.538352
C0G970,三豐,2025-06-05,23.882,120.2895,0.21957648
C0G9B0,和美,2025-06-05,24.105169,120.492131,0.49038342
C0H890,埔里,2025-06-05,23.972169,120.952425,0.6596637
C0H960,草屯,2025-06-05,23.973672,120.68085,0.0325459
C0I110,竹山,2025-06-05,23.761225,120.688156,0.42198285
C0I360,水里,2025-06-05,23.812553,120.849792,0.327905
C0I380,集集,2025-06-05,23.828206,120.801467,0.29229158
C0I410,名間,2025-06-05,23.837053,120.701447,0.28383055
C0I420,國姓,2025-06-05,24.037803,120.855072,0.31719926
C0I460,南投,2025-06-05,23.911469,120.687331,0.123100005
C0K250,崙背,2025-06-05,23.75555,120.318925,0.15499818
C0K280,四湖,2025-06-05,23.630414,120.227125,0.21871205
C0K291,宜梧,2025-06-05,23.536281,120.169329,0.14568383
C0K330,虎尾,2025-06-05,23.719183,120.442036,0.16983913
C0K390,土庫,2025-06-05,23.679029,120.395574,0.14306203
C0K400,斗六,2025-06-05,23.720583,120.541127,0.40736043
C0K410,北港,2025-06-05,23.573957,120.292802,0.15994325
C0K420,西螺,2025-06-05,23.800407,120.467394,0.3589962
C0K430,褒忠,2025-06-05,23.690938,120.303634,0.1228267
C0K440,二崙,2025-06-05,23.772797,120.408944,0.5129269
C0K450,大埤,2025-06-05,23.646074,120.431537,0.4966022
C0K460,斗南,2025-06-05,23.678734,120.478359,0.49280247
C0K470,林內,2025-06-05,23.748675,120.609642,0.16215315
C0K480,莿桐,2025-06-05,23.761192,120.502372,0.35132346
C0K500,元長,2025-06-05,23.64981,120.315024,0.120017186
C0K510,水林,2025-06-05,23.572924,120.24597,0.15297893
C0K530,臺西,2025-06-05,23.701547,120.197559,0.18946429
C0K550,蔦松,2025-06-05,23.514319,120.229736,0.14568365
C0K560,棋山,2025-06-05,23.68645,120.603417,0.28953484
C0K580,高鐵雲林,2025-06-05,23.737456,120.417944,0.23389943
C0K590,雲林東勢,2025-06-05,23.674192,120.255721,0.13469936
C0K600,箔子寮,2025-06-05,23.6197,120.14,0.2125215
C0M520,東後寮,2025-06-05,23.369908,120.248065,0.11986787
C0M640,中埔,2025-06-05,23.42538,120.5229,0.15319161
C0M650,朴子,2025-06-05,23.43463,120.23902,0.11693358
C0M660,溪口,2025-06-05,23.604131,120.403569,0.26479784
C0M670,大林,2025-06-05,23.600616,120.45841,0.29368174
C0M680,太保,2025-06-05,23.455062,120.331455,0.09214244
C0M690,水上,2025-06-05,23.419734,120.388909,0.085589275
C0M700,竹崎,2025-06-05,23.526178,120.555508,0.27097377
C0M710,東石,2025-06-05,23.458927,120.15385,0.17015436
C0M720,番路,2025-06-05,23.464657,120.554156,0.28978282
C0M730,嘉義市東區,2025-06-05,23.457673,120.460531,0.108802624
C0M740,六腳,2025-06-05,23.492871,120.290625,0.1266456
C0M750,布袋,2025-06-05,23.380878,120.167789,0.12020789
C0M760,民雄,2025-06-05,23.551754,120.428457,0.2336017
C0M770,嘉義梅山,2025-06-05,23.585398,120.555587,0.63638467
C0M780,鹿草,2025-06-05,23.41134,120.30835,0.1203469
C0M790,新港,2025-06-05,23.553269,120.345728,0.11914005
C0M800,茶山,2025-06-05,23.299075,120.664767,0.13764171
C0M880,好美里,2025-06-05,23.3364,120.138,0.1171748
C0N010,鯤鯓國小,2025-06-05,23.1879,120.0889,0.12506592
C0N020,城西,2025-06-05,23.0568,120.0956,0.13966432
C0N030,四草,2025-06-05,23.0235,120.1116,0.13752073
C0N040,蘆竹溝,2025-06-05,23.2344,120.0961,0.11705794
C0N050,蚵寮,2025-06-05,23.301,120.1104,0.12418701
C0O830,北寮,2025-06-05,23.079561,120.495008,0.055501208
C0O840,王爺宮,2025-06-05,23.222064,120.40085,0.10888821
C0O860,大內,2025-06-05,23.11885,120.36083,0.06806218
C0O900,善化,2025-06-05,23.112883,120.297219,0.06668322
C0O960,崎頂,2025-06-05,22.959547,120.369317,0.08718719
C0O970,虎頭埤,2025-06-05,23.021375,120.347878,0.07834129
C0O980,新市,2025-06-05,23.061614,120.298197,0.08663582
C0O990,媽廟,2025-06-05,22.99175,120.293525,0.1008442
C0R150,三地門,2025-06-05,22.709889,120.639944,0.88091785
C0R160,鹽埔,2025-06-05,22.739558,120.530778,0.08406997
C0R190,赤山,2025-06-05,22.592333,120.614306,0.38220325
C0R220,潮州,2025-06-05,22.534361,120.54,0.72571284
C0R240,來義,2025-06-05,22.527306,120.625111,0.9866027
C0R260,春日,2025-06-05,22.370361,120.628306,0.84740174
C0R270,琉球嶼,2025-06-05,22.332244,120.362236,0.98835033
C0R280,檳榔,2025-06-05,22.076078,120.836777,0.14700277
C0R320,車城,2025-06-05,22.0744,120.716247,0.101062804
C0R341,牡丹,2025-06-05,22.130036,120.792639,0.14107269
C0R350,貓鼻頭,2025-06-05,21.921774,120.7358,0.17830694
C0R470,高樹,2025-06-05,22.826389,120.600806,0.11264266
C0R480,長治,2025-06-05,22.693128,120.542622,0.058121294
C0R490,九如,2025-06-05,22.7405,120.490503,0.07924312
C0R520,崁頂,2025-06-05,22.514781,120.506914,0.6992849
C0R540,佳冬,2025-06-05,22.419456,120.552375,0.65069944
C0R550,新埤,2025-06-05,22.467947,120.582894,0.9727557
C0R560,新園,2025-06-05,22.5434,120.461558,0.35274026
C0R570,麟洛,2025-06-05,22.65078,120.52719,0.19581702
C0R580,南州,2025-06-05,22.48591,120.50274,0.81234336
C0R590,里港,2025-06-05,22.77919,120.49459,0.0331058
C0R620,墾雷,2025-06-05,21.900836,120.855269,0.3742278
C0R640,東港,2025-06-05,22.46247,120.44074,0.81234336
C0R650,竹田,2025-06-05,22.58486,120.54344,0.82428443
C0R660,枋寮,2025-06-05,22.367722,120.590647,0.63122004
C0R670,楓港,2025-06-05,22.190131,120.692156,0.06735582
C0R680,佳樂水,2025-06-05,21.993578,120.861633,0.104208924
C0R690,墾丁,2025-06-05,21.966756,120.810269,0.2759469
C0R700,枋山,2025-06-05,22.246844,120.661086,0.13130347
C0R710,龍磐,2025-06-05,21.931672,120.838942,0.3110309
C0R720,旭海,2025-06-05,22.205403,120.887614,0.3411587
C0R730,大坪頂,2025-06-05,22.024633,120.69355,0.14794442
C0R741,獅子,2025-06-05,22.202308,120.705236,0.09825426
C0R760,南仁湖,2025-06-05,22.084681,120.863353,0.6033331
C0R770,保力,2025-06-05,22.071122,120.764111,0.10665254
C0R780,滿州,2025-06-05,22.024403,120.839892,0.1481357
C0R790,九棚,2025-06-05,22.14195,120.889281,0.25698164
C0R800,丹路,2025-06-05,22.204481,120.750989,0.09645313
C0R810,內獅,2025-06-05,22.305064,120.642986,0.064117655
C0R830,高士,2025-06-05,22.121825,120.836781,0.8564108
C0R850,林邊,2025-06-05,22.4634,120.5339,0.83353484
C0R860,鼻頭,2025-06-05,22.1043,120.8979,0.0718662
C0R870,興海,2025-06-05,21.9752,120.8439,0.1012071
C0R880,後壁湖,2025-06-05,21.9457,120.7457,0.108426146
C0R890,山海,2025-06-05,21.9878,120.7091,0.11130298
C0R900,竹坑,2025-06-05,22.1385,120.7022,0.10359091
C0R910,下寮,2025-06-05,22.3929,120.5548,0.63122004
C0R920,塭仔,2025-06-05,22.4169,120.5197,0.61216563
C0R930,萬丹,2025-06-05,22.5885,120.4851,0.5303999
C0R940,加祿堂,2025-06-05,22.3363,120.6217,0.22549003
C0R950,萬隆國小,2025-06-05,22.507667,120.587817,0.9649916
C0R960,內埔,2025-06-05,22.608483,120.570714,0.8611001
C0S710,鹿野,2025-06-05,22.917711,121.122994,0.85633224
C0S730,綠島,2025-06-05,22.6672,121.47533,0.80596054
C0S740,池上,2025-06-05,23.119628,121.209469,0.9595985
C0S770,大溪山,2025-06-05,22.478475,120.943325,0.39108053
C0S790,金崙,2025-06-05,22.538122,120.966875,0.10736094
C0S810,東河,2025-06-05,22.972672,121.303986,0.24790512
C0S830,長濱,2025-06-05,23.286817,121.411975,0.575879
C0S840,南田,2025-06-05,22.279725,120.889208,0.44053453
C0S890,關山,2025-06-05,23.0395,121.175017,0.64244306
C0S900,蘭嶼高中,2025-06-05,22.04909,121.51214,0.74896115
C0S910,蘭嶼燈塔,2025-06-05,22.081197,121.503117,0.8982191
C0S920,金峰嘉蘭,2025-06-05,22.594789,120.960825,0.040599715
C0S930,延平,2025-06-05,22.902581,121.084058,0.5221364
C0S940,石寧山,2025-06-05,23.223772,121.406639,0.6831702
C0S950,七塊厝,2025-06-05,22.954453,121.229922,0.8646098
C0S960,香蘭,2025-06-05,22.587569,120.993375,0.037401177
C0S970,加津林,2025-06-05,22.416211,120.926942,0.10487933
C0S990,山豬窟,2025-06-05,22.318619,120.857372,0.976148
C0SA00,歷坵,2025-06-05,22.520969,120.89185,0.828963
C0SA10,檳榔四格山,2025-06-05,22.810031,121.109308,0.93610823
C0SA30,都歷,2025-06-05,23.020333,121.323642,0.1793722
C0SA40,瑞和,2025-06-05,22.974361,121.156697,0.52239436
C0SA60,知本（水試所）,2025-06-05,22.702394,121.082761,0.04527361
C0SA80,土坂,2025-06-05,22.453108,120.887572,0.062845
C0SA90,達仁林場,2025-06-05,22.264347,120.823972,0.8946713
C0SB10,美和,2025-06-05,22.682078,121.060236,0.045304287
C0SB20,富岡,2025-06-05,22.792467,121.192669,0.15961659
C0SB30,新蘭,2025-06-05,22.869214,121.223228,0.20982072
C0SB40,興隆,2025-06-05,22.913661,121.257469,0.21934879
C0SB50,叭嗡嗡,2025-06-05,23.047062,121.343223,0.11365229
C0SB60,白守蓮,2025-06-05,23.126769,121.401914,0.17554219
C0SB70,小港漁港,2025-06-05,23.158558,121.400431,0.1943666
C0SB80,長濱漁港,2025-06-05,23.313644,121.459994,0.16559833
C0T870,鯉魚潭,2025-06-05,23.935639,121.508944,0.97889173
C0T900,西林,2025-06-05,23.8119,121.441458,0.87703466
C0T960,光復,2025-06-05,23.660694,121.424964,0.694666
C0T9A0,月眉山,2025-06-05,23.809928,121.539828,0.18130869
C0T9D0,和中,2025-06-05,24.26676,121.74103,0.9856482
C0T9E0,大坑,2025-06-05,23.880628,121.581981,0.726247
C0T9F0,水璉,2025-06-05,23.797131,121.542514,0.8020129
C0T9I0,豐濱,2025-06-05,23.583897,121.514806,0.91920334
C0T9M0,靜浦,2025-06-05,23.455167,121.495028,0.8045916
C0T9N0,富里,2025-06-05,23.171639,121.249378,0.96934134
C0TA10,花蓮漁港,2025-06-05,23.995322,121.638331,0.61241853
C0TA20,加灣,2025-06-05,24.082025,121.608944,0.9958797
C0TA30,鹽寮,2025-06-05,23.845606,121.592664,0.819113
C0U600,礁溪,2025-06-05,24.817539,121.765608,0.85742474
C0U650,玉蘭,2025-06-05,24.675286,121.587061,0.865069
C0U750,龜山島,2025-06-05,24.841667,121.953133,0.9721016
C0U760,東澳,2025-06-05,24.52196,121.83318,0.5414882
C0U770,南澳,2025-06-05,24.44935,121.81022,0.978274
C0U780,五結,2025-06-05,24.68637,121.79794,0.84568787
C0U860,頭城,2025-06-05,24.85323,121.8308,0.83057374
C0U870,大礁溪,2025-06-05,24.791042,121.675047,0.7250914
C0U880,北關,2025-06-05,24.9072,121.8734,0.6013212
C0U890,三星,2025-06-05,24.66812,121.65302,0.6995027
C0U900,內城,2025-06-05,24.71813,121.68766,0.9153456
C0U910,冬山,2025-06-05,24.63373,121.7937,0.63566655
C0U940,羅東,2025-06-05,24.68184,121.74934,0.8770237
C0U970,大福,2025-06-05,24.80064,121.81389,0.8726292
C0U990,員山,2025-06-05,24.74435,121.72247,0.865522
C0UA00,土場,2025-06-05,24.576533,121.495333,0.9694233
C0UA80,大溪漁港,2025-06-05,24.941801,121.902955,0.49786606
C0UA90,石城,2025-06-05,24.980444,121.951214,0.44797307
C0UB00,淡江大學蘭陽校園,2025-06-05,24.823239,121.730383,0.8370857
C0UB10,蘇澳,2025-06-05,24.5969,121.8571,0.20106664
C0UB20,壯圍,2025-06-05,24.7359,121.8163,0.8357953
C0V350,溪埔,2025-06-05,22.738578,120.446797,0.03855465
C0V360,內門,2025-06-05,22.975481,120.466769,0.14254566
C0V370,古亭坑,2025-06-05,22.893178,120.401947,0.113209076
C0V400,阿公店,2025-06-05,22.804194,120.355528,0.14322546
C0V440,鳳山,2025-06-05,22.646653,120.356122,0.9578994
C0V450,鳳森,2025-06-05,22.545064,120.392592,0.6455854
C0V490,新興,2025-06-05,22.627422,120.298803,0.16707893
C0V530,阿蓮,2025-06-05,22.883208,120.327508,0.1556308
C0V610,梓官,2025-06-05,22.760558,120.267211,0.18268733
C0V620,永安,2025-06-05,22.82315,120.236856,0.32257771
C0V630,茄萣,2025-06-05,22.906642,120.182608,0.20832282
C0V640,湖內,2025-06-05,22.887139,120.2445,0.3571545
C0V650,彌陀,2025-06-05,22.783806,120.246361,0.35929596
C0V660,岡山,2025-06-05,22.797078,120.294958,0.35929507
C0V680,仁武,2025-06-05,22.701083,120.347722,0.8140679
C0V690,鼓山,2025-06-05,22.623325,120.275575,0.16707893
C0V700,三民,2025-06-05,22.645017,120.311233,0.4853729
C0V710,苓雅,2025-06-05,22.622742,120.330669,0.6426265
C0V720,林園,2025-06-05,22.507747,120.394511,0.72065085
C0V730,大寮,2025-06-05,22.605614,120.395717,0.6763625
C0V740,旗山,2025-06-05,22.888614,120.483597,0.05453624
C0V750,路竹,2025-06-05,22.854997,120.259439,0.3699058
C0V760,橋頭,2025-06-05,22.757806,120.30575,0.18268733
C0V770,大社,2025-06-05,22.730306,120.346639,0.45208552
C0V790,萬山,2025-06-05,22.905944,120.688056,0.4736839
C0V800,六龜,2025-06-05,22.997889,120.633583,0.022097519
C0V810,左營,2025-06-05,22.67491,120.28491,0.4853729
C0V820,小林,2025-06-05,23.148408,120.63325,0.25077975
C0V840,鳳鼻頭,2025-06-05,22.5083,120.3591,0.3223919
C0V850,蚵仔寮,2025-06-05,22.7256,120.2527,0.17261271
C0V860,南寮,2025-06-05,22.7616,120.2339,0.17261311
C0V870,文安,2025-06-05,22.8025,120.2164,0.34090772
C0V880,興達,2025-06-05,22.8778,120.2127,0.34517568
C0V890,前鎮,2025-06-05,22.5718,120.3117,0.16107063
C0V900,汕尾,2025-06-05,22.4782,120.4151,0.81234336
C0V910,大樹,2025-06-05,22.684645,120.432803,0.15684617
C0W200,湖西,2025-06-05,23.596314,119.67275,0.7309678
C0X050,東河,2025-06-05,23.296598,120.385608,0.08693854
C0X060,下營,2025-06-05,23.22695,120.256261,0.07665867
C0X080,佳里,2025-06-05,23.173039,120.145086,0.12506592
C0X100,臺南市北區,2025-06-05,23.010394,120.194228,0.13842188
C0X110,臺南市南區,2025-06-05,22.961189,120.188378,0.12812874
C0X120,麻豆,2025-06-05,23.183289,120.248611,0.070792936
C0X130,官田,2025-06-05,23.193217,120.315422,0.07290886
C0X140,西港,2025-06-05,23.125608,120.203108,0.076417394
C0X150,安定,2025-06-05,23.102614,120.227839,0.07641738
C0X160,仁德,2025-06-05,22.968258,120.257689,0.12791185
C0X170,關廟,2025-06-05,22.963017,120.327797,0.08597785
C0X180,山上,2025-06-05,23.0757,120.363253,0.07893971
C0X190,安平,2025-06-05,22.993161,120.152181,0.13842188
C0X200,左鎮,2025-06-05,23.056758,120.408522,0.07804054
C0X210,白河,2025-06-05,23.347466,120.414427,0.103942566
C0X220,學甲,2025-06-05,23.230367,120.182187,0.11954727
C0X230,鹽水,2025-06-05,23.272621,120.247641,0.12769432
C0X240,關子嶺,2025-06-05,23.331169,120.508025,0.83597934
C0X250,新營,2025-06-05,23.310689,120.316681,0.07427249
C0X260,後壁,2025-06-05,23.366358,120.362326,0.093225196
C0X280,將軍,2025-06-05,23.214999,120.13577,0.11705794
C0X290,北門,2025-06-05,23.267772,120.125481,0.11705794
C0X300,鹿寮,2025-06-05,23.386047,120.477331,0.10975512
C0X320,柳營,2025-06-05,23.253328,120.375253,0.07756862
C0Z020,明里,2025-06-05,23.208717,121.262342,0.80843776
C0Z061,玉里,2025-06-05,23.3215,121.339656,0.7746995
C0Z070,舞鶴,2025-06-05,23.46811,121.37407,0.9538959
C0Z080,富源,2025-06-05,23.587642,121.378225,0.9487724
C0Z100,東華,2025-06-05,23.89525,121.549833,0.8786022
C0Z150,吉安光華,2025-06-05,23.930925,121.595153,0.84097016
C0Z160,鳳林,2025-06-05,23.746114,121.453411,0.93707454
C0Z170,卓溪,2025-06-05,23.3443,121.3029,0.90400374
C0Z180,新城,2025-06-05,24.040486,121.604878,0.7564086
C0Z190,富世,2025-06-05,24.14743,121.6297,0.94419366
C0Z200,萬榮,2025-06-05,23.709219,121.420106,0.9650021
C0Z210,瑞穗,2025-06-05,23.5239,121.39021,0.86510676
C0Z230,和平,2025-06-05,24.30717,121.77007,0.9853066
C0Z270,蕃薯寮,2025-06-05,23.73835,121.540108,0.94637495
C0Z280,德武,2025-06-05,23.47426,121.41071,0.9734483
C0Z300,東里,2025-06-05,23.26853,121.30547,0.77917206
C0Z310,清水斷崖,2025-06-05,24.218294,121.689142,0.840341
C0Z330,安通山,2025-06-05,23.290728,121.348528,0.4892123
C2A540,四堵,2025-06-05,24.8926,121.745736,0.93276423
C2A560,福山,2025-06-05,24.776203,121.502811,0.73055714
C2A650,火燒寮,2025-06-05,25.002719,121.742892,0.9575704
C2A660,瑞芳,2025-06-05,25.113169,121.801147,0.4352454
C2A880,福隆,2025-06-05,25.017842,121.942083,0.40500212
C2A920,富貴角,2025-06-05,25.263783,121.565258,0.970709
C2C410,中央大學,2025-06-05,24.967652,121.185165,0.96689457
C2D720,關西工作站,2025-06-05,24.757275,121.184792,0.9624649
C2D730,寶山農場,2025-06-05,24.732444,120.976153,0.97874826
C2E520,大湖,2025-06-05,24.414939,120.870872,0.8506345
C2E540,龍溪,2025-06-05,24.606489,120.783933,0.9865159
C2E970,八甲,2025-06-05,24.535811,120.795983,0.99491495
C2F000,大肚,2025-06-05,24.15295,120.572117,0.013123006
C2F930,大甲,2025-06-05,24.347667,120.640403,0.9868229
C2F9A0,中竹林,2025-06-05,24.103556,120.751061,0.3251312
C2G640,鹿港,2025-06-05,24.0753,120.430481,0.538352
C2G840,北斗,2025-06-05,23.877586,120.514222,0.33086857
C2G870,芳苑,2025-06-05,23.922303,120.320025,0.38930112
C2G980,田頭村,2025-06-05,23.8263,120.444175,0.22910035
C2G9A0,畜試所彰化,2025-06-05,23.86045,120.557964,0.18058428
C2H950,中寮,2025-06-05,23.884447,120.766406,0.17092362
C2H9F0,柑林,2025-06-05,24.018658,120.847072,0.23756796
C2H9H0,苗改南投蜂場,2025-06-05,23.852589,120.693481,0.23947714
C2H9T0,名間竹圍,2025-06-05,23.859914,120.637572,0.5448788
C2H9U0,鳳鵬,2025-06-05,23.763919,120.788061,0.49845305
C2K620,馬光農場,2025-06-05,23.721453,120.378864,0.21155024
C2K630,荷苞,2025-06-05,23.657717,120.595144,0.53399545
C2M410,馬頭山,2025-06-05,23.324361,120.582017,0.3416491
C2M910,嘉義大學,2025-06-05,23.471325,120.485903,0.123438515
C2M920,朴子農改,2025-06-05,23.469889,120.259383,0.1251333
C2N160,西拉雅風管處,2025-06-05,23.189481,120.335297,0.07370078
C2O810,曾文,2025-06-05,23.219681,120.497328,0.10284979
C2O930,玉井,2025-06-05,23.126042,120.46055,0.07893971
C2O950,安南,2025-06-05,23.076694,120.144861,0.1448221
C2R170,屏東,2025-06-05,22.66027,120.49403,0.19581702
C2R970,屏科大,2025-06-05,22.648275,120.619247,0.615921
C2V250,甲仙,2025-06-05,23.080106,120.591758,0.10291478
C2V260,月眉,2025-06-05,22.971003,120.539853,0.06092858
C2V310,美濃,2025-06-05,22.898792,120.51907,0.052705012
C2W230,畜試所澎湖,2025-06-05,23.628342,119.513206,0.9494617
CAG100,王功漁港,2025-06-05,23.96824,120.32586,0.39158762
CAH030,茶改場竹圍站,2025-06-05,23.860083,120.637528,0.5448788
CAJ050,海口故事園區,2025-06-05,23.57543,120.14121,0.21042767
CAL110,布袋國中,2025-06-05,23.35893,120.18026,0.12020798
CAN130,水試所海水繁養殖中心,2025-06-05,23.120802,120.07968,0.14243777
CAN140,六官養殖協會,2025-06-05,23.22881,120.29962,0.07665867
CAQ030,崎峰國小,2025-06-05,22.42565,120.49521,0.8123433
E2K600,四湖植物園,2025-06-05,23.676986,120.163433,0.21871205
E2P980,林試六龜中心,2025-06-05,22.991703,120.645722,0.023678308
E2S960,林試太麻里2,2025-06-05,22.598,120.99775,0.037016243
E2S980,林試太麻里1,2025-06-05,22.598922,120.980044,0.040191464
G2AI50,關渡,2025-06-05,25.11575,121.492,0.8525916
G2F820,農試所(霧峰),2025-06-05,24.031261,120.688133,0.029942272
G2L020,農試嘉義分所,2025-06-05,23.485028,120.473806,0.14785723
G2M350,農試溪口農場,2025-06-05,23.58565,120.408111,0.26479793
G2P820,農試鳳山分所,2025-06-05,22.646611,120.356083,0.9578994
K2E360,苗栗農改場,2025-06-05,24.495722,120.829111,0.98054653
K2E710,苗改生物防治研究中心,2025-06-05,24.422861,120.871833,0.7502332
K2F750,種苗改良場,2025-06-05,24.225972,120.800917,0.97363836
U2HA50,臺大竹山,2025-06-05,23.756972,120.681556,0.1791306
V2C250,八德合作社,2025-06-05,24.93775,121.266389,0.8646657
V2C260,八德蔬果,2025-06-05,24.978508,121.281819,0.80927575
V2K610,大庄合作社,2025-06-05,23.8068,120.367939,0.2463704
V2K620,麥寮合作社,2025-06-05,23.753836,120.294783,0.12028824
