站號,站名,日期,lat,lon,BlastGRU-TW
12J990,口湖工作站,2025-05-19,23.589978,120.180394,0.99346733
12Q970,東港工作站,2025-05-19,22.479997,120.466058,0.78361946
12Q980,恆春工作站,2025-05-19,22.079678,120.714425,0.08025823
466881,新北,2025-05-19,24.959207,121.525196,0.80442643
466900,淡水,2025-05-19,25.164889,121.448906,0.65092266
466920,臺北,2025-05-19,25.037658,121.514853,0.67036957
466940,基隆,2025-05-19,25.133314,121.740475,0.3744198
466990,花蓮,2025-05-19,23.975128,121.613275,0.9849217
467050,新屋,2025-05-19,25.006725,121.047492,0.9924245
467080,宜蘭,2025-05-19,24.763975,121.756528,0.9477182
467270,田中,2025-05-19,23.873803,120.581286,0.007467592
467280,後龍,2025-05-19,24.648563,120.831834,0.9970018
467290,古坑,2025-05-19,23.633639,120.551889,0.049637083
467300,東吉島,2025-05-19,23.25727,119.66762,0.9909733
467350,澎湖,2025-05-19,23.565503,119.563094,0.969922
467410,臺南,2025-05-19,22.99328,120.20492,0.99111664
467420,永康,2025-05-19,23.038386,120.2367,0.9843764
467441,高雄,2025-05-19,22.730432,120.312516,0.88263655
467480,嘉義,2025-05-19,23.495925,120.432906,0.31401598
467490,臺中,2025-05-19,24.145736,120.684075,0.76565677
467540,大武,2025-05-19,22.35572,120.90374,0.11365991
467571,新竹,2025-05-19,24.827853,121.014219,0.6333172
467590,恆春,2025-05-19,22.003897,120.746339,0.092136696
467610,成功,2025-05-19,23.097486,121.373428,0.78844583
467620,蘭嶼,2025-05-19,22.0369,121.55843,0.6885855
467660,臺東,2025-05-19,22.752211,121.154586,0.44671082
467790,墾丁雷達站,2025-05-19,21.948235,120.808028,0.08061977
72AI40,桃改樹林分場,2025-05-19,24.944503,121.386972,0.19392398
72C440,桃園農改場,2025-05-19,24.950944,121.030583,0.99384224
72D680,桃改新埔分場,2025-05-19,24.834444,121.066111,0.940804
72G600,臺中農改場,2025-05-19,24.003028,120.534389,0.9916586
72K220,南改斗南分場,2025-05-19,23.634556,120.477333,0.034621894
72M360,南改義竹分場,2025-05-19,23.360694,120.279361,0.99544036
72M700,南改鹿草分場,2025-05-19,23.416869,120.283061,0.99575573
72N100,臺南農改場,2025-05-19,23.0605,120.342194,0.8957278
72N240,七股研究中心,2025-05-19,23.081672,120.062894,0.98812723
72Q010,高雄農改場,2025-05-19,22.709333,120.525889,0.8165019
72S200,東改班鳩分場,2025-05-19,22.829528,121.077694,0.89976156
72S590,東改賓朗果園,2025-05-19,22.813889,121.071278,0.89096904
72T250,花蓮農改場,2025-05-19,23.975222,121.563889,0.98472804
72U480,花改蘭陽分場,2025-05-19,24.686306,121.716583,0.89184433
72V140,高改旗南分場,2025-05-19,22.857861,120.516667,0.7472271
82A750,茶改北部分場,2025-05-19,24.955778,121.631222,0.94817114
82C160,茶改場,2025-05-19,24.908472,121.185333,0.12974642
82H840,茶改南部分場,2025-05-19,23.762528,120.7405,0.99405545
82S580,茶改東部分場,2025-05-19,22.907694,121.130139,0.8829513
A2C560,農工中心,2025-05-19,24.985917,121.239833,0.71054864
A2K360,水試臺西試驗場,2025-05-19,23.717231,120.190522,0.9940312
A2K570,古坑花卉中心,2025-05-19,23.63353,120.55239,0.049637083
A2K630,臺大雲林校區,2025-05-19,23.730628,120.423903,0.9843899
A2N290,臺南蘭花園區,2025-05-19,23.340258,120.379661,0.94253504
B2E890,畜試北區分所,2025-05-19,24.527806,120.770972,0.99668896
B2N890,畜產試驗所,2025-05-19,23.058972,120.336406,0.88610303
B2Q810,畜試南區分所,2025-05-19,21.945583,120.802167,0.062419318
B2U990,畜試東區分所,2025-05-19,24.669039,121.832561,0.9643199
C0A520,山佳,2025-05-19,24.974944,121.402008,0.8331563
C0A530,坪林,2025-05-19,24.938183,121.70975,0.9649633
C0A550,泰平,2025-05-19,24.971197,121.823711,0.8471734
C0A570,桶後,2025-05-19,24.848222,121.597992,0.7814699
C0A640,石碇,2025-05-19,24.993969,121.662917,0.4403847
C0A770,科教館,2025-05-19,25.096356,121.516507,0.35031325
C0A860,大坪,2025-05-19,25.165914,121.632969,0.9795784
C0A890,雙溪,2025-05-19,25.036003,121.864242,0.9910098
C0A931,三和,2025-05-19,25.233153,121.595236,0.9945843
C0A940,金山,2025-05-19,25.223628,121.643967,0.37158227
C0A950,鼻頭角,2025-05-19,25.129036,121.923372,0.99483144
C0A970,三貂角,2025-05-19,25.007606,122.002058,0.98885393
C0A980,社子,2025-05-19,25.109508,121.469681,0.5955457
C0A9C0,天母,2025-05-19,25.117494,121.537169,0.20290975
C0A9F0,內湖,2025-05-19,25.079422,121.57545,0.67036957
C0AC60,三峽,2025-05-19,24.939025,121.369728,0.21750894
C0AC70,信義,2025-05-19,25.037822,121.564597,0.67036957
C0AC80,文山,2025-05-19,25.00235,121.575728,0.8956443
C0ACA0,新莊,2025-05-19,25.051478,121.446756,0.8153367
C0AD10,八里,2025-05-19,25.150211,121.403947,0.9949651
C0AD30,蘆洲,2025-05-19,25.086594,121.472331,0.3821773
C0AD40,土城,2025-05-19,24.973208,121.445169,0.68361855
C0AD50,鶯歌,2025-05-19,24.951533,121.346294,0.25068882
C0AG80,中和,2025-05-19,24.991622,121.491792,0.68361855
C0AH00,汐止,2025-05-19,25.066881,121.658778,0.67036957
C0AH10,永和,2025-05-19,25.01125,121.508111,0.60536236
C0AH40,平等,2025-05-19,25.129142,121.577086,0.9708928
C0AH50,林口,2025-05-19,25.072181,121.38084,0.99125195
C0AH70,松山,2025-05-19,25.04871,121.55042,0.67036957
C0AH80,深坑,2025-05-19,25.002703,121.628328,0.88112205
C0AI00,五股,2025-05-19,25.07445,121.42728,0.9933032
C0AI10,屈尺,2025-05-19,24.92184,121.54475,0.41521844
C0AI20,白沙灣,2025-05-19,25.283128,121.519058,0.7116876
C0AI30,三重,2025-05-19,25.057328,121.500629,0.5847975
C0AI40,石牌,2025-05-19,25.115597,121.513139,0.17069411
C0AJ20,野柳,2025-05-19,25.20703,121.690021,0.058208726
C0AJ30,淡水觀海,2025-05-19,25.184591,121.408616,0.96532
C0AJ40,石門,2025-05-19,25.273672,121.601198,0.9972728
C0AJ50,水湳洞,2025-05-19,25.123695,121.862238,0.9859219
C0AJ60,六塊厝,2025-05-19,25.24,121.4481,0.6072912
C0AJ70,田寮,2025-05-19,25.2698,121.4886,0.67194897
C0AJ80,板橋,2025-05-19,25.0107,121.4489,0.60536236
C0AJ90,澳底,2025-05-19,25.0552,121.9253,0.98982924
C0AK10,太平里,2025-05-19,25.134937,121.364899,0.9952248
C0B010,七堵,2025-05-19,25.094819,121.71713,0.86675256
C0B020,基隆嶼,2025-05-19,25.19141,121.78391,0.14213856
C0B040,大武崙,2025-05-19,25.166676,121.706993,0.6541753
C0B050,八斗子,2025-05-19,25.144754,121.79167,0.31487948
C0B060,暖暖,2025-05-19,25.0957,121.7403,0.97787225
C0C460,復興,2025-05-19,24.820208,121.352281,0.804835
C0C480,桃園,2025-05-19,24.992425,121.323172,0.16692029
C0C490,八德,2025-05-19,24.928708,121.283289,0.16515276
C0C590,觀音,2025-05-19,25.027072,121.153317,0.9932761
C0C620,蘆竹,2025-05-19,25.084275,121.265767,0.98816913
C0C630,大溪,2025-05-19,24.882853,121.265547,0.056220844
C0C650,平鎮,2025-05-19,24.897503,121.214636,0.15915364
C0C660,楊梅,2025-05-19,24.912375,121.143047,0.12960203
C0C670,龍潭,2025-05-19,24.870056,121.221389,0.061181
C0C680,龜山,2025-05-19,25.02846,121.38656,0.2608913
C0C700,中壢,2025-05-19,24.977661,121.256375,0.33345395
C0C710,大溪永福,2025-05-19,24.892936,121.324975,0.16758256
C0C720,竹圍,2025-05-19,25.112692,121.239824,0.99495375
C0C730,中大臨海站,2025-05-19,24.966126,121.008581,0.9921931
C0C740,觀音工業區,2025-05-19,25.064764,121.114856,0.9948466
C0C750,新興坑尾,2025-05-19,25.0061,121.0971,0.993292
C0D430,峨眉,2025-05-19,24.6905,121.017189,0.8981821
C0D480,打鐵坑,2025-05-19,24.849664,121.150789,0.062672324
C0D540,橫山,2025-05-19,24.71116,121.11693,0.847968
C0D560,竹東,2025-05-19,24.767147,121.057881,0.8013548
C0D580,寶山,2025-05-19,24.735006,121.025192,0.23803367
C0D590,新豐,2025-05-19,24.87068,120.97721,0.99259776
C0D650,湖口,2025-05-19,24.904794,121.043628,0.3263409
C0D660,新竹市東區,2025-05-19,24.798681,120.986942,0.8114791
C0D670,海天一線,2025-05-19,24.831986,120.914438,0.9979575
C0D680,香山濕地,2025-05-19,24.783581,120.914988,0.76369584
C0D690,外湖,2025-05-19,24.917735,120.968711,0.3171161
C0D700,關西,2025-05-19,24.7977,121.1732,0.99030894
C0E420,竹南,2025-05-19,24.708978,120.888897,0.9498459
C0E430,南庄,2025-05-19,24.601775,121.000214,0.27372387
C0E550,明德,2025-05-19,24.583486,120.885411,0.9860693
C0E570,白沙屯,2025-05-19,24.549447,120.696803,0.99743694
C0E590,通霄,2025-05-19,24.471892,120.704622,0.99745226
C0E730,頭份,2025-05-19,24.688247,120.912206,0.9469086
C0E740,造橋,2025-05-19,24.637056,120.864778,0.9967873
C0E750,苗栗,2025-05-19,24.564569,120.824575,0.9824581
C0E780,銅鑼,2025-05-19,24.489681,120.790853,0.9976369
C0E791,卓蘭,2025-05-19,24.3126,120.8244,0.68533003
C0E810,西湖,2025-05-19,24.562947,120.7485,0.9973295
C0E820,獅潭,2025-05-19,24.539133,120.920042,0.8277632
C0E830,苑裡,2025-05-19,24.439714,120.653053,0.99741787
C0E850,大河,2025-05-19,24.618069,120.948578,0.9713679
C0E870,高鐵苗栗,2025-05-19,24.60725,120.826094,0.9968673
C0E910,海埔,2025-05-19,24.648767,120.772435,0.9663202
C0E920,通霄漁港,2025-05-19,24.498589,120.673876,0.9975981
C0E930,龍鳳,2025-05-19,24.700034,120.859125,0.9365513
C0F0B0,石岡,2025-05-19,24.276061,120.777644,0.6900876
C0F850,東勢,2025-05-19,24.246428,120.833047,0.9910593
C0F970,大坑,2025-05-19,24.173142,120.722289,0.749803
C0F9I0,神岡,2025-05-19,24.272481,120.658314,0.9975443
C0F9K0,大安,2025-05-19,24.345061,120.588025,0.9971652
C0F9L0,后里,2025-05-19,24.310436,120.729725,0.6123795
C0F9M0,豐原,2025-05-19,24.254322,120.720692,0.5829307
C0F9N0,大里,2025-05-19,24.092464,120.701378,0.47210538
C0F9O0,潭子,2025-05-19,24.213106,120.703933,0.9837074
C0F9P0,清水,2025-05-19,24.312297,120.562242,0.9976849
C0F9Q0,外埔,2025-05-19,24.347817,120.705686,0.997997
C0F9R0,龍井,2025-05-19,24.184536,120.528972,0.99745655
C0F9S0,烏日,2025-05-19,24.107058,120.624103,0.2651801
C0F9T0,西屯,2025-05-19,24.179494,120.641275,0.24162506
C0F9U0,南屯,2025-05-19,24.137006,120.637969,0.12034931
C0F9X0,大雅(中科園區),2025-05-19,24.21528,120.62445,0.99649465
C0FA10,松柏,2025-05-19,24.429115,120.617482,0.99584985
C0FA20,溫寮,2025-05-19,24.372177,120.583125,0.9965597
C0FA30,梧棲,2025-05-19,24.256003,120.523381,0.9976849
C0FA40,臺中電廠,2025-05-19,24.2146,120.4907,0.9976656
C0FA50,霧峰,2025-05-19,24.0419,120.6995,0.122046374
C0FB70,大甲溪埔,2025-05-19,24.370625,120.620067,0.9972757
C0G620,芬園,2025-05-19,24.015678,120.6213,0.29886714
C0G650,員林,2025-05-19,23.946503,120.585597,0.1566634
C0G660,溪湖,2025-05-19,23.94835,120.479122,0.9111164
C0G720,溪州,2025-05-19,23.851589,120.499093,0.11461914
C0G730,二林,2025-05-19,23.903325,120.376081,0.99722004
C0G740,大城,2025-05-19,23.852487,120.320935,0.99706936
C0G770,福興,2025-05-19,24.041289,120.437669,0.99731463
C0G780,秀水,2025-05-19,24.03405,120.503869,0.9900188
C0G800,埔鹽,2025-05-19,24.000394,120.431683,0.9973607
C0G810,埔心,2025-05-19,23.947633,120.525456,0.9330747
C0G820,田尾,2025-05-19,23.901669,120.509389,0.024911484
C0G830,埤頭,2025-05-19,23.866003,120.452806,0.088917755
C0G860,社頭,2025-05-19,23.897647,120.5862,0.007140007
C0G880,二水,2025-05-19,23.810742,120.6173,0.3553071
C0G890,伸港,2025-05-19,24.148933,120.484403,0.9975661
C0G900,線西,2025-05-19,24.143358,120.443536,0.997467
C0G910,花壇,2025-05-19,24.032076,120.549461,0.9937526
C0G920,永靖,2025-05-19,23.924703,120.547533,0.02491156
C0G940,竹塘,2025-05-19,23.848253,120.386764,0.99517685
C0G950,防潮門,2025-05-19,24.1835,120.4871,0.99745655
C0G960,福寶,2025-05-19,24.0443,120.3814,0.9953137
C0G970,三豐,2025-05-19,23.882,120.2895,0.9920712
C0G9B0,和美,2025-05-19,24.105169,120.492131,0.98822474
C0H890,埔里,2025-05-19,23.972169,120.952425,0.9633125
C0H960,草屯,2025-05-19,23.973672,120.68085,0.2611107
C0I110,竹山,2025-05-19,23.761225,120.688156,0.8543909
C0I360,水里,2025-05-19,23.812553,120.849792,0.9952883
C0I380,集集,2025-05-19,23.828206,120.801467,0.9948827
C0I410,名間,2025-05-19,23.837053,120.701447,0.025553474
C0I420,國姓,2025-05-19,24.037803,120.855072,0.006880447
C0I460,南投,2025-05-19,23.911469,120.687331,0.07549239
C0K250,崙背,2025-05-19,23.75555,120.318925,0.98975223
C0K280,四湖,2025-05-19,23.630414,120.227125,0.99716127
C0K291,宜梧,2025-05-19,23.536281,120.169329,0.99538517
C0K330,虎尾,2025-05-19,23.719183,120.442036,0.5340362
C0K390,土庫,2025-05-19,23.679029,120.395574,0.98534083
C0K400,斗六,2025-05-19,23.720583,120.541127,0.02602037
C0K410,北港,2025-05-19,23.573957,120.292802,0.99690205
C0K420,西螺,2025-05-19,23.800407,120.467394,0.5274385
C0K430,褒忠,2025-05-19,23.690938,120.303634,0.9837644
C0K440,二崙,2025-05-19,23.772797,120.408944,0.9807282
C0K450,大埤,2025-05-19,23.646074,120.431537,0.9085332
C0K460,斗南,2025-05-19,23.678734,120.478359,0.034621876
C0K470,林內,2025-05-19,23.748675,120.609642,0.123971395
C0K480,莿桐,2025-05-19,23.761192,120.502372,0.049447678
C0K500,元長,2025-05-19,23.64981,120.315024,0.9956477
C0K510,水林,2025-05-19,23.572924,120.24597,0.9969125
C0K530,臺西,2025-05-19,23.701547,120.197559,0.99476093
C0K550,蔦松,2025-05-19,23.514319,120.229736,0.99538517
C0K560,棋山,2025-05-19,23.68645,120.603417,0.0614081
C0K580,高鐵雲林,2025-05-19,23.737456,120.417944,0.98439
C0K590,雲林東勢,2025-05-19,23.674192,120.255721,0.997039
C0K600,箔子寮,2025-05-19,23.6197,120.14,0.99346733
C0M520,東後寮,2025-05-19,23.369908,120.248065,0.9952831
C0M640,中埔,2025-05-19,23.42538,120.5229,0.9913655
C0M650,朴子,2025-05-19,23.43463,120.23902,0.9955678
C0M660,溪口,2025-05-19,23.604131,120.403569,0.94460297
C0M670,大林,2025-05-19,23.600616,120.45841,0.05387041
C0M680,太保,2025-05-19,23.455062,120.331455,0.7558494
C0M690,水上,2025-05-19,23.419734,120.388909,0.98220366
C0M700,竹崎,2025-05-19,23.526178,120.555508,0.9813985
C0M710,東石,2025-05-19,23.458927,120.15385,0.9958512
C0M720,番路,2025-05-19,23.464657,120.554156,0.9942048
C0M730,嘉義市東區,2025-05-19,23.457673,120.460531,0.6462402
C0M740,六腳,2025-05-19,23.492871,120.290625,0.9963708
C0M750,布袋,2025-05-19,23.380878,120.167789,0.99584156
C0M760,民雄,2025-05-19,23.551754,120.428457,0.21703735
C0M770,嘉義梅山,2025-05-19,23.585398,120.555587,0.5804354
C0M780,鹿草,2025-05-19,23.41134,120.30835,0.99595076
C0M790,新港,2025-05-19,23.553269,120.345728,0.96158266
C0M800,茶山,2025-05-19,23.299075,120.664767,0.9950055
C0M880,好美里,2025-05-19,23.3364,120.138,0.99674165
C0N010,鯤鯓國小,2025-05-19,23.1879,120.0889,0.98744804
C0N020,城西,2025-05-19,23.0568,120.0956,0.9883108
C0N030,四草,2025-05-19,23.0235,120.1116,0.9879914
C0N040,蘆竹溝,2025-05-19,23.2344,120.0961,0.99083996
C0N050,蚵寮,2025-05-19,23.301,120.1104,0.9932568
C0O830,北寮,2025-05-19,23.079561,120.495008,0.88907176
C0O840,王爺宮,2025-05-19,23.222064,120.40085,0.9857657
C0O860,大內,2025-05-19,23.11885,120.36083,0.83283967
C0O900,善化,2025-05-19,23.112883,120.297219,0.93950146
C0O960,崎頂,2025-05-19,22.959547,120.369317,0.9852595
C0O970,虎頭埤,2025-05-19,23.021375,120.347878,0.9574035
C0O980,新市,2025-05-19,23.061614,120.298197,0.9763474
C0O990,媽廟,2025-05-19,22.99175,120.293525,0.9875039
C0R150,三地門,2025-05-19,22.709889,120.639944,0.95544285
C0R160,鹽埔,2025-05-19,22.739558,120.530778,0.8165019
C0R190,赤山,2025-05-19,22.592333,120.614306,0.7286484
C0R220,潮州,2025-05-19,22.534361,120.54,0.7142946
C0R240,來義,2025-05-19,22.527306,120.625111,0.986684
C0R260,春日,2025-05-19,22.370361,120.628306,0.77848756
C0R270,琉球嶼,2025-05-19,22.332244,120.362236,0.94449586
C0R280,檳榔,2025-05-19,22.076078,120.836777,0.44186863
C0R320,車城,2025-05-19,22.0744,120.716247,0.08025823
C0R341,牡丹,2025-05-19,22.130036,120.792639,0.42513344
C0R350,貓鼻頭,2025-05-19,21.921774,120.7358,0.051259026
C0R470,高樹,2025-05-19,22.826389,120.600806,0.9228602
C0R480,長治,2025-05-19,22.693128,120.542622,0.76005125
C0R490,九如,2025-05-19,22.7405,120.490503,0.7958986
C0R520,崁頂,2025-05-19,22.514781,120.506914,0.6888171
C0R540,佳冬,2025-05-19,22.419456,120.552375,0.5861923
C0R550,新埤,2025-05-19,22.467947,120.582894,0.97936743
C0R560,新園,2025-05-19,22.5434,120.461558,0.58167213
C0R570,麟洛,2025-05-19,22.65078,120.52719,0.9155376
C0R580,南州,2025-05-19,22.48591,120.50274,0.78361946
C0R590,里港,2025-05-19,22.77919,120.49459,0.6100823
C0R620,墾雷,2025-05-19,21.900836,120.855269,0.08515525
C0R640,東港,2025-05-19,22.46247,120.44074,0.78361946
C0R650,竹田,2025-05-19,22.58486,120.54344,0.916646
C0R660,枋寮,2025-05-19,22.367722,120.590647,0.5596699
C0R670,楓港,2025-05-19,22.190131,120.692156,0.080653846
C0R680,佳樂水,2025-05-19,21.993578,120.861633,0.06391682
C0R690,墾丁,2025-05-19,21.966756,120.810269,0.3925067
C0R700,枋山,2025-05-19,22.246844,120.661086,0.21122655
C0R710,龍磐,2025-05-19,21.931672,120.838942,0.1176063
C0R720,旭海,2025-05-19,22.205403,120.887614,0.72037685
C0R730,大坪頂,2025-05-19,22.024633,120.69355,0.17763807
C0R741,獅子,2025-05-19,22.202308,120.705236,0.16846506
C0R760,南仁湖,2025-05-19,22.084681,120.863353,0.78724813
C0R770,保力,2025-05-19,22.071122,120.764111,0.0850628
C0R780,滿州,2025-05-19,22.024403,120.839892,0.10634492
C0R790,九棚,2025-05-19,22.14195,120.889281,0.39286867
C0R800,丹路,2025-05-19,22.204481,120.750989,0.31296915
C0R810,內獅,2025-05-19,22.305064,120.642986,0.16534461
C0R830,高士,2025-05-19,22.121825,120.836781,0.8472548
C0R850,林邊,2025-05-19,22.4634,120.5339,0.8076841
C0R860,鼻頭,2025-05-19,22.1043,120.8979,0.07647796
C0R870,興海,2025-05-19,21.9752,120.8439,0.062419318
C0R880,後壁湖,2025-05-19,21.9457,120.7457,0.056523137
C0R890,山海,2025-05-19,21.9878,120.7091,0.057516836
C0R900,竹坑,2025-05-19,22.1385,120.7022,0.08178049
C0R910,下寮,2025-05-19,22.3929,120.5548,0.5596699
C0R920,塭仔,2025-05-19,22.4169,120.5197,0.55246824
C0R930,萬丹,2025-05-19,22.5885,120.4851,0.89705414
C0R940,加祿堂,2025-05-19,22.3363,120.6217,0.3386386
C0R950,萬隆國小,2025-05-19,22.507667,120.587817,0.9740819
C0R960,內埔,2025-05-19,22.608483,120.570714,0.93442005
C0S710,鹿野,2025-05-19,22.917711,121.122994,0.8659363
C0S730,綠島,2025-05-19,22.6672,121.47533,0.64304614
C0S740,池上,2025-05-19,23.119628,121.209469,0.9132824
C0S770,大溪山,2025-05-19,22.478475,120.943325,0.9458694
C0S790,金崙,2025-05-19,22.538122,120.966875,0.969633
C0S810,東河,2025-05-19,22.972672,121.303986,0.6514345
C0S830,長濱,2025-05-19,23.286817,121.411975,0.9315544
C0S840,南田,2025-05-19,22.279725,120.889208,0.15278591
C0S890,關山,2025-05-19,23.0395,121.175017,0.91207045
C0S900,蘭嶼高中,2025-05-19,22.04909,121.51214,0.18150319
C0S910,蘭嶼燈塔,2025-05-19,22.081197,121.503117,0.4923303
C0S920,金峰嘉蘭,2025-05-19,22.594789,120.960825,0.8198113
C0S930,延平,2025-05-19,22.902581,121.084058,0.8888709
C0S940,石寧山,2025-05-19,23.223772,121.406639,0.9438618
C0S950,七塊厝,2025-05-19,22.954453,121.229922,0.8357305
C0S960,香蘭,2025-05-19,22.587569,120.993375,0.37584427
C0S970,加津林,2025-05-19,22.416211,120.926942,0.14151666
C0S990,山豬窟,2025-05-19,22.318619,120.857372,0.80086344
C0SA00,歷坵,2025-05-19,22.520969,120.89185,0.96428347
C0SA10,檳榔四格山,2025-05-19,22.810031,121.109308,0.90840167
C0SA30,都歷,2025-05-19,23.020333,121.323642,0.8946288
C0SA40,瑞和,2025-05-19,22.974361,121.156697,0.9143332
C0SA60,知本（水試所）,2025-05-19,22.702394,121.082761,0.30324268
C0SA80,土坂,2025-05-19,22.453108,120.887572,0.77560276
C0SA90,達仁林場,2025-05-19,22.264347,120.823972,0.69712526
C0SB10,美和,2025-05-19,22.682078,121.060236,0.33631566
C0SB20,富岡,2025-05-19,22.792467,121.192669,0.49915752
C0SB30,新蘭,2025-05-19,22.869214,121.223228,0.6657948
C0SB40,興隆,2025-05-19,22.913661,121.257469,0.70647836
C0SB50,叭嗡嗡,2025-05-19,23.047062,121.343223,0.7175964
C0SB60,白守蓮,2025-05-19,23.126769,121.401914,0.7389429
C0SB70,小港漁港,2025-05-19,23.158558,121.400431,0.8591746
C0SB80,長濱漁港,2025-05-19,23.313644,121.459994,0.96387666
C0T870,鯉魚潭,2025-05-19,23.935639,121.508944,0.9534862
C0T900,西林,2025-05-19,23.8119,121.441458,0.9457914
C0T960,光復,2025-05-19,23.660694,121.424964,0.88498634
C0T9A0,月眉山,2025-05-19,23.809928,121.539828,0.7758331
C0T9D0,和中,2025-05-19,24.26676,121.74103,0.9725619
C0T9E0,大坑,2025-05-19,23.880628,121.581981,0.74270475
C0T9F0,水璉,2025-05-19,23.797131,121.542514,0.9211902
C0T9I0,豐濱,2025-05-19,23.583897,121.514806,0.9508212
C0T9M0,靜浦,2025-05-19,23.455167,121.495028,0.9353543
C0T9N0,富里,2025-05-19,23.171639,121.249378,0.9395331
C0TA10,花蓮漁港,2025-05-19,23.995322,121.638331,0.9848433
C0TA20,加灣,2025-05-19,24.082025,121.608944,0.9846208
C0TA30,鹽寮,2025-05-19,23.845606,121.592664,0.9725205
C0U600,礁溪,2025-05-19,24.817539,121.765608,0.97225535
C0U650,玉蘭,2025-05-19,24.675286,121.587061,0.7394017
C0U750,龜山島,2025-05-19,24.841667,121.953133,0.97170556
C0U760,東澳,2025-05-19,24.52196,121.83318,0.98981154
C0U770,南澳,2025-05-19,24.44935,121.81022,0.97606516
C0U780,五結,2025-05-19,24.68637,121.79794,0.880489
C0U860,頭城,2025-05-19,24.85323,121.8308,0.9725372
C0U870,大礁溪,2025-05-19,24.791042,121.675047,0.5441294
C0U880,北關,2025-05-19,24.9072,121.8734,0.91470253
C0U890,三星,2025-05-19,24.66812,121.65302,0.9533019
C0U900,內城,2025-05-19,24.71813,121.68766,0.8983702
C0U910,冬山,2025-05-19,24.63373,121.7937,0.9643199
C0U940,羅東,2025-05-19,24.68184,121.74934,0.88782966
C0U970,大福,2025-05-19,24.80064,121.81389,0.9486335
C0U990,員山,2025-05-19,24.74435,121.72247,0.8851432
C0UA00,土場,2025-05-19,24.576533,121.495333,0.8083976
C0UA80,大溪漁港,2025-05-19,24.941801,121.902955,0.94949585
C0UA90,石城,2025-05-19,24.980444,121.951214,0.9870998
C0UB00,淡江大學蘭陽校園,2025-05-19,24.823239,121.730383,0.87942684
C0UB10,蘇澳,2025-05-19,24.5969,121.8571,0.92523247
C0UB20,壯圍,2025-05-19,24.7359,121.8163,0.87925065
C0V350,溪埔,2025-05-19,22.738578,120.446797,0.6553819
C0V360,內門,2025-05-19,22.975481,120.466769,0.88656944
C0V370,古亭坑,2025-05-19,22.893178,120.401947,0.93680525
C0V400,阿公店,2025-05-19,22.804194,120.355528,0.8224753
C0V440,鳳山,2025-05-19,22.646653,120.356122,0.96928304
C0V450,鳳森,2025-05-19,22.545064,120.392592,0.9405536
C0V490,新興,2025-05-19,22.627422,120.298803,0.9172112
C0V530,阿蓮,2025-05-19,22.883208,120.327508,0.95968115
C0V610,梓官,2025-05-19,22.760558,120.267211,0.8987142
C0V620,永安,2025-05-19,22.82315,120.236856,0.97439545
C0V630,茄萣,2025-05-19,22.906642,120.182608,0.9923934
C0V640,湖內,2025-05-19,22.887139,120.2445,0.9790942
C0V650,彌陀,2025-05-19,22.783806,120.246361,0.94337434
C0V660,岡山,2025-05-19,22.797078,120.294958,0.94337434
C0V680,仁武,2025-05-19,22.701083,120.347722,0.94122213
C0V690,鼓山,2025-05-19,22.623325,120.275575,0.91721106
C0V700,三民,2025-05-19,22.645017,120.311233,0.9556157
C0V710,苓雅,2025-05-19,22.622742,120.330669,0.93268955
C0V720,林園,2025-05-19,22.507747,120.394511,0.9311996
C0V730,大寮,2025-05-19,22.605614,120.395717,0.94061834
C0V740,旗山,2025-05-19,22.888614,120.483597,0.77479297
C0V750,路竹,2025-05-19,22.854997,120.259439,0.9815767
C0V760,橋頭,2025-05-19,22.757806,120.30575,0.89871424
C0V770,大社,2025-05-19,22.730306,120.346639,0.8839702
C0V790,萬山,2025-05-19,22.905944,120.688056,0.9939245
C0V800,六龜,2025-05-19,22.997889,120.633583,0.9809548
C0V810,左營,2025-05-19,22.67491,120.28491,0.9556157
C0V820,小林,2025-05-19,23.148408,120.63325,0.98860395
C0V840,鳳鼻頭,2025-05-19,22.5083,120.3591,0.54960525
C0V850,蚵仔寮,2025-05-19,22.7256,120.2527,0.8842785
C0V860,南寮,2025-05-19,22.7616,120.2339,0.8842784
C0V870,文安,2025-05-19,22.8025,120.2164,0.93479466
C0V880,興達,2025-05-19,22.8778,120.2127,0.9765131
C0V890,前鎮,2025-05-19,22.5718,120.3117,0.9138379
C0V900,汕尾,2025-05-19,22.4782,120.4151,0.78361946
C0V910,大樹,2025-05-19,22.684645,120.432803,0.8034389
C0W200,湖西,2025-05-19,23.596314,119.67275,0.9747175
C0X050,東河,2025-05-19,23.296598,120.385608,0.8906853
C0X060,下營,2025-05-19,23.22695,120.256261,0.94657445
C0X080,佳里,2025-05-19,23.173039,120.145086,0.98744804
C0X100,臺南市北區,2025-05-19,23.010394,120.194228,0.98929304
C0X110,臺南市南區,2025-05-19,22.961189,120.188378,0.9919681
C0X120,麻豆,2025-05-19,23.183289,120.248611,0.9016774
C0X130,官田,2025-05-19,23.193217,120.315422,0.85883105
C0X140,西港,2025-05-19,23.125608,120.203108,0.94316924
C0X150,安定,2025-05-19,23.102614,120.227839,0.94316924
C0X160,仁德,2025-05-19,22.968258,120.257689,0.9922152
C0X170,關廟,2025-05-19,22.963017,120.327797,0.9578487
C0X180,山上,2025-05-19,23.0757,120.363253,0.8979442
C0X190,安平,2025-05-19,22.993161,120.152181,0.98929304
C0X200,左鎮,2025-05-19,23.056758,120.408522,0.95033985
C0X210,白河,2025-05-19,23.347466,120.414427,0.9789461
C0X220,學甲,2025-05-19,23.230367,120.182187,0.9909806
C0X230,鹽水,2025-05-19,23.272621,120.247641,0.9930158
C0X240,關子嶺,2025-05-19,23.331169,120.508025,0.9824495
C0X250,新營,2025-05-19,23.310689,120.316681,0.89343977
C0X260,後壁,2025-05-19,23.366358,120.362326,0.94253504
C0X280,將軍,2025-05-19,23.214999,120.13577,0.99083996
C0X290,北門,2025-05-19,23.267772,120.125481,0.99083996
C0X300,鹿寮,2025-05-19,23.386047,120.477331,0.9578595
C0X320,柳營,2025-05-19,23.253328,120.375253,0.84722763
C0Z020,明里,2025-05-19,23.208717,121.262342,0.9291469
C0Z061,玉里,2025-05-19,23.3215,121.339656,0.9600091
C0Z070,舞鶴,2025-05-19,23.46811,121.37407,0.8972492
C0Z080,富源,2025-05-19,23.587642,121.378225,0.928266
C0Z100,東華,2025-05-19,23.89525,121.549833,0.9747782
C0Z150,吉安光華,2025-05-19,23.930925,121.595153,0.9765333
C0Z160,鳳林,2025-05-19,23.746114,121.453411,0.94898015
C0Z170,卓溪,2025-05-19,23.3443,121.3029,0.90478677
C0Z180,新城,2025-05-19,24.040486,121.604878,0.98490113
C0Z190,富世,2025-05-19,24.14743,121.6297,0.94428927
C0Z200,萬榮,2025-05-19,23.709219,121.420106,0.95279706
C0Z210,瑞穗,2025-05-19,23.5239,121.39021,0.9582451
C0Z230,和平,2025-05-19,24.30717,121.77007,0.9732602
C0Z270,蕃薯寮,2025-05-19,23.73835,121.540108,0.9101131
C0Z280,德武,2025-05-19,23.47426,121.41071,0.9270827
C0Z300,東里,2025-05-19,23.26853,121.30547,0.93978244
C0Z310,清水斷崖,2025-05-19,24.218294,121.689142,0.8162451
C0Z330,安通山,2025-05-19,23.290728,121.348528,0.85540104
C2A540,四堵,2025-05-19,24.8926,121.745736,0.943915
C2A560,福山,2025-05-19,24.776203,121.502811,0.74387014
C2A650,火燒寮,2025-05-19,25.002719,121.742892,0.9754576
C2A660,瑞芳,2025-05-19,25.113169,121.801147,0.9884227
C2A880,福隆,2025-05-19,25.017842,121.942083,0.9866251
C2A920,富貴角,2025-05-19,25.263783,121.565258,0.9969195
C2C410,中央大學,2025-05-19,24.967652,121.185165,0.98426336
C2D720,關西工作站,2025-05-19,24.757275,121.184792,0.9899323
C2D730,寶山農場,2025-05-19,24.732444,120.976153,0.9057116
C2E520,大湖,2025-05-19,24.414939,120.870872,0.066188015
C2E540,龍溪,2025-05-19,24.606489,120.783933,0.97567147
C2E970,八甲,2025-05-19,24.535811,120.795983,0.99687916
C2F000,大肚,2025-05-19,24.15295,120.572117,0.9692985
C2F930,大甲,2025-05-19,24.347667,120.640403,0.99705505
C2F9A0,中竹林,2025-05-19,24.103556,120.751061,0.045285862
C2G640,鹿港,2025-05-19,24.0753,120.430481,0.9953137
C2G840,北斗,2025-05-19,23.877586,120.514222,0.10582866
C2G870,芳苑,2025-05-19,23.922303,120.320025,0.9961506
C2G980,田頭村,2025-05-19,23.8263,120.444175,0.08869449
C2G9A0,畜試所彰化,2025-05-19,23.86045,120.557964,0.0073165703
C2H950,中寮,2025-05-19,23.884447,120.766406,0.01200161
C2H9F0,柑林,2025-05-19,24.018658,120.847072,0.0058886227
C2H9H0,苗改南投蜂場,2025-05-19,23.852589,120.693481,0.022029854
C2H9T0,名間竹圍,2025-05-19,23.859914,120.637572,0.99477977
C2H9U0,鳳鵬,2025-05-19,23.763919,120.788061,0.995388
C2K620,馬光農場,2025-05-19,23.721453,120.378864,0.97984934
C2K630,荷苞,2025-05-19,23.657717,120.595144,0.13266018
C2M410,馬頭山,2025-05-19,23.324361,120.582017,0.99527496
C2M910,嘉義大學,2025-05-19,23.471325,120.485903,0.80865383
C2M920,朴子農改,2025-05-19,23.469889,120.259383,0.996264
C2N160,西拉雅風管處,2025-05-19,23.189481,120.335297,0.8643776
C2O810,曾文,2025-05-19,23.219681,120.497328,0.96329516
C2O930,玉井,2025-05-19,23.126042,120.46055,0.8979442
C2O950,安南,2025-05-19,23.076694,120.144861,0.9890312
C2R170,屏東,2025-05-19,22.66027,120.49403,0.9155376
C2R970,屏科大,2025-05-19,22.648275,120.619247,0.96143585
C2V250,甲仙,2025-05-19,23.080106,120.591758,0.98539585
C2V260,月眉,2025-05-19,22.971003,120.539853,0.87132037
C2V310,美濃,2025-05-19,22.898792,120.51907,0.7472271
C2W230,畜試所澎湖,2025-05-19,23.628342,119.513206,0.9250072
CAG100,王功漁港,2025-05-19,23.96824,120.32586,0.99648386
CAH030,茶改場竹圍站,2025-05-19,23.860083,120.637528,0.99477977
CAJ050,海口故事園區,2025-05-19,23.57543,120.14121,0.99324137
CAL110,布袋國中,2025-05-19,23.35893,120.18026,0.99584156
CAN130,水試所海水繁養殖中心,2025-05-19,23.120802,120.07968,0.98812723
CAN140,六官養殖協會,2025-05-19,23.22881,120.29962,0.9465744
CAQ030,崎峰國小,2025-05-19,22.42565,120.49521,0.78361946
E2K600,四湖植物園,2025-05-19,23.676986,120.163433,0.99716127
E2P980,林試六龜中心,2025-05-19,22.991703,120.645722,0.9850566
E2S960,林試太麻里2,2025-05-19,22.598,120.99775,0.3270562
E2S980,林試太麻里1,2025-05-19,22.598922,120.980044,0.808586
G2AI50,關渡,2025-05-19,25.11575,121.492,0.62195134
G2F820,農試所(霧峰),2025-05-19,24.031261,120.688133,0.10023872
G2L020,農試嘉義分所,2025-05-19,23.485028,120.473806,0.87200207
G2M350,農試溪口農場,2025-05-19,23.58565,120.408111,0.94460297
G2P820,農試鳳山分所,2025-05-19,22.646611,120.356083,0.969283
K2E360,苗栗農改場,2025-05-19,24.495722,120.829111,0.9967672
K2E710,苗改生物防治研究中心,2025-05-19,24.422861,120.871833,0.060051505
K2F750,種苗改良場,2025-05-19,24.225972,120.800917,0.9913791
U2HA50,臺大竹山,2025-05-19,23.756972,120.681556,0.9793357
V2C250,八德合作社,2025-05-19,24.93775,121.266389,0.50342774
V2C260,八德蔬果,2025-05-19,24.978508,121.281819,0.3395457
V2K610,大庄合作社,2025-05-19,23.8068,120.367939,0.9504378
V2K620,麥寮合作社,2025-05-19,23.753836,120.294783,0.9816869
