站號,站名,日期,lat,lon,BLBTSLS
C1F9D1,白毛台,2025-02-09,24.158325,120.886933,2.179343e-09
C1O850,環湖,2025-02-09,23.148617,120.418633,4.794472e-10
C2R970,屏科大,2025-02-09,22.648275,120.619247,9.856512e-10
K2F750,種苗繁殖,2025-02-09,24.225972,120.800917,1.7308651e-09
C1Z130,銅門,2025-02-09,23.965694,121.492842,5.230206e-09
CAN140,六官養殖協會,2025-02-09,23.22881,120.29962,1.9018649e-09
C1M480,獨立山,2025-02-09,23.537022,120.607797,2.4113742e-09
C0X220,學甲,2025-02-09,23.230367,120.182187,1.5837269e-09
C0R170,屏東,2025-02-09,22.660269,120.494072,7.8427687e-10
467990,馬祖,2025-02-09,26.169269,119.923419,8.431277e-08
C2D730,寶山農場,2025-02-09,24.732444,120.976153,3.1591654e-09
C2E540,後龍,2025-02-09,24.606489,120.783933,2.0837403e-09
C1F9B1,桐林,2025-02-09,24.066172,120.735194,6.6990696e-10
C2H9U0,鳳鵬,2025-02-09,23.763919,120.788061,1.111837e-09
C1I450,望鄉山,2025-02-09,23.594153,120.944286,1.8973548e-08
B2E890,畜試北區分所,2025-02-09,24.527806,120.770972,1.5359731e-09
C1I121,大鞍,2025-02-09,23.678381,120.760017,8.86933e-09
72U480,花改蘭陽分場,2025-02-09,24.686306,121.716583,1.4207406e-09
467300,東吉島,2025-02-09,23.25695,119.667467,0.95227295
A2C560,農工中心,2025-02-09,24.985917,121.239833,1.31252325e-08
C0Z061,玉里,2025-02-09,23.3215,121.339656,5.463027e-09
C1I470,杉林溪,2025-02-09,23.639517,120.786444,1.0626177e-08
C1X040,東原,2025-02-09,23.291597,120.463822,9.1003743e-10
C1R120,上德文,2025-02-09,22.763272,120.704442,1.7837185e-09
82S580,茶改東部分場,2025-02-09,22.907694,121.130139,6.365521e-09
C0Z020,明里,2025-02-09,23.208717,121.262342,6.5216597e-09
G2F820,農業試驗所,2025-02-09,24.031261,120.688133,5.155337e-10
C1E511,新開,2025-02-09,24.347703,120.827019,2.0217346e-09
G2F820,農試所(霧峰),2025-02-09,24.031261,120.688133,5.155337e-10
C1I070,和社,2025-02-09,23.591131,120.888861,2.30514e-09
C2F000,大肚,2025-02-09,24.15295,120.572117,8.9322244e-10
C1S850,豐南,2025-02-09,23.122139,121.262389,5.238083e-09
C2A920,富貴角,2025-02-09,25.263783,121.565258,1.165953e-07
CAH030,茶改場竹圍站,2025-02-09,23.860083,120.637528,9.800143e-10
CAC040,拉拉山,2025-02-09,24.699317,121.427133,3.4315008e-08
U2HA30,臺大和社,2025-02-09,23.590856,120.888864,2.30514e-09
C0Z100,東華,2025-02-09,23.89525,121.549833,3.2914282e-09
V2K610,大庄合作社,2025-02-09,23.8068,120.367939,1.6486823e-09
C1R630,龍泉,2025-02-09,22.66701,120.59091,8.9869606e-10
C1AC50,關渡,2025-02-09,25.133486,121.469331,7.2618094e-09
467410,臺南,2025-02-09,22.993239,120.204772,1.0393013e-09
C2O810,曾文,2025-02-09,23.219681,120.497328,6.9719913e-10
C1F9J1,清水林,2025-02-09,24.071242,120.820419,2.0617434e-09
C2A650,火燒寮,2025-02-09,25.002719,121.742892,1.0606192e-08
C1I220,樟湖,2025-02-09,23.905333,120.846983,5.1335762e-09
C0Z300,東里,2025-02-09,23.26853,121.30547,6.238568e-09
C0V310,美濃,2025-02-09,22.898742,120.519153,4.1449744e-10
C1V590,新發,2025-02-09,23.057019,120.646064,1.8036914e-09
72S590,東改賓朗果園,2025-02-09,22.813889,121.071278,1.47352415e-08
82A750,茶改北部分場,2025-02-09,24.955778,121.631222,2.111056e-08
C1A750,石碇服務區,2025-02-09,25.00872,121.646242,2.1863551e-08
C0X300,鹿寮,2025-02-09,23.386047,120.477331,6.246018e-10
G2AI50,關渡,2025-02-09,25.11575,121.492,7.040834e-08
C1S800,華源,2025-02-09,22.657883,121.02325,2.0736865e-08
C1V160,達卡努瓦,2025-02-09,23.279811,120.705319,2.8826095e-09
C2M410,馬頭山,2025-02-09,23.324361,120.582017,1.001343e-09
C1V390,尖山,2025-02-09,22.813153,120.367789,5.3391513e-10
U2HA50,臺大竹山,2025-02-09,23.756972,120.681556,7.5756074e-10
72D080,桃改五峰分場,2025-02-09,24.612194,121.157167,1.0558154e-08
C2H9P0,伊拿谷,2025-02-09,23.963211,121.088264,3.8549675e-09
C2H9F0,柑林,2025-02-09,24.018658,120.847072,8.925515e-10
C1O880,關山,2025-02-09,23.173397,120.594092,6.987221e-10
C1I030,武界,2025-02-09,23.913225,121.052483,4.0145385e-09
C2C410,中央大學,2025-02-09,24.967652,121.185165,1.3218363e-08
C1M610,石磐龍,2025-02-09,23.496606,120.663506,4.3596358e-09
V2C260,八德蔬果,2025-02-09,24.978508,121.281819,9.131189e-09
C2M950,太和,2025-02-09,23.538372,120.702961,5.8672245e-09
C1A630,下盆,2025-02-09,24.771003,121.538622,7.836732e-09
B2N890,畜產試驗所,2025-02-09,23.058972,120.336406,5.785808e-10
C1V580,溪南(特生中心),2025-02-09,23.084972,120.788475,6.3282233e-09
C1T970,大農,2025-02-09,23.615233,121.413331,2.872675e-09
E2S960,林試太麻里2,2025-02-09,22.598014,120.989761,3.3376367e-08
C1H900,清流,2025-02-09,24.080775,120.962997,2.8218072e-09
C1C510,水尾,2025-02-09,24.940081,121.087161,2.3151388e-08
C0X250,新營,2025-02-09,23.310689,120.316681,1.428068e-09
A2K570,古坑花卉中心,2025-02-09,23.63353,120.55239,9.305599e-10
C1E701,八卦,2025-02-09,24.491756,120.927619,6.7317347e-09
C2D720,關西工作站,2025-02-09,24.757275,121.184792,5.461714e-09
72G600,臺中農改場,2025-02-09,24.003028,120.534389,6.869978e-10
C0Z210,瑞穗,2025-02-09,23.5239,121.39021,3.1074119e-09
C1O870,大棟山,2025-02-09,23.31157,120.52226,5.0337845e-09
C0Z190,富世,2025-02-09,24.14743,121.6297,2.1106374e-08
B2U990,畜試東區分所,2025-02-09,24.669039,121.832561,1.7626215e-09
C1R610,西大武山,2025-02-09,22.617719,120.7322,3.0467472e-08
C2E880,三義,2025-02-09,24.405478,120.749819,3.2289669e-09
C0Z150,吉安光華,2025-02-09,23.930925,121.595153,4.4347983e-09
C1D640,外坪(五指山),2025-02-09,24.644447,121.090961,7.0604513e-09
C2H9R0,卓社,2025-02-09,23.887894,121.000086,8.190251e-09
72T250,花蓮農改場,2025-02-09,23.975222,121.563889,9.6565875e-09
C1T950,太安,2025-02-09,23.666719,121.370128,5.0216844e-08
C1T830,布洛灣,2025-02-09,24.17184,121.57127,1.04215665e-07
C1U920,思源,2025-02-09,24.393125,121.347214,2.1508665e-08
C2M940,日野賀,2025-02-09,23.434056,120.727169,5.2892237e-09
C1U930,粉鳥林,2025-02-09,24.497088,121.842479,3.0489138e-09
C1I211,蘆竹湳,2025-02-09,23.934019,120.811994,1.3881787e-09
C1F9F1,伯公龍,2025-02-09,24.272392,120.849047,1.898737e-09
C1I440,新高口,2025-02-09,23.478744,120.878939,1.4605436e-08
C0Z310,清水斷崖,2025-02-09,24.218294,121.689142,9.707094e-09
C1S820,金峰,2025-02-09,22.590969,120.933236,2.4436234e-08
C2K240,草嶺,2025-02-09,23.59555,120.693461,4.4682174e-09
C1SA70,都蘭,2025-02-09,22.87794,121.226881,5.3882285e-09
C1A760,坪林交控,2025-02-09,24.94284,121.713442,8.087332e-09
C1R290,石門山,2025-02-09,22.112611,120.756597,1.04620485e-05
42HA10,萬大發電廠,2025-02-09,23.978875,121.139639,4.438344e-09
C2FB50,出雲,2025-02-09,24.206469,120.902794,4.5396202e-09
C1Z240,中平林道,2025-02-09,23.42115,121.26763,8.3589484e-08
U2H480,溪頭,2025-02-09,23.670306,120.798194,5.5717635e-09
C1E900,國一N128K,2025-02-09,24.560997,120.844186,1.7352219e-09
C2V310,美濃,2025-02-09,22.898792,120.51907,4.1449744e-10
C1U850,觀音海岸,2025-02-09,24.38319,121.77856,5.9132867e-09
C2K610,草嶺石壁,2025-02-09,23.602469,120.707731,4.593202e-09
E2P980,林試六龜中心,2025-02-09,22.991703,120.645722,9.615615e-10
C1I310,西巒,2025-02-09,23.754486,120.883956,8.951229e-09
C1I101,溪頭,2025-02-09,23.661789,120.807647,1.127917e-08
C1H920,長豐,2025-02-09,24.102039,120.879897,2.167764e-09
C1E721,泰安,2025-02-09,24.489017,120.968036,9.8572315e-09
82H320,茶改中部分場,2025-02-09,23.875611,120.913583,4.85888e-09
C1S860,利嘉,2025-02-09,22.809417,121.050528,1.7366167e-08
72C440,桃園農改,2025-02-09,24.950944,121.030583,2.423696e-08
E2S980,林試太麻里1,2025-02-09,22.598922,120.980044,2.826371e-08
C1I510,線浸林道,2025-02-09,23.761508,120.832956,8.46269e-09
B2Q810,畜試南區分所,2025-02-09,21.945583,120.802167,0.9955116
C1I131,桶頭,2025-02-09,23.641944,120.654117,1.1216755e-09
CAL110,布袋國中,2025-02-09,23.35893,120.18026,3.057276e-09
C0Z290,赤柯山,2025-02-09,23.36893,121.38293,2.412277e-08
C0X280,將軍,2025-02-09,23.214999,120.13577,1.6319006e-09
C1H860,瑞岩,2025-02-09,24.123772,121.18345,2.1503169e-08
C2H9N0,仁愛東眼,2025-02-09,24.026875,121.1205,7.455503e-09
C1E670,南礦,2025-02-09,24.538278,121.002836,1.0754553e-08
C1E461,松安,2025-02-09,24.397972,120.986022,8.830002e-09
72G600,臺中農改,2025-02-09,24.003028,120.534389,6.869978e-10
C2N160,西拉雅風管處,2025-02-09,23.189481,120.335297,4.4366064e-10
C2M970,碧湖,2025-02-09,23.568632,120.624165,3.925119e-09
E2S960,林試太麻里2,2025-02-09,22.598,120.99775,3.421769e-08
C1I020,萬大,2025-02-09,23.979817,121.132261,5.440151e-09
C1I500,大尖山,2025-02-09,23.858572,120.994889,1.6086371e-08
E2K600,四湖植物園,2025-02-09,23.676986,120.163433,6.215704e-09
12Q970,東港工作站,2025-02-09,22.479997,120.466058,4.791693e-10
C1TA00,太魯閣,2025-02-09,24.15773,121.6236,2.0842739e-08
C1I260,北坑,2025-02-09,23.9246,121.006903,1.4822052e-09
C1I230,九份二山,2025-02-09,23.961944,120.845,3.5094456e-09
C2A660,瑞芳,2025-02-09,25.113169,121.801147,1.5821549e-08
C1T990,高寮,2025-02-09,23.394239,121.356808,4.4469872e-09
C1Z140,荖溪,2025-02-09,23.890575,121.45964,3.506724e-08
C1I201,中心崙,2025-02-09,23.728722,120.712097,2.0072644e-09
C1I400,凌霄,2025-02-09,24.018778,121.004456,7.2685578e-09
C1M640,十字,2025-02-09,23.492153,120.753683,6.580311e-09
G2P820,農試鳳山分所,2025-02-09,22.646611,120.356083,3.1899485e-09
C0Z270,蕃薯寮,2025-02-09,23.73835,121.540108,6.636464e-09
C2I090,鳳凰,2025-02-09,23.728081,120.787347,3.6961092e-09
C2M930,石卓,2025-02-09,23.478744,120.702264,6.9135306e-09
CAG100,王功漁港,2025-02-09,23.96824,120.32586,9.292588e-08
C0X290,北門,2025-02-09,23.267772,120.125481,1.6319006e-09
C2F930,大甲,2025-02-09,24.347667,120.640403,1.594122e-09
C1I250,鯉潭,2025-02-09,23.961922,120.991131,3.111884e-09
72N100,臺南農改,2025-02-09,23.0605,120.342194,5.785808e-10
C2E970,八甲,2025-02-09,24.535811,120.795983,1.9706605e-09
C1T940,大觀,2025-02-09,23.714206,121.373133,7.93165e-09
72T250,花蓮農改,2025-02-09,23.975222,121.563889,9.6565875e-09
A2K630,臺大雲林校區,2025-02-09,23.730628,120.423903,1.0743928e-09
E2P990,林試扇平站,2025-02-09,22.9677,120.6857,1.5267754e-09
C1Z040,立山,2025-02-09,23.443356,121.327375,2.138884e-08
C2F990,摩天嶺,2025-02-09,24.322458,120.936819,4.1810493e-09
82C160,茶改場,2025-02-09,24.908472,121.185333,8.786036e-09
C0Z320,清水林道,2025-02-09,23.27125,121.188272,2.2566956e-08
72K220,南改斗南分場,2025-02-09,23.634556,120.477333,8.786098e-10
72AI40,桃改樹林分場,2025-02-09,24.944503,121.386972,6.7091874e-09
C0X320,柳營,2025-02-09,23.253328,120.375253,4.4300363e-10
C1V170,排雲,2025-02-09,23.463619,120.954147,2.8876737e-08
C2H950,中寮,2025-02-09,23.884447,120.766406,7.4732237e-10
C1H941,雙冬,2025-02-09,23.967378,120.802189,1.5200226e-09
C0Z280,德武,2025-02-09,23.47426,121.41071,3.4751348e-09
E2H360,蓮華池,2025-02-09,23.918333,120.885278,1.6967852e-09
C2A540,四堵,2025-02-09,24.8926,121.745736,9.028319e-09
U2HA40,臺大內茅埔,2025-02-09,23.689722,120.851117,2.4095077e-09
E2HA20,林試畢祿溪站,2025-02-09,24.226944,121.308522,2.4524716e-08
467620,蘭嶼,2025-02-09,22.036969,121.558339,0.96059436
C1F941,雪嶺,2025-02-09,24.280586,121.026642,3.0503e-08
C2H9E0,國姓南港,2025-02-09,23.911108,120.846556,5.3366795e-09
C1T920,中興,2025-02-09,23.769503,121.498653,3.630155e-09
C2F860,梨山,2025-02-09,24.247522,121.243669,2.4991877e-08
C1S870,南美山,2025-02-09,23.15025,121.382333,4.6969992e-09
C1U501,牛鬥,2025-02-09,24.637836,121.573656,4.208998e-09
C1N001,沙崙,2025-02-09,22.935472,120.309406,4.985871e-10
C0X210,白河,2025-02-09,23.347466,120.414427,6.1343286e-10
C2R170,屏東,2025-02-09,22.66027,120.49403,7.8427687e-10
C1R250,力里,2025-02-09,22.428117,120.629228,7.2816114e-10
C2FA00,烏石坑,2025-02-09,24.273503,120.947617,4.0899564e-09
C1I330,楓樹林,2025-02-09,23.986803,121.076117,6.1899836e-09
72Q010,高雄農改場,2025-02-09,22.709333,120.525889,8.304956e-10
C2V260,月眉,2025-02-09,22.971003,120.539853,5.2726423e-10
A2N290,臺南蘭花園區,2025-02-09,23.340258,120.379661,1.1501011e-09
C1V300,御油山,2025-02-09,23.001983,120.715364,6.490562e-09
C1T980,龍澗,2025-02-09,24.023289,121.411328,5.2575235e-08
C1V830,國三S383K,2025-02-09,22.781967,120.426475,4.5372806e-10
12Q980,恆春工作站,2025-02-09,22.079678,120.714425,0.9994492
C1O940,東山服務區,2025-02-09,23.286016,120.398472,6.0884026e-10
C1U840,東澳嶺,2025-02-09,24.5378,121.8485,9.337144e-09
C1D630,飛鳳山,2025-02-09,24.766464,121.119178,9.646794e-09
C2M620,瑞里,2025-02-09,23.545133,120.675197,5.196279e-09
C2O950,安南,2025-02-09,23.076694,120.144861,1.0356543e-09
C2E540,龍溪,2025-02-09,24.606489,120.783933,2.0837403e-09
C1V200,梅山,2025-02-09,23.268447,120.823556,1.9094797e-09
C2O930,玉井,2025-02-09,23.126042,120.46055,4.439764e-10
C1F911,新伯公,2025-02-09,24.221361,120.841069,1.588628e-09
C0X200,左鎮,2025-02-09,23.056758,120.408522,4.697803e-10
C1F891,稍來,2025-02-09,24.265689,121.001142,2.1190193e-08
72N240,七股研究中心,2025-02-09,23.081672,120.062894,1.0479183e-09
C0Z200,萬榮,2025-02-09,23.709219,121.420106,5.678829e-09
C1O921,楠西,2025-02-09,23.183511,120.484083,4.865508e-10
C1H000,翠峰,2025-02-09,24.109397,121.205211,1.8216221e-08
C1E681,南勢山,2025-02-09,24.421669,120.923831,5.7434684e-09
C1K540,口湖,2025-02-09,23.585344,120.180517,6.0311813e-09
K2E360,苗栗農改,2025-02-09,24.495722,120.829111,1.6086701e-09
C1H9B1,阿眉,2025-02-09,24.1263,120.994672,2.1241991e-08
72V140,高改旗南分場,2025-02-09,22.857861,120.516667,4.1449744e-10
C1I150,青雲,2025-02-09,23.793361,120.949378,1.5962092e-09
C1V780,多納林道,2025-02-09,22.888028,120.737917,2.5935236e-09
C0Z330,安通山,2025-02-09,23.290728,121.348528,7.516485e-09
C2G640,鹿港,2025-02-09,24.0753,120.430481,1.3546334e-09
C1E890,國三N149K,2025-02-09,24.463414,120.680019,2.3194826e-09
C1R110,口社,2025-02-09,22.770111,120.645222,8.6596547e-10
C1M870,國三N285K,2025-02-09,23.550319,120.505833,9.663419e-10
467050,新屋,2025-02-09,25.006744,121.047486,4.987312e-08
C1E480,鳳美,2025-02-09,24.554803,121.034747,7.0322277e-09
C2H9M0,發祥,2025-02-09,24.154094,121.164517,1.6351667e-08
C1F871,上谷關,2025-02-09,24.203483,121.018644,4.0242747e-09
C2H9G0,百勝,2025-02-09,24.051142,120.909361,1.4126748e-09
C1M600,頭凍,2025-02-09,23.406364,120.603339,2.9492582e-09
C1D380,新埔,2025-02-09,24.84745,121.03834,1.05089315e-08
C2G980,田頭村,2025-02-09,23.8263,120.444175,6.5879807e-10
72M700,南改鹿草分場,2025-02-09,23.416869,120.283061,2.9962164e-09
C1SA50,利嘉林道,2025-02-09,22.82325,121.009389,1.9293818e-08
467550,玉山,2025-02-09,23.487614,120.959522,3.3955615e-08
C1V340,大津,2025-02-09,22.888322,120.645986,1.0110887e-09
C1F9C1,白冷,2025-02-09,24.182844,120.929889,2.3145152e-09
K2E710,苗改生物防治研究中心,2025-02-09,24.422861,120.871833,2.2352584e-09
C2W230,畜試所澎湖,2025-02-09,23.628342,119.513206,0.96403664
C1I280,埔中,2025-02-09,23.820778,120.642594,1.2609942e-09
466881,新北,2025-02-09,24.9593,121.52,1.0811523e-08
C0Z170,卓溪,2025-02-09,23.3443,121.3029,4.765146e-09
82H840,茶改南部分場,2025-02-09,23.762528,120.7405,1.1980803e-09
C1T800,洛韶,2025-02-09,24.204558,121.453956,4.3982663e-08
C1T810,慈恩,2025-02-09,24.192044,121.388386,1.2877752e-08
C1E451,象鼻,2025-02-09,24.368617,120.940228,4.2753454e-09
C1I290,豐丘,2025-02-09,23.668178,120.887417,5.8667657e-09
C1I320,奧萬大,2025-02-09,23.952956,121.178556,6.3189844e-09
C2M910,嘉義大學,2025-02-09,23.471325,120.485903,6.1997407e-10
C1G9D0,國一S218K,2025-02-09,23.890641,120.493253,5.9261673e-10
C2F9A0,中竹林,2025-02-09,24.103556,120.751061,1.3773601e-09
C2G9A0,畜試所彰化,2025-02-09,23.86045,120.557964,5.1866217e-10
G2M350,農試溪口農場,2025-02-09,23.58565,120.408111,8.435032e-10
72N100,臺南農改場,2025-02-09,23.0605,120.342194,5.785808e-10
467540,大武,2025-02-09,22.355675,120.903789,5.0006274e-06
C1F9W0,德基,2025-02-09,24.254783,121.190261,1.8123481e-08
C1Z120,壽豐,2025-02-09,23.870853,121.508081,3.2914282e-09
C1I240,外大坪,2025-02-09,23.958697,120.917931,3.1756278e-09
C1I550,國六W023K,2025-02-09,23.979067,120.867742,1.066764e-09
C0X260,後壁,2025-02-09,23.366358,120.362326,1.1501011e-09
C0Z230,和平,2025-02-09,24.30717,121.77007,4.0486032e-09
C1V570,吉東,2025-02-09,22.85422,120.5454,4.2293638e-10
C2D740,屯原,2025-02-09,24.067969,121.209389,1.2599057e-08
C2A560,福山,2025-02-09,24.776203,121.502811,1.0489346e-08
72S200,東改班鳩分場,2025-02-09,22.829528,121.077694,1.5552745e-08
72HA00,中改埔里分場,2025-02-09,23.903208,120.963364,1.5982564e-09
C2H9W0,大坪頂農水,2025-02-09,24.043122,120.932781,2.2012336e-09
C1S670,摩天,2025-02-09,23.199503,121.027,5.154949e-08
G2L020,農試嘉義分所,2025-02-09,23.485028,120.473806,7.156466e-10
C0X240,關子嶺,2025-02-09,23.331169,120.508025,1.1569304e-09
C1V220,小關山,2025-02-09,23.154217,120.813603,7.275437e-09
C1F9G1,慶福山,2025-02-09,24.180853,120.848378,2.67303e-09
C0Z250,瑞穗林道,2025-02-09,23.49284,121.30688,1.0169439e-07
C1H971,六分寮,2025-02-09,23.92507,120.6378,1.0418597e-09
C2H9Q0,北東眼山,2025-02-09,24.120939,121.189303,2.43733e-08
C2H9T0,名間竹圍,2025-02-09,23.859914,120.637572,9.79577e-10
72Q010,高雄農改,2025-02-09,22.709333,120.525889,8.304956e-10
12J990,口湖工作站,2025-02-09,23.589978,120.180394,6.0311813e-09
C1D410,白蘭,2025-02-09,24.579364,121.079947,1.17869e-08
C1M390,龍美,2025-02-09,23.406728,120.654417,3.6999817e-09
C2FB60,頭櫃山,2025-02-09,24.129842,120.858925,5.6132574e-09
C1H840,國三N238K,2025-02-09,23.841008,120.707711,8.969476e-10
CAQ030,崎峰國小,2025-02-09,22.42565,120.49521,4.791693e-10
C2E520,大湖,2025-02-09,24.414939,120.870872,2.3488524e-09
C1E691,南湖,2025-02-09,24.40135,120.837533,4.441655e-09
C1V231,高中,2025-02-09,23.134911,120.716711,1.7891806e-09
C2W030,金門農試所,2025-02-09,24.448431,118.451786,1.7193761e-08
U2H480,臺大溪頭,2025-02-09,23.670306,120.798194,5.5717635e-09
C1V190,南天池,2025-02-09,23.27403,120.91176,1.4000574e-08
K2E360,苗栗農改場,2025-02-09,24.495722,120.829111,1.6086701e-09
CAJ050,海口故事園區,2025-02-09,23.57543,120.14121,6.0311813e-09
C2H9D0,三隻寮,2025-02-09,24.093078,120.861578,2.2547928e-09
C0Z220,和平林道,2025-02-09,24.343922,121.656317,5.1923754e-09
72C440,桃園農改場,2025-02-09,24.950944,121.030583,2.423696e-08
C1E711,馬拉邦山,2025-02-09,24.367306,120.901656,4.4190087e-09
C1A9N0,四十份,2025-02-09,24.934158,121.593283,2.7589348e-08
C0X230,鹽水,2025-02-09,23.272621,120.247641,2.457523e-09
C2H9H0,苗改南投蜂場,2025-02-09,23.852589,120.693481,6.9919937e-10
C1I340,新興橋,2025-02-09,23.563333,120.868728,3.3147385e-09
C2H9L0,馬烈霸,2025-02-09,24.1512,121.201772,2.4135426e-08
C1AI50,國三N016K,2025-02-09,25.034164,121.619664,5.3924025e-09
C1V600,藤枝,2025-02-09,23.071961,120.757042,5.4989364e-09
C1E601,南勢,2025-02-09,24.572486,120.734842,7.773433e-09
C0Z180,新城,2025-02-09,24.03946,121.60454,9.614868e-09
C0Z050,佳心,2025-02-09,23.34567,121.21316,2.3132628e-08
K2F750,種苗改良場,2025-02-09,24.225972,120.800917,1.7308651e-09
C1AI60,國一39K邊坡,2025-02-09,25.064361,121.383836,2.8590112e-08
V2C250,八德合作社,2025-02-09,24.93775,121.266389,7.479745e-09
C2H9S0,龍南,2025-02-09,23.953536,120.833183,2.8487002e-09
A2K360,水試臺西試驗場,2025-02-09,23.717231,120.190522,5.731059e-09
B2N890,畜試所,2025-02-09,23.058972,120.336406,5.785808e-10
C2M960,外寮,2025-02-09,23.562643,120.665688,4.1286046e-09
C1F9E1,龍安,2025-02-09,24.1605,120.831961,1.8364862e-09
C2G870,芳苑,2025-02-09,23.922303,120.320025,9.1772876e-08
C1U670,寒溪,2025-02-09,24.634,121.71691,2.0585529e-09
C1Z110,三棧,2025-02-09,24.11557,121.60501,7.1758954e-08
C2H9J0,中台,2025-02-09,23.9996,120.938739,1.4986734e-09
C0Z180,新城,2025-02-09,24.040486,121.604878,9.614868e-09
C1D420,太閣南,2025-02-09,24.632808,121.160575,1.38929455e-08
C1E770,公館,2025-02-09,24.526914,120.830806,1.5359731e-09
CAN130,水試所海水繁養殖中心,2025-02-09,23.120802,120.07968,1.0479183e-09
C1I430,翠華,2025-02-09,24.191961,121.224339,1.6461444e-08
C1M400,菜瓜坪,2025-02-09,23.251928,120.576103,1.236121e-09
72M360,南改義竹分場,2025-02-09,23.360694,120.279361,2.9369533e-09
V2K620,麥寮合作社,2025-02-09,23.753836,120.294783,2.0675797e-09
C0Z070,舞鶴,2025-02-09,23.46811,121.37407,3.7037238e-09
C1Z030,紅葉,2025-02-09,23.493119,121.338806,3.3937855e-09
C1I050,丹大,2025-02-09,23.753747,121.141147,1.3079425e-08
C2M920,朴子農改,2025-02-09,23.469889,120.259383,2.4413769e-09
C2A880,福隆,2025-02-09,25.017842,121.942083,9.226286e-09
C0Z160,鳳林,2025-02-09,23.746114,121.453411,5.512641e-09
C2K630,荷苞,2025-02-09,23.657717,120.595144,9.574931e-10
C0Z080,富源,2025-02-09,23.587642,121.378225,1.20189405e-08
467441,高雄,2025-02-09,22.7304,120.3125,1.1232812e-09
C2K620,馬光農場,2025-02-09,23.721453,120.378864,1.0554686e-09
C1I140,卡奈托灣,2025-02-09,23.754364,121.087872,6.1414496e-09
C1G691,下水埔,2025-02-09,23.816114,120.5676,5.584635e-10
C2G840,北斗,2025-02-09,23.877586,120.514222,5.928338e-10
C1D400,鳥嘴山,2025-02-09,24.71909,121.28387,1.3343906e-08
C2V250,甲仙,2025-02-09,23.080106,120.591758,5.4787913e-10
C1S880,壽卡,2025-02-09,22.238911,120.858903,2.8458562e-06
72D680,桃改新埔分場,2025-02-09,24.834444,121.066111,1.0620119e-08
