站號,站名,日期,lat,lon,BLBTSLS
C0K280,四湖,2025-09-04,23.630414,120.227125,0.13824615
C0R240,來義,2025-09-04,22.527306,120.625111,0.19047573
C0X060,下營,2025-09-04,23.22695,120.256261,0.61555535
C2D740,屯原,2025-09-04,24.067969,121.209389,1.4508086e-09
C0K250,崙背,2025-09-04,23.75555,120.318925,0.6426598
