站號,站名,日期,lat,lon,BLBTSLS
C0R710,龍磐,2025-03-18,21.931672,120.838942,0.8854429
C1F9D1,白毛台,2025-03-18,24.158325,120.886933,5.302484e-10
C0G940,竹塘,2025-03-18,23.848253,120.386764,2.3015376e-09
467590,恆春,2025-03-18,22.003897,120.746339,0.4262995
C1O850,環湖,2025-03-18,23.148617,120.418633,1.3961527e-09
C0U710,太平山,2025-03-18,24.505486,121.525656,8.607393e-09
C0E820,獅潭,2025-03-18,24.539133,120.920042,1.0246474e-09
C0V880,興達,2025-03-18,22.8778,120.2127,6.952762e-10
C0S890,關山,2025-03-18,23.0395,121.175017,7.172376e-09
C0SB30,新蘭,2025-03-18,22.869214,121.223228,3.577772e-06
C2R970,屏科大,2025-03-18,22.648275,120.619247,1.2522673e-07
K2F750,種苗繁殖,2025-03-18,24.225972,120.800917,8.292689e-10
C1Z130,銅門,2025-03-18,23.965694,121.492842,1.41883225e-08
C0AD40,土城,2025-03-18,24.973208,121.445169,2.2450386e-09
CAN140,六官養殖協會,2025-03-18,23.22881,120.29962,1.1756157e-09
C0X180,山上,2025-03-18,23.0757,120.363253,1.6456065e-09
C0F9Z0,雪山東峰,2025-03-18,24.388792,121.268675,1.570732e-08
C1M480,獨立山,2025-03-18,23.537022,120.607797,6.0144184e-10
C0X220,學甲,2025-03-18,23.230367,120.182187,9.636804e-10
467650,日月潭,2025-03-18,23.881325,120.90805,5.3365856e-10
C0K600,箔子寮,2025-03-18,23.6197,120.14,4.30577e-07
C0G830,埤頭,2025-03-18,23.866003,120.452806,7.1054346e-10
C0S950,七塊厝,2025-03-18,22.954453,121.229922,9.953225e-09
467110,金門,2025-03-18,24.407306,118.289281,1.7445712e-08
C0AH80,深坑,2025-03-18,25.002703,121.628328,2.1821047e-09
467990,馬祖,2025-03-18,26.169269,119.923419,3.3245293e-08
C0A970,三貂角,2025-03-18,25.007606,122.002058,1.4381406e-09
C2D730,寶山農場,2025-03-18,24.732444,120.976153,1.9119981e-09
C0K430,褒忠,2025-03-18,23.690938,120.303634,1.3177249e-09
467480,嘉義,2025-03-18,23.495925,120.432906,3.3611247e-09
C2E540,後龍,2025-03-18,24.606489,120.783933,1.6852843e-08
C0V400,阿公店,2025-03-18,22.804194,120.355528,2.0964013e-09
C0E960,觀霧分站,2025-03-18,24.505781,121.113921,3.923846e-09
467550,玉山,2025-03-18,23.48718,120.95943,2.2946349e-08
C0R440,大漢山,2025-03-18,22.405264,120.753181,7.515941e-09
C0K280,四湖,2025-03-18,23.630414,120.227125,1.0476993e-07
C1F9B1,桐林,2025-03-18,24.066172,120.735194,1.133753e-09
C2H9U0,鳳鵬,2025-03-18,23.763919,120.788061,3.659923e-10
C0K390,土庫,2025-03-18,23.679029,120.395574,1.002809e-09
C1I450,望鄉山,2025-03-18,23.594153,120.944286,8.189861e-09
C0E910,海埔,2025-03-18,24.648767,120.772435,3.354656e-09
B2E890,畜試北區分所,2025-03-18,24.527806,120.770972,2.571241e-09
C0R750,四林格山,2025-03-18,22.076989,120.802439,5.7182484e-07
C0F0C0,中坑,2025-03-18,24.248517,120.903319,1.0210012e-09
C1I121,大鞍,2025-03-18,23.678381,120.760017,1.38118e-09
72U480,花改蘭陽分場,2025-03-18,24.686306,121.716583,1.0784641e-09
C0A770,科教館,2025-03-18,25.096356,121.516507,1.6751373e-09
C0AJ60,六塊厝,2025-03-18,25.24,121.4481,1.3702518e-08
C0R620,墾雷,2025-03-18,21.900836,120.855269,0.9764254
467420,永康,2025-03-18,23.038386,120.2367,7.006465e-10
467300,東吉島,2025-03-18,23.25695,119.667467,0.9918927
C0I410,名間,2025-03-18,23.837053,120.701447,1.2660913e-09
A2C560,農工中心,2025-03-18,24.985917,121.239833,7.1675483e-09
C0V740,旗山,2025-03-18,22.888614,120.483597,3.779461e-09
C0Z061,玉里,2025-03-18,23.3215,121.339656,1.4970021e-09
C0S840,南田,2025-03-18,22.279725,120.889208,0.97302574
C1I470,杉林溪,2025-03-18,23.639517,120.786444,1.8767232e-09
C1X040,東原,2025-03-18,23.291597,120.463822,8.397597e-10
C0R660,枋寮,2025-03-18,22.367722,120.590647,1.8735147e-07
C1R120,上德文,2025-03-18,22.763272,120.704442,6.979176e-10
C0K450,大埤,2025-03-18,23.646074,120.431537,1.2407175e-09
C0UA00,土場,2025-03-18,24.576533,121.495333,2.8266285e-09
467080,宜蘭,2025-03-18,24.763975,121.756528,8.902188e-10
C0N030,四草,2025-03-18,23.0235,120.1116,5.0123977e-10
467410,臺南,2025-03-18,22.99328,120.20492,4.769135e-10
C0V650,彌陀,2025-03-18,22.783806,120.246361,9.2825536e-10
C0D660,新竹市東區,2025-03-18,24.798681,120.986942,3.8666026e-09
82S580,茶改東部分場,2025-03-18,22.907694,121.130139,6.463633e-08
C0SB40,興隆,2025-03-18,22.913661,121.257469,1.5820483e-06
467050,新屋,2025-03-18,25.006725,121.047492,9.024363e-08
C0C710,大溪永福,2025-03-18,24.892936,121.324975,1.857677e-09
C0FA20,溫寮,2025-03-18,24.372177,120.583125,3.6659074e-08
C0V640,湖內,2025-03-18,22.887139,120.2445,6.921747e-10
C0R910,下寮,2025-03-18,22.3929,120.5548,1.8735147e-07
C0Z020,明里,2025-03-18,23.208717,121.262342,1.7254133e-09
C0M770,嘉義梅山,2025-03-18,23.585398,120.555587,6.5048855e-10
G2F820,農業試驗所,2025-03-18,24.031261,120.688133,2.4651141e-09
C0C660,楊梅,2025-03-18,24.912375,121.143047,3.5249086e-09
C1E511,新開,2025-03-18,24.347703,120.827019,4.4872603e-10
G2F820,農試所(霧峰),2025-03-18,24.031261,120.688133,1.2535984e-09
C1I070,和社,2025-03-18,23.591131,120.888861,7.558908e-10
C2F000,大肚,2025-03-18,24.15295,120.572117,5.443906e-10
C1S850,豐南,2025-03-18,23.122139,121.262389,1.650696e-09
C2A920,富貴角,2025-03-18,25.263783,121.565258,1.07315214e-08
CAH030,茶改場竹圍站,2025-03-18,23.860083,120.637528,3.9318002e-10
C0T960,光復,2025-03-18,23.660694,121.424964,2.1215742e-09
C0F9M0,豐原,2025-03-18,24.254322,120.720692,3.5670628e-10
C0R720,旭海,2025-03-18,22.205403,120.887614,0.34765175
C0V710,苓雅,2025-03-18,22.622742,120.330669,3.9241474e-08
C0C740,觀音工業區,2025-03-18,25.064764,121.114856,2.672321e-07
CAC040,拉拉山,2025-03-18,24.699317,121.427133,1.0496572e-08
C0V790,萬山,2025-03-18,22.905944,120.688056,1.3802773e-08
U2HA30,臺大和社,2025-03-18,23.590856,120.888864,7.558908e-10
C0AJ90,澳底,2025-03-18,25.0552,121.9253,1.5962213e-09
C0Z100,東華,2025-03-18,23.89525,121.549833,4.4097304e-09
C0G970,三豐,2025-03-18,23.882,120.2895,0.041676942
V2K610,大庄合作社,2025-03-18,23.8068,120.367939,1.9067066e-09
C0V900,汕尾,2025-03-18,22.4782,120.4151,9.2832136e-07
C1R630,龍泉,2025-03-18,22.66701,120.59091,4.8792117e-07
C1AC50,關渡,2025-03-18,25.133486,121.469331,2.1365019e-09
C0C800,四稜,2025-03-18,24.64733,121.4293,6.6831967e-09
C0F9I0,神岡,2025-03-18,24.272481,120.658314,7.650665e-10
C0K460,斗南,2025-03-18,23.678734,120.478359,1.2175045e-09
467410,臺南,2025-03-18,22.993239,120.204772,5.497657e-09
C2O810,曾文,2025-03-18,23.219681,120.497328,1.1038539e-09
467280,後龍,2025-03-18,24.648563,120.831834,3.1580085e-09
C1F9J1,清水林,2025-03-18,24.071242,120.820419,5.6203686e-10
C2A650,火燒寮,2025-03-18,25.002719,121.742892,1.634536e-09
466930,竹子湖,2025-03-18,25.162078,121.544547,1.938784e-09
C1I220,樟湖,2025-03-18,23.905333,120.846983,5.3584126e-10
C0I390,仁愛,2025-03-18,24.022122,121.132206,4.0541723e-10
C0Z300,東里,2025-03-18,23.26853,121.30547,1.71908e-09
C1V590,新發,2025-03-18,23.057019,120.646064,7.8514345e-10
C0K510,水林,2025-03-18,23.572924,120.24597,1.5148679e-09
72S590,東改賓朗果園,2025-03-18,22.813889,121.071278,7.0918986e-09
82A750,茶改北部分場,2025-03-18,24.955778,121.631222,4.1709574e-09
C1A750,石碇服務區,2025-03-18,25.00872,121.646242,1.9826043e-09
C0X300,鹿寮,2025-03-18,23.386047,120.477331,1.2026709e-09
G2AI50,關渡,2025-03-18,25.11575,121.492,2.2061691e-08
C0K590,雲林東勢,2025-03-18,23.674192,120.255721,1.0823485e-09
C0A570,桶後,2025-03-18,24.848222,121.597992,3.2877012e-09
C1S800,華源,2025-03-18,22.657883,121.02325,1.7081414e-08
C0G720,溪州,2025-03-18,23.851589,120.499093,6.9693323e-10
C1V160,達卡努瓦,2025-03-18,23.279811,120.705319,5.018022e-10
C2M410,馬頭山,2025-03-18,23.324361,120.582017,6.7187755e-10
C0V850,蚵仔寮,2025-03-18,22.7256,120.2527,7.234033e-10
C0S740,池上,2025-03-18,23.119628,121.209469,6.02364e-09
C1V390,尖山,2025-03-18,22.813153,120.367789,1.6423893e-09
C0AH70,松山,2025-03-18,25.04871,121.55042,1.6844222e-09
C0N010,鯤鯓國小,2025-03-18,23.1879,120.0889,8.640088e-10
C0R550,新埤,2025-03-18,22.467947,120.582894,4.525397e-07
C0SA60,知本（水試所）,2025-03-18,22.702394,121.082761,4.8413145e-08
C0T9I0,豐濱,2025-03-18,23.583897,121.514806,1.8608047e-09
C0UB00,淡江大學蘭陽校園,2025-03-18,24.823239,121.730383,3.4638257e-09
C0W240,九宮,2025-03-18,24.423753,118.240186,1.7507245e-08
C0T9N0,富里,2025-03-18,23.171639,121.249378,4.2523705e-09
U2HA50,臺大竹山,2025-03-18,23.756972,120.681556,6.7014466e-10
C0V840,鳳鼻頭,2025-03-18,22.5083,120.3591,1.0210523e-08
C0X140,西港,2025-03-18,23.125608,120.203108,5.844292e-10
72D080,桃改五峰分場,2025-03-18,24.612194,121.157167,1.5324674e-09
C2H9P0,伊拿谷,2025-03-18,23.963211,121.088264,3.8955814e-10
C2H9F0,柑林,2025-03-18,24.018658,120.847072,6.0929445e-10
C0TA20,加灣,2025-03-18,24.082025,121.608944,3.8166476e-08
C0V530,阿蓮,2025-03-18,22.883208,120.327508,1.0697286e-09
C0FB30,八仙山苗圃,2025-03-18,24.192719,121.001366,9.743093e-10
C1O880,關山,2025-03-18,23.173397,120.594092,8.2380164e-10
C0E791,卓蘭,2025-03-18,24.3126,120.8244,3.644514e-10
C1I030,武界,2025-03-18,23.913225,121.052483,4.0524717e-10
C0R520,崁頂,2025-03-18,22.514781,120.506914,1.6355411e-08
C0R341,牡丹,2025-03-18,22.130036,120.792639,0.95390344
C0R930,萬丹,2025-03-18,22.5885,120.4851,6.285615e-09
C0S760,紅石,2025-03-18,23.069131,121.126219,8.791584e-09
C2C410,中央大學,2025-03-18,24.967652,121.185165,7.098882e-09
C1M610,石磐龍,2025-03-18,23.496606,120.663506,9.957929e-10
C0C790,東眼山,2025-03-18,24.8284,121.40888,5.1921973e-09
C0UA10,鴛鴦湖,2025-03-18,24.590269,121.412228,5.5989933e-09
V2C260,八德蔬果,2025-03-18,24.978508,121.281819,3.1307503e-09
C0R800,丹路,2025-03-18,22.204481,120.750989,0.99911624
C0G920,永靖,2025-03-18,23.924703,120.547533,6.9168904e-10
C2M950,太和,2025-03-18,23.538372,120.702961,1.4123488e-09
C1A630,下盆,2025-03-18,24.771003,121.538622,4.5723634e-09
B2N890,畜產試驗所,2025-03-18,23.058972,120.336406,7.46751e-10
C0UA30,白嶺,2025-03-18,24.527819,121.519031,8.145602e-09
C1V580,溪南(特生中心),2025-03-18,23.084972,120.788475,1.1479446e-09
C1T970,大農,2025-03-18,23.615233,121.413331,1.8655846e-09
E2S960,林試太麻里2,2025-03-18,22.598014,120.989761,0.00060541666
C0R650,竹田,2025-03-18,22.58486,120.54344,1.1757508e-08
C1H900,清流,2025-03-18,24.080775,120.962997,6.114937e-10
C1C510,水尾,2025-03-18,24.940081,121.087161,4.054138e-08
C0F9X0,大雅(中科園區),2025-03-18,24.21528,120.62445,7.643795e-10
C0SB60,白守蓮,2025-03-18,23.126769,121.401914,6.057215e-08
C0O970,虎頭埤,2025-03-18,23.021375,120.347878,2.6919351e-09
C0C730,中大臨海站,2025-03-18,24.966126,121.008581,1.0094612e-07
C0X250,新營,2025-03-18,23.310689,120.316681,1.4946341e-09
C0V700,三民,2025-03-18,22.645017,120.311233,1.650822e-09
C0U870,大礁溪,2025-03-18,24.791042,121.675047,4.312495e-09
C0E870,高鐵苗栗,2025-03-18,24.60725,120.826094,3.1848844e-09
A2K570,古坑花卉中心,2025-03-18,23.63353,120.55239,5.8648836e-10
C0TA30,鹽寮,2025-03-18,23.845606,121.592664,4.5640514e-09
C0M860,新美,2025-03-18,23.338017,120.683169,4.8887455e-10
C1E701,八卦,2025-03-18,24.491756,120.927619,7.62712e-10
C0I420,國姓,2025-03-18,24.037803,120.855072,6.0981764e-10
C2D720,關西工作站,2025-03-18,24.757275,121.184792,1.9528872e-09
C0S960,香蘭,2025-03-18,22.587569,120.993375,6.897307e-08
467620,蘭嶼,2025-03-18,22.0369,121.55843,0.9998652
C0R260,春日,2025-03-18,22.370361,120.628306,7.4600294e-08
72G600,臺中農改場,2025-03-18,24.003028,120.534389,7.695273e-10
C0Z210,瑞穗,2025-03-18,23.5239,121.39021,1.7357581e-09
C0M820,達邦,2025-03-18,23.453994,120.749517,9.1289026e-10
C0V860,南寮,2025-03-18,22.7616,120.2339,7.234033e-10
C0G740,大城,2025-03-18,23.852487,120.320935,0.039096624
C0R920,塭仔,2025-03-18,22.4169,120.5197,2.1453951e-07
C0R470,高樹,2025-03-18,22.826389,120.600806,3.2490923e-06
C0R680,佳樂水,2025-03-18,21.993578,120.861633,0.11553422
C1O870,大棟山,2025-03-18,23.31157,120.52226,8.842266e-10
C0D360,梅花,2025-03-18,24.678347,121.208558,1.0509307e-09
C0Z190,富世,2025-03-18,24.14743,121.6297,1.8234994e-08
C0AI10,屈尺,2025-03-18,24.92184,121.54475,1.855754e-09
B2U990,畜試東區分所,2025-03-18,24.669039,121.832561,1.085284e-09
C0SB80,長濱漁港,2025-03-18,23.313644,121.459994,1.4137719e-09
C0R240,來義,2025-03-18,22.527306,120.625111,8.028453e-09
C0V910,大樹,2025-03-18,22.684645,120.432803,8.353447e-09
C1R610,西大武山,2025-03-18,22.617719,120.7322,7.871352e-09
C0G900,線西,2025-03-18,24.143358,120.443536,4.9861777e-09
C0M700,竹崎,2025-03-18,23.526178,120.555508,1.475371e-09
C2E880,三義,2025-03-18,24.405478,120.749819,5.1341414e-10
C0C720,竹圍,2025-03-18,25.112692,121.239824,2.2061691e-08
C0F9P0,清水,2025-03-18,24.312297,120.562242,1.3362423e-08
C0Z150,吉安光華,2025-03-18,23.930925,121.595153,3.255765e-08
C0FA80,小雪山天池,2025-03-18,24.28025,121.02627,1.3155458e-08
467300,東吉島,2025-03-18,23.25727,119.66762,0.98020387
C1D640,外坪(五指山),2025-03-18,24.644447,121.090961,9.2505276e-10
C0F9O0,潭子,2025-03-18,24.213106,120.703933,4.282525e-10
C2H9R0,卓社,2025-03-18,23.887894,121.000086,4.5733814e-10
72T250,花蓮農改場,2025-03-18,23.975222,121.563889,1.747236e-07
C0E780,銅鑼,2025-03-18,24.489681,120.790853,2.019715e-09
C1T950,太安,2025-03-18,23.666719,121.370128,1.0013396e-08
C0E830,苑裡,2025-03-18,24.439714,120.653053,3.8627644e-07
467270,田中,2025-03-18,23.873803,120.581286,9.1269176e-10
C0SA10,檳榔四格山,2025-03-18,22.810031,121.109308,4.615667e-09
C1T830,布洛灣,2025-03-18,24.17184,121.57127,1.5787032e-08
C0F970,大坑,2025-03-18,24.173142,120.722289,6.0229133e-10
C1U920,思源,2025-03-18,24.393125,121.347214,3.0342306e-09
C0A931,三和,2025-03-18,25.233153,121.595236,2.4904834e-09
C0I010,廬山,2025-03-18,24.033311,121.181808,8.256263e-10
C2M940,日野賀,2025-03-18,23.434056,120.727169,1.1538341e-09
C0R860,鼻頭,2025-03-18,22.1043,120.8979,0.9925504
C0UB20,壯圍,2025-03-18,24.7359,121.8163,1.059147e-09
C0R790,九棚,2025-03-18,22.14195,120.889281,0.983955
C0W110,東莒,2025-03-18,25.9652,119.98069,1.1449422e-07
C1U930,粉鳥林,2025-03-18,24.497088,121.842479,1.9369804e-09
C1I211,蘆竹湳,2025-03-18,23.934019,120.811994,3.8868309e-10
C0S830,長濱,2025-03-18,23.286817,121.411975,1.6096123e-09
C1F9F1,伯公龍,2025-03-18,24.272392,120.849047,2.9957292e-10
C0UB90,太平山莊,2025-03-18,24.494171,121.536209,8.760567e-09
C0E810,西湖,2025-03-18,24.562947,120.7485,0.01208431
C1I440,新高口,2025-03-18,23.478744,120.878939,4.0481476e-09
C0O840,王爺宮,2025-03-18,23.222064,120.40085,7.266184e-10
C0T9G0,鳳林山,2025-03-18,23.735269,121.420131,5.0439817e-09
C0X080,佳里,2025-03-18,23.173039,120.145086,8.640088e-10
C0FB70,大甲溪埔,2025-03-18,24.370625,120.620067,2.7174414e-08
C0Z310,清水斷崖,2025-03-18,24.218294,121.689142,6.418543e-09
C0M680,太保,2025-03-18,23.455062,120.331455,2.9102374e-09
C1S820,金峰,2025-03-18,22.590969,120.933236,1.5269654e-08
C0AD10,八里,2025-03-18,25.150211,121.403947,2.2061691e-08
C2K240,草嶺,2025-03-18,23.59555,120.693461,1.0971203e-09
C1SA70,都蘭,2025-03-18,22.87794,121.226881,1.5820483e-06
C0K440,二崙,2025-03-18,23.772797,120.408944,7.10961e-10
C1A760,坪林交控,2025-03-18,24.94284,121.713442,2.1489095e-09
C0F9N0,大里,2025-03-18,24.092464,120.701378,1.2136326e-09
C0SA90,達仁林場,2025-03-18,22.264347,120.823972,5.8108964e-07
C1R290,石門山,2025-03-18,22.112611,120.756597,0.14519376
42HA10,萬大發電廠,2025-03-18,23.978875,121.139639,4.5835463e-10
C0R890,山海,2025-03-18,21.9878,120.7091,0.06672726
C0T9A0,月眉山,2025-03-18,23.809928,121.539828,4.17755e-09
C0AC70,信義,2025-03-18,25.037822,121.564597,1.6844222e-09
C0K560,棋山,2025-03-18,23.68645,120.603417,5.7789257e-10
C2FB50,出雲,2025-03-18,24.206469,120.902794,1.1853516e-09
C1Z240,中平林道,2025-03-18,23.42115,121.26763,7.67701e-09
U2H480,溪頭,2025-03-18,23.670306,120.798194,1.3433636e-09
C0M880,好美里,2025-03-18,23.3364,120.138,1.0230382e-09
C0T9E0,大坑,2025-03-18,23.880628,121.581981,4.0468198e-09
C0K530,臺西,2025-03-18,23.701547,120.197559,1.8252955e-07
C1E900,國一N128K,2025-03-18,24.560997,120.844186,2.429295e-09
C0AJ50,水湳洞,2025-03-18,25.123695,121.862238,1.5839746e-09
C0AI20,白沙灣,2025-03-18,25.283128,121.519058,1.3244863e-08
C2V310,美濃,2025-03-18,22.898792,120.51907,4.103075e-09
C0A860,大坪,2025-03-18,25.165914,121.632969,1.4473895e-09
C1U850,觀音海岸,2025-03-18,24.38319,121.77856,4.246332e-09
C2K610,草嶺石壁,2025-03-18,23.602469,120.707731,1.1374091e-09
C0U950,鶯子嶺,2025-03-18,24.89754,121.79244,5.1984794e-09
C0O900,善化,2025-03-18,23.112883,120.297219,8.4985946e-10
C0K550,蔦松,2025-03-18,23.514319,120.229736,1.5641478e-09
E2P980,林試六龜中心,2025-03-18,22.991703,120.645722,1.7161904e-09
C0E590,通霄,2025-03-18,24.471892,120.704622,0.0009096937
C1I310,西巒,2025-03-18,23.754486,120.883956,6.3337025e-10
C0A550,泰平,2025-03-18,24.971197,121.823711,2.4645452e-09
C0I360,水里,2025-03-18,23.812553,120.849792,3.4179232e-10
C0R830,高士,2025-03-18,22.121825,120.836781,0.00047193852
C1I101,溪頭,2025-03-18,23.661789,120.807647,3.1397802e-09
C0AJ20,野柳,2025-03-18,25.20703,121.690021,2.4266322e-09
C0B060,暖暖,2025-03-18,25.0957,121.7403,1.5867959e-09
C1H920,長豐,2025-03-18,24.102039,120.879897,4.935375e-10
C0V360,內門,2025-03-18,22.975481,120.466769,2.7754057e-09
C0R850,林邊,2025-03-18,22.4634,120.5339,6.903459e-07
C0E930,龍鳳,2025-03-18,24.700034,120.859125,5.1791535e-08
C0U910,冬山,2025-03-18,24.63373,121.7937,1.085284e-09
C1E721,泰安,2025-03-18,24.489017,120.968036,1.6462376e-09
82H320,茶改中部分場,2025-03-18,23.875611,120.913583,4.4003595e-10
C0M750,布袋,2025-03-18,23.380878,120.167789,1.3810746e-09
C1S860,利嘉,2025-03-18,22.809417,121.050528,7.1824653e-09
72C440,桃園農改,2025-03-18,24.950944,121.030583,2.8395174e-08
E2S980,林試太麻里1,2025-03-18,22.598922,120.980044,3.330057e-08
C0X170,關廟,2025-03-18,22.963017,120.327797,2.8090428e-09
C0V720,林園,2025-03-18,22.507747,120.394511,8.270674e-09
C1I510,線浸林道,2025-03-18,23.761508,120.832956,6.7599093e-10
C0D690,外湖,2025-03-18,24.917735,120.968711,6.848659e-08
C0C750,新興坑尾,2025-03-18,25.0061,121.0971,7.212313e-08
B2Q810,畜試南區分所,2025-03-18,21.945583,120.802167,0.112065546
C0S790,金崙,2025-03-18,22.538122,120.966875,5.7808798e-09
C0AH90,福山植物園,2025-03-18,24.760717,121.58135,6.755247e-09
C0I540,奇萊稜線,2025-03-18,24.109231,121.326456,1.0730375e-08
C0M850,表湖,2025-03-18,23.24186,120.64166,3.6456266e-10
C0S770,大溪山,2025-03-18,22.478475,120.943325,3.8919743e-09
C0AG80,中和,2025-03-18,24.991622,121.491792,2.2450386e-09
C0T790,大禹嶺,2025-03-18,24.186117,121.316086,5.440867e-09
C0T9B0,水源,2025-03-18,23.991861,121.537169,1.6431109e-08
C0R840,牡丹池山,2025-03-18,22.168389,120.841225,0.0009829258
C1I131,桶頭,2025-03-18,23.641944,120.654117,5.756495e-10
CAL110,布袋國中,2025-03-18,23.35893,120.18026,1.380482e-09
467571,新竹,2025-03-18,24.827853,121.014219,1.33002525e-08
C0Z290,赤柯山,2025-03-18,23.36893,121.38293,7.3150104e-09
C0X280,將軍,2025-03-18,23.214999,120.13577,9.928306e-10
C0S690,太麻里,2025-03-18,22.60902,120.98533,5.282076e-09
C0U880,北關,2025-03-18,24.9072,121.8734,2.1134965e-09
C1H860,瑞岩,2025-03-18,24.123772,121.18345,3.6518082e-09
C0G810,埔心,2025-03-18,23.947633,120.525456,6.92081e-10
C0U970,大福,2025-03-18,24.80064,121.81389,8.820772e-10
C2H9N0,仁愛東眼,2025-03-18,24.026875,121.1205,6.7824846e-10
C1E670,南礦,2025-03-18,24.538278,121.002836,1.8099912e-09
C0M520,東後寮,2025-03-18,23.369908,120.248065,1.3129557e-09
C1E461,松安,2025-03-18,24.397972,120.986022,1.3486781e-09
72G600,臺中農改,2025-03-18,24.003028,120.534389,5.522344e-09
C2N160,西拉雅風管處,2025-03-18,23.189481,120.335297,1.0524512e-09
C2M970,碧湖,2025-03-18,23.568632,120.624165,9.691031e-10
C0A640,石碇,2025-03-18,24.993969,121.662917,1.904998e-09
E2S960,林試太麻里2,2025-03-18,22.598,120.99775,7.603031e-08
C0F9Y0,桃山,2025-03-18,24.432739,121.303808,1.3715907e-08
C1I020,萬大,2025-03-18,23.979817,121.132261,4.0995057e-10
C0U940,羅東,2025-03-18,24.68184,121.74934,1.0711046e-09
C0M650,朴子,2025-03-18,23.43463,120.23902,1.0614343e-09
C1I500,大尖山,2025-03-18,23.858572,120.994889,1.8561965e-09
C0FB40,中橫21.6k,2025-03-18,24.2499,121.1455,2.539381e-09
C0G820,田尾,2025-03-18,23.901669,120.509389,6.9168904e-10
E2K600,四湖植物園,2025-03-18,23.676986,120.163433,1.0465629e-07
C0S730,綠島,2025-03-18,22.6672,121.47533,0.96529907
12Q970,東港工作站,2025-03-18,22.479997,120.466058,9.340181e-07
C0E430,南庄,2025-03-18,24.601775,121.000214,1.0261416e-09
C1TA00,太魯閣,2025-03-18,24.15773,121.6236,1.8573946e-08
466920,臺北,2025-03-18,25.037658,121.514853,1.6844222e-09
C0R600,舊泰武,2025-03-18,22.588194,120.664944,4.3404838e-10
C1I260,北坑,2025-03-18,23.9246,121.006903,4.0208736e-10
466910,鞍部,2025-03-18,25.182586,121.529731,4.348474e-09
C1I230,九份二山,2025-03-18,23.961944,120.845,3.5711542e-10
C2A660,瑞芳,2025-03-18,25.113169,121.801147,1.6109944e-09
C0R270,琉球嶼,2025-03-18,22.332244,120.362236,1.9576655e-08
C1T990,高寮,2025-03-18,23.394239,121.356808,1.7046742e-09
C0G620,芬園,2025-03-18,24.015678,120.6213,1.1973105e-09
C1Z140,荖溪,2025-03-18,23.890575,121.45964,1.31303155e-08
C1I201,中心崙,2025-03-18,23.728722,120.712097,6.1407324e-10
C1I400,凌霄,2025-03-18,24.018778,121.004456,6.447325e-10
C1M640,十字,2025-03-18,23.492153,120.753683,9.404989e-10
G2P820,農試鳳山分所,2025-03-18,22.646611,120.356083,1.4133621e-09
C0Z270,蕃薯寮,2025-03-18,23.73835,121.540108,4.5598396e-09
C0FB10,出雲山苗圃,2025-03-18,24.23105,120.90475,1.0210012e-09
C0F9Q0,外埔,2025-03-18,24.347817,120.705686,1.2492829e-09
C0K580,高鐵雲林,2025-03-18,23.737456,120.417944,8.315687e-10
C2I090,鳳凰,2025-03-18,23.728081,120.787347,8.397789e-10
C0U990,員山,2025-03-18,24.74435,121.72247,1.0661761e-09
C0V770,大社,2025-03-18,22.730306,120.346639,6.391005e-10
C0X120,麻豆,2025-03-18,23.183289,120.248611,6.8146305e-10
C0C670,龍潭,2025-03-18,24.870056,121.221389,2.6574085e-09
C0D680,香山濕地,2025-03-18,24.783581,120.914988,4.419717e-09
C0S980,勝林山,2025-03-18,22.430439,120.8938,6.6011663e-09
C0V730,大寮,2025-03-18,22.605614,120.395717,3.1951995e-08
C0R570,麟洛,2025-03-18,22.65078,120.52719,4.2526484e-08
C2M930,石卓,2025-03-18,23.478744,120.702264,1.1409159e-09
C0G9B0,和美,2025-03-18,24.105169,120.492131,2.9591865e-09
CAG100,王功漁港,2025-03-18,23.96824,120.32586,0.06526654
C0X290,北門,2025-03-18,23.267772,120.125481,9.931109e-10
C2F930,大甲,2025-03-18,24.347667,120.640403,1.3367904e-08
C0D650,湖口,2025-03-18,24.904794,121.043628,4.174302e-08
C0E420,竹南,2025-03-18,24.708978,120.888897,3.7119083e-08
C0U780,五結,2025-03-18,24.68637,121.79794,1.059147e-09
C1I250,鯉潭,2025-03-18,23.961922,120.991131,3.2570102e-10
C0R130,阿禮,2025-03-18,22.742908,120.743678,8.2607526e-10
C0X100,臺南市北區,2025-03-18,23.010394,120.194228,4.9625887e-10
C0S920,金峰嘉蘭,2025-03-18,22.594789,120.960825,3.0167474e-08
C0V490,新興,2025-03-18,22.627422,120.298803,3.9241474e-08
C0F9K0,大安,2025-03-18,24.345061,120.588025,3.0442028e-08
72N100,臺南農改,2025-03-18,23.0605,120.342194,3.6089216e-07
467290,古坑,2025-03-18,23.633639,120.551889,5.8648836e-10
C2E970,八甲,2025-03-18,24.535811,120.795983,1.9804802e-09
C0V440,鳳山,2025-03-18,22.646653,120.356122,1.4133621e-09
C1T940,大觀,2025-03-18,23.714206,121.373133,4.7695194e-09
72T250,花蓮農改,2025-03-18,23.975222,121.563889,1.0514211e-05
C0E740,造橋,2025-03-18,24.637056,120.864778,3.1868652e-09
C0R100,尾寮山,2025-03-18,22.833111,120.683889,6.905975e-10
A2K630,臺大雲林校區,2025-03-18,23.730628,120.423903,8.315687e-10
467990,馬祖,2025-03-18,26.169467,119.923158,5.6624458e-08
C0D580,寶山,2025-03-18,24.735006,121.025192,1.3069343e-09
E2P990,林試扇平站,2025-03-18,22.9677,120.6857,1.2657678e-09
C0AI30,三重,2025-03-18,25.057328,121.500629,1.6751373e-09
C0AH00,汐止,2025-03-18,25.066881,121.658778,1.6844222e-09
C1Z040,立山,2025-03-18,23.443356,121.327375,1.0348927e-08
466881,新北,2025-03-18,24.959207,121.525196,2.2097393e-09
C0W130,花嶼,2025-03-18,23.40007,119.32276,0.8839941
C0A950,鼻頭角,2025-03-18,25.129036,121.923372,8.726184e-08
C0K470,林內,2025-03-18,23.748675,120.609642,7.5699164e-10
C2F990,摩天嶺,2025-03-18,24.322458,120.936819,9.217856e-10
82C160,茶改場,2025-03-18,24.908472,121.185333,3.378279e-09
C0Z320,清水林道,2025-03-18,23.27125,121.188272,3.7155046e-09
C0R760,南仁湖,2025-03-18,22.084681,120.863353,0.14519376
C0M670,大林,2025-03-18,23.600616,120.45841,2.0482445e-09
C0M800,茶山,2025-03-18,23.299075,120.664767,5.318397e-10
C0A9C0,天母,2025-03-18,25.117494,121.537169,2.148721e-09
72K220,南改斗南分場,2025-03-18,23.634556,120.477333,1.2554098e-09
72AI40,桃改樹林分場,2025-03-18,24.944503,121.386972,3.0957283e-09
C0S910,蘭嶼燈塔,2025-03-18,22.081197,121.503117,0.99496335
C0B050,八斗子,2025-03-18,25.144754,121.79167,1.5997019e-09
C0U900,內城,2025-03-18,24.71813,121.68766,1.090977e-09
C0X320,柳營,2025-03-18,23.253328,120.375253,1.4293761e-09
C0M790,新港,2025-03-18,23.553269,120.345728,1.4977903e-09
C0F9T0,西屯,2025-03-18,24.179494,120.641275,1.0571288e-09
C0E950,松安,2025-03-18,24.39792,120.98599,1.3486781e-09
C0SA30,都歷,2025-03-18,23.020333,121.323642,2.2306297e-08
C0C620,蘆竹,2025-03-18,25.084275,121.265767,1.9659462e-08
C0R730,大坪頂,2025-03-18,22.024633,120.69355,0.9880289
C0AJ40,石門,2025-03-18,25.273672,121.601198,1.1151037e-08
C0E750,苗栗,2025-03-18,24.564569,120.824575,2.4514837e-09
C0T870,鯉魚潭,2025-03-18,23.935639,121.508944,1.5392704e-08
C1V170,排雲,2025-03-18,23.463619,120.954147,1.29703395e-08
C2H950,中寮,2025-03-18,23.884447,120.766406,1.2101469e-09
C0R350,貓鼻頭,2025-03-18,21.921774,120.7358,0.71829665
C0V660,岡山,2025-03-18,22.797078,120.294958,9.3007546e-10
C1H941,雙冬,2025-03-18,23.967378,120.802189,4.0806425e-10
C0AJ70,田寮,2025-03-18,25.2698,121.4886,1.3278403e-08
C0AI00,五股,2025-03-18,25.07445,121.42728,3.5866377e-09
C0Z280,德武,2025-03-18,23.47426,121.41071,1.5323154e-09
C0R700,枋山,2025-03-18,22.246844,120.661086,0.03516304
C0C460,復興,2025-03-18,24.820208,121.352281,2.2096003e-09
E2H360,蓮華池,2025-03-18,23.918333,120.885278,4.3825604e-10
C0M640,中埔,2025-03-18,23.42538,120.5229,6.0709504e-10
C0W140,金沙,2025-03-18,24.488292,118.408778,2.2985818e-08
C2A540,四堵,2025-03-18,24.8926,121.745736,2.3531304e-09
C0ACA0,新莊,2025-03-18,25.051478,121.446756,2.8137348e-09
C0R220,潮州,2025-03-18,22.534361,120.54,1.4863025e-08
U2HA40,臺大內茅埔,2025-03-18,23.689722,120.851117,6.962105e-10
467490,臺中,2025-03-18,24.145736,120.684075,6.834872e-10
C0UB60,明池,2025-03-18,24.650688,121.475277,6.65228e-09
C0U960,翠峰湖,2025-03-18,24.510856,121.608044,1.3263469e-08
E2HA20,林試畢祿溪站,2025-03-18,24.226944,121.308522,5.501255e-09
C0V890,前鎮,2025-03-18,22.5718,120.3117,4.0654978e-08
467620,蘭嶼,2025-03-18,22.036969,121.558339,0.9999301
C1F941,雪嶺,2025-03-18,24.280586,121.026642,1.3155458e-08
C2H9E0,國姓南港,2025-03-18,23.911108,120.846556,5.6423555e-10
C0AC80,文山,2025-03-18,25.00235,121.575728,2.1821047e-09
C0F9R0,龍井,2025-03-18,24.184536,120.528972,6.385062e-09
C0M760,民雄,2025-03-18,23.551754,120.428457,2.0823734e-09
C0UA40,西德山,2025-03-18,24.560647,121.752608,7.400489e-09
C1T920,中興,2025-03-18,23.769503,121.498653,3.7871466e-09
C0D550,雪霸,2025-03-18,24.526972,121.11605,2.9493257e-09
C2F860,梨山,2025-03-18,24.247522,121.243669,5.7355316e-09
C0R320,車城,2025-03-18,22.0744,120.716247,0.038526952
C1S870,南美山,2025-03-18,23.15025,121.382333,4.342399e-09
C0B020,基隆嶼,2025-03-18,25.19141,121.78391,1.7715465e-07
C1U501,牛鬥,2025-03-18,24.637836,121.573656,2.3960476e-09
C0M730,嘉義市東區,2025-03-18,23.457673,120.460531,8.720019e-10
C0S700,知本,2025-03-18,22.684866,121.005642,5.536698e-09
C1N001,沙崙,2025-03-18,22.935472,120.309406,2.9512164e-09
C0V760,橋頭,2025-03-18,22.757806,120.30575,6.784697e-10
C0G960,福寶,2025-03-18,24.0443,120.3814,3.1959961e-09
C0X210,白河,2025-03-18,23.347466,120.414427,1.4076988e-09
C0S810,東河,2025-03-18,22.972672,121.303986,1.284037e-06
C2R170,屏東,2025-03-18,22.66027,120.49403,4.2526484e-08
C0R670,楓港,2025-03-18,22.190131,120.692156,0.9275104
C0FA50,霧峰,2025-03-18,24.0419,120.6995,1.2287562e-09
C0UB10,蘇澳,2025-03-18,24.5969,121.8571,2.49441e-09
C0G950,防潮門,2025-03-18,24.1835,120.4871,6.385062e-09
C0M740,六腳,2025-03-18,23.492871,120.290625,1.5893857e-09
C1R250,力里,2025-03-18,22.428117,120.629228,4.484619e-09
C0K330,虎尾,2025-03-18,23.719183,120.442036,8.250376e-10
C2FA00,烏石坑,2025-03-18,24.273503,120.947617,8.9932195e-10
C0V620,永安,2025-03-18,22.82315,120.236856,9.2825536e-10
C1I330,楓樹林,2025-03-18,23.986803,121.076117,4.869881e-10
C0W200,湖西,2025-03-18,23.596314,119.67275,0.63100857
72Q010,高雄農改場,2025-03-18,22.709333,120.525889,5.8899775e-07
C0SA40,瑞和,2025-03-18,22.974361,121.156697,5.069688e-08
C0C680,龜山,2025-03-18,25.02846,121.38656,3.520803e-09
C2V260,月眉,2025-03-18,22.971003,120.539853,3.997118e-09
C0V450,鳳森,2025-03-18,22.545064,120.392592,4.2815964e-09
C0FA90,小雪山林道,2025-03-18,24.29515,121.03651,1.7483854e-08
C0U720,南山,2025-03-18,24.43742,121.38167,3.0395944e-09
A2N290,臺南蘭花園區,2025-03-18,23.340258,120.379661,1.8972817e-09
C0R560,新園,2025-03-18,22.5434,120.461558,8.270674e-09
C0U890,三星,2025-03-18,24.66812,121.65302,2.1736721e-09
C1V300,御油山,2025-03-18,23.001983,120.715364,1.2009929e-09
C0U600,礁溪,2025-03-18,24.817539,121.765608,1.6488018e-09
C1T980,龍澗,2025-03-18,24.023289,121.411328,1.872548e-08
C0D670,海天一線,2025-03-18,24.831986,120.914438,0.05793375
C0SA00,歷坵,2025-03-18,22.520969,120.89185,3.2276493e-09
C0M710,東石,2025-03-18,23.458927,120.15385,1.8020684e-09
C0M780,鹿草,2025-03-18,23.41134,120.30835,1.0250462e-09
C0U520,雙連埤,2025-03-18,24.753033,121.641303,4.3302326e-09
C0B010,七堵,2025-03-18,25.094819,121.71713,1.5862754e-09
C0R480,長治,2025-03-18,22.693128,120.542622,5.4502567e-09
C1V830,國三S383K,2025-03-18,22.781967,120.426475,1.9208695e-09
12Q980,恆春工作站,2025-03-18,22.079678,120.714425,0.03852691
C1O940,東山服務區,2025-03-18,23.286016,120.398472,1.7861289e-09
C1U840,東澳嶺,2025-03-18,24.5378,121.8485,4.827389e-09
C1D630,飛鳳山,2025-03-18,24.766464,121.119178,1.4570927e-09
C0S940,石寧山,2025-03-18,23.223772,121.406639,1.7202771e-09
C0K410,北港,2025-03-18,23.573957,120.292802,1.4760297e-09
C2M620,瑞里,2025-03-18,23.545133,120.675197,1.2140448e-09
C0SB70,小港漁港,2025-03-18,23.158558,121.400431,1.039986e-08
C2O950,安南,2025-03-18,23.076694,120.144861,8.1747337e-10
C0F0E0,南湖圈谷,2025-03-18,24.363714,121.444667,1.7668569e-08
467610,成功,2025-03-18,23.097486,121.373428,3.4319914e-08
C0G890,伸港,2025-03-18,24.148933,120.484403,4.9861777e-09
C2E540,龍溪,2025-03-18,24.606489,120.783933,3.3171925e-09
C1V200,梅山,2025-03-18,23.268447,120.823556,4.0683867e-10
C0T9H0,加路蘭山,2025-03-18,23.682947,121.5274,7.639616e-09
C2O930,玉井,2025-03-18,23.126042,120.46055,1.6456065e-09
C1F911,新伯公,2025-03-18,24.221361,120.841069,2.9622008e-10
C0R490,九如,2025-03-18,22.7405,120.490503,7.525999e-07
C0X200,左鎮,2025-03-18,23.056758,120.408522,2.9117087e-09
C0FA60,鞍馬山工作站,2025-03-18,24.267064,121.000793,7.526743e-09
C0SB50,叭嗡嗡,2025-03-18,23.047062,121.343223,5.9389482e-08
C1F891,稍來,2025-03-18,24.265689,121.001142,7.2109203e-09
72N240,七股研究中心,2025-03-18,23.081672,120.062894,8.504935e-10
C0C700,中壢,2025-03-18,24.977661,121.256375,3.1231104e-09
C0M690,水上,2025-03-18,23.419734,120.388909,2.7258704e-09
C0V690,鼓山,2025-03-18,22.623325,120.275575,3.9241474e-08
C0O860,大內,2025-03-18,23.11885,120.36083,7.7643303e-10
C0Z200,萬榮,2025-03-18,23.709219,121.420106,4.607047e-09
C0T9D0,和中,2025-03-18,24.26676,121.74103,7.729463e-09
C1O921,楠西,2025-03-18,23.183511,120.484083,1.1820755e-09
C0AJ30,淡水觀海,2025-03-18,25.184591,121.408616,3.0969745e-09
C0V810,左營,2025-03-18,22.67491,120.28491,1.650822e-09
C0UA70,桃源谷,2025-03-18,24.962606,121.888875,2.7261928e-09
C0X130,官田,2025-03-18,23.193217,120.315422,1.1146908e-09
C1H000,翠峰,2025-03-18,24.109397,121.205211,2.972826e-09
C0UA90,石城,2025-03-18,24.980444,121.951214,1.4039769e-09
C1E681,南勢山,2025-03-18,24.421669,120.923831,6.3370864e-10
C0A9F0,內湖,2025-03-18,25.079422,121.57545,1.6844222e-09
C0K291,宜梧,2025-03-18,23.536281,120.169329,1.5657686e-09
C1K540,口湖,2025-03-18,23.585344,120.180517,4.30577e-07
C0R780,滿州,2025-03-18,22.024403,120.839892,0.4798651
C0V870,文安,2025-03-18,22.8025,120.2164,9.372325e-10
C0U650,玉蘭,2025-03-18,24.675286,121.587061,3.8275587e-09
C0R640,東港,2025-03-18,22.46247,120.44074,9.2832136e-07
K2E360,苗栗農改,2025-03-18,24.495722,120.829111,5.083755e-09
C0AJ80,板橋,2025-03-18,25.0107,121.4489,2.2838926e-09
C0S660,下馬,2025-03-18,23.150427,121.070312,6.9833606e-09
C1H9B1,阿眉,2025-03-18,24.1263,120.994672,5.0348024e-09
C0UA20,多加屯,2025-03-18,24.368614,121.373189,6.046927e-09
C0E730,頭份,2025-03-18,24.688247,120.912206,4.2199886e-08
72V140,高改旗南分場,2025-03-18,22.857861,120.516667,4.103075e-09
C0K480,莿桐,2025-03-18,23.761192,120.502372,6.097967e-10
C0U980,坪林石牌,2025-03-18,24.86478,121.77396,4.0321733e-09
C0T900,西林,2025-03-18,23.8119,121.441458,3.6069925e-09
C1I150,青雲,2025-03-18,23.793361,120.949378,3.5335096e-10
467350,澎湖,2025-03-18,23.565503,119.563094,0.7050744
C0G800,埔鹽,2025-03-18,24.000394,120.431683,2.6729994e-09
C0H960,草屯,2025-03-18,23.973672,120.68085,1.1956742e-09
C1V780,多納林道,2025-03-18,22.888028,120.737917,5.220247e-10
C0E920,通霄漁港,2025-03-18,24.498589,120.673876,0.002129572
C0Z330,安通山,2025-03-18,23.290728,121.348528,1.9303967e-09
C0AH10,永和,2025-03-18,25.01125,121.508111,2.2838926e-09
C0AK10,太平里,2025-03-18,25.134937,121.364899,2.1473044e-08
C2G640,鹿港,2025-03-18,24.0753,120.430481,3.1959961e-09
C1E890,國三N149K,2025-03-18,24.463414,120.680019,1.6860889e-07
C1R110,口社,2025-03-18,22.770111,120.645222,2.5474483e-06
C1M870,國三N285K,2025-03-18,23.550319,120.505833,6.817751e-10
467050,新屋,2025-03-18,25.006744,121.047486,2.797271e-08
C1E480,鳳美,2025-03-18,24.554803,121.034747,8.1224033e-10
C0M530,奮起湖,2025-03-18,23.493903,120.699253,1.4187206e-09
C0C590,觀音,2025-03-18,25.027072,121.153317,1.6720186e-07
C0T9M0,靜浦,2025-03-18,23.455167,121.495028,1.5233458e-09
C2H9M0,發祥,2025-03-18,24.154094,121.164517,2.9674894e-09
C0AI40,石牌,2025-03-18,25.115597,121.513139,2.1649211e-09
C1F871,上谷關,2025-03-18,24.203483,121.018644,1.0550318e-09
C2H9G0,百勝,2025-03-18,24.051142,120.909361,4.3483392e-10
C0G880,二水,2025-03-18,23.810742,120.6173,9.557469e-10
C0R940,加祿堂,2025-03-18,22.3363,120.6217,0.15305242
C0W220,北竿,2025-03-18,26.220358,119.974881,6.858411e-08
C0O960,崎頂,2025-03-18,22.959547,120.369317,1.8403118e-09
C0S750,向陽,2025-03-18,23.248397,120.986133,1.7729527e-09
C0T9F0,水璉,2025-03-18,23.797131,121.542514,3.6958767e-09
C1M600,頭凍,2025-03-18,23.406364,120.603339,4.5874385e-10
467660,臺東,2025-03-18,22.752211,121.154586,0.0043056207
C1D380,新埔,2025-03-18,24.84745,121.03834,1.0017714e-08
C2G980,田頭村,2025-03-18,23.8263,120.444175,7.10961e-10
C0V750,路竹,2025-03-18,22.854997,120.259439,6.706638e-10
C0N050,蚵寮,2025-03-18,23.301,120.1104,1.0032661e-09
72M700,南改鹿草分場,2025-03-18,23.416869,120.283061,1.060985e-09
C1SA50,利嘉林道,2025-03-18,22.82325,121.009389,3.4914123e-09
467550,玉山,2025-03-18,23.487614,120.959522,3.2444024e-08
C0UB70,太平山中間站,2025-03-18,24.542003,121.513453,4.3661763e-09
C0A940,金山,2025-03-18,25.223628,121.643967,2.4213986e-09
C1V340,大津,2025-03-18,22.888322,120.645986,2.673491e-06
C0W180,七美,2025-03-18,23.219333,119.444892,0.93706995
C1F9C1,白冷,2025-03-18,24.182844,120.929889,3.689937e-10
K2E710,苗改生物防治研究中心,2025-03-18,24.422861,120.871833,4.5622905e-10
C0N040,蘆竹溝,2025-03-18,23.2344,120.0961,9.931109e-10
C0D760,大坪苗圃,2025-03-18,24.5362,121.1108,2.3341058e-09
C2W230,畜試所澎湖,2025-03-18,23.628342,119.513206,0.59543866
C0R880,後壁湖,2025-03-18,21.9457,120.7457,0.06669227
C1I280,埔中,2025-03-18,23.820778,120.642594,3.9658588e-10
467790,墾丁雷達站,2025-03-18,21.948235,120.808028,0.13175772
C0W190,望安,2025-03-18,23.380564,119.494075,0.6574838
466881,新北,2025-03-18,24.9593,121.52,1.3758746e-08
C0Z170,卓溪,2025-03-18,23.3443,121.3029,1.7401801e-09
C0F850,東勢,2025-03-18,24.246428,120.833047,4.090539e-10
466900,淡水,2025-03-18,25.164889,121.448906,2.1473044e-08
C0I370,魚池,2025-03-18,23.895703,120.94135,4.3318493e-10
C0C630,大溪,2025-03-18,24.882853,121.265547,2.7696627e-09
C0A520,山佳,2025-03-18,24.974944,121.402008,1.9047146e-09
C0I110,竹山,2025-03-18,23.761225,120.688156,8.4120727e-10
82H840,茶改南部分場,2025-03-18,23.762528,120.7405,3.832634e-10
C0G660,溪湖,2025-03-18,23.94835,120.479122,6.990393e-10
C1T800,洛韶,2025-03-18,24.204558,121.453956,1.6471933e-08
C1T810,慈恩,2025-03-18,24.192044,121.388386,1.3393087e-09
C1E451,象鼻,2025-03-18,24.368617,120.940228,6.080012e-10
C0AC60,三峽,2025-03-18,24.939025,121.369728,3.0027614e-09
C0I490,萬大林道,2025-03-18,23.928228,121.091411,1.0545832e-09
C1I290,豐丘,2025-03-18,23.668178,120.887417,1.4515753e-09
C1I320,奧萬大,2025-03-18,23.952956,121.178556,5.563329e-10
C2M910,嘉義大學,2025-03-18,23.471325,120.485903,7.7647155e-10
C0U770,南澳,2025-03-18,24.44935,121.81022,5.1523807e-09
C0A980,社子,2025-03-18,25.109508,121.469681,2.2701565e-08
C0V800,六龜,2025-03-18,22.997889,120.633583,1.917202e-09
C1G9D0,國一S218K,2025-03-18,23.890641,120.493253,7.1054346e-10
C0E570,白沙屯,2025-03-18,24.549447,120.696803,0.018223701
C2F9A0,中竹林,2025-03-18,24.103556,120.751061,4.463351e-10
C0FA40,臺中電廠,2025-03-18,24.2146,120.4907,6.385062e-09
C2G9A0,畜試所彰化,2025-03-18,23.86045,120.557964,9.1269176e-10
C0H9C0,合歡山,2025-03-18,24.143442,121.272547,1.1672153e-08
C0X060,下營,2025-03-18,23.22695,120.256261,1.1756471e-09
G2M350,農試溪口農場,2025-03-18,23.58565,120.408111,2.1655324e-09
C0U860,頭城,2025-03-18,24.85323,121.8308,1.6497926e-09
C0R580,南州,2025-03-18,22.48591,120.50274,9.2832136e-07
C0D430,峨眉,2025-03-18,24.6905,121.017189,1.9086859e-09
C0G780,秀水,2025-03-18,24.03405,120.503869,7.695273e-10
72N100,臺南農改場,2025-03-18,23.0605,120.342194,7.46751e-10
C0S900,蘭嶼高中,2025-03-18,22.04909,121.51214,0.9852023
467540,大武,2025-03-18,22.355675,120.903789,0.3325034
C1F9W0,德基,2025-03-18,24.254783,121.190261,5.4707536e-09
C1Z120,壽豐,2025-03-18,23.870853,121.508081,4.4097304e-09
C0W160,烏坵,2025-03-18,24.9944,119.44956,7.0900984e-05
C1I240,外大坪,2025-03-18,23.958697,120.917931,3.3020153e-10
C1I550,國六W023K,2025-03-18,23.979067,120.867742,4.5508186e-10
C0R870,興海,2025-03-18,21.9752,120.8439,0.112065546
C0R140,瑪家,2025-03-18,22.682903,120.686639,6.373767e-10
C0A530,坪林,2025-03-18,24.938183,121.70975,2.2447133e-09
C0X260,後壁,2025-03-18,23.366358,120.362326,1.8972817e-09
C0Z230,和平,2025-03-18,24.30717,121.77007,8.118242e-09
C0G770,福興,2025-03-18,24.041289,120.437669,2.6729994e-09
C0H9A0,神木村,2025-03-18,23.532742,120.843667,9.7744e-10
C0I460,南投,2025-03-18,23.911469,120.687331,1.7000992e-09
C0I480,梅峰,2025-03-18,24.085272,121.173572,1.779756e-09
C1V570,吉東,2025-03-18,22.85422,120.5454,3.4131042e-09
C2D740,屯原,2025-03-18,24.067969,121.209389,1.4193566e-09
C2A560,福山,2025-03-18,24.776203,121.502811,5.952406e-09
C0AH30,五分山,2025-03-18,25.07125,121.780794,2.4543283e-09
C0FA10,松柏,2025-03-18,24.429115,120.617482,5.796854e-07
72S200,東改班鳩分場,2025-03-18,22.829528,121.077694,1.0581702e-08
72HA00,中改埔里分場,2025-03-18,23.903208,120.963364,4.2062992e-10
C2H9W0,大坪頂農水,2025-03-18,24.043122,120.932781,4.998592e-10
C0C650,平鎮,2025-03-18,24.897503,121.214636,2.5108735e-09
C0S930,延平,2025-03-18,22.902581,121.084058,2.93076e-08
C0UA60,樟樹山,2025-03-18,24.41393,121.78325,1.2946932e-08
C1S670,摩天,2025-03-18,23.199503,121.027,8.525534e-09
C0V630,茄萣,2025-03-18,22.906642,120.182608,6.952762e-10
466940,基隆,2025-03-18,25.133314,121.740475,1.58165e-09
C0X050,東河,2025-03-18,23.296598,120.385608,2.012148e-09
C0R770,保力,2025-03-18,22.071122,120.764111,0.88733137
G2L020,農試嘉義分所,2025-03-18,23.485028,120.473806,1.6798053e-09
C0X240,關子嶺,2025-03-18,23.331169,120.508025,5.609038e-10
C0I380,集集,2025-03-18,23.828206,120.801467,3.4131675e-10
466990,花蓮,2025-03-18,23.975128,121.613275,2.3387577e-07
C1V220,小關山,2025-03-18,23.154217,120.813603,1.3449686e-09
C1F9G1,慶福山,2025-03-18,24.180853,120.848378,6.2216554e-10
C0FB20,雪山橋,2025-03-18,24.23192,120.9786,8.900699e-09
C0Z250,瑞穗林道,2025-03-18,23.49284,121.30688,9.279231e-09
C0D590,新豐,2025-03-18,24.87068,120.97721,0.013369776
C0A870,五指山,2025-03-18,25.132153,121.608692,2.086015e-09
C0UA50,西帽山,2025-03-18,24.555361,121.802628,5.16466e-09
C0X160,仁德,2025-03-18,22.968258,120.257689,7.7990914e-10
C1H971,六分寮,2025-03-18,23.92507,120.6378,1.317446e-09
C0W120,西嶼,2025-03-18,23.5626,119.468436,0.6595042
C0G650,員林,2025-03-18,23.946503,120.585597,1.3512478e-09
C0AD50,鶯歌,2025-03-18,24.951533,121.346294,2.8666651e-09
C2H9Q0,北東眼山,2025-03-18,24.120939,121.189303,4.0480783e-09
C2H9T0,名間竹圍,2025-03-18,23.859914,120.637572,3.930353e-10
C0S990,山豬窟,2025-03-18,22.318619,120.857372,5.7368144e-08
72Q010,高雄農改,2025-03-18,22.709333,120.525889,0.0009168784
C0X190,安平,2025-03-18,22.993161,120.152181,4.9625887e-10
C0K400,斗六,2025-03-18,23.720583,120.541127,6.955906e-10
12J990,口湖工作站,2025-03-18,23.589978,120.180394,4.30577e-07
C0O830,北寮,2025-03-18,23.079561,120.495008,3.995205e-09
C1D410,白蘭,2025-03-18,24.579364,121.079947,2.0612678e-09
C0S970,加津林,2025-03-18,22.416211,120.926942,4.5692272e-07
C0D700,關西,2025-03-18,24.7977,121.1732,1.9794908e-09
C0M810,里佳,2025-03-18,23.389125,120.716647,7.548448e-10
C0U750,龜山島,2025-03-18,24.841667,121.953133,1.5358384e-06
C0R810,內獅,2025-03-18,22.305064,120.642986,0.17760393
C1M390,龍美,2025-03-18,23.406728,120.654417,5.475647e-10
C2FB60,頭櫃山,2025-03-18,24.129842,120.858925,1.1832801e-09
C1H840,國三N238K,2025-03-18,23.841008,120.707711,3.7868048e-10
CAQ030,崎峰國小,2025-03-18,22.42565,120.49521,9.2832136e-07
C2E520,大湖,2025-03-18,24.414939,120.870872,4.530086e-10
467530,阿里山,2025-03-18,23.508208,120.813242,4.6763855e-09
C1E691,南湖,2025-03-18,24.40135,120.837533,4.763499e-10
C0FA30,梧棲,2025-03-18,24.256003,120.523381,1.3365915e-08
C1V231,高中,2025-03-18,23.134911,120.716711,5.413495e-10
C0AK30,硬漢嶺,2025-03-18,25.136097,121.426372,1.865236e-09
C0F9V0,新社,2025-03-18,24.200172,120.815806,3.2855557e-10
C0H890,埔里,2025-03-18,23.972169,120.952425,4.746711e-10
C0R690,墾丁,2025-03-18,21.966756,120.810269,0.9405806
C0F0D0,審馬陣,2025-03-18,24.381675,121.4203,9.750236e-09
C2W030,金門農試所,2025-03-18,24.448431,118.451786,1.7771553e-08
C0R820,白鷺,2025-03-18,22.454275,120.666219,9.144011e-10
C0FB00,大雪山,2025-03-18,24.254668,121.007374,9.454995e-09
U2H480,臺大溪頭,2025-03-18,23.670306,120.798194,1.1270261e-09
C1V190,南天池,2025-03-18,23.27403,120.91176,2.5282894e-09
C0E940,雪見,2025-03-18,24.42595,121.01347,3.4401426e-09
K2E360,苗栗農改場,2025-03-18,24.495722,120.829111,2.323707e-09
CAJ050,海口故事園區,2025-03-18,23.57543,120.14121,4.30577e-07
C2H9D0,三隻寮,2025-03-18,24.093078,120.861578,5.101052e-10
C0O990,媽廟,2025-03-18,22.99175,120.293525,6.553266e-10
C0D480,打鐵坑,2025-03-18,24.849664,121.150789,2.6243556e-09
C0Z220,和平林道,2025-03-18,24.343922,121.656317,3.916235e-09
C0TA10,花蓮漁港,2025-03-18,23.995322,121.638331,3.1713387e-07
72C440,桃園農改場,2025-03-18,24.950944,121.030583,5.3040875e-08
C1E711,馬拉邦山,2025-03-18,24.367306,120.901656,6.358104e-10
C0SB20,富岡,2025-03-18,22.792467,121.192669,4.28681e-06
C0D560,竹東,2025-03-18,24.767147,121.057881,2.0128388e-09
C0F9U0,南屯,2025-03-18,24.137006,120.637969,1.0761854e-09
C0M720,番路,2025-03-18,23.464657,120.554156,5.37274e-10
C0F0A0,雪山圈谷,2025-03-18,24.388594,121.236339,1.5586748e-08
C1A9N0,四十份,2025-03-18,24.934158,121.593283,2.3650812e-09
C0U760,東澳,2025-03-18,24.52196,121.83318,1.9591961e-09
C0X230,鹽水,2025-03-18,23.272621,120.247641,9.737835e-10
C2H9H0,苗改南投蜂場,2025-03-18,23.852589,120.693481,1.2945297e-09
C0R950,萬隆國小,2025-03-18,22.507667,120.587817,1.1062951e-08
467540,大武,2025-03-18,22.35572,120.90374,8.40604e-07
C0V370,古亭坑,2025-03-18,22.893178,120.401947,1.9815458e-09
C1I340,新興橋,2025-03-18,23.563333,120.868728,8.572147e-10
C0SA80,土坂,2025-03-18,22.453108,120.887572,9.167784e-09
C0R160,鹽埔,2025-03-18,22.739558,120.530778,5.8899775e-07
C0AC40,大屯山,2025-03-18,25.175675,121.522408,5.821843e-09
466850,五分山雷達站,2025-03-18,25.071182,121.781205,2.463079e-09
C2H9L0,馬烈霸,2025-03-18,24.1512,121.201772,3.9989634e-09
C1AI50,國三N016K,2025-03-18,25.034164,121.619664,1.6735755e-09
C1V600,藤枝,2025-03-18,23.071961,120.757042,9.482605e-10
C1E601,南勢,2025-03-18,24.572486,120.734842,0.00201928
C0Z180,新城,2025-03-18,24.03946,121.60454,2.0990315e-07
C0O980,新市,2025-03-18,23.061614,120.298197,8.4985946e-10
C0K420,西螺,2025-03-18,23.800407,120.467394,6.9646416e-10
C0Z050,佳心,2025-03-18,23.34567,121.21316,7.013635e-09
C0AD30,蘆洲,2025-03-18,25.086594,121.472331,1.6751373e-09
C0V610,梓官,2025-03-18,22.760558,120.267211,6.7730477e-10
K2F750,種苗改良場,2025-03-18,24.225972,120.800917,3.0847225e-10
C0UA80,大溪漁港,2025-03-18,24.941801,121.902955,2.112352e-09
C1AI60,國一39K邊坡,2025-03-18,25.064361,121.383836,3.5258299e-09
C0W150,金寧,2025-03-18,24.457703,118.328989,1.771669e-08
C0R960,內埔,2025-03-18,22.608483,120.570714,1.0879933e-08
V2C250,八德合作社,2025-03-18,24.93775,121.266389,2.6107858e-09
C2H9S0,龍南,2025-03-18,23.953536,120.833183,6.8675937e-10
C0AH40,平等,2025-03-18,25.129142,121.577086,1.5369372e-09
C0R540,佳冬,2025-03-18,22.419456,120.552375,1.439263e-07
466950,彭佳嶼,2025-03-18,25.627975,122.079744,6.209282e-06
C0A890,雙溪,2025-03-18,25.036003,121.864242,1.6429564e-09
C0C480,桃園,2025-03-18,24.992425,121.323172,3.1563103e-09
C0AH50,林口,2025-03-18,25.072181,121.38084,3.5537273e-09
A2K360,水試臺西試驗場,2025-03-18,23.717231,120.190522,2.0314131e-07
B2N890,畜試所,2025-03-18,23.058972,120.336406,4.7024562e-07
C2M960,外寮,2025-03-18,23.562643,120.665688,1.0197808e-09
C0F9S0,烏日,2025-03-18,24.107058,120.624103,1.310284e-09
C0C490,八德,2025-03-18,24.928708,121.283289,2.590765e-09
C0R190,赤山,2025-03-18,22.592333,120.614306,1.051246e-08
C0T820,天祥,2025-03-18,24.179597,121.495639,1.3624907e-08
C1F9E1,龍安,2025-03-18,24.1605,120.831961,3.9689008e-10
C0V820,小林,2025-03-18,23.148408,120.63325,5.854746e-10
C2G870,芳苑,2025-03-18,23.922303,120.320025,0.060248718
C0E850,大河,2025-03-18,24.618069,120.948578,1.48902e-09
C1U670,寒溪,2025-03-18,24.634,121.71691,1.1576897e-09
C0N020,城西,2025-03-18,23.0568,120.0956,4.9625887e-10
C1Z110,三棧,2025-03-18,24.11557,121.60501,1.29188855e-08
C0R280,檳榔,2025-03-18,22.076078,120.836777,0.94479555
C2H9J0,中台,2025-03-18,23.9996,120.938739,3.526716e-10
C0F9L0,后里,2025-03-18,24.310436,120.729725,3.5622763e-10
467441,高雄,2025-03-18,22.730432,120.312516,6.3907124e-10
C0Z180,新城,2025-03-18,24.040486,121.604878,2.1001547e-07
C0D540,橫山,2025-03-18,24.71116,121.11693,1.2088527e-09
C1D420,太閣南,2025-03-18,24.632808,121.160575,2.2754918e-09
C1E770,公館,2025-03-18,24.526914,120.830806,2.571241e-09
CAN130,水試所海水繁養殖中心,2025-03-18,23.120802,120.07968,8.504935e-10
C1I430,翠華,2025-03-18,24.191961,121.224339,3.0167513e-09
C1M400,菜瓜坪,2025-03-18,23.251928,120.576103,6.7593164e-10
C0G730,二林,2025-03-18,23.903325,120.376081,3.2654528e-09
72M360,南改義竹分場,2025-03-18,23.360694,120.279361,1.3124776e-09
V2K620,麥寮合作社,2025-03-18,23.753836,120.294783,1.3191106e-09
C0Z070,舞鶴,2025-03-18,23.46811,121.37407,1.5718009e-09
C0B040,大武崙,2025-03-18,25.166676,121.706993,1.5938909e-09
C1Z030,紅葉,2025-03-18,23.493119,121.338806,1.6795907e-09
C1I050,丹大,2025-03-18,23.753747,121.141147,2.3562248e-09
C0I080,信義,2025-03-18,23.689694,120.851036,6.962105e-10
C0D750,樂山林道6k,2025-03-18,24.49999,121.08773,5.5952993e-09
C2M920,朴子農改,2025-03-18,23.469889,120.259383,1.0614343e-09
C2A880,福隆,2025-03-18,25.017842,121.942083,1.4082466e-09
C0Z160,鳳林,2025-03-18,23.746114,121.453411,4.6580566e-09
C0UB80,翠峰林道6K,2025-03-18,24.49773,121.568625,9.4885975e-09
C0V210,復興,2025-03-18,23.222403,120.806089,4.2986303e-10
C0H990,昆陽,2025-03-18,24.121322,121.273642,7.0520128e-09
C0R741,獅子,2025-03-18,22.202308,120.705236,0.99917567
C0S710,鹿野,2025-03-18,22.917711,121.122994,1.13983765e-08
C0I530,小奇萊,2025-03-18,24.131764,121.295717,7.671243e-09
C0FA70,大雪山埡口,2025-03-18,24.26867,121.03062,1.2969622e-08
C2K630,荷苞,2025-03-18,23.657717,120.595144,5.657734e-10
C0Z080,富源,2025-03-18,23.587642,121.378225,7.1533854e-09
467441,高雄,2025-03-18,22.7304,120.3125,2.3313532e-07
C0SB10,美和,2025-03-18,22.682078,121.060236,4.8413145e-08
C2K620,馬光農場,2025-03-18,23.721453,120.378864,8.4086077e-10
C1I140,卡奈托灣,2025-03-18,23.754364,121.087872,8.443966e-10
C0I520,玉山風口,2025-03-18,23.470489,120.955994,2.2291497e-08
C1G691,下水埔,2025-03-18,23.816114,120.5676,5.9187116e-10
C0X110,臺南市南區,2025-03-18,22.961189,120.188378,7.802424e-10
C0V680,仁武,2025-03-18,22.701083,120.347722,1.6546016e-09
C2G840,北斗,2025-03-18,23.877586,120.514222,6.9693323e-10
C0R900,竹坑,2025-03-18,22.1385,120.7022,0.039362784
C0K250,崙背,2025-03-18,23.75555,120.318925,1.3177249e-09
C0G860,社頭,2025-03-18,23.897647,120.5862,9.389807e-10
C0X150,安定,2025-03-18,23.102614,120.227839,5.844292e-10
C0R590,里港,2025-03-18,22.77919,120.49459,3.4660594e-09
C0E610,馬都安,2025-03-18,24.451272,120.930192,5.07274e-10
C0E550,明德,2025-03-18,24.583486,120.885411,2.3544053e-09
C0R150,三地門,2025-03-18,22.709889,120.639944,3.203574e-06
C0G910,花壇,2025-03-18,24.032076,120.549461,7.4831225e-10
C1D400,鳥嘴山,2025-03-18,24.71909,121.28387,1.9930155e-09
C0K500,元長,2025-03-18,23.64981,120.315024,1.0970052e-09
C0F0B0,石岡,2025-03-18,24.276061,120.777644,3.57875e-10
C2V250,甲仙,2025-03-18,23.080106,120.591758,1.122187e-09
C0SA20,金崙山,2025-03-18,22.567419,120.959667,5.5205325e-09
C0V350,溪埔,2025-03-18,22.738578,120.446797,6.6329586e-09
C0M660,溪口,2025-03-18,23.604131,120.403569,2.1655364e-09
C1S880,壽卡,2025-03-18,22.238911,120.858903,7.653495e-07
72D680,桃改新埔分場,2025-03-18,24.834444,121.066111,1.0439987e-08
