站號,站名,日期,lat,lon,BlastGRU-TW
12J990,口湖工作站,2025-05-19,23.589978,120.180394,0.9974595
12Q970,東港工作站,2025-05-19,22.479997,120.466058,0.9712704
12Q980,恆春工作站,2025-05-19,22.079678,120.714425,0.033256423
466881,新北,2025-05-19,24.959207,121.525196,0.9956957
466900,淡水,2025-05-19,25.164889,121.448906,0.99715775
466920,臺北,2025-05-19,25.037658,121.514853,0.9919039
466940,基隆,2025-05-19,25.133314,121.740475,0.9888468
466990,花蓮,2025-05-19,23.975128,121.613275,0.90773904
467050,新屋,2025-05-19,25.006725,121.047492,0.9960131
467080,宜蘭,2025-05-19,24.763975,121.756528,0.9723829
467270,田中,2025-05-19,23.873803,120.581286,0.0055294824
467280,後龍,2025-05-19,24.648563,120.831834,0.99636626
467290,古坑,2025-05-19,23.633639,120.551889,0.01197115
467300,東吉島,2025-05-19,23.25727,119.66762,0.98873657
467350,澎湖,2025-05-19,23.565503,119.563094,0.9557154
467410,臺南,2025-05-19,22.99328,120.20492,0.99639827
467420,永康,2025-05-19,23.038386,120.2367,0.699906
467441,高雄,2025-05-19,22.730432,120.312516,0.97799474
467480,嘉義,2025-05-19,23.495925,120.432906,0.025067503
467490,臺中,2025-05-19,24.145736,120.684075,0.88397527
467540,大武,2025-05-19,22.35572,120.90374,0.04587575
467571,新竹,2025-05-19,24.827853,121.014219,0.98112786
467590,恆春,2025-05-19,22.003897,120.746339,0.03923224
467610,成功,2025-05-19,23.097486,121.373428,0.36471802
467620,蘭嶼,2025-05-19,22.0369,121.55843,0.7884947
467660,臺東,2025-05-19,22.752211,121.154586,0.97609675
467790,墾丁雷達站,2025-05-19,21.948235,120.808028,0.041240163
72AI40,桃改樹林分場,2025-05-19,24.944503,121.386972,0.9939988
72C440,桃園農改場,2025-05-19,24.950944,121.030583,0.9952203
72D680,桃改新埔分場,2025-05-19,24.834444,121.066111,0.98853064
72G600,臺中農改場,2025-05-19,24.003028,120.534389,0.93614805
72K220,南改斗南分場,2025-05-19,23.634556,120.477333,0.006768023
72M360,南改義竹分場,2025-05-19,23.360694,120.279361,0.9969559
72M700,南改鹿草分場,2025-05-19,23.416869,120.283061,0.9967518
72N100,臺南農改場,2025-05-19,23.0605,120.342194,0.05507886
72N240,七股研究中心,2025-05-19,23.081672,120.062894,0.9951197
72Q010,高雄農改場,2025-05-19,22.709333,120.525889,0.7999874
72S200,東改班鳩分場,2025-05-19,22.829528,121.077694,0.89608794
72S590,東改賓朗果園,2025-05-19,22.813889,121.071278,0.8470717
72T250,花蓮農改場,2025-05-19,23.975222,121.563889,0.94196784
72U480,花改蘭陽分場,2025-05-19,24.686306,121.716583,0.97170657
72V140,高改旗南分場,2025-05-19,22.857861,120.516667,0.6259584
82A750,茶改北部分場,2025-05-19,24.955778,121.631222,0.9643394
82C160,茶改場,2025-05-19,24.908472,121.185333,0.9478081
82H840,茶改南部分場,2025-05-19,23.762528,120.7405,0.97107595
82S580,茶改東部分場,2025-05-19,22.907694,121.130139,0.9117557
A2C560,農工中心,2025-05-19,24.985917,121.239833,0.9924755
A2K360,水試臺西試驗場,2025-05-19,23.717231,120.190522,0.99780774
A2K570,古坑花卉中心,2025-05-19,23.63353,120.55239,0.01197115
A2K630,臺大雲林校區,2025-05-19,23.730628,120.423903,0.9835894
A2N290,臺南蘭花園區,2025-05-19,23.340258,120.379661,0.23499349
B2E890,畜試北區分所,2025-05-19,24.527806,120.770972,0.7187847
B2N890,畜產試驗所,2025-05-19,23.058972,120.336406,0.05526827
B2Q810,畜試南區分所,2025-05-19,21.945583,120.802167,0.031371523
B2U990,畜試東區分所,2025-05-19,24.669039,121.832561,0.9832283
C0A520,山佳,2025-05-19,24.974944,121.402008,0.9949041
C0A530,坪林,2025-05-19,24.938183,121.70975,0.954571
C0A550,泰平,2025-05-19,24.971197,121.823711,0.90053284
C0A570,桶後,2025-05-19,24.848222,121.597992,0.8491313
C0A640,石碇,2025-05-19,24.993969,121.662917,0.9926758
C0A770,科教館,2025-05-19,25.096356,121.516507,0.9932009
C0A860,大坪,2025-05-19,25.165914,121.632969,0.97515297
C0A890,雙溪,2025-05-19,25.036003,121.864242,0.9947901
C0A931,三和,2025-05-19,25.233153,121.595236,0.98949796
C0A940,金山,2025-05-19,25.223628,121.643967,0.99131435
C0A950,鼻頭角,2025-05-19,25.129036,121.923372,0.9932166
C0A970,三貂角,2025-05-19,25.007606,122.002058,0.994884
C0A980,社子,2025-05-19,25.109508,121.469681,0.9974864
C0A9C0,天母,2025-05-19,25.117494,121.537169,0.84046596
C0A9F0,內湖,2025-05-19,25.079422,121.57545,0.9919039
C0AC60,三峽,2025-05-19,24.939025,121.369728,0.99444264
C0AC70,信義,2025-05-19,25.037822,121.564597,0.9919039
C0AC80,文山,2025-05-19,25.00235,121.575728,0.99526626
C0ACA0,新莊,2025-05-19,25.051478,121.446756,0.98264927
C0AD10,八里,2025-05-19,25.150211,121.403947,0.99740815
C0AD30,蘆洲,2025-05-19,25.086594,121.472331,0.99340135
C0AD40,土城,2025-05-19,24.973208,121.445169,0.9957427
C0AD50,鶯歌,2025-05-19,24.951533,121.346294,0.9946646
C0AG80,中和,2025-05-19,24.991622,121.491792,0.9957427
C0AH00,汐止,2025-05-19,25.066881,121.658778,0.9919039
C0AH10,永和,2025-05-19,25.01125,121.508111,0.9956449
C0AH40,平等,2025-05-19,25.129142,121.577086,0.9632073
C0AH50,林口,2025-05-19,25.072181,121.38084,0.99028605
C0AH70,松山,2025-05-19,25.04871,121.55042,0.9919039
C0AH80,深坑,2025-05-19,25.002703,121.628328,0.9953395
C0AI00,五股,2025-05-19,25.07445,121.42728,0.9943128
C0AI10,屈尺,2025-05-19,24.92184,121.54475,0.99438137
C0AI20,白沙灣,2025-05-19,25.283128,121.519058,0.9978214
C0AI30,三重,2025-05-19,25.057328,121.500629,0.9903568
C0AI40,石牌,2025-05-19,25.115597,121.513139,0.7816726
C0AJ20,野柳,2025-05-19,25.20703,121.690021,0.96460277
C0AJ30,淡水觀海,2025-05-19,25.184591,121.408616,0.9860906
C0AJ40,石門,2025-05-19,25.273672,121.601198,0.99305797
C0AJ50,水湳洞,2025-05-19,25.123695,121.862238,0.99186265
C0AJ60,六塊厝,2025-05-19,25.24,121.4481,0.9977907
C0AJ70,田寮,2025-05-19,25.2698,121.4886,0.9978313
C0AJ80,板橋,2025-05-19,25.0107,121.4489,0.9956449
C0AJ90,澳底,2025-05-19,25.0552,121.9253,0.9940669
C0AK10,太平里,2025-05-19,25.134937,121.364899,0.9972739
C0B010,七堵,2025-05-19,25.094819,121.71713,0.993877
C0B020,基隆嶼,2025-05-19,25.19141,121.78391,0.9839502
C0B040,大武崙,2025-05-19,25.166676,121.706993,0.99103767
C0B050,八斗子,2025-05-19,25.144754,121.79167,0.98806816
C0B060,暖暖,2025-05-19,25.0957,121.7403,0.99484044
C0C460,復興,2025-05-19,24.820208,121.352281,0.9803568
C0C480,桃園,2025-05-19,24.992425,121.323172,0.99329275
C0C490,八德,2025-05-19,24.928708,121.283289,0.9923693
C0C590,觀音,2025-05-19,25.027072,121.153317,0.99468625
C0C620,蘆竹,2025-05-19,25.084275,121.265767,0.993846
C0C630,大溪,2025-05-19,24.882853,121.265547,0.76535743
C0C650,平鎮,2025-05-19,24.897503,121.214636,0.9903674
C0C660,楊梅,2025-05-19,24.912375,121.143047,0.9448679
C0C670,龍潭,2025-05-19,24.870056,121.221389,0.86257726
C0C680,龜山,2025-05-19,25.02846,121.38656,0.99118614
C0C700,中壢,2025-05-19,24.977661,121.256375,0.9918725
C0C710,大溪永福,2025-05-19,24.892936,121.324975,0.99309164
C0C720,竹圍,2025-05-19,25.112692,121.239824,0.99695534
C0C730,中大臨海站,2025-05-19,24.966126,121.008581,0.99632263
C0C740,觀音工業區,2025-05-19,25.064764,121.114856,0.9959018
C0C750,新興坑尾,2025-05-19,25.0061,121.0971,0.9952356
C0D430,峨眉,2025-05-19,24.6905,121.017189,0.048861824
C0D480,打鐵坑,2025-05-19,24.849664,121.150789,0.8691924
C0D540,橫山,2025-05-19,24.71116,121.11693,0.95446986
C0D560,竹東,2025-05-19,24.767147,121.057881,0.08187852
C0D580,寶山,2025-05-19,24.735006,121.025192,0.7647682
C0D590,新豐,2025-05-19,24.87068,120.97721,0.98912007
C0D650,湖口,2025-05-19,24.904794,121.043628,0.99446636
C0D660,新竹市東區,2025-05-19,24.798681,120.986942,0.9386319
C0D670,海天一線,2025-05-19,24.831986,120.914438,0.996728
C0D680,香山濕地,2025-05-19,24.783581,120.914988,0.8471583
C0D690,外湖,2025-05-19,24.917735,120.968711,0.99597466
C0D700,關西,2025-05-19,24.7977,121.1732,0.10221635
C0E420,竹南,2025-05-19,24.708978,120.888897,0.99630815
C0E430,南庄,2025-05-19,24.601775,121.000214,0.030332202
C0E550,明德,2025-05-19,24.583486,120.885411,0.9951605
C0E570,白沙屯,2025-05-19,24.549447,120.696803,0.99788165
C0E590,通霄,2025-05-19,24.471892,120.704622,0.99429816
C0E730,頭份,2025-05-19,24.688247,120.912206,0.99637336
C0E740,造橋,2025-05-19,24.637056,120.864778,0.9965248
C0E750,苗栗,2025-05-19,24.564569,120.824575,0.9945923
C0E780,銅鑼,2025-05-19,24.489681,120.790853,0.93419814
C0E791,卓蘭,2025-05-19,24.3126,120.8244,0.8267251
C0E810,西湖,2025-05-19,24.562947,120.7485,0.9976845
C0E820,獅潭,2025-05-19,24.539133,120.920042,0.036491252
C0E830,苑裡,2025-05-19,24.439714,120.653053,0.9971638
C0E850,大河,2025-05-19,24.618069,120.948578,0.030716607
C0E870,高鐵苗栗,2025-05-19,24.60725,120.826094,0.9964981
C0E910,海埔,2025-05-19,24.648767,120.772435,0.99633235
C0E920,通霄漁港,2025-05-19,24.498589,120.673876,0.99400693
C0E930,龍鳳,2025-05-19,24.700034,120.859125,0.9963619
C0F0B0,石岡,2025-05-19,24.276061,120.777644,0.82338357
C0F850,東勢,2025-05-19,24.246428,120.833047,0.9958896
C0F970,大坑,2025-05-19,24.173142,120.722289,0.9834895
C0F9I0,神岡,2025-05-19,24.272481,120.658314,0.86380965
C0F9K0,大安,2025-05-19,24.345061,120.588025,0.9965616
C0F9L0,后里,2025-05-19,24.310436,120.729725,0.80571705
C0F9M0,豐原,2025-05-19,24.254322,120.720692,0.7975615
C0F9N0,大里,2025-05-19,24.092464,120.701378,0.28600904
C0F9O0,潭子,2025-05-19,24.213106,120.703933,0.99730486
C0F9P0,清水,2025-05-19,24.312297,120.562242,0.99609035
C0F9Q0,外埔,2025-05-19,24.347817,120.705686,0.98032606
C0F9R0,龍井,2025-05-19,24.184536,120.528972,0.99735874
C0F9S0,烏日,2025-05-19,24.107058,120.624103,0.13033023
C0F9T0,西屯,2025-05-19,24.179494,120.641275,0.78455997
C0F9U0,南屯,2025-05-19,24.137006,120.637969,0.6422989
C0F9X0,大雅(中科園區),2025-05-19,24.21528,120.62445,0.97157663
C0FA10,松柏,2025-05-19,24.429115,120.617482,0.9973279
C0FA20,溫寮,2025-05-19,24.372177,120.583125,0.9971011
C0FA30,梧棲,2025-05-19,24.256003,120.523381,0.99609035
C0FA40,臺中電廠,2025-05-19,24.2146,120.4907,0.9970319
C0FA50,霧峰,2025-05-19,24.0419,120.6995,0.07471021
C0FB70,大甲溪埔,2025-05-19,24.370625,120.620067,0.9962749
C0G620,芬園,2025-05-19,24.015678,120.6213,0.09827814
C0G650,員林,2025-05-19,23.946503,120.585597,0.0063814055
C0G660,溪湖,2025-05-19,23.94835,120.479122,0.82252437
C0G720,溪州,2025-05-19,23.851589,120.499093,0.96965414
C0G730,二林,2025-05-19,23.903325,120.376081,0.9949542
C0G740,大城,2025-05-19,23.852487,120.320935,0.9962963
C0G770,福興,2025-05-19,24.041289,120.437669,0.99554414
C0G780,秀水,2025-05-19,24.03405,120.503869,0.9342647
C0G800,埔鹽,2025-05-19,24.000394,120.431683,0.9955455
C0G810,埔心,2025-05-19,23.947633,120.525456,0.8595831
C0G820,田尾,2025-05-19,23.901669,120.509389,0.58455104
C0G830,埤頭,2025-05-19,23.866003,120.452806,0.9599844
C0G860,社頭,2025-05-19,23.897647,120.5862,0.0053636925
C0G880,二水,2025-05-19,23.810742,120.6173,0.3191062
C0G890,伸港,2025-05-19,24.148933,120.484403,0.99782413
C0G900,線西,2025-05-19,24.143358,120.443536,0.9978389
C0G910,花壇,2025-05-19,24.032076,120.549461,0.96088773
C0G920,永靖,2025-05-19,23.924703,120.547533,0.58455104
C0G940,竹塘,2025-05-19,23.848253,120.386764,0.99508935
C0G950,防潮門,2025-05-19,24.1835,120.4871,0.99735874
C0G960,福寶,2025-05-19,24.0443,120.3814,0.9980295
C0G970,三豐,2025-05-19,23.882,120.2895,0.9959524
C0G9B0,和美,2025-05-19,24.105169,120.492131,0.9977671
C0H890,埔里,2025-05-19,23.972169,120.952425,0.9595728
C0H960,草屯,2025-05-19,23.973672,120.68085,0.089953914
C0I110,竹山,2025-05-19,23.761225,120.688156,0.7499387
C0I360,水里,2025-05-19,23.812553,120.849792,0.99204195
C0I380,集集,2025-05-19,23.828206,120.801467,0.9921467
C0I410,名間,2025-05-19,23.837053,120.701447,0.023073677
C0I420,國姓,2025-05-19,24.037803,120.855072,0.055835985
C0I460,南投,2025-05-19,23.911469,120.687331,0.07891232
C0K250,崙背,2025-05-19,23.75555,120.318925,0.99437386
C0K280,四湖,2025-05-19,23.630414,120.227125,0.9979211
C0K291,宜梧,2025-05-19,23.536281,120.169329,0.9968575
C0K330,虎尾,2025-05-19,23.719183,120.442036,0.9748106
C0K390,土庫,2025-05-19,23.679029,120.395574,0.98952097
C0K400,斗六,2025-05-19,23.720583,120.541127,0.0035673466
C0K410,北港,2025-05-19,23.573957,120.292802,0.9967418
C0K420,西螺,2025-05-19,23.800407,120.467394,0.9875649
C0K430,褒忠,2025-05-19,23.690938,120.303634,0.99555767
C0K440,二崙,2025-05-19,23.772797,120.408944,0.9906708
C0K450,大埤,2025-05-19,23.646074,120.431537,0.008015894
C0K460,斗南,2025-05-19,23.678734,120.478359,0.006768023
C0K470,林內,2025-05-19,23.748675,120.609642,0.0154393185
C0K480,莿桐,2025-05-19,23.761192,120.502372,0.006841192
C0K500,元長,2025-05-19,23.64981,120.315024,0.9975953
C0K510,水林,2025-05-19,23.572924,120.24597,0.9969027
C0K530,臺西,2025-05-19,23.701547,120.197559,0.997716
C0K550,蔦松,2025-05-19,23.514319,120.229736,0.9968575
C0K560,棋山,2025-05-19,23.68645,120.603417,0.012819192
C0K580,高鐵雲林,2025-05-19,23.737456,120.417944,0.9835894
C0K590,雲林東勢,2025-05-19,23.674192,120.255721,0.99753165
C0K600,箔子寮,2025-05-19,23.6197,120.14,0.9974595
C0M520,東後寮,2025-05-19,23.369908,120.248065,0.99692076
C0M640,中埔,2025-05-19,23.42538,120.5229,0.7492579
C0M650,朴子,2025-05-19,23.43463,120.23902,0.9967218
C0M660,溪口,2025-05-19,23.604131,120.403569,0.0065027727
C0M670,大林,2025-05-19,23.600616,120.45841,0.005625323
C0M680,太保,2025-05-19,23.455062,120.331455,0.14350577
C0M690,水上,2025-05-19,23.419734,120.388909,0.19189812
C0M700,竹崎,2025-05-19,23.526178,120.555508,0.8073887
C0M710,東石,2025-05-19,23.458927,120.15385,0.9969832
C0M720,番路,2025-05-19,23.464657,120.554156,0.9341594
C0M730,嘉義市東區,2025-05-19,23.457673,120.460531,0.14205652
C0M740,六腳,2025-05-19,23.492871,120.290625,0.996881
C0M750,布袋,2025-05-19,23.380878,120.167789,0.9970044
C0M760,民雄,2025-05-19,23.551754,120.428457,0.0062402417
C0M770,嘉義梅山,2025-05-19,23.585398,120.555587,0.044414584
C0M780,鹿草,2025-05-19,23.41134,120.30835,0.99679166
C0M790,新港,2025-05-19,23.553269,120.345728,0.9975803
C0M800,茶山,2025-05-19,23.299075,120.664767,0.9925884
C0M880,好美里,2025-05-19,23.3364,120.138,0.9959257
C0N010,鯤鯓國小,2025-05-19,23.1879,120.0889,0.9903081
C0N020,城西,2025-05-19,23.0568,120.0956,0.9955133
C0N030,四草,2025-05-19,23.0235,120.1116,0.9951149
C0N040,蘆竹溝,2025-05-19,23.2344,120.0961,0.99611354
C0N050,蚵寮,2025-05-19,23.301,120.1104,0.9951105
C0O830,北寮,2025-05-19,23.079561,120.495008,0.80732584
C0O840,王爺宮,2025-05-19,23.222064,120.40085,0.99612516
C0O860,大內,2025-05-19,23.11885,120.36083,0.050558504
C0O900,善化,2025-05-19,23.112883,120.297219,0.060396835
C0O960,崎頂,2025-05-19,22.959547,120.369317,0.99706304
C0O970,虎頭埤,2025-05-19,23.021375,120.347878,0.99739397
C0O980,新市,2025-05-19,23.061614,120.298197,0.07119757
C0O990,媽廟,2025-05-19,22.99175,120.293525,0.7932328
C0R150,三地門,2025-05-19,22.709889,120.639944,0.9921317
C0R160,鹽埔,2025-05-19,22.739558,120.530778,0.7999874
C0R190,赤山,2025-05-19,22.592333,120.614306,0.9679072
C0R220,潮州,2025-05-19,22.534361,120.54,0.9743878
C0R240,來義,2025-05-19,22.527306,120.625111,0.9935681
C0R260,春日,2025-05-19,22.370361,120.628306,0.29333198
C0R270,琉球嶼,2025-05-19,22.332244,120.362236,0.97436225
C0R280,檳榔,2025-05-19,22.076078,120.836777,0.6537894
C0R320,車城,2025-05-19,22.0744,120.716247,0.033256423
C0R341,牡丹,2025-05-19,22.130036,120.792639,0.60908836
C0R350,貓鼻頭,2025-05-19,21.921774,120.7358,0.017932126
C0R470,高樹,2025-05-19,22.826389,120.600806,0.9168997
C0R480,長治,2025-05-19,22.693128,120.542622,0.62233657
C0R490,九如,2025-05-19,22.7405,120.490503,0.77577543
C0R520,崁頂,2025-05-19,22.514781,120.506914,0.97123265
C0R540,佳冬,2025-05-19,22.419456,120.552375,0.19645591
C0R550,新埤,2025-05-19,22.467947,120.582894,0.9849863
C0R560,新園,2025-05-19,22.5434,120.461558,0.7418753
C0R570,麟洛,2025-05-19,22.65078,120.52719,0.2290975
C0R580,南州,2025-05-19,22.48591,120.50274,0.9712704
C0R590,里港,2025-05-19,22.77919,120.49459,0.55922264
C0R620,墾雷,2025-05-19,21.900836,120.855269,0.05201019
C0R640,東港,2025-05-19,22.46247,120.44074,0.9712704
C0R650,竹田,2025-05-19,22.58486,120.54344,0.94037783
C0R660,枋寮,2025-05-19,22.367722,120.590647,0.19512257
C0R670,楓港,2025-05-19,22.190131,120.692156,0.02569847
C0R680,佳樂水,2025-05-19,21.993578,120.861633,0.03262084
C0R690,墾丁,2025-05-19,21.966756,120.810269,0.40897912
C0R700,枋山,2025-05-19,22.246844,120.661086,0.23402213
C0R710,龍磐,2025-05-19,21.931672,120.838942,0.061037663
C0R720,旭海,2025-05-19,22.205403,120.887614,0.6938928
C0R730,大坪頂,2025-05-19,22.024633,120.69355,0.098202154
C0R741,獅子,2025-05-19,22.202308,120.705236,0.064227924
C0R760,南仁湖,2025-05-19,22.084681,120.863353,0.8312161
C0R770,保力,2025-05-19,22.071122,120.764111,0.044291984
C0R780,滿州,2025-05-19,22.024403,120.839892,0.04660508
C0R790,九棚,2025-05-19,22.14195,120.889281,0.2780067
C0R800,丹路,2025-05-19,22.204481,120.750989,0.22975327
C0R810,內獅,2025-05-19,22.305064,120.642986,0.1423842
C0R830,高士,2025-05-19,22.121825,120.836781,0.8756047
C0R850,林邊,2025-05-19,22.4634,120.5339,0.97449416
C0R860,鼻頭,2025-05-19,22.1043,120.8979,0.03246284
C0R870,興海,2025-05-19,21.9752,120.8439,0.031371523
C0R880,後壁湖,2025-05-19,21.9457,120.7457,0.022536194
C0R890,山海,2025-05-19,21.9878,120.7091,0.023016576
C0R900,竹坑,2025-05-19,22.1385,120.7022,0.034049828
C0R910,下寮,2025-05-19,22.3929,120.5548,0.19512257
C0R920,塭仔,2025-05-19,22.4169,120.5197,0.18710537
C0R930,萬丹,2025-05-19,22.5885,120.4851,0.21479489
C0R940,加祿堂,2025-05-19,22.3363,120.6217,0.19463262
C0R950,萬隆國小,2025-05-19,22.507667,120.587817,0.98737025
C0R960,內埔,2025-05-19,22.608483,120.570714,0.9498867
C0S710,鹿野,2025-05-19,22.917711,121.122994,0.69199663
C0S730,綠島,2025-05-19,22.6672,121.47533,0.6633033
C0S740,池上,2025-05-19,23.119628,121.209469,0.8335043
C0S770,大溪山,2025-05-19,22.478475,120.943325,0.8640131
C0S790,金崙,2025-05-19,22.538122,120.966875,0.9731603
C0S810,東河,2025-05-19,22.972672,121.303986,0.5330967
C0S830,長濱,2025-05-19,23.286817,121.411975,0.8667208
C0S840,南田,2025-05-19,22.279725,120.889208,0.10872304
C0S890,關山,2025-05-19,23.0395,121.175017,0.91167533
C0S900,蘭嶼高中,2025-05-19,22.04909,121.51214,0.122963294
C0S910,蘭嶼燈塔,2025-05-19,22.081197,121.503117,0.23474784
C0S920,金峰嘉蘭,2025-05-19,22.594789,120.960825,0.49962208
C0S930,延平,2025-05-19,22.902581,121.084058,0.8717661
C0S940,石寧山,2025-05-19,23.223772,121.406639,0.96334636
C0S950,七塊厝,2025-05-19,22.954453,121.229922,0.6550309
C0S960,香蘭,2025-05-19,22.587569,120.993375,0.119100325
C0S970,加津林,2025-05-19,22.416211,120.926942,0.056743346
C0S990,山豬窟,2025-05-19,22.318619,120.857372,0.93485487
C0SA00,歷坵,2025-05-19,22.520969,120.89185,0.8699477
C0SA10,檳榔四格山,2025-05-19,22.810031,121.109308,0.8259886
C0SA30,都歷,2025-05-19,23.020333,121.323642,0.949483
C0SA40,瑞和,2025-05-19,22.974361,121.156697,0.89869666
C0SA60,知本（水試所）,2025-05-19,22.702394,121.082761,0.069694765
C0SA80,土坂,2025-05-19,22.453108,120.887572,0.76087123
C0SA90,達仁林場,2025-05-19,22.264347,120.823972,0.9516559
C0SB10,美和,2025-05-19,22.682078,121.060236,0.07121974
C0SB20,富岡,2025-05-19,22.792467,121.192669,0.9574375
C0SB30,新蘭,2025-05-19,22.869214,121.223228,0.9165935
C0SB40,興隆,2025-05-19,22.913661,121.257469,0.9247071
C0SB50,叭嗡嗡,2025-05-19,23.047062,121.343223,0.92388433
C0SB60,白守蓮,2025-05-19,23.126769,121.401914,0.2396574
C0SB70,小港漁港,2025-05-19,23.158558,121.400431,0.39911482
C0SB80,長濱漁港,2025-05-19,23.313644,121.459994,0.9057677
C0T870,鯉魚潭,2025-05-19,23.935639,121.508944,0.14320704
C0T900,西林,2025-05-19,23.8119,121.441458,0.62063646
C0T960,光復,2025-05-19,23.660694,121.424964,0.91792536
C0T9A0,月眉山,2025-05-19,23.809928,121.539828,0.9148008
C0T9D0,和中,2025-05-19,24.26676,121.74103,0.98057574
C0T9E0,大坑,2025-05-19,23.880628,121.581981,0.678263
C0T9F0,水璉,2025-05-19,23.797131,121.542514,0.859345
C0T9I0,豐濱,2025-05-19,23.583897,121.514806,0.9712679
C0T9M0,靜浦,2025-05-19,23.455167,121.495028,0.9573168
C0T9N0,富里,2025-05-19,23.171639,121.249378,0.921893
C0TA10,花蓮漁港,2025-05-19,23.995322,121.638331,0.8730379
C0TA20,加灣,2025-05-19,24.082025,121.608944,0.9857897
C0TA30,鹽寮,2025-05-19,23.845606,121.592664,0.011397994
C0U600,礁溪,2025-05-19,24.817539,121.765608,0.9849724
C0U650,玉蘭,2025-05-19,24.675286,121.587061,0.89365804
C0U750,龜山島,2025-05-19,24.841667,121.953133,0.9889396
C0U760,東澳,2025-05-19,24.52196,121.83318,0.99127233
C0U770,南澳,2025-05-19,24.44935,121.81022,0.9699411
C0U780,五結,2025-05-19,24.68637,121.79794,0.9688215
C0U860,頭城,2025-05-19,24.85323,121.8308,0.9851
C0U870,大礁溪,2025-05-19,24.791042,121.675047,0.6920338
C0U880,北關,2025-05-19,24.9072,121.8734,0.96822965
C0U890,三星,2025-05-19,24.66812,121.65302,0.7010985
C0U900,內城,2025-05-19,24.71813,121.68766,0.9719767
C0U910,冬山,2025-05-19,24.63373,121.7937,0.9832283
C0U940,羅東,2025-05-19,24.68184,121.74934,0.9710908
C0U970,大福,2025-05-19,24.80064,121.81389,0.9730351
C0U990,員山,2025-05-19,24.74435,121.72247,0.97018135
C0UA00,土場,2025-05-19,24.576533,121.495333,0.91207945
C0UA80,大溪漁港,2025-05-19,24.941801,121.902955,0.9770769
C0UA90,石城,2025-05-19,24.980444,121.951214,0.9935481
C0UB00,淡江大學蘭陽校園,2025-05-19,24.823239,121.730383,0.86800236
C0UB10,蘇澳,2025-05-19,24.5969,121.8571,0.56909746
C0UB20,壯圍,2025-05-19,24.7359,121.8163,0.96867424
C0V350,溪埔,2025-05-19,22.738578,120.446797,0.5577135
C0V360,內門,2025-05-19,22.975481,120.466769,0.97942483
C0V370,古亭坑,2025-05-19,22.893178,120.401947,0.95859176
C0V400,阿公店,2025-05-19,22.804194,120.355528,0.9439883
C0V440,鳳山,2025-05-19,22.646653,120.356122,0.9939094
C0V450,鳳森,2025-05-19,22.545064,120.392592,0.90149873
C0V490,新興,2025-05-19,22.627422,120.298803,0.9650439
C0V530,阿蓮,2025-05-19,22.883208,120.327508,0.9755098
C0V610,梓官,2025-05-19,22.760558,120.267211,0.98187184
C0V620,永安,2025-05-19,22.82315,120.236856,0.99180734
C0V630,茄萣,2025-05-19,22.906642,120.182608,0.9971208
C0V640,湖內,2025-05-19,22.887139,120.2445,0.99401337
C0V650,彌陀,2025-05-19,22.783806,120.246361,0.99092805
C0V660,岡山,2025-05-19,22.797078,120.294958,0.99092805
C0V680,仁武,2025-05-19,22.701083,120.347722,0.99173456
C0V690,鼓山,2025-05-19,22.623325,120.275575,0.9650439
C0V700,三民,2025-05-19,22.645017,120.311233,0.99393946
C0V710,苓雅,2025-05-19,22.622742,120.330669,0.9526148
C0V720,林園,2025-05-19,22.507747,120.394511,0.7587008
C0V730,大寮,2025-05-19,22.605614,120.395717,0.95956075
C0V740,旗山,2025-05-19,22.888614,120.483597,0.6549693
C0V750,路竹,2025-05-19,22.854997,120.259439,0.99484074
C0V760,橋頭,2025-05-19,22.757806,120.30575,0.98187184
C0V770,大社,2025-05-19,22.730306,120.346639,0.9783394
C0V790,萬山,2025-05-19,22.905944,120.688056,0.9960142
C0V800,六龜,2025-05-19,22.997889,120.633583,0.95132685
C0V810,左營,2025-05-19,22.67491,120.28491,0.99393946
C0V820,小林,2025-05-19,23.148408,120.63325,0.9853938
C0V840,鳳鼻頭,2025-05-19,22.5083,120.3591,0.71872663
C0V850,蚵仔寮,2025-05-19,22.7256,120.2527,0.97919774
C0V860,南寮,2025-05-19,22.7616,120.2339,0.97919774
C0V870,文安,2025-05-19,22.8025,120.2164,0.9893309
C0V880,興達,2025-05-19,22.8778,120.2127,0.99314547
C0V890,前鎮,2025-05-19,22.5718,120.3117,0.9599179
C0V900,汕尾,2025-05-19,22.4782,120.4151,0.9712704
C0V910,大樹,2025-05-19,22.684645,120.432803,0.73309857
C0W200,湖西,2025-05-19,23.596314,119.67275,0.95500773
C0X050,東河,2025-05-19,23.296598,120.385608,0.38693038
C0X060,下營,2025-05-19,23.22695,120.256261,0.010223138
C0X080,佳里,2025-05-19,23.173039,120.145086,0.9903081
C0X100,臺南市北區,2025-05-19,23.010394,120.194228,0.99564534
C0X110,臺南市南區,2025-05-19,22.961189,120.188378,0.99648815
C0X120,麻豆,2025-05-19,23.183289,120.248611,0.028508909
C0X130,官田,2025-05-19,23.193217,120.315422,0.25068417
C0X140,西港,2025-05-19,23.125608,120.203108,0.7712324
C0X150,安定,2025-05-19,23.102614,120.227839,0.7712324
C0X160,仁德,2025-05-19,22.968258,120.257689,0.9965446
C0X170,關廟,2025-05-19,22.963017,120.327797,0.9866196
C0X180,山上,2025-05-19,23.0757,120.363253,0.9812196
C0X190,安平,2025-05-19,22.993161,120.152181,0.99564534
C0X200,左鎮,2025-05-19,23.056758,120.408522,0.9969781
C0X210,白河,2025-05-19,23.347466,120.414427,0.3381864
C0X220,學甲,2025-05-19,23.230367,120.182187,0.99635667
C0X230,鹽水,2025-05-19,23.272621,120.247641,0.9953256
C0X240,關子嶺,2025-05-19,23.331169,120.508025,0.9866514
C0X250,新營,2025-05-19,23.310689,120.316681,0.14510302
C0X260,後壁,2025-05-19,23.366358,120.362326,0.23499349
C0X280,將軍,2025-05-19,23.214999,120.13577,0.99611354
C0X290,北門,2025-05-19,23.267772,120.125481,0.99611354
C0X300,鹿寮,2025-05-19,23.386047,120.477331,0.29232818
C0X320,柳營,2025-05-19,23.253328,120.375253,0.88352734
C0Z020,明里,2025-05-19,23.208717,121.262342,0.9532883
C0Z061,玉里,2025-05-19,23.3215,121.339656,0.955846
C0Z070,舞鶴,2025-05-19,23.46811,121.37407,0.7988666
C0Z080,富源,2025-05-19,23.587642,121.378225,0.8892318
C0Z100,東華,2025-05-19,23.89525,121.549833,0.0132595
C0Z150,吉安光華,2025-05-19,23.930925,121.595153,0.06271638
C0Z160,鳳林,2025-05-19,23.746114,121.453411,0.7306471
C0Z170,卓溪,2025-05-19,23.3443,121.3029,0.8474435
C0Z180,新城,2025-05-19,24.040486,121.604878,0.9209258
C0Z190,富世,2025-05-19,24.14743,121.6297,0.9683507
C0Z200,萬榮,2025-05-19,23.709219,121.420106,0.8426413
C0Z210,瑞穗,2025-05-19,23.5239,121.39021,0.9741233
C0Z230,和平,2025-05-19,24.30717,121.77007,0.9787553
C0Z270,蕃薯寮,2025-05-19,23.73835,121.540108,0.89812195
C0Z280,德武,2025-05-19,23.47426,121.41071,0.9482211
C0Z300,東里,2025-05-19,23.26853,121.30547,0.96573377
C0Z310,清水斷崖,2025-05-19,24.218294,121.689142,0.87832546
C0Z330,安通山,2025-05-19,23.290728,121.348528,0.65981317
C2A540,四堵,2025-05-19,24.8926,121.745736,0.93257797
C2A560,福山,2025-05-19,24.776203,121.502811,0.62177294
C2A650,火燒寮,2025-05-19,25.002719,121.742892,0.9843474
C2A660,瑞芳,2025-05-19,25.113169,121.801147,0.9918503
C2A880,福隆,2025-05-19,25.017842,121.942083,0.9930511
C2A920,富貴角,2025-05-19,25.263783,121.565258,0.98891586
C2C410,中央大學,2025-05-19,24.967652,121.185165,0.9916506
C2D720,關西工作站,2025-05-19,24.757275,121.184792,0.12900312
C2D730,寶山農場,2025-05-19,24.732444,120.976153,0.04860208
C2E520,大湖,2025-05-19,24.414939,120.870872,0.4768151
C2E540,龍溪,2025-05-19,24.606489,120.783933,0.9963937
C2E970,八甲,2025-05-19,24.535811,120.795983,0.9956815
C2F000,大肚,2025-05-19,24.15295,120.572117,0.9966724
C2F930,大甲,2025-05-19,24.347667,120.640403,0.99284595
C2F9A0,中竹林,2025-05-19,24.103556,120.751061,0.989675
C2G640,鹿港,2025-05-19,24.0753,120.430481,0.9980295
C2G840,北斗,2025-05-19,23.877586,120.514222,0.96848387
C2G870,芳苑,2025-05-19,23.922303,120.320025,0.9963382
C2G980,田頭村,2025-05-19,23.8263,120.444175,0.97845477
C2G9A0,畜試所彰化,2025-05-19,23.86045,120.557964,0.0055197105
C2H950,中寮,2025-05-19,23.884447,120.766406,0.040652167
C2H9F0,柑林,2025-05-19,24.018658,120.847072,0.03609116
C2H9H0,苗改南投蜂場,2025-05-19,23.852589,120.693481,0.018902365
C2H9T0,名間竹圍,2025-05-19,23.859914,120.637572,0.97232604
C2H9U0,鳳鵬,2025-05-19,23.763919,120.788061,0.98347545
C2K620,馬光農場,2025-05-19,23.721453,120.378864,0.9792147
C2K630,荷苞,2025-05-19,23.657717,120.595144,0.017279088
C2M410,馬頭山,2025-05-19,23.324361,120.582017,0.9956463
C2M910,嘉義大學,2025-05-19,23.471325,120.485903,0.27608785
C2M920,朴子農改,2025-05-19,23.469889,120.259383,0.99684435
C2N160,西拉雅風管處,2025-05-19,23.189481,120.335297,0.2832932
C2O810,曾文,2025-05-19,23.219681,120.497328,0.98924905
C2O930,玉井,2025-05-19,23.126042,120.46055,0.9812196
C2O950,安南,2025-05-19,23.076694,120.144861,0.9953926
C2R170,屏東,2025-05-19,22.66027,120.49403,0.2290975
C2R970,屏科大,2025-05-19,22.648275,120.619247,0.98569787
C2V250,甲仙,2025-05-19,23.080106,120.591758,0.99445903
C2V260,月眉,2025-05-19,22.971003,120.539853,0.32178167
C2V310,美濃,2025-05-19,22.898792,120.51907,0.6259584
C2W230,畜試所澎湖,2025-05-19,23.628342,119.513206,0.97126174
CAG100,王功漁港,2025-05-19,23.96824,120.32586,0.9964126
CAH030,茶改場竹圍站,2025-05-19,23.860083,120.637528,0.97232604
CAJ050,海口故事園區,2025-05-19,23.57543,120.14121,0.99745625
CAL110,布袋國中,2025-05-19,23.35893,120.18026,0.9970044
CAN130,水試所海水繁養殖中心,2025-05-19,23.120802,120.07968,0.9951197
CAN140,六官養殖協會,2025-05-19,23.22881,120.29962,0.010223138
CAQ030,崎峰國小,2025-05-19,22.42565,120.49521,0.9712704
E2K600,四湖植物園,2025-05-19,23.676986,120.163433,0.9979211
E2P980,林試六龜中心,2025-05-19,22.991703,120.645722,0.9722907
E2S960,林試太麻里2,2025-05-19,22.598,120.99775,0.102021456
E2S980,林試太麻里1,2025-05-19,22.598922,120.980044,0.44997895
G2AI50,關渡,2025-05-19,25.11575,121.492,0.9973254
G2F820,農試所(霧峰),2025-05-19,24.031261,120.688133,0.06281931
G2L020,農試嘉義分所,2025-05-19,23.485028,120.473806,0.3428017
G2M350,農試溪口農場,2025-05-19,23.58565,120.408111,0.0065027727
G2P820,農試鳳山分所,2025-05-19,22.646611,120.356083,0.9939094
K2E360,苗栗農改場,2025-05-19,24.495722,120.829111,0.8263507
K2E710,苗改生物防治研究中心,2025-05-19,24.422861,120.871833,0.4293135
K2F750,種苗改良場,2025-05-19,24.225972,120.800917,0.9952394
U2HA50,臺大竹山,2025-05-19,23.756972,120.681556,0.042269774
V2C250,八德合作社,2025-05-19,24.93775,121.266389,0.9923918
V2C260,八德蔬果,2025-05-19,24.978508,121.281819,0.9927507
V2K610,大庄合作社,2025-05-19,23.8068,120.367939,0.9944089
V2K620,麥寮合作社,2025-05-19,23.753836,120.294783,0.99543667
