站號,站名,日期,lat,lon,BLBTSLS
C0R710,龍磐,2025-09-19,21.931672,120.838942,0.1003096
C1F9D1,白毛台,2025-09-19,24.158325,120.886933,2.2811676e-06
C0G940,竹塘,2025-09-19,23.848253,120.386764,0.199521
467590,恆春,2025-09-19,22.003897,120.746339,0.42175138
C1O850,環湖,2025-09-19,23.148617,120.418633,0.39692175
C0U710,太平山,2025-09-19,24.505486,121.525656,3.283064e-09
C0E820,獅潭,2025-09-19,24.539133,120.920042,0.98770964
C0V880,興達,2025-09-19,22.8778,120.2127,0.2297428
C0S890,關山,2025-09-19,23.0395,121.175017,0.99578667
C0SB30,新蘭,2025-09-19,22.869214,121.223228,0.8736381
C2R970,屏科大,2025-09-19,22.648275,120.619247,0.3790248
C1Z130,銅門,2025-09-19,23.965694,121.492842,0.46590573
C0AD40,土城,2025-09-19,24.973208,121.445169,0.25789496
CAN140,六官養殖協會,2025-09-19,23.22881,120.29962,0.4004447
C0X180,山上,2025-09-19,23.0757,120.363253,0.4178094
C0F9Z0,雪山東峰,2025-09-19,24.388792,121.268675,6.261301e-09
C1M480,獨立山,2025-09-19,23.537022,120.607797,2.40504e-05
C0X220,學甲,2025-09-19,23.230367,120.182187,0.33763137
467650,日月潭,2025-09-19,23.881325,120.90805,9.39268e-08
C0K600,箔子寮,2025-09-19,23.6197,120.14,0.65754265
C0G830,埤頭,2025-09-19,23.866003,120.452806,0.61277074
C0S950,七塊厝,2025-09-19,22.954453,121.229922,0.99938625
467110,金門,2025-09-19,24.407306,118.289281,0.002754177
C0AH80,深坑,2025-09-19,25.002703,121.628328,0.26580536
C0A970,三貂角,2025-09-19,25.007606,122.002058,0.9943888
C2D730,寶山農場,2025-09-19,24.732444,120.976153,0.91249526
C0K430,褒忠,2025-09-19,23.690938,120.303634,0.41534337
467480,嘉義,2025-09-19,23.495925,120.432906,0.88950396
C0V400,阿公店,2025-09-19,22.804194,120.355528,0.2836292
C0E960,觀霧分站,2025-09-19,24.505781,121.113921,8.698379e-09
467550,玉山,2025-09-19,23.48718,120.95943,1.3874118e-08
C0R440,大漢山,2025-09-19,22.405264,120.753181,2.3185713e-09
C0SD30,東清國小,2025-09-19,22.057128,121.564922,0.0694066
C0K280,四湖,2025-09-19,23.630414,120.227125,0.60427886
C1F9B1,桐林,2025-09-19,24.066172,120.735194,0.9271135
C2H9U0,鳳鵬,2025-09-19,23.763919,120.788061,0.9965317
C0K390,土庫,2025-09-19,23.679029,120.395574,0.5228535
C1I450,望鄉山,2025-09-19,23.594153,120.944286,9.737004e-09
C0E910,海埔,2025-09-19,24.648767,120.772435,0.84004927
B2E890,畜試北區分所,2025-09-19,24.527806,120.770972,0.3572037
C0R750,四林格山,2025-09-19,22.076989,120.802439,0.9962927
C0F0C0,中坑,2025-09-19,24.248517,120.903319,1.8836563e-08
C1I121,大鞍,2025-09-19,23.678381,120.760017,8.56189e-09
72U480,花改蘭陽分場,2025-09-19,24.686306,121.716583,0.26606333
C0A770,科教館,2025-09-19,25.096356,121.516507,0.49554816
C0AJ60,六塊厝,2025-09-19,25.24,121.4481,0.1667967
C0R620,墾雷,2025-09-19,21.900836,120.855269,0.015722256
467420,永康,2025-09-19,23.038386,120.2367,0.29155126
C0I410,名間,2025-09-19,23.837053,120.701447,0.9415693
A2C560,農工中心,2025-09-19,24.985917,121.239833,0.8803724
C0V740,旗山,2025-09-19,22.888614,120.483597,0.7667418
C0Z061,玉里,2025-09-19,23.3215,121.339656,0.9841962
C0S840,南田,2025-09-19,22.279725,120.889208,0.5364954
C1I470,杉林溪,2025-09-19,23.639517,120.786444,6.364307e-09
C1X040,東原,2025-09-19,23.291597,120.463822,0.96685314
C0R660,枋寮,2025-09-19,22.367722,120.590647,0.07838125
C1R120,上德文,2025-09-19,22.763272,120.704442,1.5349642e-07
C0K450,大埤,2025-09-19,23.646074,120.431537,0.69714314
C0UA00,土場,2025-09-19,24.576533,121.495333,0.9801418
467080,宜蘭,2025-09-19,24.763975,121.756528,0.17855687
C0N030,四草,2025-09-19,23.0235,120.1116,0.4063113
467410,臺南,2025-09-19,22.99328,120.20492,0.45932284
C0V650,彌陀,2025-09-19,22.783806,120.246361,0.37319484
C0D660,新竹市東區,2025-09-19,24.798681,120.986942,0.9658351
82S580,茶改東部分場,2025-09-19,22.907694,121.130139,0.94942826
C0SB40,興隆,2025-09-19,22.913661,121.257469,0.8838853
467050,新屋,2025-09-19,25.006725,121.047492,0.9668331
C0C710,大溪永福,2025-09-19,24.892936,121.324975,0.58348954
C0FA20,溫寮,2025-09-19,24.372177,120.583125,0.76520133
C0V640,湖內,2025-09-19,22.887139,120.2445,0.23768558
C0R910,下寮,2025-09-19,22.3929,120.5548,0.07838125
C0Z020,明里,2025-09-19,23.208717,121.262342,0.9347783
C0M770,嘉義梅山,2025-09-19,23.585398,120.555587,0.7528675
C0C660,楊梅,2025-09-19,24.912375,121.143047,0.98842865
C0SD40,牛頭山,2025-09-19,22.676661,121.506944,0.061786808
C1E511,新開,2025-09-19,24.347703,120.827019,0.96362936
G2F820,農試所(霧峰),2025-09-19,24.031261,120.688133,0.7821056
C2M990,大巃頂,2025-09-19,23.5547,120.61439,1.5247478e-08
C1I070,和社,2025-09-19,23.591131,120.888861,0.000504892
C2E990,新坪頂,2025-09-19,24.30201,120.8574,0.88196045
C0TA80,立霧山,2025-09-19,24.183258,121.641899,1.23699415e-08
C2F000,大肚,2025-09-19,24.15295,120.572117,0.98597467
C1S850,豐南,2025-09-19,23.122139,121.262389,0.99762374
C2A920,富貴角,2025-09-19,25.263783,121.565258,0.08640405
CAH030,茶改場竹圍站,2025-09-19,23.860083,120.637528,0.978914
C0T960,光復,2025-09-19,23.660694,121.424964,0.9845398
C0F9M0,豐原,2025-09-19,24.254322,120.720692,0.66317487
C0R720,旭海,2025-09-19,22.205403,120.887614,0.9336456
C0V710,苓雅,2025-09-19,22.622742,120.330669,0.24614482
C0C740,觀音工業區,2025-09-19,25.064764,121.114856,0.97308236
CAC040,拉拉山,2025-09-19,24.699317,121.427133,5.1126943e-09
C0V790,萬山,2025-09-19,22.905944,120.688056,0.9969132
U2HA30,臺大和社,2025-09-19,23.590856,120.888864,0.000504892
C2H9K0,屯原,2025-09-19,24.067969,121.209389,1.9009474e-09
C0AJ90,澳底,2025-09-19,25.0552,121.9253,0.40009627
C0Z100,東華,2025-09-19,23.89525,121.549833,0.23409797
C0G970,三豐,2025-09-19,23.882,120.2895,0.002385323
V2K610,大庄合作社,2025-09-19,23.8068,120.367939,0.33894798
C0V900,汕尾,2025-09-19,22.4782,120.4151,0.99877673
C1R630,龍泉,2025-09-19,22.66701,120.59091,0.33883306
C1AC50,關渡,2025-09-19,25.133486,121.469331,0.48683414
C0C800,四稜,2025-09-19,24.64733,121.4293,2.688478e-08
C0F9I0,神岡,2025-09-19,24.272481,120.658314,0.5821621
C0K460,斗南,2025-09-19,23.678734,120.478359,0.7220121
C2O810,曾文,2025-09-19,23.219681,120.497328,0.7201117
467280,後龍,2025-09-19,24.648563,120.831834,0.88863635
C1F9J1,清水林,2025-09-19,24.071242,120.820419,1.0917001e-07
C2A650,火燒寮,2025-09-19,25.002719,121.742892,0.9971485
466930,竹子湖,2025-09-19,25.162078,121.544547,0.98864347
C1I220,樟湖,2025-09-19,23.905333,120.846983,7.789878e-09
C0I390,仁愛,2025-09-19,24.022122,121.132206,1.0578675e-08
C0Z300,東里,2025-09-19,23.26853,121.30547,0.9085667
C1V590,新發,2025-09-19,23.057019,120.646064,0.00022957851
C0K510,水林,2025-09-19,23.572924,120.24597,0.44322693
72S590,東改賓朗果園,2025-09-19,22.813889,121.071278,0.98504984
82A750,茶改北部分場,2025-09-19,24.955778,121.631222,0.99560475
C1A750,石碇服務區,2025-09-19,25.00872,121.646242,0.33422822
C0X300,鹿寮,2025-09-19,23.386047,120.477331,0.565423
G2AI50,關渡,2025-09-19,25.11575,121.492,0.32168758
C0K590,雲林東勢,2025-09-19,23.674192,120.255721,0.50164104
C0A570,桶後,2025-09-19,24.848222,121.597992,0.9959421
C1S800,華源,2025-09-19,22.657883,121.02325,0.29176936
C0G720,溪州,2025-09-19,23.851589,120.499093,0.63717866
C1V160,達卡努瓦,2025-09-19,23.279811,120.705319,4.5051087e-09
C2M410,馬頭山,2025-09-19,23.324361,120.582017,0.98744637
C0V850,蚵仔寮,2025-09-19,22.7256,120.2527,0.15456015
C0S740,池上,2025-09-19,23.119628,121.209469,0.9943442
C1V390,尖山,2025-09-19,22.813153,120.367789,0.3317511
C0AH70,松山,2025-09-19,25.04871,121.55042,0.5149327
C0N010,鯤鯓國小,2025-09-19,23.1879,120.0889,0.313247
C0R550,新埤,2025-09-19,22.467947,120.582894,0.99854696
C0SA60,知本（水試所）,2025-09-19,22.702394,121.082761,0.31388304
C0T9I0,豐濱,2025-09-19,23.583897,121.514806,0.98197687
C0UB00,淡江大學蘭陽校園,2025-09-19,24.823239,121.730383,0.99730384
C0W240,九宮,2025-09-19,24.423753,118.240186,0.0027262007
C0T9N0,富里,2025-09-19,23.171639,121.249378,0.9921308
U2HA50,臺大竹山,2025-09-19,23.756972,120.681556,0.5102139
C0V840,鳳鼻頭,2025-09-19,22.5083,120.3591,0.4190809
C0X140,西港,2025-09-19,23.125608,120.203108,0.54988116
72D080,桃改五峰分場,2025-09-19,24.612194,121.157167,2.4352948e-08
C2H9P0,伊拿谷,2025-09-19,23.963211,121.088264,1.5895843e-07
C2K250,崙背,2025-09-19,23.75553,120.31893,0.41534337
C2H9F0,柑林,2025-09-19,24.018658,120.847072,0.9953118
C0TA20,加灣,2025-09-19,24.082025,121.608944,0.4422654
C0V530,阿蓮,2025-09-19,22.883208,120.327508,0.2054321
C0FB30,八仙山苗圃,2025-09-19,24.192719,121.001366,2.6698672e-08
C1O880,關山,2025-09-19,23.173397,120.594092,0.99037296
C0E791,卓蘭,2025-09-19,24.3126,120.8244,0.9532642
C1I030,武界,2025-09-19,23.913225,121.052483,8.2518156e-08
C0R520,崁頂,2025-09-19,22.514781,120.506914,0.9778316
C0R341,牡丹,2025-09-19,22.130036,120.792639,0.9881306
C0R930,萬丹,2025-09-19,22.5885,120.4851,0.88175136
C0S760,紅石,2025-09-19,23.069131,121.126219,3.2908256e-09
C2C410,中央大學,2025-09-19,24.967652,121.185165,0.89466614
C1M610,石磐龍,2025-09-19,23.496606,120.663506,5.2643743e-09
C0C790,東眼山,2025-09-19,24.8284,121.40888,6.3354116e-07
C0UA10,鴛鴦湖,2025-09-19,24.590269,121.412228,1.193055e-08
V2C260,八德蔬果,2025-09-19,24.978508,121.281819,0.740038
C0R800,丹路,2025-09-19,22.204481,120.750989,0.9051302
C0G920,永靖,2025-09-19,23.924703,120.547533,0.47035435
C2M950,太和,2025-09-19,23.538372,120.702961,3.0909846e-09
C1A630,下盆,2025-09-19,24.771003,121.538622,0.99547684
B2N890,畜產試驗所,2025-09-19,23.058972,120.336406,0.5282543
C0UA30,白嶺,2025-09-19,24.527819,121.519031,3.7143426e-09
C1V580,溪南(特生中心),2025-09-19,23.084972,120.788475,5.4638916e-09
C1T970,大農,2025-09-19,23.615233,121.413331,0.9887425
C0R650,竹田,2025-09-19,22.58486,120.54344,0.6358011
C1H900,清流,2025-09-19,24.080775,120.962997,8.978313e-09
C1C510,水尾,2025-09-19,24.940081,121.087161,0.92300725
C2N170,茅港尾,2025-09-19,23.2061,120.2624,0.4004447
C0F9X0,大雅(中科園區),2025-09-19,24.21528,120.62445,0.40836427
C0SB60,白守蓮,2025-09-19,23.126769,121.401914,0.8494099
C0O970,虎頭埤,2025-09-19,23.021375,120.347878,0.4133362
C0C730,中大臨海站,2025-09-19,24.966126,121.008581,0.9546344
C0X250,新營,2025-09-19,23.310689,120.316681,0.5595528
C0V700,三民,2025-09-19,22.645017,120.311233,0.13983734
C0U870,大礁溪,2025-09-19,24.791042,121.675047,0.99862945
C0E870,高鐵苗栗,2025-09-19,24.60725,120.826094,0.8754782
A2K570,古坑花卉中心,2025-09-19,23.63353,120.55239,0.28583187
C0TA30,鹽寮,2025-09-19,23.845606,121.592664,0.20805903
C0M860,新美,2025-09-19,23.338017,120.683169,0.001812759
C1E701,八卦,2025-09-19,24.491756,120.927619,0.0008078488
C2TA90,加納納,2025-09-19,23.466421,121.359867,0.989793
C0I420,國姓,2025-09-19,24.037803,120.855072,0.9952049
C2D720,關西工作站,2025-09-19,24.757275,121.184792,0.98283154
C0S960,香蘭,2025-09-19,22.587569,120.993375,0.3456627
467620,蘭嶼,2025-09-19,22.0369,121.55843,0.06856933
C0R260,春日,2025-09-19,22.370361,120.628306,0.0893637
72G600,臺中農改場,2025-09-19,24.003028,120.534389,0.2045884
C0Z210,瑞穗,2025-09-19,23.5239,121.39021,0.92727906
C0M820,達邦,2025-09-19,23.453994,120.749517,8.775351e-09
C0V860,南寮,2025-09-19,22.7616,120.2339,0.15456015
C0G740,大城,2025-09-19,23.852487,120.320935,0.0020511886
C0R920,塭仔,2025-09-19,22.4169,120.5197,0.07760506
C0R470,高樹,2025-09-19,22.826389,120.600806,0.8064542
C0R680,佳樂水,2025-09-19,21.993578,120.861633,0.1911918
C1O870,大棟山,2025-09-19,23.31157,120.52226,3.2826883e-09
C0D360,梅花,2025-09-19,24.678347,121.208558,0.9923748
C0Z190,富世,2025-09-19,24.14743,121.6297,0.000731745
C0AI10,屈尺,2025-09-19,24.92184,121.54475,0.1940452
B2U990,畜試東區分所,2025-09-19,24.669039,121.832561,0.34933138
C0SB80,長濱漁港,2025-09-19,23.313644,121.459994,0.91127014
C0TA50,和仁,2025-09-19,24.241394,121.712472,0.9899784
C0R240,來義,2025-09-19,22.527306,120.625111,0.14856537
C0V910,大樹,2025-09-19,22.684645,120.432803,0.36654463
C1R610,西大武山,2025-09-19,22.617719,120.7322,2.8988638e-09
C0G900,線西,2025-09-19,24.143358,120.443536,0.59390783
C0M700,竹崎,2025-09-19,23.526178,120.555508,0.8605792
C2E880,三義,2025-09-19,24.405478,120.749819,0.9915606
C0C720,竹圍,2025-09-19,25.112692,121.239824,0.3223638
C0F9P0,清水,2025-09-19,24.312297,120.562242,0.57427555
C0Z150,吉安光華,2025-09-19,23.930925,121.595153,0.26938567
C0FA80,小雪山天池,2025-09-19,24.28025,121.02627,4.124236e-09
467300,東吉島,2025-09-19,23.25727,119.66762,0.9299154
C1D640,外坪(五指山),2025-09-19,24.644447,121.090961,0.09209969
C0F9O0,潭子,2025-09-19,24.213106,120.703933,0.34348676
C2H9R0,卓社,2025-09-19,23.887894,121.000086,7.588222e-09
72T250,花蓮農改場,2025-09-19,23.975222,121.563889,0.07748037
C0E780,銅鑼,2025-09-19,24.489681,120.790853,0.48975495
C1T950,太安,2025-09-19,23.666719,121.370128,2.0665162e-08
C0E830,苑裡,2025-09-19,24.439714,120.653053,0.95077133
467270,田中,2025-09-19,23.873803,120.581286,0.884172
C0SA10,檳榔四格山,2025-09-19,22.810031,121.109308,0.9929621
C1T830,布洛灣,2025-09-19,24.17184,121.57127,0.8975745
C0F970,大坑,2025-09-19,24.173142,120.722289,0.7596085
C1U920,思源,2025-09-19,24.393125,121.347214,4.1787054e-09
C2H9Y0,松茗,2025-09-19,23.8167,120.650765,0.99684924
C0A931,三和,2025-09-19,25.233153,121.595236,0.63422555
C0I010,廬山,2025-09-19,24.033311,121.181808,4.763256e-09
C2M940,日野賀,2025-09-19,23.434056,120.727169,3.955353e-09
C0R860,鼻頭,2025-09-19,22.1043,120.8979,0.92602056
C0UB20,壯圍,2025-09-19,24.7359,121.8163,0.23737852
C0R790,九棚,2025-09-19,22.14195,120.889281,0.97488886
C0W110,東莒,2025-09-19,25.9652,119.98069,0.00538705
C1U930,粉鳥林,2025-09-19,24.497088,121.842479,0.74699825
C1I211,蘆竹湳,2025-09-19,23.934019,120.811994,0.9610323
C0S830,長濱,2025-09-19,23.286817,121.411975,0.99455774
C1F9F1,伯公龍,2025-09-19,24.272392,120.849047,0.9306817
C0UB90,太平山莊,2025-09-19,24.494171,121.536209,3.3155478e-09
C0E810,西湖,2025-09-19,24.562947,120.7485,0.95916516
C1I440,新高口,2025-09-19,23.478744,120.878939,2.7325646e-09
C0O840,王爺宮,2025-09-19,23.222064,120.40085,0.80773103
C0T9G0,鳳林山,2025-09-19,23.735269,121.420131,0.6656824
C0X080,佳里,2025-09-19,23.173039,120.145086,0.313247
C0FB70,大甲溪埔,2025-09-19,24.370625,120.620067,0.8115506
C0Z310,清水斷崖,2025-09-19,24.218294,121.689142,0.93972486
C0M680,太保,2025-09-19,23.455062,120.331455,0.64347845
C1S820,金峰,2025-09-19,22.590969,120.933236,0.2085181
C0AD10,八里,2025-09-19,25.150211,121.403947,0.3223638
C2K240,草嶺,2025-09-19,23.59555,120.693461,8.2855625e-09
C1SA70,都蘭,2025-09-19,22.87794,121.226881,0.8838853
C0K440,二崙,2025-09-19,23.772797,120.408944,0.506134
C1A760,坪林交控,2025-09-19,24.94284,121.713442,0.99396056
C0F9N0,大里,2025-09-19,24.092464,120.701378,0.83958536
C0SA90,達仁林場,2025-09-19,22.264347,120.823972,0.99887794
C1R290,石門山,2025-09-19,22.112611,120.756597,0.9970725
42HA10,萬大發電廠,2025-09-19,23.978875,121.139639,5.58304e-09
C0R890,山海,2025-09-19,21.9878,120.7091,0.11464313
C0T9A0,月眉山,2025-09-19,23.809928,121.539828,0.9969119
C0AC70,信義,2025-09-19,25.037822,121.564597,0.5149327
C0K560,棋山,2025-09-19,23.68645,120.603417,0.2957119
C2FB50,出雲,2025-09-19,24.206469,120.902794,8.74374e-09
C1Z240,中平林道,2025-09-19,23.42115,121.26763,2.9089664e-09
U2H480,溪頭,2025-09-19,23.670306,120.798194,9.591734e-09
C0M880,好美里,2025-09-19,23.3364,120.138,0.4493325
C0T9E0,大坑,2025-09-19,23.880628,121.581981,0.96662587
C0K530,臺西,2025-09-19,23.701547,120.197559,0.6479398
C1E900,國一N128K,2025-09-19,24.560997,120.844186,0.8050373
C0AJ50,水湳洞,2025-09-19,25.123695,121.862238,0.42295375
C0AI20,白沙灣,2025-09-19,25.283128,121.519058,0.16988917
C2V310,美濃,2025-09-19,22.898792,120.51907,0.7065389
C0A860,大坪,2025-09-19,25.165914,121.632969,0.96777004
C1U850,觀音海岸,2025-09-19,24.38319,121.77856,0.008585952
C2K610,草嶺石壁,2025-09-19,23.602469,120.707731,7.382373e-09
C0U950,鶯子嶺,2025-09-19,24.89754,121.79244,1.2964911e-05
C0O900,善化,2025-09-19,23.112883,120.297219,0.47687927
C0K550,蔦松,2025-09-19,23.514319,120.229736,0.3798408
E2P980,林試六龜中心,2025-09-19,22.991703,120.645722,0.9960359
C0E590,通霄,2025-09-19,24.471892,120.704622,0.0024677364
C1I310,西巒,2025-09-19,23.754486,120.883956,3.8290356e-08
C0A550,泰平,2025-09-19,24.971197,121.823711,0.99673593
C0I360,水里,2025-09-19,23.812553,120.849792,0.9894213
C0R830,高士,2025-09-19,22.121825,120.836781,0.99792504
C1I101,溪頭,2025-09-19,23.661789,120.807647,9.725293e-09
C0AJ20,野柳,2025-09-19,25.20703,121.690021,0.21708296
C0B060,暖暖,2025-09-19,25.0957,121.7403,0.39877668
C1H920,長豐,2025-09-19,24.102039,120.879897,1.7145007e-07
C0V360,內門,2025-09-19,22.975481,120.466769,0.1151469
C0R850,林邊,2025-09-19,22.4634,120.5339,0.99870247
C0E930,龍鳳,2025-09-19,24.700034,120.859125,0.99553746
C0U910,冬山,2025-09-19,24.63373,121.7937,0.34933138
C1E721,泰安,2025-09-19,24.489017,120.968036,9.3846015e-09
82H320,茶改中部分場,2025-09-19,23.875611,120.913583,3.749508e-06
C0M750,布袋,2025-09-19,23.380878,120.167789,0.38949436
C1S860,利嘉,2025-09-19,22.809417,121.050528,0.0025395139
E2S980,林試太麻里1,2025-09-19,22.598922,120.980044,0.28938493
C0X170,關廟,2025-09-19,22.963017,120.327797,0.23884839
C0V720,林園,2025-09-19,22.507747,120.394511,0.4353479
C1I510,線浸林道,2025-09-19,23.761508,120.832956,4.767455e-09
C0D690,外湖,2025-09-19,24.917735,120.968711,0.8044882
C0C750,新興坑尾,2025-09-19,25.0061,121.0971,0.986715
B2Q810,畜試南區分所,2025-09-19,21.945583,120.802167,0.18773986
C0S790,金崙,2025-09-19,22.538122,120.966875,0.24179569
C0AH90,福山植物園,2025-09-19,24.760717,121.58135,0.43760687
C0I540,奇萊稜線,2025-09-19,24.109231,121.326456,9.26784e-09
C0M850,表湖,2025-09-19,23.24186,120.64166,0.00013964606
C0S770,大溪山,2025-09-19,22.478475,120.943325,0.7176676
C0AG80,中和,2025-09-19,24.991622,121.491792,0.25789496
C0T790,大禹嶺,2025-09-19,24.186117,121.316086,2.5541722e-09
C0T9B0,水源,2025-09-19,23.991861,121.537169,0.98010427
C0R840,牡丹池山,2025-09-19,22.168389,120.841225,0.99896634
C1I131,桶頭,2025-09-19,23.641944,120.654117,0.85192096
CAL110,布袋國中,2025-09-19,23.35893,120.18026,0.38949436
467571,新竹,2025-09-19,24.827853,121.014219,0.85374236
C0Z290,赤柯山,2025-09-19,23.36893,121.38293,5.848075e-09
C0X280,將軍,2025-09-19,23.214999,120.13577,0.33290818
C0S690,太麻里,2025-09-19,22.60902,120.98533,0.49856865
C0U880,北關,2025-09-19,24.9072,121.8734,0.97877246
CAW010,東引,2025-09-19,26.3588,120.4836,0.0068506943
C0G810,埔心,2025-09-19,23.947633,120.525456,0.47035435
C0U970,大福,2025-09-19,24.80064,121.81389,0.17715445
C2H9N0,仁愛東眼,2025-09-19,24.026875,121.1205,5.151634e-09
C1E670,南礦,2025-09-19,24.538278,121.002836,3.9266332e-08
C0M520,東後寮,2025-09-19,23.369908,120.248065,0.40345424
C1E461,松安,2025-09-19,24.397972,120.986022,9.36779e-09
C2N160,西拉雅風管處,2025-09-19,23.189481,120.335297,0.434587
C2M970,碧湖,2025-09-19,23.568632,120.624165,1.603607e-08
C0A640,石碇,2025-09-19,24.993969,121.662917,0.69181055
E2S960,林試太麻里2,2025-09-19,22.598,120.99775,0.3458632
C0F9Y0,桃山,2025-09-19,24.432739,121.303808,7.679032e-09
C1I020,萬大,2025-09-19,23.979817,121.132261,1.0635809e-08
C2UC20,長嶺,2025-09-19,24.70894,121.61162,0.99086946
C0U940,羅東,2025-09-19,24.68184,121.74934,0.25423464
C0M650,朴子,2025-09-19,23.43463,120.23902,0.5381823
C1I500,大尖山,2025-09-19,23.858572,120.994889,5.8241976e-09
C0FB40,中橫21.6k,2025-09-19,24.2499,121.1455,4.5657575e-09
C0G820,田尾,2025-09-19,23.901669,120.509389,0.47035435
E2K600,四湖植物園,2025-09-19,23.676986,120.163433,0.60427886
C0S730,綠島,2025-09-19,22.6672,121.47533,0.008518135
12Q970,東港工作站,2025-09-19,22.479997,120.466058,0.99877626
C0E430,南庄,2025-09-19,24.601775,121.000214,0.98983
C1TA00,太魯閣,2025-09-19,24.15773,121.6236,0.0003374181
466920,臺北,2025-09-19,25.037658,121.514853,0.5149327
C0R600,舊泰武,2025-09-19,22.588194,120.664944,0.0002703178
C1I260,北坑,2025-09-19,23.9246,121.006903,0.7532609
466910,鞍部,2025-09-19,25.182586,121.529731,1.9136289e-05
C1I230,九份二山,2025-09-19,23.961944,120.845,1.0943829e-06
C2A660,瑞芳,2025-09-19,25.113169,121.801147,0.62478065
C0R270,琉球嶼,2025-09-19,22.332244,120.362236,0.0034303782
C1T990,高寮,2025-09-19,23.394239,121.356808,0.951575
C0G620,芬園,2025-09-19,24.015678,120.6213,0.86368513
C1Z140,荖溪,2025-09-19,23.890575,121.45964,1.4588341e-08
C1I201,中心崙,2025-09-19,23.728722,120.712097,0.062604785
C1I400,凌霄,2025-09-19,24.018778,121.004456,5.2782188e-09
C1M640,十字,2025-09-19,23.492153,120.753683,3.630072e-09
G2P820,農試鳳山分所,2025-09-19,22.646611,120.356083,0.14466636
C0Z270,蕃薯寮,2025-09-19,23.73835,121.540108,0.9845195
C0FB10,出雲山苗圃,2025-09-19,24.23105,120.90475,1.8836563e-08
C0F9Q0,外埔,2025-09-19,24.347817,120.705686,0.47132748
C0K580,高鐵雲林,2025-09-19,23.737456,120.417944,0.46937686
C2I090,鳳凰,2025-09-19,23.728081,120.787347,7.862067e-08
C0U990,員山,2025-09-19,24.74435,121.72247,0.24735314
C0V770,大社,2025-09-19,22.730306,120.346639,0.16304316
C0X120,麻豆,2025-09-19,23.183289,120.248611,0.592203
C0C670,龍潭,2025-09-19,24.870056,121.221389,0.9490602
C0D680,香山濕地,2025-09-19,24.783581,120.914988,0.93658316
C0S980,勝林山,2025-09-19,22.430439,120.8938,0.009889726
C0V730,大寮,2025-09-19,22.605614,120.395717,0.25790796
C0R570,麟洛,2025-09-19,22.65078,120.52719,0.844426
C2M930,石卓,2025-09-19,23.478744,120.702264,4.2995265e-09
C0G9B0,和美,2025-09-19,24.105169,120.492131,0.59574723
CAG100,王功漁港,2025-09-19,23.96824,120.32586,0.00018343356
C0X290,北門,2025-09-19,23.267772,120.125481,0.33282426
C2F930,大甲,2025-09-19,24.347667,120.640403,0.9175415
C0D650,湖口,2025-09-19,24.904794,121.043628,0.9172507
C0E420,竹南,2025-09-19,24.708978,120.888897,0.99754155
C0U780,五結,2025-09-19,24.68637,121.79794,0.2373786
C1I250,鯉潭,2025-09-19,23.961922,120.991131,0.00038883768
C0R130,阿禮,2025-09-19,22.742908,120.743678,8.480043e-09
C0X100,臺南市北區,2025-09-19,23.010394,120.194228,0.42664513
C0S920,金峰嘉蘭,2025-09-19,22.594789,120.960825,0.2826777
C0V490,新興,2025-09-19,22.627422,120.298803,0.2460129
C0F9K0,大安,2025-09-19,24.345061,120.588025,0.80194634
467290,古坑,2025-09-19,23.633639,120.551889,0.28583187
C2E970,八甲,2025-09-19,24.535811,120.795983,0.95511216
C0V440,鳳山,2025-09-19,22.646653,120.356122,0.14466636
C1T940,大觀,2025-09-19,23.714206,121.373133,0.9855093
C0E740,造橋,2025-09-19,24.637056,120.864778,0.8754782
C0R100,尾寮山,2025-09-19,22.833111,120.683889,3.858013e-09
A2K630,臺大雲林校區,2025-09-19,23.730628,120.423903,0.46937686
467990,馬祖,2025-09-19,26.169467,119.923158,0.017904343
C0D580,寶山,2025-09-19,24.735006,121.025192,0.8660263
E2P990,林試扇平站,2025-09-19,22.9677,120.6857,0.00014843442
C0AI30,三重,2025-09-19,25.057328,121.500629,0.49554816
C0AH00,汐止,2025-09-19,25.066881,121.658778,0.5149327
C1Z040,立山,2025-09-19,23.443356,121.327375,0.90391594
466881,新北,2025-09-19,24.959207,121.525196,0.25934622
C0W130,花嶼,2025-09-19,23.40007,119.32276,0.06168769
C0A950,鼻頭角,2025-09-19,25.129036,121.923372,0.2010184
C0K470,林內,2025-09-19,23.748675,120.609642,0.4215683
C2F990,摩天嶺,2025-09-19,24.322458,120.936819,5.0265527e-08
82C160,茶改場,2025-09-19,24.908472,121.185333,0.99310124
C0Z320,清水林道,2025-09-19,23.27125,121.188272,2.2665998e-05
C0R760,南仁湖,2025-09-19,22.084681,120.863353,0.9970725
C0M670,大林,2025-09-19,23.600616,120.45841,0.7502841
C0M800,茶山,2025-09-19,23.299075,120.664767,0.29169685
C0A9C0,天母,2025-09-19,25.117494,121.537169,0.32669705
72K220,南改斗南分場,2025-09-19,23.634556,120.477333,0.7220121
72AI40,桃改樹林分場,2025-09-19,24.944503,121.386972,0.56027645
C0S910,蘭嶼燈塔,2025-09-19,22.081197,121.503117,0.03341181
C0B050,八斗子,2025-09-19,25.144754,121.79167,0.374033
C0U900,內城,2025-09-19,24.71813,121.68766,0.2918921
C0X320,柳營,2025-09-19,23.253328,120.375253,0.53598845
C0M790,新港,2025-09-19,23.553269,120.345728,0.7273893
C0F9T0,西屯,2025-09-19,24.179494,120.641275,0.2710374
C0E950,松安,2025-09-19,24.39792,120.98599,9.36779e-09
C0SA30,都歷,2025-09-19,23.020333,121.323642,0.98107564
C0C620,蘆竹,2025-09-19,25.084275,121.265767,0.3997507
C0R730,大坪頂,2025-09-19,22.024633,120.69355,0.89904785
C0AJ40,石門,2025-09-19,25.273672,121.601198,0.13352126
C0E750,苗栗,2025-09-19,24.564569,120.824575,0.7806691
C0T870,鯉魚潭,2025-09-19,23.935639,121.508944,0.39332023
C1V170,排雲,2025-09-19,23.463619,120.954147,1.0987626e-08
C2H950,中寮,2025-09-19,23.884447,120.766406,0.96665806
C0R350,貓鼻頭,2025-09-19,21.921774,120.7358,0.04655476
C0V660,岡山,2025-09-19,22.797078,120.294958,0.37326688
C1H941,雙冬,2025-09-19,23.967378,120.802189,0.562083
C0AJ70,田寮,2025-09-19,25.2698,121.4886,0.1686115
C0AI00,五股,2025-09-19,25.07445,121.42728,0.7428661
C0Z280,德武,2025-09-19,23.47426,121.41071,0.988432
C2RA10,大新,2025-09-19,22.67558,120.57788,0.33883306
C0R700,枋山,2025-09-19,22.246844,120.661086,0.14825231
C0C460,復興,2025-09-19,24.820208,121.352281,0.9739677
C2K300,鹿南,2025-09-19,23.63855,120.3636,0.5020681
E2H360,蓮華池,2025-09-19,23.918333,120.885278,0.041328862
C0M640,中埔,2025-09-19,23.42538,120.5229,0.9572427
C0W140,金沙,2025-09-19,24.488292,118.408778,0.00018983323
C2A540,四堵,2025-09-19,24.8926,121.745736,0.9707143
C0ACA0,新莊,2025-09-19,25.051478,121.446756,0.31625658
C0R220,潮州,2025-09-19,22.534361,120.54,0.975136
U2HA40,臺大內茅埔,2025-09-19,23.689722,120.851117,0.9887654
467490,臺中,2025-09-19,24.145736,120.684075,0.5219755
C0UB60,明池,2025-09-19,24.650688,121.475277,2.9238869e-08
C0U960,翠峰湖,2025-09-19,24.510856,121.608044,2.7792835e-09
E2HA20,林試畢祿溪站,2025-09-19,24.226944,121.308522,2.262638e-09
C0V890,前鎮,2025-09-19,22.5718,120.3117,0.23731482
C1F941,雪嶺,2025-09-19,24.280586,121.026642,4.124236e-09
C2H9E0,國姓南港,2025-09-19,23.911108,120.846556,6.4493695e-09
C0AC80,文山,2025-09-19,25.00235,121.575728,0.2658499
C0F9R0,龍井,2025-09-19,24.184536,120.528972,0.6530514
C0M760,民雄,2025-09-19,23.551754,120.428457,0.7143105
C0UA40,西德山,2025-09-19,24.560647,121.752608,5.9254353e-09
C2TA70,赤科坪,2025-09-19,23.39885,121.39168,1.03249125e-08
C1T920,中興,2025-09-19,23.769503,121.498653,0.87931174
C0D550,雪霸,2025-09-19,24.526972,121.11605,8.710532e-09
C2F860,梨山,2025-09-19,24.247522,121.243669,2.3309115e-09
C0R320,車城,2025-09-19,22.0744,120.716247,0.256005
C1S870,南美山,2025-09-19,23.15025,121.382333,0.99180526
C0B020,基隆嶼,2025-09-19,25.19141,121.78391,0.4415703
C1U501,牛鬥,2025-09-19,24.637836,121.573656,0.89874834
C0M730,嘉義市東區,2025-09-19,23.457673,120.460531,0.7935401
C2R990,泰武,2025-09-19,22.60686,120.69765,6.363445e-09
C0S700,知本,2025-09-19,22.684866,121.005642,0.75145006
C1N001,沙崙,2025-09-19,22.935472,120.309406,0.23187155
C0V760,橋頭,2025-09-19,22.757806,120.30575,0.15761724
C0G960,福寶,2025-09-19,24.0443,120.3814,0.58447564
C0X210,白河,2025-09-19,23.347466,120.414427,0.477553
C0S810,東河,2025-09-19,22.972672,121.303986,0.9622454
C2R170,屏東,2025-09-19,22.66027,120.49403,0.8443118
C0R670,楓港,2025-09-19,22.190131,120.692156,0.7319821
C0FA50,霧峰,2025-09-19,24.0419,120.6995,0.80452734
C0UB10,蘇澳,2025-09-19,24.5969,121.8571,0.96076393
C0G950,防潮門,2025-09-19,24.1835,120.4871,0.6530514
C0M740,六腳,2025-09-19,23.492871,120.290625,0.73968685
C1R250,力里,2025-09-19,22.428117,120.629228,0.21754755
C0K330,虎尾,2025-09-19,23.719183,120.442036,0.48822224
C2FA00,烏石坑,2025-09-19,24.273503,120.947617,6.123451e-08
C0V620,永安,2025-09-19,22.82315,120.236856,0.37319484
C1I330,楓樹林,2025-09-19,23.986803,121.076117,7.461805e-09
C0W200,湖西,2025-09-19,23.596314,119.67275,0.45051405
72Q010,高雄農改場,2025-09-19,22.709333,120.525889,0.7479048
C0SA40,瑞和,2025-09-19,22.974361,121.156697,0.9961592
C0C680,龜山,2025-09-19,25.02846,121.38656,0.89499944
C2V260,月眉,2025-09-19,22.971003,120.539853,0.916688
C0V450,鳳森,2025-09-19,22.545064,120.392592,0.56009835
C0FA90,小雪山林道,2025-09-19,24.29515,121.03651,6.107142e-09
C0U720,南山,2025-09-19,24.43742,121.38167,3.230022e-08
A2N290,臺南蘭花園區,2025-09-19,23.340258,120.379661,0.46924847
C0R560,新園,2025-09-19,22.5434,120.461558,0.4353479
C0U890,三星,2025-09-19,24.66812,121.65302,0.9340164
C1V300,御油山,2025-09-19,23.001983,120.715364,5.269769e-09
C0U600,礁溪,2025-09-19,24.817539,121.765608,0.24191189
C1T980,龍澗,2025-09-19,24.023289,121.411328,4.8431503e-09
C0D670,海天一線,2025-09-19,24.831986,120.914438,0.0002000133
C0SA00,歷坵,2025-09-19,22.520969,120.89185,0.806525
C0M710,東石,2025-09-19,23.458927,120.15385,0.735895
C0M780,鹿草,2025-09-19,23.41134,120.30835,0.5546485
C0U520,雙連埤,2025-09-19,24.753033,121.641303,0.9985062
C0B010,七堵,2025-09-19,25.094819,121.71713,0.31641605
C0R480,長治,2025-09-19,22.693128,120.542622,0.40691337
C1V830,國三S383K,2025-09-19,22.781967,120.426475,0.97545147
12Q980,恆春工作站,2025-09-19,22.079678,120.714425,0.256005
C1O940,東山服務區,2025-09-19,23.286016,120.398472,0.53721553
C1U840,東澳嶺,2025-09-19,24.5378,121.8485,8.8658046e-05
C1D630,飛鳳山,2025-09-19,24.766464,121.119178,0.9961765
C0S940,石寧山,2025-09-19,23.223772,121.406639,0.8855208
C0K410,北港,2025-09-19,23.573957,120.292802,0.46269828
C2M620,瑞里,2025-09-19,23.545133,120.675197,3.484314e-09
C0SB70,小港漁港,2025-09-19,23.158558,121.400431,0.8489615
C2O950,安南,2025-09-19,23.076694,120.144861,0.2577827
C0F0E0,南湖圈谷,2025-09-19,24.363714,121.444667,1.614958e-08
467610,成功,2025-09-19,23.097486,121.373428,0.9039602
C0G890,伸港,2025-09-19,24.148933,120.484403,0.5901279
C2E540,龍溪,2025-09-19,24.606489,120.783933,0.85859674
C1V200,梅山,2025-09-19,23.268447,120.823556,7.840174e-08
C0T9H0,加路蘭山,2025-09-19,23.682947,121.5274,0.007165974
C2O930,玉井,2025-09-19,23.126042,120.46055,0.4178094
C1F911,新伯公,2025-09-19,24.221361,120.841069,0.8964875
C0R490,九如,2025-09-19,22.7405,120.490503,0.71619153
C0X200,左鎮,2025-09-19,23.056758,120.408522,0.4024973
C0FA60,鞍馬山工作站,2025-09-19,24.267064,121.000793,6.25871e-09
C0SB50,叭嗡嗡,2025-09-19,23.047062,121.343223,0.96573555
C1F891,稍來,2025-09-19,24.265689,121.001142,6.0066827e-09
72N240,七股研究中心,2025-09-19,23.081672,120.062894,0.25111884
C0C700,中壢,2025-09-19,24.977661,121.256375,0.80593616
C0M690,水上,2025-09-19,23.419734,120.388909,0.6621253
C0V690,鼓山,2025-09-19,22.623325,120.275575,0.2460129
C0O860,大內,2025-09-19,23.11885,120.36083,0.5126611
C0Z200,萬榮,2025-09-19,23.709219,121.420106,0.6288247
C0T9D0,和中,2025-09-19,24.26676,121.74103,0.5899043
C1O921,楠西,2025-09-19,23.183511,120.484083,0.43994078
C0AJ30,淡水觀海,2025-09-19,25.184591,121.408616,0.1119553
C0V810,左營,2025-09-19,22.67491,120.28491,0.13997376
C0UA70,桃源谷,2025-09-19,24.962606,121.888875,0.9919777
C0X130,官田,2025-09-19,23.193217,120.315422,0.42460755
C1H000,翠峰,2025-09-19,24.109397,121.205211,3.4072374e-09
C0UA90,石城,2025-09-19,24.980444,121.951214,0.9893183
C1E681,南勢山,2025-09-19,24.421669,120.923831,4.2087752e-08
C0A9F0,內湖,2025-09-19,25.079422,121.57545,0.5149327
C0K291,宜梧,2025-09-19,23.536281,120.169329,0.3796707
C1K540,口湖,2025-09-19,23.585344,120.180517,0.6570737
C0R780,滿州,2025-09-19,22.024403,120.839892,0.46023577
C0V870,文安,2025-09-19,22.8025,120.2164,0.3695674
C0U650,玉蘭,2025-09-19,24.675286,121.587061,0.99032736
C0R640,東港,2025-09-19,22.46247,120.44074,0.99877626
C0AJ80,板橋,2025-09-19,25.0107,121.4489,0.25574657
C0S660,下馬,2025-09-19,23.150427,121.070312,2.1031347e-08
C1H9B1,阿眉,2025-09-19,24.1263,120.994672,2.963468e-09
C0UA20,多加屯,2025-09-19,24.368614,121.373189,2.1756217e-09
C0E730,頭份,2025-09-19,24.688247,120.912206,0.9972653
72V140,高改旗南分場,2025-09-19,22.857861,120.516667,0.7065389
C0K480,莿桐,2025-09-19,23.761192,120.502372,0.5148733
C0U980,坪林石牌,2025-09-19,24.86478,121.77396,0.99845237
C0T900,西林,2025-09-19,23.8119,121.441458,0.980245
C1I150,青雲,2025-09-19,23.793361,120.949378,0.992795
C2E980,和興,2025-09-19,24.505319,120.923016,0.11454568
467350,澎湖,2025-09-19,23.565503,119.563094,0.0664264
C0G800,埔鹽,2025-09-19,24.000394,120.431683,0.49368948
C0H960,草屯,2025-09-19,23.973672,120.68085,0.8567689
C1V780,多納林道,2025-09-19,22.888028,120.737917,6.4745254e-09
C0E920,通霄漁港,2025-09-19,24.498589,120.673876,0.0029138748
C0Z330,安通山,2025-09-19,23.290728,121.348528,0.9991411
C0AH10,永和,2025-09-19,25.01125,121.508111,0.2556446
C0AK10,太平里,2025-09-19,25.134937,121.364899,0.3302459
C2G640,鹿港,2025-09-19,24.0753,120.430481,0.5844758
C1E890,國三N149K,2025-09-19,24.463414,120.680019,0.9700946
C1R110,口社,2025-09-19,22.770111,120.645222,0.19122642
C1M870,國三N285K,2025-09-19,23.550319,120.505833,0.6099578
C1E480,鳳美,2025-09-19,24.554803,121.034747,0.998396
C0M530,奮起湖,2025-09-19,23.493903,120.699253,3.0879852e-09
C0C590,觀音,2025-09-19,25.027072,121.153317,0.9903884
C0T9M0,靜浦,2025-09-19,23.455167,121.495028,0.97659844
C2H9M0,發祥,2025-09-19,24.154094,121.164517,3.844695e-09
C0AI40,石牌,2025-09-19,25.115597,121.513139,0.30830008
C1F871,上谷關,2025-09-19,24.203483,121.018644,1.4594214e-08
C2H9G0,百勝,2025-09-19,24.051142,120.909361,0.005607736
C0G880,二水,2025-09-19,23.810742,120.6173,0.35533035
C0R940,加祿堂,2025-09-19,22.3363,120.6217,0.54272884
C0W220,北竿,2025-09-19,26.220358,119.974881,0.0024866338
C0O960,崎頂,2025-09-19,22.959547,120.369317,0.32043573
C0TA40,秀林,2025-09-19,24.302864,121.731144,1.9403966e-07
C0S750,向陽,2025-09-19,23.248397,120.986133,1.5722057e-09
C0T9F0,水璉,2025-09-19,23.797131,121.542514,0.9957085
C1M600,頭凍,2025-09-19,23.406364,120.603339,1.3826567e-08
467660,臺東,2025-09-19,22.752211,121.154586,0.9303232
C1D380,新埔,2025-09-19,24.84745,121.03834,0.93366873
C2G980,田頭村,2025-09-19,23.8263,120.444175,0.506134
C0V750,路竹,2025-09-19,22.854997,120.259439,0.2426988
C0N050,蚵寮,2025-09-19,23.301,120.1104,0.4493325
C2X060,下營,2025-09-19,23.226806,120.256291,0.4004447
72M700,南改鹿草分場,2025-09-19,23.416869,120.283061,0.5382325
C1SA50,利嘉林道,2025-09-19,22.82325,121.009389,4.202839e-08
C0UB70,太平山中間站,2025-09-19,24.542003,121.513453,5.690672e-07
C0A940,金山,2025-09-19,25.223628,121.643967,0.2300375
C1V340,大津,2025-09-19,22.888322,120.645986,0.79399216
C0W180,七美,2025-09-19,23.219333,119.444892,0.7917551
C1F9C1,白冷,2025-09-19,24.182844,120.929889,0.3088669
K2E710,苗改生物防治研究中心,2025-09-19,24.422861,120.871833,0.9859266
C0N040,蘆竹溝,2025-09-19,23.2344,120.0961,0.33282426
C0TB40,崇德,2025-09-19,24.166144,121.657414,0.0013741788
C0D760,大坪苗圃,2025-09-19,24.5362,121.1108,1.5319246e-08
C2W230,畜試所澎湖,2025-09-19,23.628342,119.513206,0.12035633
C0R880,後壁湖,2025-09-19,21.9457,120.7457,0.113865145
C1I280,埔中,2025-09-19,23.820778,120.642594,0.996849
467790,墾丁雷達站,2025-09-19,21.948235,120.808028,0.21575682
C0W190,望安,2025-09-19,23.380564,119.494075,0.65243655
C0Z170,卓溪,2025-09-19,23.3443,121.3029,0.986636
C0F850,東勢,2025-09-19,24.246428,120.833047,0.9609466
466900,淡水,2025-09-19,25.164889,121.448906,0.3302459
C0I370,魚池,2025-09-19,23.895703,120.94135,0.030974535
C0C630,大溪,2025-09-19,24.882853,121.265547,0.9114338
C0A520,山佳,2025-09-19,24.974944,121.402008,0.37011343
C0I110,竹山,2025-09-19,23.761225,120.688156,0.49653456
82H840,茶改南部分場,2025-09-19,23.762528,120.7405,0.9969739
C0G660,溪湖,2025-09-19,23.94835,120.479122,0.43989918
C1T800,洛韶,2025-09-19,24.204558,121.453956,5.98806e-09
C1T810,慈恩,2025-09-19,24.192044,121.388386,2.6201594e-09
C1E451,象鼻,2025-09-19,24.368617,120.940228,3.0704052e-06
C0AC60,三峽,2025-09-19,24.939025,121.369728,0.60339975
C0I490,萬大林道,2025-09-19,23.928228,121.091411,5.435121e-09
C1I290,豐丘,2025-09-19,23.668178,120.887417,7.617035e-09
C1I320,奧萬大,2025-09-19,23.952956,121.178556,9.1825365e-09
C2M910,嘉義大學,2025-09-19,23.471325,120.485903,0.8724702
C0U770,南澳,2025-09-19,24.44935,121.81022,0.6747249
C2TB30,吉安,2025-09-19,23.94538,121.54803,0.29810053
C0A980,社子,2025-09-19,25.109508,121.469681,0.31218442
C0V800,六龜,2025-09-19,22.997889,120.633583,0.99508214
C1G9D0,國一S218K,2025-09-19,23.890641,120.493253,0.6130237
C0E570,白沙屯,2025-09-19,24.549447,120.696803,0.9483325
C2F9A0,中竹林,2025-09-19,24.103556,120.751061,0.9942994
C0FA40,臺中電廠,2025-09-19,24.2146,120.4907,0.6530514
C2G9A0,畜試所彰化,2025-09-19,23.86045,120.557964,0.884172
C0H9C0,合歡山,2025-09-19,24.143442,121.272547,6.6492483e-09
C0X060,下營,2025-09-19,23.22695,120.256261,0.4004447
G2M350,農試溪口農場,2025-09-19,23.58565,120.408111,0.6929058
C0U860,頭城,2025-09-19,24.85323,121.8308,0.2232405
C0R580,南州,2025-09-19,22.48591,120.50274,0.99877626
C0D430,峨眉,2025-09-19,24.6905,121.017189,0.91265213
C0G780,秀水,2025-09-19,24.03405,120.503869,0.2045884
72N100,臺南農改場,2025-09-19,23.0605,120.342194,0.5282543
C0S900,蘭嶼高中,2025-09-19,22.04909,121.51214,0.06587462
C2TA60,六十石,2025-09-19,23.22477,121.31861,6.0696332e-09
C1F9W0,德基,2025-09-19,24.254783,121.190261,4.970662e-09
C2M980,安和,2025-09-19,23.51377,120.31593,0.7602904
C1Z120,壽豐,2025-09-19,23.870853,121.508081,0.23409797
C0W160,烏坵,2025-09-19,24.9944,119.44956,0.0035555467
C1I240,外大坪,2025-09-19,23.958697,120.917931,0.00012445681
C1I550,國六W023K,2025-09-19,23.979067,120.867742,0.95002395
C0R870,興海,2025-09-19,21.9752,120.8439,0.18773986
C0R140,瑪家,2025-09-19,22.682903,120.686639,0.0034126104
C0A530,坪林,2025-09-19,24.938183,121.70975,0.99112713
C0X260,後壁,2025-09-19,23.366358,120.362326,0.46869624
C0Z230,和平,2025-09-19,24.30717,121.77007,0.57663
C0G770,福興,2025-09-19,24.041289,120.437669,0.49368948
C0H9A0,神木村,2025-09-19,23.532742,120.843667,3.6339929e-09
C0I460,南投,2025-09-19,23.911469,120.687331,0.98609656
C0I480,梅峰,2025-09-19,24.085272,121.173572,2.106944e-09
C1V570,吉東,2025-09-19,22.85422,120.5454,0.7932631
C2D740,屯原,2025-09-19,24.067969,121.209389,1.9009474e-09
C2A560,福山,2025-09-19,24.776203,121.502811,0.9593272
C0AH30,五分山,2025-09-19,25.07125,121.780794,0.00043436544
C0FA10,松柏,2025-09-19,24.429115,120.617482,0.93973285
72S200,東改班鳩分場,2025-09-19,22.829528,121.077694,0.93301
72HA00,中改埔里分場,2025-09-19,23.903208,120.963364,0.2709075
C2H9W0,大坪頂農水,2025-09-19,24.043122,120.932781,1.4241728e-07
C0C650,平鎮,2025-09-19,24.897503,121.214636,0.9394355
C0S930,延平,2025-09-19,22.902581,121.084058,0.9772016
C0UA60,樟樹山,2025-09-19,24.41393,121.78325,0.6539751
C2UC10,出水溪,2025-09-19,24.615822,121.652253,0.3378172
C1S670,摩天,2025-09-19,23.199503,121.027,2.549733e-09
C0V630,茄萣,2025-09-19,22.906642,120.182608,0.22984089
466940,基隆,2025-09-19,25.133314,121.740475,0.39222804
C0X050,東河,2025-09-19,23.296598,120.385608,0.49392706
C0R770,保力,2025-09-19,22.071122,120.764111,0.7066896
G2L020,農試嘉義分所,2025-09-19,23.485028,120.473806,0.6517286
C0X240,關子嶺,2025-09-19,23.331169,120.508025,0.9729924
C0I380,集集,2025-09-19,23.828206,120.801467,0.9872977
466990,花蓮,2025-09-19,23.975128,121.613275,0.0749905
C1V220,小關山,2025-09-19,23.154217,120.813603,4.077976e-09
C1F9G1,慶福山,2025-09-19,24.180853,120.848378,4.909935e-08
C0FB20,雪山橋,2025-09-19,24.23192,120.9786,2.69972e-09
C0Z250,瑞穗林道,2025-09-19,23.49284,121.30688,1.4917328e-08
C0D590,新豐,2025-09-19,24.87068,120.97721,8.4124535e-05
C0A870,五指山,2025-09-19,25.132153,121.608692,0.94617254
C0UA50,西帽山,2025-09-19,24.555361,121.802628,3.7477598e-06
C2R980,竹田國中,2025-09-19,22.61532,120.52412,0.6356811
C0X160,仁德,2025-09-19,22.968258,120.257689,0.26355067
C1H971,六分寮,2025-09-19,23.92507,120.6378,0.99675924
C0W120,西嶼,2025-09-19,23.5626,119.468436,0.03592459
C0G650,員林,2025-09-19,23.946503,120.585597,0.8360252
C0AD50,鶯歌,2025-09-19,24.951533,121.346294,0.68094176
C2H9Q0,北東眼山,2025-09-19,24.120939,121.189303,2.9996359e-09
C2H9T0,名間竹圍,2025-09-19,23.859914,120.637572,0.978914
C0S990,山豬窟,2025-09-19,22.318619,120.857372,0.99719155
C0X190,安平,2025-09-19,22.993161,120.152181,0.42664513
C0K400,斗六,2025-09-19,23.720583,120.541127,0.39151648
12J990,口湖工作站,2025-09-19,23.589978,120.180394,0.65754265
C0O830,北寮,2025-09-19,23.079561,120.495008,0.157252
C1D410,白蘭,2025-09-19,24.579364,121.079947,2.2491456e-08
C0S970,加津林,2025-09-19,22.416211,120.926942,0.92957664
C0D700,關西,2025-09-19,24.7977,121.1732,0.9786897
C0M810,里佳,2025-09-19,23.389125,120.716647,3.739293e-09
C0U750,龜山島,2025-09-19,24.841667,121.953133,0.317332
C0R810,內獅,2025-09-19,22.305064,120.642986,0.5282463
C1M390,龍美,2025-09-19,23.406728,120.654417,5.9985767e-09
C2K290,崙內,2025-09-19,23.69525,120.35601,0.41534337
C2FB60,頭櫃山,2025-09-19,24.129842,120.858925,3.261494e-09
C1H840,國三N238K,2025-09-19,23.841008,120.707711,0.97815216
CAQ030,崎峰國小,2025-09-19,22.42565,120.49521,0.99877626
C2E520,大湖,2025-09-19,24.414939,120.870872,0.9903301
467530,阿里山,2025-09-19,23.508208,120.813242,6.166698e-09
C1E691,南湖,2025-09-19,24.40135,120.837533,1.3014958e-05
C0FA30,梧棲,2025-09-19,24.256003,120.523381,0.57427555
C1V231,高中,2025-09-19,23.134911,120.716711,3.4550958e-05
C0AK30,硬漢嶺,2025-09-19,25.136097,121.426372,0.9917503
C0F9V0,新社,2025-09-19,24.200172,120.815806,0.8049276
C0H890,埔里,2025-09-19,23.972169,120.952425,0.65410846
C0R690,墾丁,2025-09-19,21.966756,120.810269,0.49522415
C0SD20,富山,2025-09-19,22.822383,121.190825,0.57210225
C0F0D0,審馬陣,2025-09-19,24.381675,121.4203,3.9379118e-09
C2W030,金門農試所,2025-09-19,24.448431,118.451786,0.0027609959
C0R820,白鷺,2025-09-19,22.454275,120.666219,0.0025795333
C0FB00,大雪山,2025-09-19,24.254668,121.007374,2.8326623e-09
C1V190,南天池,2025-09-19,23.27403,120.91176,2.0197304e-09
C0E940,雪見,2025-09-19,24.42595,121.01347,6.131267e-09
K2E360,苗栗農改場,2025-09-19,24.495722,120.829111,0.38758615
CAJ050,海口故事園區,2025-09-19,23.57543,120.14121,0.65754265
C2K280,四湖,2025-09-19,23.6304,120.22717,0.60427886
C2H9D0,三隻寮,2025-09-19,24.093078,120.861578,9.5185094e-08
C0O990,媽廟,2025-09-19,22.99175,120.293525,0.30122936
C0D480,打鐵坑,2025-09-19,24.849664,121.150789,0.95254797
C0Z220,和平林道,2025-09-19,24.343922,121.656317,0.65180457
C0TA10,花蓮漁港,2025-09-19,23.995322,121.638331,0.07490729
72C440,桃園農改場,2025-09-19,24.950944,121.030583,0.8701672
C1E711,馬拉邦山,2025-09-19,24.367306,120.901656,1.0853953e-06
C0SB20,富岡,2025-09-19,22.792467,121.192669,0.5980968
C0D560,竹東,2025-09-19,24.767147,121.057881,0.9735801
C0F9U0,南屯,2025-09-19,24.137006,120.637969,0.23156597
C0M720,番路,2025-09-19,23.464657,120.554156,0.98672473
C0F0A0,雪山圈谷,2025-09-19,24.388594,121.236339,7.3958746e-09
C1A9N0,四十份,2025-09-19,24.934158,121.593283,0.9881609
C0U760,東澳,2025-09-19,24.52196,121.83318,0.79300886
C0X230,鹽水,2025-09-19,23.272621,120.247641,0.45871043
C2H9H0,苗改南投蜂場,2025-09-19,23.852589,120.693481,0.9187816
C0R950,萬隆國小,2025-09-19,22.507667,120.587817,0.9670873
467540,大武,2025-09-19,22.35572,120.90374,0.9159971
C0V370,古亭坑,2025-09-19,22.893178,120.401947,0.41422707
C1I340,新興橋,2025-09-19,23.563333,120.868728,7.177073e-08
C0SA80,土坂,2025-09-19,22.453108,120.887572,0.725686
C0R160,鹽埔,2025-09-19,22.739558,120.530778,0.7479048
C0AC40,大屯山,2025-09-19,25.175675,121.522408,1.8614767e-08
466850,五分山雷達站,2025-09-19,25.071182,121.781205,0.00029041714
C2H9L0,馬烈霸,2025-09-19,24.1512,121.201772,2.9513851e-09
C1AI50,國三N016K,2025-09-19,25.034164,121.619664,0.58656925
C1V600,藤枝,2025-09-19,23.071961,120.757042,5.8479186e-09
C1E601,南勢,2025-09-19,24.572486,120.734842,0.9812596
C0O980,新市,2025-09-19,23.061614,120.298197,0.47687927
C0K420,西螺,2025-09-19,23.800407,120.467394,0.5363238
C0Z050,佳心,2025-09-19,23.34567,121.21316,2.7609877e-08
C0AD30,蘆洲,2025-09-19,25.086594,121.472331,0.49554816
C0V610,梓官,2025-09-19,22.760558,120.267211,0.15761724
K2F750,種苗改良場,2025-09-19,24.225972,120.800917,0.8646963
C0UA80,大溪漁港,2025-09-19,24.941801,121.902955,0.9799165
C1AI60,國一39K邊坡,2025-09-19,25.064361,121.383836,0.8325143
C0W150,金寧,2025-09-19,24.457703,118.328989,0.0027730272
C0R960,內埔,2025-09-19,22.608483,120.570714,0.6373918
V2C250,八德合作社,2025-09-19,24.93775,121.266389,0.87365615
C2H9S0,龍南,2025-09-19,23.953536,120.833183,3.6663756e-08
C0AH40,平等,2025-09-19,25.129142,121.577086,0.98842984
C0R540,佳冬,2025-09-19,22.419456,120.552375,0.078469925
466950,彭佳嶼,2025-09-19,25.627975,122.079744,0.028198253
C0A890,雙溪,2025-09-19,25.036003,121.864242,0.4947475
C0C480,桃園,2025-09-19,24.992425,121.323172,0.72151655
C0AH50,林口,2025-09-19,25.072181,121.38084,0.9227878
A2K360,水試臺西試驗場,2025-09-19,23.717231,120.190522,0.63095486
C2M960,外寮,2025-09-19,23.562643,120.665688,1.1913768e-08
C0F9S0,烏日,2025-09-19,24.107058,120.624103,0.7526615
C0C490,八德,2025-09-19,24.928708,121.283289,0.882597
C0R190,赤山,2025-09-19,22.592333,120.614306,0.64060974
C0T820,天祥,2025-09-19,24.179597,121.495639,0.2330862
C1F9E1,龍安,2025-09-19,24.1605,120.831961,0.33641875
C0V820,小林,2025-09-19,23.148408,120.63325,0.89552563
C2G870,芳苑,2025-09-19,23.922303,120.320025,0.00016337323
C0E850,大河,2025-09-19,24.618069,120.948578,0.8674325
C1U670,寒溪,2025-09-19,24.634,121.71691,0.67234904
C0N020,城西,2025-09-19,23.0568,120.0956,0.42664513
C1Z110,三棧,2025-09-19,24.11557,121.60501,3.9620295e-06
C0R280,檳榔,2025-09-19,22.076078,120.836777,0.9898314
C2H9J0,中台,2025-09-19,23.9996,120.938739,0.037016902
C0F9L0,后里,2025-09-19,24.310436,120.729725,0.7386092
467441,高雄,2025-09-19,22.730432,120.312516,0.16304316
C0Z180,新城,2025-09-19,24.040486,121.604878,0.075947165
C0D540,橫山,2025-09-19,24.71116,121.11693,0.95982826
C1D420,太閣南,2025-09-19,24.632808,121.160575,3.8623e-08
C1E770,公館,2025-09-19,24.526914,120.830806,0.3572037
CAN130,水試所海水繁養殖中心,2025-09-19,23.120802,120.07968,0.25111884
C1I430,翠華,2025-09-19,24.191961,121.224339,1.4739113e-09
C1M400,菜瓜坪,2025-09-19,23.251928,120.576103,0.9070573
C0G730,二林,2025-09-19,23.903325,120.376081,0.13526124
72M360,南改義竹分場,2025-09-19,23.360694,120.279361,0.40345424
V2K620,麥寮合作社,2025-09-19,23.753836,120.294783,0.41534337
C0Z070,舞鶴,2025-09-19,23.46811,121.37407,0.99018717
C0B040,大武崙,2025-09-19,25.166676,121.706993,0.45499495
C1Z030,紅葉,2025-09-19,23.493119,121.338806,0.9567052
C1I050,丹大,2025-09-19,23.753747,121.141147,3.0355736e-09
C0I080,信義,2025-09-19,23.689694,120.851036,0.9887654
C0D750,樂山林道6k,2025-09-19,24.49999,121.08773,9.785635e-09
C2M920,朴子農改,2025-09-19,23.469889,120.259383,0.5380678
C2A880,福隆,2025-09-19,25.017842,121.942083,0.98816025
C0Z160,鳳林,2025-09-19,23.746114,121.453411,0.5395396
C0UB80,翠峰林道6K,2025-09-19,24.49773,121.568625,3.4876917e-09
C0V210,復興,2025-09-19,23.222403,120.806089,2.5085683e-06
C0H990,昆陽,2025-09-19,24.121322,121.273642,7.4062645e-09
C0R741,獅子,2025-09-19,22.202308,120.705236,0.86604625
C0S710,鹿野,2025-09-19,22.917711,121.122994,0.9995164
C0I530,小奇萊,2025-09-19,24.131764,121.295717,7.958625e-09
C0FA70,大雪山埡口,2025-09-19,24.26867,121.03062,4.0463797e-09
C2K630,荷苞,2025-09-19,23.657717,120.595144,0.34622404
C0Z080,富源,2025-09-19,23.587642,121.378225,0.32074496
C0SB10,美和,2025-09-19,22.682078,121.060236,0.31388304
C2K620,馬光農場,2025-09-19,23.721453,120.378864,0.44990486
C1I140,卡奈托灣,2025-09-19,23.754364,121.087872,2.223692e-09
C0I520,玉山風口,2025-09-19,23.470489,120.955994,1.440854e-08
C1G691,下水埔,2025-09-19,23.816114,120.5676,0.57263833
C0X110,臺南市南區,2025-09-19,22.961189,120.188378,0.26335278
C0V680,仁武,2025-09-19,22.701083,120.347722,0.13997376
C2G840,北斗,2025-09-19,23.877586,120.514222,0.6367718
C0R900,竹坑,2025-09-19,22.1385,120.7022,0.26691967
C0K250,崙背,2025-09-19,23.75555,120.318925,0.41534337
C0G860,社頭,2025-09-19,23.897647,120.5862,0.8684407
C0X150,安定,2025-09-19,23.102614,120.227839,0.5496139
C0R590,里港,2025-09-19,22.77919,120.49459,0.80076015
C0E610,馬都安,2025-09-19,24.451272,120.930192,2.0120413e-06
C0E550,明德,2025-09-19,24.583486,120.885411,0.8193574
C0R150,三地門,2025-09-19,22.709889,120.639944,0.18320145
C0G910,花壇,2025-09-19,24.032076,120.549461,0.2225435
C1D400,鳥嘴山,2025-09-19,24.71909,121.28387,6.610783e-08
C0K500,元長,2025-09-19,23.64981,120.315024,0.47839984
C0F0B0,石岡,2025-09-19,24.276061,120.777644,0.9042675
C2V250,甲仙,2025-09-19,23.080106,120.591758,0.25736773
C0SA20,金崙山,2025-09-19,22.567419,120.959667,9.967027e-07
C0V350,溪埔,2025-09-19,22.738578,120.446797,0.4511658
C0M660,溪口,2025-09-19,23.604131,120.403569,0.6929058
C1S880,壽卡,2025-09-19,22.238911,120.858903,0.9989054
72D680,桃改新埔分場,2025-09-19,24.834444,121.066111,0.92803925
