站號,站名,日期,lat,lon,BLBTSLS
C0K280,四湖,2025-12-01,23.630414,120.227125,0.9999707
CAH030,茶改場竹圍站,2025-12-01,23.860083,120.637528,8.042058e-10
V2K610,大庄合作社,2025-12-01,23.8068,120.367939,0.99918765
G2AI50,關渡,2025-12-01,25.11575,121.492,0.99655545
V2C260,八德蔬果,2025-12-01,24.978508,121.281819,0.99594843
A2K570,古坑花卉中心,2025-12-01,23.63353,120.55239,0.00013479636
467571,新竹,2025-12-01,24.827853,121.014219,0.14326532
C0E430,南庄,2025-12-01,24.601775,121.000214,2.6233659e-08
C0E420,竹南,2025-12-01,24.708978,120.888897,0.9187907
C0M530,奮起湖,2025-12-01,23.493903,120.699253,8.633087e-10
C0C590,觀音,2025-12-01,25.027072,121.153317,0.5860565
C0X060,下營,2025-12-01,23.22695,120.256261,0.99998724
C2D740,屯原,2025-12-01,24.067969,121.209389,2.675301e-08
C0M810,里佳,2025-12-01,23.389125,120.716647,9.747647e-10
V2C250,八德合作社,2025-12-01,24.93775,121.266389,0.99323374
C0K250,崙背,2025-12-01,23.75555,120.318925,0.99997205
