站號,站名,日期,lat,lon,BlastGRU-TW
C0R710,龍磐,2025-09-02,21.931672,120.838942,0.85718197
C1F9D1,白毛台,2025-09-02,24.158325,120.886933,0.96420544
C0G940,竹塘,2025-09-02,23.848253,120.386764,0.14160398
467590,恆春,2025-09-02,22.003897,120.746339,0.83115226
C1O850,環湖,2025-09-02,23.148617,120.418633,0.24835475
C0U710,太平山,2025-09-02,24.505486,121.525656,0.035326574
C0E820,獅潭,2025-09-02,24.539133,120.920042,0.15072383
C0V880,興達,2025-09-02,22.8778,120.2127,0.9436412
C0S890,關山,2025-09-02,23.0395,121.175017,0.99185336
C0SB30,新蘭,2025-09-02,22.869214,121.223228,0.957253
C2R970,屏科大,2025-09-02,22.648275,120.619247,0.9920328
C1Z130,銅門,2025-09-02,23.965694,121.492842,0.9991635
C0AD40,土城,2025-09-02,24.973208,121.445169,0.057237286
CAN140,六官養殖協會,2025-09-02,23.22881,120.29962,0.4353374
C0X180,山上,2025-09-02,23.0757,120.363253,0.5268792
C0F9Z0,雪山東峰,2025-09-02,24.388792,121.268675,0.00047331152
C1M480,獨立山,2025-09-02,23.537022,120.607797,0.9900018
C0X220,學甲,2025-09-02,23.230367,120.182187,0.4401415
467650,日月潭,2025-09-02,23.881325,120.90805,0.94490635
C0K600,箔子寮,2025-09-02,23.6197,120.14,0.1820181
C0G830,埤頭,2025-09-02,23.866003,120.452806,0.13157403
C0S950,七塊厝,2025-09-02,22.954453,121.229922,0.997198
467110,金門,2025-09-02,24.407306,118.289281,0.063732944
C0AH80,深坑,2025-09-02,25.002703,121.628328,0.0599896
C0A970,三貂角,2025-09-02,25.007606,122.002058,0.103637174
C2D730,寶山農場,2025-09-02,24.732444,120.976153,0.1325115
C0K430,褒忠,2025-09-02,23.690938,120.303634,0.13574375
467480,嘉義,2025-09-02,23.495925,120.432906,0.1603081
C0V400,阿公店,2025-09-02,22.804194,120.355528,0.76012903
C0E960,觀霧分站,2025-09-02,24.505781,121.113921,0.031215513
467550,玉山,2025-09-02,23.48718,120.95943,0.0029007876
C0R440,大漢山,2025-09-02,22.405264,120.753181,0.8087676
C0K280,四湖,2025-09-02,23.630414,120.227125,0.18111777
C1F9B1,桐林,2025-09-02,24.066172,120.735194,0.11383043
C2H9U0,鳳鵬,2025-09-02,23.763919,120.788061,0.1792672
C0K390,土庫,2025-09-02,23.679029,120.395574,0.19290444
C1I450,望鄉山,2025-09-02,23.594153,120.944286,0.0077041322
C0E910,海埔,2025-09-02,24.648767,120.772435,0.17773865
B2E890,畜試北區分所,2025-09-02,24.527806,120.770972,0.13626407
C0R750,四林格山,2025-09-02,22.076989,120.802439,0.99027175
C0F0C0,中坑,2025-09-02,24.248517,120.903319,0.9540523
C1I121,大鞍,2025-09-02,23.678381,120.760017,0.72905284
72U480,花改蘭陽分場,2025-09-02,24.686306,121.716583,0.9520991
C0A770,科教館,2025-09-02,25.096356,121.516507,0.044188853
C0AJ60,六塊厝,2025-09-02,25.24,121.4481,0.05378378
C0R620,墾雷,2025-09-02,21.900836,120.855269,0.71663165
467420,永康,2025-09-02,23.038386,120.2367,0.7262519
C0I410,名間,2025-09-02,23.837053,120.701447,0.10177783
A2C560,農工中心,2025-09-02,24.985917,121.239833,0.074491985
C0V740,旗山,2025-09-02,22.888614,120.483597,0.8330801
C0Z061,玉里,2025-09-02,23.3215,121.339656,0.98222995
C0S840,南田,2025-09-02,22.279725,120.889208,0.9362066
C1I470,杉林溪,2025-09-02,23.639517,120.786444,0.50293154
C1X040,東原,2025-09-02,23.291597,120.463822,0.1823717
C0R660,枋寮,2025-09-02,22.367722,120.590647,0.9785215
C1R120,上德文,2025-09-02,22.763272,120.704442,0.9983399
C0K450,大埤,2025-09-02,23.646074,120.431537,0.20646285
C0UA00,土場,2025-09-02,24.576533,121.495333,0.8295037
467080,宜蘭,2025-09-02,24.763975,121.756528,0.2955303
C0N030,四草,2025-09-02,23.0235,120.1116,0.5680409
467410,臺南,2025-09-02,22.99328,120.20492,0.62625194
C0V650,彌陀,2025-09-02,22.783806,120.246361,0.93498975
C0D660,新竹市東區,2025-09-02,24.798681,120.986942,0.12927184
82S580,茶改東部分場,2025-09-02,22.907694,121.130139,0.9771581
C0SB40,興隆,2025-09-02,22.913661,121.257469,0.95937604
467050,新屋,2025-09-02,25.006725,121.047492,0.084180765
C0C710,大溪永福,2025-09-02,24.892936,121.324975,0.08876109
C0FA20,溫寮,2025-09-02,24.372177,120.583125,0.13532333
C0V640,湖內,2025-09-02,22.887139,120.2445,0.9465175
C0R910,下寮,2025-09-02,22.3929,120.5548,0.978366
C0Z020,明里,2025-09-02,23.208717,121.262342,0.9947065
C0M770,嘉義梅山,2025-09-02,23.585398,120.555587,0.27990335
C0C660,楊梅,2025-09-02,24.912375,121.143047,0.08387898
C1E511,新開,2025-09-02,24.347703,120.827019,0.12807368
G2F820,農試所(霧峰),2025-09-02,24.031261,120.688133,0.11272568
C1I070,和社,2025-09-02,23.591131,120.888861,0.99135935
C0TA80,立霧山,2025-09-02,24.183258,121.641899,0.99307984
C2F000,大肚,2025-09-02,24.15295,120.572117,0.089924864
C1S850,豐南,2025-09-02,23.122139,121.262389,0.9992699
C2A920,富貴角,2025-09-02,25.263783,121.565258,0.070555955
CAH030,茶改場竹圍站,2025-09-02,23.860083,120.637528,0.120916165
C0T960,光復,2025-09-02,23.660694,121.424964,0.9355254
C0F9M0,豐原,2025-09-02,24.254322,120.720692,0.12321541
C0R720,旭海,2025-09-02,22.205403,120.887614,0.836336
C0V710,苓雅,2025-09-02,22.622742,120.330669,0.8830666
C0C740,觀音工業區,2025-09-02,25.064764,121.114856,0.08246191
CAC040,拉拉山,2025-09-02,24.699317,121.427133,0.15757072
C0V790,萬山,2025-09-02,22.905944,120.688056,0.9923501
U2HA30,臺大和社,2025-09-02,23.590856,120.888864,0.99135935
C0AJ90,澳底,2025-09-02,25.0552,121.9253,0.11171722
C0Z100,東華,2025-09-02,23.89525,121.549833,0.9886347
C0G970,三豐,2025-09-02,23.882,120.2895,0.119801864
V2K610,大庄合作社,2025-09-02,23.8068,120.367939,0.1312472
C0V900,汕尾,2025-09-02,22.4782,120.4151,0.73927337
C1R630,龍泉,2025-09-02,22.66701,120.59091,0.989962
C1AC50,關渡,2025-09-02,25.133486,121.469331,0.06066118
C0C800,四稜,2025-09-02,24.64733,121.4293,0.71054953
C0F9I0,神岡,2025-09-02,24.272481,120.658314,0.14777462
C0K460,斗南,2025-09-02,23.678734,120.478359,0.20839548
C2O810,曾文,2025-09-02,23.219681,120.497328,0.18316028
467280,後龍,2025-09-02,24.648563,120.831834,0.18346235
C1F9J1,清水林,2025-09-02,24.071242,120.820419,0.98601794
C2A650,火燒寮,2025-09-02,25.002719,121.742892,0.15929578
466930,竹子湖,2025-09-02,25.162078,121.544547,0.23404798
C1I220,樟湖,2025-09-02,23.905333,120.846983,0.63324326
C0I390,仁愛,2025-09-02,24.022122,121.132206,0.8684086
C0Z300,東里,2025-09-02,23.26853,121.30547,0.99338603
C1V590,新發,2025-09-02,23.057019,120.646064,0.9964667
C0K510,水林,2025-09-02,23.572924,120.24597,0.16914165
72S590,東改賓朗果園,2025-09-02,22.813889,121.071278,0.9964826
82A750,茶改北部分場,2025-09-02,24.955778,121.631222,0.20809364
C1A750,石碇服務區,2025-09-02,25.00872,121.646242,0.08176431
C0X300,鹿寮,2025-09-02,23.386047,120.477331,0.250651
G2AI50,關渡,2025-09-02,25.11575,121.492,0.058726314
C0K590,雲林東勢,2025-09-02,23.674192,120.255721,0.15367725
C0A570,桶後,2025-09-02,24.848222,121.597992,0.25990394
C1S800,華源,2025-09-02,22.657883,121.02325,0.957009
C0G720,溪州,2025-09-02,23.851589,120.499093,0.13325548
C1V160,達卡努瓦,2025-09-02,23.279811,120.705319,0.9698415
C2M410,馬頭山,2025-09-02,23.324361,120.582017,0.21653901
C0V850,蚵仔寮,2025-09-02,22.7256,120.2527,0.8025732
C0S740,池上,2025-09-02,23.119628,121.209469,0.9950652
C1V390,尖山,2025-09-02,22.813153,120.367789,0.7842709
C0AH70,松山,2025-09-02,25.04871,121.55042,0.044574674
C0N010,鯤鯓國小,2025-09-02,23.1879,120.0889,0.4280863
C0R550,新埤,2025-09-02,22.467947,120.582894,0.76250833
C0SA60,知本（水試所）,2025-09-02,22.702394,121.082761,0.9311946
C0T9I0,豐濱,2025-09-02,23.583897,121.514806,0.8972219
C0UB00,淡江大學蘭陽校園,2025-09-02,24.823239,121.730383,0.3002073
C0W240,九宮,2025-09-02,24.423753,118.240186,0.06350781
C0T9N0,富里,2025-09-02,23.171639,121.249378,0.9945725
U2HA50,臺大竹山,2025-09-02,23.756972,120.681556,0.20186216
C0V840,鳳鼻頭,2025-09-02,22.5083,120.3591,0.5467743
C0X140,西港,2025-09-02,23.125608,120.203108,0.55617553
72D080,桃改五峰分場,2025-09-02,24.612194,121.157167,0.8329571
C2H9P0,伊拿谷,2025-09-02,23.963211,121.088264,0.9575368
C2H9F0,柑林,2025-09-02,24.018658,120.847072,0.084694125
C0TA20,加灣,2025-09-02,24.082025,121.608944,0.9996864
C0V530,阿蓮,2025-09-02,22.883208,120.327508,0.9029011
C0FB30,八仙山苗圃,2025-09-02,24.192719,121.001366,0.9639486
C1O880,關山,2025-09-02,23.173397,120.594092,0.31907618
C0E791,卓蘭,2025-09-02,24.3126,120.8244,0.11070155
C1I030,武界,2025-09-02,23.913225,121.052483,0.94474965
C0R520,崁頂,2025-09-02,22.514781,120.506914,0.80114406
C0R341,牡丹,2025-09-02,22.130036,120.792639,0.93468994
C0R930,萬丹,2025-09-02,22.5885,120.4851,0.6821293
C0S760,紅石,2025-09-02,23.069131,121.126219,0.98454195
C2C410,中央大學,2025-09-02,24.967652,121.185165,0.07557188
C1M610,石磐龍,2025-09-02,23.496606,120.663506,0.96144396
C0C790,東眼山,2025-09-02,24.8284,121.40888,0.64775
C0UA10,鴛鴦湖,2025-09-02,24.590269,121.412228,0.18042503
V2C260,八德蔬果,2025-09-02,24.978508,121.281819,0.058268435
C0R800,丹路,2025-09-02,22.204481,120.750989,0.93609893
C0G920,永靖,2025-09-02,23.924703,120.547533,0.11149953
C2M950,太和,2025-09-02,23.538372,120.702961,0.8793665
C1A630,下盆,2025-09-02,24.771003,121.538622,0.9977812
B2N890,畜產試驗所,2025-09-02,23.058972,120.336406,0.48739305
C0UA30,白嶺,2025-09-02,24.527819,121.519031,0.7534709
C1V580,溪南(特生中心),2025-09-02,23.084972,120.788475,0.9623871
C1T970,大農,2025-09-02,23.615233,121.413331,0.93258995
C0R650,竹田,2025-09-02,22.58486,120.54344,0.9529742
C1H900,清流,2025-09-02,24.080775,120.962997,0.9495533
C1C510,水尾,2025-09-02,24.940081,121.087161,0.095654614
C0F9X0,大雅(中科園區),2025-09-02,24.21528,120.62445,0.15870203
C0SB60,白守蓮,2025-09-02,23.126769,121.401914,0.9831652
C0O970,虎頭埤,2025-09-02,23.021375,120.347878,0.7758808
C0C730,中大臨海站,2025-09-02,24.966126,121.008581,0.0823356
C0X250,新營,2025-09-02,23.310689,120.316681,0.32821128
C0V700,三民,2025-09-02,22.645017,120.311233,0.95110595
C0U870,大礁溪,2025-09-02,24.791042,121.675047,0.992031
C0E870,高鐵苗栗,2025-09-02,24.60725,120.826094,0.17256446
A2K570,古坑花卉中心,2025-09-02,23.63353,120.55239,0.24223231
C0TA30,鹽寮,2025-09-02,23.845606,121.592664,0.98793393
C0M860,新美,2025-09-02,23.338017,120.683169,0.9823349
C1E701,八卦,2025-09-02,24.491756,120.927619,0.8883147
C0I420,國姓,2025-09-02,24.037803,120.855072,0.09272655
C2D720,關西工作站,2025-09-02,24.757275,121.184792,0.11405711
C0S960,香蘭,2025-09-02,22.587569,120.993375,0.9206495
467620,蘭嶼,2025-09-02,22.0369,121.55843,0.9981134
C0R260,春日,2025-09-02,22.370361,120.628306,0.9839476
72G600,臺中農改場,2025-09-02,24.003028,120.534389,0.115479864
C0Z210,瑞穗,2025-09-02,23.5239,121.39021,0.9643806
C0M820,達邦,2025-09-02,23.453994,120.749517,0.98697484
C0V860,南寮,2025-09-02,22.7616,120.2339,0.80215025
C0G740,大城,2025-09-02,23.852487,120.320935,0.12099006
C0R920,塭仔,2025-09-02,22.4169,120.5197,0.97778845
C0R470,高樹,2025-09-02,22.826389,120.600806,0.97752684
C0R680,佳樂水,2025-09-02,21.993578,120.861633,0.8943654
C1O870,大棟山,2025-09-02,23.31157,120.52226,0.9100667
C0D360,梅花,2025-09-02,24.678347,121.208558,0.5285438
C0Z190,富世,2025-09-02,24.14743,121.6297,0.9993462
C0AI10,屈尺,2025-09-02,24.92184,121.54475,0.08746737
B2U990,畜試東區分所,2025-09-02,24.669039,121.832561,0.21813941
C0SB80,長濱漁港,2025-09-02,23.313644,121.459994,0.9735942
C0TA50,和仁,2025-09-02,24.241394,121.712472,0.9994688
C0R240,來義,2025-09-02,22.527306,120.625111,0.8747494
C0V910,大樹,2025-09-02,22.684645,120.432803,0.5934441
C1R610,西大武山,2025-09-02,22.617719,120.7322,0.86689603
C0G900,線西,2025-09-02,24.143358,120.443536,0.12580083
C0M700,竹崎,2025-09-02,23.526178,120.555508,0.26189113
C2E880,三義,2025-09-02,24.405478,120.749819,0.53257686
C0C720,竹圍,2025-09-02,25.112692,121.239824,0.059015974
C0F9P0,清水,2025-09-02,24.312297,120.562242,0.13260067
C0Z150,吉安光華,2025-09-02,23.930925,121.595153,0.99873805
C0FA80,小雪山天池,2025-09-02,24.28025,121.02627,0.0017094454
467300,東吉島,2025-09-02,23.25727,119.66762,0.69658446
C1D640,外坪(五指山),2025-09-02,24.644447,121.090961,0.94810236
C0F9O0,潭子,2025-09-02,24.213106,120.703933,0.109352134
C2H9R0,卓社,2025-09-02,23.887894,121.000086,0.87714183
72T250,花蓮農改場,2025-09-02,23.975222,121.563889,0.99943346
C0E780,銅鑼,2025-09-02,24.489681,120.790853,0.15622188
C1T950,太安,2025-09-02,23.666719,121.370128,0.9997719
C0E830,苑裡,2025-09-02,24.439714,120.653053,0.14756785
467270,田中,2025-09-02,23.873803,120.581286,0.09823798
C0SA10,檳榔四格山,2025-09-02,22.810031,121.109308,0.997388
C1T830,布洛灣,2025-09-02,24.17184,121.57127,0.9986224
C0F970,大坑,2025-09-02,24.173142,120.722289,0.099596545
C1U920,思源,2025-09-02,24.393125,121.347214,0.8408433
C0A931,三和,2025-09-02,25.233153,121.595236,0.0851828
C0I010,廬山,2025-09-02,24.033311,121.181808,0.5340658
C2M940,日野賀,2025-09-02,23.434056,120.727169,0.96042484
C0R860,鼻頭,2025-09-02,22.1043,120.8979,0.42315155
C0UB20,壯圍,2025-09-02,24.7359,121.8163,0.9468787
C0R790,九棚,2025-09-02,22.14195,120.889281,0.4992229
C0W110,東莒,2025-09-02,25.9652,119.98069,0.087963834
C1U930,粉鳥林,2025-09-02,24.497088,121.842479,0.9979428
C1I211,蘆竹湳,2025-09-02,23.934019,120.811994,0.89152443
C0S830,長濱,2025-09-02,23.286817,121.411975,0.9909692
C1F9F1,伯公龍,2025-09-02,24.272392,120.849047,0.28031546
C0UB90,太平山莊,2025-09-02,24.494171,121.536209,0.030589657
C0E810,西湖,2025-09-02,24.562947,120.7485,0.18294539
C1I440,新高口,2025-09-02,23.478744,120.878939,0.020191064
C0O840,王爺宮,2025-09-02,23.222064,120.40085,0.3262332
C0T9G0,鳳林山,2025-09-02,23.735269,121.420131,0.9985051
C0X080,佳里,2025-09-02,23.173039,120.145086,0.42727724
C0FB70,大甲溪埔,2025-09-02,24.370625,120.620067,0.13937879
C0Z310,清水斷崖,2025-09-02,24.218294,121.689142,0.9995186
C0M680,太保,2025-09-02,23.455062,120.331455,0.2109153
C1S820,金峰,2025-09-02,22.590969,120.933236,0.96367294
C0AD10,八里,2025-09-02,25.150211,121.403947,0.05909599
C2K240,草嶺,2025-09-02,23.59555,120.693461,0.9558402
C1SA70,都蘭,2025-09-02,22.87794,121.226881,0.95937544
C0K440,二崙,2025-09-02,23.772797,120.408944,0.15087056
C1A760,坪林交控,2025-09-02,24.94284,121.713442,0.16258255
C0F9N0,大里,2025-09-02,24.092464,120.701378,0.098240785
C0SA90,達仁林場,2025-09-02,22.264347,120.823972,0.9939052
C1R290,石門山,2025-09-02,22.112611,120.756597,0.9066892
42HA10,萬大發電廠,2025-09-02,23.978875,121.139639,0.7742591
C0R890,山海,2025-09-02,21.9878,120.7091,0.8823484
C0T9A0,月眉山,2025-09-02,23.809928,121.539828,0.9990155
C0AC70,信義,2025-09-02,25.037822,121.564597,0.044674072
C0K560,棋山,2025-09-02,23.68645,120.603417,0.24977086
C2FB50,出雲,2025-09-02,24.206469,120.902794,0.8580949
C1Z240,中平林道,2025-09-02,23.42115,121.26763,0.9989105
U2H480,溪頭,2025-09-02,23.670306,120.798194,0.89899236
C0M880,好美里,2025-09-02,23.3364,120.138,0.36611873
C0T9E0,大坑,2025-09-02,23.880628,121.581981,0.999084
C0K530,臺西,2025-09-02,23.701547,120.197559,0.15541787
C1E900,國一N128K,2025-09-02,24.560997,120.844186,0.18646002
C0AJ50,水湳洞,2025-09-02,25.123695,121.862238,0.068172626
C0AI20,白沙灣,2025-09-02,25.283128,121.519058,0.054786157
C2V310,美濃,2025-09-02,22.898792,120.51907,0.8262098
C0A860,大坪,2025-09-02,25.165914,121.632969,0.11374161
C1U850,觀音海岸,2025-09-02,24.38319,121.77856,0.9999488
C2K610,草嶺石壁,2025-09-02,23.602469,120.707731,0.95046103
C0U950,鶯子嶺,2025-09-02,24.89754,121.79244,0.7223582
C0O900,善化,2025-09-02,23.112883,120.297219,0.4621541
C0K550,蔦松,2025-09-02,23.514319,120.229736,0.1943015
E2P980,林試六龜中心,2025-09-02,22.991703,120.645722,0.64302903
C0E590,通霄,2025-09-02,24.471892,120.704622,0.17018883
C1I310,西巒,2025-09-02,23.754486,120.883956,0.9174261
C0A550,泰平,2025-09-02,24.971197,121.823711,0.35410097
C0I360,水里,2025-09-02,23.812553,120.849792,0.15282835
C0R830,高士,2025-09-02,22.121825,120.836781,0.958138
C1I101,溪頭,2025-09-02,23.661789,120.807647,0.6068114
C0AJ20,野柳,2025-09-02,25.20703,121.690021,0.058982052
C0B060,暖暖,2025-09-02,25.0957,121.7403,0.05997866
C1H920,長豐,2025-09-02,24.102039,120.879897,0.98619807
C0V360,內門,2025-09-02,22.975481,120.466769,0.89504415
C0R850,林邊,2025-09-02,22.4634,120.5339,0.7490055
C0E930,龍鳳,2025-09-02,24.700034,120.859125,0.15219203
C0U910,冬山,2025-09-02,24.63373,121.7937,0.21813941
C1E721,泰安,2025-09-02,24.489017,120.968036,0.49951372
82H320,茶改中部分場,2025-09-02,23.875611,120.913583,0.981712
C0M750,布袋,2025-09-02,23.380878,120.167789,0.31486604
C1S860,利嘉,2025-09-02,22.809417,121.050528,0.9985644
E2S980,林試太麻里1,2025-09-02,22.598922,120.980044,0.9378125
C0X170,關廟,2025-09-02,22.963017,120.327797,0.8688486
C0V720,林園,2025-09-02,22.507747,120.394511,0.61107993
C1I510,線浸林道,2025-09-02,23.761508,120.832956,0.7657432
C0D690,外湖,2025-09-02,24.917735,120.968711,0.08272498
C0C750,新興坑尾,2025-09-02,25.0061,121.0971,0.089293614
B2Q810,畜試南區分所,2025-09-02,21.945583,120.802167,0.8911711
C0S790,金崙,2025-09-02,22.538122,120.966875,0.97641873
C0AH90,福山植物園,2025-09-02,24.760717,121.58135,0.96142346
C0I540,奇萊稜線,2025-09-02,24.109231,121.326456,0.1669756
C0M850,表湖,2025-09-02,23.24186,120.64166,0.99683726
C0S770,大溪山,2025-09-02,22.478475,120.943325,0.9960517
C0AG80,中和,2025-09-02,24.991622,121.491792,0.057296637
C0T790,大禹嶺,2025-09-02,24.186117,121.316086,0.023835694
C0T9B0,水源,2025-09-02,23.991861,121.537169,0.9997916
C0R840,牡丹池山,2025-09-02,22.168389,120.841225,0.98761
C1I131,桶頭,2025-09-02,23.641944,120.654117,0.42381766
CAL110,布袋國中,2025-09-02,23.35893,120.18026,0.31797856
467571,新竹,2025-09-02,24.827853,121.014219,0.093072854
C0Z290,赤柯山,2025-09-02,23.36893,121.38293,0.9975949
C0X280,將軍,2025-09-02,23.214999,120.13577,0.43538147
C0S690,太麻里,2025-09-02,22.60902,120.98533,0.9979382
C0U880,北關,2025-09-02,24.9072,121.8734,0.12980114
C0G810,埔心,2025-09-02,23.947633,120.525456,0.11023026
C0U970,大福,2025-09-02,24.80064,121.81389,0.29035467
C2H9N0,仁愛東眼,2025-09-02,24.026875,121.1205,0.66834706
C1E670,南礦,2025-09-02,24.538278,121.002836,0.72649485
C0M520,東後寮,2025-09-02,23.369908,120.248065,0.32255235
C1E461,松安,2025-09-02,24.397972,120.986022,0.82673544
C2N160,西拉雅風管處,2025-09-02,23.189481,120.335297,0.40659586
C2M970,碧湖,2025-09-02,23.568632,120.624165,0.97233605
C0A640,石碇,2025-09-02,24.993969,121.662917,0.087101
E2S960,林試太麻里2,2025-09-02,22.598,120.99775,0.9185459
C0F9Y0,桃山,2025-09-02,24.432739,121.303808,0.00035430596
C1I020,萬大,2025-09-02,23.979817,121.132261,0.86219114
C0U940,羅東,2025-09-02,24.68184,121.74934,0.95018375
C0M650,朴子,2025-09-02,23.43463,120.23902,0.2804495
C1I500,大尖山,2025-09-02,23.858572,120.994889,0.020317504
C0FB40,中橫21.6k,2025-09-02,24.2499,121.1455,0.45709115
C0G820,田尾,2025-09-02,23.901669,120.509389,0.1103543
E2K600,四湖植物園,2025-09-02,23.676986,120.163433,0.18159737
C0S730,綠島,2025-09-02,22.6672,121.47533,0.09321411
12Q970,東港工作站,2025-09-02,22.479997,120.466058,0.7425784
C0E430,南庄,2025-09-02,24.601775,121.000214,0.15511312
C1TA00,太魯閣,2025-09-02,24.15773,121.6236,0.9993836
466920,臺北,2025-09-02,25.037658,121.514853,0.044574674
C0R600,舊泰武,2025-09-02,22.588194,120.664944,0.9987614
C1I260,北坑,2025-09-02,23.9246,121.006903,0.95291555
466910,鞍部,2025-09-02,25.182586,121.529731,0.17878355
C1I230,九份二山,2025-09-02,23.961944,120.845,0.9739144
C2A660,瑞芳,2025-09-02,25.113169,121.801147,0.07716893
C0R270,琉球嶼,2025-09-02,22.332244,120.362236,0.9472694
C1T990,高寮,2025-09-02,23.394239,121.356808,0.9880725
C0G620,芬園,2025-09-02,24.015678,120.6213,0.10087856
C1Z140,荖溪,2025-09-02,23.890575,121.45964,0.9988986
C1I201,中心崙,2025-09-02,23.728722,120.712097,0.9858836
C1I400,凌霄,2025-09-02,24.018778,121.004456,0.695854
C1M640,十字,2025-09-02,23.492153,120.753683,0.9030682
G2P820,農試鳳山分所,2025-09-02,22.646611,120.356083,0.9556001
C0Z270,蕃薯寮,2025-09-02,23.73835,121.540108,0.99868286
C0FB10,出雲山苗圃,2025-09-02,24.23105,120.90475,0.9532748
C0F9Q0,外埔,2025-09-02,24.347817,120.705686,0.14167762
C0K580,高鐵雲林,2025-09-02,23.737456,120.417944,0.17612396
C2I090,鳳凰,2025-09-02,23.728081,120.787347,0.9827576
C0U990,員山,2025-09-02,24.74435,121.72247,0.94917345
C0V770,大社,2025-09-02,22.730306,120.346639,0.81384933
C0X120,麻豆,2025-09-02,23.183289,120.248611,0.4676527
C0C670,龍潭,2025-09-02,24.870056,121.221389,0.14021406
C0D680,香山濕地,2025-09-02,24.783581,120.914988,0.122452244
C0S980,勝林山,2025-09-02,22.430439,120.8938,0.9964763
C0V730,大寮,2025-09-02,22.605614,120.395717,0.9125648
C0R570,麟洛,2025-09-02,22.65078,120.52719,0.7041626
C2M930,石卓,2025-09-02,23.478744,120.702264,0.8853244
C0G9B0,和美,2025-09-02,24.105169,120.492131,0.115436405
CAG100,王功漁港,2025-09-02,23.96824,120.32586,0.12521991
C0X290,北門,2025-09-02,23.267772,120.125481,0.4337584
C2F930,大甲,2025-09-02,24.347667,120.640403,0.15183051
C0D650,湖口,2025-09-02,24.904794,121.043628,0.094184935
C0E420,竹南,2025-09-02,24.708978,120.888897,0.15877312
C0U780,五結,2025-09-02,24.68637,121.79794,0.94717854
C1I250,鯉潭,2025-09-02,23.961922,120.991131,0.9874418
C0R130,阿禮,2025-09-02,22.742908,120.743678,0.9930635
C0X100,臺南市北區,2025-09-02,23.010394,120.194228,0.6078598
C0S920,金峰嘉蘭,2025-09-02,22.594789,120.960825,0.93880326
C0V490,新興,2025-09-02,22.627422,120.298803,0.881558
C0F9K0,大安,2025-09-02,24.345061,120.588025,0.13842618
467290,古坑,2025-09-02,23.633639,120.551889,0.24223231
C2E970,八甲,2025-09-02,24.535811,120.795983,0.22535583
C0V440,鳳山,2025-09-02,22.646653,120.356122,0.9556001
C1T940,大觀,2025-09-02,23.714206,121.373133,0.99930143
C0E740,造橋,2025-09-02,24.637056,120.864778,0.18112688
C0R100,尾寮山,2025-09-02,22.833111,120.683889,0.99339706
A2K630,臺大雲林校區,2025-09-02,23.730628,120.423903,0.17629384
467990,馬祖,2025-09-02,26.169467,119.923158,0.05122947
C0D580,寶山,2025-09-02,24.735006,121.025192,0.11636594
E2P990,林試扇平站,2025-09-02,22.9677,120.6857,0.9987072
C0AI30,三重,2025-09-02,25.057328,121.500629,0.044188853
C0AH00,汐止,2025-09-02,25.066881,121.658778,0.044574693
C1Z040,立山,2025-09-02,23.443356,121.327375,0.9998054
466881,新北,2025-09-02,24.959207,121.525196,0.05858203
C0W130,花嶼,2025-09-02,23.40007,119.32276,0.64921796
C0A950,鼻頭角,2025-09-02,25.129036,121.923372,0.12063479
C0K470,林內,2025-09-02,23.748675,120.609642,0.1817799
C2F990,摩天嶺,2025-09-02,24.322458,120.936819,0.89479554
82C160,茶改場,2025-09-02,24.908472,121.185333,0.09135763
C0Z320,清水林道,2025-09-02,23.27125,121.188272,0.99952775
C0R760,南仁湖,2025-09-02,22.084681,120.863353,0.90889794
C0M670,大林,2025-09-02,23.600616,120.45841,0.1692289
C0M800,茶山,2025-09-02,23.299075,120.664767,0.72050315
C0A9C0,天母,2025-09-02,25.117494,121.537169,0.05324289
72K220,南改斗南分場,2025-09-02,23.634556,120.477333,0.20906399
72AI40,桃改樹林分場,2025-09-02,24.944503,121.386972,0.05435988
C0S910,蘭嶼燈塔,2025-09-02,22.081197,121.503117,0.97747374
C0B050,八斗子,2025-09-02,25.144754,121.79167,0.06632674
C0U900,內城,2025-09-02,24.71813,121.68766,0.9554556
C0X320,柳營,2025-09-02,23.253328,120.375253,0.22275424
C0M790,新港,2025-09-02,23.553269,120.345728,0.16421412
C0F9T0,西屯,2025-09-02,24.179494,120.641275,0.14880966
C0E950,松安,2025-09-02,24.39792,120.98599,0.82673544
C0SA30,都歷,2025-09-02,23.020333,121.323642,0.9846696
C0C620,蘆竹,2025-09-02,25.084275,121.265767,0.050334584
C0R730,大坪頂,2025-09-02,22.024633,120.69355,0.88259953
C0AJ40,石門,2025-09-02,25.273672,121.601198,0.06549335
C0E750,苗栗,2025-09-02,24.564569,120.824575,0.18390435
C0T870,鯉魚潭,2025-09-02,23.935639,121.508944,0.99904907
C1V170,排雲,2025-09-02,23.463619,120.954147,0.023143798
C2H950,中寮,2025-09-02,23.884447,120.766406,0.13105683
C0R350,貓鼻頭,2025-09-02,21.921774,120.7358,0.9566037
C0V660,岡山,2025-09-02,22.797078,120.294958,0.9358185
C1H941,雙冬,2025-09-02,23.967378,120.802189,0.9640966
C0AJ70,田寮,2025-09-02,25.2698,121.4886,0.054519452
C0AI00,五股,2025-09-02,25.07445,121.42728,0.06881116
C0Z280,德武,2025-09-02,23.47426,121.41071,0.98606443
C0R700,枋山,2025-09-02,22.246844,120.661086,0.96011233
C0C460,復興,2025-09-02,24.820208,121.352281,0.29158643
E2H360,蓮華池,2025-09-02,23.918333,120.885278,0.9814812
C0M640,中埔,2025-09-02,23.42538,120.5229,0.19378062
C0W140,金沙,2025-09-02,24.488292,118.408778,0.0649405
C2A540,四堵,2025-09-02,24.8926,121.745736,0.3562454
C0ACA0,新莊,2025-09-02,25.051478,121.446756,0.03945485
C0R220,潮州,2025-09-02,22.534361,120.54,0.8076743
U2HA40,臺大內茅埔,2025-09-02,23.689722,120.851117,0.93317544
467490,臺中,2025-09-02,24.145736,120.684075,0.09204089
C0UB60,明池,2025-09-02,24.650688,121.475277,0.7324091
C0U960,翠峰湖,2025-09-02,24.510856,121.608044,0.10398193
E2HA20,林試畢祿溪站,2025-09-02,24.226944,121.308522,0.035654515
C0V890,前鎮,2025-09-02,22.5718,120.3117,0.87827027
C1F941,雪嶺,2025-09-02,24.280586,121.026642,0.0017094454
C2H9E0,國姓南港,2025-09-02,23.911108,120.846556,0.5455365
C0AC80,文山,2025-09-02,25.00235,121.575728,0.060234625
C0F9R0,龍井,2025-09-02,24.184536,120.528972,0.12495444
C0M760,民雄,2025-09-02,23.551754,120.428457,0.16775109
C0UA40,西德山,2025-09-02,24.560647,121.752608,0.9208722
C1T920,中興,2025-09-02,23.769503,121.498653,0.98611706
C0D550,雪霸,2025-09-02,24.526972,121.11605,0.17437565
C2F860,梨山,2025-09-02,24.247522,121.243669,0.027361913
C0R320,車城,2025-09-02,22.0744,120.716247,0.58720726
C1S870,南美山,2025-09-02,23.15025,121.382333,0.9942573
C0B020,基隆嶼,2025-09-02,25.19141,121.78391,0.07792452
C1U501,牛鬥,2025-09-02,24.637836,121.573656,0.49156824
C0M730,嘉義市東區,2025-09-02,23.457673,120.460531,0.13567935
C0S700,知本,2025-09-02,22.684866,121.005642,0.99768084
C1N001,沙崙,2025-09-02,22.935472,120.309406,0.8580524
C0V760,橋頭,2025-09-02,22.757806,120.30575,0.80932194
C0G960,福寶,2025-09-02,24.0443,120.3814,0.11435058
C0X210,白河,2025-09-02,23.347466,120.414427,0.19267918
C0S810,東河,2025-09-02,22.972672,121.303986,0.37934577
C2R170,屏東,2025-09-02,22.66027,120.49403,0.70254123
C0R670,楓港,2025-09-02,22.190131,120.692156,0.4612313
C0FA50,霧峰,2025-09-02,24.0419,120.6995,0.11432118
C0UB10,蘇澳,2025-09-02,24.5969,121.8571,0.51093626
C0G950,防潮門,2025-09-02,24.1835,120.4871,0.12467477
C0M740,六腳,2025-09-02,23.492871,120.290625,0.21468535
C1R250,力里,2025-09-02,22.428117,120.629228,0.98602575
C0K330,虎尾,2025-09-02,23.719183,120.442036,0.17808941
C2FA00,烏石坑,2025-09-02,24.273503,120.947617,0.9055549
C0V620,永安,2025-09-02,22.82315,120.236856,0.9349899
C1I330,楓樹林,2025-09-02,23.986803,121.076117,0.85175455
C0W200,湖西,2025-09-02,23.596314,119.67275,0.59029293
72Q010,高雄農改場,2025-09-02,22.709333,120.525889,0.9201213
C0SA40,瑞和,2025-09-02,22.974361,121.156697,0.9520886
C0C680,龜山,2025-09-02,25.02846,121.38656,0.050279662
C2V260,月眉,2025-09-02,22.971003,120.539853,0.83730084
C0V450,鳳森,2025-09-02,22.545064,120.392592,0.6649959
C0FA90,小雪山林道,2025-09-02,24.29515,121.03651,0.00079341565
C0U720,南山,2025-09-02,24.43742,121.38167,0.98296934
A2N290,臺南蘭花園區,2025-09-02,23.340258,120.379661,0.28660256
C0R560,新園,2025-09-02,22.5434,120.461558,0.61107993
C0U890,三星,2025-09-02,24.66812,121.65302,0.27948523
C1V300,御油山,2025-09-02,23.001983,120.715364,0.96517384
C0U600,礁溪,2025-09-02,24.817539,121.765608,0.10113767
C1T980,龍澗,2025-09-02,24.023289,121.411328,0.9908027
C0D670,海天一線,2025-09-02,24.831986,120.914438,0.10218852
C0SA00,歷坵,2025-09-02,22.520969,120.89185,0.9979103
C0M710,東石,2025-09-02,23.458927,120.15385,0.23614609
C0M780,鹿草,2025-09-02,23.41134,120.30835,0.28518042
C0U520,雙連埤,2025-09-02,24.753033,121.641303,0.99241143
C0B010,七堵,2025-09-02,25.094819,121.71713,0.056091093
C0R480,長治,2025-09-02,22.693128,120.542622,0.6145422
C1V830,國三S383K,2025-09-02,22.781967,120.426475,0.76219136
12Q980,恆春工作站,2025-09-02,22.079678,120.714425,0.58853376
C1O940,東山服務區,2025-09-02,23.286016,120.398472,0.21993332
C1U840,東澳嶺,2025-09-02,24.5378,121.8485,0.99677134
C1D630,飛鳳山,2025-09-02,24.766464,121.119178,0.49555403
C0S940,石寧山,2025-09-02,23.223772,121.406639,0.9927275
C0K410,北港,2025-09-02,23.573957,120.292802,0.1704344
C2M620,瑞里,2025-09-02,23.545133,120.675197,0.9244458
C0SB70,小港漁港,2025-09-02,23.158558,121.400431,0.9884284
C2O950,安南,2025-09-02,23.076694,120.144861,0.39381132
C0F0E0,南湖圈谷,2025-09-02,24.363714,121.444667,0.0133116245
467610,成功,2025-09-02,23.097486,121.373428,0.9838818
C0G890,伸港,2025-09-02,24.148933,120.484403,0.12601773
C2E540,龍溪,2025-09-02,24.606489,120.783933,0.17040119
C1V200,梅山,2025-09-02,23.268447,120.823556,0.996202
C0T9H0,加路蘭山,2025-09-02,23.682947,121.5274,0.9992196
C2O930,玉井,2025-09-02,23.126042,120.46055,0.48521543
C1F911,新伯公,2025-09-02,24.221361,120.841069,0.20689848
C0R490,九如,2025-09-02,22.7405,120.490503,0.9176711
C0X200,左鎮,2025-09-02,23.056758,120.408522,0.8181779
C0FA60,鞍馬山工作站,2025-09-02,24.267064,121.000793,0.0054126442
C0SB50,叭嗡嗡,2025-09-02,23.047062,121.343223,0.9808128
C1F891,稍來,2025-09-02,24.265689,121.001142,0.006938747
72N240,七股研究中心,2025-09-02,23.081672,120.062894,0.3661125
C0C700,中壢,2025-09-02,24.977661,121.256375,0.060142137
C0M690,水上,2025-09-02,23.419734,120.388909,0.21490468
C0V690,鼓山,2025-09-02,22.623325,120.275575,0.880977
C0O860,大內,2025-09-02,23.11885,120.36083,0.481106
C0Z200,萬榮,2025-09-02,23.709219,121.420106,0.99372846
C0T9D0,和中,2025-09-02,24.26676,121.74103,0.9994937
C1O921,楠西,2025-09-02,23.183511,120.484083,0.25932655
C0AJ30,淡水觀海,2025-09-02,25.184591,121.408616,0.061415244
C0V810,左營,2025-09-02,22.67491,120.28491,0.9511624
C0UA70,桃源谷,2025-09-02,24.962606,121.888875,0.8373096
C0X130,官田,2025-09-02,23.193217,120.315422,0.40083233
C1H000,翠峰,2025-09-02,24.109397,121.205211,0.9089833
C0UA90,石城,2025-09-02,24.980444,121.951214,0.09389857
C1E681,南勢山,2025-09-02,24.421669,120.923831,0.76525605
C0A9F0,內湖,2025-09-02,25.079422,121.57545,0.044574674
C0K291,宜梧,2025-09-02,23.536281,120.169329,0.1935416
C1K540,口湖,2025-09-02,23.585344,120.180517,0.1818762
C0R780,滿州,2025-09-02,22.024403,120.839892,0.8464605
C0V870,文安,2025-09-02,22.8025,120.2164,0.93296164
C0U650,玉蘭,2025-09-02,24.675286,121.587061,0.82927233
C0R640,東港,2025-09-02,22.46247,120.44074,0.7412751
C0AJ80,板橋,2025-09-02,25.0107,121.4489,0.056918614
C0S660,下馬,2025-09-02,23.150427,121.070312,0.99951535
C1H9B1,阿眉,2025-09-02,24.1263,120.994672,0.34449774
C0UA20,多加屯,2025-09-02,24.368614,121.373189,0.0020406845
C0E730,頭份,2025-09-02,24.688247,120.912206,0.15756892
72V140,高改旗南分場,2025-09-02,22.857861,120.516667,0.83274937
C0K480,莿桐,2025-09-02,23.761192,120.502372,0.13533452
C0U980,坪林石牌,2025-09-02,24.86478,121.77396,0.90330046
C0T900,西林,2025-09-02,23.8119,121.441458,0.9925952
C1I150,青雲,2025-09-02,23.793361,120.949378,0.42035896
467350,澎湖,2025-09-02,23.565503,119.563094,0.62370837
C0G800,埔鹽,2025-09-02,24.000394,120.431683,0.12593926
C0H960,草屯,2025-09-02,23.973672,120.68085,0.11859446
C1V780,多納林道,2025-09-02,22.888028,120.737917,0.9961569
C0E920,通霄漁港,2025-09-02,24.498589,120.673876,0.15300375
C0Z330,安通山,2025-09-02,23.290728,121.348528,0.9986982
C0AH10,永和,2025-09-02,25.01125,121.508111,0.056740202
C0AK10,太平里,2025-09-02,25.134937,121.364899,0.059546392
C2G640,鹿港,2025-09-02,24.0753,120.430481,0.114434525
C1E890,國三N149K,2025-09-02,24.463414,120.680019,0.16498429
C1R110,口社,2025-09-02,22.770111,120.645222,0.9976403
C1M870,國三N285K,2025-09-02,23.550319,120.505833,0.2657332
C1E480,鳳美,2025-09-02,24.554803,121.034747,0.8060213
C0M530,奮起湖,2025-09-02,23.493903,120.699253,0.87478673
C0C590,觀音,2025-09-02,25.027072,121.153317,0.08940169
C0T9M0,靜浦,2025-09-02,23.455167,121.495028,0.97011364
C2H9M0,發祥,2025-09-02,24.154094,121.164517,0.80797744
C0AI40,石牌,2025-09-02,25.115597,121.513139,0.052796822
C1F871,上谷關,2025-09-02,24.203483,121.018644,0.9124688
C2H9G0,百勝,2025-09-02,24.051142,120.909361,0.48159873
C0G880,二水,2025-09-02,23.810742,120.6173,0.14376436
C0R940,加祿堂,2025-09-02,22.3363,120.6217,0.9423093
C0W220,北竿,2025-09-02,26.220358,119.974881,0.05528055
C0O960,崎頂,2025-09-02,22.959547,120.369317,0.91007555
C0TA40,秀林,2025-09-02,24.302864,121.731144,0.9969986
C0S750,向陽,2025-09-02,23.248397,120.986133,0.27244163
C0T9F0,水璉,2025-09-02,23.797131,121.542514,0.9968811
C1M600,頭凍,2025-09-02,23.406364,120.603339,0.9922599
467660,臺東,2025-09-02,22.752211,121.154586,0.9936276
C1D380,新埔,2025-09-02,24.84745,121.03834,0.10805522
C2G980,田頭村,2025-09-02,23.8263,120.444175,0.15078613
C0V750,路竹,2025-09-02,22.854997,120.259439,0.96436447
C0N050,蚵寮,2025-09-02,23.301,120.1104,0.36542064
72M700,南改鹿草分場,2025-09-02,23.416869,120.283061,0.2811886
C1SA50,利嘉林道,2025-09-02,22.82325,121.009389,0.9824154
C0UB70,太平山中間站,2025-09-02,24.542003,121.513453,0.9718439
C0A940,金山,2025-09-02,25.223628,121.643967,0.060454987
C1V340,大津,2025-09-02,22.888322,120.645986,0.9710911
C0W180,七美,2025-09-02,23.219333,119.444892,0.8152698
C1F9C1,白冷,2025-09-02,24.182844,120.929889,0.8901852
K2E710,苗改生物防治研究中心,2025-09-02,24.422861,120.871833,0.22128275
C0N040,蘆竹溝,2025-09-02,23.2344,120.0961,0.43314704
C0D760,大坪苗圃,2025-09-02,24.5362,121.1108,0.4575008
C2W230,畜試所澎湖,2025-09-02,23.628342,119.513206,0.6236552
C0R880,後壁湖,2025-09-02,21.9457,120.7457,0.87751937
C1I280,埔中,2025-09-02,23.820778,120.642594,0.27056086
467790,墾丁雷達站,2025-09-02,21.948235,120.808028,0.91276383
C0W190,望安,2025-09-02,23.380564,119.494075,0.7901885
C0Z170,卓溪,2025-09-02,23.3443,121.3029,0.984624
C0F850,東勢,2025-09-02,24.246428,120.833047,0.13113773
466900,淡水,2025-09-02,25.164889,121.448906,0.059556175
C0I370,魚池,2025-09-02,23.895703,120.94135,0.97710633
C0C630,大溪,2025-09-02,24.882853,121.265547,0.13779986
C0A520,山佳,2025-09-02,24.974944,121.402008,0.045926362
C0I110,竹山,2025-09-02,23.761225,120.688156,0.15649407
82H840,茶改南部分場,2025-09-02,23.762528,120.7405,0.25813454
C0G660,溪湖,2025-09-02,23.94835,120.479122,0.10950672
C1T800,洛韶,2025-09-02,24.204558,121.453956,0.99015874
C1T810,慈恩,2025-09-02,24.192044,121.388386,0.97961676
C1E451,象鼻,2025-09-02,24.368617,120.940228,0.73049855
C0AC60,三峽,2025-09-02,24.939025,121.369728,0.06892558
C0I490,萬大林道,2025-09-02,23.928228,121.091411,0.5962699
C1I290,豐丘,2025-09-02,23.668178,120.887417,0.91377217
C1I320,奧萬大,2025-09-02,23.952956,121.178556,0.9011857
C2M910,嘉義大學,2025-09-02,23.471325,120.485903,0.1755578
C0U770,南澳,2025-09-02,24.44935,121.81022,0.9990516
C0A980,社子,2025-09-02,25.109508,121.469681,0.0584429
C0V800,六龜,2025-09-02,22.997889,120.633583,0.6262503
C1G9D0,國一S218K,2025-09-02,23.890641,120.493253,0.123650126
C0E570,白沙屯,2025-09-02,24.549447,120.696803,0.16714916
C2F9A0,中竹林,2025-09-02,24.103556,120.751061,0.13149686
C0FA40,臺中電廠,2025-09-02,24.2146,120.4907,0.12499945
C2G9A0,畜試所彰化,2025-09-02,23.86045,120.557964,0.098152064
C0H9C0,合歡山,2025-09-02,24.143442,121.272547,0.004619003
C0X060,下營,2025-09-02,23.22695,120.256261,0.43211117
G2M350,農試溪口農場,2025-09-02,23.58565,120.408111,0.16460373
C0U860,頭城,2025-09-02,24.85323,121.8308,0.09976355
C0R580,南州,2025-09-02,22.48591,120.50274,0.7412751
C0D430,峨眉,2025-09-02,24.6905,121.017189,0.13336752
C0G780,秀水,2025-09-02,24.03405,120.503869,0.11539872
72N100,臺南農改場,2025-09-02,23.0605,120.342194,0.49014676
C0S900,蘭嶼高中,2025-09-02,22.04909,121.51214,0.98967505
C1F9W0,德基,2025-09-02,24.254783,121.190261,0.008200629
C1Z120,壽豐,2025-09-02,23.870853,121.508081,0.9886347
C0W160,烏坵,2025-09-02,24.9944,119.44956,0.17043313
C1I240,外大坪,2025-09-02,23.958697,120.917931,0.9872057
C1I550,國六W023K,2025-09-02,23.979067,120.867742,0.115029104
C0R870,興海,2025-09-02,21.9752,120.8439,0.8914733
C0R140,瑪家,2025-09-02,22.682903,120.686639,0.9990681
C0A530,坪林,2025-09-02,24.938183,121.70975,0.21687129
C0X260,後壁,2025-09-02,23.366358,120.362326,0.28792316
C0Z230,和平,2025-09-02,24.30717,121.77007,0.9994897
C0G770,福興,2025-09-02,24.041289,120.437669,0.12573127
C0H9A0,神木村,2025-09-02,23.532742,120.843667,0.8828947
C0I460,南投,2025-09-02,23.911469,120.687331,0.08310532
C0I480,梅峰,2025-09-02,24.085272,121.173572,0.15322298
C1V570,吉東,2025-09-02,22.85422,120.5454,0.84514695
C2D740,屯原,2025-09-02,24.067969,121.209389,0.10630974
C2A560,福山,2025-09-02,24.776203,121.502811,0.27458128
C0AH30,五分山,2025-09-02,25.07125,121.780794,0.6403466
C0FA10,松柏,2025-09-02,24.429115,120.617482,0.14441615
72S200,東改班鳩分場,2025-09-02,22.829528,121.077694,0.99567807
72HA00,中改埔里分場,2025-09-02,23.903208,120.963364,0.97606933
C2H9W0,大坪頂農水,2025-09-02,24.043122,120.932781,0.98618615
C0C650,平鎮,2025-09-02,24.897503,121.214636,0.091761634
C0S930,延平,2025-09-02,22.902581,121.084058,0.98494387
C0UA60,樟樹山,2025-09-02,24.41393,121.78325,0.9987706
C1S670,摩天,2025-09-02,23.199503,121.027,0.97728354
C0V630,茄萣,2025-09-02,22.906642,120.182608,0.9439049
466940,基隆,2025-09-02,25.133314,121.740475,0.06684025
C0X050,東河,2025-09-02,23.296598,120.385608,0.21467869
C0R770,保力,2025-09-02,22.071122,120.764111,0.7982337
G2L020,農試嘉義分所,2025-09-02,23.485028,120.473806,0.23832761
C0X240,關子嶺,2025-09-02,23.331169,120.508025,0.3585574
C0I380,集集,2025-09-02,23.828206,120.801467,0.15070121
466990,花蓮,2025-09-02,23.975128,121.613275,0.99941695
C1V220,小關山,2025-09-02,23.154217,120.813603,0.8546807
C1F9G1,慶福山,2025-09-02,24.180853,120.848378,0.98918074
C0FB20,雪山橋,2025-09-02,24.23192,120.9786,0.032986183
C0Z250,瑞穗林道,2025-09-02,23.49284,121.30688,0.9995213
C0D590,新豐,2025-09-02,24.87068,120.97721,0.12777297
C0A870,五指山,2025-09-02,25.132153,121.608692,0.23298386
C0UA50,西帽山,2025-09-02,24.555361,121.802628,0.98589337
C0X160,仁德,2025-09-02,22.968258,120.257689,0.80810803
C1H971,六分寮,2025-09-02,23.92507,120.6378,0.270428
C0W120,西嶼,2025-09-02,23.5626,119.468436,0.57415897
C0G650,員林,2025-09-02,23.946503,120.585597,0.085304074
C0AD50,鶯歌,2025-09-02,24.951533,121.346294,0.071364924
C2H9Q0,北東眼山,2025-09-02,24.120939,121.189303,0.015612979
C2H9T0,名間竹圍,2025-09-02,23.859914,120.637572,0.12090878
C0S990,山豬窟,2025-09-02,22.318619,120.857372,0.9929359
C0X190,安平,2025-09-02,22.993161,120.152181,0.60913795
C0K400,斗六,2025-09-02,23.720583,120.541127,0.18935025
12J990,口湖工作站,2025-09-02,23.589978,120.180394,0.1820181
C0O830,北寮,2025-09-02,23.079561,120.495008,0.3926433
C1D410,白蘭,2025-09-02,24.579364,121.079947,0.5942429
C0S970,加津林,2025-09-02,22.416211,120.926942,0.9062528
C0D700,關西,2025-09-02,24.7977,121.1732,0.11822521
C0M810,里佳,2025-09-02,23.389125,120.716647,0.94584334
C0U750,龜山島,2025-09-02,24.841667,121.953133,0.7447315
C0R810,內獅,2025-09-02,22.305064,120.642986,0.94136673
C1M390,龍美,2025-09-02,23.406728,120.654417,0.97978145
C2FB60,頭櫃山,2025-09-02,24.129842,120.858925,0.82159173
C1H840,國三N238K,2025-09-02,23.841008,120.707711,0.11278272
CAQ030,崎峰國小,2025-09-02,22.42565,120.49521,0.7412751
C2E520,大湖,2025-09-02,24.414939,120.870872,0.1402267
467530,阿里山,2025-09-02,23.508208,120.813242,0.025259992
C1E691,南湖,2025-09-02,24.40135,120.837533,0.92075676
C0FA30,梧棲,2025-09-02,24.256003,120.523381,0.13259366
C1V231,高中,2025-09-02,23.134911,120.716711,0.9963349
C0AK30,硬漢嶺,2025-09-02,25.136097,121.426372,0.22836933
C0F9V0,新社,2025-09-02,24.200172,120.815806,0.60561556
C0H890,埔里,2025-09-02,23.972169,120.952425,0.20790088
C0R690,墾丁,2025-09-02,21.966756,120.810269,0.9809249
C0F0D0,審馬陣,2025-09-02,24.381675,121.4203,0.00073224516
C2W030,金門農試所,2025-09-02,24.448431,118.451786,0.06258106
C0R820,白鷺,2025-09-02,22.454275,120.666219,0.9989018
C0FB00,大雪山,2025-09-02,24.254668,121.007374,0.010899845
C1V190,南天池,2025-09-02,23.27403,120.91176,0.1119443
C0E940,雪見,2025-09-02,24.42595,121.01347,0.124924034
K2E360,苗栗農改場,2025-09-02,24.495722,120.829111,0.14264046
CAJ050,海口故事園區,2025-09-02,23.57543,120.14121,0.18193822
C2H9D0,三隻寮,2025-09-02,24.093078,120.861578,0.98593014
C0O990,媽廟,2025-09-02,22.99175,120.293525,0.74060637
C0D480,打鐵坑,2025-09-02,24.849664,121.150789,0.14131008
C0Z220,和平林道,2025-09-02,24.343922,121.656317,0.9999403
C0TA10,花蓮漁港,2025-09-02,23.995322,121.638331,0.9994085
72C440,桃園農改場,2025-09-02,24.950944,121.030583,0.08812894
C1E711,馬拉邦山,2025-09-02,24.367306,120.901656,0.56970906
C0SB20,富岡,2025-09-02,22.792467,121.192669,0.99201137
C0D560,竹東,2025-09-02,24.767147,121.057881,0.104972385
C0F9U0,南屯,2025-09-02,24.137006,120.637969,0.12355098
C0M720,番路,2025-09-02,23.464657,120.554156,0.24467207
C0F0A0,雪山圈谷,2025-09-02,24.388594,121.236339,0.0006230554
C1A9N0,四十份,2025-09-02,24.934158,121.593283,0.3183564
C0U760,東澳,2025-09-02,24.52196,121.83318,0.9979916
C0X230,鹽水,2025-09-02,23.272621,120.247641,0.3704651
C2H9H0,苗改南投蜂場,2025-09-02,23.852589,120.693481,0.10021201
C0R950,萬隆國小,2025-09-02,22.507667,120.587817,0.83416677
467540,大武,2025-09-02,22.35572,120.90374,0.90083057
C0V370,古亭坑,2025-09-02,22.893178,120.401947,0.80125743
C1I340,新興橋,2025-09-02,23.563333,120.868728,0.9798221
C0SA80,土坂,2025-09-02,22.453108,120.887572,0.9582992
C0R160,鹽埔,2025-09-02,22.739558,120.530778,0.92120385
C0AC40,大屯山,2025-09-02,25.175675,121.522408,0.0670359
466850,五分山雷達站,2025-09-02,25.071182,121.781205,0.6277667
C2H9L0,馬烈霸,2025-09-02,24.1512,121.201772,0.020572
C1AI50,國三N016K,2025-09-02,25.034164,121.619664,0.046365164
C1V600,藤枝,2025-09-02,23.071961,120.757042,0.9654425
C1E601,南勢,2025-09-02,24.572486,120.734842,0.20467713
C0O980,新市,2025-09-02,23.061614,120.298197,0.46412194
C0K420,西螺,2025-09-02,23.800407,120.467394,0.15361501
C0Z050,佳心,2025-09-02,23.34567,121.21316,0.99895626
C0AD30,蘆洲,2025-09-02,25.086594,121.472331,0.044318106
C0V610,梓官,2025-09-02,22.760558,120.267211,0.80855143
K2F750,種苗改良場,2025-09-02,24.225972,120.800917,0.34364536
C0UA80,大溪漁港,2025-09-02,24.941801,121.902955,0.10482573
C1AI60,國一39K邊坡,2025-09-02,25.064361,121.383836,0.047476705
C0W150,金寧,2025-09-02,24.457703,118.328989,0.06287274
C0R960,內埔,2025-09-02,22.608483,120.570714,0.95573443
V2C250,八德合作社,2025-09-02,24.93775,121.266389,0.08177536
C2H9S0,龍南,2025-09-02,23.953536,120.833183,0.7657168
C0AH40,平等,2025-09-02,25.129142,121.577086,0.14121042
C0R540,佳冬,2025-09-02,22.419456,120.552375,0.97870934
466950,彭佳嶼,2025-09-02,25.627975,122.079744,0.083550476
C0A890,雙溪,2025-09-02,25.036003,121.864242,0.14290605
C0C480,桃園,2025-09-02,24.992425,121.323172,0.05765554
C0AH50,林口,2025-09-02,25.072181,121.38084,0.052174035
A2K360,水試臺西試驗場,2025-09-02,23.717231,120.190522,0.15444839
C2M960,外寮,2025-09-02,23.562643,120.665688,0.9657286
C0F9S0,烏日,2025-09-02,24.107058,120.624103,0.08902422
C0C490,八德,2025-09-02,24.928708,121.283289,0.08245109
C0R190,赤山,2025-09-02,22.592333,120.614306,0.9576205
C0T820,天祥,2025-09-02,24.179597,121.495639,0.9995307
C1F9E1,龍安,2025-09-02,24.1605,120.831961,0.6896549
C0V820,小林,2025-09-02,23.148408,120.63325,0.7714109
C2G870,芳苑,2025-09-02,23.922303,120.320025,0.12589222
C0E850,大河,2025-09-02,24.618069,120.948578,0.11949274
C1U670,寒溪,2025-09-02,24.634,121.71691,0.26175207
C0N020,城西,2025-09-02,23.0568,120.0956,0.5748163
C1Z110,三棧,2025-09-02,24.11557,121.60501,0.9994924
C0R280,檳榔,2025-09-02,22.076078,120.836777,0.7516895
C2H9J0,中台,2025-09-02,23.9996,120.938739,0.819295
C0F9L0,后里,2025-09-02,24.310436,120.729725,0.08464534
467441,高雄,2025-09-02,22.730432,120.312516,0.81354594
C0Z180,新城,2025-09-02,24.040486,121.604878,0.99942183
C0D540,橫山,2025-09-02,24.71116,121.11693,0.14642829
C1D420,太閣南,2025-09-02,24.632808,121.160575,0.49538139
C1E770,公館,2025-09-02,24.526914,120.830806,0.13626407
CAN130,水試所海水繁養殖中心,2025-09-02,23.120802,120.07968,0.36707085
C1I430,翠華,2025-09-02,24.191961,121.224339,0.17564882
C1M400,菜瓜坪,2025-09-02,23.251928,120.576103,0.69390696
C0G730,二林,2025-09-02,23.903325,120.376081,0.13303384
72M360,南改義竹分場,2025-09-02,23.360694,120.279361,0.3239023
V2K620,麥寮合作社,2025-09-02,23.753836,120.294783,0.13539894
C0Z070,舞鶴,2025-09-02,23.46811,121.37407,0.9917536
C0B040,大武崙,2025-09-02,25.166676,121.706993,0.06980426
C1Z030,紅葉,2025-09-02,23.493119,121.338806,0.9811244
C1I050,丹大,2025-09-02,23.753747,121.141147,0.4647027
C0I080,信義,2025-09-02,23.689694,120.851036,0.93317544
C0D750,樂山林道6k,2025-09-02,24.49999,121.08773,0.0039236974
C2M920,朴子農改,2025-09-02,23.469889,120.259383,0.27934977
C2A880,福隆,2025-09-02,25.017842,121.942083,0.09283449
C0Z160,鳳林,2025-09-02,23.746114,121.453411,0.9925241
C0UB80,翠峰林道6K,2025-09-02,24.49773,121.568625,0.054421153
C0V210,復興,2025-09-02,23.222403,120.806089,0.998431
C0H990,昆陽,2025-09-02,24.121322,121.273642,0.28982392
C0R741,獅子,2025-09-02,22.202308,120.705236,0.89380646
C0S710,鹿野,2025-09-02,22.917711,121.122994,0.9960949
C0I530,小奇萊,2025-09-02,24.131764,121.295717,0.24915557
C0FA70,大雪山埡口,2025-09-02,24.26867,121.03062,0.0017813068
C2K630,荷苞,2025-09-02,23.657717,120.595144,0.26645035
C0Z080,富源,2025-09-02,23.587642,121.378225,0.9995706
C0SB10,美和,2025-09-02,22.682078,121.060236,0.9311166
C2K620,馬光農場,2025-09-02,23.721453,120.378864,0.17439069
C1I140,卡奈托灣,2025-09-02,23.754364,121.087872,0.57909256
C0I520,玉山風口,2025-09-02,23.470489,120.955994,0.0020104072
C1G691,下水埔,2025-09-02,23.816114,120.5676,0.13781951
C0X110,臺南市南區,2025-09-02,22.961189,120.188378,0.80597615
C0V680,仁武,2025-09-02,22.701083,120.347722,0.9512862
C2G840,北斗,2025-09-02,23.877586,120.514222,0.124791205
C0R900,竹坑,2025-09-02,22.1385,120.7022,0.7930191
C0K250,崙背,2025-09-02,23.75555,120.318925,0.13582934
C0G860,社頭,2025-09-02,23.897647,120.5862,0.09132333
C0X150,安定,2025-09-02,23.102614,120.227839,0.5848606
C0R590,里港,2025-09-02,22.77919,120.49459,0.69666004
C0E610,馬都安,2025-09-02,24.451272,120.930192,0.904747
C0E550,明德,2025-09-02,24.583486,120.885411,0.18820867
C0R150,三地門,2025-09-02,22.709889,120.639944,0.99761385
C0G910,花壇,2025-09-02,24.032076,120.549461,0.11685879
C1D400,鳥嘴山,2025-09-02,24.71909,121.28387,0.87832314
C0K500,元長,2025-09-02,23.64981,120.315024,0.15277417
C0F0B0,石岡,2025-09-02,24.276061,120.777644,0.09183488
C2V250,甲仙,2025-09-02,23.080106,120.591758,0.49697122
C0SA20,金崙山,2025-09-02,22.567419,120.959667,0.996425
C0V350,溪埔,2025-09-02,22.738578,120.446797,0.66188073
C0M660,溪口,2025-09-02,23.604131,120.403569,0.16459095
C1S880,壽卡,2025-09-02,22.238911,120.858903,0.9932198
72D680,桃改新埔分場,2025-09-02,24.834444,121.066111,0.10661559
