站號,站名,日期,lat,lon,BLBTSLS
C0R710,龍磐,2025-05-11,21.931672,120.838942,0.0016111158
C1F9D1,白毛台,2025-05-11,24.158325,120.886933,1.8852837e-09
C0G940,竹塘,2025-05-11,23.848253,120.386764,0.009209496
467590,恆春,2025-05-11,22.003897,120.746339,0.001849601
C1O850,環湖,2025-05-11,23.148617,120.418633,0.9911493
C0U710,太平山,2025-05-11,24.505486,121.525656,5.4057177e-09
C0E820,獅潭,2025-05-11,24.539133,120.920042,1.3649937e-07
C0V880,興達,2025-05-11,22.8778,120.2127,0.9962328
C0S890,關山,2025-05-11,23.0395,121.175017,2.4368423e-05
C0SB30,新蘭,2025-05-11,22.869214,121.223228,0.23669143
C2R970,屏科大,2025-05-11,22.648275,120.619247,0.96629363
C1Z130,銅門,2025-05-11,23.965694,121.492842,0.162402
C0AD40,土城,2025-05-11,24.973208,121.445169,1.3679105e-06
CAN140,六官養殖協會,2025-05-11,23.22881,120.29962,0.99723196
C0X180,山上,2025-05-11,23.0757,120.363253,0.98962116
C0F9Z0,雪山東峰,2025-05-11,24.388792,121.268675,1.261743e-08
C1M480,獨立山,2025-05-11,23.537022,120.607797,1.5377532e-08
C0X220,學甲,2025-05-11,23.230367,120.182187,0.9965374
467650,日月潭,2025-05-11,23.881325,120.90805,4.010589e-09
C0K600,箔子寮,2025-05-11,23.6197,120.14,1.440613e-05
C0G830,埤頭,2025-05-11,23.866003,120.452806,0.0038876163
C0S950,七塊厝,2025-05-11,22.954453,121.229922,2.0854137e-07
467110,金門,2025-05-11,24.407306,118.289281,1.7185326e-07
C0AH80,深坑,2025-05-11,25.002703,121.628328,6.995328e-07
C0A970,三貂角,2025-05-11,25.007606,122.002058,4.385588e-07
C2D730,寶山農場,2025-05-11,24.732444,120.976153,6.769887e-09
C0K430,褒忠,2025-05-11,23.690938,120.303634,0.99775934
467480,嘉義,2025-05-11,23.495925,120.432906,0.92544913
C0V400,阿公店,2025-05-11,22.804194,120.355528,0.9847049
C0E960,觀霧分站,2025-05-11,24.505781,121.113921,1.7504265e-09
467550,玉山,2025-05-11,23.48718,120.95943,1.2017611e-08
C0R440,大漢山,2025-05-11,22.405264,120.753181,5.7260524e-10
C0K280,四湖,2025-05-11,23.630414,120.227125,0.00014166805
C1F9B1,桐林,2025-05-11,24.066172,120.735194,0.9971827
C2H9U0,鳳鵬,2025-05-11,23.763919,120.788061,0.0002997192
C0K390,土庫,2025-05-11,23.679029,120.395574,0.9376911
C1I450,望鄉山,2025-05-11,23.594153,120.944286,4.6659614e-09
C0E910,海埔,2025-05-11,24.648767,120.772435,1.7964343e-08
B2E890,畜試北區分所,2025-05-11,24.527806,120.770972,3.5513033e-08
C0R750,四林格山,2025-05-11,22.076989,120.802439,1.5581405e-06
C0F0C0,中坑,2025-05-11,24.248517,120.903319,6.524668e-10
C1I121,大鞍,2025-05-11,23.678381,120.760017,2.8861746e-09
72U480,花改蘭陽分場,2025-05-11,24.686306,121.716583,0.0053155897
C0A770,科教館,2025-05-11,25.096356,121.516507,1.6957042e-06
C0AJ60,六塊厝,2025-05-11,25.24,121.4481,1.229382e-07
C0R620,墾雷,2025-05-11,21.900836,120.855269,0.00020129033
467420,永康,2025-05-11,23.038386,120.2367,0.8665814
C0I410,名間,2025-05-11,23.837053,120.701447,0.99252075
A2C560,農工中心,2025-05-11,24.985917,121.239833,4.5502135e-09
C0V740,旗山,2025-05-11,22.888614,120.483597,0.99708474
C0Z061,玉里,2025-05-11,23.3215,121.339656,1.6268235e-08
C0S840,南田,2025-05-11,22.279725,120.889208,0.00012822308
C1I470,杉林溪,2025-05-11,23.639517,120.786444,3.2756833e-09
C1X040,東原,2025-05-11,23.291597,120.463822,0.9941591
C0R660,枋寮,2025-05-11,22.367722,120.590647,0.93027574
C1R120,上德文,2025-05-11,22.763272,120.704442,2.9331089e-08
C0K450,大埤,2025-05-11,23.646074,120.431537,0.9978503
C0UA00,土場,2025-05-11,24.576533,121.495333,7.846906e-08
467080,宜蘭,2025-05-11,24.763975,121.756528,0.03024735
C0N030,四草,2025-05-11,23.0235,120.1116,0.99200535
467410,臺南,2025-05-11,22.99328,120.20492,0.9925269
C0V650,彌陀,2025-05-11,22.783806,120.246361,0.97597134
C0D660,新竹市東區,2025-05-11,24.798681,120.986942,1.9304631e-09
82S580,茶改東部分場,2025-05-11,22.907694,121.130139,0.00024265378
C0SB40,興隆,2025-05-11,22.913661,121.257469,0.10775124
467050,新屋,2025-05-11,25.006725,121.047492,4.1278563e-09
C0C710,大溪永福,2025-05-11,24.892936,121.324975,8.948552e-08
C0FA20,溫寮,2025-05-11,24.372177,120.583125,8.062921e-06
C0V640,湖內,2025-05-11,22.887139,120.2445,0.9964597
C0R910,下寮,2025-05-11,22.3929,120.5548,0.93027574
C0Z020,明里,2025-05-11,23.208717,121.262342,1.752375e-08
C0M770,嘉義梅山,2025-05-11,23.585398,120.555587,0.9413661
C0C660,楊梅,2025-05-11,24.912375,121.143047,1.8370993e-09
C1E511,新開,2025-05-11,24.347703,120.827019,0.00055096124
G2F820,農試所(霧峰),2025-05-11,24.031261,120.688133,0.99549866
C1I070,和社,2025-05-11,23.591131,120.888861,2.9670906e-05
C0TA80,立霧山,2025-05-11,24.183258,121.641899,1.9114738e-08
C2F000,大肚,2025-05-11,24.15295,120.572117,0.96614444
C1S850,豐南,2025-05-11,23.122139,121.262389,5.4904685e-09
C2A920,富貴角,2025-05-11,25.263783,121.565258,1.3553293e-08
CAH030,茶改場竹圍站,2025-05-11,23.860083,120.637528,0.00077636214
C0T960,光復,2025-05-11,23.660694,121.424964,3.3927727e-06
C0F9M0,豐原,2025-05-11,24.254322,120.720692,0.7450097
C0R720,旭海,2025-05-11,22.205403,120.887614,9.193891e-05
C0V710,苓雅,2025-05-11,22.622742,120.330669,0.9744978
C0C740,觀音工業區,2025-05-11,25.064764,121.114856,1.6067146e-08
CAC040,拉拉山,2025-05-11,24.699317,121.427133,5.777628e-09
C0V790,萬山,2025-05-11,22.905944,120.688056,0.9978646
U2HA30,臺大和社,2025-05-11,23.590856,120.888864,2.967082e-05
C0AJ90,澳底,2025-05-11,25.0552,121.9253,7.634326e-06
C0Z100,東華,2025-05-11,23.89525,121.549833,0.13855821
C0G970,三豐,2025-05-11,23.882,120.2895,2.616635e-05
V2K610,大庄合作社,2025-05-11,23.8068,120.367939,0.99602234
C0V900,汕尾,2025-05-11,22.4782,120.4151,0.99474466
C1R630,龍泉,2025-05-11,22.66701,120.59091,0.945929
C1AC50,關渡,2025-05-11,25.133486,121.469331,5.5747402e-09
C0C800,四稜,2025-05-11,24.64733,121.4293,7.1275905e-09
C0F9I0,神岡,2025-05-11,24.272481,120.658314,9.756169e-05
C0K460,斗南,2025-05-11,23.678734,120.478359,0.9974362
C2O810,曾文,2025-05-11,23.219681,120.497328,0.99604714
467280,後龍,2025-05-11,24.648563,120.831834,1.3473957e-08
C1F9J1,清水林,2025-05-11,24.071242,120.820419,8.825501e-10
C2A650,火燒寮,2025-05-11,25.002719,121.742892,1.414161e-08
466930,竹子湖,2025-05-11,25.162078,121.544547,1.156079e-09
C1I220,樟湖,2025-05-11,23.905333,120.846983,1.6039794e-09
C0I390,仁愛,2025-05-11,24.022122,121.132206,2.15565e-09
C0Z300,東里,2025-05-11,23.26853,121.30547,4.8143985e-08
C1V590,新發,2025-05-11,23.057019,120.646064,0.11454172
C0K510,水林,2025-05-11,23.572924,120.24597,0.3117636
72S590,東改賓朗果園,2025-05-11,22.813889,121.071278,1.9809626e-05
82A750,茶改北部分場,2025-05-11,24.955778,121.631222,5.8933125e-09
C1A750,石碇服務區,2025-05-11,25.00872,121.646242,5.818826e-07
C0X300,鹿寮,2025-05-11,23.386047,120.477331,0.99709165
G2AI50,關渡,2025-05-11,25.11575,121.492,7.7597186e-08
C0K590,雲林東勢,2025-05-11,23.674192,120.255721,0.749387
C0A570,桶後,2025-05-11,24.848222,121.597992,7.01669e-05
C1S800,華源,2025-05-11,22.657883,121.02325,1.0111151e-05
C0G720,溪州,2025-05-11,23.851589,120.499093,0.0024220564
C1V160,達卡努瓦,2025-05-11,23.279811,120.705319,1.0290934e-09
C2M410,馬頭山,2025-05-11,23.324361,120.582017,0.9420022
C0V850,蚵仔寮,2025-05-11,22.7256,120.2527,0.91665906
C0S740,池上,2025-05-11,23.119628,121.209469,4.0935717e-08
C1V390,尖山,2025-05-11,22.813153,120.367789,0.987276
C0AH70,松山,2025-05-11,25.04871,121.55042,1.3661231e-06
C0N010,鯤鯓國小,2025-05-11,23.1879,120.0889,0.9935777
C0R550,新埤,2025-05-11,22.467947,120.582894,0.9955883
C0SA60,知本（水試所）,2025-05-11,22.702394,121.082761,0.00038625597
C0T9I0,豐濱,2025-05-11,23.583897,121.514806,4.2147144e-06
C0UB00,淡江大學蘭陽校園,2025-05-11,24.823239,121.730383,2.4992316e-06
C0W240,九宮,2025-05-11,24.423753,118.240186,2.1525476e-07
C0T9N0,富里,2025-05-11,23.171639,121.249378,1.0092568e-08
U2HA50,臺大竹山,2025-05-11,23.756972,120.681556,0.99784005
C0V840,鳳鼻頭,2025-05-11,22.5083,120.3591,0.9925199
C0X140,西港,2025-05-11,23.125608,120.203108,0.9949357
72D080,桃改五峰分場,2025-05-11,24.612194,121.157167,6.806953e-10
C2H9P0,伊拿谷,2025-05-11,23.963211,121.088264,6.3314105e-09
C2H9F0,柑林,2025-05-11,24.018658,120.847072,0.15156329
C0TA20,加灣,2025-05-11,24.082025,121.608944,0.016085364
C0V530,阿蓮,2025-05-11,22.883208,120.327508,0.9465404
C0FB30,八仙山苗圃,2025-05-11,24.192719,121.001366,6.855945e-10
C1O880,關山,2025-05-11,23.173397,120.594092,0.9735025
C0E791,卓蘭,2025-05-11,24.3126,120.8244,0.071159855
C1I030,武界,2025-05-11,23.913225,121.052483,4.643597e-09
C0R520,崁頂,2025-05-11,22.514781,120.506914,0.9794405
C0R341,牡丹,2025-05-11,22.130036,120.792639,0.0013121295
C0R930,萬丹,2025-05-11,22.5885,120.4851,0.97429615
C0S760,紅石,2025-05-11,23.069131,121.126219,3.1588339e-09
C2C410,中央大學,2025-05-11,24.967652,121.185165,4.1012833e-09
C1M610,石磐龍,2025-05-11,23.496606,120.663506,5.149431e-10
C0C790,東眼山,2025-05-11,24.8284,121.40888,2.4836098e-09
C0UA10,鴛鴦湖,2025-05-11,24.590269,121.412228,2.9570764e-09
V2C260,八德蔬果,2025-05-11,24.978508,121.281819,5.515386e-09
C0R800,丹路,2025-05-11,22.204481,120.750989,0.00015706141
C0G920,永靖,2025-05-11,23.924703,120.547533,0.45235968
C2M950,太和,2025-05-11,23.538372,120.702961,5.534626e-10
C1A630,下盆,2025-05-11,24.771003,121.538622,1.4614716e-08
B2N890,畜產試驗所,2025-05-11,23.058972,120.336406,0.98486173
C0UA30,白嶺,2025-05-11,24.527819,121.519031,4.1257784e-09
C1V580,溪南(特生中心),2025-05-11,23.084972,120.788475,6.2460304e-10
C1T970,大農,2025-05-11,23.615233,121.413331,1.062787e-06
C0R650,竹田,2025-05-11,22.58486,120.54344,0.9484062
C1H900,清流,2025-05-11,24.080775,120.962997,6.922777e-10
C1C510,水尾,2025-05-11,24.940081,121.087161,1.2288242e-09
C0F9X0,大雅(中科園區),2025-05-11,24.21528,120.62445,0.1611739
C0SB60,白守蓮,2025-05-11,23.126769,121.401914,0.00040296264
C0O970,虎頭埤,2025-05-11,23.021375,120.347878,0.989814
C0C730,中大臨海站,2025-05-11,24.966126,121.008581,4.7281894e-09
C0X250,新營,2025-05-11,23.310689,120.316681,0.9980786
C0V700,三民,2025-05-11,22.645017,120.311233,0.9893065
C0U870,大礁溪,2025-05-11,24.791042,121.675047,3.1470368e-08
C0E870,高鐵苗栗,2025-05-11,24.60725,120.826094,1.4959411e-08
A2K570,古坑花卉中心,2025-05-11,23.63353,120.55239,0.99007446
C0TA30,鹽寮,2025-05-11,23.845606,121.592664,0.23734517
C0M860,新美,2025-05-11,23.338017,120.683169,1.88731e-08
C1E701,八卦,2025-05-11,24.491756,120.927619,1.1152016e-08
C0I420,國姓,2025-05-11,24.037803,120.855072,0.088625714
C2D720,關西工作站,2025-05-11,24.757275,121.184792,2.150287e-09
C0S960,香蘭,2025-05-11,22.587569,120.993375,0.00024152115
467620,蘭嶼,2025-05-11,22.0369,121.55843,6.6946876e-07
C0R260,春日,2025-05-11,22.370361,120.628306,0.96070266
72G600,臺中農改場,2025-05-11,24.003028,120.534389,0.975985
C0Z210,瑞穗,2025-05-11,23.5239,121.39021,4.0035695e-05
C0M820,達邦,2025-05-11,23.453994,120.749517,6.3553396e-10
C0V860,南寮,2025-05-11,22.7616,120.2339,0.91665906
C0G740,大城,2025-05-11,23.852487,120.320935,2.5319028e-05
C0R920,塭仔,2025-05-11,22.4169,120.5197,0.922939
C0R470,高樹,2025-05-11,22.826389,120.600806,0.98081774
C0R680,佳樂水,2025-05-11,21.993578,120.861633,0.0016568966
C1O870,大棟山,2025-05-11,23.31157,120.52226,6.3556427e-10
C0D360,梅花,2025-05-11,24.678347,121.208558,2.5456415e-09
C0Z190,富世,2025-05-11,24.14743,121.6297,5.2461222e-05
C0AI10,屈尺,2025-05-11,24.92184,121.54475,2.0880457e-06
B2U990,畜試東區分所,2025-05-11,24.669039,121.832561,0.013540611
C0SB80,長濱漁港,2025-05-11,23.313644,121.459994,7.15779e-07
C0TA50,和仁,2025-05-11,24.241394,121.712472,8.899617e-08
C0R240,來義,2025-05-11,22.527306,120.625111,0.9874886
C0V910,大樹,2025-05-11,22.684645,120.432803,0.94851434
C1R610,西大武山,2025-05-11,22.617719,120.7322,1.3424672e-09
C0G900,線西,2025-05-11,24.143358,120.443536,0.06077965
C0M700,竹崎,2025-05-11,23.526178,120.555508,0.993285
C2E880,三義,2025-05-11,24.405478,120.749819,2.757467e-08
C0C720,竹圍,2025-05-11,25.112692,121.239824,7.7597186e-08
C0F9P0,清水,2025-05-11,24.312297,120.562242,6.0215265e-05
C0Z150,吉安光華,2025-05-11,23.930925,121.595153,0.79555327
C0FA80,小雪山天池,2025-05-11,24.28025,121.02627,8.744241e-09
467300,東吉島,2025-05-11,23.25727,119.66762,0.6807049
C1D640,外坪(五指山),2025-05-11,24.644447,121.090961,1.0166987e-09
C0F9O0,潭子,2025-05-11,24.213106,120.703933,0.9919268
C2H9R0,卓社,2025-05-11,23.887894,121.000086,1.6613152e-09
72T250,花蓮農改場,2025-05-11,23.975222,121.563889,0.8231255
C0E780,銅鑼,2025-05-11,24.489681,120.790853,1.2870656e-08
C1T950,太安,2025-05-11,23.666719,121.370128,3.7365e-08
C0E830,苑裡,2025-05-11,24.439714,120.653053,4.1028116e-07
467270,田中,2025-05-11,23.873803,120.581286,0.97942394
C0SA10,檳榔四格山,2025-05-11,22.810031,121.109308,1.07042e-06
C1T830,布洛灣,2025-05-11,24.17184,121.57127,0.023258725
C0F970,大坑,2025-05-11,24.173142,120.722289,0.99835336
C1U920,思源,2025-05-11,24.393125,121.347214,1.8595984e-09
C0A931,三和,2025-05-11,25.233153,121.595236,9.3789465e-09
C0I010,廬山,2025-05-11,24.033311,121.181808,1.5361957e-09
C2M940,日野賀,2025-05-11,23.434056,120.727169,5.684234e-10
C0R860,鼻頭,2025-05-11,22.1043,120.8979,0.012267011
C0UB20,壯圍,2025-05-11,24.7359,121.8163,0.0073404633
C0R790,九棚,2025-05-11,22.14195,120.889281,0.0023573604
C0W110,東莒,2025-05-11,25.9652,119.98069,8.492944e-09
C1U930,粉鳥林,2025-05-11,24.497088,121.842479,0.3350435
C1I211,蘆竹湳,2025-05-11,23.934019,120.811994,5.555125e-09
C0S830,長濱,2025-05-11,23.286817,121.411975,4.5849218e-09
C1F9F1,伯公龍,2025-05-11,24.272392,120.849047,0.0592056
C0UB90,太平山莊,2025-05-11,24.494171,121.536209,5.507607e-09
C0E810,西湖,2025-05-11,24.562947,120.7485,2.0984986e-08
C1I440,新高口,2025-05-11,23.478744,120.878939,2.5877573e-09
C0O840,王爺宮,2025-05-11,23.222064,120.40085,0.9978303
C0T9G0,鳳林山,2025-05-11,23.735269,121.420131,6.3718645e-08
C0X080,佳里,2025-05-11,23.173039,120.145086,0.9935777
C0FB70,大甲溪埔,2025-05-11,24.370625,120.620067,5.05706e-06
C0Z310,清水斷崖,2025-05-11,24.218294,121.689142,3.547756e-08
C0M680,太保,2025-05-11,23.455062,120.331455,0.9948974
C1S820,金峰,2025-05-11,22.590969,120.933236,1.8153168e-06
C0AD10,八里,2025-05-11,25.150211,121.403947,7.7597186e-08
C2K240,草嶺,2025-05-11,23.59555,120.693461,5.52033e-10
C1SA70,都蘭,2025-05-11,22.87794,121.226881,0.10775124
C0K440,二崙,2025-05-11,23.772797,120.408944,0.6641377
C1A760,坪林交控,2025-05-11,24.94284,121.713442,2.1934218e-05
C0F9N0,大里,2025-05-11,24.092464,120.701378,0.9982418
C0SA90,達仁林場,2025-05-11,22.264347,120.823972,6.866722e-07
C1R290,石門山,2025-05-11,22.112611,120.756597,0.00019790344
42HA10,萬大發電廠,2025-05-11,23.978875,121.139639,4.1654085e-09
C0R890,山海,2025-05-11,21.9878,120.7091,9.2018454e-05
C0T9A0,月眉山,2025-05-11,23.809928,121.539828,1.15201104e-07
C0AC70,信義,2025-05-11,25.037822,121.564597,1.3661231e-06
C0K560,棋山,2025-05-11,23.68645,120.603417,0.98966986
C2FB50,出雲,2025-05-11,24.206469,120.902794,6.05803e-10
C1Z240,中平林道,2025-05-11,23.42115,121.26763,4.4935856e-08
U2H480,溪頭,2025-05-11,23.670306,120.798194,6.8372974e-10
C0M880,好美里,2025-05-11,23.3364,120.138,0.93865526
C0T9E0,大坑,2025-05-11,23.880628,121.581981,4.2128553e-07
C0K530,臺西,2025-05-11,23.701547,120.197559,0.6125802
C1E900,國一N128K,2025-05-11,24.560997,120.844186,2.1073228e-08
C0AJ50,水湳洞,2025-05-11,25.123695,121.862238,1.4301014e-07
C0AI20,白沙灣,2025-05-11,25.283128,121.519058,1.00744536e-07
C2V310,美濃,2025-05-11,22.898792,120.51907,0.996997
C0A860,大坪,2025-05-11,25.165914,121.632969,2.11209e-09
C1U850,觀音海岸,2025-05-11,24.38319,121.77856,3.7802778e-08
C2K610,草嶺石壁,2025-05-11,23.602469,120.707731,5.5047794e-10
C0U950,鶯子嶺,2025-05-11,24.89754,121.79244,2.4675508e-09
C0O900,善化,2025-05-11,23.112883,120.297219,0.9813112
C0K550,蔦松,2025-05-11,23.514319,120.229736,0.01872804
E2P980,林試六龜中心,2025-05-11,22.991703,120.645722,0.99455917
C0E590,通霄,2025-05-11,24.471892,120.704622,5.258135e-08
C1I310,西巒,2025-05-11,23.754486,120.883956,3.3609966e-09
C0A550,泰平,2025-05-11,24.971197,121.823711,4.510603e-09
C0I360,水里,2025-05-11,23.812553,120.849792,0.32655835
C0R830,高士,2025-05-11,22.121825,120.836781,5.9952214e-05
C1I101,溪頭,2025-05-11,23.661789,120.807647,4.4790966e-09
C0AJ20,野柳,2025-05-11,25.20703,121.690021,3.4504063e-07
C0B060,暖暖,2025-05-11,25.0957,121.7403,6.102388e-07
C1H920,長豐,2025-05-11,24.102039,120.879897,9.845258e-10
C0V360,內門,2025-05-11,22.975481,120.466769,0.99645305
C0R850,林邊,2025-05-11,22.4634,120.5339,0.9949887
C0E930,龍鳳,2025-05-11,24.700034,120.859125,4.8381277e-09
C0U910,冬山,2025-05-11,24.63373,121.7937,0.013540611
C1E721,泰安,2025-05-11,24.489017,120.968036,4.917962e-10
82H320,茶改中部分場,2025-05-11,23.875611,120.913583,1.3979627e-08
C0M750,布袋,2025-05-11,23.380878,120.167789,0.9389341
C1S860,利嘉,2025-05-11,22.809417,121.050528,2.9780074e-09
E2S980,林試太麻里1,2025-05-11,22.598922,120.980044,6.0240534e-05
C0X170,關廟,2025-05-11,22.963017,120.327797,0.9507372
C0V720,林園,2025-05-11,22.507747,120.394511,0.992864
C1I510,線浸林道,2025-05-11,23.761508,120.832956,1.5348193e-09
C0D690,外湖,2025-05-11,24.917735,120.968711,1.9856545e-09
C0C750,新興坑尾,2025-05-11,25.0061,121.0971,3.1610277e-09
B2Q810,畜試南區分所,2025-05-11,21.945583,120.802167,0.001749751
C0S790,金崙,2025-05-11,22.538122,120.966875,4.9065835e-07
C0AH90,福山植物園,2025-05-11,24.760717,121.58135,5.8793455e-09
C0I540,奇萊稜線,2025-05-11,24.109231,121.326456,6.5170465e-09
C0M850,表湖,2025-05-11,23.24186,120.64166,3.2007353e-07
C0S770,大溪山,2025-05-11,22.478475,120.943325,8.130328e-09
C0AG80,中和,2025-05-11,24.991622,121.491792,1.3679105e-06
C0T790,大禹嶺,2025-05-11,24.186117,121.316086,4.400026e-09
C0T9B0,水源,2025-05-11,23.991861,121.537169,3.6197864e-07
C0R840,牡丹池山,2025-05-11,22.168389,120.841225,5.2615013e-07
C1I131,桶頭,2025-05-11,23.641944,120.654117,0.8591726
CAL110,布袋國中,2025-05-11,23.35893,120.18026,0.9389341
467571,新竹,2025-05-11,24.827853,121.014219,1.2150849e-09
C0Z290,赤柯山,2025-05-11,23.36893,121.38293,6.53623e-09
C0X280,將軍,2025-05-11,23.214999,120.13577,0.99658346
C0S690,太麻里,2025-05-11,22.60902,120.98533,3.3789684e-09
C0U880,北關,2025-05-11,24.9072,121.8734,0.009186399
C0G810,埔心,2025-05-11,23.947633,120.525456,0.448928
C0U970,大福,2025-05-11,24.80064,121.81389,0.033678625
C2H9N0,仁愛東眼,2025-05-11,24.026875,121.1205,1.5510996e-09
C1E670,南礦,2025-05-11,24.538278,121.002836,3.8909476e-10
C0M520,東後寮,2025-05-11,23.369908,120.248065,0.9256613
C1E461,松安,2025-05-11,24.397972,120.986022,9.610994e-10
C2N160,西拉雅風管處,2025-05-11,23.189481,120.335297,0.9934133
C2M970,碧湖,2025-05-11,23.568632,120.624165,5.824095e-10
C0A640,石碇,2025-05-11,24.993969,121.662917,3.7484707e-08
E2S960,林試太麻里2,2025-05-11,22.598,120.99775,0.00026570362
C0F9Y0,桃山,2025-05-11,24.432739,121.303808,1.2455314e-08
C1I020,萬大,2025-05-11,23.979817,121.132261,2.105771e-09
C0U940,羅東,2025-05-11,24.68184,121.74934,0.0055492357
C0M650,朴子,2025-05-11,23.43463,120.23902,0.031870436
C1I500,大尖山,2025-05-11,23.858572,120.994889,2.9346967e-09
C0FB40,中橫21.6k,2025-05-11,24.2499,121.1455,1.4069472e-09
C0G820,田尾,2025-05-11,23.901669,120.509389,0.448928
E2K600,四湖植物園,2025-05-11,23.676986,120.163433,0.00014166805
C0S730,綠島,2025-05-11,22.6672,121.47533,0.00017984203
12Q970,東港工作站,2025-05-11,22.479997,120.466058,0.9947498
C0E430,南庄,2025-05-11,24.601775,121.000214,1.1747324e-07
C1TA00,太魯閣,2025-05-11,24.15773,121.6236,7.723263e-06
466920,臺北,2025-05-11,25.037658,121.514853,1.3661231e-06
C0R600,舊泰武,2025-05-11,22.588194,120.664944,0.015920639
C1I260,北坑,2025-05-11,23.9246,121.006903,3.2839973e-09
466910,鞍部,2025-05-11,25.182586,121.529731,1.4579071e-09
C1I230,九份二山,2025-05-11,23.961944,120.845,1.547513e-08
C2A660,瑞芳,2025-05-11,25.113169,121.801147,3.3777912e-08
C0R270,琉球嶼,2025-05-11,22.332244,120.362236,1.5089781e-05
C1T990,高寮,2025-05-11,23.394239,121.356808,6.7553145e-08
C0G620,芬園,2025-05-11,24.015678,120.6213,0.98602587
C1Z140,荖溪,2025-05-11,23.890575,121.45964,4.7681937e-08
C1I201,中心崙,2025-05-11,23.728722,120.712097,2.4352844e-09
C1I400,凌霄,2025-05-11,24.018778,121.004456,1.5501177e-09
C1M640,十字,2025-05-11,23.492153,120.753683,1.1687787e-09
G2P820,農試鳳山分所,2025-05-11,22.646611,120.356083,0.9908783
C0Z270,蕃薯寮,2025-05-11,23.73835,121.540108,7.927385e-05
C0FB10,出雲山苗圃,2025-05-11,24.23105,120.90475,6.524668e-10
C0F9Q0,外埔,2025-05-11,24.347817,120.705686,3.254659e-06
C0K580,高鐵雲林,2025-05-11,23.737456,120.417944,0.9871465
C2I090,鳳凰,2025-05-11,23.728081,120.787347,6.2335814e-10
C0U990,員山,2025-05-11,24.74435,121.72247,0.007006084
C0V770,大社,2025-05-11,22.730306,120.346639,0.93273216
C0X120,麻豆,2025-05-11,23.183289,120.248611,0.99639755
C0C670,龍潭,2025-05-11,24.870056,121.221389,7.1858497e-09
C0D680,香山濕地,2025-05-11,24.783581,120.914988,3.1504461e-09
C0S980,勝林山,2025-05-11,22.430439,120.8938,1.1372399e-09
C0V730,大寮,2025-05-11,22.605614,120.395717,0.9769461
C0R570,麟洛,2025-05-11,22.65078,120.52719,0.93557984
C2M930,石卓,2025-05-11,23.478744,120.702264,9.717648e-10
C0G9B0,和美,2025-05-11,24.105169,120.492131,0.9532278
CAG100,王功漁港,2025-05-11,23.96824,120.32586,2.0404395e-05
C0X290,北門,2025-05-11,23.267772,120.125481,0.99658346
C2F930,大甲,2025-05-11,24.347667,120.640403,2.000237e-06
C0D650,湖口,2025-05-11,24.904794,121.043628,1.2740905e-09
C0E420,竹南,2025-05-11,24.708978,120.888897,3.633383e-09
C0U780,五結,2025-05-11,24.68637,121.79794,0.007374453
C1I250,鯉潭,2025-05-11,23.961922,120.991131,1.3049664e-07
C0R130,阿禮,2025-05-11,22.742908,120.743678,1.1357398e-09
C0X100,臺南市北區,2025-05-11,23.010394,120.194228,0.99210787
C0S920,金峰嘉蘭,2025-05-11,22.594789,120.960825,4.3253654e-05
C0V490,新興,2025-05-11,22.627422,120.298803,0.97449934
C0F9K0,大安,2025-05-11,24.345061,120.588025,5.947585e-06
467290,古坑,2025-05-11,23.633639,120.551889,0.99007446
C2E970,八甲,2025-05-11,24.535811,120.795983,7.3392017e-09
C0V440,鳳山,2025-05-11,22.646653,120.356122,0.9908783
C1T940,大觀,2025-05-11,23.714206,121.373133,2.652544e-07
C0E740,造橋,2025-05-11,24.637056,120.864778,1.4959411e-08
C0R100,尾寮山,2025-05-11,22.833111,120.683889,7.2504847e-10
A2K630,臺大雲林校區,2025-05-11,23.730628,120.423903,0.9871465
467990,馬祖,2025-05-11,26.169467,119.923158,3.36046e-08
C0D580,寶山,2025-05-11,24.735006,121.025192,5.128358e-07
E2P990,林試扇平站,2025-05-11,22.9677,120.6857,0.09801255
C0AI30,三重,2025-05-11,25.057328,121.500629,1.6957042e-06
C0AH00,汐止,2025-05-11,25.066881,121.658778,1.3661231e-06
C1Z040,立山,2025-05-11,23.443356,121.327375,9.432842e-08
466881,新北,2025-05-11,24.959207,121.525196,9.784786e-07
C0W130,花嶼,2025-05-11,23.40007,119.32276,0.013018743
C0A950,鼻頭角,2025-05-11,25.129036,121.923372,0.013994564
C0K470,林內,2025-05-11,23.748675,120.609642,0.9977755
C2F990,摩天嶺,2025-05-11,24.322458,120.936819,7.5648643e-10
82C160,茶改場,2025-05-11,24.908472,121.185333,1.2940656e-09
C0Z320,清水林道,2025-05-11,23.27125,121.188272,3.001011e-08
C0R760,南仁湖,2025-05-11,22.084681,120.863353,0.00019790344
C0M670,大林,2025-05-11,23.600616,120.45841,0.9683694
C0M800,茶山,2025-05-11,23.299075,120.664767,5.2418613e-06
C0A9C0,天母,2025-05-11,25.117494,121.537169,1.6348922e-08
72K220,南改斗南分場,2025-05-11,23.634556,120.477333,0.9974362
72AI40,桃改樹林分場,2025-05-11,24.944503,121.386972,5.433403e-08
C0S910,蘭嶼燈塔,2025-05-11,22.081197,121.503117,1.203112e-05
C0B050,八斗子,2025-05-11,25.144754,121.79167,2.2553945e-07
C0U900,內城,2025-05-11,24.71813,121.68766,0.0040934356
C0X320,柳營,2025-05-11,23.253328,120.375253,0.9969075
C0M790,新港,2025-05-11,23.553269,120.345728,0.14108619
C0F9T0,西屯,2025-05-11,24.179494,120.641275,0.9914663
C0E950,松安,2025-05-11,24.39792,120.98599,9.610994e-10
C0SA30,都歷,2025-05-11,23.020333,121.323642,0.045379438
C0C620,蘆竹,2025-05-11,25.084275,121.265767,2.2125956e-08
C0R730,大坪頂,2025-05-11,22.024633,120.69355,0.00022633724
C0AJ40,石門,2025-05-11,25.273672,121.601198,2.2480906e-08
C0E750,苗栗,2025-05-11,24.564569,120.824575,2.3353893e-08
C0T870,鯉魚潭,2025-05-11,23.935639,121.508944,0.29242724
C1V170,排雲,2025-05-11,23.463619,120.954147,8.429407e-09
C2H950,中寮,2025-05-11,23.884447,120.766406,0.9844742
C0R350,貓鼻頭,2025-05-11,21.921774,120.7358,0.0013551668
C0V660,岡山,2025-05-11,22.797078,120.294958,0.9759665
C1H941,雙冬,2025-05-11,23.967378,120.802189,2.8419707e-09
C0AJ70,田寮,2025-05-11,25.2698,121.4886,1.1363605e-07
C0AI00,五股,2025-05-11,25.07445,121.42728,4.7944377e-09
C0Z280,德武,2025-05-11,23.47426,121.41071,6.890903e-08
C0R700,枋山,2025-05-11,22.246844,120.661086,0.020099187
C0C460,復興,2025-05-11,24.820208,121.352281,9.856249e-10
E2H360,蓮華池,2025-05-11,23.918333,120.885278,1.6172134e-09
C0M640,中埔,2025-05-11,23.42538,120.5229,0.9967118
C0W140,金沙,2025-05-11,24.488292,118.408778,1.7073035e-07
C2A540,四堵,2025-05-11,24.8926,121.745736,1.07990175e-07
C0ACA0,新莊,2025-05-11,25.051478,121.446756,1.0890485e-07
C0R220,潮州,2025-05-11,22.534361,120.54,0.98063
U2HA40,臺大內茅埔,2025-05-11,23.689722,120.851117,3.4898744e-09
467490,臺中,2025-05-11,24.145736,120.684075,0.9986607
C0UB60,明池,2025-05-11,24.650688,121.475277,7.1047066e-09
C0U960,翠峰湖,2025-05-11,24.510856,121.608044,5.8268976e-09
E2HA20,林試畢祿溪站,2025-05-11,24.226944,121.308522,5.2499054e-09
C0V890,前鎮,2025-05-11,22.5718,120.3117,0.97200245
C1F941,雪嶺,2025-05-11,24.280586,121.026642,8.744258e-09
C2H9E0,國姓南港,2025-05-11,23.911108,120.846556,1.4834186e-09
C0AC80,文山,2025-05-11,25.00235,121.575728,6.731083e-07
C0F9R0,龍井,2025-05-11,24.184536,120.528972,0.0020357673
C0M760,民雄,2025-05-11,23.551754,120.428457,0.97994703
C0UA40,西德山,2025-05-11,24.560647,121.752608,4.4141735e-09
C1T920,中興,2025-05-11,23.769503,121.498653,0.06640584
C0D550,雪霸,2025-05-11,24.526972,121.11605,1.2609076e-09
C2F860,梨山,2025-05-11,24.247522,121.243669,5.4397256e-09
C0R320,車城,2025-05-11,22.0744,120.716247,7.5299645e-06
C1S870,南美山,2025-05-11,23.15025,121.382333,1.1199082e-08
C0B020,基隆嶼,2025-05-11,25.19141,121.78391,0.0003153371
C1U501,牛鬥,2025-05-11,24.637836,121.573656,0.0011570515
C0M730,嘉義市東區,2025-05-11,23.457673,120.460531,0.99759316
C0S700,知本,2025-05-11,22.684866,121.005642,2.8199403e-09
C1N001,沙崙,2025-05-11,22.935472,120.309406,0.9477337
C0V760,橋頭,2025-05-11,22.757806,120.30575,0.9226935
C0G960,福寶,2025-05-11,24.0443,120.3814,0.96286935
C0X210,白河,2025-05-11,23.347466,120.414427,0.99692184
C0S810,東河,2025-05-11,22.972672,121.303986,0.09757345
C2R170,屏東,2025-05-11,22.66027,120.49403,0.93557984
C0R670,楓港,2025-05-11,22.190131,120.692156,0.0014697759
C0FA50,霧峰,2025-05-11,24.0419,120.6995,0.9942195
C0UB10,蘇澳,2025-05-11,24.5969,121.8571,0.30701795
C0G950,防潮門,2025-05-11,24.1835,120.4871,0.0020156088
C0M740,六腳,2025-05-11,23.492871,120.290625,0.02169188
C1R250,力里,2025-05-11,22.428117,120.629228,0.99368703
C0K330,虎尾,2025-05-11,23.719183,120.442036,0.9811193
C2FA00,烏石坑,2025-05-11,24.273503,120.947617,7.735447e-10
C0V620,永安,2025-05-11,22.82315,120.236856,0.97597134
C1I330,楓樹林,2025-05-11,23.986803,121.076117,1.7058647e-09
C0W200,湖西,2025-05-11,23.596314,119.67275,0.036081746
72Q010,高雄農改場,2025-05-11,22.709333,120.525889,0.9751447
C0SA40,瑞和,2025-05-11,22.974361,121.156697,0.001461897
C0C680,龜山,2025-05-11,25.02846,121.38656,2.5240492e-09
C2V260,月眉,2025-05-11,22.971003,120.539853,0.9975335
C0V450,鳳森,2025-05-11,22.545064,120.392592,0.99464536
C0FA90,小雪山林道,2025-05-11,24.29515,121.03651,1.2170802e-08
C0U720,南山,2025-05-11,24.43742,121.38167,3.141787e-09
A2N290,臺南蘭花園區,2025-05-11,23.340258,120.379661,0.9934689
C0R560,新園,2025-05-11,22.5434,120.461558,0.992864
C0U890,三星,2025-05-11,24.66812,121.65302,0.010231431
C1V300,御油山,2025-05-11,23.001983,120.715364,5.491241e-10
C0U600,礁溪,2025-05-11,24.817539,121.765608,0.02919204
C1T980,龍澗,2025-05-11,24.023289,121.411328,2.2244013e-08
C0D670,海天一線,2025-05-11,24.831986,120.914438,1.5746395e-09
C0SA00,歷坵,2025-05-11,22.520969,120.89185,4.9346713e-09
C0M710,東石,2025-05-11,23.458927,120.15385,0.0013091723
C0M780,鹿草,2025-05-11,23.41134,120.30835,0.025440877
C0U520,雙連埤,2025-05-11,24.753033,121.641303,2.8917414e-08
C0B010,七堵,2025-05-11,25.094819,121.71713,1.8888118e-06
C0R480,長治,2025-05-11,22.693128,120.542622,0.95526606
C1V830,國三S383K,2025-05-11,22.781967,120.426475,0.99653244
12Q980,恆春工作站,2025-05-11,22.079678,120.714425,7.52995e-06
C1O940,東山服務區,2025-05-11,23.286016,120.398472,0.9942765
C1U840,東澳嶺,2025-05-11,24.5378,121.8485,6.580929e-08
C1D630,飛鳳山,2025-05-11,24.766464,121.119178,1.1601412e-09
C0S940,石寧山,2025-05-11,23.223772,121.406639,2.1126455e-07
C0K410,北港,2025-05-11,23.573957,120.292802,0.19367203
C2M620,瑞里,2025-05-11,23.545133,120.675197,5.155524e-10
C0SB70,小港漁港,2025-05-11,23.158558,121.400431,1.6008624e-05
C2O950,安南,2025-05-11,23.076694,120.144861,0.9906373
C0F0E0,南湖圈谷,2025-05-11,24.363714,121.444667,1.2717093e-08
467610,成功,2025-05-11,23.097486,121.373428,0.00027342566
C0G890,伸港,2025-05-11,24.148933,120.484403,0.061583277
C2E540,龍溪,2025-05-11,24.606489,120.783933,1.6099264e-08
C1V200,梅山,2025-05-11,23.268447,120.823556,6.35811e-08
C0T9H0,加路蘭山,2025-05-11,23.682947,121.5274,2.3737323e-08
C2O930,玉井,2025-05-11,23.126042,120.46055,0.98962116
C1F911,新伯公,2025-05-11,24.221361,120.841069,0.21560937
C0R490,九如,2025-05-11,22.7405,120.490503,0.9731983
C0X200,左鎮,2025-05-11,23.056758,120.408522,0.9892638
C0FA60,鞍馬山工作站,2025-05-11,24.267064,121.000793,4.966388e-09
C0SB50,叭嗡嗡,2025-05-11,23.047062,121.343223,0.84364694
C1F891,稍來,2025-05-11,24.265689,121.001142,4.799635e-09
72N240,七股研究中心,2025-05-11,23.081672,120.062894,0.9906057
C0C700,中壢,2025-05-11,24.977661,121.256375,4.3887445e-09
C0M690,水上,2025-05-11,23.419734,120.388909,0.99389654
C0V690,鼓山,2025-05-11,22.623325,120.275575,0.97449934
C0O860,大內,2025-05-11,23.11885,120.36083,0.98384434
C0Z200,萬榮,2025-05-11,23.709219,121.420106,0.021550475
C0T9D0,和中,2025-05-11,24.26676,121.74103,0.08267824
C1O921,楠西,2025-05-11,23.183511,120.484083,0.9924756
C0AJ30,淡水觀海,2025-05-11,25.184591,121.408616,1.679778e-07
C0V810,左營,2025-05-11,22.67491,120.28491,0.9893144
C0UA70,桃源谷,2025-05-11,24.962606,121.888875,2.8820157e-09
C0X130,官田,2025-05-11,23.193217,120.315422,0.99316174
C1H000,翠峰,2025-05-11,24.109397,121.205211,1.9551383e-09
C0UA90,石城,2025-05-11,24.980444,121.951214,3.9665438e-06
C1E681,南勢山,2025-05-11,24.421669,120.923831,1.5405942e-09
C0A9F0,內湖,2025-05-11,25.079422,121.57545,1.3661231e-06
C0K291,宜梧,2025-05-11,23.536281,120.169329,0.01872804
C1K540,口湖,2025-05-11,23.585344,120.180517,1.6203212e-05
C0R780,滿州,2025-05-11,22.024403,120.839892,0.0016324914
C0V870,文安,2025-05-11,22.8025,120.2164,0.97388655
C0U650,玉蘭,2025-05-11,24.675286,121.587061,5.978727e-08
C0R640,東港,2025-05-11,22.46247,120.44074,0.9947498
C0AJ80,板橋,2025-05-11,25.0107,121.4489,1.4948323e-06
C0S660,下馬,2025-05-11,23.150427,121.070312,7.933254e-09
C1H9B1,阿眉,2025-05-11,24.1263,120.994672,7.749702e-09
C0UA20,多加屯,2025-05-11,24.368614,121.373189,5.3176383e-09
C0E730,頭份,2025-05-11,24.688247,120.912206,4.0182e-09
72V140,高改旗南分場,2025-05-11,22.857861,120.516667,0.996997
C0K480,莿桐,2025-05-11,23.761192,120.502372,0.99586624
C0U980,坪林石牌,2025-05-11,24.86478,121.77396,2.441988e-08
C0T900,西林,2025-05-11,23.8119,121.441458,0.0035466887
C1I150,青雲,2025-05-11,23.793361,120.949378,2.7663274e-08
467350,澎湖,2025-05-11,23.565503,119.563094,0.02074695
C0G800,埔鹽,2025-05-11,24.000394,120.431683,0.30692282
C0H960,草屯,2025-05-11,23.973672,120.68085,0.98705107
C1V780,多納林道,2025-05-11,22.888028,120.737917,4.8751597e-10
C0E920,通霄漁港,2025-05-11,24.498589,120.673876,7.9727116e-08
C0Z330,安通山,2025-05-11,23.290728,121.348528,1.4699864e-09
C0AH10,永和,2025-05-11,25.01125,121.508111,1.4948323e-06
C0AK10,太平里,2025-05-11,25.134937,121.364899,6.661069e-08
C2G640,鹿港,2025-05-11,24.0753,120.430481,0.96286935
C1E890,國三N149K,2025-05-11,24.463414,120.680019,2.1224885e-07
C1R110,口社,2025-05-11,22.770111,120.645222,0.9732433
C1M870,國三N285K,2025-05-11,23.550319,120.505833,0.95925593
C1E480,鳳美,2025-05-11,24.554803,121.034747,1.0169338e-08
C0M530,奮起湖,2025-05-11,23.493903,120.699253,5.5833355e-10
C0C590,觀音,2025-05-11,25.027072,121.153317,8.071136e-09
C0T9M0,靜浦,2025-05-11,23.455167,121.495028,3.6502508e-06
C2H9M0,發祥,2025-05-11,24.154094,121.164517,7.849986e-09
C0AI40,石牌,2025-05-11,25.115597,121.513139,1.9021778e-08
C1F871,上谷關,2025-05-11,24.203483,121.018644,6.334947e-10
C2H9G0,百勝,2025-05-11,24.051142,120.909361,6.782333e-09
C0G880,二水,2025-05-11,23.810742,120.6173,0.9988414
C0R940,加祿堂,2025-05-11,22.3363,120.6217,0.6610473
C0W220,北竿,2025-05-11,26.220358,119.974881,1.727011e-08
C0O960,崎頂,2025-05-11,22.959547,120.369317,0.9735936
C0TA40,秀林,2025-05-11,24.302864,121.731144,2.3238808e-08
C0S750,向陽,2025-05-11,23.248397,120.986133,1.1618396e-09
C0T9F0,水璉,2025-05-11,23.797131,121.542514,6.812897e-05
C1M600,頭凍,2025-05-11,23.406364,120.603339,1.4072478e-09
467660,臺東,2025-05-11,22.752211,121.154586,0.33660594
C1D380,新埔,2025-05-11,24.84745,121.03834,8.0537393e-10
C2G980,田頭村,2025-05-11,23.8263,120.444175,0.66361594
C0V750,路竹,2025-05-11,22.854997,120.259439,0.9965807
C0N050,蚵寮,2025-05-11,23.301,120.1104,0.93865526
72M700,南改鹿草分場,2025-05-11,23.416869,120.283061,0.031870436
C1SA50,利嘉林道,2025-05-11,22.82325,121.009389,6.1641786e-10
C0UB70,太平山中間站,2025-05-11,24.542003,121.513453,2.153164e-09
C0A940,金山,2025-05-11,25.223628,121.643967,2.3538884e-07
C1V340,大津,2025-05-11,22.888322,120.645986,0.99324065
C0W180,七美,2025-05-11,23.219333,119.444892,0.34768867
C1F9C1,白冷,2025-05-11,24.182844,120.929889,3.614152e-05
K2E710,苗改生物防治研究中心,2025-05-11,24.422861,120.871833,8.582733e-06
C0N040,蘆竹溝,2025-05-11,23.2344,120.0961,0.99658346
C0D760,大坪苗圃,2025-05-11,24.5362,121.1108,4.907655e-10
C2W230,畜試所澎湖,2025-05-11,23.628342,119.513206,0.0054008514
C0R880,後壁湖,2025-05-11,21.9457,120.7457,0.00010854059
C1I280,埔中,2025-05-11,23.820778,120.642594,1.7840532e-06
467790,墾丁雷達站,2025-05-11,21.948235,120.808028,0.0014178624
C0W190,望安,2025-05-11,23.380564,119.494075,0.017944425
C0Z170,卓溪,2025-05-11,23.3443,121.3029,9.03328e-09
C0F850,東勢,2025-05-11,24.246428,120.833047,0.25140062
466900,淡水,2025-05-11,25.164889,121.448906,6.661069e-08
C0I370,魚池,2025-05-11,23.895703,120.94135,2.5105908e-09
C0C630,大溪,2025-05-11,24.882853,121.265547,1.3546444e-08
C0A520,山佳,2025-05-11,24.974944,121.402008,8.8733444e-08
C0I110,竹山,2025-05-11,23.761225,120.688156,0.99868965
82H840,茶改南部分場,2025-05-11,23.762528,120.7405,9.9155e-06
C0G660,溪湖,2025-05-11,23.94835,120.479122,0.54613143
C1T800,洛韶,2025-05-11,24.204558,121.453956,1.4651613e-08
C1T810,慈恩,2025-05-11,24.192044,121.388386,1.0307514e-09
C1E451,象鼻,2025-05-11,24.368617,120.940228,2.5937315e-09
C0AC60,三峽,2025-05-11,24.939025,121.369728,4.1746844e-08
C0I490,萬大林道,2025-05-11,23.928228,121.091411,1.4243032e-09
C1I290,豐丘,2025-05-11,23.668178,120.887417,7.101221e-10
C1I320,奧萬大,2025-05-11,23.952956,121.178556,1.2539692e-09
C2M910,嘉義大學,2025-05-11,23.471325,120.485903,0.9976257
C0U770,南澳,2025-05-11,24.44935,121.81022,6.320894e-05
C0A980,社子,2025-05-11,25.109508,121.469681,8.1092075e-08
C0V800,六龜,2025-05-11,22.997889,120.633583,0.9957794
C1G9D0,國一S218K,2025-05-11,23.890641,120.493253,0.0038876163
C0E570,白沙屯,2025-05-11,24.549447,120.696803,2.9255716e-08
C2F9A0,中竹林,2025-05-11,24.103556,120.751061,0.020380626
C0FA40,臺中電廠,2025-05-11,24.2146,120.4907,0.0020446526
C2G9A0,畜試所彰化,2025-05-11,23.86045,120.557964,0.979408
C0H9C0,合歡山,2025-05-11,24.143442,121.272547,9.607206e-09
C0X060,下營,2025-05-11,23.22695,120.256261,0.99723196
G2M350,農試溪口農場,2025-05-11,23.58565,120.408111,0.9857666
C0U860,頭城,2025-05-11,24.85323,121.8308,0.032881
C0R580,南州,2025-05-11,22.48591,120.50274,0.9947498
C0D430,峨眉,2025-05-11,24.6905,121.017189,6.769887e-09
C0G780,秀水,2025-05-11,24.03405,120.503869,0.975985
72N100,臺南農改場,2025-05-11,23.0605,120.342194,0.98486173
C0S900,蘭嶼高中,2025-05-11,22.04909,121.51214,0.00036155197
C1F9W0,德基,2025-05-11,24.254783,121.190261,3.5848047e-09
C1Z120,壽豐,2025-05-11,23.870853,121.508081,0.13855821
C0W160,烏坵,2025-05-11,24.9944,119.44956,2.1444515e-08
C1I240,外大坪,2025-05-11,23.958697,120.917931,9.448868e-08
C1I550,國六W023K,2025-05-11,23.979067,120.867742,8.862046e-08
C0R870,興海,2025-05-11,21.9752,120.8439,0.001749751
C0R140,瑪家,2025-05-11,22.682903,120.686639,0.00078700617
C0A530,坪林,2025-05-11,24.938183,121.70975,7.147176e-07
C0X260,後壁,2025-05-11,23.366358,120.362326,0.9934689
C0Z230,和平,2025-05-11,24.30717,121.77007,0.09132843
C0G770,福興,2025-05-11,24.041289,120.437669,0.30692282
C0H9A0,神木村,2025-05-11,23.532742,120.843667,1.1700858e-09
C0I460,南投,2025-05-11,23.911469,120.687331,0.9930681
C0I480,梅峰,2025-05-11,24.085272,121.173572,2.298642e-09
C1V570,吉東,2025-05-11,22.85422,120.5454,0.99714094
C2D740,屯原,2025-05-11,24.067969,121.209389,1.9157251e-09
C2A560,福山,2025-05-11,24.776203,121.502811,3.4234336e-08
C0AH30,五分山,2025-05-11,25.07125,121.780794,9.876555e-10
C0FA10,松柏,2025-05-11,24.429115,120.617482,5.4057045e-07
72S200,東改班鳩分場,2025-05-11,22.829528,121.077694,0.0002203058
72HA00,中改埔里分場,2025-05-11,23.903208,120.963364,2.1306823e-09
C2H9W0,大坪頂農水,2025-05-11,24.043122,120.932781,9.46569e-10
C0C650,平鎮,2025-05-11,24.897503,121.214636,3.865047e-09
C0S930,延平,2025-05-11,22.902581,121.084058,2.5314055e-05
C0UA60,樟樹山,2025-05-11,24.41393,121.78325,1.8352356e-06
C1S670,摩天,2025-05-11,23.199503,121.027,8.093304e-09
C0V630,茄萣,2025-05-11,22.906642,120.182608,0.9962301
466940,基隆,2025-05-11,25.133314,121.740475,1.8760322e-07
C0X050,東河,2025-05-11,23.296598,120.385608,0.9937597
C0R770,保力,2025-05-11,22.071122,120.764111,0.00048244145
G2L020,農試嘉義分所,2025-05-11,23.485028,120.473806,0.9944748
C0X240,關子嶺,2025-05-11,23.331169,120.508025,0.12799266
C0I380,集集,2025-05-11,23.828206,120.801467,0.45433044
466990,花蓮,2025-05-11,23.975128,121.613275,0.84050286
C1V220,小關山,2025-05-11,23.154217,120.813603,8.041598e-10
C1F9G1,慶福山,2025-05-11,24.180853,120.848378,6.055962e-10
C0FB20,雪山橋,2025-05-11,24.23192,120.9786,7.3258173e-09
C0Z250,瑞穗林道,2025-05-11,23.49284,121.30688,5.2386746e-08
C0D590,新豐,2025-05-11,24.87068,120.97721,1.1192115e-09
C0A870,五指山,2025-05-11,25.132153,121.608692,1.1292682e-09
C0UA50,西帽山,2025-05-11,24.555361,121.802628,1.2747182e-08
C0X160,仁德,2025-05-11,22.968258,120.257689,0.95829844
C1H971,六分寮,2025-05-11,23.92507,120.6378,0.014522376
C0W120,西嶼,2025-05-11,23.5626,119.468436,0.0143666025
C0G650,員林,2025-05-11,23.946503,120.585597,0.9957364
C0AD50,鶯歌,2025-05-11,24.951533,121.346294,2.8289113e-08
C2H9Q0,北東眼山,2025-05-11,24.120939,121.189303,5.4112883e-09
C2H9T0,名間竹圍,2025-05-11,23.859914,120.637572,0.00077636214
C0S990,山豬窟,2025-05-11,22.318619,120.857372,3.289096e-07
C0X190,安平,2025-05-11,22.993161,120.152181,0.99210787
C0K400,斗六,2025-05-11,23.720583,120.541127,0.99815804
12J990,口湖工作站,2025-05-11,23.589978,120.180394,1.440613e-05
C0O830,北寮,2025-05-11,23.079561,120.495008,0.99760413
C1D410,白蘭,2025-05-11,24.579364,121.079947,4.300861e-10
C0S970,加津林,2025-05-11,22.416211,120.926942,0.00030927226
C0D700,關西,2025-05-11,24.7977,121.1732,2.8789062e-09
C0M810,里佳,2025-05-11,23.389125,120.716647,1.0231221e-09
C0U750,龜山島,2025-05-11,24.841667,121.953133,3.1807585e-07
C0R810,內獅,2025-05-11,22.305064,120.642986,0.65067714
C1M390,龍美,2025-05-11,23.406728,120.654417,1.0588602e-09
C2FB60,頭櫃山,2025-05-11,24.129842,120.858925,8.9421287e-10
C1H840,國三N238K,2025-05-11,23.841008,120.707711,0.031375684
CAQ030,崎峰國小,2025-05-11,22.42565,120.49521,0.9947498
C2E520,大湖,2025-05-11,24.414939,120.870872,2.5324882e-06
467530,阿里山,2025-05-11,23.508208,120.813242,5.3165023e-09
C1E691,南湖,2025-05-11,24.40135,120.837533,1.0602996e-08
C0FA30,梧棲,2025-05-11,24.256003,120.523381,6.0215378e-05
C1V231,高中,2025-05-11,23.134911,120.716711,6.3419743e-06
C0AK30,硬漢嶺,2025-05-11,25.136097,121.426372,1.1861997e-09
C0F9V0,新社,2025-05-11,24.200172,120.815806,0.0077579264
C0H890,埔里,2025-05-11,23.972169,120.952425,9.717653e-09
C0R690,墾丁,2025-05-11,21.966756,120.810269,0.00023453264
C0F0D0,審馬陣,2025-05-11,24.381675,121.4203,8.621704e-09
C2W030,金門農試所,2025-05-11,24.448431,118.451786,3.1487454e-07
C0R820,白鷺,2025-05-11,22.454275,120.666219,3.8874727e-08
C0FB00,大雪山,2025-05-11,24.254668,121.007374,6.0664274e-09
C1V190,南天池,2025-05-11,23.27403,120.91176,1.362672e-09
C0E940,雪見,2025-05-11,24.42595,121.01347,2.3999125e-09
K2E360,苗栗農改場,2025-05-11,24.495722,120.829111,2.3968989e-08
CAJ050,海口故事園區,2025-05-11,23.57543,120.14121,1.440613e-05
C2H9D0,三隻寮,2025-05-11,24.093078,120.861578,9.033913e-10
C0O990,媽廟,2025-05-11,22.99175,120.293525,0.88112557
C0D480,打鐵坑,2025-05-11,24.849664,121.150789,6.8093717e-09
C0Z220,和平林道,2025-05-11,24.343922,121.656317,1.221715e-07
C0TA10,花蓮漁港,2025-05-11,23.995322,121.638331,0.8495391
72C440,桃園農改場,2025-05-11,24.950944,121.030583,1.5497156e-09
C1E711,馬拉邦山,2025-05-11,24.367306,120.901656,2.315469e-09
C0SB20,富岡,2025-05-11,22.792467,121.192669,0.42930394
C0D560,竹東,2025-05-11,24.767147,121.057881,3.8932364e-09
C0F9U0,南屯,2025-05-11,24.137006,120.637969,0.9951885
C0M720,番路,2025-05-11,23.464657,120.554156,0.99425036
C0F0A0,雪山圈谷,2025-05-11,24.388594,121.236339,1.3806065e-08
C1A9N0,四十份,2025-05-11,24.934158,121.593283,4.514769e-09
C0U760,東澳,2025-05-11,24.52196,121.83318,0.27272654
C0X230,鹽水,2025-05-11,23.272621,120.247641,0.9152358
C2H9H0,苗改南投蜂場,2025-05-11,23.852589,120.693481,0.9950688
C0R950,萬隆國小,2025-05-11,22.507667,120.587817,0.98393583
467540,大武,2025-05-11,22.35572,120.90374,0.00044185293
C0V370,古亭坑,2025-05-11,22.893178,120.401947,0.99469215
C1I340,新興橋,2025-05-11,23.563333,120.868728,7.152454e-10
C0SA80,土坂,2025-05-11,22.453108,120.887572,4.924406e-06
C0R160,鹽埔,2025-05-11,22.739558,120.530778,0.9751447
C0AC40,大屯山,2025-05-11,25.175675,121.522408,1.769851e-09
466850,五分山雷達站,2025-05-11,25.071182,121.781205,9.81713e-10
C2H9L0,馬烈霸,2025-05-11,24.1512,121.201772,5.3253726e-09
C1AI50,國三N016K,2025-05-11,25.034164,121.619664,6.222646e-07
C1V600,藤枝,2025-05-11,23.071961,120.757042,5.551394e-10
C1E601,南勢,2025-05-11,24.572486,120.734842,9.907011e-09
C0O980,新市,2025-05-11,23.061614,120.298197,0.98130846
C0K420,西螺,2025-05-11,23.800407,120.467394,0.48050034
C0Z050,佳心,2025-05-11,23.34567,121.21316,7.386669e-09
C0AD30,蘆洲,2025-05-11,25.086594,121.472331,1.6957042e-06
C0V610,梓官,2025-05-11,22.760558,120.267211,0.9226935
K2F750,種苗改良場,2025-05-11,24.225972,120.800917,0.09176443
C0UA80,大溪漁港,2025-05-11,24.941801,121.902955,0.008570914
C1AI60,國一39K邊坡,2025-05-11,25.064361,121.383836,3.39297e-09
C0W150,金寧,2025-05-11,24.457703,118.328989,2.470965e-07
C0R960,內埔,2025-05-11,22.608483,120.570714,0.9502284
V2C250,八德合作社,2025-05-11,24.93775,121.266389,9.032557e-09
C2H9S0,龍南,2025-05-11,23.953536,120.833183,5.0609106e-10
C0AH40,平等,2025-05-11,25.129142,121.577086,1.6577415e-09
C0R540,佳冬,2025-05-11,22.419456,120.552375,0.93027574
466950,彭佳嶼,2025-05-11,25.627975,122.079744,4.5900512e-07
C0A890,雙溪,2025-05-11,25.036003,121.864242,2.2029017e-06
C0C480,桃園,2025-05-11,24.992425,121.323172,6.3270407e-09
C0AH50,林口,2025-05-11,25.072181,121.38084,2.1294717e-09
A2K360,水試臺西試驗場,2025-05-11,23.717231,120.190522,0.7472983
C2M960,外寮,2025-05-11,23.562643,120.665688,5.628264e-10
C0F9S0,烏日,2025-05-11,24.107058,120.624103,0.9984262
C0C490,八德,2025-05-11,24.928708,121.283289,8.474853e-09
C0R190,赤山,2025-05-11,22.592333,120.614306,0.9519814
C0T820,天祥,2025-05-11,24.179597,121.495639,0.00035256278
C1F9E1,龍安,2025-05-11,24.1605,120.831961,0.011350879
C0V820,小林,2025-05-11,23.148408,120.63325,0.07074605
C2G870,芳苑,2025-05-11,23.922303,120.320025,1.955007e-05
C0E850,大河,2025-05-11,24.618069,120.948578,1.5856432e-07
C1U670,寒溪,2025-05-11,24.634,121.71691,0.003893517
C0N020,城西,2025-05-11,23.0568,120.0956,0.99210614
C1Z110,三棧,2025-05-11,24.11557,121.60501,7.052533e-07
C0R280,檳榔,2025-05-11,22.076078,120.836777,0.0010754121
C2H9J0,中台,2025-05-11,23.9996,120.938739,2.7959575e-09
C0F9L0,后里,2025-05-11,24.310436,120.729725,0.6284064
467441,高雄,2025-05-11,22.730432,120.312516,0.9293818
C0Z180,新城,2025-05-11,24.040486,121.604878,0.8371532
C0D540,橫山,2025-05-11,24.71116,121.11693,6.215695e-08
C1D420,太閣南,2025-05-11,24.632808,121.160575,3.9227013e-09
C1E770,公館,2025-05-11,24.526914,120.830806,3.5513033e-08
CAN130,水試所海水繁養殖中心,2025-05-11,23.120802,120.07968,0.9906209
C1I430,翠華,2025-05-11,24.191961,121.224339,2.5599858e-09
C1M400,菜瓜坪,2025-05-11,23.251928,120.576103,0.00482861
C0G730,二林,2025-05-11,23.903325,120.376081,5.2176583e-05
72M360,南改義竹分場,2025-05-11,23.360694,120.279361,0.9256613
V2K620,麥寮合作社,2025-05-11,23.753836,120.294783,0.997692
C0Z070,舞鶴,2025-05-11,23.46811,121.37407,1.8734482e-08
C0B040,大武崙,2025-05-11,25.166676,121.706993,1.09137325e-07
C1Z030,紅葉,2025-05-11,23.493119,121.338806,2.691121e-06
C1I050,丹大,2025-05-11,23.753747,121.141147,1.7756668e-09
C0I080,信義,2025-05-11,23.689694,120.851036,3.4898744e-09
C0D750,樂山林道6k,2025-05-11,24.49999,121.08773,2.7173466e-09
C2M920,朴子農改,2025-05-11,23.469889,120.259383,0.031870455
C2A880,福隆,2025-05-11,25.017842,121.942083,6.146378e-06
C0Z160,鳳林,2025-05-11,23.746114,121.453411,0.0386287
C0UB80,翠峰林道6K,2025-05-11,24.49773,121.568625,5.9408145e-09
C0V210,復興,2025-05-11,23.222403,120.806089,2.3174767e-05
C0H990,昆陽,2025-05-11,24.121322,121.273642,4.5547024e-09
C0R741,獅子,2025-05-11,22.202308,120.705236,0.00029098362
C0S710,鹿野,2025-05-11,22.917711,121.122994,5.514999e-07
C0I530,小奇萊,2025-05-11,24.131764,121.295717,4.937797e-09
C0FA70,大雪山埡口,2025-05-11,24.26867,121.03062,8.604734e-09
C2K630,荷苞,2025-05-11,23.657717,120.595144,0.9864889
C0Z080,富源,2025-05-11,23.587642,121.378225,6.25101e-06
C0SB10,美和,2025-05-11,22.682078,121.060236,0.00038625597
C2K620,馬光農場,2025-05-11,23.721453,120.378864,0.98827654
C1I140,卡奈托灣,2025-05-11,23.754364,121.087872,8.768252e-10
C0I520,玉山風口,2025-05-11,23.470489,120.955994,1.4610841e-08
C1G691,下水埔,2025-05-11,23.816114,120.5676,0.99346596
C0X110,臺南市南區,2025-05-11,22.961189,120.188378,0.95823425
C0V680,仁武,2025-05-11,22.701083,120.347722,0.9893144
C2G840,北斗,2025-05-11,23.877586,120.514222,0.0024220564
C0R900,竹坑,2025-05-11,22.1385,120.7022,6.9492216e-06
C0K250,崙背,2025-05-11,23.75555,120.318925,0.99776
C0G860,社頭,2025-05-11,23.897647,120.5862,0.98396105
C0X150,安定,2025-05-11,23.102614,120.227839,0.9949357
C0R590,里港,2025-05-11,22.77919,120.49459,0.9956167
C0E610,馬都安,2025-05-11,24.451272,120.930192,4.6570703e-09
C0E550,明德,2025-05-11,24.583486,120.885411,1.970936e-08
C0R150,三地門,2025-05-11,22.709889,120.639944,0.9713462
C0G910,花壇,2025-05-11,24.032076,120.549461,0.9543463
C1D400,鳥嘴山,2025-05-11,24.71909,121.28387,2.1519693e-09
C0K500,元長,2025-05-11,23.64981,120.315024,0.84886634
C0F0B0,石岡,2025-05-11,24.276061,120.777644,0.19356765
C2V250,甲仙,2025-05-11,23.080106,120.591758,0.99023175
C0SA20,金崙山,2025-05-11,22.567419,120.959667,1.314883e-09
C0V350,溪埔,2025-05-11,22.738578,120.446797,0.9829592
C0M660,溪口,2025-05-11,23.604131,120.403569,0.9857666
C1S880,壽卡,2025-05-11,22.238911,120.858903,9.59544e-07
72D680,桃改新埔分場,2025-05-11,24.834444,121.066111,8.392041e-10
