站號,站名,日期,lat,lon,BlastGRU-TW
C0R710,龍磐,2025-12-26,21.931672,120.838942,0.002315808
C1F9D1,白毛台,2025-12-26,24.158325,120.886933,0.0054921596
C0G940,竹塘,2025-12-26,23.848253,120.386764,0.026329644
467590,恆春,2025-12-26,22.003897,120.746339,0.058292933
C1O850,環湖,2025-12-26,23.148617,120.418633,0.073649004
C0U710,太平山,2025-12-26,24.505486,121.525656,0.0005499248
C0E820,獅潭,2025-12-26,24.539133,120.920042,0.020471677
C2SD70,二層坪,2025-12-26,22.94105,121.16838,0.0014663606
C0V880,興達,2025-12-26,22.8778,120.2127,0.02338927
C0S890,關山,2025-12-26,23.0395,121.175017,0.0034464856
C0SB30,新蘭,2025-12-26,22.869214,121.223228,0.0010004392
C2R970,屏科大,2025-12-26,22.648275,120.619247,0.018469641
C1Z130,銅門,2025-12-26,23.965694,121.492842,0.019481085
C0AD40,土城,2025-12-26,24.973208,121.445169,0.0029368796
CAN140,六官養殖協會,2025-12-26,23.22881,120.29962,0.3853677
C0X180,山上,2025-12-26,23.0757,120.363253,0.103023484
C0F9Z0,雪山東峰,2025-12-26,24.388792,121.268675,0.00053198356
C1M480,獨立山,2025-12-26,23.537022,120.607797,0.005407364
C0X220,學甲,2025-12-26,23.230367,120.182187,0.1289538
467650,日月潭,2025-12-26,23.881325,120.90805,0.016424334
C0K600,箔子寮,2025-12-26,23.6197,120.14,0.029539376
C0G830,埤頭,2025-12-26,23.866003,120.452806,0.27699262
C0S950,七塊厝,2025-12-26,22.954453,121.229922,0.002350452
467110,金門,2025-12-26,24.407306,118.289281,0.003441074
C0AH80,深坑,2025-12-26,25.002703,121.628328,0.0037023653
C0A970,三貂角,2025-12-26,25.007606,122.002058,0.17558992
C2D730,寶山農場,2025-12-26,24.732444,120.976153,0.009479049
C0K430,褒忠,2025-12-26,23.690938,120.303634,0.13995665
467480,嘉義,2025-12-26,23.495925,120.432906,0.44610354
C0V400,阿公店,2025-12-26,22.804194,120.355528,0.18516132
C0E960,觀霧分站,2025-12-26,24.505781,121.113921,0.0017928018
467550,玉山,2025-12-26,23.48718,120.95943,0.00039499658
C0R440,大漢山,2025-12-26,22.405264,120.753181,0.00078821037
C0SD30,東清國小,2025-12-26,22.057128,121.564922,0.0045721587
C1F9B1,桐林,2025-12-26,24.066172,120.735194,0.013140743
C2H9U0,鳳鵬,2025-12-26,23.763919,120.788061,0.02163803
C0K390,土庫,2025-12-26,23.679029,120.395574,0.4054382
C1I450,望鄉山,2025-12-26,23.594153,120.944286,0.00060253305
C0E910,海埔,2025-12-26,24.648767,120.772435,0.009918174
B2E890,畜試北區分所,2025-12-26,24.527806,120.770972,0.012188477
C0R750,四林格山,2025-12-26,22.076989,120.802439,0.0037907788
C0F0C0,中坑,2025-12-26,24.248517,120.903319,0.004532707
C1I121,大鞍,2025-12-26,23.678381,120.760017,0.0051291836
C2G9E0,移民庄,2025-12-26,23.9784,120.40283,0.015964836
72U480,花改蘭陽分場,2025-12-26,24.686306,121.716583,0.3703667
C0A770,科教館,2025-12-26,25.096356,121.516507,0.005900199
C0AJ60,六塊厝,2025-12-26,25.24,121.4481,0.050631177
C0R620,墾雷,2025-12-26,21.900836,120.855269,0.008388775
467420,永康,2025-12-26,23.038386,120.2367,0.31432965
C2M530,奮起湖,2025-12-26,23.493903,120.699253,0.0062745423
C0I410,名間,2025-12-26,23.837053,120.701447,0.04785613
A2C560,農工中心,2025-12-26,24.985917,121.239833,0.0026094338
C0V740,旗山,2025-12-26,22.888614,120.483597,0.115580276
C0Z061,玉里,2025-12-26,23.3215,121.339656,0.004164219
C0S840,南田,2025-12-26,22.279725,120.889208,0.028458035
C1I470,杉林溪,2025-12-26,23.639517,120.786444,0.0034732579
C1X040,東原,2025-12-26,23.291597,120.463822,0.18719617
C0R660,枋寮,2025-12-26,22.367722,120.590647,0.028738987
C1R120,上德文,2025-12-26,22.763272,120.704442,0.062060297
C0K450,大埤,2025-12-26,23.646074,120.431537,0.13565154
C0UA00,土場,2025-12-26,24.576533,121.495333,0.1179312
467080,宜蘭,2025-12-26,24.763975,121.756528,0.07265795
C0N030,四草,2025-12-26,23.0235,120.1116,0.17247926
467410,臺南,2025-12-26,22.99328,120.20492,0.17527431
C0V650,彌陀,2025-12-26,22.783806,120.246361,0.026815003
C0D660,新竹市東區,2025-12-26,24.798681,120.986942,0.0072236625
82S580,茶改東部分場,2025-12-26,22.907694,121.130139,0.0008842869
C0SB40,興隆,2025-12-26,22.913661,121.257469,0.00093999534
467050,新屋,2025-12-26,25.006725,121.047492,0.0013024588
C0C710,大溪永福,2025-12-26,24.892936,121.324975,0.030229395
C0FA20,溫寮,2025-12-26,24.372177,120.583125,0.005509036
C0V640,湖內,2025-12-26,22.887139,120.2445,0.022408653
C0R910,下寮,2025-12-26,22.3929,120.5548,0.028738987
C0Z020,明里,2025-12-26,23.208717,121.262342,0.002764844
C0M770,嘉義梅山,2025-12-26,23.585398,120.555587,0.0034886952
C0C660,楊梅,2025-12-26,24.912375,121.143047,0.0017906057
C0SD40,牛頭山,2025-12-26,22.676661,121.506944,0.0048809294
C1E511,新開,2025-12-26,24.347703,120.827019,0.0060684877
G2F820,農試所(霧峰),2025-12-26,24.031261,120.688133,0.09740696
C2M990,大巃頂,2025-12-26,23.5547,120.61439,0.02647756
C1I070,和社,2025-12-26,23.591131,120.888861,0.30445716
C2E990,新坪頂,2025-12-26,24.30201,120.8574,0.0045365947
C0TA80,立霧山,2025-12-26,24.183258,121.641899,0.00079936
C2F000,大肚,2025-12-26,24.15295,120.572117,0.015154536
C1S850,豐南,2025-12-26,23.122139,121.262389,0.007880371
C2M9B0,西興,2025-12-26,23.2428,120.57617,0.35629162
C2A920,富貴角,2025-12-26,25.263783,121.565258,0.0053332453
CAH030,茶改場竹圍站,2025-12-26,23.860083,120.637528,0.05322904
C0T960,光復,2025-12-26,23.660694,121.424964,0.00512476
C0F9M0,豐原,2025-12-26,24.254322,120.720692,0.021165345
C0R720,旭海,2025-12-26,22.205403,120.887614,0.004544222
C0V710,苓雅,2025-12-26,22.622742,120.330669,0.029755186
C0C740,觀音工業區,2025-12-26,25.064764,121.114856,0.0003415126
CAC040,拉拉山,2025-12-26,24.699317,121.427133,0.00041858054
C0V790,萬山,2025-12-26,22.905944,120.688056,0.029069088
U2HA30,臺大和社,2025-12-26,23.590856,120.888864,0.30445716
C2H9K0,屯原,2025-12-26,24.067969,121.209389,0.0022439365
C0AJ90,澳底,2025-12-26,25.0552,121.9253,0.13839453
C0Z100,東華,2025-12-26,23.89525,121.549833,0.026092445
C0G970,三豐,2025-12-26,23.882,120.2895,0.002414965
V2K610,大庄合作社,2025-12-26,23.8068,120.367939,0.052713607
C0V900,汕尾,2025-12-26,22.4782,120.4151,0.034081656
C1R630,龍泉,2025-12-26,22.66701,120.59091,0.025978122
C1AC50,關渡,2025-12-26,25.133486,121.469331,0.013961532
C0C800,四稜,2025-12-26,24.64733,121.4293,0.00066064607
C0F9I0,神岡,2025-12-26,24.272481,120.658314,0.02705546
C0K460,斗南,2025-12-26,23.678734,120.478359,0.14096986
C2O810,曾文,2025-12-26,23.219681,120.497328,0.22316231
467280,後龍,2025-12-26,24.648563,120.831834,0.010019466
C1F9J1,清水林,2025-12-26,24.071242,120.820419,0.005815015
C2A650,火燒寮,2025-12-26,25.002719,121.742892,0.02900227
466930,竹子湖,2025-12-26,25.162078,121.544547,0.0007425606
C1I220,樟湖,2025-12-26,23.905333,120.846983,0.0067187683
C0I390,仁愛,2025-12-26,24.022122,121.132206,0.0098887645
C0Z300,東里,2025-12-26,23.26853,121.30547,0.0029233915
C1V590,新發,2025-12-26,23.057019,120.646064,0.016375752
C0K510,水林,2025-12-26,23.572924,120.24597,0.26191267
72S590,東改賓朗果園,2025-12-26,22.813889,121.071278,0.0010143208
82A750,茶改北部分場,2025-12-26,24.955778,121.631222,0.0057438025
C1A750,石碇服務區,2025-12-26,25.00872,121.646242,0.007023422
C0X300,鹿寮,2025-12-26,23.386047,120.477331,0.051288735
G2AI50,關渡,2025-12-26,25.11575,121.492,0.0022144492
C0K590,雲林東勢,2025-12-26,23.674192,120.255721,0.23504211
C2K310,港尾布雞,2025-12-26,23.74834,120.38439,0.3240613
C0A570,桶後,2025-12-26,24.848222,121.597992,0.021687334
C1S800,華源,2025-12-26,22.657883,121.02325,0.0027979224
C0G720,溪州,2025-12-26,23.851589,120.499093,0.26845726
C1V160,達卡努瓦,2025-12-26,23.279811,120.705319,0.016636565
C2M410,馬頭山,2025-12-26,23.324361,120.582017,0.13560951
C0V850,蚵仔寮,2025-12-26,22.7256,120.2527,0.042214926
C0S740,池上,2025-12-26,23.119628,121.209469,0.0007989218
C1V390,尖山,2025-12-26,22.813153,120.367789,0.18377309
C0AH70,松山,2025-12-26,25.04871,121.55042,0.0057246475
C0N010,鯤鯓國小,2025-12-26,23.1879,120.0889,0.103627026
C0R550,新埤,2025-12-26,22.467947,120.582894,0.028752064
C0SA60,知本（水試所）,2025-12-26,22.702394,121.082761,0.0065308134
C0T9I0,豐濱,2025-12-26,23.583897,121.514806,0.0049606794
C0UB00,淡江大學蘭陽校園,2025-12-26,24.823239,121.730383,0.0063571366
C0W240,九宮,2025-12-26,24.423753,118.240186,0.0041981256
C0T9N0,富里,2025-12-26,23.171639,121.249378,0.0041622263
U2HA50,臺大竹山,2025-12-26,23.756972,120.681556,0.008411622
C0V840,鳳鼻頭,2025-12-26,22.5083,120.3591,0.04195157
C0X140,西港,2025-12-26,23.125608,120.203108,0.4455503
72D080,桃改五峰分場,2025-12-26,24.612194,121.157167,0.0020614553
C2H9P0,伊拿谷,2025-12-26,23.963211,121.088264,0.016605211
C2K250,崙背,2025-12-26,23.75553,120.31893,0.13997602
C2H9F0,柑林,2025-12-26,24.018658,120.847072,0.021887055
C0TA20,加灣,2025-12-26,24.082025,121.608944,0.00077159354
C0V530,阿蓮,2025-12-26,22.883208,120.327508,0.15259802
C0FB30,八仙山苗圃,2025-12-26,24.192719,121.001366,0.0048772083
C1O880,關山,2025-12-26,23.173397,120.594092,0.15936024
C0E791,卓蘭,2025-12-26,24.3126,120.8244,0.010508986
C1I030,武界,2025-12-26,23.913225,121.052483,0.014704616
C0R520,崁頂,2025-12-26,22.514781,120.506914,0.023137525
C0R341,牡丹,2025-12-26,22.130036,120.792639,0.11269206
C0R930,萬丹,2025-12-26,22.5885,120.4851,0.027149169
C0S760,紅石,2025-12-26,23.069131,121.126219,0.0015765355
C2C410,中央大學,2025-12-26,24.967652,121.185165,0.002380315
C1M610,石磐龍,2025-12-26,23.496606,120.663506,0.016816484
C0C790,東眼山,2025-12-26,24.8284,121.40888,0.0031412723
C0UA10,鴛鴦湖,2025-12-26,24.590269,121.412228,0.0012788732
V2C260,八德蔬果,2025-12-26,24.978508,121.281819,0.002283558
C0R800,丹路,2025-12-26,22.204481,120.750989,0.05285571
C0G920,永靖,2025-12-26,23.924703,120.547533,0.1553023
C2M950,太和,2025-12-26,23.538372,120.702961,0.00643541
C1A630,下盆,2025-12-26,24.771003,121.538622,0.009398315
B2N890,畜產試驗所,2025-12-26,23.058972,120.336406,0.4692144
C0UA30,白嶺,2025-12-26,24.527819,121.519031,0.0007688811
C1V580,溪南(特生中心),2025-12-26,23.084972,120.788475,0.0032885065
C1T970,大農,2025-12-26,23.615233,121.413331,0.0046271477
C0R650,竹田,2025-12-26,22.58486,120.54344,0.02411111
C1H900,清流,2025-12-26,24.080775,120.962997,0.0060686227
C1C510,水尾,2025-12-26,24.940081,121.087161,0.0027319645
C2N170,茅港尾,2025-12-26,23.2061,120.2624,0.38385954
C0F9X0,大雅(中科園區),2025-12-26,24.21528,120.62445,0.0454928
C0SB60,白守蓮,2025-12-26,23.126769,121.401914,0.005139324
C0O970,虎頭埤,2025-12-26,23.021375,120.347878,0.27309388
C0C730,中大臨海站,2025-12-26,24.966126,121.008581,0.0018190737
C0X250,新營,2025-12-26,23.310689,120.316681,0.37348437
C0V700,三民,2025-12-26,22.645017,120.311233,0.032005686
C0U870,大礁溪,2025-12-26,24.791042,121.675047,0.015452747
C0E870,高鐵苗栗,2025-12-26,24.60725,120.826094,0.010115298
A2K570,古坑花卉中心,2025-12-26,23.63353,120.55239,0.0049857865
C0TA30,鹽寮,2025-12-26,23.845606,121.592664,0.029306052
C0M860,新美,2025-12-26,23.338017,120.683169,0.18979076
C1E701,八卦,2025-12-26,24.491756,120.927619,0.004462318
C2TA90,加納納,2025-12-26,23.466421,121.359867,0.018408755
C0I420,國姓,2025-12-26,24.037803,120.855072,0.01695764
C2D720,關西工作站,2025-12-26,24.757275,121.184792,0.0066824043
C0S960,香蘭,2025-12-26,22.587569,120.993375,0.020370629
467620,蘭嶼,2025-12-26,22.0369,121.55843,0.00019332928
C0R260,春日,2025-12-26,22.370361,120.628306,0.022358442
72G600,臺中農改場,2025-12-26,24.003028,120.534389,0.06347046
C0Z210,瑞穗,2025-12-26,23.5239,121.39021,0.007939557
C0M820,達邦,2025-12-26,23.453994,120.749517,0.015256343
C0V860,南寮,2025-12-26,22.7616,120.2339,0.042373855
C0G740,大城,2025-12-26,23.852487,120.320935,0.0022388583
C0R920,塭仔,2025-12-26,22.4169,120.5197,0.029659508
C0R470,高樹,2025-12-26,22.826389,120.600806,0.02630212
C0R680,佳樂水,2025-12-26,21.993578,120.861633,0.009918099
C1O870,大棟山,2025-12-26,23.31157,120.52226,0.005670736
C0D360,梅花,2025-12-26,24.678347,121.208558,0.0017487679
C0Z190,富世,2025-12-26,24.14743,121.6297,0.00041363973
C0AI10,屈尺,2025-12-26,24.92184,121.54475,0.36186016
B2U990,畜試東區分所,2025-12-26,24.669039,121.832561,0.76558954
C0SB80,長濱漁港,2025-12-26,23.313644,121.459994,0.0034378737
C0TA50,和仁,2025-12-26,24.241394,121.712472,0.0010293749
C0V910,大樹,2025-12-26,22.684645,120.432803,0.038501814
C1R610,西大武山,2025-12-26,22.617719,120.7322,0.0012239201
C0G900,線西,2025-12-26,24.143358,120.443536,0.014793399
C0M700,竹崎,2025-12-26,23.526178,120.555508,0.004536547
C2E880,三義,2025-12-26,24.405478,120.749819,0.003892461
C0C720,竹圍,2025-12-26,25.112692,121.239824,0.0020618327
C0F9P0,清水,2025-12-26,24.312297,120.562242,0.0086995335
C0Z150,吉安光華,2025-12-26,23.930925,121.595153,0.01989421
C0FA80,小雪山天池,2025-12-26,24.28025,121.02627,0.00076364086
467300,東吉島,2025-12-26,23.25727,119.66762,0.00051737874
C1D640,外坪(五指山),2025-12-26,24.644447,121.090961,0.0031289556
C2R9A0,高士國小,2025-12-26,22.12553,120.84653,0.107874595
C0F9O0,潭子,2025-12-26,24.213106,120.703933,0.028230706
C2H9R0,卓社,2025-12-26,23.887894,121.000086,0.0077239624
72T250,花蓮農改場,2025-12-26,23.975222,121.563889,0.007679613
C0E780,銅鑼,2025-12-26,24.489681,120.790853,0.0069386805
C1T950,太安,2025-12-26,23.666719,121.370128,0.005749788
C0E830,苑裡,2025-12-26,24.439714,120.653053,0.003837723
467270,田中,2025-12-26,23.873803,120.581286,0.444781
C0SA10,檳榔四格山,2025-12-26,22.810031,121.109308,0.0015579582
C1T830,布洛灣,2025-12-26,24.17184,121.57127,0.15159005
C0F970,大坑,2025-12-26,24.173142,120.722289,0.009476232
C1U920,思源,2025-12-26,24.393125,121.347214,0.0011398438
C2H9Y0,松茗,2025-12-26,23.8167,120.650765,0.015648305
C0A931,三和,2025-12-26,25.233153,121.595236,0.010400013
C0I010,廬山,2025-12-26,24.033311,121.181808,0.003631693
C2M940,日野賀,2025-12-26,23.434056,120.727169,0.007898207
C0R860,鼻頭,2025-12-26,22.1043,120.8979,0.022428343
C0UB20,壯圍,2025-12-26,24.7359,121.8163,0.39219156
C0R790,九棚,2025-12-26,22.14195,120.889281,0.066707514
C0W110,東莒,2025-12-26,25.9652,119.98069,0.0004184493
C1U930,粉鳥林,2025-12-26,24.497088,121.842479,0.43675137
C1I211,蘆竹湳,2025-12-26,23.934019,120.811994,0.045911837
C0S830,長濱,2025-12-26,23.286817,121.411975,0.0038859935
C1F9F1,伯公龍,2025-12-26,24.272392,120.849047,0.0059084636
C0UB90,太平山莊,2025-12-26,24.494171,121.536209,0.00054121175
C0E810,西湖,2025-12-26,24.562947,120.7485,0.0033524223
C1I440,新高口,2025-12-26,23.478744,120.878939,0.0010299163
C0O840,王爺宮,2025-12-26,23.222064,120.40085,0.46734998
C0T9G0,鳳林山,2025-12-26,23.735269,121.420131,0.0073656198
C0X080,佳里,2025-12-26,23.173039,120.145086,0.10335688
C0FB70,大甲溪埔,2025-12-26,24.370625,120.620067,0.004605504
C0Z310,清水斷崖,2025-12-26,24.218294,121.689142,0.0008406738
C0M680,太保,2025-12-26,23.455062,120.331455,0.5607779
C1S820,金峰,2025-12-26,22.590969,120.933236,0.004203164
C0AD10,八里,2025-12-26,25.150211,121.403947,0.0015294572
C2K240,草嶺,2025-12-26,23.59555,120.693461,0.02124114
C1SA70,都蘭,2025-12-26,22.87794,121.226881,0.0009402024
C0K440,二崙,2025-12-26,23.772797,120.408944,0.2773694
C1A760,坪林交控,2025-12-26,24.94284,121.713442,0.112742566
C0F9N0,大里,2025-12-26,24.092464,120.701378,0.013483097
C0SA90,達仁林場,2025-12-26,22.264347,120.823972,0.025597341
C1R290,石門山,2025-12-26,22.112611,120.756597,0.022615077
42HA10,萬大發電廠,2025-12-26,23.978875,121.139639,0.009828103
C0R890,山海,2025-12-26,21.9878,120.7091,0.0005659444
C0T9A0,月眉山,2025-12-26,23.809928,121.539828,0.009890264
C0AC70,信義,2025-12-26,25.037822,121.564597,0.005718379
C0K560,棋山,2025-12-26,23.68645,120.603417,0.0049144053
C2FB50,出雲,2025-12-26,24.206469,120.902794,0.0036618237
C1Z240,中平林道,2025-12-26,23.42115,121.26763,0.0035251263
U2H480,溪頭,2025-12-26,23.670306,120.798194,0.0072038514
C0M880,好美里,2025-12-26,23.3364,120.138,0.16387612
C0T9E0,大坑,2025-12-26,23.880628,121.581981,0.0011497117
C0K530,臺西,2025-12-26,23.701547,120.197559,0.025593832
C1E900,國一N128K,2025-12-26,24.560997,120.844186,0.01326511
C0AJ50,水湳洞,2025-12-26,25.123695,121.862238,0.11310944
C0AI20,白沙灣,2025-12-26,25.283128,121.519058,0.042325627
C2V310,美濃,2025-12-26,22.898792,120.51907,0.11582712
C0A860,大坪,2025-12-26,25.165914,121.632969,0.0019692858
C1U850,觀音海岸,2025-12-26,24.38319,121.77856,0.0005329611
C2K610,草嶺石壁,2025-12-26,23.602469,120.707731,0.018833702
C0U950,鶯子嶺,2025-12-26,24.89754,121.79244,0.0009272132
C0O900,善化,2025-12-26,23.112883,120.297219,0.4189037
C0K550,蔦松,2025-12-26,23.514319,120.229736,0.11947714
E2P980,林試六龜中心,2025-12-26,22.991703,120.645722,0.13584748
C0E590,通霄,2025-12-26,24.471892,120.704622,0.0058223195
C1I310,西巒,2025-12-26,23.754486,120.883956,0.023858834
C0A550,泰平,2025-12-26,24.971197,121.823711,0.009075161
C0I360,水里,2025-12-26,23.812553,120.849792,0.027602263
C0R830,高士,2025-12-26,22.121825,120.836781,0.012614111
C1I101,溪頭,2025-12-26,23.661789,120.807647,0.0019085114
C0AJ20,野柳,2025-12-26,25.20703,121.690021,0.19281816
C0B060,暖暖,2025-12-26,25.0957,121.7403,0.0111608775
C1H920,長豐,2025-12-26,24.102039,120.879897,0.010085663
C2S9B0,利吉,2025-12-26,22.86246,121.15486,0.00086180633
C0V360,內門,2025-12-26,22.975481,120.466769,0.2184509
C0R850,林邊,2025-12-26,22.4634,120.5339,0.032022286
C0E930,龍鳳,2025-12-26,24.700034,120.859125,0.003084232
C0U910,冬山,2025-12-26,24.63373,121.7937,0.76558954
C1E721,泰安,2025-12-26,24.489017,120.968036,0.0022766234
82H320,茶改中部分場,2025-12-26,23.875611,120.913583,0.03298585
C0M750,布袋,2025-12-26,23.380878,120.167789,0.20495132
C1S860,利嘉,2025-12-26,22.809417,121.050528,0.0021202243
E2S980,林試太麻里1,2025-12-26,22.598922,120.980044,0.008711826
C0X170,關廟,2025-12-26,22.963017,120.327797,0.31604537
C0V720,林園,2025-12-26,22.507747,120.394511,0.040952727
C1I510,線浸林道,2025-12-26,23.761508,120.832956,0.006298148
C0D690,外湖,2025-12-26,24.917735,120.968711,0.0038495685
C0C750,新興坑尾,2025-12-26,25.0061,121.0971,0.0014796815
B2Q810,畜試南區分所,2025-12-26,21.945583,120.802167,0.01119701
C0S790,金崙,2025-12-26,22.538122,120.966875,0.014686229
C0AH90,福山植物園,2025-12-26,24.760717,121.58135,0.027745973
C0I540,奇萊稜線,2025-12-26,24.109231,121.326456,0.0004882414
C0M850,表湖,2025-12-26,23.24186,120.64166,0.040660076
C0S770,大溪山,2025-12-26,22.478475,120.943325,0.019784719
C0AG80,中和,2025-12-26,24.991622,121.491792,0.0029296596
C0T790,大禹嶺,2025-12-26,24.186117,121.316086,0.0006576809
C0T9B0,水源,2025-12-26,23.991861,121.537169,0.000634591
C0R840,牡丹池山,2025-12-26,22.168389,120.841225,0.016543569
C1I131,桶頭,2025-12-26,23.641944,120.654117,0.007898331
CAL110,布袋國中,2025-12-26,23.35893,120.18026,0.21957628
C2M9D0,何竹子腳,2025-12-26,23.53641,120.38203,0.4265555
467571,新竹,2025-12-26,24.827853,121.014219,0.006881799
C0Z290,赤柯山,2025-12-26,23.36893,121.38293,0.005060589
C0X280,將軍,2025-12-26,23.214999,120.13577,0.13059418
C0S690,太麻里,2025-12-26,22.60902,120.98533,0.00295361
C0U880,北關,2025-12-26,24.9072,121.8734,0.5525201
CAW010,東引,2025-12-26,26.3588,120.4836,0.0003266671
C0G810,埔心,2025-12-26,23.947633,120.525456,0.15406503
C0U970,大福,2025-12-26,24.80064,121.81389,0.08162914
C2H9N0,仁愛東眼,2025-12-26,24.026875,121.1205,0.00339143
C1E670,南礦,2025-12-26,24.538278,121.002836,0.0017404957
C0M520,東後寮,2025-12-26,23.369908,120.248065,0.21990244
C1E461,松安,2025-12-26,24.397972,120.986022,0.0031325775
C2N160,西拉雅風管處,2025-12-26,23.189481,120.335297,0.4017628
C2M970,碧湖,2025-12-26,23.568632,120.624165,0.027677694
C0A640,石碇,2025-12-26,24.993969,121.662917,0.0026480993
E2S960,林試太麻里2,2025-12-26,22.598,120.99775,0.022890976
C0F9Y0,桃山,2025-12-26,24.432739,121.303808,0.00052894634
C1I020,萬大,2025-12-26,23.979817,121.132261,0.009546316
C2UC20,長嶺,2025-12-26,24.70894,121.61162,0.061127253
C0U940,羅東,2025-12-26,24.68184,121.74934,0.37809023
C0M650,朴子,2025-12-26,23.43463,120.23902,0.39053655
C1I500,大尖山,2025-12-26,23.858572,120.994889,0.0013328799
C0FB40,中橫21.6k,2025-12-26,24.2499,121.1455,0.011238673
C0G820,田尾,2025-12-26,23.901669,120.509389,0.15422437
E2K600,四湖植物園,2025-12-26,23.676986,120.163433,0.04314581
C0S730,綠島,2025-12-26,22.6672,121.47533,0.0009915441
12Q970,東港工作站,2025-12-26,22.479997,120.466058,0.03372851
C1TA00,太魯閣,2025-12-26,24.15773,121.6236,0.0002912737
466920,臺北,2025-12-26,25.037658,121.514853,0.0057246475
C0R600,舊泰武,2025-12-26,22.588194,120.664944,0.03101315
C1I260,北坑,2025-12-26,23.9246,121.006903,0.023181722
466910,鞍部,2025-12-26,25.182586,121.529731,0.00036500566
C1I230,九份二山,2025-12-26,23.961944,120.845,0.024169669
C2M810,里佳,2025-12-26,23.389125,120.716647,0.008726486
C2A660,瑞芳,2025-12-26,25.113169,121.801147,0.033876665
C0R270,琉球嶼,2025-12-26,22.332244,120.362236,0.19383365
C2V580,瑞山,2025-12-26,22.90304,120.43424,0.34364316
C1T990,高寮,2025-12-26,23.394239,121.356808,0.0077723493
C0G620,芬園,2025-12-26,24.015678,120.6213,0.12478944
C1Z140,荖溪,2025-12-26,23.890575,121.45964,0.003624283
C1I201,中心崙,2025-12-26,23.728722,120.712097,0.007960075
C1I400,凌霄,2025-12-26,24.018778,121.004456,0.0036326386
C1M640,十字,2025-12-26,23.492153,120.753683,0.0069797733
G2P820,農試鳳山分所,2025-12-26,22.646611,120.356083,0.028808579
C0Z270,蕃薯寮,2025-12-26,23.73835,121.540108,0.010678166
C2E420,竹南,2025-12-26,24.70898,120.88897,0.0036932004
C0FB10,出雲山苗圃,2025-12-26,24.23105,120.90475,0.004538783
C0F9Q0,外埔,2025-12-26,24.347817,120.705686,0.022938613
C0K580,高鐵雲林,2025-12-26,23.737456,120.417944,0.31469494
C2I090,鳳凰,2025-12-26,23.728081,120.787347,0.009942472
C0U990,員山,2025-12-26,24.74435,121.72247,0.3847474
C0V770,大社,2025-12-26,22.730306,120.346639,0.038703375
C0X120,麻豆,2025-12-26,23.183289,120.248611,0.41819325
C0C670,龍潭,2025-12-26,24.870056,121.221389,0.0020709264
C0D680,香山濕地,2025-12-26,24.783581,120.914988,0.006955639
C0S980,勝林山,2025-12-26,22.430439,120.8938,0.009174983
C0V730,大寮,2025-12-26,22.605614,120.395717,0.039649088
C0R570,麟洛,2025-12-26,22.65078,120.52719,0.01767604
C2M930,石卓,2025-12-26,23.478744,120.702264,0.0059206705
C0G9B0,和美,2025-12-26,24.105169,120.492131,0.017226584
CAG100,王功漁港,2025-12-26,23.96824,120.32586,0.0011702402
C0X290,北門,2025-12-26,23.267772,120.125481,0.13035968
C2F930,大甲,2025-12-26,24.347667,120.640403,0.0049268124
C0D650,湖口,2025-12-26,24.904794,121.043628,0.0039056614
C0U780,五結,2025-12-26,24.68637,121.79794,0.39198354
C1I250,鯉潭,2025-12-26,23.961922,120.991131,0.03189992
C0R130,阿禮,2025-12-26,22.742908,120.743678,0.026210582
C0X100,臺南市北區,2025-12-26,23.010394,120.194228,0.17277324
C0S920,金峰嘉蘭,2025-12-26,22.594789,120.960825,0.008139455
C0V490,新興,2025-12-26,22.627422,120.298803,0.030160192
C0F9K0,大安,2025-12-26,24.345061,120.588025,0.0049326345
467290,古坑,2025-12-26,23.633639,120.551889,0.0049857865
C2E970,八甲,2025-12-26,24.535811,120.795983,0.0057625794
C0V440,鳳山,2025-12-26,22.646653,120.356122,0.028808579
C1T940,大觀,2025-12-26,23.714206,121.373133,0.00910622
C0E740,造橋,2025-12-26,24.637056,120.864778,0.010031924
C0R100,尾寮山,2025-12-26,22.833111,120.683889,0.033417657
A2K630,臺大雲林校區,2025-12-26,23.730628,120.423903,0.3152056
467990,馬祖,2025-12-26,26.169467,119.923158,0.00042722523
C0D580,寶山,2025-12-26,24.735006,121.025192,0.014191886
E2P990,林試扇平站,2025-12-26,22.9677,120.6857,0.111040115
C0AI30,三重,2025-12-26,25.057328,121.500629,0.005900199
C0AH00,汐止,2025-12-26,25.066881,121.658778,0.0083967075
C1Z040,立山,2025-12-26,23.443356,121.327375,0.022589121
466881,新北,2025-12-26,24.959207,121.525196,0.0027132418
C0W130,花嶼,2025-12-26,23.40007,119.32276,0.00037265156
C0A950,鼻頭角,2025-12-26,25.129036,121.923372,0.015039853
C0K470,林內,2025-12-26,23.748675,120.609642,0.007033349
C2F990,摩天嶺,2025-12-26,24.322458,120.936819,0.008555624
C2E430,南庄,2025-12-26,24.601775,121.000214,0.01585486
82C160,茶改場,2025-12-26,24.908472,121.185333,0.0011613497
C2TB60,南安,2025-12-26,23.29818,121.26157,0.0038483911
C0Z320,清水林道,2025-12-26,23.27125,121.188272,0.011801315
C0R760,南仁湖,2025-12-26,22.084681,120.863353,0.02265857
C0M670,大林,2025-12-26,23.600616,120.45841,0.24829835
C0M800,茶山,2025-12-26,23.299075,120.664767,0.4883134
C0A9C0,天母,2025-12-26,25.117494,121.537169,0.022710439
72K220,南改斗南分場,2025-12-26,23.634556,120.477333,0.14308022
72AI40,桃改樹林分場,2025-12-26,24.944503,121.386972,0.005428714
C0S910,蘭嶼燈塔,2025-12-26,22.081197,121.503117,0.001475128
C0B050,八斗子,2025-12-26,25.144754,121.79167,0.15821134
C0U900,內城,2025-12-26,24.71813,121.68766,0.35575834
C0X320,柳營,2025-12-26,23.253328,120.375253,0.31335843
C0M790,新港,2025-12-26,23.553269,120.345728,0.38196763
C0F9T0,西屯,2025-12-26,24.179494,120.641275,0.030682977
C0E950,松安,2025-12-26,24.39792,120.98599,0.0031325775
C0SA30,都歷,2025-12-26,23.020333,121.323642,0.0031010234
C0C620,蘆竹,2025-12-26,25.084275,121.265767,0.002842591
C0R730,大坪頂,2025-12-26,22.024633,120.69355,0.0008847829
C0AJ40,石門,2025-12-26,25.273672,121.601198,0.009524222
C0E750,苗栗,2025-12-26,24.564569,120.824575,0.014379605
C0T870,鯉魚潭,2025-12-26,23.935639,121.508944,0.01969719
C1V170,排雲,2025-12-26,23.463619,120.954147,0.00041204385
C2H950,中寮,2025-12-26,23.884447,120.766406,0.041883826
C0R350,貓鼻頭,2025-12-26,21.921774,120.7358,0.003473489
C0V660,岡山,2025-12-26,22.797078,120.294958,0.026604954
C1H941,雙冬,2025-12-26,23.967378,120.802189,0.033767927
C0AJ70,田寮,2025-12-26,25.2698,121.4886,0.04611699
C0AI00,五股,2025-12-26,25.07445,121.42728,0.006100464
C0Z280,德武,2025-12-26,23.47426,121.41071,0.01846895
C2RA10,大新,2025-12-26,22.67558,120.57788,0.026335789
C0R700,枋山,2025-12-26,22.246844,120.661086,0.003710777
C0C460,復興,2025-12-26,24.820208,121.352281,0.0024784203
C2K300,鹿南,2025-12-26,23.63855,120.3636,0.30896762
E2H360,蓮華池,2025-12-26,23.918333,120.885278,0.016397404
C0M640,中埔,2025-12-26,23.42538,120.5229,0.010534359
C0W140,金沙,2025-12-26,24.488292,118.408778,0.002394011
C2A540,四堵,2025-12-26,24.8926,121.745736,0.027132308
C0ACA0,新莊,2025-12-26,25.051478,121.446756,0.0035521174
C0R220,潮州,2025-12-26,22.534361,120.54,0.021803316
U2HA40,臺大內茅埔,2025-12-26,23.689722,120.851117,0.33553627
467490,臺中,2025-12-26,24.145736,120.684075,0.00950705
C0UB60,明池,2025-12-26,24.650688,121.475277,0.00066781964
C0U960,翠峰湖,2025-12-26,24.510856,121.608044,0.00044399168
E2HA20,林試畢祿溪站,2025-12-26,24.226944,121.308522,0.0010782701
C2M9A0,大華,2025-12-26,23.4824,120.67491,0.023811322
C0V890,前鎮,2025-12-26,22.5718,120.3117,0.0318127
C1F941,雪嶺,2025-12-26,24.280586,121.026642,0.00076364086
C2H9E0,國姓南港,2025-12-26,23.911108,120.846556,0.005967017
C0AC80,文山,2025-12-26,25.00235,121.575728,0.002511785
C0F9R0,龍井,2025-12-26,24.184536,120.528972,0.012233799
C0M760,民雄,2025-12-26,23.551754,120.428457,0.24269103
C0UA40,西德山,2025-12-26,24.560647,121.752608,0.013721145
C2TA70,赤科坪,2025-12-26,23.39885,121.39168,0.0058129337
C1T920,中興,2025-12-26,23.769503,121.498653,0.018055247
C0D550,雪霸,2025-12-26,24.526972,121.11605,0.0026501694
C2F860,梨山,2025-12-26,24.247522,121.243669,0.001035073
C0R320,車城,2025-12-26,22.0744,120.716247,0.0008414797
C1S870,南美山,2025-12-26,23.15025,121.382333,0.0040159714
C0B020,基隆嶼,2025-12-26,25.19141,121.78391,0.011760152
C1U501,牛鬥,2025-12-26,24.637836,121.573656,0.44350392
C0M730,嘉義市東區,2025-12-26,23.457673,120.460531,0.01183747
C2R990,泰武,2025-12-26,22.60686,120.69765,0.026948579
C0S700,知本,2025-12-26,22.684866,121.005642,0.0012832852
C1N001,沙崙,2025-12-26,22.935472,120.309406,0.29964882
C0V760,橋頭,2025-12-26,22.757806,120.30575,0.040481243
C0G960,福寶,2025-12-26,24.0443,120.3814,0.017460497
C0X210,白河,2025-12-26,23.347466,120.414427,0.05547725
C0S810,東河,2025-12-26,22.972672,121.303986,0.0002961149
C2R170,屏東,2025-12-26,22.66027,120.49403,0.017793203
C0R670,楓港,2025-12-26,22.190131,120.692156,0.003897271
C0FA50,霧峰,2025-12-26,24.0419,120.6995,0.098650455
C0UB10,蘇澳,2025-12-26,24.5969,121.8571,0.8175844
C0G950,防潮門,2025-12-26,24.1835,120.4871,0.012212532
C0M740,六腳,2025-12-26,23.492871,120.290625,0.43341234
C1R250,力里,2025-12-26,22.428117,120.629228,0.02074567
C0K330,虎尾,2025-12-26,23.719183,120.442036,0.3040498
C2FA00,烏石坑,2025-12-26,24.273503,120.947617,0.009026104
C0V620,永安,2025-12-26,22.82315,120.236856,0.026815003
C1I330,楓樹林,2025-12-26,23.986803,121.076117,0.006243046
C0W200,湖西,2025-12-26,23.596314,119.67275,0.0003819692
72Q010,高雄農改場,2025-12-26,22.709333,120.525889,0.023813866
C0SA40,瑞和,2025-12-26,22.974361,121.156697,0.001441485
C0C680,龜山,2025-12-26,25.02846,121.38656,0.0044810595
C2V260,月眉,2025-12-26,22.971003,120.539853,0.05910424
C0V450,鳳森,2025-12-26,22.545064,120.392592,0.036566533
C0FA90,小雪山林道,2025-12-26,24.29515,121.03651,0.0005978363
C0U720,南山,2025-12-26,24.43742,121.38167,0.0027772381
A2N290,臺南蘭花園區,2025-12-26,23.340258,120.379661,0.48772877
C0R560,新園,2025-12-26,22.5434,120.461558,0.040952727
C0U890,三星,2025-12-26,24.66812,121.65302,0.6327926
C1V300,御油山,2025-12-26,23.001983,120.715364,0.003457433
C0U600,礁溪,2025-12-26,24.817539,121.765608,0.23507257
C1T980,龍澗,2025-12-26,24.023289,121.411328,0.0036960456
C0D670,海天一線,2025-12-26,24.831986,120.914438,0.003481703
C0SA00,歷坵,2025-12-26,22.520969,120.89185,0.0076024868
C0M710,東石,2025-12-26,23.458927,120.15385,0.026613299
C0M780,鹿草,2025-12-26,23.41134,120.30835,0.39815983
C0U520,雙連埤,2025-12-26,24.753033,121.641303,0.014746859
C0B010,七堵,2025-12-26,25.094819,121.71713,0.015657665
C0R480,長治,2025-12-26,22.693128,120.542622,0.036444716
C1V830,國三S383K,2025-12-26,22.781967,120.426475,0.20755318
12Q980,恆春工作站,2025-12-26,22.079678,120.714425,0.000839862
C1O940,東山服務區,2025-12-26,23.286016,120.398472,0.12582955
C1U840,東澳嶺,2025-12-26,24.5378,121.8485,0.06749673
C1D630,飛鳳山,2025-12-26,24.766464,121.119178,0.0013410513
C0S940,石寧山,2025-12-26,23.223772,121.406639,0.0021269459
C0K410,北港,2025-12-26,23.573957,120.292802,0.26187664
C2M620,瑞里,2025-12-26,23.545133,120.675197,0.009221173
C0SB70,小港漁港,2025-12-26,23.158558,121.400431,0.015671505
C2O950,安南,2025-12-26,23.076694,120.144861,0.04326665
C0F0E0,南湖圈谷,2025-12-26,24.363714,121.444667,0.0003633432
467610,成功,2025-12-26,23.097486,121.373428,0.0062903757
C0G890,伸港,2025-12-26,24.148933,120.484403,0.014872897
C2E540,龍溪,2025-12-26,24.606489,120.783933,0.010053783
C1V200,梅山,2025-12-26,23.268447,120.823556,0.07004484
C0T9H0,加路蘭山,2025-12-26,23.682947,121.5274,0.003863837
C2O930,玉井,2025-12-26,23.126042,120.46055,0.11140008
C1F911,新伯公,2025-12-26,24.221361,120.841069,0.0056238538
C0R490,九如,2025-12-26,22.7405,120.490503,0.024510834
C0X200,左鎮,2025-12-26,23.056758,120.408522,0.27401733
C2TB50,麻汝,2025-12-26,23.42554,121.39358,0.017879544
C0FA60,鞍馬山工作站,2025-12-26,24.267064,121.000793,0.0013767706
C0SB50,叭嗡嗡,2025-12-26,23.047062,121.343223,0.0033532411
C1F891,稍來,2025-12-26,24.265689,121.001142,0.0014485844
C2M9C0,紫雲,2025-12-26,23.494914,120.540253,0.0049048145
72N240,七股研究中心,2025-12-26,23.081672,120.062894,0.045519095
C0C700,中壢,2025-12-26,24.977661,121.256375,0.0018321082
C0M690,水上,2025-12-26,23.419734,120.388909,0.56484413
C0V690,鼓山,2025-12-26,22.623325,120.275575,0.03036578
C0O860,大內,2025-12-26,23.11885,120.36083,0.45197347
C0Z200,萬榮,2025-12-26,23.709219,121.420106,0.011248437
C0T9D0,和中,2025-12-26,24.26676,121.74103,0.023630612
C2S9A0,北份子寮,2025-12-26,22.78561,121.07813,0.0007326395
C1O921,楠西,2025-12-26,23.183511,120.484083,0.075755194
C0AJ30,淡水觀海,2025-12-26,25.184591,121.408616,0.023093395
C0V810,左營,2025-12-26,22.67491,120.28491,0.032005686
C0UA70,桃源谷,2025-12-26,24.962606,121.888875,0.0041697356
C0X130,官田,2025-12-26,23.193217,120.315422,0.38543642
C1H000,翠峰,2025-12-26,24.109397,121.205211,0.00095110555
C0UA90,石城,2025-12-26,24.980444,121.951214,0.29501152
C1E681,南勢山,2025-12-26,24.421669,120.923831,0.0021618064
C0A9F0,內湖,2025-12-26,25.079422,121.57545,0.0057246475
C0K291,宜梧,2025-12-26,23.536281,120.169329,0.11861331
C1K540,口湖,2025-12-26,23.585344,120.180517,0.02945806
C0R780,滿州,2025-12-26,22.024403,120.839892,0.048881043
C0V870,文安,2025-12-26,22.8025,120.2164,0.028116554
C0U650,玉蘭,2025-12-26,24.675286,121.587061,0.05797086
C0R640,東港,2025-12-26,22.46247,120.44074,0.03372851
C0AJ80,板橋,2025-12-26,25.0107,121.4489,0.0030484279
C0S660,下馬,2025-12-26,23.150427,121.070312,0.009006134
C2N190,烏樹,2025-12-26,23.32393,120.36989,0.09595731
C1H9B1,阿眉,2025-12-26,24.1263,120.994672,0.0023444314
C0UA20,多加屯,2025-12-26,24.368614,121.373189,0.00062974
C0E730,頭份,2025-12-26,24.688247,120.912206,0.0035477555
72V140,高改旗南分場,2025-12-26,22.857861,120.516667,0.11564238
C0K480,莿桐,2025-12-26,23.761192,120.502372,0.2963515
C0U980,坪林石牌,2025-12-26,24.86478,121.77396,0.0019013444
C0T900,西林,2025-12-26,23.8119,121.441458,0.014033358
C1I150,青雲,2025-12-26,23.793361,120.949378,0.035331745
C2E980,和興,2025-12-26,24.505319,120.923016,0.008109383
467350,澎湖,2025-12-26,23.565503,119.563094,0.0003193141
C0G800,埔鹽,2025-12-26,24.000394,120.431683,0.016018089
C0H960,草屯,2025-12-26,23.973672,120.68085,0.10135818
C1V780,多納林道,2025-12-26,22.888028,120.737917,0.037107997
C0E920,通霄漁港,2025-12-26,24.498589,120.673876,0.010983409
C0Z330,安通山,2025-12-26,23.290728,121.348528,0.0055537815
C0AH10,永和,2025-12-26,25.01125,121.508111,0.0030636382
C0AK10,太平里,2025-12-26,25.134937,121.364899,0.0015354458
C2G640,鹿港,2025-12-26,24.0753,120.430481,0.017471774
C1E890,國三N149K,2025-12-26,24.463414,120.680019,0.002898321
C1R110,口社,2025-12-26,22.770111,120.645222,0.024082439
C1M870,國三N285K,2025-12-26,23.550319,120.505833,0.0040054945
C1E480,鳳美,2025-12-26,24.554803,121.034747,0.007847836
C0T9M0,靜浦,2025-12-26,23.455167,121.495028,0.021388756
C2H9M0,發祥,2025-12-26,24.154094,121.164517,0.0075920066
C2G9C0,埔南,2025-12-26,23.99124,120.46969,0.015810827
C0AI40,石牌,2025-12-26,25.115597,121.513139,0.022537997
C1F871,上谷關,2025-12-26,24.203483,121.018644,0.00429669
C2H9G0,百勝,2025-12-26,24.051142,120.909361,0.008894538
C0G880,二水,2025-12-26,23.810742,120.6173,0.008499682
C0R940,加祿堂,2025-12-26,22.3363,120.6217,0.0075208284
C0W220,北竿,2025-12-26,26.220358,119.974881,0.00045668427
C0O960,崎頂,2025-12-26,22.959547,120.369317,0.41491693
C0TA40,秀林,2025-12-26,24.302864,121.731144,0.0016901054
C0S750,向陽,2025-12-26,23.248397,120.986133,0.0013030829
C0T9F0,水璉,2025-12-26,23.797131,121.542514,0.012402542
C1M600,頭凍,2025-12-26,23.406364,120.603339,0.036642786
467660,臺東,2025-12-26,22.752211,121.154586,0.0014968565
C1D380,新埔,2025-12-26,24.84745,121.03834,0.0058986135
C2G980,田頭村,2025-12-26,23.8263,120.444175,0.27717382
C0V750,路竹,2025-12-26,22.854997,120.259439,0.024747161
C0N050,蚵寮,2025-12-26,23.301,120.1104,0.16383505
C2X060,下營,2025-12-26,23.226806,120.256291,0.38342983
72M700,南改鹿草分場,2025-12-26,23.416869,120.283061,0.39161086
C1SA50,利嘉林道,2025-12-26,22.82325,121.009389,0.0035302725
C0UB70,太平山中間站,2025-12-26,24.542003,121.513453,0.005189056
C0A940,金山,2025-12-26,25.223628,121.643967,0.16047816
C1V340,大津,2025-12-26,22.888322,120.645986,0.029435491
C0W180,七美,2025-12-26,23.219333,119.444892,0.00044298297
C1F9C1,白冷,2025-12-26,24.182844,120.929889,0.0014589714
K2E710,苗改生物防治研究中心,2025-12-26,24.422861,120.871833,0.01212632
C0N040,蘆竹溝,2025-12-26,23.2344,120.0961,0.13018604
C0TB40,崇德,2025-12-26,24.166144,121.657414,0.00042611526
C0D760,大坪苗圃,2025-12-26,24.5362,121.1108,0.0012565564
C2W230,畜試所澎湖,2025-12-26,23.628342,119.513206,0.0002994647
C0R880,後壁湖,2025-12-26,21.9457,120.7457,0.00063133106
C1I280,埔中,2025-12-26,23.820778,120.642594,0.015241713
467790,墾丁雷達站,2025-12-26,21.948235,120.808028,0.0058419486
C0W190,望安,2025-12-26,23.380564,119.494075,0.00039886506
C0Z170,卓溪,2025-12-26,23.3443,121.3029,0.0064058243
C0F850,東勢,2025-12-26,24.246428,120.833047,0.010384863
466900,淡水,2025-12-26,25.164889,121.448906,0.00153971
C0I370,魚池,2025-12-26,23.895703,120.94135,0.016419342
C0C630,大溪,2025-12-26,24.882853,121.265547,0.0028456997
C0A520,山佳,2025-12-26,24.974944,121.402008,0.0033399551
C0I110,竹山,2025-12-26,23.761225,120.688156,0.010054272
82H840,茶改南部分場,2025-12-26,23.762528,120.7405,0.017038926
C2SD80,再來山,2025-12-26,23.34371,121.44122,0.0073505123
C0G660,溪湖,2025-12-26,23.94835,120.479122,0.159133
C1T800,洛韶,2025-12-26,24.204558,121.453956,0.0005931129
C1T810,慈恩,2025-12-26,24.192044,121.388386,0.0009197093
C1E451,象鼻,2025-12-26,24.368617,120.940228,0.0016970979
C0AC60,三峽,2025-12-26,24.939025,121.369728,0.0037967402
C0I490,萬大林道,2025-12-26,23.928228,121.091411,0.0022513778
C1I290,豐丘,2025-12-26,23.668178,120.887417,0.0070422064
C1I320,奧萬大,2025-12-26,23.952956,121.178556,0.0088782925
C2M910,嘉義大學,2025-12-26,23.471325,120.485903,0.010671971
C0U770,南澳,2025-12-26,24.44935,121.81022,0.011887102
C2TB30,吉安,2025-12-26,23.94538,121.54803,0.019802205
C0A980,社子,2025-12-26,25.109508,121.469681,0.0021928593
C0V800,六龜,2025-12-26,22.997889,120.633583,0.12608281
C1G9D0,國一S218K,2025-12-26,23.890641,120.493253,0.22487304
C0E570,白沙屯,2025-12-26,24.549447,120.696803,0.004424157
C2F9A0,中竹林,2025-12-26,24.103556,120.751061,0.0033810553
C0FA40,臺中電廠,2025-12-26,24.2146,120.4907,0.012233799
C2G9A0,畜試所彰化,2025-12-26,23.86045,120.557964,0.44402736
C0H9C0,合歡山,2025-12-26,24.143442,121.272547,0.000488351
G2M350,農試溪口農場,2025-12-26,23.58565,120.408111,0.23212153
C0U860,頭城,2025-12-26,24.85323,121.8308,0.2592955
C0R580,南州,2025-12-26,22.48591,120.50274,0.03372851
C0D430,峨眉,2025-12-26,24.6905,121.017189,0.00957294
C0G780,秀水,2025-12-26,24.03405,120.503869,0.06313099
72N100,臺南農改場,2025-12-26,23.0605,120.342194,0.4707843
C0S900,蘭嶼高中,2025-12-26,22.04909,121.51214,0.0044476427
C2TA60,六十石,2025-12-26,23.22477,121.31861,0.005216633
C1F9W0,德基,2025-12-26,24.254783,121.190261,0.0021008134
C2M980,安和,2025-12-26,23.51377,120.31593,0.43754005
C1Z120,壽豐,2025-12-26,23.870853,121.508081,0.026092445
C0W160,烏坵,2025-12-26,24.9944,119.44956,0.0003460292
C1I240,外大坪,2025-12-26,23.958697,120.917931,0.029896878
C1I550,國六W023K,2025-12-26,23.979067,120.867742,0.04176496
C0R870,興海,2025-12-26,21.9752,120.8439,0.011169433
C0R140,瑪家,2025-12-26,22.682903,120.686639,0.08337441
C0A530,坪林,2025-12-26,24.938183,121.70975,0.050298814
C0X260,後壁,2025-12-26,23.366358,120.362326,0.46911767
C0Z230,和平,2025-12-26,24.30717,121.77007,0.027562818
C0G770,福興,2025-12-26,24.041289,120.437669,0.015964836
C0H9A0,神木村,2025-12-26,23.532742,120.843667,0.0064774156
C0I460,南投,2025-12-26,23.911469,120.687331,0.11236699
C0I480,梅峰,2025-12-26,24.085272,121.173572,0.0017140599
C1V570,吉東,2025-12-26,22.85422,120.5454,0.11539619
C2A560,福山,2025-12-26,24.776203,121.502811,0.10467133
C0AH30,五分山,2025-12-26,25.07125,121.780794,0.0005596344
C0FA10,松柏,2025-12-26,24.429115,120.617482,0.00452621
72S200,東改班鳩分場,2025-12-26,22.829528,121.077694,0.0008182645
72HA00,中改埔里分場,2025-12-26,23.903208,120.963364,0.019006072
C2H9W0,大坪頂農水,2025-12-26,24.043122,120.932781,0.0098662535
C0C650,平鎮,2025-12-26,24.897503,121.214636,0.0014992987
C0S930,延平,2025-12-26,22.902581,121.084058,0.0010393814
C0UA60,樟樹山,2025-12-26,24.41393,121.78325,0.05778837
C2UC10,出水溪,2025-12-26,24.615822,121.652253,0.046103
C1S670,摩天,2025-12-26,23.199503,121.027,0.0013956259
C2C590,觀音,2025-12-26,25.027072,121.153317,0.0004525479
C0V630,茄萣,2025-12-26,22.906642,120.182608,0.023382459
466940,基隆,2025-12-26,25.133314,121.740475,0.14312316
C0X050,東河,2025-12-26,23.296598,120.385608,0.1242195
C0R770,保力,2025-12-26,22.071122,120.764111,0.002101551
G2L020,農試嘉義分所,2025-12-26,23.485028,120.473806,0.005468004
C0X240,關子嶺,2025-12-26,23.331169,120.508025,0.059006706
C0I380,集集,2025-12-26,23.828206,120.801467,0.027311513
466990,花蓮,2025-12-26,23.975128,121.613275,0.008039669
C1V220,小關山,2025-12-26,23.154217,120.813603,0.0026269872
C1F9G1,慶福山,2025-12-26,24.180853,120.848378,0.006434727
C0FB20,雪山橋,2025-12-26,24.23192,120.9786,0.0013587078
C0Z250,瑞穗林道,2025-12-26,23.49284,121.30688,0.0043705087
C0D590,新豐,2025-12-26,24.87068,120.97721,0.0016797882
C0A870,五指山,2025-12-26,25.132153,121.608692,0.00064625964
C0UA50,西帽山,2025-12-26,24.555361,121.802628,0.04640235
C2R980,竹田國中,2025-12-26,22.61532,120.52412,0.023870325
C0X160,仁德,2025-12-26,22.968258,120.257689,0.09001825
C1H971,六分寮,2025-12-26,23.92507,120.6378,0.02365143
C0W120,西嶼,2025-12-26,23.5626,119.468436,0.00030773281
C0G650,員林,2025-12-26,23.946503,120.585597,0.20523715
C0AD50,鶯歌,2025-12-26,24.951533,121.346294,0.0032077103
C2H9Q0,北東眼山,2025-12-26,24.120939,121.189303,0.0013051039
C2H9T0,名間竹圍,2025-12-26,23.859914,120.637572,0.053294756
C0S990,山豬窟,2025-12-26,22.318619,120.857372,0.046399467
C0X190,安平,2025-12-26,22.993161,120.152181,0.17289424
C0K400,斗六,2025-12-26,23.720583,120.541127,0.30055422
12J990,口湖工作站,2025-12-26,23.589978,120.180394,0.029539376
C0O830,北寮,2025-12-26,23.079561,120.495008,0.12929614
C1D410,白蘭,2025-12-26,24.579364,121.079947,0.0014677123
C0S970,加津林,2025-12-26,22.416211,120.926942,0.19430663
C0D700,關西,2025-12-26,24.7977,121.1732,0.007628043
C0U750,龜山島,2025-12-26,24.841667,121.953133,0.00066801795
C0R810,內獅,2025-12-26,22.305064,120.642986,0.0077853673
C1M390,龍美,2025-12-26,23.406728,120.654417,0.01961344
C2K290,崙內,2025-12-26,23.69525,120.35601,0.140178
C2FB60,頭櫃山,2025-12-26,24.129842,120.858925,0.014372842
C1H840,國三N238K,2025-12-26,23.841008,120.707711,0.083364256
CAQ030,崎峰國小,2025-12-26,22.42565,120.49521,0.03372851
C2E520,大湖,2025-12-26,24.414939,120.870872,0.010297726
467530,阿里山,2025-12-26,23.508208,120.813242,0.0010251766
C1E691,南湖,2025-12-26,24.40135,120.837533,0.0031656465
C0FA30,梧棲,2025-12-26,24.256003,120.523381,0.008700499
C1V231,高中,2025-12-26,23.134911,120.716711,0.020274809
C0AK30,硬漢嶺,2025-12-26,25.136097,121.426372,0.0008054514
C0F9V0,新社,2025-12-26,24.200172,120.815806,0.0038590282
C0H890,埔里,2025-12-26,23.972169,120.952425,0.0137181375
C0R690,墾丁,2025-12-26,21.966756,120.810269,0.0011386464
C0SD20,富山,2025-12-26,22.822383,121.190825,0.0013313289
C0F0D0,審馬陣,2025-12-26,24.381675,121.4203,0.0003643493
C2W030,金門農試所,2025-12-26,24.448431,118.451786,0.0026465848
C0R820,白鷺,2025-12-26,22.454275,120.666219,0.08682932
C0FB00,大雪山,2025-12-26,24.254668,121.007374,0.0011105763
C1V190,南天池,2025-12-26,23.27403,120.91176,0.0010013517
C0E940,雪見,2025-12-26,24.42595,121.01347,0.0028242816
K2E360,苗栗農改場,2025-12-26,24.495722,120.829111,0.009909257
CAJ050,海口故事園區,2025-12-26,23.57543,120.14121,0.029515993
C2K280,四湖,2025-12-26,23.6304,120.22717,0.043159228
C2H9D0,三隻寮,2025-12-26,24.093078,120.861578,0.011877887
C0O990,媽廟,2025-12-26,22.99175,120.293525,0.340023
C0D480,打鐵坑,2025-12-26,24.849664,121.150789,0.002018521
C0Z220,和平林道,2025-12-26,24.343922,121.656317,0.0006729365
C0TA10,花蓮漁港,2025-12-26,23.995322,121.638331,0.010154132
72C440,桃園農改場,2025-12-26,24.950944,121.030583,0.00413905
C1E711,馬拉邦山,2025-12-26,24.367306,120.901656,0.0016732678
C0SB20,富岡,2025-12-26,22.792467,121.192669,0.00097580353
C0D560,竹東,2025-12-26,24.767147,121.057881,0.008369456
C0F9U0,南屯,2025-12-26,24.137006,120.637969,0.02908309
C2SD60,明峰,2025-12-26,22.8671,121.11825,0.0012407784
C0M720,番路,2025-12-26,23.464657,120.554156,0.012695831
C0F0A0,雪山圈谷,2025-12-26,24.388594,121.236339,0.00040227178
C1A9N0,四十份,2025-12-26,24.934158,121.593283,0.01026506
C0U760,東澳,2025-12-26,24.52196,121.83318,0.41619775
C0X230,鹽水,2025-12-26,23.272621,120.247641,0.16339761
C2H9H0,苗改南投蜂場,2025-12-26,23.852589,120.693481,0.047779255
C2TB70,達谷寮,2025-12-26,23.38,121.35968,0.0065865545
C0R950,萬隆國小,2025-12-26,22.507667,120.587817,0.018391667
467540,大武,2025-12-26,22.35572,120.90374,0.16187555
C0V370,古亭坑,2025-12-26,22.893178,120.401947,0.3192906
C1I340,新興橋,2025-12-26,23.563333,120.868728,0.073773585
C0SA80,土坂,2025-12-26,22.453108,120.887572,0.07100776
C0R160,鹽埔,2025-12-26,22.739558,120.530778,0.023513861
C0AC40,大屯山,2025-12-26,25.175675,121.522408,0.00027186313
466850,五分山雷達站,2025-12-26,25.071182,121.781205,0.0005468271
C2H9L0,馬烈霸,2025-12-26,24.1512,121.201772,0.0014018039
C1AI50,國三N016K,2025-12-26,25.034164,121.619664,0.005183483
C2V920,匏子寮,2025-12-26,23.04905,120.55319,0.08939238
C1V600,藤枝,2025-12-26,23.071961,120.757042,0.004731584
C1E601,南勢,2025-12-26,24.572486,120.734842,0.0018315702
C0O980,新市,2025-12-26,23.061614,120.298197,0.4200478
C0K420,西螺,2025-12-26,23.800407,120.467394,0.26532167
C0Z050,佳心,2025-12-26,23.34567,121.21316,0.0068580885
C0AD30,蘆洲,2025-12-26,25.086594,121.472331,0.0058871964
C0V610,梓官,2025-12-26,22.760558,120.267211,0.04070434
K2F750,種苗改良場,2025-12-26,24.225972,120.800917,0.004635424
C0UA80,大溪漁港,2025-12-26,24.941801,121.902955,0.5338829
C1AI60,國一39K邊坡,2025-12-26,25.064361,121.383836,0.0052082357
C0W150,金寧,2025-12-26,24.457703,118.328989,0.0036234977
C0R960,內埔,2025-12-26,22.608483,120.570714,0.023145847
V2C250,八德合作社,2025-12-26,24.93775,121.266389,0.00207647
C2H9S0,龍南,2025-12-26,23.953536,120.833183,0.005185618
C0AH40,平等,2025-12-26,25.129142,121.577086,0.0014664417
C0R540,佳冬,2025-12-26,22.419456,120.552375,0.028593486
466950,彭佳嶼,2025-12-26,25.627975,122.079744,0.0005047878
C0A890,雙溪,2025-12-26,25.036003,121.864242,0.08345642
C0C480,桃園,2025-12-26,24.992425,121.323172,0.00250263
C0AH50,林口,2025-12-26,25.072181,121.38084,0.004013268
A2K360,水試臺西試驗場,2025-12-26,23.717231,120.190522,0.028385673
C2M960,外寮,2025-12-26,23.562643,120.665688,0.028652191
C0F9S0,烏日,2025-12-26,24.107058,120.624103,0.01267132
C2N180,鹿陶洋,2025-12-26,23.14325,120.48352,0.075795814
C0C490,八德,2025-12-26,24.928708,121.283289,0.0020289663
C0R190,赤山,2025-12-26,22.592333,120.614306,0.022149196
C0T820,天祥,2025-12-26,24.179597,121.495639,0.054193147
C1F9E1,龍安,2025-12-26,24.1605,120.831961,0.0024841016
C2SD50,順那,2025-12-26,23.04166,121.29332,0.003194982
C0V820,小林,2025-12-26,23.148408,120.63325,0.081142314
C2G870,芳苑,2025-12-26,23.922303,120.320025,0.00095695525
C0E850,大河,2025-12-26,24.618069,120.948578,0.019551389
C1U670,寒溪,2025-12-26,24.634,121.71691,0.6694517
C0N020,城西,2025-12-26,23.0568,120.0956,0.17271422
C1Z110,三棧,2025-12-26,24.11557,121.60501,0.014699814
C0R280,檳榔,2025-12-26,22.076078,120.836777,0.020381551
C2H9J0,中台,2025-12-26,23.9996,120.938739,0.040059935
C0F9L0,后里,2025-12-26,24.310436,120.729725,0.0179814
467441,高雄,2025-12-26,22.730432,120.312516,0.038942985
C0Z180,新城,2025-12-26,24.040486,121.604878,0.007073159
C0D540,橫山,2025-12-26,24.71116,121.11693,0.011227672
C1D420,太閣南,2025-12-26,24.632808,121.160575,0.0014952858
C1E770,公館,2025-12-26,24.526914,120.830806,0.012188477
CAN130,水試所海水繁養殖中心,2025-12-26,23.120802,120.07968,0.045521427
C1I430,翠華,2025-12-26,24.191961,121.224339,0.001016014
C1M400,菜瓜坪,2025-12-26,23.251928,120.576103,0.41086003
C0G730,二林,2025-12-26,23.903325,120.376081,0.019245105
72M360,南改義竹分場,2025-12-26,23.360694,120.279361,0.22083455
V2K620,麥寮合作社,2025-12-26,23.753836,120.294783,0.1397538
C0Z070,舞鶴,2025-12-26,23.46811,121.37407,0.018203447
C0B040,大武崙,2025-12-26,25.166676,121.706993,0.09032664
C1Z030,紅葉,2025-12-26,23.493119,121.338806,0.0074623637
C1I050,丹大,2025-12-26,23.753747,121.141147,0.0008824453
C0I080,信義,2025-12-26,23.689694,120.851036,0.33553627
C2TB80,庄子底,2025-12-26,23.71794,121.49438,0.011886599
C0D750,樂山林道6k,2025-12-26,24.49999,121.08773,0.0012083213
C2M920,朴子農改,2025-12-26,23.469889,120.259383,0.38970062
C2A880,福隆,2025-12-26,25.017842,121.942083,0.31257576
C0Z160,鳳林,2025-12-26,23.746114,121.453411,0.011692712
C0UB80,翠峰林道6K,2025-12-26,24.49773,121.568625,0.00050741015
C0V210,復興,2025-12-26,23.222403,120.806089,0.11847335
C0H990,昆陽,2025-12-26,24.121322,121.273642,0.0004910663
C0R741,獅子,2025-12-26,22.202308,120.705236,0.1548838
C0S710,鹿野,2025-12-26,22.917711,121.122994,0.0021876008
C0I530,小奇萊,2025-12-26,24.131764,121.295717,0.00048771626
C0FA70,大雪山埡口,2025-12-26,24.26867,121.03062,0.0007726421
C2K630,荷苞,2025-12-26,23.657717,120.595144,0.0053907535
C0Z080,富源,2025-12-26,23.587642,121.378225,0.012630663
C2M9E0,旺來山,2025-12-26,23.555153,120.486463,0.0038830305
C0SB10,美和,2025-12-26,22.682078,121.060236,0.006433587
C2K620,馬光農場,2025-12-26,23.721453,120.378864,0.32406157
C1I140,卡奈托灣,2025-12-26,23.754364,121.087872,0.0041086534
C0I520,玉山風口,2025-12-26,23.470489,120.955994,0.00038651895
C1G691,下水埔,2025-12-26,23.816114,120.5676,0.29810116
C0X110,臺南市南區,2025-12-26,22.961189,120.188378,0.08997101
C0V680,仁武,2025-12-26,22.701083,120.347722,0.031779714
C2G840,北斗,2025-12-26,23.877586,120.514222,0.21264254
C2TB90,長橋,2025-12-26,23.6874,121.46186,0.0054882597
C0R900,竹坑,2025-12-26,22.1385,120.7022,0.0005175055
C0G860,社頭,2025-12-26,23.897647,120.5862,0.38834533
C0X150,安定,2025-12-26,23.102614,120.227839,0.42889506
C0R590,里港,2025-12-26,22.77919,120.49459,0.18019348
C0E610,馬都安,2025-12-26,24.451272,120.930192,0.002891571
C0E550,明德,2025-12-26,24.583486,120.885411,0.0123427315
C0R150,三地門,2025-12-26,22.709889,120.639944,0.024936434
C0G910,花壇,2025-12-26,24.032076,120.549461,0.06480431
C1D400,鳥嘴山,2025-12-26,24.71909,121.28387,0.001675419
C0K500,元長,2025-12-26,23.64981,120.315024,0.24709132
C0F0B0,石岡,2025-12-26,24.276061,120.777644,0.012712968
C2V250,甲仙,2025-12-26,23.080106,120.591758,0.19931878
C0SA20,金崙山,2025-12-26,22.567419,120.959667,0.0013359669
C0V350,溪埔,2025-12-26,22.738578,120.446797,0.0829856
C0M660,溪口,2025-12-26,23.604131,120.403569,0.23290369
C1S880,壽卡,2025-12-26,22.238911,120.858903,0.028329192
72D680,桃改新埔分場,2025-12-26,24.834444,121.066111,0.006121624
