站號,站名,日期,lat,lon,BLBTSLS
C0R710,龍磐,2025-11-20,21.931672,120.838942,0.9819909
C1F9D1,白毛台,2025-11-20,24.158325,120.886933,1.0972918e-09
C0G940,竹塘,2025-11-20,23.848253,120.386764,0.9943601
467590,恆春,2025-11-20,22.003897,120.746339,0.9964567
C1O850,環湖,2025-11-20,23.148617,120.418633,0.0016264066
C0U710,太平山,2025-11-20,24.505486,121.525656,1.3883621e-08
C0E820,獅潭,2025-11-20,24.539133,120.920042,1.8269876e-08
C2SD70,二層坪,2025-11-20,22.94105,121.16838,2.023001e-08
C0V880,興達,2025-11-20,22.8778,120.2127,0.006592491
C0S890,關山,2025-11-20,23.0395,121.175017,7.043883e-08
C0SB30,新蘭,2025-11-20,22.869214,121.223228,7.571662e-07
C2R970,屏科大,2025-11-20,22.648275,120.619247,0.0045518554
C1Z130,銅門,2025-11-20,23.965694,121.492842,0.00012286271
C0AD40,土城,2025-11-20,24.973208,121.445169,0.99945414
CAN140,六官養殖協會,2025-11-20,23.22881,120.29962,0.013703301
C0X180,山上,2025-11-20,23.0757,120.363253,0.028228665
C0F9Z0,雪山東峰,2025-11-20,24.388792,121.268675,1.2872791e-08
C1M480,獨立山,2025-11-20,23.537022,120.607797,1.4480689e-09
C0X220,學甲,2025-11-20,23.230367,120.182187,0.61715525
467650,日月潭,2025-11-20,23.881325,120.90805,1.9524067e-09
A2K570,古坑(花卉中心),2025-11-20,23.633531,120.552392,7.38304e-05
C0K600,箔子寮,2025-11-20,23.6197,120.14,0.9360247
C0G830,埤頭,2025-11-20,23.866003,120.452806,0.00011732823
C0S950,七塊厝,2025-11-20,22.954453,121.229922,4.1349484e-09
467110,金門,2025-11-20,24.407306,118.289281,0.99952424
C0AH80,深坑,2025-11-20,25.002703,121.628328,0.9994642
C0A970,三貂角,2025-11-20,25.007606,122.002058,0.96846694
C2D730,寶山農場,2025-11-20,24.732444,120.976153,0.08439073
C0K430,褒忠,2025-11-20,23.690938,120.303634,0.5471904
467480,嘉義,2025-11-20,23.495925,120.432906,0.10907035
C0V400,阿公店,2025-11-20,22.804194,120.355528,2.0472009e-05
C0E960,觀霧分站,2025-11-20,24.505781,121.113921,3.4157939e-09
467550,玉山,2025-11-20,23.48718,120.95943,2.3510498e-08
C0R440,大漢山,2025-11-20,22.405264,120.753181,1.1655673e-07
C0SD30,東清國小,2025-11-20,22.057128,121.564922,0.89741075
C0K280,四湖,2025-11-20,23.630414,120.227125,0.9690303
C1F9B1,桐林,2025-11-20,24.066172,120.735194,2.4944837e-05
C2H9U0,鳳鵬,2025-11-20,23.763919,120.788061,2.9001357e-09
C0K390,土庫,2025-11-20,23.679029,120.395574,0.00036964088
C1I450,望鄉山,2025-11-20,23.594153,120.944286,9.478034e-09
C0E910,海埔,2025-11-20,24.648767,120.772435,0.63624716
B2E890,畜試北區分所,2025-11-20,24.527806,120.770972,0.6924044
C0R750,四林格山,2025-11-20,22.076989,120.802439,0.9997767
C0F0C0,中坑,2025-11-20,24.248517,120.903319,1.546739e-09
C1I121,大鞍,2025-11-20,23.678381,120.760017,2.0190911e-09
C2G9E0,移民庄,2025-11-20,23.9784,120.40283,0.9956744
72U480,花改蘭陽分場,2025-11-20,24.686306,121.716583,0.014898538
C0A770,科教館,2025-11-20,25.096356,121.516507,0.99905413
C0AJ60,六塊厝,2025-11-20,25.24,121.4481,0.99969006
C0R620,墾雷,2025-11-20,21.900836,120.855269,0.98438007
467420,永康,2025-11-20,23.038386,120.2367,0.00027840922
C2M530,奮起湖,2025-11-20,23.493903,120.699253,1.7095322e-09
C0I410,名間,2025-11-20,23.837053,120.701447,0.011179892
A2C560,農工中心,2025-11-20,24.985917,121.239833,0.9990659
C0V740,旗山,2025-11-20,22.888614,120.483597,8.342306e-05
C0Z061,玉里,2025-11-20,23.3215,121.339656,5.9427002e-05
C0S840,南田,2025-11-20,22.279725,120.889208,0.0063848924
C1I470,杉林溪,2025-11-20,23.639517,120.786444,1.787424e-09
C1X040,東原,2025-11-20,23.291597,120.463822,7.0462136e-07
C0R660,枋寮,2025-11-20,22.367722,120.590647,0.0031983838
C1R120,上德文,2025-11-20,22.763272,120.704442,2.4834486e-09
C0K450,大埤,2025-11-20,23.646074,120.431537,0.0019419907
C0UA00,土場,2025-11-20,24.576533,121.495333,0.013868414
467080,宜蘭,2025-11-20,24.763975,121.756528,0.001139229
C0N030,四草,2025-11-20,23.0235,120.1116,0.3248594
467410,臺南,2025-11-20,22.99328,120.20492,8.17333e-05
C0V650,彌陀,2025-11-20,22.783806,120.246361,0.0038983966
C0D660,新竹市東區,2025-11-20,24.798681,120.986942,0.56776863
82S580,茶改東部分場,2025-11-20,22.907694,121.130139,3.309295e-08
C0SB40,興隆,2025-11-20,22.913661,121.257469,0.053054564
467050,新屋,2025-11-20,25.006725,121.047492,0.7187636
C0C710,大溪永福,2025-11-20,24.892936,121.324975,0.9995637
C0FA20,溫寮,2025-11-20,24.372177,120.583125,0.04222095
C0V640,湖內,2025-11-20,22.887139,120.2445,0.006592491
C0R910,下寮,2025-11-20,22.3929,120.5548,6.37508e-07
C0Z020,明里,2025-11-20,23.208717,121.262342,0.0010697778
C0M770,嘉義梅山,2025-11-20,23.585398,120.555587,0.001656981
C0C660,楊梅,2025-11-20,24.912375,121.143047,0.99915475
C0SD40,牛頭山,2025-11-20,22.676661,121.506944,0.06310879
C1E511,新開,2025-11-20,24.347703,120.827019,1.2298072e-08
G2F820,農試所(霧峰),2025-11-20,24.031261,120.688133,0.0001597344
C2M990,大巃頂,2025-11-20,23.5547,120.61439,1.6297046e-09
C1I070,和社,2025-11-20,23.591131,120.888861,2.9685028e-09
C2E990,新坪頂,2025-11-20,24.30201,120.8574,9.129825e-10
C0TA80,立霧山,2025-11-20,24.183258,121.641899,1.6942376e-08
C2F000,大肚,2025-11-20,24.15295,120.572117,8.4523535e-08
C1S850,豐南,2025-11-20,23.122139,121.262389,3.7574544e-08
C2M9B0,西興,2025-11-20,23.2428,120.57617,3.462716e-09
C2A920,富貴角,2025-11-20,25.263783,121.565258,0.9997498
CAH030,茶改場竹圍站,2025-11-20,23.860083,120.637528,6.8158187e-07
C0T960,光復,2025-11-20,23.660694,121.424964,9.1206964e-08
C0F9M0,豐原,2025-11-20,24.254322,120.720692,4.1395904e-08
C0R720,旭海,2025-11-20,22.205403,120.887614,0.05281651
C0V710,苓雅,2025-11-20,22.622742,120.330669,0.00024658337
C0C740,觀音工業區,2025-11-20,25.064764,121.114856,0.9497252
CAC040,拉拉山,2025-11-20,24.699317,121.427133,2.2840814e-07
C0V790,萬山,2025-11-20,22.905944,120.688056,8.0617234e-08
U2HA30,臺大和社,2025-11-20,23.590856,120.888864,2.9685028e-09
C2H9K0,屯原,2025-11-20,24.067969,121.209389,3.2182255e-09
C0AJ90,澳底,2025-11-20,25.0552,121.9253,0.97167385
C0Z100,東華,2025-11-20,23.89525,121.549833,0.0011685999
C0G970,三豐,2025-11-20,23.882,120.2895,0.3692436
V2K610,大庄合作社,2025-11-20,23.8068,120.367939,0.980943
C0V900,汕尾,2025-11-20,22.4782,120.4151,2.8159915e-05
C1R630,龍泉,2025-11-20,22.66701,120.59091,0.0045518554
C1AC50,關渡,2025-11-20,25.133486,121.469331,0.9994648
C0C800,四稜,2025-11-20,24.64733,121.4293,4.8246716e-07
C0F9I0,神岡,2025-11-20,24.272481,120.658314,2.57527e-07
C0K460,斗南,2025-11-20,23.678734,120.478359,0.0019419907
C2O810,曾文,2025-11-20,23.219681,120.497328,8.108169e-06
467280,後龍,2025-11-20,24.648563,120.831834,0.55620325
C1F9J1,清水林,2025-11-20,24.071242,120.820419,6.20903e-10
C2A650,火燒寮,2025-11-20,25.002719,121.742892,0.99440795
466930,竹子湖,2025-11-20,25.162078,121.544547,0.00016054994
C1I220,樟湖,2025-11-20,23.905333,120.846983,1.8554001e-09
C0I390,仁愛,2025-11-20,24.022122,121.132206,2.7707512e-09
C0Z300,東里,2025-11-20,23.26853,121.30547,3.7789618e-05
C1V590,新發,2025-11-20,23.057019,120.646064,3.2620227e-09
C0K510,水林,2025-11-20,23.572924,120.24597,0.19448291
72S590,東改賓朗果園,2025-11-20,22.813889,121.071278,2.0867958e-08
82A750,茶改北部分場,2025-11-20,24.955778,121.631222,0.001441288
C1A750,石碇服務區,2025-11-20,25.00872,121.646242,0.9982503
C0X300,鹿寮,2025-11-20,23.386047,120.477331,0.039571118
G2AI50,關渡,2025-11-20,25.11575,121.492,0.9985534
C0K590,雲林東勢,2025-11-20,23.674192,120.255721,0.25626296
C2K310,港尾布雞,2025-11-20,23.74834,120.38439,0.00026318314
C0A570,桶後,2025-11-20,24.848222,121.597992,0.88645345
C1S800,華源,2025-11-20,22.657883,121.02325,9.431618e-05
C0G720,溪州,2025-11-20,23.851589,120.499093,0.000117328
C1V160,達卡努瓦,2025-11-20,23.279811,120.705319,1.0645607e-09
C2M410,馬頭山,2025-11-20,23.324361,120.582017,2.2358526e-07
C0V850,蚵仔寮,2025-11-20,22.7256,120.2527,0.0053447844
C0S740,池上,2025-11-20,23.119628,121.209469,2.8725597e-07
C1V390,尖山,2025-11-20,22.813153,120.367789,2.0472009e-05
C0AH70,松山,2025-11-20,25.04871,121.55042,0.99905413
C0N010,鯤鯓國小,2025-11-20,23.1879,120.0889,0.4299679
C0R550,新埤,2025-11-20,22.467947,120.582894,0.00083352375
C0SA60,知本（水試所）,2025-11-20,22.702394,121.082761,0.0010200731
C0T9I0,豐濱,2025-11-20,23.583897,121.514806,7.0233575e-05
C0UB00,淡江大學蘭陽校園,2025-11-20,24.823239,121.730383,3.7998278e-05
C0W240,九宮,2025-11-20,24.423753,118.240186,0.9993138
C0T9N0,富里,2025-11-20,23.171639,121.249378,0.0005294921
U2HA50,臺大竹山,2025-11-20,23.756972,120.681556,0.0013271803
C0V840,鳳鼻頭,2025-11-20,22.5083,120.3591,2.0981337e-05
C0X140,西港,2025-11-20,23.125608,120.203108,9.682818e-06
72D080,桃改五峰分場,2025-11-20,24.612194,121.157167,1.8992585e-09
C2H9P0,伊拿谷,2025-11-20,23.963211,121.088264,1.1264695e-09
C2K250,崙背,2025-11-20,23.75553,120.31893,0.5471904
C2H9F0,柑林,2025-11-20,24.018658,120.847072,1.09133955e-08
C0TA20,加灣,2025-11-20,24.082025,121.608944,0.9179185
C0V530,阿蓮,2025-11-20,22.883208,120.327508,0.0004370827
C0FB30,八仙山苗圃,2025-11-20,24.192719,121.001366,1.5914576e-09
C1O880,關山,2025-11-20,23.173397,120.594092,9.62981e-08
C0E791,卓蘭,2025-11-20,24.3126,120.8244,8.504031e-09
C1I030,武界,2025-11-20,23.913225,121.052483,1.1145398e-09
C0R520,崁頂,2025-11-20,22.514781,120.506914,3.1118263e-05
C0R341,牡丹,2025-11-20,22.130036,120.792639,0.9771747
C0R930,萬丹,2025-11-20,22.5885,120.4851,0.038359836
C0S760,紅石,2025-11-20,23.069131,121.126219,1.4655806e-08
C2C410,中央大學,2025-11-20,24.967652,121.185165,0.9990659
C1M610,石磐龍,2025-11-20,23.496606,120.663506,1.5835819e-09
C0C790,東眼山,2025-11-20,24.8284,121.40888,2.6656116e-06
C0UA10,鴛鴦湖,2025-11-20,24.590269,121.412228,4.3580663e-08
V2C260,八德蔬果,2025-11-20,24.978508,121.281819,0.99981135
C0R800,丹路,2025-11-20,22.204481,120.750989,0.70227414
C0G920,永靖,2025-11-20,23.924703,120.547533,1.9444069e-05
C2M950,太和,2025-11-20,23.538372,120.702961,1.7035724e-09
C1A630,下盆,2025-11-20,24.771003,121.538622,0.00077015994
B2N890,畜產試驗所,2025-11-20,23.058972,120.336406,0.008064784
C0UA30,白嶺,2025-11-20,24.527819,121.519031,1.7256808e-08
467571,新竹,2025-11-20,24.828575,121.01455,0.23077969
C1V580,溪南(特生中心),2025-11-20,23.084972,120.788475,1.698877e-09
C1T970,大農,2025-11-20,23.615233,121.413331,5.649996e-08
C0R650,竹田,2025-11-20,22.58486,120.54344,0.030829825
C1H900,清流,2025-11-20,24.080775,120.962997,8.444481e-10
C1C510,水尾,2025-11-20,24.940081,121.087161,0.15463439
C2N170,茅港尾,2025-11-20,23.2061,120.2624,0.013703301
C0F9X0,大雅(中科園區),2025-11-20,24.21528,120.62445,2.2761717e-06
C0SB60,白守蓮,2025-11-20,23.126769,121.401914,0.12506467
C0O970,虎頭埤,2025-11-20,23.021375,120.347878,0.0007614623
C0C730,中大臨海站,2025-11-20,24.966126,121.008581,0.42708972
C0X250,新營,2025-11-20,23.310689,120.316681,0.024864502
C0V700,三民,2025-11-20,22.645017,120.311233,0.02691301
C0U870,大礁溪,2025-11-20,24.791042,121.675047,0.000112984686
C0E870,高鐵苗栗,2025-11-20,24.60725,120.826094,0.55620325
A2K570,古坑花卉中心,2025-11-20,23.63353,120.55239,0.0055883797
C0TA30,鹽寮,2025-11-20,23.845606,121.592664,0.0025669655
C0M860,新美,2025-11-20,23.338017,120.683169,3.9800314e-09
C1E701,八卦,2025-11-20,24.491756,120.927619,9.535055e-10
C2TA90,加納納,2025-11-20,23.466421,121.359867,6.5947796e-05
C0I420,國姓,2025-11-20,24.037803,120.855072,7.629001e-09
C2D720,關西工作站,2025-11-20,24.757275,121.184792,0.9897414
C0S960,香蘭,2025-11-20,22.587569,120.993375,0.12841257
467620,蘭嶼,2025-11-20,22.0369,121.55843,0.97179216
C0R260,春日,2025-11-20,22.370361,120.628306,0.00012783315
72G600,臺中農改場,2025-11-20,24.003028,120.534389,1.6120106e-05
C0Z210,瑞穗,2025-11-20,23.5239,121.39021,0.00072541134
C0M820,達邦,2025-11-20,23.453994,120.749517,1.4209114e-09
C0V860,南寮,2025-11-20,22.7616,120.2339,0.0053447844
C0G740,大城,2025-11-20,23.852487,120.320935,0.3692436
C0R920,塭仔,2025-11-20,22.4169,120.5197,6.357849e-07
C0R470,高樹,2025-11-20,22.826389,120.600806,0.09287697
C0R680,佳樂水,2025-11-20,21.993578,120.861633,0.9819909
C1O870,大棟山,2025-11-20,23.31157,120.52226,1.7362316e-09
C0D360,梅花,2025-11-20,24.678347,121.208558,1.2633612e-08
C0Z190,富世,2025-11-20,24.14743,121.6297,0.33600122
C0AI10,屈尺,2025-11-20,24.92184,121.54475,0.9995064
B2U990,畜試東區分所,2025-11-20,24.669039,121.832561,0.00029250176
C0SB80,長濱漁港,2025-11-20,23.313644,121.459994,0.00041687326
C0TA50,和仁,2025-11-20,24.241394,121.712472,0.0013666984
C0V910,大樹,2025-11-20,22.684645,120.432803,0.016584178
C1R610,西大武山,2025-11-20,22.617719,120.7322,1.1195835e-08
C0G900,線西,2025-11-20,24.143358,120.443536,0.9896017
C0M700,竹崎,2025-11-20,23.526178,120.555508,0.03186582
C2E880,三義,2025-11-20,24.405478,120.749819,1.0128903e-07
C0C720,竹圍,2025-11-20,25.112692,121.239824,0.16142493
C0F9P0,清水,2025-11-20,24.312297,120.562242,0.46341038
C0Z150,吉安光華,2025-11-20,23.930925,121.595153,0.04315268
C0FA80,小雪山天池,2025-11-20,24.28025,121.02627,6.6055112e-09
467300,東吉島,2025-11-20,23.25727,119.66762,0.4753266
C1D640,外坪(五指山),2025-11-20,24.644447,121.090961,4.478131e-09
C2R9A0,高士國小,2025-11-20,22.12553,120.84653,0.9771747
C0F9O0,潭子,2025-11-20,24.213106,120.703933,4.1395904e-08
C2H9R0,卓社,2025-11-20,23.887894,121.000086,1.2379235e-09
72T250,花蓮農改場,2025-11-20,23.975222,121.563889,0.02494125
C0E780,銅鑼,2025-11-20,24.489681,120.790853,0.6924044
C1T950,太安,2025-11-20,23.666719,121.370128,2.412461e-08
C0E830,苑裡,2025-11-20,24.439714,120.653053,0.008834778
467270,田中,2025-11-20,23.873803,120.581286,0.00033879545
C0SA10,檳榔四格山,2025-11-20,22.810031,121.109308,8.192095e-09
C1T830,布洛灣,2025-11-20,24.17184,121.57127,1.2518187e-06
C0F970,大坑,2025-11-20,24.173142,120.722289,2.2864995e-06
C1U920,思源,2025-11-20,24.393125,121.347214,1.1466431e-08
C2H9Y0,松茗,2025-11-20,23.8167,120.650765,1.5660524e-09
C0A931,三和,2025-11-20,25.233153,121.595236,0.9977132
C0I010,廬山,2025-11-20,24.033311,121.181808,8.5010105e-10
C2M940,日野賀,2025-11-20,23.434056,120.727169,1.3768688e-09
C0R860,鼻頭,2025-11-20,22.1043,120.8979,0.2932776
C0UB20,壯圍,2025-11-20,24.7359,121.8163,0.0033123472
C0R790,九棚,2025-11-20,22.14195,120.889281,0.18461744
C0W110,東莒,2025-11-20,25.9652,119.98069,0.5177037
C1U930,粉鳥林,2025-11-20,24.497088,121.842479,0.0001310453
C1I211,蘆竹湳,2025-11-20,23.934019,120.811994,1.2550291e-09
C0S830,長濱,2025-11-20,23.286817,121.411975,3.4659831e-06
C1F9F1,伯公龍,2025-11-20,24.272392,120.849047,1.4668243e-09
C0UB90,太平山莊,2025-11-20,24.494171,121.536209,1.4014467e-08
C0E810,西湖,2025-11-20,24.562947,120.7485,0.8395139
C1I440,新高口,2025-11-20,23.478744,120.878939,3.3634335e-09
C0O840,王爺宮,2025-11-20,23.222064,120.40085,0.9817742
C0T9G0,鳳林山,2025-11-20,23.735269,121.420131,4.8700624e-08
C0X080,佳里,2025-11-20,23.173039,120.145086,0.28991744
C0FB70,大甲溪埔,2025-11-20,24.370625,120.620067,0.04222095
C0Z310,清水斷崖,2025-11-20,24.218294,121.689142,2.8080107e-05
C0M680,太保,2025-11-20,23.455062,120.331455,0.00094139134
C1S820,金峰,2025-11-20,22.590969,120.933236,1.625337e-05
C0AD10,八里,2025-11-20,25.150211,121.403947,0.88390654
C2K240,草嶺,2025-11-20,23.59555,120.693461,2.2608435e-09
C1SA70,都蘭,2025-11-20,22.87794,121.226881,4.4425852e-07
C0K440,二崙,2025-11-20,23.772797,120.408944,0.00018067648
C1A760,坪林交控,2025-11-20,24.94284,121.713442,0.99845773
C0F9N0,大里,2025-11-20,24.092464,120.701378,2.342016e-05
C0SA90,達仁林場,2025-11-20,22.264347,120.823972,0.9996918
C1R290,石門山,2025-11-20,22.112611,120.756597,0.99774367
42HA10,萬大發電廠,2025-11-20,23.978875,121.139639,4.984048e-09
C0R890,山海,2025-11-20,21.9878,120.7091,0.9964567
C0T9A0,月眉山,2025-11-20,23.809928,121.539828,2.4490967e-08
C0AC70,信義,2025-11-20,25.037822,121.564597,0.99875116
C0K560,棋山,2025-11-20,23.68645,120.603417,0.00031171614
C2FB50,出雲,2025-11-20,24.206469,120.902794,1.4516113e-09
C1Z240,中平林道,2025-11-20,23.42115,121.26763,5.266536e-08
U2H480,溪頭,2025-11-20,23.670306,120.798194,2.1556255e-09
C0M880,好美里,2025-11-20,23.3364,120.138,0.2334884
C0T9E0,大坑,2025-11-20,23.880628,121.581981,1.8731967e-07
C0K530,臺西,2025-11-20,23.701547,120.197559,0.95012635
C1E900,國一N128K,2025-11-20,24.560997,120.844186,0.8170301
C0AJ50,水湳洞,2025-11-20,25.123695,121.862238,0.9729147
C0AI20,白沙灣,2025-11-20,25.283128,121.519058,0.9976215
C2V310,美濃,2025-11-20,22.898792,120.51907,8.342306e-05
C0A860,大坪,2025-11-20,25.165914,121.632969,0.9433256
C1U850,觀音海岸,2025-11-20,24.38319,121.77856,1.3974002e-08
C2K610,草嶺石壁,2025-11-20,23.602469,120.707731,2.2343505e-09
C0U950,鶯子嶺,2025-11-20,24.89754,121.79244,7.693591e-07
C0O900,善化,2025-11-20,23.112883,120.297219,0.008064784
C0K550,蔦松,2025-11-20,23.514319,120.229736,0.52723706
E2P980,林試六龜中心,2025-11-20,22.991703,120.645722,2.651176e-06
C0E590,通霄,2025-11-20,24.471892,120.704622,0.021058187
C1I310,西巒,2025-11-20,23.754486,120.883956,1.5859275e-09
C0A550,泰平,2025-11-20,24.971197,121.823711,0.0034324264
C0I360,水里,2025-11-20,23.812553,120.849792,6.4156787e-09
C0R830,高士,2025-11-20,22.121825,120.836781,0.99912333
C1I101,溪頭,2025-11-20,23.661789,120.807647,2.0610398e-09
C0AJ20,野柳,2025-11-20,25.20703,121.690021,0.9727628
C0B060,暖暖,2025-11-20,25.0957,121.7403,0.9979914
C1H920,長豐,2025-11-20,24.102039,120.879897,9.402656e-10
C2S9B0,利吉,2025-11-20,22.86246,121.15486,3.309295e-08
C0V360,內門,2025-11-20,22.975481,120.466769,9.177827e-07
C0R850,林邊,2025-11-20,22.4634,120.5339,6.601832e-06
C0E930,龍鳳,2025-11-20,24.700034,120.859125,0.984205
C0U910,冬山,2025-11-20,24.63373,121.7937,0.00029250176
C1E721,泰安,2025-11-20,24.489017,120.968036,1.1341401e-09
82H320,茶改中部分場,2025-11-20,23.875611,120.913583,2.3312403e-09
C0M750,布袋,2025-11-20,23.380878,120.167789,0.8130646
C1S860,利嘉,2025-11-20,22.809417,121.050528,7.576927e-09
E2S980,林試太麻里1,2025-11-20,22.598922,120.980044,0.002832314
C0X170,關廟,2025-11-20,22.963017,120.327797,6.295172e-05
C0V720,林園,2025-11-20,22.507747,120.394511,9.078058e-05
C1I510,線浸林道,2025-11-20,23.761508,120.832956,1.5817043e-09
C0D690,外湖,2025-11-20,24.917735,120.968711,0.8804638
C0C750,新興坑尾,2025-11-20,25.0061,121.0971,0.41807494
B2Q810,畜試南區分所,2025-11-20,21.945583,120.802167,0.9819909
C0S790,金崙,2025-11-20,22.538122,120.966875,0.00022585243
C0AH90,福山植物園,2025-11-20,24.760717,121.58135,8.54267e-05
C0I540,奇萊稜線,2025-11-20,24.109231,121.326456,2.2969163e-08
C0M850,表湖,2025-11-20,23.24186,120.64166,1.7328008e-09
C0S770,大溪山,2025-11-20,22.478475,120.943325,5.7457993e-07
C0AG80,中和,2025-11-20,24.991622,121.491792,0.99945414
C0T790,大禹嶺,2025-11-20,24.186117,121.316086,8.390429e-09
C0T9B0,水源,2025-11-20,23.991861,121.537169,1.7195785e-07
C0R840,牡丹池山,2025-11-20,22.168389,120.841225,0.9983331
C1I131,桶頭,2025-11-20,23.641944,120.654117,5.452208e-07
CAL110,布袋國中,2025-11-20,23.35893,120.18026,0.2334884
C2M9D0,何竹子腳,2025-11-20,23.53641,120.38203,0.10907042
467571,新竹,2025-11-20,24.827853,121.014219,0.23077969
C0Z290,赤柯山,2025-11-20,23.36893,121.38293,2.1623716e-08
C0X280,將軍,2025-11-20,23.214999,120.13577,0.6292322
C0S690,太麻里,2025-11-20,22.60902,120.98533,4.2995204e-08
C0U880,北關,2025-11-20,24.9072,121.8734,0.9677723
CAW010,東引,2025-11-20,26.3588,120.4836,0.14349219
C0G810,埔心,2025-11-20,23.947633,120.525456,1.9444069e-05
C0U970,大福,2025-11-20,24.80064,121.81389,0.001139229
C2H9N0,仁愛東眼,2025-11-20,24.026875,121.1205,1.5733936e-09
C1E670,南礦,2025-11-20,24.538278,121.002836,1.3234199e-09
C0M520,東後寮,2025-11-20,23.369908,120.248065,0.014458062
C1E461,松安,2025-11-20,24.397972,120.986022,1.2273415e-09
C2N160,西拉雅風管處,2025-11-20,23.189481,120.335297,0.88986427
C2M970,碧湖,2025-11-20,23.568632,120.624165,1.6385032e-09
C0A640,石碇,2025-11-20,24.993969,121.662917,0.9984564
E2S960,林試太麻里2,2025-11-20,22.598,120.99775,0.14224909
C0F9Y0,桃山,2025-11-20,24.432739,121.303808,2.0127208e-08
C1I020,萬大,2025-11-20,23.979817,121.132261,2.6734328e-09
C2UC20,長嶺,2025-11-20,24.70894,121.61162,0.0019168439
C0U940,羅東,2025-11-20,24.68184,121.74934,0.014898538
C0M650,朴子,2025-11-20,23.43463,120.23902,0.0031478389
C1I500,大尖山,2025-11-20,23.858572,120.994889,2.4161992e-09
C0FB40,中橫21.6k,2025-11-20,24.2499,121.1455,1.240888e-09
C0G820,田尾,2025-11-20,23.901669,120.509389,1.9444069e-05
E2K600,四湖植物園,2025-11-20,23.676986,120.163433,0.96804285
C0S730,綠島,2025-11-20,22.6672,121.47533,0.08180145
12Q970,東港工作站,2025-11-20,22.479997,120.466058,6.601832e-06
C0E430,南庄,2025-11-20,24.601775,121.000214,5.8030658e-08
C1TA00,太魯閣,2025-11-20,24.15773,121.6236,0.012056886
466920,臺北,2025-11-20,25.037658,121.514853,0.99905413
C0R600,舊泰武,2025-11-20,22.588194,120.664944,1.2615571e-09
C1I260,北坑,2025-11-20,23.9246,121.006903,2.8591787e-09
466910,鞍部,2025-11-20,25.182586,121.529731,0.008516496
C1I230,九份二山,2025-11-20,23.961944,120.845,8.974251e-10
C2M810,里佳,2025-11-20,23.389125,120.716647,1.5427614e-09
C2A660,瑞芳,2025-11-20,25.113169,121.801147,0.99648166
C0R270,琉球嶼,2025-11-20,22.332244,120.362236,3.1378833e-05
C2V580,瑞山,2025-11-20,22.90304,120.43424,3.0341105e-06
C1T990,高寮,2025-11-20,23.394239,121.356808,9.0642185e-05
C0G620,芬園,2025-11-20,24.015678,120.6213,5.6366087e-05
C1Z140,荖溪,2025-11-20,23.890575,121.45964,4.0056296e-08
C1I201,中心崙,2025-11-20,23.728722,120.712097,1.0012418e-09
C1I400,凌霄,2025-11-20,24.018778,121.004456,1.5306358e-09
C1M640,十字,2025-11-20,23.492153,120.753683,2.0632738e-09
G2P820,農試鳳山分所,2025-11-20,22.646611,120.356083,0.00024658337
C0Z270,蕃薯寮,2025-11-20,23.73835,121.540108,2.5385926e-08
C2E420,竹南,2025-11-20,24.70898,120.88897,0.984205
C0FB10,出雲山苗圃,2025-11-20,24.23105,120.90475,1.546739e-09
C0F9Q0,外埔,2025-11-20,24.347817,120.705686,1.2876704e-06
C0K580,高鐵雲林,2025-11-20,23.737456,120.417944,0.00026318314
C2I090,鳳凰,2025-11-20,23.728081,120.787347,1.2897952e-09
C0U990,員山,2025-11-20,24.74435,121.72247,0.014898538
C0V770,大社,2025-11-20,22.730306,120.346639,0.00016056496
C0X120,麻豆,2025-11-20,23.183289,120.248611,0.00036230937
C0C670,龍潭,2025-11-20,24.870056,121.221389,0.9987133
C0D680,香山濕地,2025-11-20,24.783581,120.914988,0.8804638
C0S980,勝林山,2025-11-20,22.430439,120.8938,3.7264294e-07
C0V730,大寮,2025-11-20,22.605614,120.395717,0.00024658337
C0R570,麟洛,2025-11-20,22.65078,120.52719,0.9968411
C2M930,石卓,2025-11-20,23.478744,120.702264,2.035156e-09
C0G9B0,和美,2025-11-20,24.105169,120.492131,0.99526703
CAG100,王功漁港,2025-11-20,23.96824,120.32586,0.4287291
C0X290,北門,2025-11-20,23.267772,120.125481,0.6292322
C2F930,大甲,2025-11-20,24.347667,120.640403,0.04222095
C0D650,湖口,2025-11-20,24.904794,121.043628,0.15463439
C0E420,竹南,2025-11-20,24.708978,120.888897,0.97851455
C0U780,五結,2025-11-20,24.68637,121.79794,0.00029250176
C1I250,鯉潭,2025-11-20,23.961922,120.991131,1.6424552e-09
C0R130,阿禮,2025-11-20,22.742908,120.743678,1.6782745e-09
C0X100,臺南市北區,2025-11-20,23.010394,120.194228,8.17333e-05
C0S920,金峰嘉蘭,2025-11-20,22.594789,120.960825,0.001359979
C0V490,新興,2025-11-20,22.627422,120.298803,0.10317997
C0F9K0,大安,2025-11-20,24.345061,120.588025,0.04222095
467290,古坑,2025-11-20,23.633639,120.551889,7.38304e-05
C2E970,八甲,2025-11-20,24.535811,120.795983,0.81702995
C0V440,鳳山,2025-11-20,22.646653,120.356122,0.00024658337
C1T940,大觀,2025-11-20,23.714206,121.373133,1.5195742e-08
C0E740,造橋,2025-11-20,24.637056,120.864778,0.55620325
C0R100,尾寮山,2025-11-20,22.833111,120.683889,1.5455948e-09
A2K630,臺大雲林校區,2025-11-20,23.730628,120.423903,0.00026318314
467990,馬祖,2025-11-20,26.169467,119.923158,0.6647901
C0D580,寶山,2025-11-20,24.735006,121.025192,0.00022353866
E2P990,林試扇平站,2025-11-20,22.9677,120.6857,4.6900794e-09
C0AI30,三重,2025-11-20,25.057328,121.500629,0.99905413
C0AH00,汐止,2025-11-20,25.066881,121.658778,0.9974798
C1Z040,立山,2025-11-20,23.443356,121.327375,1.608661e-07
466881,新北,2025-11-20,24.959207,121.525196,0.9994386
C0W130,花嶼,2025-11-20,23.40007,119.32276,0.77625304
C0A950,鼻頭角,2025-11-20,25.129036,121.923372,0.9716788
C0K470,林內,2025-11-20,23.748675,120.609642,0.00031171614
C2F990,摩天嶺,2025-11-20,24.322458,120.936819,1.4708054e-09
C2E430,南庄,2025-11-20,24.601775,121.000214,0.01495904
82C160,茶改場,2025-11-20,24.908472,121.185333,0.99915475
C2TB60,南安,2025-11-20,23.29818,121.26157,1.16865485e-05
C0Z320,清水林道,2025-11-20,23.27125,121.188272,6.873995e-08
C0R760,南仁湖,2025-11-20,22.084681,120.863353,0.99774414
C0M670,大林,2025-11-20,23.600616,120.45841,0.39745998
C0M800,茶山,2025-11-20,23.299075,120.664767,9.337714e-09
C0A9C0,天母,2025-11-20,25.117494,121.537169,0.9988528
72K220,南改斗南分場,2025-11-20,23.634556,120.477333,0.0019419907
72AI40,桃改樹林分場,2025-11-20,24.944503,121.386972,0.9993295
C0S910,蘭嶼燈塔,2025-11-20,22.081197,121.503117,0.92765296
C0B050,八斗子,2025-11-20,25.144754,121.79167,0.95563376
C0U900,內城,2025-11-20,24.71813,121.68766,0.01975962
C0X320,柳營,2025-11-20,23.253328,120.375253,0.9817742
C0M790,新港,2025-11-20,23.553269,120.345728,0.0020301172
C0F9T0,西屯,2025-11-20,24.179494,120.641275,2.2761717e-06
C0E950,松安,2025-11-20,24.39792,120.98599,1.2273415e-09
C0SA30,都歷,2025-11-20,23.020333,121.323642,0.058221146
C0C620,蘆竹,2025-11-20,25.084275,121.265767,0.42079085
C0R730,大坪頂,2025-11-20,22.024633,120.69355,0.6444828
C0AJ40,石門,2025-11-20,25.273672,121.601198,0.9996663
C0E750,苗栗,2025-11-20,24.564569,120.824575,0.81702995
C0T870,鯉魚潭,2025-11-20,23.935639,121.508944,0.0003989489
C1V170,排雲,2025-11-20,23.463619,120.954147,1.9908395e-08
C2H950,中寮,2025-11-20,23.884447,120.766406,4.0943135e-08
C0R350,貓鼻頭,2025-11-20,21.921774,120.7358,0.9967381
C0V660,岡山,2025-11-20,22.797078,120.294958,0.003650228
C1H941,雙冬,2025-11-20,23.967378,120.802189,1.1750956e-09
C0AJ70,田寮,2025-11-20,25.2698,121.4886,0.99703276
C0AI00,五股,2025-11-20,25.07445,121.42728,0.9993413
C0Z280,德武,2025-11-20,23.47426,121.41071,0.00013409178
C2RA10,大新,2025-11-20,22.67558,120.57788,0.0045518554
C0R700,枋山,2025-11-20,22.246844,120.661086,0.06556243
C0C460,復興,2025-11-20,24.820208,121.352281,0.9982033
C2K300,鹿南,2025-11-20,23.63855,120.3636,0.00036964088
E2H360,蓮華池,2025-11-20,23.918333,120.885278,1.2179227e-09
C0M640,中埔,2025-11-20,23.42538,120.5229,0.13209207
C0W140,金沙,2025-11-20,24.488292,118.408778,0.99941415
C2A540,四堵,2025-11-20,24.8926,121.745736,0.015987257
C0ACA0,新莊,2025-11-20,25.051478,121.446756,0.99936473
C0R220,潮州,2025-11-20,22.534361,120.54,3.1118263e-05
U2HA40,臺大內茅埔,2025-11-20,23.689722,120.851117,2.478863e-09
467490,臺中,2025-11-20,24.145736,120.684075,2.2864995e-06
C0UB60,明池,2025-11-20,24.650688,121.475277,1.2914423e-06
C0U960,翠峰湖,2025-11-20,24.510856,121.608044,1.34923965e-08
E2HA20,林試畢祿溪站,2025-11-20,24.226944,121.308522,4.2084602e-09
C2M9A0,大華,2025-11-20,23.4824,120.67491,1.4026172e-09
C0V890,前鎮,2025-11-20,22.5718,120.3117,0.00373009
C1F941,雪嶺,2025-11-20,24.280586,121.026642,6.6055112e-09
C2H9E0,國姓南港,2025-11-20,23.911108,120.846556,1.8649906e-09
C0AC80,文山,2025-11-20,25.00235,121.575728,0.999465
C0F9R0,龍井,2025-11-20,24.184536,120.528972,0.8272876
C0M760,民雄,2025-11-20,23.551754,120.428457,0.39745998
C0UA40,西德山,2025-11-20,24.560647,121.752608,5.281716e-08
C2TA70,赤科坪,2025-11-20,23.39885,121.39168,3.187013e-08
C1T920,中興,2025-11-20,23.769503,121.498653,2.7543767e-06
C0D550,雪霸,2025-11-20,24.526972,121.11605,2.708271e-09
C2F860,梨山,2025-11-20,24.247522,121.243669,4.118969e-09
C0R320,車城,2025-11-20,22.0744,120.716247,0.82148415
C1S870,南美山,2025-11-20,23.15025,121.382333,0.01055389
C0B020,基隆嶼,2025-11-20,25.19141,121.78391,0.9777409
C1U501,牛鬥,2025-11-20,24.637836,121.573656,0.17507838
C0M730,嘉義市東區,2025-11-20,23.457673,120.460531,0.96273
C2R990,泰武,2025-11-20,22.60686,120.69765,8.238963e-09
C0S700,知本,2025-11-20,22.684866,121.005642,1.8028325e-08
C1N001,沙崙,2025-11-20,22.935472,120.309406,6.295172e-05
C0V760,橋頭,2025-11-20,22.757806,120.30575,0.00016056496
C0G960,福寶,2025-11-20,24.0443,120.3814,0.9913744
C0X210,白河,2025-11-20,23.347466,120.414427,0.039571118
C0S810,東河,2025-11-20,22.972672,121.303986,0.0738281
C2R170,屏東,2025-11-20,22.66027,120.49403,0.9968411
C0R670,楓港,2025-11-20,22.190131,120.692156,0.80896777
C0FA50,霧峰,2025-11-20,24.0419,120.6995,2.342016e-05
C0UB10,蘇澳,2025-11-20,24.5969,121.8571,0.00034204716
C0G950,防潮門,2025-11-20,24.1835,120.4871,0.9897144
C0M740,六腳,2025-11-20,23.492871,120.290625,0.0022616254
C1R250,力里,2025-11-20,22.428117,120.629228,3.1584936e-05
C0K330,虎尾,2025-11-20,23.719183,120.442036,0.00026318314
C2FA00,烏石坑,2025-11-20,24.273503,120.947617,1.5246044e-09
C0V620,永安,2025-11-20,22.82315,120.236856,0.0036502297
C1I330,楓樹林,2025-11-20,23.986803,121.076117,1.1546422e-09
C0W200,湖西,2025-11-20,23.596314,119.67275,0.80349594
72Q010,高雄農改場,2025-11-20,22.709333,120.525889,0.44845423
C0SA40,瑞和,2025-11-20,22.974361,121.156697,2.023001e-08
C0C680,龜山,2025-11-20,25.02846,121.38656,0.99792916
C2V260,月眉,2025-11-20,22.971003,120.539853,2.4253693e-06
C0V450,鳳森,2025-11-20,22.545064,120.392592,9.0780755e-05
C0FA90,小雪山林道,2025-11-20,24.29515,121.03651,9.319263e-09
C0U720,南山,2025-11-20,24.43742,121.38167,1.4761149e-08
A2N290,臺南蘭花園區,2025-11-20,23.340258,120.379661,0.037057266
C0R560,新園,2025-11-20,22.5434,120.461558,9.0780755e-05
C0U890,三星,2025-11-20,24.66812,121.65302,0.011808591
C1V300,御油山,2025-11-20,23.001983,120.715364,1.6618349e-09
C0U600,礁溪,2025-11-20,24.817539,121.765608,0.001139229
C1T980,龍澗,2025-11-20,24.023289,121.411328,7.1344076e-08
C0D670,海天一線,2025-11-20,24.831986,120.914438,0.8425724
C0SA00,歷坵,2025-11-20,22.520969,120.89185,1.9706864e-07
C0M710,東石,2025-11-20,23.458927,120.15385,0.80738926
C0M780,鹿草,2025-11-20,23.41134,120.30835,0.0031478389
C0U520,雙連埤,2025-11-20,24.753033,121.641303,0.00041634327
C0B010,七堵,2025-11-20,25.094819,121.71713,0.9827673
C0R480,長治,2025-11-20,22.693128,120.542622,0.21030344
C1V830,國三S383K,2025-11-20,22.781967,120.426475,6.6546568e-06
12Q980,恆春工作站,2025-11-20,22.079678,120.714425,0.82148415
C1O940,東山服務區,2025-11-20,23.286016,120.398472,0.037057266
C1U840,東澳嶺,2025-11-20,24.5378,121.8485,5.510142e-08
C1D630,飛鳳山,2025-11-20,24.766464,121.119178,2.6694291e-08
C0S940,石寧山,2025-11-20,23.223772,121.406639,0.055375356
C0K410,北港,2025-11-20,23.573957,120.292802,0.19448291
C2M620,瑞里,2025-11-20,23.545133,120.675197,1.5835819e-09
C0SB70,小港漁港,2025-11-20,23.158558,121.400431,0.12339602
C2O950,安南,2025-11-20,23.076694,120.144861,0.2034219
C0F0E0,南湖圈谷,2025-11-20,24.363714,121.444667,2.1654177e-08
467610,成功,2025-11-20,23.097486,121.373428,0.3999795
C0G890,伸港,2025-11-20,24.148933,120.484403,0.9897144
C2E540,龍溪,2025-11-20,24.606489,120.783933,0.81702995
C1V200,梅山,2025-11-20,23.268447,120.823556,1.319775e-09
C0T9H0,加路蘭山,2025-11-20,23.682947,121.5274,1.1348092e-08
C2O930,玉井,2025-11-20,23.126042,120.46055,0.0016264081
C1F911,新伯公,2025-11-20,24.221361,120.841069,1.2424913e-09
C0R490,九如,2025-11-20,22.7405,120.490503,0.44845423
C0X200,左鎮,2025-11-20,23.056758,120.408522,0.028228665
C2TB50,麻汝,2025-11-20,23.42554,121.39358,0.00013409178
C0FA60,鞍馬山工作站,2025-11-20,24.267064,121.000793,3.5086825e-09
C0SB50,叭嗡嗡,2025-11-20,23.047062,121.343223,0.3743237
C1F891,稍來,2025-11-20,24.265689,121.001142,3.332692e-09
C2M9C0,紫雲,2025-11-20,23.494914,120.540253,0.5179313
72N240,七股研究中心,2025-11-20,23.081672,120.062894,0.32485935
C0C700,中壢,2025-11-20,24.977661,121.256375,0.99981135
C0M690,水上,2025-11-20,23.419734,120.388909,0.00094139134
C0V690,鼓山,2025-11-20,22.623325,120.275575,0.10317997
C0O860,大內,2025-11-20,23.11885,120.36083,0.88986427
C0Z200,萬榮,2025-11-20,23.709219,121.420106,4.408555e-08
C0T9D0,和中,2025-11-20,24.26676,121.74103,0.0013666984
C2S9A0,北份子寮,2025-11-20,22.78561,121.07813,0.00020919542
C1O921,楠西,2025-11-20,23.183511,120.484083,0.0016264081
C0AJ30,淡水觀海,2025-11-20,25.184591,121.408616,0.88390654
C0V810,左營,2025-11-20,22.67491,120.28491,0.02691301
C0UA70,桃源谷,2025-11-20,24.962606,121.888875,9.26412e-05
C0X130,官田,2025-11-20,23.193217,120.315422,0.88986427
C1H000,翠峰,2025-11-20,24.109397,121.205211,4.7674824e-09
C0UA90,石城,2025-11-20,24.980444,121.951214,0.9733586
C1E681,南勢山,2025-11-20,24.421669,120.923831,1.0118333e-09
C0A9F0,內湖,2025-11-20,25.079422,121.57545,0.99875116
C0K291,宜梧,2025-11-20,23.536281,120.169329,0.93464786
C1K540,口湖,2025-11-20,23.585344,120.180517,0.9360247
C0R780,滿州,2025-11-20,22.024403,120.839892,0.5300477
C0V870,文安,2025-11-20,22.8025,120.2164,0.0053447844
C0U650,玉蘭,2025-11-20,24.675286,121.587061,0.0018202377
C0R640,東港,2025-11-20,22.46247,120.44074,2.0981337e-05
C0AJ80,板橋,2025-11-20,25.0107,121.4489,0.99945414
C0S660,下馬,2025-11-20,23.150427,121.070312,1.77149e-08
C2N190,烏樹,2025-11-20,23.32393,120.36989,0.037057266
C1H9B1,阿眉,2025-11-20,24.1263,120.994672,1.7623257e-09
C0UA20,多加屯,2025-11-20,24.368614,121.373189,1.08609415e-08
C0E730,頭份,2025-11-20,24.688247,120.912206,0.984205
72V140,高改旗南分場,2025-11-20,22.857861,120.516667,8.342306e-05
C0K480,莿桐,2025-11-20,23.761192,120.502372,0.0028387033
C0U980,坪林石牌,2025-11-20,24.86478,121.77396,0.00019083355
C0T900,西林,2025-11-20,23.8119,121.441458,2.2002045e-07
C1I150,青雲,2025-11-20,23.793361,120.949378,2.0061315e-09
C2E980,和興,2025-11-20,24.505319,120.923016,1.3660785e-09
467350,澎湖,2025-11-20,23.565503,119.563094,0.9283269
C0G800,埔鹽,2025-11-20,24.000394,120.431683,0.9918241
C0H960,草屯,2025-11-20,23.973672,120.68085,0.00015260033
C1V780,多納林道,2025-11-20,22.888028,120.737917,1.8346167e-09
C0E920,通霄漁港,2025-11-20,24.498589,120.673876,0.021058187
C0Z330,安通山,2025-11-20,23.290728,121.348528,1.297637e-07
C0AH10,永和,2025-11-20,25.01125,121.508111,0.99945414
C0AK10,太平里,2025-11-20,25.134937,121.364899,0.99839604
C2G640,鹿港,2025-11-20,24.0753,120.430481,0.99526703
C1E890,國三N149K,2025-11-20,24.463414,120.680019,0.021058187
C1R110,口社,2025-11-20,22.770111,120.645222,0.0002987327
C1M870,國三N285K,2025-11-20,23.550319,120.505833,0.5179313
C1E480,鳳美,2025-11-20,24.554803,121.034747,1.2394828e-09
C0M530,奮起湖,2025-11-20,23.493903,120.699253,1.7095322e-09
C0C590,觀音,2025-11-20,25.027072,121.153317,0.9458287
C0T9M0,靜浦,2025-11-20,23.455167,121.495028,0.0015121844
C2H9M0,發祥,2025-11-20,24.154094,121.164517,8.3280677e-10
C2G9C0,埔南,2025-11-20,23.99124,120.46969,0.9918241
C0AI40,石牌,2025-11-20,25.115597,121.513139,0.99875116
C1F871,上谷關,2025-11-20,24.203483,121.018644,1.5239852e-09
C2H9G0,百勝,2025-11-20,24.051142,120.909361,9.727625e-10
C0G880,二水,2025-11-20,23.810742,120.6173,0.17255192
C0R940,加祿堂,2025-11-20,22.3363,120.6217,0.06556244
C0W220,北竿,2025-11-20,26.220358,119.974881,0.83662635
C0O960,崎頂,2025-11-20,22.959547,120.369317,6.295172e-05
C0TA40,秀林,2025-11-20,24.302864,121.731144,3.8323822e-08
C0S750,向陽,2025-11-20,23.248397,120.986133,5.0868687e-09
C0T9F0,水璉,2025-11-20,23.797131,121.542514,8.345981e-08
C1M600,頭凍,2025-11-20,23.406364,120.603339,1.4148023e-09
467660,臺東,2025-11-20,22.752211,121.154586,0.00097535696
C1D380,新埔,2025-11-20,24.84745,121.03834,0.23077969
C2G980,田頭村,2025-11-20,23.8263,120.444175,0.00018067648
C0V750,路竹,2025-11-20,22.854997,120.259439,0.003650228
C0N050,蚵寮,2025-11-20,23.301,120.1104,0.6292322
C2X060,下營,2025-11-20,23.226806,120.256291,0.013703301
72M700,南改鹿草分場,2025-11-20,23.416869,120.283061,0.0031478389
C1SA50,利嘉林道,2025-11-20,22.82325,121.009389,3.854065e-08
C0UB70,太平山中間站,2025-11-20,24.542003,121.513453,1.452927e-07
C0A940,金山,2025-11-20,25.223628,121.643967,0.99846
C1V340,大津,2025-11-20,22.888322,120.645986,0.000532585
C0W180,七美,2025-11-20,23.219333,119.444892,0.54968244
C1F9C1,白冷,2025-11-20,24.182844,120.929889,1.1377996e-09
K2E710,苗改生物防治研究中心,2025-11-20,24.422861,120.871833,1.0896402e-08
C0N040,蘆竹溝,2025-11-20,23.2344,120.0961,0.6292322
C0TB40,崇德,2025-11-20,24.166144,121.657414,0.95012355
C0D760,大坪苗圃,2025-11-20,24.5362,121.1108,1.313597e-09
C2W230,畜試所澎湖,2025-11-20,23.628342,119.513206,0.74349076
C0R880,後壁湖,2025-11-20,21.9457,120.7457,0.9964567
C1I280,埔中,2025-11-20,23.820778,120.642594,1.479618e-09
467790,墾丁雷達站,2025-11-20,21.948235,120.808028,0.9819909
C0W190,望安,2025-11-20,23.380564,119.494075,0.61662066
C0Z170,卓溪,2025-11-20,23.3443,121.3029,8.289609e-06
C0F850,東勢,2025-11-20,24.246428,120.833047,1.4860976e-09
466900,淡水,2025-11-20,25.164889,121.448906,0.9996173
C0I370,魚池,2025-11-20,23.895703,120.94135,1.0558331e-09
C0C630,大溪,2025-11-20,24.882853,121.265547,0.9996163
C0A520,山佳,2025-11-20,24.974944,121.402008,0.9992864
C0I110,竹山,2025-11-20,23.761225,120.688156,0.0017838198
82H840,茶改南部分場,2025-11-20,23.762528,120.7405,3.1200202e-09
C2SD80,再來山,2025-11-20,23.34371,121.44122,2.1717894e-06
C0G660,溪湖,2025-11-20,23.94835,120.479122,1.9444069e-05
C1T800,洛韶,2025-11-20,24.204558,121.453956,2.5465653e-08
C1T810,慈恩,2025-11-20,24.192044,121.388386,9.936268e-09
C1E451,象鼻,2025-11-20,24.368617,120.940228,1.0129861e-09
C0AC60,三峽,2025-11-20,24.939025,121.369728,0.99934244
C0I490,萬大林道,2025-11-20,23.928228,121.091411,1.2449631e-09
C1I290,豐丘,2025-11-20,23.668178,120.887417,1.790611e-09
C1I320,奧萬大,2025-11-20,23.952956,121.178556,1.1437921e-09
C2M910,嘉義大學,2025-11-20,23.471325,120.485903,0.96273
C0U770,南澳,2025-11-20,24.44935,121.81022,0.0001310453
C2TB30,吉安,2025-11-20,23.94538,121.54803,0.007739068
C0A980,社子,2025-11-20,25.109508,121.469681,0.9996005
C0V800,六龜,2025-11-20,22.997889,120.633583,6.437712e-06
C1G9D0,國一S218K,2025-11-20,23.890641,120.493253,0.00011732823
C0E570,白沙屯,2025-11-20,24.549447,120.696803,0.8395139
C2F9A0,中竹林,2025-11-20,24.103556,120.751061,3.647564e-08
C0FA40,臺中電廠,2025-11-20,24.2146,120.4907,0.701577
C2G9A0,畜試所彰化,2025-11-20,23.86045,120.557964,0.00033879545
C0H9C0,合歡山,2025-11-20,24.143442,121.272547,1.2999787e-08
C0X060,下營,2025-11-20,23.22695,120.256261,0.011003935
G2M350,農試溪口農場,2025-11-20,23.58565,120.408111,0.39745998
C0U860,頭城,2025-11-20,24.85323,121.8308,0.49632356
C0R580,南州,2025-11-20,22.48591,120.50274,6.601832e-06
C0D430,峨眉,2025-11-20,24.6905,121.017189,0.16816808
C0G780,秀水,2025-11-20,24.03405,120.503869,1.6120137e-05
72N100,臺南農改場,2025-11-20,23.0605,120.342194,0.008064784
C0S900,蘭嶼高中,2025-11-20,22.04909,121.51214,0.9030012
C2TA60,六十石,2025-11-20,23.22477,121.31861,3.881671e-08
C1F9W0,德基,2025-11-20,24.254783,121.190261,2.6323215e-09
C2M980,安和,2025-11-20,23.51377,120.31593,0.0022616254
C1Z120,壽豐,2025-11-20,23.870853,121.508081,0.0011685999
C0W160,烏坵,2025-11-20,24.9944,119.44956,0.7988092
C1I240,外大坪,2025-11-20,23.958697,120.917931,9.499368e-10
C1I550,國六W023K,2025-11-20,23.979067,120.867742,3.790232e-09
C0R870,興海,2025-11-20,21.9752,120.8439,0.9819909
C0R140,瑪家,2025-11-20,22.682903,120.686639,1.4936765e-09
C0A530,坪林,2025-11-20,24.938183,121.70975,0.9774644
C0X260,後壁,2025-11-20,23.366358,120.362326,0.0016437428
C0Z230,和平,2025-11-20,24.30717,121.77007,0.00018644644
C0G770,福興,2025-11-20,24.041289,120.437669,0.9918241
C0H9A0,神木村,2025-11-20,23.532742,120.843667,1.6224935e-09
C0I460,南投,2025-11-20,23.911469,120.687331,0.00015260033
C0I480,梅峰,2025-11-20,24.085272,121.173572,2.9486282e-09
C1V570,吉東,2025-11-20,22.85422,120.5454,0.09287697
C2D740,屯原,2025-11-20,24.067969,121.209389,2.6006866e-09
C2A560,福山,2025-11-20,24.776203,121.502811,0.003784814
C0AH30,五分山,2025-11-20,25.07125,121.780794,7.763805e-06
C0FA10,松柏,2025-11-20,24.429115,120.617482,0.008834778
72S200,東改班鳩分場,2025-11-20,22.829528,121.077694,4.5786056e-08
72HA00,中改埔里分場,2025-11-20,23.903208,120.963364,1.1021077e-09
C2H9W0,大坪頂農水,2025-11-20,24.043122,120.932781,9.68582e-10
C0C650,平鎮,2025-11-20,24.897503,121.214636,0.9987133
C0S930,延平,2025-11-20,22.902581,121.084058,1.7234145e-08
C0UA60,樟樹山,2025-11-20,24.41393,121.78325,1.808215e-08
C2UC10,出水溪,2025-11-20,24.615822,121.652253,0.0002849841
C1S670,摩天,2025-11-20,23.199503,121.027,1.3519213e-08
C2C590,觀音,2025-11-20,25.027072,121.153317,0.9497252
C0V630,茄萣,2025-11-20,22.906642,120.182608,0.006592491
466940,基隆,2025-11-20,25.133314,121.740475,0.9642338
C0X050,東河,2025-11-20,23.296598,120.385608,0.037057266
C0R770,保力,2025-11-20,22.071122,120.764111,0.55979174
G2L020,農試嘉義分所,2025-11-20,23.485028,120.473806,0.96273
C0X240,關子嶺,2025-11-20,23.331169,120.508025,7.0462136e-07
C0I380,集集,2025-11-20,23.828206,120.801467,8.761603e-09
466990,花蓮,2025-11-20,23.975128,121.613275,0.9179185
C1V220,小關山,2025-11-20,23.154217,120.813603,1.7281865e-09
C1F9G1,慶福山,2025-11-20,24.180853,120.848378,8.9457963e-10
C0FB20,雪山橋,2025-11-20,24.23192,120.9786,2.8309448e-09
C0Z250,瑞穗林道,2025-11-20,23.49284,121.30688,6.914892e-08
C0D590,新豐,2025-11-20,24.87068,120.97721,0.84257233
C0A870,五指山,2025-11-20,25.132153,121.608692,0.005388331
C0UA50,西帽山,2025-11-20,24.555361,121.802628,5.6177587e-08
C2R980,竹田國中,2025-11-20,22.61532,120.52412,0.030829825
C0X160,仁德,2025-11-20,22.968258,120.257689,0.00090033433
C1H971,六分寮,2025-11-20,23.92507,120.6378,2.4882386e-08
C0W120,西嶼,2025-11-20,23.5626,119.468436,0.7646108
C0G650,員林,2025-11-20,23.946503,120.585597,6.627771e-06
C0AD50,鶯歌,2025-11-20,24.951533,121.346294,0.99956775
C2H9Q0,北東眼山,2025-11-20,24.120939,121.189303,1.784811e-09
C2H9T0,名間竹圍,2025-11-20,23.859914,120.637572,6.8158187e-07
C0S990,山豬窟,2025-11-20,22.318619,120.857372,0.9996893
C0X190,安平,2025-11-20,22.993161,120.152181,0.00011695771
C0K400,斗六,2025-11-20,23.720583,120.541127,0.0028387033
12J990,口湖工作站,2025-11-20,23.589978,120.180394,0.9360247
C0O830,北寮,2025-11-20,23.079561,120.495008,9.147863e-07
C1D410,白蘭,2025-11-20,24.579364,121.079947,1.3276725e-09
C0S970,加津林,2025-11-20,22.416211,120.926942,0.9862128
C0D700,關西,2025-11-20,24.7977,121.1732,0.9890045
C0M810,里佳,2025-11-20,23.389125,120.716647,1.5427614e-09
C0U750,龜山島,2025-11-20,24.841667,121.953133,0.024097824
C0R810,內獅,2025-11-20,22.305064,120.642986,0.06556244
C1M390,龍美,2025-11-20,23.406728,120.654417,1.3738443e-09
C2K290,崙內,2025-11-20,23.69525,120.35601,0.00036964088
C2FB60,頭櫃山,2025-11-20,24.129842,120.858925,1.4513095e-09
C1H840,國三N238K,2025-11-20,23.841008,120.707711,1.309605e-08
CAQ030,崎峰國小,2025-11-20,22.42565,120.49521,6.601832e-06
C2E520,大湖,2025-11-20,24.414939,120.870872,1.0896402e-08
467530,阿里山,2025-11-20,23.508208,120.813242,2.5849998e-09
C1E691,南湖,2025-11-20,24.40135,120.837533,1.047123e-09
C0FA30,梧棲,2025-11-20,24.256003,120.523381,0.8272876
C1V231,高中,2025-11-20,23.134911,120.716711,3.3490941e-09
C0AK30,硬漢嶺,2025-11-20,25.136097,121.426372,0.00062750647
C0F9V0,新社,2025-11-20,24.200172,120.815806,8.154769e-10
C0H890,埔里,2025-11-20,23.972169,120.952425,1.7013513e-09
C0R690,墾丁,2025-11-20,21.966756,120.810269,0.8973039
C0SD20,富山,2025-11-20,22.822383,121.190825,0.00027987378
C0F0D0,審馬陣,2025-11-20,24.381675,121.4203,1.5633136e-08
C2W030,金門農試所,2025-11-20,24.448431,118.451786,0.99947304
C0R820,白鷺,2025-11-20,22.454275,120.666219,2.5017822e-08
C0FB00,大雪山,2025-11-20,24.254668,121.007374,3.5497845e-09
C1V190,南天池,2025-11-20,23.27403,120.91176,6.6947554e-09
C0E940,雪見,2025-11-20,24.42595,121.01347,1.8948514e-09
K2E360,苗栗農改場,2025-11-20,24.495722,120.829111,0.75197333
CAJ050,海口故事園區,2025-11-20,23.57543,120.14121,0.9360247
C2K280,四湖,2025-11-20,23.6304,120.22717,0.96804285
C2H9D0,三隻寮,2025-11-20,24.093078,120.861578,6.058619e-10
C0O990,媽廟,2025-11-20,22.99175,120.293525,0.00027840922
C0D480,打鐵坑,2025-11-20,24.849664,121.150789,0.9984946
C0Z220,和平林道,2025-11-20,24.343922,121.656317,1.4839004e-08
C0TA10,花蓮漁港,2025-11-20,23.995322,121.638331,0.91612685
72C440,桃園農改場,2025-11-20,24.950944,121.030583,0.15463439
C1E711,馬拉邦山,2025-11-20,24.367306,120.901656,8.0509593e-10
C0SB20,富岡,2025-11-20,22.792467,121.192669,0.00019596113
C0D560,竹東,2025-11-20,24.767147,121.057881,0.938539
C0F9U0,南屯,2025-11-20,24.137006,120.637969,0.00016355171
C2SD60,明峰,2025-11-20,22.8671,121.11825,3.309295e-08
C0M720,番路,2025-11-20,23.464657,120.554156,2.546802e-06
C0F0A0,雪山圈谷,2025-11-20,24.388594,121.236339,1.6734074e-08
C1A9N0,四十份,2025-11-20,24.934158,121.593283,0.036940783
C0U760,東澳,2025-11-20,24.52196,121.83318,8.298493e-05
C0X230,鹽水,2025-11-20,23.272621,120.247641,0.2226506
C2H9H0,苗改南投蜂場,2025-11-20,23.852589,120.693481,0.011179892
C2TB70,達谷寮,2025-11-20,23.38,121.35968,2.380074e-06
C0R950,萬隆國小,2025-11-20,22.507667,120.587817,0.0003388938
467540,大武,2025-11-20,22.35572,120.90374,0.0063695377
C0V370,古亭坑,2025-11-20,22.893178,120.401947,3.0341105e-06
C1I340,新興橋,2025-11-20,23.563333,120.868728,3.0903184e-09
C0SA80,土坂,2025-11-20,22.453108,120.887572,0.9929267
C0R160,鹽埔,2025-11-20,22.739558,120.530778,0.44845384
C0AC40,大屯山,2025-11-20,25.175675,121.522408,4.928912e-05
466850,五分山雷達站,2025-11-20,25.071182,121.781205,6.903986e-06
C2H9L0,馬烈霸,2025-11-20,24.1512,121.201772,1.784811e-09
C1AI50,國三N016K,2025-11-20,25.034164,121.619664,0.99792546
C2V920,匏子寮,2025-11-20,23.04905,120.55319,8.191755e-08
C1V600,藤枝,2025-11-20,23.071961,120.757042,1.5546597e-09
C1E601,南勢,2025-11-20,24.572486,120.734842,0.8395139
C0O980,新市,2025-11-20,23.061614,120.298197,0.008064784
C0K420,西螺,2025-11-20,23.800407,120.467394,0.00018067648
C0Z050,佳心,2025-11-20,23.34567,121.21316,3.931062e-08
C0AD30,蘆洲,2025-11-20,25.086594,121.472331,0.99920595
C0V610,梓官,2025-11-20,22.760558,120.267211,0.0038966474
K2F750,種苗改良場,2025-11-20,24.225972,120.800917,8.154769e-10
C0UA80,大溪漁港,2025-11-20,24.941801,121.902955,0.5996216
C1AI60,國一39K邊坡,2025-11-20,25.064361,121.383836,0.9991859
C0W150,金寧,2025-11-20,24.457703,118.328989,0.99952424
C0R960,內埔,2025-11-20,22.608483,120.570714,0.030829825
V2C250,八德合作社,2025-11-20,24.93775,121.266389,0.9996163
C2H9S0,龍南,2025-11-20,23.953536,120.833183,9.280429e-10
C0AH40,平等,2025-11-20,25.129142,121.577086,0.020064231
C0R540,佳冬,2025-11-20,22.419456,120.552375,5.423825e-07
466950,彭佳嶼,2025-11-20,25.627975,122.079744,0.22550963
C0A890,雙溪,2025-11-20,25.036003,121.864242,0.9754747
C0C480,桃園,2025-11-20,24.992425,121.323172,0.99981135
C0AH50,林口,2025-11-20,25.072181,121.38084,0.99461704
A2K360,水試臺西試驗場,2025-11-20,23.717231,120.190522,0.95012635
C2M960,外寮,2025-11-20,23.562643,120.665688,1.6058436e-09
C0F9S0,烏日,2025-11-20,24.107058,120.624103,0.00016355171
C2N180,鹿陶洋,2025-11-20,23.14325,120.48352,0.0016264081
C0C490,八德,2025-11-20,24.928708,121.283289,0.9996163
C0R190,赤山,2025-11-20,22.592333,120.614306,0.0009279727
C0T820,天祥,2025-11-20,24.179597,121.495639,1.8348491e-07
C1F9E1,龍安,2025-11-20,24.1605,120.831961,7.825062e-10
C2SD50,順那,2025-11-20,23.04166,121.29332,0.075808026
C0V820,小林,2025-11-20,23.148408,120.63325,2.2234426e-08
C2G870,芳苑,2025-11-20,23.922303,120.320025,0.42872924
C0E850,大河,2025-11-20,24.618069,120.948578,0.4332238
C1U670,寒溪,2025-11-20,24.634,121.71691,0.0121336
C0N020,城西,2025-11-20,23.0568,120.0956,0.2848162
C1Z110,三棧,2025-11-20,24.11557,121.60501,6.36726e-08
C0R280,檳榔,2025-11-20,22.076078,120.836777,0.9771747
C2H9J0,中台,2025-11-20,23.9996,120.938739,9.68582e-10
C0F9L0,后里,2025-11-20,24.310436,120.729725,9.638187e-09
467441,高雄,2025-11-20,22.730432,120.312516,0.00016056496
C0Z180,新城,2025-11-20,24.040486,121.604878,0.91751856
C0D540,橫山,2025-11-20,24.71116,121.11693,9.241435e-05
C1D420,太閣南,2025-11-20,24.632808,121.160575,1.2568359e-08
C1E770,公館,2025-11-20,24.526914,120.830806,0.69551843
CAN130,水試所海水繁養殖中心,2025-11-20,23.120802,120.07968,0.3248594
C1I430,翠華,2025-11-20,24.191961,121.224339,5.116274e-09
C1M400,菜瓜坪,2025-11-20,23.251928,120.576103,3.462716e-09
C0G730,二林,2025-11-20,23.903325,120.376081,0.9943601
72M360,南改義竹分場,2025-11-20,23.360694,120.279361,0.014458062
V2K620,麥寮合作社,2025-11-20,23.753836,120.294783,0.5471904
C0Z070,舞鶴,2025-11-20,23.46811,121.37407,4.6345518e-05
C0B040,大武崙,2025-11-20,25.166676,121.706993,0.98570704
C1Z030,紅葉,2025-11-20,23.493119,121.338806,0.000104403414
C1I050,丹大,2025-11-20,23.753747,121.141147,9.5442125e-09
C0I080,信義,2025-11-20,23.689694,120.851036,2.478863e-09
C2TB80,庄子底,2025-11-20,23.71794,121.49438,1.327532e-07
C0D750,樂山林道6k,2025-11-20,24.49999,121.08773,3.2677332e-09
C2M920,朴子農改,2025-11-20,23.469889,120.259383,0.0031478389
C2A880,福隆,2025-11-20,25.017842,121.942083,0.97167385
C0Z160,鳳林,2025-11-20,23.746114,121.453411,1.1338826e-07
C0UB80,翠峰林道6K,2025-11-20,24.49773,121.568625,1.45040255e-08
C0V210,復興,2025-11-20,23.222403,120.806089,6.7673174e-09
C0H990,昆陽,2025-11-20,24.121322,121.273642,9.658982e-09
C0R741,獅子,2025-11-20,22.202308,120.705236,0.074047044
C0S710,鹿野,2025-11-20,22.917711,121.122994,4.8113944e-09
C0I530,小奇萊,2025-11-20,24.131764,121.295717,1.0303116e-08
C0FA70,大雪山埡口,2025-11-20,24.26867,121.03062,6.498961e-09
C2K630,荷苞,2025-11-20,23.657717,120.595144,7.38304e-05
C0Z080,富源,2025-11-20,23.587642,121.378225,1.6019875e-07
C2M9E0,旺來山,2025-11-20,23.555153,120.486463,0.5179313
C0SB10,美和,2025-11-20,22.682078,121.060236,0.00097535696
C2K620,馬光農場,2025-11-20,23.721453,120.378864,0.00026318314
C1I140,卡奈托灣,2025-11-20,23.754364,121.087872,1.7366919e-09
C0I520,玉山風口,2025-11-20,23.470489,120.955994,2.3670546e-08
C1G691,下水埔,2025-11-20,23.816114,120.5676,0.0031818908
C0X110,臺南市南區,2025-11-20,22.961189,120.188378,0.00082104973
C0V680,仁武,2025-11-20,22.701083,120.347722,0.00016056496
C2G840,北斗,2025-11-20,23.877586,120.514222,0.000117328
C2TB90,長橋,2025-11-20,23.6874,121.46186,1.0383808e-07
C0R900,竹坑,2025-11-20,22.1385,120.7022,0.80896777
C0K250,崙背,2025-11-20,23.75555,120.318925,0.58449936
C0G860,社頭,2025-11-20,23.897647,120.5862,0.00033879545
C0X150,安定,2025-11-20,23.102614,120.227839,9.682818e-06
C0R590,里港,2025-11-20,22.77919,120.49459,1.4581574e-05
C0E610,馬都安,2025-11-20,24.451272,120.930192,1.4439787e-09
C0E550,明德,2025-11-20,24.583486,120.885411,3.2653852e-06
C0R150,三地門,2025-11-20,22.709889,120.639944,0.0011805062
C0G910,花壇,2025-11-20,24.032076,120.549461,1.6120137e-05
C1D400,鳥嘴山,2025-11-20,24.71909,121.28387,4.6233787e-08
C0K500,元長,2025-11-20,23.64981,120.315024,0.25626296
C0F0B0,石岡,2025-11-20,24.276061,120.777644,9.638187e-09
C2V250,甲仙,2025-11-20,23.080106,120.591758,2.5512213e-07
C0SA20,金崙山,2025-11-20,22.567419,120.959667,1.5933113e-08
C0V350,溪埔,2025-11-20,22.738578,120.446797,6.6546568e-06
C0M660,溪口,2025-11-20,23.604131,120.403569,0.39745998
C1S880,壽卡,2025-11-20,22.238911,120.858903,0.95277995
72D680,桃改新埔分場,2025-11-20,24.834444,121.066111,0.23077969
