站號,站名,日期,lat,lon,BLBTSLS
C0R710,龍磐,2025-02-08,21.931672,120.838942,0.7128408
C1F9D1,白毛台,2025-02-08,24.158325,120.886933,2.2739213e-09
C0G940,竹塘,2025-02-08,23.848253,120.386764,2.1138633e-09
467590,恆春,2025-02-08,22.003897,120.746339,0.9023148
C1O850,環湖,2025-02-08,23.148617,120.418633,4.888279e-10
C0U710,太平山,2025-02-08,24.505486,121.525656,3.4495667e-08
C0E820,獅潭,2025-02-08,24.539133,120.920042,7.672487e-09
C0V880,興達,2025-02-08,22.8778,120.2127,2.1869881e-09
C0S890,關山,2025-02-08,23.0395,121.175017,5.780439e-09
C0SB30,新蘭,2025-02-08,22.869214,121.223228,3.2487307e-08
C2R970,屏科大,2025-02-08,22.648275,120.619247,6.6546496e-10
K2F750,種苗繁殖,2025-02-08,24.225972,120.800917,2.0766817e-09
C1Z130,銅門,2025-02-08,23.965694,121.492842,1.0900851e-08
C0AD40,土城,2025-02-08,24.973208,121.445169,1.3801246e-08
CAN140,六官養殖協會,2025-02-08,23.22881,120.29962,2.9586165e-09
C0X180,山上,2025-02-08,23.0757,120.363253,4.750026e-10
C0F9Z0,雪山東峰,2025-02-08,24.388792,121.268675,3.218608e-08
C1M480,獨立山,2025-02-08,23.537022,120.607797,1.9754098e-09
C0X220,學甲,2025-02-08,23.230367,120.182187,1.8418111e-09
C0R170,屏東,2025-02-08,22.660269,120.494072,7.01873e-10
467650,日月潭,2025-02-08,23.881325,120.90805,4.288781e-09
C0K600,箔子寮,2025-02-08,23.6197,120.14,4.069631e-09
C0G830,埤頭,2025-02-08,23.866003,120.452806,1.1588982e-09
C0S950,七塊厝,2025-02-08,22.954453,121.229922,8.162041e-09
467110,金門,2025-02-08,24.407306,118.289281,3.789533e-08
C0AH80,深坑,2025-02-08,25.002703,121.628328,1.3650425e-08
467990,馬祖,2025-02-08,26.169269,119.923419,1.0944417e-07
C0A970,三貂角,2025-02-08,25.007606,122.002058,1.5080104e-08
C2D730,寶山農場,2025-02-08,24.732444,120.976153,8.756007e-09
C0K430,褒忠,2025-02-08,23.690938,120.303634,1.4774606e-09
467480,嘉義,2025-02-08,23.495925,120.432906,3.1006449e-09
C2E540,後龍,2025-02-08,24.606489,120.783933,1.3566483e-08
C0V400,阿公店,2025-02-08,22.804194,120.355528,1.092297e-09
467550,玉山,2025-02-08,23.48718,120.95943,2.6292618e-08
C0R440,大漢山,2025-02-08,22.405264,120.753181,3.3775592e-08
C0K280,四湖,2025-02-08,23.630414,120.227125,4.140228e-09
C1F9B1,桐林,2025-02-08,24.066172,120.735194,1.1333984e-09
C2H9U0,鳳鵬,2025-02-08,23.763919,120.788061,9.882226e-10
C0K390,土庫,2025-02-08,23.679029,120.395574,1.3563191e-09
C1I450,望鄉山,2025-02-08,23.594153,120.944286,1.3631302e-08
C0E910,海埔,2025-02-08,24.648767,120.772435,1.4008401e-08
B2E890,畜試北區分所,2025-02-08,24.527806,120.770972,4.1466848e-09
C0R750,四林格山,2025-02-08,22.076989,120.802439,3.3355974e-07
C0F0C0,中坑,2025-02-08,24.248517,120.903319,3.9623e-09
C1I121,大鞍,2025-02-08,23.678381,120.760017,5.483331e-09
72U480,花改蘭陽分場,2025-02-08,24.686306,121.716583,2.7555938e-09
C0A770,科教館,2025-02-08,25.096356,121.516507,4.6209347e-09
C0AJ60,六塊厝,2025-02-08,25.24,121.4481,3.4334137e-06
C0R620,墾雷,2025-02-08,21.900836,120.855269,0.39003104
467420,永康,2025-02-08,23.038386,120.2367,3.3709477e-09
467300,東吉島,2025-02-08,23.25695,119.667467,0.94581056
C0I410,名間,2025-02-08,23.837053,120.701447,7.561893e-10
A2C560,農工中心,2025-02-08,24.985917,121.239833,2.33567e-08
C0V740,旗山,2025-02-08,22.888614,120.483597,4.530138e-10
C0Z061,玉里,2025-02-08,23.3215,121.339656,5.2682516e-09
C0S840,南田,2025-02-08,22.279725,120.889208,0.020251341
C1I470,杉林溪,2025-02-08,23.639517,120.786444,6.734406e-09
C1X040,東原,2025-02-08,23.291597,120.463822,9.827472e-10
C0R660,枋寮,2025-02-08,22.367722,120.590647,1.7249667e-08
C1R120,上德文,2025-02-08,22.763272,120.704442,1.0082134e-09
C0K450,大埤,2025-02-08,23.646074,120.431537,2.0891247e-09
C0UA00,土場,2025-02-08,24.576533,121.495333,1.3713813e-08
467080,宜蘭,2025-02-08,24.763975,121.756528,2.5178082e-09
C0N030,四草,2025-02-08,23.0235,120.1116,2.6961537e-09
467410,臺南,2025-02-08,22.99328,120.20492,2.5177698e-09
C0V650,彌陀,2025-02-08,22.783806,120.246361,1.1524381e-08
C0D660,新竹市東區,2025-02-08,24.798681,120.986942,1.3398306e-08
82S580,茶改東部分場,2025-02-08,22.907694,121.130139,2.1384352e-08
C0SB40,興隆,2025-02-08,22.913661,121.257469,3.0156656e-08
467050,新屋,2025-02-08,25.006725,121.047492,3.9367086e-07
C0C710,大溪永福,2025-02-08,24.892936,121.324975,2.2353191e-08
C0FA20,溫寮,2025-02-08,24.372177,120.583125,8.332425e-09
C0V640,湖內,2025-02-08,22.887139,120.2445,2.1735105e-09
C0R910,下寮,2025-02-08,22.3929,120.5548,1.7249667e-08
C0Z020,明里,2025-02-08,23.208717,121.262342,6.3883263e-09
C0M770,嘉義梅山,2025-02-08,23.585398,120.555587,9.961519e-10
G2F820,農業試驗所,2025-02-08,24.031261,120.688133,6.9412875e-10
C0C660,楊梅,2025-02-08,24.912375,121.143047,1.8356642e-08
C1E511,新開,2025-02-08,24.347703,120.827019,3.5281709e-09
G2F820,農試所(霧峰),2025-02-08,24.031261,120.688133,6.9412875e-10
C1I070,和社,2025-02-08,23.591131,120.888861,1.01237e-09
C2F000,大肚,2025-02-08,24.15295,120.572117,1.3288126e-09
C1S850,豐南,2025-02-08,23.122139,121.262389,5.9735723e-09
C2A920,富貴角,2025-02-08,25.263783,121.565258,1.9701351e-06
CAH030,茶改場竹圍站,2025-02-08,23.860083,120.637528,9.246259e-10
C0T960,光復,2025-02-08,23.660694,121.424964,2.207793e-09
C0F9M0,豐原,2025-02-08,24.254322,120.720692,2.0896467e-09
C0R720,旭海,2025-02-08,22.205403,120.887614,6.8159426e-07
C0V710,苓雅,2025-02-08,22.622742,120.330669,1.3203894e-09
C0C740,觀音工業區,2025-02-08,25.064764,121.114856,3.204772e-06
CAC040,拉拉山,2025-02-08,24.699317,121.427133,3.9676486e-08
C0V790,萬山,2025-02-08,22.905944,120.688056,1.1233605e-09
U2HA30,臺大和社,2025-02-08,23.590856,120.888864,1.01237e-09
C0AJ90,澳底,2025-02-08,25.0552,121.9253,1.8931783e-07
C0Z100,東華,2025-02-08,23.89525,121.549833,5.3153366e-09
C0G970,三豐,2025-02-08,23.882,120.2895,4.6574857e-07
V2K610,大庄合作社,2025-02-08,23.8068,120.367939,1.914326e-09
C0V900,汕尾,2025-02-08,22.4782,120.4151,8.543273e-10
C1R630,龍泉,2025-02-08,22.66701,120.59091,6.227663e-10
C1AC50,關渡,2025-02-08,25.133486,121.469331,7.272413e-09
C0F9I0,神岡,2025-02-08,24.272481,120.658314,1.3043867e-09
C0K460,斗南,2025-02-08,23.678734,120.478359,2.0457223e-09
467410,臺南,2025-02-08,22.993239,120.204772,2.5177698e-09
C2O810,曾文,2025-02-08,23.219681,120.497328,7.745782e-10
467280,後龍,2025-02-08,24.648563,120.831834,1.3024208e-08
C1F9J1,清水林,2025-02-08,24.071242,120.820419,2.1229425e-09
C2A650,火燒寮,2025-02-08,25.002719,121.742892,1.5403307e-08
466930,竹子湖,2025-02-08,25.162078,121.544547,1.07159766e-08
C1I220,樟湖,2025-02-08,23.905333,120.846983,4.520904e-09
C0I390,仁愛,2025-02-08,24.022122,121.132206,4.1653685e-09
C0Z300,東里,2025-02-08,23.26853,121.30547,6.1435586e-09
C0V310,美濃,2025-02-08,22.898742,120.519153,4.5249132e-10
C1V590,新發,2025-02-08,23.057019,120.646064,9.830753e-10
C0K510,水林,2025-02-08,23.572924,120.24597,1.2809179e-09
72S590,東改賓朗果園,2025-02-08,22.813889,121.071278,6.909882e-08
82A750,茶改北部分場,2025-02-08,24.955778,121.631222,2.5123166e-08
C1A750,石碇服務區,2025-02-08,25.00872,121.646242,3.562538e-08
C0X300,鹿寮,2025-02-08,23.386047,120.477331,1.0409301e-09
G2AI50,關渡,2025-02-08,25.11575,121.492,2.6910953e-07
C0K590,雲林東勢,2025-02-08,23.674192,120.255721,1.3235815e-09
C0A570,桶後,2025-02-08,24.848222,121.597992,1.24124355e-08
C1S800,華源,2025-02-08,22.657883,121.02325,2.4730317e-08
C0G720,溪州,2025-02-08,23.851589,120.499093,1.1559445e-09
C1V160,達卡努瓦,2025-02-08,23.279811,120.705319,1.5715221e-09
C2M410,馬頭山,2025-02-08,23.324361,120.582017,1.0515142e-09
C0V850,蚵仔寮,2025-02-08,22.7256,120.2527,5.2446407e-09
C0S740,池上,2025-02-08,23.119628,121.209469,8.4547525e-09
C1V390,尖山,2025-02-08,22.813153,120.367789,1.0582404e-09
C0AH70,松山,2025-02-08,25.04871,121.55042,4.6526045e-09
C0N010,鯤鯓國小,2025-02-08,23.1879,120.0889,2.1046946e-09
C0R550,新埤,2025-02-08,22.467947,120.582894,8.49631e-10
C0SA60,知本（水試所）,2025-02-08,22.702394,121.082761,3.208531e-08
C0T9I0,豐濱,2025-02-08,23.583897,121.514806,2.655949e-09
C0UB00,淡江大學蘭陽校園,2025-02-08,24.823239,121.730383,1.31432945e-08
C0W240,九宮,2025-02-08,24.423753,118.240186,3.90079e-08
C0T9N0,富里,2025-02-08,23.171639,121.249378,5.216706e-09
U2HA50,臺大竹山,2025-02-08,23.756972,120.681556,6.6229805e-10
C0V840,鳳鼻頭,2025-02-08,22.5083,120.3591,9.768641e-10
C0X140,西港,2025-02-08,23.125608,120.203108,6.2134995e-09
72D080,桃改五峰分場,2025-02-08,24.612194,121.157167,1.6249937e-08
C2H9P0,伊拿谷,2025-02-08,23.963211,121.088264,3.3504421e-09
C2H9F0,柑林,2025-02-08,24.018658,120.847072,9.495147e-10
C0TA20,加灣,2025-02-08,24.082025,121.608944,3.674945e-08
C0V530,阿蓮,2025-02-08,22.883208,120.327508,3.0725102e-09
C1O880,關山,2025-02-08,23.173397,120.594092,5.9902616e-10
C0E791,卓蘭,2025-02-08,24.3126,120.8244,2.478499e-09
C1I030,武界,2025-02-08,23.913225,121.052483,3.4933374e-09
C0R520,崁頂,2025-02-08,22.514781,120.506914,1.1270326e-09
C0R341,牡丹,2025-02-08,22.130036,120.792639,8.2707e-05
C0R930,萬丹,2025-02-08,22.5885,120.4851,1.0421299e-09
C0S760,紅石,2025-02-08,23.069131,121.126219,2.5474787e-08
C2C410,中央大學,2025-02-08,24.967652,121.185165,2.3429472e-08
C1M610,石磐龍,2025-02-08,23.496606,120.663506,2.3769298e-09
C0UA10,鴛鴦湖,2025-02-08,24.590269,121.412228,2.834177e-08
V2C260,八德蔬果,2025-02-08,24.978508,121.281819,1.1782134e-08
C0R800,丹路,2025-02-08,22.204481,120.750989,2.2843374e-06
C0G920,永靖,2025-02-08,23.924703,120.547533,1.4912966e-09
C2M950,太和,2025-02-08,23.538372,120.702961,3.383173e-09
C1A630,下盆,2025-02-08,24.771003,121.538622,1.2980857e-08
B2N890,畜產試驗所,2025-02-08,23.058972,120.336406,3.2592926e-09
C0UA30,白嶺,2025-02-08,24.527819,121.519031,2.414689e-08
C1V580,溪南(特生中心),2025-02-08,23.084972,120.788475,3.541696e-09
C1T970,大農,2025-02-08,23.615233,121.413331,2.8297138e-09
E2S960,林試太麻里2,2025-02-08,22.598014,120.989761,5.738051e-08
C0R650,竹田,2025-02-08,22.58486,120.54344,9.1473956e-10
C1H900,清流,2025-02-08,24.080775,120.962997,2.3542661e-09
C1C510,水尾,2025-02-08,24.940081,121.087161,1.3840794e-07
C0F9X0,大雅(中科園區),2025-02-08,24.21528,120.62445,1.3914313e-09
C0SB60,白守蓮,2025-02-08,23.126769,121.401914,1.0408075e-08
C0O970,虎頭埤,2025-02-08,23.021375,120.347878,9.1950103e-10
C0C730,中大臨海站,2025-02-08,24.966126,121.008581,4.233141e-07
C0X250,新營,2025-02-08,23.310689,120.316681,3.9688275e-09
C0V700,三民,2025-02-08,22.645017,120.311233,1.2841867e-08
C0U870,大礁溪,2025-02-08,24.791042,121.675047,1.2165372e-08
C0E870,高鐵苗栗,2025-02-08,24.60725,120.826094,1.3418484e-08
A2K570,古坑花卉中心,2025-02-08,23.63353,120.55239,7.8734347e-10
C0TA30,鹽寮,2025-02-08,23.845606,121.592664,5.2279816e-09
C0M860,新美,2025-02-08,23.338017,120.683169,1.626233e-09
C1E701,八卦,2025-02-08,24.491756,120.927619,1.0702638e-08
C0I420,國姓,2025-02-08,24.037803,120.855072,9.912979e-10
C2D720,關西工作站,2025-02-08,24.757275,121.184792,1.0314323e-08
C0S960,香蘭,2025-02-08,22.587569,120.993375,5.738051e-08
467620,蘭嶼,2025-02-08,22.0369,121.55843,0.952502
C0R260,春日,2025-02-08,22.370361,120.628306,1.3990591e-08
72G600,臺中農改場,2025-02-08,24.003028,120.534389,1.6822774e-09
C0Z210,瑞穗,2025-02-08,23.5239,121.39021,3.141931e-09
C0M820,達邦,2025-02-08,23.453994,120.749517,2.6179063e-09
C0V860,南寮,2025-02-08,22.7616,120.2339,5.2427205e-09
C0G740,大城,2025-02-08,23.852487,120.320935,4.2833912e-07
C0R920,塭仔,2025-02-08,22.4169,120.5197,1.7723519e-08
C0R470,高樹,2025-02-08,22.826389,120.600806,8.0257845e-10
C0R680,佳樂水,2025-02-08,21.993578,120.861633,0.9939426
C1O870,大棟山,2025-02-08,23.31157,120.52226,4.2483252e-09
C0D360,梅花,2025-02-08,24.678347,121.208558,1.3880868e-08
C0Z190,富世,2025-02-08,24.14743,121.6297,2.909645e-08
C0AI10,屈尺,2025-02-08,24.92184,121.54475,5.8412997e-08
B2U990,畜試東區分所,2025-02-08,24.669039,121.832561,2.8609135e-09
C0SB80,長濱漁港,2025-02-08,23.313644,121.459994,4.6505906e-09
C0R240,來義,2025-02-08,22.527306,120.625111,1.110525e-09
C0V910,大樹,2025-02-08,22.684645,120.432803,4.824082e-10
C1R610,西大武山,2025-02-08,22.617719,120.7322,2.55682e-08
C0G900,線西,2025-02-08,24.143358,120.443536,4.6135193e-09
C0M700,竹崎,2025-02-08,23.526178,120.555508,8.190388e-10
C2E880,三義,2025-02-08,24.405478,120.749819,5.6881735e-09
C0C720,竹圍,2025-02-08,25.112692,121.239824,2.6886661e-07
C0F9P0,清水,2025-02-08,24.312297,120.562242,4.5090807e-09
C0Z150,吉安光華,2025-02-08,23.930925,121.595153,1.0354337e-08
467300,東吉島,2025-02-08,23.25727,119.66762,0.9388738
C1D640,外坪(五指山),2025-02-08,24.644447,121.090961,1.252557e-08
C0F9O0,潭子,2025-02-08,24.213106,120.703933,1.4826407e-09
C2H9R0,卓社,2025-02-08,23.887894,121.000086,5.409648e-09
72T250,花蓮農改場,2025-02-08,23.975222,121.563889,3.9418964e-08
C0E780,銅鑼,2025-02-08,24.489681,120.790853,4.3708925e-09
C1T950,太安,2025-02-08,23.666719,121.370128,5.3190917e-08
C0E830,苑裡,2025-02-08,24.439714,120.653053,1.5936607e-08
467270,田中,2025-02-08,23.873803,120.581286,8.5362034e-10
C0SA10,檳榔四格山,2025-02-08,22.810031,121.109308,5.2936773e-08
C1T830,布洛灣,2025-02-08,24.17184,121.57127,1.3873793e-07
C0F970,大坑,2025-02-08,24.173142,120.722289,1.0767951e-09
C1U920,思源,2025-02-08,24.393125,121.347214,2.021593e-08
C0A931,三和,2025-02-08,25.233153,121.595236,2.0006988e-08
C0I010,廬山,2025-02-08,24.033311,121.181808,6.7746533e-09
C2M940,日野賀,2025-02-08,23.434056,120.727169,3.3547585e-09
C0R860,鼻頭,2025-02-08,22.1043,120.8979,0.5613287
C0UB20,壯圍,2025-02-08,24.7359,121.8163,2.6539588e-09
C0R790,九棚,2025-02-08,22.14195,120.889281,0.0012612009
C0W110,東莒,2025-02-08,25.9652,119.98069,3.4690945e-07
C1U930,粉鳥林,2025-02-08,24.497088,121.842479,5.482233e-09
C1I211,蘆竹湳,2025-02-08,23.934019,120.811994,1.2443887e-09
C0S830,長濱,2025-02-08,23.286817,121.411975,5.7995995e-09
C1F9F1,伯公龍,2025-02-08,24.272392,120.849047,2.4273452e-09
C0E810,西湖,2025-02-08,24.562947,120.7485,2.089921e-07
C1I440,新高口,2025-02-08,23.478744,120.878939,9.912492e-09
C0O840,王爺宮,2025-02-08,23.222064,120.40085,8.7035024e-10
C0T9G0,鳳林山,2025-02-08,23.735269,121.420131,9.269042e-09
C0X080,佳里,2025-02-08,23.173039,120.145086,2.1046946e-09
C0FB70,大甲溪埔,2025-02-08,24.370625,120.620067,7.265744e-09
C0Z310,清水斷崖,2025-02-08,24.218294,121.689142,1.8139044e-08
C0M680,太保,2025-02-08,23.455062,120.331455,2.7024298e-09
C1S820,金峰,2025-02-08,22.590969,120.933236,3.3343913e-08
C0AD10,八里,2025-02-08,25.150211,121.403947,2.6886661e-07
C2K240,草嶺,2025-02-08,23.59555,120.693461,2.7700748e-09
C1SA70,都蘭,2025-02-08,22.87794,121.226881,3.0156656e-08
C0K440,二崙,2025-02-08,23.772797,120.408944,1.2586802e-09
C1A760,坪林交控,2025-02-08,24.94284,121.713442,1.3322545e-08
C0F9N0,大里,2025-02-08,24.092464,120.701378,1.0801934e-09
C0SA90,達仁林場,2025-02-08,22.264347,120.823972,1.6814528e-06
C1R290,石門山,2025-02-08,22.112611,120.756597,4.786765e-06
42HA10,萬大發電廠,2025-02-08,23.978875,121.139639,4.12603e-09
C0R890,山海,2025-02-08,21.9878,120.7091,0.99795336
C0T9A0,月眉山,2025-02-08,23.809928,121.539828,6.404089e-09
C0AC70,信義,2025-02-08,25.037822,121.564597,4.6526045e-09
C0K560,棋山,2025-02-08,23.68645,120.603417,7.925718e-10
C2FB50,出雲,2025-02-08,24.206469,120.902794,4.6165827e-09
C1Z240,中平林道,2025-02-08,23.42115,121.26763,7.6880475e-08
U2H480,溪頭,2025-02-08,23.670306,120.798194,3.3841219e-09
C0M880,好美里,2025-02-08,23.3364,120.138,1.6763742e-09
C0T9E0,大坑,2025-02-08,23.880628,121.581981,7.518392e-09
C0K530,臺西,2025-02-08,23.701547,120.197559,5.339337e-09
C1E900,國一N128K,2025-02-08,24.560997,120.844186,6.4010846e-09
C0AJ50,水湳洞,2025-02-08,25.123695,121.862238,8.31265e-08
C0AI20,白沙灣,2025-02-08,25.283128,121.519058,3.275778e-06
C2V310,美濃,2025-02-08,22.898792,120.51907,4.5249132e-10
C0A860,大坪,2025-02-08,25.165914,121.632969,8.13402e-09
C1U850,觀音海岸,2025-02-08,24.38319,121.77856,9.608928e-09
C2K610,草嶺石壁,2025-02-08,23.602469,120.707731,2.8582028e-09
C0U950,鶯子嶺,2025-02-08,24.89754,121.79244,2.591023e-08
C0O900,善化,2025-02-08,23.112883,120.297219,3.4662446e-09
C0K550,蔦松,2025-02-08,23.514319,120.229736,1.3632361e-09
E2P980,林試六龜中心,2025-02-08,22.991703,120.645722,6.4451855e-10
C0E590,通霄,2025-02-08,24.471892,120.704622,1.6333128e-07
C1I310,西巒,2025-02-08,23.754486,120.883956,5.160298e-09
C0A550,泰平,2025-02-08,24.971197,121.823711,1.43424606e-08
C0I360,水里,2025-02-08,23.812553,120.849792,8.7724006e-10
C0R830,高士,2025-02-08,22.121825,120.836781,1.6708818e-06
C1I101,溪頭,2025-02-08,23.661789,120.807647,7.383246e-09
C0AJ20,野柳,2025-02-08,25.20703,121.690021,2.0968741e-08
C0B060,暖暖,2025-02-08,25.0957,121.7403,1.3074037e-08
C1H920,長豐,2025-02-08,24.102039,120.879897,1.8121813e-09
C0V360,內門,2025-02-08,22.975481,120.466769,3.9319803e-10
C0R850,林邊,2025-02-08,22.4634,120.5339,8.4596513e-10
C0E930,龍鳳,2025-02-08,24.700034,120.859125,3.005743e-08
C0U910,冬山,2025-02-08,24.63373,121.7937,2.8609135e-09
C1E721,泰安,2025-02-08,24.489017,120.968036,1.27433895e-08
82H320,茶改中部分場,2025-02-08,23.875611,120.913583,3.5802061e-09
C0M750,布袋,2025-02-08,23.380878,120.167789,1.7724252e-09
C1S860,利嘉,2025-02-08,22.809417,121.050528,1.8438685e-08
72C440,桃園農改,2025-02-08,24.950944,121.030583,1.5991316e-07
E2S980,林試太麻里1,2025-02-08,22.598922,120.980044,4.335234e-08
C0X170,關廟,2025-02-08,22.963017,120.327797,2.181672e-09
C0V720,林園,2025-02-08,22.507747,120.394511,9.828953e-10
C1I510,線浸林道,2025-02-08,23.761508,120.832956,5.45503e-09
C0D690,外湖,2025-02-08,24.917735,120.968711,1.7733772e-07
C0C750,新興坑尾,2025-02-08,25.0061,121.0971,3.3512978e-07
B2Q810,畜試南區分所,2025-02-08,21.945583,120.802167,0.9921028
C0S790,金崙,2025-02-08,22.538122,120.966875,7.204091e-08
C0AH90,福山植物園,2025-02-08,24.760717,121.58135,2.2308638e-08
C0I540,奇萊稜線,2025-02-08,24.109231,121.326456,2.6577393e-08
C0M850,表湖,2025-02-08,23.24186,120.64166,9.664746e-10
C0S770,大溪山,2025-02-08,22.478475,120.943325,7.201907e-08
C0AG80,中和,2025-02-08,24.991622,121.491792,1.3801246e-08
C0T790,大禹嶺,2025-02-08,24.186117,121.316086,2.1724794e-08
C0T9B0,水源,2025-02-08,23.991861,121.537169,2.9070543e-08
C0R840,牡丹池山,2025-02-08,22.168389,120.841225,1.6153639e-05
C1I131,桶頭,2025-02-08,23.641944,120.654117,9.707163e-10
CAL110,布袋國中,2025-02-08,23.35893,120.18026,1.7724252e-09
467571,新竹,2025-02-08,24.827853,121.014219,6.233194e-08
C0Z290,赤柯山,2025-02-08,23.36893,121.38293,2.5563178e-08
C0X280,將軍,2025-02-08,23.214999,120.13577,1.883138e-09
C0S690,太麻里,2025-02-08,22.60902,120.98533,2.1153486e-08
C0U880,北關,2025-02-08,24.9072,121.8734,1.2129274e-08
C1H860,瑞岩,2025-02-08,24.123772,121.18345,1.8927139e-08
C0G810,埔心,2025-02-08,23.947633,120.525456,1.4896308e-09
C0U970,大福,2025-02-08,24.80064,121.81389,2.4983478e-09
C2H9N0,仁愛東眼,2025-02-08,24.026875,121.1205,5.956654e-09
C1E670,南礦,2025-02-08,24.538278,121.002836,1.5602751e-08
C0M520,東後寮,2025-02-08,23.369908,120.248065,1.7063332e-09
C1E461,松安,2025-02-08,24.397972,120.986022,1.1323336e-08
72G600,臺中農改,2025-02-08,24.003028,120.534389,1.6822774e-09
C2N160,西拉雅風管處,2025-02-08,23.189481,120.335297,1.4553512e-09
C2M970,碧湖,2025-02-08,23.568632,120.624165,2.4032838e-09
C0A640,石碇,2025-02-08,24.993969,121.662917,3.1125982e-08
E2S960,林試太麻里2,2025-02-08,22.598,120.99775,6.0496525e-08
C0F9Y0,桃山,2025-02-08,24.432739,121.303808,3.120766e-08
C1I020,萬大,2025-02-08,23.979817,121.132261,4.228374e-09
C0U940,羅東,2025-02-08,24.68184,121.74934,2.7207592e-09
C0M650,朴子,2025-02-08,23.43463,120.23902,1.6533491e-09
C1I500,大尖山,2025-02-08,23.858572,120.994889,1.1945282e-08
C0G820,田尾,2025-02-08,23.901669,120.509389,1.4911402e-09
E2K600,四湖植物園,2025-02-08,23.676986,120.163433,4.136605e-09
C0S730,綠島,2025-02-08,22.6672,121.47533,0.99312425
12Q970,東港工作站,2025-02-08,22.479997,120.466058,8.547673e-10
C0E430,南庄,2025-02-08,24.601775,121.000214,7.722184e-09
C1TA00,太魯閣,2025-02-08,24.15773,121.6236,2.814391e-08
466920,臺北,2025-02-08,25.037658,121.514853,4.6526045e-09
C0R600,舊泰武,2025-02-08,22.588194,120.664944,1.2634161e-09
C1I260,北坑,2025-02-08,23.9246,121.006903,1.3320098e-09
466910,鞍部,2025-02-08,25.182586,121.529731,2.7366031e-08
C1I230,九份二山,2025-02-08,23.961944,120.845,3.0344216e-09
C2A660,瑞芳,2025-02-08,25.113169,121.801147,7.5009496e-08
C0R270,琉球嶼,2025-02-08,22.332244,120.362236,4.0643946e-09
C1T990,高寮,2025-02-08,23.394239,121.356808,4.353769e-09
C0G620,芬園,2025-02-08,24.015678,120.6213,7.10698e-10
C1Z140,荖溪,2025-02-08,23.890575,121.45964,3.4051276e-08
C1I201,中心崙,2025-02-08,23.728722,120.712097,1.686351e-09
C1I400,凌霄,2025-02-08,24.018778,121.004456,5.7950658e-09
C1M640,十字,2025-02-08,23.492153,120.753683,3.4159828e-09
G2P820,農試鳳山分所,2025-02-08,22.646611,120.356083,1.1578581e-08
C0Z270,蕃薯寮,2025-02-08,23.73835,121.540108,7.1687105e-09
C0F9Q0,外埔,2025-02-08,24.347817,120.705686,1.7728241e-09
C0K580,高鐵雲林,2025-02-08,23.737456,120.417944,1.5220882e-09
C2I090,鳳凰,2025-02-08,23.728081,120.787347,2.6623346e-09
C0U990,員山,2025-02-08,24.74435,121.72247,2.6889024e-09
C0V770,大社,2025-02-08,22.730306,120.346639,4.941349e-09
C0X120,麻豆,2025-02-08,23.183289,120.248611,2.7717184e-09
C0C670,龍潭,2025-02-08,24.870056,121.221389,2.5367001e-08
C0D680,香山濕地,2025-02-08,24.783581,120.914988,1.4329527e-08
C0S980,勝林山,2025-02-08,22.430439,120.8938,3.740336e-08
C0V730,大寮,2025-02-08,22.605614,120.395717,1.3005982e-09
C0R570,麟洛,2025-02-08,22.65078,120.52719,7.0205375e-10
C2M930,石卓,2025-02-08,23.478744,120.702264,3.623438e-09
C0G9B0,和美,2025-02-08,24.105169,120.492131,3.786735e-09
CAG100,王功漁港,2025-02-08,23.96824,120.32586,1.1761892e-06
C0X290,北門,2025-02-08,23.267772,120.125481,1.883138e-09
C2F930,大甲,2025-02-08,24.347667,120.640403,6.8646373e-09
C0D650,湖口,2025-02-08,24.904794,121.043628,1.3799686e-07
C0E420,竹南,2025-02-08,24.708978,120.888897,2.6731843e-08
C0U780,五結,2025-02-08,24.68637,121.79794,2.6539588e-09
C1I250,鯉潭,2025-02-08,23.961922,120.991131,2.7008118e-09
C0R130,阿禮,2025-02-08,22.742908,120.743678,1.3957719e-09
C0X100,臺南市北區,2025-02-08,23.010394,120.194228,2.6222242e-09
C0S920,金峰嘉蘭,2025-02-08,22.594789,120.960825,4.237952e-08
C0V490,新興,2025-02-08,22.627422,120.298803,1.3196491e-09
C0F9K0,大安,2025-02-08,24.345061,120.588025,7.602665e-09
72N100,臺南農改,2025-02-08,23.0605,120.342194,3.2592926e-09
467290,古坑,2025-02-08,23.633639,120.551889,7.8734347e-10
C2E970,八甲,2025-02-08,24.535811,120.795983,6.2850156e-09
C0V440,鳳山,2025-02-08,22.646653,120.356122,1.1578581e-08
C1T940,大觀,2025-02-08,23.714206,121.373133,8.422995e-09
72T250,花蓮農改,2025-02-08,23.975222,121.563889,3.9418964e-08
C0E740,造橋,2025-02-08,24.637056,120.864778,1.3418484e-08
C0R100,尾寮山,2025-02-08,22.833111,120.683889,1.2269576e-09
A2K630,臺大雲林校區,2025-02-08,23.730628,120.423903,1.5220882e-09
467990,馬祖,2025-02-08,26.169467,119.923158,1.124474e-07
C0D580,寶山,2025-02-08,24.735006,121.025192,8.321562e-09
E2P990,林試扇平站,2025-02-08,22.9677,120.6857,7.863169e-10
C0AI30,三重,2025-02-08,25.057328,121.500629,4.6209347e-09
C0AH00,汐止,2025-02-08,25.066881,121.658778,4.6526045e-09
C1Z040,立山,2025-02-08,23.443356,121.327375,2.4004812e-08
466881,新北,2025-02-08,24.959207,121.525196,1.37189415e-08
C0W130,花嶼,2025-02-08,23.40007,119.32276,0.9903457
C0A950,鼻頭角,2025-02-08,25.129036,121.923372,5.9787953e-06
C0K470,林內,2025-02-08,23.748675,120.609642,6.233439e-10
C2F990,摩天嶺,2025-02-08,24.322458,120.936819,4.260936e-09
82C160,茶改場,2025-02-08,24.908472,121.185333,1.7852308e-08
C0Z320,清水林道,2025-02-08,23.27125,121.188272,2.4332657e-08
C0R760,南仁湖,2025-02-08,22.084681,120.863353,4.786765e-06
C0M670,大林,2025-02-08,23.600616,120.45841,2.0282311e-09
C0M800,茶山,2025-02-08,23.299075,120.664767,1.3689528e-09
C0A9C0,天母,2025-02-08,25.117494,121.537169,7.1125705e-09
72K220,南改斗南分場,2025-02-08,23.634556,120.477333,2.047768e-09
72AI40,桃改樹林分場,2025-02-08,24.944503,121.386972,1.8064364e-08
C0S910,蘭嶼燈塔,2025-02-08,22.081197,121.503117,0.8529221
C0B050,八斗子,2025-02-08,25.144754,121.79167,8.530027e-08
C0U900,內城,2025-02-08,24.71813,121.68766,2.8231477e-09
C0X320,柳營,2025-02-08,23.253328,120.375253,9.272184e-10
C0M790,新港,2025-02-08,23.553269,120.345728,1.4158767e-09
C0F9T0,西屯,2025-02-08,24.179494,120.641275,1.8955526e-09
C0SA30,都歷,2025-02-08,23.020333,121.323642,5.93445e-09
C0C620,蘆竹,2025-02-08,25.084275,121.265767,1.8697325e-07
C0R730,大坪頂,2025-02-08,22.024633,120.69355,0.8793755
C0AJ40,石門,2025-02-08,25.273672,121.601198,2.255258e-06
C0E750,苗栗,2025-02-08,24.564569,120.824575,6.4969283e-09
C0T870,鯉魚潭,2025-02-08,23.935639,121.508944,1.0737029e-08
C1V170,排雲,2025-02-08,23.463619,120.954147,2.1238831e-08
C2H950,中寮,2025-02-08,23.884447,120.766406,7.830736e-10
C0R350,貓鼻頭,2025-02-08,21.921774,120.7358,0.17585939
C0V660,岡山,2025-02-08,22.797078,120.294958,1.1540703e-08
C1H941,雙冬,2025-02-08,23.967378,120.802189,1.365547e-09
C0AJ70,田寮,2025-02-08,25.2698,121.4886,3.3096408e-06
C0AI00,五股,2025-02-08,25.07445,121.42728,2.8559318e-08
C0Z280,德武,2025-02-08,23.47426,121.41071,3.5333294e-09
C0R700,枋山,2025-02-08,22.246844,120.661086,0.8863968
C0C460,復興,2025-02-08,24.820208,121.352281,3.4126113e-08
E2H360,蓮華池,2025-02-08,23.918333,120.885278,1.5223118e-09
C0M640,中埔,2025-02-08,23.42538,120.5229,7.9141765e-10
C0W140,金沙,2025-02-08,24.488292,118.408778,5.045119e-08
C2A540,四堵,2025-02-08,24.8926,121.745736,1.4557461e-08
C0ACA0,新莊,2025-02-08,25.051478,121.446756,6.2095897e-09
C0R220,潮州,2025-02-08,22.534361,120.54,1.1129275e-09
U2HA40,臺大內茅埔,2025-02-08,23.689722,120.851117,1.3152266e-09
467490,臺中,2025-02-08,24.145736,120.684075,1.0389168e-09
C0U960,翠峰湖,2025-02-08,24.510856,121.608044,3.1723484e-08
E2HA20,林試畢祿溪站,2025-02-08,24.226944,121.308522,2.4874462e-08
C0V890,前鎮,2025-02-08,22.5718,120.3117,1.3221736e-09
467620,蘭嶼,2025-02-08,22.036969,121.558339,0.952502
C1F941,雪嶺,2025-02-08,24.280586,121.026642,3.09226e-08
C2H9E0,國姓南港,2025-02-08,23.911108,120.846556,4.7100164e-09
C0AC80,文山,2025-02-08,25.00235,121.575728,1.3660505e-08
C0F9R0,龍井,2025-02-08,24.184536,120.528972,4.374362e-09
C0M760,民雄,2025-02-08,23.551754,120.428457,2.0598332e-09
C0UA40,西德山,2025-02-08,24.560647,121.752608,2.126745e-08
C1T920,中興,2025-02-08,23.769503,121.498653,3.920375e-09
C0D550,雪霸,2025-02-08,24.526972,121.11605,1.5910791e-08
C2F860,梨山,2025-02-08,24.247522,121.243669,2.5327695e-08
C0R320,車城,2025-02-08,22.0744,120.716247,0.99703544
C1S870,南美山,2025-02-08,23.15025,121.382333,5.1778373e-09
C0B020,基隆嶼,2025-02-08,25.19141,121.78391,3.999327e-06
C1U501,牛鬥,2025-02-08,24.637836,121.573656,8.252284e-09
C0M730,嘉義市東區,2025-02-08,23.457673,120.460531,7.769308e-10
C0S700,知本,2025-02-08,22.684866,121.005642,1.7398625e-08
C1N001,沙崙,2025-02-08,22.935472,120.309406,2.2443278e-09
C0V760,橋頭,2025-02-08,22.757806,120.30575,5.139278e-09
C0G960,福寶,2025-02-08,24.0443,120.3814,3.847057e-09
C0X210,白河,2025-02-08,23.347466,120.414427,1.0504057e-09
C0S810,東河,2025-02-08,22.972672,121.303986,3.3737008e-06
C2R170,屏東,2025-02-08,22.66027,120.49403,7.01873e-10
C0R670,楓港,2025-02-08,22.190131,120.692156,0.99009764
C0FA50,霧峰,2025-02-08,24.0419,120.6995,6.975104e-10
C0UB10,蘇澳,2025-02-08,24.5969,121.8571,5.7377965e-09
C0G950,防潮門,2025-02-08,24.1835,120.4871,4.373536e-09
C0M740,六腳,2025-02-08,23.492871,120.290625,1.5021304e-09
C1R250,力里,2025-02-08,22.428117,120.629228,1.012536e-09
C0K330,虎尾,2025-02-08,23.719183,120.442036,1.5100445e-09
C2FA00,烏石坑,2025-02-08,24.273503,120.947617,4.1676813e-09
C0V620,永安,2025-02-08,22.82315,120.236856,1.1524403e-08
C1I330,楓樹林,2025-02-08,23.986803,121.076117,4.851851e-09
C0W200,湖西,2025-02-08,23.596314,119.67275,0.93733454
72Q010,高雄農改場,2025-02-08,22.709333,120.525889,6.3160294e-10
C0SA40,瑞和,2025-02-08,22.974361,121.156697,9.393752e-09
C0C680,龜山,2025-02-08,25.02846,121.38656,2.7593558e-08
C2V260,月眉,2025-02-08,22.971003,120.539853,4.5516518e-10
C0V450,鳳森,2025-02-08,22.545064,120.392592,1.0020557e-09
C0U720,南山,2025-02-08,24.43742,121.38167,1.9111786e-08
A2N290,臺南蘭花園區,2025-02-08,23.340258,120.379661,3.0264105e-09
C0R560,新園,2025-02-08,22.5434,120.461558,9.828953e-10
C0U890,三星,2025-02-08,24.66812,121.65302,7.3305975e-09
C1V300,御油山,2025-02-08,23.001983,120.715364,3.6329395e-09
C0U600,礁溪,2025-02-08,24.817539,121.765608,4.981225e-09
C1T980,龍澗,2025-02-08,24.023289,121.411328,5.4068032e-08
C0D670,海天一線,2025-02-08,24.831986,120.914438,1.0901613e-05
C0SA00,歷坵,2025-02-08,22.520969,120.89185,4.2463505e-08
C0M710,東石,2025-02-08,23.458927,120.15385,1.6504504e-09
C0M780,鹿草,2025-02-08,23.41134,120.30835,1.6432385e-09
C0U520,雙連埤,2025-02-08,24.753033,121.641303,1.2296219e-08
C0B010,七堵,2025-02-08,25.094819,121.71713,1.3122804e-08
C0R480,長治,2025-02-08,22.693128,120.542622,4.8069987e-10
C1V830,國三S383K,2025-02-08,22.781967,120.426475,4.551565e-10
12Q980,恆春工作站,2025-02-08,22.079678,120.714425,0.99703544
C1O940,東山服務區,2025-02-08,23.286016,120.398472,1.4114117e-09
C1U840,東澳嶺,2025-02-08,24.5378,121.8485,1.3104745e-08
C1D630,飛鳳山,2025-02-08,24.766464,121.119178,1.4938141e-08
C0S940,石寧山,2025-02-08,23.223772,121.406639,5.919369e-09
C0K410,北港,2025-02-08,23.573957,120.292802,1.2797091e-09
C2M620,瑞里,2025-02-08,23.545133,120.675197,2.9317537e-09
C0SB70,小港漁港,2025-02-08,23.158558,121.400431,4.4386486e-09
C2O950,安南,2025-02-08,23.076694,120.144861,2.4796478e-09
C0F0E0,南湖圈谷,2025-02-08,24.363714,121.444667,4.549339e-08
467610,成功,2025-02-08,23.097486,121.373428,1.0195013e-08
C0G890,伸港,2025-02-08,24.148933,120.484403,4.618591e-09
C2E540,龍溪,2025-02-08,24.606489,120.783933,1.3566483e-08
C1V200,梅山,2025-02-08,23.268447,120.823556,8.952453e-10
C0T9H0,加路蘭山,2025-02-08,23.682947,121.5274,1.3540038e-08
C2O930,玉井,2025-02-08,23.126042,120.46055,4.750134e-10
C1F911,新伯公,2025-02-08,24.221361,120.841069,1.920972e-09
C0R490,九如,2025-02-08,22.7405,120.490503,6.2589217e-10
C0X200,左鎮,2025-02-08,23.056758,120.408522,9.1367586e-10
C0SB50,叭嗡嗡,2025-02-08,23.047062,121.343223,6.2543304e-09
C1F891,稍來,2025-02-08,24.265689,121.001142,1.9042579e-08
72N240,七股研究中心,2025-02-08,23.081672,120.062894,2.5226872e-09
C0C700,中壢,2025-02-08,24.977661,121.256375,1.1799137e-08
C0M690,水上,2025-02-08,23.419734,120.388909,2.6176867e-09
C0V690,鼓山,2025-02-08,22.623325,120.275575,1.3196491e-09
C0O860,大內,2025-02-08,23.11885,120.36083,3.3074885e-09
C0Z200,萬榮,2025-02-08,23.709219,121.420106,6.1870327e-09
C0T9D0,和中,2025-02-08,24.26676,121.74103,9.498285e-09
C1O921,楠西,2025-02-08,23.183511,120.484083,4.9260734e-10
C0AJ30,淡水觀海,2025-02-08,25.184591,121.408616,6.919813e-08
C0V810,左營,2025-02-08,22.67491,120.28491,1.2861526e-08
C0UA70,桃源谷,2025-02-08,24.962606,121.888875,1.5771624e-08
C0X130,官田,2025-02-08,23.193217,120.315422,1.4662901e-09
C1H000,翠峰,2025-02-08,24.109397,121.205211,1.3997156e-08
C0UA90,石城,2025-02-08,24.980444,121.951214,1.5224288e-08
C1E681,南勢山,2025-02-08,24.421669,120.923831,9.860071e-09
C0A9F0,內湖,2025-02-08,25.079422,121.57545,4.6526045e-09
C0K291,宜梧,2025-02-08,23.536281,120.169329,1.3629423e-09
C1K540,口湖,2025-02-08,23.585344,120.180517,4.069631e-09
C0R780,滿州,2025-02-08,22.024403,120.839892,0.7359675
C0V870,文安,2025-02-08,22.8025,120.2164,1.170564e-08
C0U650,玉蘭,2025-02-08,24.675286,121.587061,1.0899395e-08
C0R640,東港,2025-02-08,22.46247,120.44074,8.547673e-10
K2E360,苗栗農改,2025-02-08,24.495722,120.829111,4.177956e-09
C0AJ80,板橋,2025-02-08,25.0107,121.4489,1.3826066e-08
C0S660,下馬,2025-02-08,23.150427,121.070312,1.939203e-08
C1H9B1,阿眉,2025-02-08,24.1263,120.994672,1.7487523e-08
C0UA20,多加屯,2025-02-08,24.368614,121.373189,2.242318e-08
C0E730,頭份,2025-02-08,24.688247,120.912206,2.7809552e-08
72V140,高改旗南分場,2025-02-08,22.857861,120.516667,4.5249132e-10
C0K480,莿桐,2025-02-08,23.761192,120.502372,8.7595264e-10
C0U980,坪林石牌,2025-02-08,24.86478,121.77396,1.5267558e-08
C0T900,西林,2025-02-08,23.8119,121.441458,4.521715e-09
C1I150,青雲,2025-02-08,23.793361,120.949378,1.215574e-09
467350,澎湖,2025-02-08,23.565503,119.563094,0.9579659
C0G800,埔鹽,2025-02-08,24.000394,120.431683,2.4907683e-09
C0H960,草屯,2025-02-08,23.973672,120.68085,7.0683165e-10
C1V780,多納林道,2025-02-08,22.888028,120.737917,1.2008554e-09
C0E920,通霄漁港,2025-02-08,24.498589,120.673876,2.4122227e-07
C0Z330,安通山,2025-02-08,23.290728,121.348528,7.2761033e-09
C0AH10,永和,2025-02-08,25.01125,121.508111,1.3811938e-08
C0AK10,太平里,2025-02-08,25.134937,121.364899,2.664219e-07
C2G640,鹿港,2025-02-08,24.0753,120.430481,3.847798e-09
C1E890,國三N149K,2025-02-08,24.463414,120.680019,1.4157613e-08
C1R110,口社,2025-02-08,22.770111,120.645222,5.2814186e-10
C1M870,國三N285K,2025-02-08,23.550319,120.505833,9.813611e-10
467050,新屋,2025-02-08,25.006744,121.047486,3.9367086e-07
C1E480,鳳美,2025-02-08,24.554803,121.034747,1.377232e-08
C0M530,奮起湖,2025-02-08,23.493903,120.699253,3.427234e-09
C0C590,觀音,2025-02-08,25.027072,121.153317,2.1703731e-06
C0T9M0,靜浦,2025-02-08,23.455167,121.495028,3.0282985e-09
C2H9M0,發祥,2025-02-08,24.154094,121.164517,1.29049464e-08
C0AI40,石牌,2025-02-08,25.115597,121.513139,6.9986816e-09
C1F871,上谷關,2025-02-08,24.203483,121.018644,4.0979757e-09
C2H9G0,百勝,2025-02-08,24.051142,120.909361,1.4635881e-09
C0G880,二水,2025-02-08,23.810742,120.6173,6.549305e-10
C0R940,加祿堂,2025-02-08,22.3363,120.6217,0.00044984408
C0W220,北竿,2025-02-08,26.220358,119.974881,1.558891e-07
C0O960,崎頂,2025-02-08,22.959547,120.369317,1.925161e-09
C0S750,向陽,2025-02-08,23.248397,120.986133,7.197372e-09
C0T9F0,水璉,2025-02-08,23.797131,121.542514,4.9772746e-09
C1M600,頭凍,2025-02-08,23.406364,120.603339,1.251465e-09
467660,臺東,2025-02-08,22.752211,121.154586,0.00042906485
C1D380,新埔,2025-02-08,24.84745,121.03834,5.1830174e-08
C2G980,田頭村,2025-02-08,23.8263,120.444175,1.2586802e-09
C0V750,路竹,2025-02-08,22.854997,120.259439,2.1346647e-09
C0N050,蚵寮,2025-02-08,23.301,120.1104,1.6763742e-09
72M700,南改鹿草分場,2025-02-08,23.416869,120.283061,1.6572262e-09
C1SA50,利嘉林道,2025-02-08,22.82325,121.009389,1.2904282e-08
467550,玉山,2025-02-08,23.487614,120.959522,2.5632556e-08
C0A940,金山,2025-02-08,25.223628,121.643967,2.0805722e-08
C1V340,大津,2025-02-08,22.888322,120.645986,9.97207e-10
C0W180,七美,2025-02-08,23.219333,119.444892,0.9811878
C1F9C1,白冷,2025-02-08,24.182844,120.929889,2.7365965e-09
K2E710,苗改生物防治研究中心,2025-02-08,24.422861,120.871833,4.2204533e-09
C0N040,蘆竹溝,2025-02-08,23.2344,120.0961,1.883138e-09
C2W230,畜試所澎湖,2025-02-08,23.628342,119.513206,0.97396475
C0R880,後壁湖,2025-02-08,21.9457,120.7457,0.99757415
C1I280,埔中,2025-02-08,23.820778,120.642594,1.0987579e-09
467790,墾丁雷達站,2025-02-08,21.948235,120.808028,0.99791557
C0W190,望安,2025-02-08,23.380564,119.494075,0.96816677
466881,新北,2025-02-08,24.9593,121.52,1.374107e-08
C0Z170,卓溪,2025-02-08,23.3443,121.3029,4.655241e-09
C0F850,東勢,2025-02-08,24.246428,120.833047,2.0623176e-09
466900,淡水,2025-02-08,25.164889,121.448906,2.664219e-07
C0I370,魚池,2025-02-08,23.895703,120.94135,1.7940022e-09
C0C630,大溪,2025-02-08,24.882853,121.265547,2.6179126e-08
C0A520,山佳,2025-02-08,24.974944,121.402008,7.438628e-09
C0I110,竹山,2025-02-08,23.761225,120.688156,7.0247974e-10
82H840,茶改南部分場,2025-02-08,23.762528,120.7405,1.0475466e-09
C0G660,溪湖,2025-02-08,23.94835,120.479122,1.506736e-09
C1T800,洛韶,2025-02-08,24.204558,121.453956,4.9863036e-08
C1T810,慈恩,2025-02-08,24.192044,121.388386,9.420451e-09
C1E451,象鼻,2025-02-08,24.368617,120.940228,5.9431717e-09
C0AC60,三峽,2025-02-08,24.939025,121.369728,1.789062e-08
C0I490,萬大林道,2025-02-08,23.928228,121.091411,7.246354e-09
C1I290,豐丘,2025-02-08,23.668178,120.887417,3.589697e-09
C1I320,奧萬大,2025-02-08,23.952956,121.178556,4.884945e-09
C2M910,嘉義大學,2025-02-08,23.471325,120.485903,7.926111e-10
C0U770,南澳,2025-02-08,24.44935,121.81022,8.005729e-09
C0A980,社子,2025-02-08,25.109508,121.469681,2.7630432e-07
C0V800,六龜,2025-02-08,22.997889,120.633583,6.3452865e-10
C1G9D0,國一S218K,2025-02-08,23.890641,120.493253,1.1588982e-09
C0E570,白沙屯,2025-02-08,24.549447,120.696803,3.0353382e-07
C2F9A0,中竹林,2025-02-08,24.103556,120.751061,1.513649e-09
C0FA40,臺中電廠,2025-02-08,24.2146,120.4907,4.3765738e-09
C2G9A0,畜試所彰化,2025-02-08,23.86045,120.557964,8.5362034e-10
C0H9C0,合歡山,2025-02-08,24.143442,121.272547,3.298255e-08
C0X060,下營,2025-02-08,23.22695,120.256261,2.9739204e-09
G2M350,農試溪口農場,2025-02-08,23.58565,120.408111,2.0934126e-09
C0U860,頭城,2025-02-08,24.85323,121.8308,4.9212394e-09
C0R580,南州,2025-02-08,22.48591,120.50274,8.547673e-10
C0D430,峨眉,2025-02-08,24.6905,121.017189,8.756007e-09
C0G780,秀水,2025-02-08,24.03405,120.503869,1.6823608e-09
72N100,臺南農改場,2025-02-08,23.0605,120.342194,3.2592926e-09
C0S900,蘭嶼高中,2025-02-08,22.04909,121.51214,0.85837275
467540,大武,2025-02-08,22.355675,120.903789,8.773839e-06
C1F9W0,德基,2025-02-08,24.254783,121.190261,1.6177077e-08
C1Z120,壽豐,2025-02-08,23.870853,121.508081,5.3153366e-09
C0W160,烏坵,2025-02-08,24.9944,119.44956,2.2634154e-06
C1I240,外大坪,2025-02-08,23.958697,120.917931,2.7532665e-09
C1I550,國六W023K,2025-02-08,23.979067,120.867742,1.0744318e-09
C0R870,興海,2025-02-08,21.9752,120.8439,0.9921028
C0R140,瑪家,2025-02-08,22.682903,120.686639,7.7527285e-10
C0A530,坪林,2025-02-08,24.938183,121.70975,1.3975815e-08
C0X260,後壁,2025-02-08,23.366358,120.362326,3.02194e-09
C0Z230,和平,2025-02-08,24.30717,121.77007,9.81854e-09
C0G770,福興,2025-02-08,24.041289,120.437669,2.4907683e-09
C0H9A0,神木村,2025-02-08,23.532742,120.843667,3.5015424e-09
C0I460,南投,2025-02-08,23.911469,120.687331,6.5920913e-10
C0I480,梅峰,2025-02-08,24.085272,121.173572,1.0236574e-08
C1V570,吉東,2025-02-08,22.85422,120.5454,4.5250773e-10
C2D740,屯原,2025-02-08,24.067969,121.209389,9.043314e-09
C2A560,福山,2025-02-08,24.776203,121.502811,1.9829344e-08
C0AH30,五分山,2025-02-08,25.07125,121.780794,2.489321e-08
C0FA10,松柏,2025-02-08,24.429115,120.617482,1.7029983e-08
72S200,東改班鳩分場,2025-02-08,22.829528,121.077694,8.622826e-08
72HA00,中改埔里分場,2025-02-08,23.903208,120.963364,1.4391861e-09
C2H9W0,大坪頂農水,2025-02-08,24.043122,120.932781,1.8353586e-09
C0C650,平鎮,2025-02-08,24.897503,121.214636,1.6883794e-08
C0S930,延平,2025-02-08,22.902581,121.084058,1.9518307e-08
C0UA60,樟樹山,2025-02-08,24.41393,121.78325,1.2863096e-08
C1S670,摩天,2025-02-08,23.199503,121.027,4.6732048e-08
C0V630,茄萣,2025-02-08,22.906642,120.182608,2.1869673e-09
466940,基隆,2025-02-08,25.133314,121.740475,8.5041485e-08
C0X050,東河,2025-02-08,23.296598,120.385608,1.4358109e-09
C0R770,保力,2025-02-08,22.071122,120.764111,0.99304616
G2L020,農試嘉義分所,2025-02-08,23.485028,120.473806,8.057027e-10
C0X240,關子嶺,2025-02-08,23.331169,120.508025,1.2130125e-09
C0I380,集集,2025-02-08,23.828206,120.801467,8.6767504e-10
466990,花蓮,2025-02-08,23.975128,121.613275,4.020594e-08
C1V220,小關山,2025-02-08,23.154217,120.813603,4.092641e-09
C1F9G1,慶福山,2025-02-08,24.180853,120.848378,2.7881981e-09
C0Z250,瑞穗林道,2025-02-08,23.49284,121.30688,9.641003e-08
C0D590,新豐,2025-02-08,24.87068,120.97721,1.4260199e-06
C0A870,五指山,2025-02-08,25.132153,121.608692,1.1488104e-08
C0UA50,西帽山,2025-02-08,24.555361,121.802628,1.6645703e-08
C0X160,仁德,2025-02-08,22.968258,120.257689,3.1161842e-09
C1H971,六分寮,2025-02-08,23.92507,120.6378,1.068821e-09
C0W120,西嶼,2025-02-08,23.5626,119.468436,0.97596616
C0G650,員林,2025-02-08,23.946503,120.585597,6.832096e-10
C0AD50,鶯歌,2025-02-08,24.951533,121.346294,1.7624814e-08
C2H9Q0,北東眼山,2025-02-08,24.120939,121.189303,2.1601128e-08
C2H9T0,名間竹圍,2025-02-08,23.859914,120.637572,9.2415686e-10
C0S990,山豬窟,2025-02-08,22.318619,120.857372,8.964701e-07
72Q010,高雄農改,2025-02-08,22.709333,120.525889,6.3160294e-10
C0X190,安平,2025-02-08,22.993161,120.152181,2.6222242e-09
C0K400,斗六,2025-02-08,23.720583,120.541127,8.0203516e-10
12J990,口湖工作站,2025-02-08,23.589978,120.180394,4.069631e-09
C0O830,北寮,2025-02-08,23.079561,120.495008,3.9522288e-10
C1D410,白蘭,2025-02-08,24.579364,121.079947,1.6762057e-08
C0S970,加津林,2025-02-08,22.416211,120.926942,5.4617185e-06
C0D700,關西,2025-02-08,24.7977,121.1732,9.848455e-09
C0M810,里佳,2025-02-08,23.389125,120.716647,2.4239677e-09
C0U750,龜山島,2025-02-08,24.841667,121.953133,2.6897663e-07
C0R810,內獅,2025-02-08,22.305064,120.642986,0.00071687193
C1M390,龍美,2025-02-08,23.406728,120.654417,1.6732181e-09
C2FB60,頭櫃山,2025-02-08,24.129842,120.858925,4.1531596e-09
C1H840,國三N238K,2025-02-08,23.841008,120.707711,8.4994867e-10
CAQ030,崎峰國小,2025-02-08,22.42565,120.49521,8.547673e-10
C2E520,大湖,2025-02-08,24.414939,120.870872,4.3886526e-09
467530,阿里山,2025-02-08,23.508208,120.813242,1.1412299e-08
C1E691,南湖,2025-02-08,24.40135,120.837533,7.956454e-09
C0FA30,梧棲,2025-02-08,24.256003,120.523381,4.513099e-09
C1V231,高中,2025-02-08,23.134911,120.716711,1.2204993e-09
C0AK30,硬漢嶺,2025-02-08,25.136097,121.426372,1.0347999e-08
C0F9V0,新社,2025-02-08,24.200172,120.815806,2.295273e-09
C0H890,埔里,2025-02-08,23.972169,120.952425,1.212957e-09
C0R690,墾丁,2025-02-08,21.966756,120.810269,0.9948182
C0F0D0,審馬陣,2025-02-08,24.381675,121.4203,2.8694512e-08
C2W030,金門農試所,2025-02-08,24.448431,118.451786,3.998424e-08
C0R820,白鷺,2025-02-08,22.454275,120.666219,4.0329344e-09
U2H480,臺大溪頭,2025-02-08,23.670306,120.798194,3.3841219e-09
C1V190,南天池,2025-02-08,23.27403,120.91176,8.149518e-09
K2E360,苗栗農改場,2025-02-08,24.495722,120.829111,4.177956e-09
CAJ050,海口故事園區,2025-02-08,23.57543,120.14121,4.069631e-09
C2H9D0,三隻寮,2025-02-08,24.093078,120.861578,1.878392e-09
C0O990,媽廟,2025-02-08,22.99175,120.293525,3.243924e-09
C0D480,打鐵坑,2025-02-08,24.849664,121.150789,2.5271238e-08
C0Z220,和平林道,2025-02-08,24.343922,121.656317,8.651026e-09
C0TA10,花蓮漁港,2025-02-08,23.995322,121.638331,4.1292996e-08
72C440,桃園農改場,2025-02-08,24.950944,121.030583,1.5991316e-07
C1E711,馬拉邦山,2025-02-08,24.367306,120.901656,6.1277947e-09
C0SB20,富岡,2025-02-08,22.792467,121.192669,5.3549394e-07
C0D560,竹東,2025-02-08,24.767147,121.057881,1.0081197e-08
C0F9U0,南屯,2025-02-08,24.137006,120.637969,1.935876e-09
C0M720,番路,2025-02-08,23.464657,120.554156,8.513342e-10
C0F0A0,雪山圈谷,2025-02-08,24.388594,121.236339,3.736436e-08
C1A9N0,四十份,2025-02-08,24.934158,121.593283,3.5107195e-08
C0U760,東澳,2025-02-08,24.52196,121.83318,5.6544027e-09
C0X230,鹽水,2025-02-08,23.272621,120.247641,1.6503561e-09
C2H9H0,苗改南投蜂場,2025-02-08,23.852589,120.693481,7.396647e-10
C0R950,萬隆國小,2025-02-08,22.507667,120.587817,1.1054826e-09
467540,大武,2025-02-08,22.35572,120.90374,8.773839e-06
C0V370,古亭坑,2025-02-08,22.893178,120.401947,5.870849e-10
C1I340,新興橋,2025-02-08,23.563333,120.868728,2.0041044e-09
C0SA80,土坂,2025-02-08,22.453108,120.887572,2.1093419e-07
C0R160,鹽埔,2025-02-08,22.739558,120.530778,6.312356e-10
C0AC40,大屯山,2025-02-08,25.175675,121.522408,3.2850703e-08
466850,五分山雷達站,2025-02-08,25.071182,121.781205,2.5527171e-08
C2H9L0,馬烈霸,2025-02-08,24.1512,121.201772,2.137383e-08
C1AI50,國三N016K,2025-02-08,25.034164,121.619664,4.74847e-09
C1V600,藤枝,2025-02-08,23.071961,120.757042,2.9887621e-09
C1E601,南勢,2025-02-08,24.572486,120.734842,1.0030565e-07
C0Z180,新城,2025-02-08,24.03946,121.60454,4.0482576e-08
C0O980,新市,2025-02-08,23.061614,120.298197,3.470624e-09
C0K420,西螺,2025-02-08,23.800407,120.467394,1.2620746e-09
C0Z050,佳心,2025-02-08,23.34567,121.21316,2.4774932e-08
C0AD30,蘆洲,2025-02-08,25.086594,121.472331,4.621181e-09
C0V610,梓官,2025-02-08,22.760558,120.267211,5.139278e-09
K2F750,種苗改良場,2025-02-08,24.225972,120.800917,2.0766817e-09
C0UA80,大溪漁港,2025-02-08,24.941801,121.902955,1.208708e-08
C1AI60,國一39K邊坡,2025-02-08,25.064361,121.383836,2.8038519e-08
C0W150,金寧,2025-02-08,24.457703,118.328989,3.8796358e-08
C0R960,內埔,2025-02-08,22.608483,120.570714,9.25946e-10
V2C250,八德合作社,2025-02-08,24.93775,121.266389,1.7070471e-08
C2H9S0,龍南,2025-02-08,23.953536,120.833183,2.5576627e-09
C0AH40,平等,2025-02-08,25.129142,121.577086,8.632384e-09
C0R540,佳冬,2025-02-08,22.419456,120.552375,1.7249667e-08
466950,彭佳嶼,2025-02-08,25.627975,122.079744,0.00067184423
C0A890,雙溪,2025-02-08,25.036003,121.864242,1.7993754e-07
C0C480,桃園,2025-02-08,24.992425,121.323172,1.1974183e-08
C0AH50,林口,2025-02-08,25.072181,121.38084,2.6910124e-08
A2K360,水試臺西試驗場,2025-02-08,23.717231,120.190522,5.4831535e-09
B2N890,畜試所,2025-02-08,23.058972,120.336406,3.2592926e-09
C2M960,外寮,2025-02-08,23.562643,120.665688,2.5409845e-09
C0F9S0,烏日,2025-02-08,24.107058,120.624103,1.0501152e-09
C0C490,八德,2025-02-08,24.928708,121.283289,1.7111805e-08
C0R190,赤山,2025-02-08,22.592333,120.614306,9.209473e-10
C0T820,天祥,2025-02-08,24.179597,121.495639,1.00942074e-07
C1F9E1,龍安,2025-02-08,24.1605,120.831961,2.0927657e-09
C0V820,小林,2025-02-08,23.148408,120.63325,7.3471534e-10
C2G870,芳苑,2025-02-08,23.922303,120.320025,1.1186005e-06
C0E850,大河,2025-02-08,24.618069,120.948578,8.861214e-09
C1U670,寒溪,2025-02-08,24.634,121.71691,3.2662875e-09
C0N020,城西,2025-02-08,23.0568,120.0956,2.621064e-09
C1Z110,三棧,2025-02-08,24.11557,121.60501,8.0992834e-08
C0R280,檳榔,2025-02-08,22.076078,120.836777,6.623829e-05
C2H9J0,中台,2025-02-08,23.9996,120.938739,1.3387825e-09
C0F9L0,后里,2025-02-08,24.310436,120.729725,2.1520514e-09
467441,高雄,2025-02-08,22.730432,120.312516,4.9166142e-09
C0Z180,新城,2025-02-08,24.040486,121.604878,4.0482576e-08
C0D540,橫山,2025-02-08,24.71116,121.11693,8.511269e-09
C1D420,太閣南,2025-02-08,24.632808,121.160575,1.8680995e-08
C1E770,公館,2025-02-08,24.526914,120.830806,4.1466848e-09
CAN130,水試所海水繁養殖中心,2025-02-08,23.120802,120.07968,2.5226872e-09
C1I430,翠華,2025-02-08,24.191961,121.224339,1.6467032e-08
C1M400,菜瓜坪,2025-02-08,23.251928,120.576103,1.0180434e-09
C0G730,二林,2025-02-08,23.903325,120.376081,2.3153806e-09
72M360,南改義竹分場,2025-02-08,23.360694,120.279361,1.7063332e-09
V2K620,麥寮合作社,2025-02-08,23.753836,120.294783,1.4774606e-09
C0Z070,舞鶴,2025-02-08,23.46811,121.37407,3.7912806e-09
C0B040,大武崙,2025-02-08,25.166676,121.706993,8.136056e-08
C1Z030,紅葉,2025-02-08,23.493119,121.338806,3.4190009e-09
C1I050,丹大,2025-02-08,23.753747,121.141147,8.400917e-09
C0I080,信義,2025-02-08,23.689694,120.851036,1.3152266e-09
C2M920,朴子農改,2025-02-08,23.469889,120.259383,1.6533491e-09
C2A880,福隆,2025-02-08,25.017842,121.942083,1.5203366e-08
C0Z160,鳳林,2025-02-08,23.746114,121.453411,6.0636163e-09
C0V210,復興,2025-02-08,23.222403,120.806089,7.3281614e-10
C0H990,昆陽,2025-02-08,24.121322,121.273642,2.3966612e-08
C0R741,獅子,2025-02-08,22.202308,120.705236,1.6974429e-05
C0S710,鹿野,2025-02-08,22.917711,121.122994,8.1840055e-09
C0I530,小奇萊,2025-02-08,24.131764,121.295717,2.4976151e-08
C2K630,荷苞,2025-02-08,23.657717,120.595144,8.113206e-10
C0Z080,富源,2025-02-08,23.587642,121.378225,1.356651e-08
467441,高雄,2025-02-08,22.7304,120.3125,4.9166142e-09
C0SB10,美和,2025-02-08,22.682078,121.060236,3.2060107e-08
C2K620,馬光農場,2025-02-08,23.721453,120.378864,1.50565e-09
C1I140,卡奈托灣,2025-02-08,23.754364,121.087872,3.3511645e-09
C0I520,玉山風口,2025-02-08,23.470489,120.955994,2.8995288e-08
C1G691,下水埔,2025-02-08,23.816114,120.5676,8.780754e-10
C0X110,臺南市南區,2025-02-08,22.961189,120.188378,3.1161842e-09
C0V680,仁武,2025-02-08,22.701083,120.347722,1.2910831e-08
C2G840,北斗,2025-02-08,23.877586,120.514222,1.1559445e-09
C0R900,竹坑,2025-02-08,22.1385,120.7022,0.9971195
C0K250,崙背,2025-02-08,23.75555,120.318925,1.4774606e-09
C0G860,社頭,2025-02-08,23.897647,120.5862,8.579475e-10
C0X150,安定,2025-02-08,23.102614,120.227839,6.199779e-09
C0R590,里港,2025-02-08,22.77919,120.49459,4.5595588e-10
C0E610,馬都安,2025-02-08,24.451272,120.930192,8.369443e-09
C0E550,明德,2025-02-08,24.583486,120.885411,6.4355334e-09
C0R150,三地門,2025-02-08,22.709889,120.639944,5.255563e-10
C0G910,花壇,2025-02-08,24.032076,120.549461,1.6640933e-09
C1D400,鳥嘴山,2025-02-08,24.71909,121.28387,1.8683524e-08
C0K500,元長,2025-02-08,23.64981,120.315024,1.3336166e-09
C0F0B0,石岡,2025-02-08,24.276061,120.777644,2.3427407e-09
C2V250,甲仙,2025-02-08,23.080106,120.591758,4.7401516e-10
C0SA20,金崙山,2025-02-08,22.567419,120.959667,2.0817907e-08
C0V350,溪埔,2025-02-08,22.738578,120.446797,4.3581866e-10
C0M660,溪口,2025-02-08,23.604131,120.403569,2.0934126e-09
C1S880,壽卡,2025-02-08,22.238911,120.858903,2.1238382e-06
72D680,桃改新埔分場,2025-02-08,24.834444,121.066111,5.252111e-08
