站號,站名,日期,lat,lon,BLBTSLS
C0R710,龍磐,2025-05-08,21.931672,120.838942,0.013294558
C1F9D1,白毛台,2025-05-08,24.158325,120.886933,3.4510503e-10
C0G940,竹塘,2025-05-08,23.848253,120.386764,0.74190134
467590,恆春,2025-05-08,22.003897,120.746339,0.58895546
C1O850,環湖,2025-05-08,23.148617,120.418633,0.9993637
C0U710,太平山,2025-05-08,24.505486,121.525656,5.377746e-09
C0E820,獅潭,2025-05-08,24.539133,120.920042,3.3946726e-06
C0V880,興達,2025-05-08,22.8778,120.2127,0.99993837
C0S890,關山,2025-05-08,23.0395,121.175017,5.5396164e-08
C0SB30,新蘭,2025-05-08,22.869214,121.223228,0.0033140727
C2R970,屏科大,2025-05-08,22.648275,120.619247,0.99825245
C1Z130,銅門,2025-05-08,23.965694,121.492842,0.009709
C0AD40,土城,2025-05-08,24.973208,121.445169,6.350837e-07
CAN140,六官養殖協會,2025-05-08,23.22881,120.29962,0.44320193
C0X180,山上,2025-05-08,23.0757,120.363253,0.99804974
C0F9Z0,雪山東峰,2025-05-08,24.388792,121.268675,1.12583205e-08
C1M480,獨立山,2025-05-08,23.537022,120.607797,7.0043404e-10
C0X220,學甲,2025-05-08,23.230367,120.182187,0.9685445
467650,日月潭,2025-05-08,23.881325,120.90805,4.4402637e-10
C0K600,箔子寮,2025-05-08,23.6197,120.14,0.9907567
C0G830,埤頭,2025-05-08,23.866003,120.452806,6.438889e-05
C0S950,七塊厝,2025-05-08,22.954453,121.229922,5.436365e-09
467110,金門,2025-05-08,24.407306,118.289281,7.576915e-08
C0AH80,深坑,2025-05-08,25.002703,121.628328,3.1960806e-07
C0A970,三貂角,2025-05-08,25.007606,122.002058,4.4076344e-07
C2D730,寶山農場,2025-05-08,24.732444,120.976153,5.894377e-07
C0K430,褒忠,2025-05-08,23.690938,120.303634,0.9887122
467480,嘉義,2025-05-08,23.495925,120.432906,0.07369065
C0V400,阿公店,2025-05-08,22.804194,120.355528,0.9998007
467550,玉山,2025-05-08,23.48718,120.95943,1.4322941e-08
C0R440,大漢山,2025-05-08,22.405264,120.753181,2.18427e-09
C0K280,四湖,2025-05-08,23.630414,120.227125,0.99466604
C1F9B1,桐林,2025-05-08,24.066172,120.735194,1.7957628e-08
C2H9U0,鳳鵬,2025-05-08,23.763919,120.788061,5.956279e-09
C0K390,土庫,2025-05-08,23.679029,120.395574,3.0166579e-05
C1I450,望鄉山,2025-05-08,23.594153,120.944286,6.1562266e-09
C0E910,海埔,2025-05-08,24.648767,120.772435,7.294421e-08
B2E890,畜試北區分所,2025-05-08,24.527806,120.770972,2.6120929e-06
C0R750,四林格山,2025-05-08,22.076989,120.802439,0.605654
C0F0C0,中坑,2025-05-08,24.248517,120.903319,6.503124e-10
C1I121,大鞍,2025-05-08,23.678381,120.760017,2.788161e-09
72U480,花改蘭陽分場,2025-05-08,24.686306,121.716583,1.562911e-08
C0A770,科教館,2025-05-08,25.096356,121.516507,2.8310714e-07
C0AJ60,六塊厝,2025-05-08,25.24,121.4481,1.6616922e-06
C0R620,墾雷,2025-05-08,21.900836,120.855269,0.015526401
467420,永康,2025-05-08,23.038386,120.2367,0.9998451
C0I410,名間,2025-05-08,23.837053,120.701447,3.3416117e-07
A2C560,農工中心,2025-05-08,24.985917,121.239833,9.090824e-08
C0V740,旗山,2025-05-08,22.888614,120.483597,0.9998634
C0Z061,玉里,2025-05-08,23.3215,121.339656,4.614375e-07
C0S840,南田,2025-05-08,22.279725,120.889208,0.047302432
C1I470,杉林溪,2025-05-08,23.639517,120.786444,3.3644023e-09
C1X040,東原,2025-05-08,23.291597,120.463822,1.5342383e-07
C0R660,枋寮,2025-05-08,22.367722,120.590647,0.9995724
C1R120,上德文,2025-05-08,22.763272,120.704442,1.7102628e-09
C0K450,大埤,2025-05-08,23.646074,120.431537,6.887776e-08
C0UA00,土場,2025-05-08,24.576533,121.495333,7.646964e-09
467080,宜蘭,2025-05-08,24.763975,121.756528,0.00016193274
C0N030,四草,2025-05-08,23.0235,120.1116,0.9947606
467410,臺南,2025-05-08,22.99328,120.20492,0.89719874
C0V650,彌陀,2025-05-08,22.783806,120.246361,0.99981755
C0D660,新竹市東區,2025-05-08,24.798681,120.986942,1.3378413e-08
82S580,茶改東部分場,2025-05-08,22.907694,121.130139,3.1038264e-06
C0SB40,興隆,2025-05-08,22.913661,121.257469,0.0020929857
467050,新屋,2025-05-08,25.006725,121.047492,1.6570407e-08
C0C710,大溪永福,2025-05-08,24.892936,121.324975,3.0056997e-06
C0FA20,溫寮,2025-05-08,24.372177,120.583125,5.7090406e-06
C0V640,湖內,2025-05-08,22.887139,120.2445,0.9999405
C0R910,下寮,2025-05-08,22.3929,120.5548,0.9995724
C0Z020,明里,2025-05-08,23.208717,121.262342,5.6092784e-07
C0M770,嘉義梅山,2025-05-08,23.585398,120.555587,0.36145115
C0C660,楊梅,2025-05-08,24.912375,121.143047,4.432923e-08
C1E511,新開,2025-05-08,24.347703,120.827019,0.00011936798
G2F820,農試所(霧峰),2025-05-08,24.031261,120.688133,8.13662e-07
C1I070,和社,2025-05-08,23.591131,120.888861,1.9831603e-09
C2F000,大肚,2025-05-08,24.15295,120.572117,2.1526796e-09
C1S850,豐南,2025-05-08,23.122139,121.262389,9.308374e-09
C2A920,富貴角,2025-05-08,25.263783,121.565258,8.420493e-08
CAH030,茶改場竹圍站,2025-05-08,23.860083,120.637528,5.0437894e-09
C0T960,光復,2025-05-08,23.660694,121.424964,1.5280939e-05
C0F9M0,豐原,2025-05-08,24.254322,120.720692,1.2941136e-07
C0R720,旭海,2025-05-08,22.205403,120.887614,0.79454005
C0V710,苓雅,2025-05-08,22.622742,120.330669,0.9997889
C0C740,觀音工業區,2025-05-08,25.064764,121.114856,4.9147786e-08
CAC040,拉拉山,2025-05-08,24.699317,121.427133,6.4123022e-09
C0V790,萬山,2025-05-08,22.905944,120.688056,0.99722564
U2HA30,臺大和社,2025-05-08,23.590856,120.888864,1.9831603e-09
C0AJ90,澳底,2025-05-08,25.0552,121.9253,0.015484846
C0Z100,東華,2025-05-08,23.89525,121.549833,0.0360745
C0G970,三豐,2025-05-08,23.882,120.2895,0.0020683953
V2K610,大庄合作社,2025-05-08,23.8068,120.367939,0.03689821
C0V900,汕尾,2025-05-08,22.4782,120.4151,0.9995532
C1R630,龍泉,2025-05-08,22.66701,120.59091,0.9957318
C1AC50,關渡,2025-05-08,25.133486,121.469331,4.1609717e-08
C0F9I0,神岡,2025-05-08,24.272481,120.658314,0.002346164
C0K460,斗南,2025-05-08,23.678734,120.478359,5.8877202e-08
C2O810,曾文,2025-05-08,23.219681,120.497328,0.00017405937
467280,後龍,2025-05-08,24.648563,120.831834,4.9192053e-08
C1F9J1,清水林,2025-05-08,24.071242,120.820419,3.585097e-10
C2A650,火燒寮,2025-05-08,25.002719,121.742892,3.8161744e-08
466930,竹子湖,2025-05-08,25.162078,121.544547,1.7118423e-09
C1I220,樟湖,2025-05-08,23.905333,120.846983,3.8767542e-10
C0I390,仁愛,2025-05-08,24.022122,121.132206,5.6287147e-10
C0Z300,東里,2025-05-08,23.26853,121.30547,3.3243375e-06
C1V590,新發,2025-05-08,23.057019,120.646064,1.5976535e-05
C0K510,水林,2025-05-08,23.572924,120.24597,0.06681704
72S590,東改賓朗果園,2025-05-08,22.813889,121.071278,2.9714089e-05
82A750,茶改北部分場,2025-05-08,24.955778,121.631222,1.1941745e-09
C1A750,石碇服務區,2025-05-08,25.00872,121.646242,1.8464449e-06
C0X300,鹿寮,2025-05-08,23.386047,120.477331,0.9860065
G2AI50,關渡,2025-05-08,25.11575,121.492,3.726337e-07
C0K590,雲林東勢,2025-05-08,23.674192,120.255721,0.5967674
C0A570,桶後,2025-05-08,24.848222,121.597992,1.426051e-09
C1S800,華源,2025-05-08,22.657883,121.02325,0.07076005
C0G720,溪州,2025-05-08,23.851589,120.499093,2.9739718e-05
C1V160,達卡努瓦,2025-05-08,23.279811,120.705319,3.6534714e-10
C2M410,馬頭山,2025-05-08,23.324361,120.582017,2.1626027e-08
C0V850,蚵仔寮,2025-05-08,22.7256,120.2527,0.9997447
C0S740,池上,2025-05-08,23.119628,121.209469,1.3729127e-05
C1V390,尖山,2025-05-08,22.813153,120.367789,0.9998122
C0AH70,松山,2025-05-08,25.04871,121.55042,2.1069715e-07
C0N010,鯤鯓國小,2025-05-08,23.1879,120.0889,0.99580425
C0R550,新埤,2025-05-08,22.467947,120.582894,0.99962676
C0SA60,知本（水試所）,2025-05-08,22.702394,121.082761,0.55585456
C0T9I0,豐濱,2025-05-08,23.583897,121.514806,2.0640994e-06
C0UB00,淡江大學蘭陽校園,2025-05-08,24.823239,121.730383,1.3211401e-09
C0W240,九宮,2025-05-08,24.423753,118.240186,8.3808196e-08
C0T9N0,富里,2025-05-08,23.171639,121.249378,8.247486e-07
U2HA50,臺大竹山,2025-05-08,23.756972,120.681556,1.8725945e-06
C0V840,鳳鼻頭,2025-05-08,22.5083,120.3591,0.99975
C0X140,西港,2025-05-08,23.125608,120.203108,0.9989226
72D080,桃改五峰分場,2025-05-08,24.612194,121.157167,5.742009e-10
C2H9P0,伊拿谷,2025-05-08,23.963211,121.088264,3.341697e-10
C2H9F0,柑林,2025-05-08,24.018658,120.847072,5.0764593e-09
C0TA20,加灣,2025-05-08,24.082025,121.608944,0.018071968
C0V530,阿蓮,2025-05-08,22.883208,120.327508,0.99983364
C1O880,關山,2025-05-08,23.173397,120.594092,1.1739703e-06
C0E791,卓蘭,2025-05-08,24.3126,120.8244,2.323668e-08
C1I030,武界,2025-05-08,23.913225,121.052483,3.338378e-10
C0R520,崁頂,2025-05-08,22.514781,120.506914,0.9966458
C0R341,牡丹,2025-05-08,22.130036,120.792639,0.8867102
C0R930,萬丹,2025-05-08,22.5885,120.4851,0.9994996
C0S760,紅石,2025-05-08,23.069131,121.126219,9.395867e-09
C2C410,中央大學,2025-05-08,24.967652,121.185165,8.2352436e-08
C1M610,石磐龍,2025-05-08,23.496606,120.663506,4.8978455e-10
C0UA10,鴛鴦湖,2025-05-08,24.590269,121.412228,5.2230282e-09
V2C260,八德蔬果,2025-05-08,24.978508,121.281819,8.2436725e-07
C0R800,丹路,2025-05-08,22.204481,120.750989,0.0027529306
C0G920,永靖,2025-05-08,23.924703,120.547533,6.1073124e-06
C2M950,太和,2025-05-08,23.538372,120.702961,6.801139e-10
C1A630,下盆,2025-05-08,24.771003,121.538622,1.1653507e-09
B2N890,畜產試驗所,2025-05-08,23.058972,120.336406,0.99969995
C0UA30,白嶺,2025-05-08,24.527819,121.519031,3.0511884e-09
C1V580,溪南(特生中心),2025-05-08,23.084972,120.788475,1.1254558e-09
C1T970,大農,2025-05-08,23.615233,121.413331,3.0233778e-07
C0R650,竹田,2025-05-08,22.58486,120.54344,0.99545115
C1H900,清流,2025-05-08,24.080775,120.962997,4.6083104e-10
C1C510,水尾,2025-05-08,24.940081,121.087161,6.575092e-09
C0F9X0,大雅(中科園區),2025-05-08,24.21528,120.62445,0.0001602624
C0SB60,白守蓮,2025-05-08,23.126769,121.401914,0.7431846
C0O970,虎頭埤,2025-05-08,23.021375,120.347878,0.9988694
C0C730,中大臨海站,2025-05-08,24.966126,121.008581,1.8641451e-08
C0X250,新營,2025-05-08,23.310689,120.316681,0.2602348
C0V700,三民,2025-05-08,22.645017,120.311233,0.9997732
C0U870,大礁溪,2025-05-08,24.791042,121.675047,1.1942155e-09
C0E870,高鐵苗栗,2025-05-08,24.60725,120.826094,4.115665e-08
A2K570,古坑花卉中心,2025-05-08,23.63353,120.55239,0.045421805
C0TA30,鹽寮,2025-05-08,23.845606,121.592664,0.12609583
C0M860,新美,2025-05-08,23.338017,120.683169,3.6184983e-10
C1E701,八卦,2025-05-08,24.491756,120.927619,7.598515e-10
C0I420,國姓,2025-05-08,24.037803,120.855072,3.866536e-09
C2D720,關西工作站,2025-05-08,24.757275,121.184792,5.4897697e-08
C0S960,香蘭,2025-05-08,22.587569,120.993375,0.39031267
467620,蘭嶼,2025-05-08,22.0369,121.55843,0.9138945
C0R260,春日,2025-05-08,22.370361,120.628306,0.9996902
72G600,臺中農改場,2025-05-08,24.003028,120.534389,1.1235935e-06
C0Z210,瑞穗,2025-05-08,23.5239,121.39021,6.160423e-07
C0M820,達邦,2025-05-08,23.453994,120.749517,3.730742e-10
C0V860,南寮,2025-05-08,22.7616,120.2339,0.99974453
C0G740,大城,2025-05-08,23.852487,120.320935,0.0016007684
C0R920,塭仔,2025-05-08,22.4169,120.5197,0.9995431
C0R470,高樹,2025-05-08,22.826389,120.600806,0.9997998
C0R680,佳樂水,2025-05-08,21.993578,120.861633,0.17312042
C1O870,大棟山,2025-05-08,23.31157,120.52226,4.6664933e-10
C0D360,梅花,2025-05-08,24.678347,121.208558,7.743669e-10
C0Z190,富世,2025-05-08,24.14743,121.6297,9.840515e-06
C0AI10,屈尺,2025-05-08,24.92184,121.54475,1.1608676e-06
B2U990,畜試東區分所,2025-05-08,24.669039,121.832561,8.4824467e-07
C0SB80,長濱漁港,2025-05-08,23.313644,121.459994,0.000112546724
C0R240,來義,2025-05-08,22.527306,120.625111,0.99852735
C0V910,大樹,2025-05-08,22.684645,120.432803,0.9993067
C1R610,西大武山,2025-05-08,22.617719,120.7322,4.56662e-09
C0G900,線西,2025-05-08,24.143358,120.443536,0.5715396
C0M700,竹崎,2025-05-08,23.526178,120.555508,0.01533577
C2E880,三義,2025-05-08,24.405478,120.749819,4.972115e-08
C0C720,竹圍,2025-05-08,25.112692,121.239824,3.7236373e-07
C0F9P0,清水,2025-05-08,24.312297,120.562242,0.0002200247
C0Z150,吉安光華,2025-05-08,23.930925,121.595153,0.94014084
467300,東吉島,2025-05-08,23.25727,119.66762,0.7008747
C1D640,外坪(五指山),2025-05-08,24.644447,121.090961,4.742322e-10
C0F9O0,潭子,2025-05-08,24.213106,120.703933,4.6885162e-08
C2H9R0,卓社,2025-05-08,23.887894,121.000086,7.94976e-10
72T250,花蓮農改場,2025-05-08,23.975222,121.563889,0.9812201
C0E780,銅鑼,2025-05-08,24.489681,120.790853,2.6320953e-07
C1T950,太安,2025-05-08,23.666719,121.370128,3.2109169e-09
C0E830,苑裡,2025-05-08,24.439714,120.653053,5.0549545e-07
467270,田中,2025-05-08,23.873803,120.581286,9.357112e-05
C0SA10,檳榔四格山,2025-05-08,22.810031,121.109308,9.0545063e-07
C1T830,布洛灣,2025-05-08,24.17184,121.57127,1.6993309e-07
C0F970,大坑,2025-05-08,24.173142,120.722289,1.6618674e-08
C1U920,思源,2025-05-08,24.393125,121.347214,3.697308e-09
C0A931,三和,2025-05-08,25.233153,121.595236,3.0263603e-08
C0I010,廬山,2025-05-08,24.033311,121.181808,1.4500727e-09
C2M940,日野賀,2025-05-08,23.434056,120.727169,4.6296394e-10
C0R860,鼻頭,2025-05-08,22.1043,120.8979,0.9456459
C0UB20,壯圍,2025-05-08,24.7359,121.8163,2.2321322e-08
C0R790,九棚,2025-05-08,22.14195,120.889281,0.9587362
C0W110,東莒,2025-05-08,25.9652,119.98069,1.4994862e-08
C1U930,粉鳥林,2025-05-08,24.497088,121.842479,0.20317587
C1I211,蘆竹湳,2025-05-08,23.934019,120.811994,7.495865e-10
C0S830,長濱,2025-05-08,23.286817,121.411975,6.350353e-08
C1F9F1,伯公龍,2025-05-08,24.272392,120.849047,0.16569963
C0E810,西湖,2025-05-08,24.562947,120.7485,6.7926926e-08
C1I440,新高口,2025-05-08,23.478744,120.878939,3.0119505e-09
C0O840,王爺宮,2025-05-08,23.222064,120.40085,0.055071134
C0T9G0,鳳林山,2025-05-08,23.735269,121.420131,8.910976e-09
C0X080,佳里,2025-05-08,23.173039,120.145086,0.9958016
C0FB70,大甲溪埔,2025-05-08,24.370625,120.620067,2.3477955e-06
C0Z310,清水斷崖,2025-05-08,24.218294,121.689142,2.2578355e-09
C0M680,太保,2025-05-08,23.455062,120.331455,0.025511073
C1S820,金峰,2025-05-08,22.590969,120.933236,0.020590989
C0AD10,八里,2025-05-08,25.150211,121.403947,3.6467333e-07
C2K240,草嶺,2025-05-08,23.59555,120.693461,5.900497e-10
C1SA70,都蘭,2025-05-08,22.87794,121.226881,0.0020789336
C0K440,二崙,2025-05-08,23.772797,120.408944,2.3731862e-05
C1A760,坪林交控,2025-05-08,24.94284,121.713442,1.2952805e-07
C0F9N0,大里,2025-05-08,24.092464,120.701378,5.5493455e-08
C0SA90,達仁林場,2025-05-08,22.264347,120.823972,1.2203612e-05
C1R290,石門山,2025-05-08,22.112611,120.756597,0.9779085
42HA10,萬大發電廠,2025-05-08,23.978875,121.139639,4.2037487e-10
C0R890,山海,2025-05-08,21.9878,120.7091,0.20587356
C0T9A0,月眉山,2025-05-08,23.809928,121.539828,5.034543e-09
C0AC70,信義,2025-05-08,25.037822,121.564597,2.0962747e-07
C0K560,棋山,2025-05-08,23.68645,120.603417,0.014967445
C2FB50,出雲,2025-05-08,24.206469,120.902794,5.062745e-10
C1Z240,中平林道,2025-05-08,23.42115,121.26763,1.2766988e-08
U2H480,溪頭,2025-05-08,23.670306,120.798194,7.121363e-10
C0M880,好美里,2025-05-08,23.3364,120.138,0.7144855
C0T9E0,大坑,2025-05-08,23.880628,121.581981,8.5039344e-09
C0K530,臺西,2025-05-08,23.701547,120.197559,0.99770784
C1E900,國一N128K,2025-05-08,24.560997,120.844186,2.9913158e-06
C0AJ50,水湳洞,2025-05-08,25.123695,121.862238,1.3698582e-06
C0AI20,白沙灣,2025-05-08,25.283128,121.519058,1.2405559e-06
C2V310,美濃,2025-05-08,22.898792,120.51907,0.9998661
C0A860,大坪,2025-05-08,25.165914,121.632969,7.412539e-09
C1U850,觀音海岸,2025-05-08,24.38319,121.77856,1.6886297e-09
C2K610,草嶺石壁,2025-05-08,23.602469,120.707731,6.1175154e-10
C0U950,鶯子嶺,2025-05-08,24.89754,121.79244,1.5409439e-09
C0O900,善化,2025-05-08,23.112883,120.297219,0.99976885
C0K550,蔦松,2025-05-08,23.514319,120.229736,0.9378268
E2P980,林試六龜中心,2025-05-08,22.991703,120.645722,0.044220038
C0E590,通霄,2025-05-08,24.471892,120.704622,6.294328e-08
C1I310,西巒,2025-05-08,23.754486,120.883956,8.1593277e-10
C0A550,泰平,2025-05-08,24.971197,121.823711,1.0068683e-09
C0I360,水里,2025-05-08,23.812553,120.849792,1.3533635e-08
C0R830,高士,2025-05-08,22.121825,120.836781,0.9598198
C1I101,溪頭,2025-05-08,23.661789,120.807647,2.2259918e-09
C0AJ20,野柳,2025-05-08,25.20703,121.690021,8.589903e-07
C0B060,暖暖,2025-05-08,25.0957,121.7403,5.77039e-07
C1H920,長豐,2025-05-08,24.102039,120.879897,4.5065932e-10
C0V360,內門,2025-05-08,22.975481,120.466769,0.9848045
C0R850,林邊,2025-05-08,22.4634,120.5339,0.999583
C0E930,龍鳳,2025-05-08,24.700034,120.859125,1.2044436e-08
C0U910,冬山,2025-05-08,24.63373,121.7937,8.4824467e-07
C1E721,泰安,2025-05-08,24.489017,120.968036,9.0340335e-10
82H320,茶改中部分場,2025-05-08,23.875611,120.913583,4.21893e-10
C0M750,布袋,2025-05-08,23.380878,120.167789,0.9377652
C1S860,利嘉,2025-05-08,22.809417,121.050528,5.245984e-08
E2S980,林試太麻里1,2025-05-08,22.598922,120.980044,0.24217203
C0X170,關廟,2025-05-08,22.963017,120.327797,0.99988925
C0V720,林園,2025-05-08,22.507747,120.394511,0.9996721
C1I510,線浸林道,2025-05-08,23.761508,120.832956,7.24099e-10
C0D690,外湖,2025-05-08,24.917735,120.968711,1.2132397e-08
C0C750,新興坑尾,2025-05-08,25.0061,121.0971,1.2447572e-08
B2Q810,畜試南區分所,2025-05-08,21.945583,120.802167,0.16938087
C0S790,金崙,2025-05-08,22.538122,120.966875,0.005011925
C0AH90,福山植物園,2025-05-08,24.760717,121.58135,2.0037376e-09
C0I540,奇萊稜線,2025-05-08,24.109231,121.326456,8.230042e-09
C0M850,表湖,2025-05-08,23.24186,120.64166,3.8689832e-10
C0S770,大溪山,2025-05-08,22.478475,120.943325,1.1762912e-06
C0AG80,中和,2025-05-08,24.991622,121.491792,6.350837e-07
C0T790,大禹嶺,2025-05-08,24.186117,121.316086,4.5094763e-09
C0T9B0,水源,2025-05-08,23.991861,121.537169,2.0363647e-08
C0R840,牡丹池山,2025-05-08,22.168389,120.841225,0.00014612707
C1I131,桶頭,2025-05-08,23.641944,120.654117,7.551004e-08
CAL110,布袋國中,2025-05-08,23.35893,120.18026,0.19596927
467571,新竹,2025-05-08,24.827853,121.014219,8.046267e-09
C0Z290,赤柯山,2025-05-08,23.36893,121.38293,1.4751973e-08
C0X280,將軍,2025-05-08,23.214999,120.13577,0.97577655
C0S690,太麻里,2025-05-08,22.60902,120.98533,2.9975303e-07
C0U880,北關,2025-05-08,24.9072,121.8734,1.4405183e-06
C0G810,埔心,2025-05-08,23.947633,120.525456,6.0623574e-06
C0U970,大福,2025-05-08,24.80064,121.81389,0.00026028074
C2H9N0,仁愛東眼,2025-05-08,24.026875,121.1205,1.2324437e-09
C1E670,南礦,2025-05-08,24.538278,121.002836,6.966541e-10
C0M520,東後寮,2025-05-08,23.369908,120.248065,0.14090735
C1E461,松安,2025-05-08,24.397972,120.986022,1.089222e-09
C2N160,西拉雅風管處,2025-05-08,23.189481,120.335297,0.998357
C2M970,碧湖,2025-05-08,23.568632,120.624165,5.5205196e-10
C0A640,石碇,2025-05-08,24.993969,121.662917,3.6613795e-07
E2S960,林試太麻里2,2025-05-08,22.598,120.99775,0.4150927
C0F9Y0,桃山,2025-05-08,24.432739,121.303808,1.1425105e-08
C1I020,萬大,2025-05-08,23.979817,121.132261,5.693989e-10
C0U940,羅東,2025-05-08,24.68184,121.74934,1.7693761e-08
C0M650,朴子,2025-05-08,23.43463,120.23902,0.0016499072
C1I500,大尖山,2025-05-08,23.858572,120.994889,2.6632436e-09
C0G820,田尾,2025-05-08,23.901669,120.509389,6.0623574e-06
E2K600,四湖植物園,2025-05-08,23.676986,120.163433,0.9946736
C0S730,綠島,2025-05-08,22.6672,121.47533,0.019480534
12Q970,東港工作站,2025-05-08,22.479997,120.466058,0.9995534
C0E430,南庄,2025-05-08,24.601775,121.000214,2.368535e-06
C1TA00,太魯閣,2025-05-08,24.15773,121.6236,2.3908617e-06
466920,臺北,2025-05-08,25.037658,121.514853,2.1069735e-07
C0R600,舊泰武,2025-05-08,22.588194,120.664944,0.0019042857
C1I260,北坑,2025-05-08,23.9246,121.006903,6.8311445e-10
466910,鞍部,2025-05-08,25.182586,121.529731,1.4744315e-09
C1I230,九份二山,2025-05-08,23.961944,120.845,3.3765896e-10
C2A660,瑞芳,2025-05-08,25.113169,121.801147,1.9845429e-07
C0R270,琉球嶼,2025-05-08,22.332244,120.362236,0.00026005998
C1T990,高寮,2025-05-08,23.394239,121.356808,2.089387e-07
C0G620,芬園,2025-05-08,24.015678,120.6213,5.1599066e-08
C1Z140,荖溪,2025-05-08,23.890575,121.45964,2.1002284e-08
C1I201,中心崙,2025-05-08,23.728722,120.712097,9.793454e-10
C1I400,凌霄,2025-05-08,24.018778,121.004456,1.1930681e-09
C1M640,十字,2025-05-08,23.492153,120.753683,1.0458218e-09
G2P820,農試鳳山分所,2025-05-08,22.646611,120.356083,0.99978745
C0Z270,蕃薯寮,2025-05-08,23.73835,121.540108,3.5906645e-08
C0F9Q0,外埔,2025-05-08,24.347817,120.705686,3.608024e-06
C0K580,高鐵雲林,2025-05-08,23.737456,120.417944,2.3418986e-06
C2I090,鳳凰,2025-05-08,23.728081,120.787347,4.6675613e-10
C0U990,員山,2025-05-08,24.74435,121.72247,1.9367116e-08
C0V770,大社,2025-05-08,22.730306,120.346639,0.99976957
C0X120,麻豆,2025-05-08,23.183289,120.248611,0.975894
C0C670,龍潭,2025-05-08,24.870056,121.221389,8.508708e-08
C0D680,香山濕地,2025-05-08,24.783581,120.914988,2.2646683e-08
C0S980,勝林山,2025-05-08,22.430439,120.8938,9.249245e-09
C0V730,大寮,2025-05-08,22.605614,120.395717,0.999763
C0R570,麟洛,2025-05-08,22.65078,120.52719,0.9978514
C2M930,石卓,2025-05-08,23.478744,120.702264,1.3311032e-09
C0G9B0,和美,2025-05-08,24.105169,120.492131,0.917371
CAG100,王功漁港,2025-05-08,23.96824,120.32586,7.950778e-05
C0X290,北門,2025-05-08,23.267772,120.125481,0.9757604
C2F930,大甲,2025-05-08,24.347667,120.640403,5.337838e-07
C0D650,湖口,2025-05-08,24.904794,121.043628,6.8298194e-09
C0E420,竹南,2025-05-08,24.708978,120.888897,8.6965875e-09
C0U780,五結,2025-05-08,24.68637,121.79794,2.178737e-08
C1I250,鯉潭,2025-05-08,23.961922,120.991131,6.927796e-10
C0R130,阿禮,2025-05-08,22.742908,120.743678,7.34983e-10
C0X100,臺南市北區,2025-05-08,23.010394,120.194228,0.9630531
C0S920,金峰嘉蘭,2025-05-08,22.594789,120.960825,0.2166969
C0V490,新興,2025-05-08,22.627422,120.298803,0.9997888
C0F9K0,大安,2025-05-08,24.345061,120.588025,3.2974704e-06
467290,古坑,2025-05-08,23.633639,120.551889,0.045421805
C2E970,八甲,2025-05-08,24.535811,120.795983,1.8838023e-07
C0V440,鳳山,2025-05-08,22.646653,120.356122,0.99978745
C1T940,大觀,2025-05-08,23.714206,121.373133,7.930848e-09
C0E740,造橋,2025-05-08,24.637056,120.864778,5.7416422e-08
C0R100,尾寮山,2025-05-08,22.833111,120.683889,9.324646e-10
A2K630,臺大雲林校區,2025-05-08,23.730628,120.423903,2.3418986e-06
467990,馬祖,2025-05-08,26.169467,119.923158,3.0483904e-09
C0D580,寶山,2025-05-08,24.735006,121.025192,3.1193788e-06
E2P990,林試扇平站,2025-05-08,22.9677,120.6857,2.7366837e-05
C0AI30,三重,2025-05-08,25.057328,121.500629,2.8310714e-07
C0AH00,汐止,2025-05-08,25.066881,121.658778,2.1069715e-07
C1Z040,立山,2025-05-08,23.443356,121.327375,1.9799336e-08
466881,新北,2025-05-08,24.959207,121.525196,4.4732246e-07
C0W130,花嶼,2025-05-08,23.40007,119.32276,0.980487
C0A950,鼻頭角,2025-05-08,25.129036,121.923372,0.8358766
C0K470,林內,2025-05-08,23.748675,120.609642,6.699711e-05
C2F990,摩天嶺,2025-05-08,24.322458,120.936819,5.12733e-10
82C160,茶改場,2025-05-08,24.908472,121.185333,2.5898471e-08
C0Z320,清水林道,2025-05-08,23.27125,121.188272,5.5285227e-08
C0R760,南仁湖,2025-05-08,22.084681,120.863353,0.977883
C0M670,大林,2025-05-08,23.600616,120.45841,8.9647097e-07
C0M800,茶山,2025-05-08,23.299075,120.664767,5.3537946e-10
C0A9C0,天母,2025-05-08,25.117494,121.537169,1.1771099e-07
72K220,南改斗南分場,2025-05-08,23.634556,120.477333,5.8958e-08
72AI40,桃改樹林分場,2025-05-08,24.944503,121.386972,8.2594845e-08
C0S910,蘭嶼燈塔,2025-05-08,22.081197,121.503117,0.6564878
C0B050,八斗子,2025-05-08,25.144754,121.79167,2.233026e-06
C0U900,內城,2025-05-08,24.71813,121.68766,1.0827476e-08
C0X320,柳營,2025-05-08,23.253328,120.375253,0.96959895
C0M790,新港,2025-05-08,23.553269,120.345728,2.3578441e-05
C0F9T0,西屯,2025-05-08,24.179494,120.641275,2.3385525e-07
C0SA30,都歷,2025-05-08,23.020333,121.323642,1.4914895e-05
C0C620,蘆竹,2025-05-08,25.084275,121.265767,1.7468761e-07
C0R730,大坪頂,2025-05-08,22.024633,120.69355,0.7523197
C0AJ40,石門,2025-05-08,25.273672,121.601198,1.5950161e-07
C0E750,苗栗,2025-05-08,24.564569,120.824575,3.895496e-06
C0T870,鯉魚潭,2025-05-08,23.935639,121.508944,0.06516267
C1V170,排雲,2025-05-08,23.463619,120.954147,9.705817e-09
C2H950,中寮,2025-05-08,23.884447,120.766406,9.54147e-06
C0R350,貓鼻頭,2025-05-08,21.921774,120.7358,0.0058527705
C0V660,岡山,2025-05-08,22.797078,120.294958,0.99981767
C1H941,雙冬,2025-05-08,23.967378,120.802189,6.6066674e-10
C0AJ70,田寮,2025-05-08,25.2698,121.4886,1.3993174e-06
C0AI00,五股,2025-05-08,25.07445,121.42728,3.7603223e-07
C0Z280,德武,2025-05-08,23.47426,121.41071,2.5761903e-08
C0R700,枋山,2025-05-08,22.246844,120.661086,0.9265559
C0C460,復興,2025-05-08,24.820208,121.352281,2.0081654e-08
E2H360,蓮華池,2025-05-08,23.918333,120.885278,5.626965e-10
C0M640,中埔,2025-05-08,23.42538,120.5229,0.10899665
C0W140,金沙,2025-05-08,24.488292,118.408778,9.656204e-08
C2A540,四堵,2025-05-08,24.8926,121.745736,1.5196495e-08
C0ACA0,新莊,2025-05-08,25.051478,121.446756,1.7616604e-07
C0R220,潮州,2025-05-08,22.534361,120.54,0.996962
U2HA40,臺大內茅埔,2025-05-08,23.689722,120.851117,2.2769766e-09
467490,臺中,2025-05-08,24.145736,120.684075,4.1650928e-08
C0U960,翠峰湖,2025-05-08,24.510856,121.608044,5.424485e-09
E2HA20,林試畢祿溪站,2025-05-08,24.226944,121.308522,4.4382253e-09
C0V890,前鎮,2025-05-08,22.5718,120.3117,0.9997821
C1F941,雪嶺,2025-05-08,24.280586,121.026642,9.246034e-09
C2H9E0,國姓南港,2025-05-08,23.911108,120.846556,4.0244413e-10
C0AC80,文山,2025-05-08,25.00235,121.575728,3.191789e-07
C0F9R0,龍井,2025-05-08,24.184536,120.528972,0.04520111
C0M760,民雄,2025-05-08,23.551754,120.428457,1.5345397e-06
C0UA40,西德山,2025-05-08,24.560647,121.752608,2.9575502e-09
C1T920,中興,2025-05-08,23.769503,121.498653,0.0012026953
C0D550,雪霸,2025-05-08,24.526972,121.11605,2.6881177e-09
C2F860,梨山,2025-05-08,24.247522,121.243669,4.6186788e-09
C0R320,車城,2025-05-08,22.0744,120.716247,0.15147446
C1S870,南美山,2025-05-08,23.15025,121.382333,1.0830709e-06
C0B020,基隆嶼,2025-05-08,25.19141,121.78391,0.04273875
C1U501,牛鬥,2025-05-08,24.637836,121.573656,2.1711735e-09
C0M730,嘉義市東區,2025-05-08,23.457673,120.460531,0.97569484
C0S700,知本,2025-05-08,22.684866,121.005642,4.1935184e-08
C1N001,沙崙,2025-05-08,22.935472,120.309406,0.99988174
C0V760,橋頭,2025-05-08,22.757806,120.30575,0.9997577
C0G960,福寶,2025-05-08,24.0443,120.3814,0.93688095
C0X210,白河,2025-05-08,23.347466,120.414427,0.9621076
C0S810,東河,2025-05-08,22.972672,121.303986,0.8495168
C2R170,屏東,2025-05-08,22.66027,120.49403,0.9978488
C0R670,楓港,2025-05-08,22.190131,120.692156,0.28218117
C0FA50,霧峰,2025-05-08,24.0419,120.6995,5.3222635e-07
C0UB10,蘇澳,2025-05-08,24.5969,121.8571,0.0052821585
C0G950,防潮門,2025-05-08,24.1835,120.4871,0.058890972
C0M740,六腳,2025-05-08,23.492871,120.290625,6.275429e-05
C1R250,力里,2025-05-08,22.428117,120.629228,0.9992391
C0K330,虎尾,2025-05-08,23.719183,120.442036,1.9572774e-06
C2FA00,烏石坑,2025-05-08,24.273503,120.947617,5.0897875e-10
C0V620,永安,2025-05-08,22.82315,120.236856,0.99981755
C1I330,楓樹林,2025-05-08,23.986803,121.076117,7.992284e-10
C0W200,湖西,2025-05-08,23.596314,119.67275,0.57548165
72Q010,高雄農改場,2025-05-08,22.709333,120.525889,0.9994549
C0SA40,瑞和,2025-05-08,22.974361,121.156697,2.4591498e-07
C0C680,龜山,2025-05-08,25.02846,121.38656,4.531577e-08
C2V260,月眉,2025-05-08,22.971003,120.539853,0.99827987
C0V450,鳳森,2025-05-08,22.545064,120.392592,0.9996988
C0U720,南山,2025-05-08,24.43742,121.38167,3.5011352e-09
A2N290,臺南蘭花園區,2025-05-08,23.340258,120.379661,6.5023334e-05
C0R560,新園,2025-05-08,22.5434,120.461558,0.9996721
C0U890,三星,2025-05-08,24.66812,121.65302,7.2194393e-09
C1V300,御油山,2025-05-08,23.001983,120.715364,1.0027764e-09
C0U600,礁溪,2025-05-08,24.817539,121.765608,0.0121492585
C1T980,龍澗,2025-05-08,24.023289,121.411328,1.6292734e-08
C0D670,海天一線,2025-05-08,24.831986,120.914438,4.4753135e-09
C0SA00,歷坵,2025-05-08,22.520969,120.89185,2.0986971e-07
C0M710,東石,2025-05-08,23.458927,120.15385,0.98438567
C0M780,鹿草,2025-05-08,23.41134,120.30835,0.00074052037
C0U520,雙連埤,2025-05-08,24.753033,121.641303,1.1998824e-09
C0B010,七堵,2025-05-08,25.094819,121.71713,1.9159527e-06
C0R480,長治,2025-05-08,22.693128,120.542622,0.99937993
C1V830,國三S383K,2025-05-08,22.781967,120.426475,0.9997532
12Q980,恆春工作站,2025-05-08,22.079678,120.714425,0.15147446
C1O940,東山服務區,2025-05-08,23.286016,120.398472,0.9989419
C1U840,東澳嶺,2025-05-08,24.5378,121.8485,2.6778064e-09
C1D630,飛鳳山,2025-05-08,24.766464,121.119178,6.6511507e-09
C0S940,石寧山,2025-05-08,23.223772,121.406639,2.2912296e-05
C0K410,北港,2025-05-08,23.573957,120.292802,0.02086171
C2M620,瑞里,2025-05-08,23.545133,120.675197,5.841127e-10
C0SB70,小港漁港,2025-05-08,23.158558,121.400431,0.007534897
C2O950,安南,2025-05-08,23.076694,120.144861,0.99913687
C0F0E0,南湖圈谷,2025-05-08,24.363714,121.444667,1.7567288e-08
467610,成功,2025-05-08,23.097486,121.373428,0.6175326
C0G890,伸港,2025-05-08,24.148933,120.484403,0.5724632
C2E540,龍溪,2025-05-08,24.606489,120.783933,4.4404715e-08
C1V200,梅山,2025-05-08,23.268447,120.823556,1.0109382e-09
C0T9H0,加路蘭山,2025-05-08,23.682947,121.5274,1.0502079e-08
C2O930,玉井,2025-05-08,23.126042,120.46055,0.9981964
C1F911,新伯公,2025-05-08,24.221361,120.841069,0.29949477
C0R490,九如,2025-05-08,22.7405,120.490503,0.9994245
C0X200,左鎮,2025-05-08,23.056758,120.408522,0.9970812
C0SB50,叭嗡嗡,2025-05-08,23.047062,121.343223,0.00069164764
C1F891,稍來,2025-05-08,24.265689,121.001142,5.6230944e-09
72N240,七股研究中心,2025-05-08,23.081672,120.062894,0.9992973
C0C700,中壢,2025-05-08,24.977661,121.256375,4.9219466e-07
C0M690,水上,2025-05-08,23.419734,120.388909,0.007031408
C0V690,鼓山,2025-05-08,22.623325,120.275575,0.99978876
C0O860,大內,2025-05-08,23.11885,120.36083,0.9997364
C0Z200,萬榮,2025-05-08,23.709219,121.420106,1.8674706e-05
C0T9D0,和中,2025-05-08,24.26676,121.74103,0.0031100463
C1O921,楠西,2025-05-08,23.183511,120.484083,0.9987448
C0AJ30,淡水觀海,2025-05-08,25.184591,121.408616,1.3257404e-07
C0V810,左營,2025-05-08,22.67491,120.28491,0.99977314
C0UA70,桃源谷,2025-05-08,24.962606,121.888875,8.692934e-10
C0X130,官田,2025-05-08,23.193217,120.315422,0.9985561
C1H000,翠峰,2025-05-08,24.109397,121.205211,2.8644354e-09
C0UA90,石城,2025-05-08,24.980444,121.951214,2.2094005e-06
C1E681,南勢山,2025-05-08,24.421669,120.923831,6.143849e-10
C0A9F0,內湖,2025-05-08,25.079422,121.57545,2.1069715e-07
C0K291,宜梧,2025-05-08,23.536281,120.169329,0.93710196
C1K540,口湖,2025-05-08,23.585344,120.180517,0.9907313
C0R780,滿州,2025-05-08,22.024403,120.839892,0.63715243
C0V870,文安,2025-05-08,22.8025,120.2164,0.99980474
C0U650,玉蘭,2025-05-08,24.675286,121.587061,1.1782106e-09
C0R640,東港,2025-05-08,22.46247,120.44074,0.9995534
C0AJ80,板橋,2025-05-08,25.0107,121.4489,6.9388113e-07
C0S660,下馬,2025-05-08,23.150427,121.070312,2.4045688e-08
C1H9B1,阿眉,2025-05-08,24.1263,120.994672,2.937211e-09
C0UA20,多加屯,2025-05-08,24.368614,121.373189,3.9280543e-09
C0E730,頭份,2025-05-08,24.688247,120.912206,9.257169e-09
72V140,高改旗南分場,2025-05-08,22.857861,120.516667,0.99979734
C0K480,莿桐,2025-05-08,23.761192,120.502372,8.083947e-06
C0U980,坪林石牌,2025-05-08,24.86478,121.77396,1.2330079e-09
C0T900,西林,2025-05-08,23.8119,121.441458,3.1931422e-06
C1I150,青雲,2025-05-08,23.793361,120.949378,2.803075e-09
467350,澎湖,2025-05-08,23.565503,119.563094,0.8699698
C0G800,埔鹽,2025-05-08,24.000394,120.431683,0.98350567
C0H960,草屯,2025-05-08,23.973672,120.68085,2.841534e-07
C1V780,多納林道,2025-05-08,22.888028,120.737917,5.396856e-10
C0E920,通霄漁港,2025-05-08,24.498589,120.673876,1.09250415e-07
C0Z330,安通山,2025-05-08,23.290728,121.348528,8.481855e-09
C0AH10,永和,2025-05-08,25.01125,121.508111,7.00052e-07
C0AK10,太平里,2025-05-08,25.134937,121.364899,3.45585e-07
C2G640,鹿港,2025-05-08,24.0753,120.430481,0.93779945
C1E890,國三N149K,2025-05-08,24.463414,120.680019,2.3398017e-07
C1R110,口社,2025-05-08,22.770111,120.645222,0.99941903
C1M870,國三N285K,2025-05-08,23.550319,120.505833,0.7788437
C1E480,鳳美,2025-05-08,24.554803,121.034747,1.1275378e-09
C0M530,奮起湖,2025-05-08,23.493903,120.699253,6.8743294e-10
C0C590,觀音,2025-05-08,25.027072,121.153317,2.722941e-08
C0T9M0,靜浦,2025-05-08,23.455167,121.495028,1.23485e-06
C2H9M0,發祥,2025-05-08,24.154094,121.164517,1.4104293e-09
C0AI40,石牌,2025-05-08,25.115597,121.513139,1.2958537e-07
C1F871,上谷關,2025-05-08,24.203483,121.018644,4.702232e-10
C2H9G0,百勝,2025-05-08,24.051142,120.909361,3.8293238e-10
C0G880,二水,2025-05-08,23.810742,120.6173,8.4309095e-06
C0R940,加祿堂,2025-05-08,22.3363,120.6217,0.9249734
C0W220,北竿,2025-05-08,26.220358,119.974881,3.2282403e-09
C0O960,崎頂,2025-05-08,22.959547,120.369317,0.99990267
C0S750,向陽,2025-05-08,23.248397,120.986133,2.4219529e-09
C0T9F0,水璉,2025-05-08,23.797131,121.542514,7.098696e-08
C1M600,頭凍,2025-05-08,23.406364,120.603339,4.0996073e-10
467660,臺東,2025-05-08,22.752211,121.154586,0.96114486
C1D380,新埔,2025-05-08,24.84745,121.03834,6.4822974e-09
C2G980,田頭村,2025-05-08,23.8263,120.444175,2.3699069e-05
C0V750,路竹,2025-05-08,22.854997,120.259439,0.9999324
C0N050,蚵寮,2025-05-08,23.301,120.1104,0.71448517
72M700,南改鹿草分場,2025-05-08,23.416869,120.283061,0.0016522754
C1SA50,利嘉林道,2025-05-08,22.82325,121.009389,1.5179974e-09
C0A940,金山,2025-05-08,25.223628,121.643967,5.8590524e-07
C1V340,大津,2025-05-08,22.888322,120.645986,0.9998643
C0W180,七美,2025-05-08,23.219333,119.444892,0.975409
C1F9C1,白冷,2025-05-08,24.182844,120.929889,5.5880926e-05
K2E710,苗改生物防治研究中心,2025-05-08,24.422861,120.871833,1.362143e-05
C0N040,蘆竹溝,2025-05-08,23.2344,120.0961,0.97574425
C2W230,畜試所澎湖,2025-05-08,23.628342,119.513206,0.96110517
C0R880,後壁湖,2025-05-08,21.9457,120.7457,0.20746638
C1I280,埔中,2025-05-08,23.820778,120.642594,7.1581625e-09
467790,墾丁雷達站,2025-05-08,21.948235,120.808028,0.18653323
C0W190,望安,2025-05-08,23.380564,119.494075,0.961478
C0Z170,卓溪,2025-05-08,23.3443,121.3029,8.478931e-08
C0F850,東勢,2025-05-08,24.246428,120.833047,3.3181418e-09
466900,淡水,2025-05-08,25.164889,121.448906,3.4544823e-07
C0I370,魚池,2025-05-08,23.895703,120.94135,6.635296e-10
C0C630,大溪,2025-05-08,24.882853,121.265547,2.0295174e-07
C0A520,山佳,2025-05-08,24.974944,121.402008,1.3983833e-07
C0I110,竹山,2025-05-08,23.761225,120.688156,4.9874933e-07
82H840,茶改南部分場,2025-05-08,23.762528,120.7405,4.199031e-09
C0G660,溪湖,2025-05-08,23.94835,120.479122,7.431033e-06
C1T800,洛韶,2025-05-08,24.204558,121.453956,8.785701e-09
C1T810,慈恩,2025-05-08,24.192044,121.388386,1.5927817e-09
C1E451,象鼻,2025-05-08,24.368617,120.940228,1.1773773e-09
C0AC60,三峽,2025-05-08,24.939025,121.369728,7.410351e-07
C0I490,萬大林道,2025-05-08,23.928228,121.091411,1.5564993e-09
C1I290,豐丘,2025-05-08,23.668178,120.887417,7.4684214e-10
C1I320,奧萬大,2025-05-08,23.952956,121.178556,6.755991e-10
C2M910,嘉義大學,2025-05-08,23.471325,120.485903,0.9571639
C0U770,南澳,2025-05-08,24.44935,121.81022,9.279762e-09
C0A980,社子,2025-05-08,25.109508,121.469681,4.5894515e-07
C0V800,六龜,2025-05-08,22.997889,120.633583,0.09974141
C1G9D0,國一S218K,2025-05-08,23.890641,120.493253,3.1828222e-05
C0E570,白沙屯,2025-05-08,24.549447,120.696803,1.0055755e-07
C2F9A0,中竹林,2025-05-08,24.103556,120.751061,1.3701361e-09
C0FA40,臺中電廠,2025-05-08,24.2146,120.4907,0.04520527
C2G9A0,畜試所彰化,2025-05-08,23.86045,120.557964,9.3055016e-05
C0H9C0,合歡山,2025-05-08,24.143442,121.272547,1.05834985e-08
C0X060,下營,2025-05-08,23.22695,120.256261,0.44635004
G2M350,農試溪口農場,2025-05-08,23.58565,120.408111,1.9776462e-06
C0U860,頭城,2025-05-08,24.85323,121.8308,0.0091426885
C0R580,南州,2025-05-08,22.48591,120.50274,0.9995534
C0D430,峨眉,2025-05-08,24.6905,121.017189,5.879074e-07
C0G780,秀水,2025-05-08,24.03405,120.503869,1.1223758e-06
72N100,臺南農改場,2025-05-08,23.0605,120.342194,0.99969995
C0S900,蘭嶼高中,2025-05-08,22.04909,121.51214,0.07750471
C1F9W0,德基,2025-05-08,24.254783,121.190261,3.6560457e-09
C1Z120,壽豐,2025-05-08,23.870853,121.508081,0.0360745
C0W160,烏坵,2025-05-08,24.9944,119.44956,3.8082778e-06
C1I240,外大坪,2025-05-08,23.958697,120.917931,6.683703e-10
C1I550,國六W023K,2025-05-08,23.979067,120.867742,7.430768e-10
C0R870,興海,2025-05-08,21.9752,120.8439,0.16996144
C0R140,瑪家,2025-05-08,22.682903,120.686639,0.0024562788
C0A530,坪林,2025-05-08,24.938183,121.70975,4.508214e-08
C0X260,後壁,2025-05-08,23.366358,120.362326,1.2138716e-05
C0Z230,和平,2025-05-08,24.30717,121.77007,0.006734596
C0G770,福興,2025-05-08,24.041289,120.437669,0.98358
C0H9A0,神木村,2025-05-08,23.532742,120.843667,1.236661e-09
C0I460,南投,2025-05-08,23.911469,120.687331,7.0281874e-07
C0I480,梅峰,2025-05-08,24.085272,121.173572,2.6709304e-09
C1V570,吉東,2025-05-08,22.85422,120.5454,0.9997843
C2D740,屯原,2025-05-08,24.067969,121.209389,2.1572337e-09
C2A560,福山,2025-05-08,24.776203,121.502811,1.8549011e-09
C0AH30,五分山,2025-05-08,25.07125,121.780794,8.3688795e-10
C0FA10,松柏,2025-05-08,24.429115,120.617482,7.2430475e-07
72S200,東改班鳩分場,2025-05-08,22.829528,121.077694,0.0005161562
72HA00,中改埔里分場,2025-05-08,23.903208,120.963364,6.245077e-10
C2H9W0,大坪頂農水,2025-05-08,24.043122,120.932781,4.5279006e-10
C0C650,平鎮,2025-05-08,24.897503,121.214636,4.8057103e-08
C0S930,延平,2025-05-08,22.902581,121.084058,3.0582726e-07
C0UA60,樟樹山,2025-05-08,24.41393,121.78325,6.3975447e-09
C1S670,摩天,2025-05-08,23.199503,121.027,9.994277e-09
C0V630,茄萣,2025-05-08,22.906642,120.182608,0.99993837
466940,基隆,2025-05-08,25.133314,121.740475,2.1099004e-06
C0X050,東河,2025-05-08,23.296598,120.385608,0.99933356
C0R770,保力,2025-05-08,22.071122,120.764111,0.6062111
G2L020,農試嘉義分所,2025-05-08,23.485028,120.473806,0.9294073
C0X240,關子嶺,2025-05-08,23.331169,120.508025,6.340825e-09
C0I380,集集,2025-05-08,23.828206,120.801467,1.4910814e-08
466990,花蓮,2025-05-08,23.975128,121.613275,0.9869909
C1V220,小關山,2025-05-08,23.154217,120.813603,1.6369477e-09
C1F9G1,慶福山,2025-05-08,24.180853,120.848378,3.73087e-10
C0Z250,瑞穗林道,2025-05-08,23.49284,121.30688,1.1518601e-08
C0D590,新豐,2025-05-08,24.87068,120.97721,2.1593538e-09
C0A870,五指山,2025-05-08,25.132153,121.608692,1.5254858e-09
C0UA50,西帽山,2025-05-08,24.555361,121.802628,2.507045e-09
C0X160,仁德,2025-05-08,22.968258,120.257689,0.9998921
C1H971,六分寮,2025-05-08,23.92507,120.6378,1.034981e-09
C0W120,西嶼,2025-05-08,23.5626,119.468436,0.9463922
C0G650,員林,2025-05-08,23.946503,120.585597,1.1639621e-05
C0AD50,鶯歌,2025-05-08,24.951533,121.346294,4.416597e-07
C2H9Q0,北東眼山,2025-05-08,24.120939,121.189303,3.8233927e-09
C2H9T0,名間竹圍,2025-05-08,23.859914,120.637572,5.0447992e-09
C0S990,山豬窟,2025-05-08,22.318619,120.857372,5.586297e-05
C0X190,安平,2025-05-08,22.993161,120.152181,0.96305346
C0K400,斗六,2025-05-08,23.720583,120.541127,6.174451e-07
12J990,口湖工作站,2025-05-08,23.589978,120.180394,0.9907567
C0O830,北寮,2025-05-08,23.079561,120.495008,0.008289164
C1D410,白蘭,2025-05-08,24.579364,121.079947,7.9694357e-10
C0S970,加津林,2025-05-08,22.416211,120.926942,0.83791703
C0D700,關西,2025-05-08,24.7977,121.1732,5.5470597e-08
C0M810,里佳,2025-05-08,23.389125,120.716647,6.666566e-10
C0U750,龜山島,2025-05-08,24.841667,121.953133,1.7508907e-07
C0R810,內獅,2025-05-08,22.305064,120.642986,0.91945267
C1M390,龍美,2025-05-08,23.406728,120.654417,4.701909e-10
C2FB60,頭櫃山,2025-05-08,24.129842,120.858925,7.855794e-10
C1H840,國三N238K,2025-05-08,23.841008,120.707711,7.963696e-09
CAQ030,崎峰國小,2025-05-08,22.42565,120.49521,0.9995534
C2E520,大湖,2025-05-08,24.414939,120.870872,4.565714e-06
467530,阿里山,2025-05-08,23.508208,120.813242,3.9077883e-09
C1E691,南湖,2025-05-08,24.40135,120.837533,7.035229e-10
C0FA30,梧棲,2025-05-08,24.256003,120.523381,0.00021966458
C1V231,高中,2025-05-08,23.134911,120.716711,4.6779536e-10
C0AK30,硬漢嶺,2025-05-08,25.136097,121.426372,1.7770289e-09
C0F9V0,新社,2025-05-08,24.200172,120.815806,0.013865128
C0H890,埔里,2025-05-08,23.972169,120.952425,6.6475203e-10
C0R690,墾丁,2025-05-08,21.966756,120.810269,0.25445482
C0F0D0,審馬陣,2025-05-08,24.381675,121.4203,6.7203683e-09
C2W030,金門農試所,2025-05-08,24.448431,118.451786,1.0603667e-07
C0R820,白鷺,2025-05-08,22.454275,120.666219,4.5821086e-08
C1V190,南天池,2025-05-08,23.27403,120.91176,2.4383287e-09
K2E360,苗栗農改場,2025-05-08,24.495722,120.829111,9.976319e-07
CAJ050,海口故事園區,2025-05-08,23.57543,120.14121,0.990744
C2H9D0,三隻寮,2025-05-08,24.093078,120.861578,4.5827422e-10
C0O990,媽廟,2025-05-08,22.99175,120.293525,0.9998387
C0D480,打鐵坑,2025-05-08,24.849664,121.150789,8.247898e-08
C0Z220,和平林道,2025-05-08,24.343922,121.656317,1.4149184e-09
C0TA10,花蓮漁港,2025-05-08,23.995322,121.638331,0.9888384
72C440,桃園農改場,2025-05-08,24.950944,121.030583,9.328955e-09
C1E711,馬拉邦山,2025-05-08,24.367306,120.901656,9.92346e-10
C0SB20,富岡,2025-05-08,22.792467,121.192669,0.7211199
C0D560,竹東,2025-05-08,24.767147,121.057881,9.7828384e-08
C0F9U0,南屯,2025-05-08,24.137006,120.637969,4.3462873e-07
C0M720,番路,2025-05-08,23.464657,120.554156,0.00016380298
C0F0A0,雪山圈谷,2025-05-08,24.388594,121.236339,1.1435003e-08
C1A9N0,四十份,2025-05-08,24.934158,121.593283,3.1799875e-08
C0U760,東澳,2025-05-08,24.52196,121.83318,0.053026136
C0X230,鹽水,2025-05-08,23.272621,120.247641,0.52732104
C2H9H0,苗改南投蜂場,2025-05-08,23.852589,120.693481,5.5942724e-07
C0R950,萬隆國小,2025-05-08,22.507667,120.587817,0.99772906
467540,大武,2025-05-08,22.35572,120.90374,0.8532521
C0V370,古亭坑,2025-05-08,22.893178,120.401947,0.9998187
C1I340,新興橋,2025-05-08,23.563333,120.868728,9.0898616e-10
C0SA80,土坂,2025-05-08,22.453108,120.887572,0.72974175
C0R160,鹽埔,2025-05-08,22.739558,120.530778,0.9994576
C0AC40,大屯山,2025-05-08,25.175675,121.522408,1.7664818e-09
466850,五分山雷達站,2025-05-08,25.071182,121.781205,8.477645e-10
C2H9L0,馬烈霸,2025-05-08,24.1512,121.201772,3.649246e-09
C1AI50,國三N016K,2025-05-08,25.034164,121.619664,1.1643896e-07
C1V600,藤枝,2025-05-08,23.071961,120.757042,9.092185e-10
C1E601,南勢,2025-05-08,24.572486,120.734842,2.6556515e-08
C0O980,新市,2025-05-08,23.061614,120.298197,0.999769
C0K420,西螺,2025-05-08,23.800407,120.467394,5.636484e-06
C0Z050,佳心,2025-05-08,23.34567,121.21316,1.7989167e-08
C0AD30,蘆洲,2025-05-08,25.086594,121.472331,2.5814788e-07
C0V610,梓官,2025-05-08,22.760558,120.267211,0.9997576
K2F750,種苗改良場,2025-05-08,24.225972,120.800917,0.05622521
C0UA80,大溪漁港,2025-05-08,24.941801,121.902955,1.189709e-05
C1AI60,國一39K邊坡,2025-05-08,25.064361,121.383836,7.087953e-08
C0W150,金寧,2025-05-08,24.457703,118.328989,9.5379555e-08
C0R960,內埔,2025-05-08,22.608483,120.570714,0.99608994
V2C250,八德合作社,2025-05-08,24.93775,121.266389,1.02383545e-07
C2H9S0,龍南,2025-05-08,23.953536,120.833183,3.965042e-10
C0AH40,平等,2025-05-08,25.129142,121.577086,3.9363646e-09
C0R540,佳冬,2025-05-08,22.419456,120.552375,0.9995761
466950,彭佳嶼,2025-05-08,25.627975,122.079744,4.1221123e-05
C0A890,雙溪,2025-05-08,25.036003,121.864242,1.0835215e-05
C0C480,桃園,2025-05-08,24.992425,121.323172,9.649997e-07
C0AH50,林口,2025-05-08,25.072181,121.38084,3.419616e-08
A2K360,水試臺西試驗場,2025-05-08,23.717231,120.190522,0.99766475
C2M960,外寮,2025-05-08,23.562643,120.665688,5.5975174e-10
C0F9S0,烏日,2025-05-08,24.107058,120.624103,7.8124685e-08
C0C490,八德,2025-05-08,24.928708,121.283289,1.0051939e-07
C0R190,赤山,2025-05-08,22.592333,120.614306,0.99646366
C0T820,天祥,2025-05-08,24.179597,121.495639,2.2850264e-08
C1F9E1,龍安,2025-05-08,24.1605,120.831961,1.3866129e-08
C0V820,小林,2025-05-08,23.148408,120.63325,2.7616409e-08
C2G870,芳苑,2025-05-08,23.922303,120.320025,7.2750416e-05
C0E850,大河,2025-05-08,24.618069,120.948578,5.98264e-06
C1U670,寒溪,2025-05-08,24.634,121.71691,1.1218348e-07
C0N020,城西,2025-05-08,23.0568,120.0956,0.9916096
C1Z110,三棧,2025-05-08,24.11557,121.60501,5.805601e-08
C0R280,檳榔,2025-05-08,22.076078,120.836777,0.98721796
C2H9J0,中台,2025-05-08,23.9996,120.938739,5.578758e-10
C0F9L0,后里,2025-05-08,24.310436,120.729725,3.495612e-08
467441,高雄,2025-05-08,22.730432,120.312516,0.9997694
C0Z180,新城,2025-05-08,24.040486,121.604878,0.9855144
C0D540,橫山,2025-05-08,24.71116,121.11693,2.727243e-07
C1D420,太閣南,2025-05-08,24.632808,121.160575,2.0224635e-09
C1E770,公館,2025-05-08,24.526914,120.830806,2.6120929e-06
CAN130,水試所海水繁養殖中心,2025-05-08,23.120802,120.07968,0.99929786
C1I430,翠華,2025-05-08,24.191961,121.224339,2.5684714e-09
C1M400,菜瓜坪,2025-05-08,23.251928,120.576103,1.0208551e-09
C0G730,二林,2025-05-08,23.903325,120.376081,0.5338566
72M360,南改義竹分場,2025-05-08,23.360694,120.279361,0.14131977
V2K620,麥寮合作社,2025-05-08,23.753836,120.294783,0.98903245
C0Z070,舞鶴,2025-05-08,23.46811,121.37407,1.2412815e-08
C0B040,大武崙,2025-05-08,25.166676,121.706993,9.069959e-07
C1Z030,紅葉,2025-05-08,23.493119,121.338806,4.1213443e-08
C1I050,丹大,2025-05-08,23.753747,121.141147,3.888457e-09
C0I080,信義,2025-05-08,23.689694,120.851036,2.2769766e-09
C2M920,朴子農改,2025-05-08,23.469889,120.259383,0.001647569
C2A880,福隆,2025-05-08,25.017842,121.942083,2.375516e-06
C0Z160,鳳林,2025-05-08,23.746114,121.453411,0.00012283823
C0V210,復興,2025-05-08,23.222403,120.806089,1.3167829e-09
C0H990,昆陽,2025-05-08,24.121322,121.273642,6.7472117e-09
C0R741,獅子,2025-05-08,22.202308,120.705236,0.006898306
C0S710,鹿野,2025-05-08,22.917711,121.122994,7.061677e-09
C0I530,小奇萊,2025-05-08,24.131764,121.295717,7.24069e-09
C2K630,荷苞,2025-05-08,23.657717,120.595144,0.000353336
C0Z080,富源,2025-05-08,23.587642,121.378225,5.0615334e-08
C0SB10,美和,2025-05-08,22.682078,121.060236,0.5422796
C2K620,馬光農場,2025-05-08,23.721453,120.378864,3.886023e-06
C1I140,卡奈托灣,2025-05-08,23.754364,121.087872,1.5192371e-09
C0I520,玉山風口,2025-05-08,23.470489,120.955994,1.6927713e-08
C1G691,下水埔,2025-05-08,23.816114,120.5676,3.207542e-06
C0X110,臺南市南區,2025-05-08,22.961189,120.188378,0.9998921
C0V680,仁武,2025-05-08,22.701083,120.347722,0.99977344
C2G840,北斗,2025-05-08,23.877586,120.514222,1.6612436e-05
C0R900,竹坑,2025-05-08,22.1385,120.7022,0.026624324
C0K250,崙背,2025-05-08,23.75555,120.318925,0.9887576
C0G860,社頭,2025-05-08,23.897647,120.5862,0.00013150132
C0X150,安定,2025-05-08,23.102614,120.227839,0.99839866
C0R590,里港,2025-05-08,22.77919,120.49459,0.9996563
C0E610,馬都安,2025-05-08,24.451272,120.930192,6.565502e-10
C0E550,明德,2025-05-08,24.583486,120.885411,2.292506e-06
C0R150,三地門,2025-05-08,22.709889,120.639944,0.999369
C0G910,花壇,2025-05-08,24.032076,120.549461,6.9849017e-07
C1D400,鳥嘴山,2025-05-08,24.71909,121.28387,7.021422e-10
C0K500,元長,2025-05-08,23.64981,120.315024,0.79777056
C0F0B0,石岡,2025-05-08,24.276061,120.777644,1.5676282e-08
C2V250,甲仙,2025-05-08,23.080106,120.591758,1.22263145e-05
C0SA20,金崙山,2025-05-08,22.567419,120.959667,8.822393e-09
C0V350,溪埔,2025-05-08,22.738578,120.446797,0.9995924
C0M660,溪口,2025-05-08,23.604131,120.403569,1.9776462e-06
C1S880,壽卡,2025-05-08,22.238911,120.858903,2.195904e-05
72D680,桃改新埔分場,2025-05-08,24.834444,121.066111,7.012779e-09
