站號,站名,日期,lat,lon,BLBTSLS
C0R710,龍磐,2025-12-10,21.931672,120.838942,0.60528004
C1F9D1,白毛台,2025-12-10,24.158325,120.886933,1.1013449e-09
C0G940,竹塘,2025-12-10,23.848253,120.386764,0.99895895
467590,恆春,2025-12-10,22.003897,120.746339,0.24950013
C1O850,環湖,2025-12-10,23.148617,120.418633,0.0026658955
C0U710,太平山,2025-12-10,24.505486,121.525656,2.085992e-08
C0E820,獅潭,2025-12-10,24.539133,120.920042,0.0017718406
C0V880,興達,2025-12-10,22.8778,120.2127,0.99960953
C0S890,關山,2025-12-10,23.0395,121.175017,4.437557e-09
C0SB30,新蘭,2025-12-10,22.869214,121.223228,2.6207802e-08
C2R970,屏科大,2025-12-10,22.648275,120.619247,0.0057507423
C1Z130,銅門,2025-12-10,23.965694,121.492842,6.0875345e-09
C0AD40,土城,2025-12-10,24.973208,121.445169,0.99844867
CAN140,六官養殖協會,2025-12-10,23.22881,120.29962,0.99682546
C0X180,山上,2025-12-10,23.0757,120.363253,0.9803955
C0F9Z0,雪山東峰,2025-12-10,24.388792,121.268675,2.1234133e-08
C1M480,獨立山,2025-12-10,23.537022,120.607797,7.6175244e-10
C0X220,學甲,2025-12-10,23.230367,120.182187,0.99963665
467650,日月潭,2025-12-10,23.881325,120.90805,1.1673283e-09
C0K600,箔子寮,2025-12-10,23.6197,120.14,0.99997145
C0G830,埤頭,2025-12-10,23.866003,120.452806,0.6917141
C0S950,七塊厝,2025-12-10,22.954453,121.229922,2.8194238e-09
467110,金門,2025-12-10,24.407306,118.289281,0.0068753785
C0AH80,深坑,2025-12-10,25.002703,121.628328,0.9978135
C0A970,三貂角,2025-12-10,25.007606,122.002058,5.8061653e-07
C2D730,寶山農場,2025-12-10,24.732444,120.976153,0.7176882
C0K430,褒忠,2025-12-10,23.690938,120.303634,0.99969065
467480,嘉義,2025-12-10,23.495925,120.432906,0.99828225
C0V400,阿公店,2025-12-10,22.804194,120.355528,0.9949384
C0E960,觀霧分站,2025-12-10,24.505781,121.113921,7.2125985e-09
467550,玉山,2025-12-10,23.48718,120.95943,2.754334e-08
C0R440,大漢山,2025-12-10,22.405264,120.753181,1.9451521e-08
C0SD30,東清國小,2025-12-10,22.057128,121.564922,0.9573703
C1F9B1,桐林,2025-12-10,24.066172,120.735194,0.9770461
C2H9U0,鳳鵬,2025-12-10,23.763919,120.788061,5.137896e-09
C0K390,土庫,2025-12-10,23.679029,120.395574,0.9663901
C1I450,望鄉山,2025-12-10,23.594153,120.944286,1.4573824e-08
C0E910,海埔,2025-12-10,24.648767,120.772435,0.9856795
B2E890,畜試北區分所,2025-12-10,24.527806,120.770972,0.0045912047
C0R750,四林格山,2025-12-10,22.076989,120.802439,0.99968743
C0F0C0,中坑,2025-12-10,24.248517,120.903319,1.8405049e-09
C1I121,大鞍,2025-12-10,23.678381,120.760017,3.1620107e-09
72U480,花改蘭陽分場,2025-12-10,24.686306,121.716583,1.7834882e-08
C0A770,科教館,2025-12-10,25.096356,121.516507,0.99841607
C0AJ60,六塊厝,2025-12-10,25.24,121.4481,0.9983275
C0R620,墾雷,2025-12-10,21.900836,120.855269,0.9625371
467420,永康,2025-12-10,23.038386,120.2367,0.99922085
C0I410,名間,2025-12-10,23.837053,120.701447,4.3633273e-07
A2C560,農工中心,2025-12-10,24.985917,121.239833,0.9817328
C0V740,旗山,2025-12-10,22.888614,120.483597,0.9844665
C0Z061,玉里,2025-12-10,23.3215,121.339656,7.1152026e-09
C0S840,南田,2025-12-10,22.279725,120.889208,0.96849227
C1I470,杉林溪,2025-12-10,23.639517,120.786444,4.0382995e-09
C1X040,東原,2025-12-10,23.291597,120.463822,9.0953073e-10
C0R660,枋寮,2025-12-10,22.367722,120.590647,0.9990884
C1R120,上德文,2025-12-10,22.763272,120.704442,1.1201982e-09
C0K450,大埤,2025-12-10,23.646074,120.431537,0.977143
C0UA00,土場,2025-12-10,24.576533,121.495333,9.349423e-09
467080,宜蘭,2025-12-10,24.763975,121.756528,1.3041615e-07
C0N030,四草,2025-12-10,23.0235,120.1116,0.9996383
467410,臺南,2025-12-10,22.99328,120.20492,0.9995806
C0V650,彌陀,2025-12-10,22.783806,120.246361,0.999907
C0D660,新竹市東區,2025-12-10,24.798681,120.986942,0.9318276
82S580,茶改東部分場,2025-12-10,22.907694,121.130139,7.105601e-09
C0SB40,興隆,2025-12-10,22.913661,121.257469,2.0217627e-08
467050,新屋,2025-12-10,25.006725,121.047492,0.9979924
C0C710,大溪永福,2025-12-10,24.892936,121.324975,0.96315265
C0FA20,溫寮,2025-12-10,24.372177,120.583125,0.9998509
C0V640,湖內,2025-12-10,22.887139,120.2445,0.9995633
C0R910,下寮,2025-12-10,22.3929,120.5548,0.99908864
C0Z020,明里,2025-12-10,23.208717,121.262342,9.806562e-09
C0M770,嘉義梅山,2025-12-10,23.585398,120.555587,0.22374901
C0C660,楊梅,2025-12-10,24.912375,121.143047,0.96961856
C0SD40,牛頭山,2025-12-10,22.676661,121.506944,0.90976423
C1E511,新開,2025-12-10,24.347703,120.827019,2.6533769e-09
G2F820,農試所(霧峰),2025-12-10,24.031261,120.688133,0.96652293
C2M990,大巃頂,2025-12-10,23.5547,120.61439,1.264583e-09
C1I070,和社,2025-12-10,23.591131,120.888861,1.670138e-09
C2E990,新坪頂,2025-12-10,24.30201,120.8574,1.0078909e-08
C0TA80,立霧山,2025-12-10,24.183258,121.641899,1.9089017e-08
C2F000,大肚,2025-12-10,24.15295,120.572117,7.212726e-08
C1S850,豐南,2025-12-10,23.122139,121.262389,4.6353588e-09
C2A920,富貴角,2025-12-10,25.263783,121.565258,0.9975684
CAH030,茶改場竹圍站,2025-12-10,23.860083,120.637528,7.822391e-10
C0T960,光復,2025-12-10,23.660694,121.424964,2.06633e-09
C0F9M0,豐原,2025-12-10,24.254322,120.720692,1.229012e-05
C0R720,旭海,2025-12-10,22.205403,120.887614,0.99932057
C0V710,苓雅,2025-12-10,22.622742,120.330669,0.9997467
C0C740,觀音工業區,2025-12-10,25.064764,121.114856,0.99874514
CAC040,拉拉山,2025-12-10,24.699317,121.427133,1.8434077e-08
C0V790,萬山,2025-12-10,22.905944,120.688056,1.0074696e-09
U2HA30,臺大和社,2025-12-10,23.590856,120.888864,1.670138e-09
C2H9K0,屯原,2025-12-10,24.067969,121.209389,4.9014646e-09
C0AJ90,澳底,2025-12-10,25.0552,121.9253,0.07934215
C0Z100,東華,2025-12-10,23.89525,121.549833,5.72291e-09
C0G970,三豐,2025-12-10,23.882,120.2895,0.9926564
V2K610,大庄合作社,2025-12-10,23.8068,120.367939,0.99975914
C0V900,汕尾,2025-12-10,22.4782,120.4151,0.99282205
C1R630,龍泉,2025-12-10,22.66701,120.59091,0.17106412
C1AC50,關渡,2025-12-10,25.133486,121.469331,0.9853241
C0C800,四稜,2025-12-10,24.64733,121.4293,1.9682611e-08
C0F9I0,神岡,2025-12-10,24.272481,120.658314,1.7414596e-06
C0K460,斗南,2025-12-10,23.678734,120.478359,0.96827334
C2O810,曾文,2025-12-10,23.219681,120.497328,3.25754e-09
467280,後龍,2025-12-10,24.648563,120.831834,0.9536233
C1F9J1,清水林,2025-12-10,24.071242,120.820419,6.643198e-10
C2A650,火燒寮,2025-12-10,25.002719,121.742892,1.0086047e-07
466930,竹子湖,2025-12-10,25.162078,121.544547,2.3622512e-08
C1I220,樟湖,2025-12-10,23.905333,120.846983,1.2148648e-09
C0I390,仁愛,2025-12-10,24.022122,121.132206,1.1319207e-09
C0Z300,東里,2025-12-10,23.26853,121.30547,1.1123847e-08
C1V590,新發,2025-12-10,23.057019,120.646064,1.1182086e-09
C0K510,水林,2025-12-10,23.572924,120.24597,0.9987444
72S590,東改賓朗果園,2025-12-10,22.813889,121.071278,9.625327e-09
82A750,茶改北部分場,2025-12-10,24.955778,121.631222,3.8198227e-08
C1A750,石碇服務區,2025-12-10,25.00872,121.646242,0.99670804
C0X300,鹿寮,2025-12-10,23.386047,120.477331,0.02834628
G2AI50,關渡,2025-12-10,25.11575,121.492,0.99841714
C0K590,雲林東勢,2025-12-10,23.674192,120.255721,0.9997534
C0A570,桶後,2025-12-10,24.848222,121.597992,6.0423733e-09
C1S800,華源,2025-12-10,22.657883,121.02325,4.670175e-08
C0G720,溪州,2025-12-10,23.851589,120.499093,0.62239516
C1V160,達卡努瓦,2025-12-10,23.279811,120.705319,2.3575508e-09
C2M410,馬頭山,2025-12-10,23.324361,120.582017,6.419801e-10
C0V850,蚵仔寮,2025-12-10,22.7256,120.2527,0.99990535
C0S740,池上,2025-12-10,23.119628,121.209469,1.8628405e-08
C1V390,尖山,2025-12-10,22.813153,120.367789,0.98039484
C0AH70,松山,2025-12-10,25.04871,121.55042,0.9981401
C0N010,鯤鯓國小,2025-12-10,23.1879,120.0889,0.9997871
C0R550,新埤,2025-12-10,22.467947,120.582894,0.9867073
C0SA60,知本（水試所）,2025-12-10,22.702394,121.082761,1.5769028e-07
C0T9I0,豐濱,2025-12-10,23.583897,121.514806,2.3344306e-09
C0UB00,淡江大學蘭陽校園,2025-12-10,24.823239,121.730383,6.971383e-09
C0W240,九宮,2025-12-10,24.423753,118.240186,0.0076173022
C0T9N0,富里,2025-12-10,23.171639,121.249378,1.3458803e-08
U2HA50,臺大竹山,2025-12-10,23.756972,120.681556,0.0001866987
C0V840,鳳鼻頭,2025-12-10,22.5083,120.3591,0.83333635
C0X140,西港,2025-12-10,23.125608,120.203108,0.9986842
72D080,桃改五峰分場,2025-12-10,24.612194,121.157167,2.2777846e-09
C2H9P0,伊拿谷,2025-12-10,23.963211,121.088264,9.0403424e-10
C2K250,崙背,2025-12-10,23.75553,120.31893,0.99969095
C2H9F0,柑林,2025-12-10,24.018658,120.847072,1.1587192e-09
C0TA20,加灣,2025-12-10,24.082025,121.608944,9.5985996e-08
C0V530,阿蓮,2025-12-10,22.883208,120.327508,0.99723065
C0FB30,八仙山苗圃,2025-12-10,24.192719,121.001366,1.770479e-09
C1O880,關山,2025-12-10,23.173397,120.594092,6.938428e-10
C0E791,卓蘭,2025-12-10,24.3126,120.8244,4.1024335e-09
C1I030,武界,2025-12-10,23.913225,121.052483,9.340845e-10
C0R520,崁頂,2025-12-10,22.514781,120.506914,0.9682203
C0R341,牡丹,2025-12-10,22.130036,120.792639,0.99913204
C0R930,萬丹,2025-12-10,22.5885,120.4851,0.69357705
C0S760,紅石,2025-12-10,23.069131,121.126219,2.3997075e-08
C2C410,中央大學,2025-12-10,24.967652,121.185165,0.9796665
C1M610,石磐龍,2025-12-10,23.496606,120.663506,1.5400801e-09
C0C790,東眼山,2025-12-10,24.8284,121.40888,1.8581316e-08
C0UA10,鴛鴦湖,2025-12-10,24.590269,121.412228,1.1841748e-08
V2C260,八德蔬果,2025-12-10,24.978508,121.281819,0.97574466
C0R800,丹路,2025-12-10,22.204481,120.750989,0.98575646
C0G920,永靖,2025-12-10,23.924703,120.547533,0.96849823
C2M950,太和,2025-12-10,23.538372,120.702961,2.1820923e-09
C1A630,下盆,2025-12-10,24.771003,121.538622,9.311836e-09
B2N890,畜產試驗所,2025-12-10,23.058972,120.336406,0.99695355
C0UA30,白嶺,2025-12-10,24.527819,121.519031,1.5703545e-08
C1V580,溪南(特生中心),2025-12-10,23.084972,120.788475,4.1978376e-09
C1T970,大農,2025-12-10,23.615233,121.413331,2.3229136e-09
C0R650,竹田,2025-12-10,22.58486,120.54344,0.9910587
C1H900,清流,2025-12-10,24.080775,120.962997,1.1215451e-09
C1C510,水尾,2025-12-10,24.940081,121.087161,0.9956901
C2N170,茅港尾,2025-12-10,23.2061,120.2624,0.9970594
C0F9X0,大雅(中科園區),2025-12-10,24.21528,120.62445,0.1740826
C0SB60,白守蓮,2025-12-10,23.126769,121.401914,1.7130261e-06
C0O970,虎頭埤,2025-12-10,23.021375,120.347878,0.96045655
C0C730,中大臨海站,2025-12-10,24.966126,121.008581,0.9981791
C0X250,新營,2025-12-10,23.310689,120.316681,0.99739176
C0V700,三民,2025-12-10,22.645017,120.311233,0.9999142
C0U870,大礁溪,2025-12-10,24.791042,121.675047,7.604434e-09
C0E870,高鐵苗栗,2025-12-10,24.60725,120.826094,0.9967878
A2K570,古坑花卉中心,2025-12-10,23.63353,120.55239,0.11601443
C0TA30,鹽寮,2025-12-10,23.845606,121.592664,5.8249197e-09
C0M860,新美,2025-12-10,23.338017,120.683169,9.119418e-10
C1E701,八卦,2025-12-10,24.491756,120.927619,4.1284074e-09
C2TA90,加納納,2025-12-10,23.466421,121.359867,3.2632363e-09
C0I420,國姓,2025-12-10,24.037803,120.855072,1.0198801e-09
C2D720,關西工作站,2025-12-10,24.757275,121.184792,0.7046446
C0S960,香蘭,2025-12-10,22.587569,120.993375,1.1553482e-05
467620,蘭嶼,2025-12-10,22.0369,121.55843,0.20923029
C0R260,春日,2025-12-10,22.370361,120.628306,0.99841464
72G600,臺中農改場,2025-12-10,24.003028,120.534389,0.97310543
C0Z210,瑞穗,2025-12-10,23.5239,121.39021,2.9945082e-09
C0M820,達邦,2025-12-10,23.453994,120.749517,1.377678e-09
C0V860,南寮,2025-12-10,22.7616,120.2339,0.99990535
C0G740,大城,2025-12-10,23.852487,120.320935,0.9914006
C0R920,塭仔,2025-12-10,22.4169,120.5197,0.99917024
C0R470,高樹,2025-12-10,22.826389,120.600806,0.00019453675
C0R680,佳樂水,2025-12-10,21.993578,120.861633,0.13359456
C1O870,大棟山,2025-12-10,23.31157,120.52226,2.8060976e-09
C0D360,梅花,2025-12-10,24.678347,121.208558,6.2203886e-09
C0Z190,富世,2025-12-10,24.14743,121.6297,3.5700612e-08
C0AI10,屈尺,2025-12-10,24.92184,121.54475,0.98557836
B2U990,畜試東區分所,2025-12-10,24.669039,121.832561,4.1122887e-09
C0SB80,長濱漁港,2025-12-10,23.313644,121.459994,1.0700801e-08
C0TA50,和仁,2025-12-10,24.241394,121.712472,6.197308e-09
C0V910,大樹,2025-12-10,22.684645,120.432803,0.6265014
C1R610,西大武山,2025-12-10,22.617719,120.7322,2.2356133e-08
C0G900,線西,2025-12-10,24.143358,120.443536,0.9999648
C0M700,竹崎,2025-12-10,23.526178,120.555508,0.14649063
C2E880,三義,2025-12-10,24.405478,120.749819,1.3960488e-09
C0C720,竹圍,2025-12-10,25.112692,121.239824,0.9984285
C0F9P0,清水,2025-12-10,24.312297,120.562242,0.99982965
C0Z150,吉安光華,2025-12-10,23.930925,121.595153,7.52772e-09
C0FA80,小雪山天池,2025-12-10,24.28025,121.02627,1.7255262e-08
467300,東吉島,2025-12-10,23.25727,119.66762,0.9693332
C1D640,外坪(五指山),2025-12-10,24.644447,121.090961,3.4600685e-09
C0F9O0,潭子,2025-12-10,24.213106,120.703933,0.0097275525
C2H9R0,卓社,2025-12-10,23.887894,121.000086,1.4939386e-09
72T250,花蓮農改場,2025-12-10,23.975222,121.563889,1.1710263e-08
C0E780,銅鑼,2025-12-10,24.489681,120.790853,2.2412985e-05
C1T950,太安,2025-12-10,23.666719,121.370128,9.3883425e-09
C0E830,苑裡,2025-12-10,24.439714,120.653053,0.9999101
467270,田中,2025-12-10,23.873803,120.581286,0.45647907
C0SA10,檳榔四格山,2025-12-10,22.810031,121.109308,6.9520762e-09
C1T830,布洛灣,2025-12-10,24.17184,121.57127,2.8195867e-08
C0F970,大坑,2025-12-10,24.173142,120.722289,0.7710051
C1U920,思源,2025-12-10,24.393125,121.347214,1.0856447e-08
C2H9Y0,松茗,2025-12-10,23.8167,120.650765,1.3282703e-09
C0A931,三和,2025-12-10,25.233153,121.595236,0.94430333
C0I010,廬山,2025-12-10,24.033311,121.181808,2.3747093e-09
C2M940,日野賀,2025-12-10,23.434056,120.727169,1.7711342e-09
C0R860,鼻頭,2025-12-10,22.1043,120.8979,0.92668176
C0UB20,壯圍,2025-12-10,24.7359,121.8163,2.0496016e-08
C0R790,九棚,2025-12-10,22.14195,120.889281,0.9994939
C0W110,東莒,2025-12-10,25.9652,119.98069,0.4806459
C1U930,粉鳥林,2025-12-10,24.497088,121.842479,6.7054904e-09
C1I211,蘆竹湳,2025-12-10,23.934019,120.811994,7.0987155e-10
C0S830,長濱,2025-12-10,23.286817,121.411975,6.165851e-09
C1F9F1,伯公龍,2025-12-10,24.272392,120.849047,2.2757794e-08
C0UB90,太平山莊,2025-12-10,24.494171,121.536209,2.1054747e-08
C0E810,西湖,2025-12-10,24.562947,120.7485,0.99745506
C1I440,新高口,2025-12-10,23.478744,120.878939,9.935642e-09
C0O840,王爺宮,2025-12-10,23.222064,120.40085,2.6270513e-08
C0T9G0,鳳林山,2025-12-10,23.735269,121.420131,6.3440915e-09
C0X080,佳里,2025-12-10,23.173039,120.145086,0.9997872
C0FB70,大甲溪埔,2025-12-10,24.370625,120.620067,0.9997146
C0Z310,清水斷崖,2025-12-10,24.218294,121.689142,5.905848e-09
C0M680,太保,2025-12-10,23.455062,120.331455,0.9971174
C1S820,金峰,2025-12-10,22.590969,120.933236,1.8785386e-07
C0AD10,八里,2025-12-10,25.150211,121.403947,0.99842536
C2K240,草嶺,2025-12-10,23.59555,120.693461,1.4342864e-09
C1SA70,都蘭,2025-12-10,22.87794,121.226881,2.0167057e-08
C0K440,二崙,2025-12-10,23.772797,120.408944,0.56706244
C1A760,坪林交控,2025-12-10,24.94284,121.713442,6.9118066e-08
C0F9N0,大里,2025-12-10,24.092464,120.701378,0.0028432165
C0SA90,達仁林場,2025-12-10,22.264347,120.823972,0.0073390324
C1R290,石門山,2025-12-10,22.112611,120.756597,0.99991524
42HA10,萬大發電廠,2025-12-10,23.978875,121.139639,1.241314e-09
C0R890,山海,2025-12-10,21.9878,120.7091,0.23482154
C0T9A0,月眉山,2025-12-10,23.809928,121.539828,5.620843e-09
C0AC70,信義,2025-12-10,25.037822,121.564597,0.99822354
C0K560,棋山,2025-12-10,23.68645,120.603417,0.037883405
C2FB50,出雲,2025-12-10,24.206469,120.902794,1.4560814e-09
C1Z240,中平林道,2025-12-10,23.42115,121.26763,1.8076152e-08
U2H480,溪頭,2025-12-10,23.670306,120.798194,1.4517525e-09
C0M880,好美里,2025-12-10,23.3364,120.138,0.99957323
C0T9E0,大坑,2025-12-10,23.880628,121.581981,5.3134714e-09
C0K530,臺西,2025-12-10,23.701547,120.197559,0.9999781
C1E900,國一N128K,2025-12-10,24.560997,120.844186,0.1620804
C0AJ50,水湳洞,2025-12-10,25.123695,121.862238,0.9951744
C0AI20,白沙灣,2025-12-10,25.283128,121.519058,0.9983647
C2V310,美濃,2025-12-10,22.898792,120.51907,0.9905421
C0A860,大坪,2025-12-10,25.165914,121.632969,6.0436555e-08
C1U850,觀音海岸,2025-12-10,24.38319,121.77856,5.16017e-09
C2K610,草嶺石壁,2025-12-10,23.602469,120.707731,1.4804056e-09
C0U950,鶯子嶺,2025-12-10,24.89754,121.79244,1.450469e-08
C0O900,善化,2025-12-10,23.112883,120.297219,0.9983016
C0K550,蔦松,2025-12-10,23.514319,120.229736,0.9996827
E2P980,林試六龜中心,2025-12-10,22.991703,120.645722,9.2056096e-10
C0E590,通霄,2025-12-10,24.471892,120.704622,0.99083704
C1I310,西巒,2025-12-10,23.754486,120.883956,1.286471e-09
C0A550,泰平,2025-12-10,24.971197,121.823711,2.9506381e-08
C0I360,水里,2025-12-10,23.812553,120.849792,4.590811e-09
C0R830,高士,2025-12-10,22.121825,120.836781,0.9999593
C1I101,溪頭,2025-12-10,23.661789,120.807647,4.83394e-09
C0AJ20,野柳,2025-12-10,25.20703,121.690021,0.99238825
C0B060,暖暖,2025-12-10,25.0957,121.7403,0.991928
C1H920,長豐,2025-12-10,24.102039,120.879897,9.359606e-10
C0V360,內門,2025-12-10,22.975481,120.466769,5.447128e-06
C0R850,林邊,2025-12-10,22.4634,120.5339,0.99093837
C0E930,龍鳳,2025-12-10,24.700034,120.859125,0.99693185
C0U910,冬山,2025-12-10,24.63373,121.7937,4.1122887e-09
C1E721,泰安,2025-12-10,24.489017,120.968036,3.2778333e-09
82H320,茶改中部分場,2025-12-10,23.875611,120.913583,1.0351291e-09
C0M750,布袋,2025-12-10,23.380878,120.167789,0.9994232
C1S860,利嘉,2025-12-10,22.809417,121.050528,8.357207e-09
E2S980,林試太麻里1,2025-12-10,22.598922,120.980044,1.0757631e-06
C0X170,關廟,2025-12-10,22.963017,120.327797,0.98265886
C0V720,林園,2025-12-10,22.507747,120.394511,0.5606804
C1I510,線浸林道,2025-12-10,23.761508,120.832956,1.5704824e-09
C0D690,外湖,2025-12-10,24.917735,120.968711,0.99818075
C0C750,新興坑尾,2025-12-10,25.0061,121.0971,0.99739945
B2Q810,畜試南區分所,2025-12-10,21.945583,120.802167,0.1372305
C0S790,金崙,2025-12-10,22.538122,120.966875,1.6857673e-07
C0AH90,福山植物園,2025-12-10,24.760717,121.58135,1.35581795e-08
C0I540,奇萊稜線,2025-12-10,24.109231,121.326456,1.7844954e-08
C0M850,表湖,2025-12-10,23.24186,120.64166,9.0095986e-10
C0S770,大溪山,2025-12-10,22.478475,120.943325,1.2194927e-07
C0AG80,中和,2025-12-10,24.991622,121.491792,0.99844563
C0T790,大禹嶺,2025-12-10,24.186117,121.316086,1.203206e-08
C0T9B0,水源,2025-12-10,23.991861,121.537169,7.95656e-09
C0R840,牡丹池山,2025-12-10,22.168389,120.841225,0.9502052
C1I131,桶頭,2025-12-10,23.641944,120.654117,1.1194341e-08
CAL110,布袋國中,2025-12-10,23.35893,120.18026,0.99931395
467571,新竹,2025-12-10,24.827853,121.014219,0.9937675
C0Z290,赤柯山,2025-12-10,23.36893,121.38293,1.2398263e-08
C0X280,將軍,2025-12-10,23.214999,120.13577,0.9996795
C0S690,太麻里,2025-12-10,22.60902,120.98533,3.5349355e-08
C0U880,北關,2025-12-10,24.9072,121.8734,0.4609437
CAW010,東引,2025-12-10,26.3588,120.4836,0.9966146
C0G810,埔心,2025-12-10,23.947633,120.525456,0.96883357
C0U970,大福,2025-12-10,24.80064,121.81389,1.6422172e-07
C2H9N0,仁愛東眼,2025-12-10,24.026875,121.1205,1.960026e-09
C1E670,南礦,2025-12-10,24.538278,121.002836,2.5696278e-09
C0M520,東後寮,2025-12-10,23.369908,120.248065,0.99917144
C1E461,松安,2025-12-10,24.397972,120.986022,2.8271405e-09
C2N160,西拉雅風管處,2025-12-10,23.189481,120.335297,0.98856556
C2M970,碧湖,2025-12-10,23.568632,120.624165,1.2569792e-09
C0A640,石碇,2025-12-10,24.993969,121.662917,5.7948646e-06
E2S960,林試太麻里2,2025-12-10,22.598,120.99775,2.1726015e-05
C0F9Y0,桃山,2025-12-10,24.432739,121.303808,2.056474e-08
C1I020,萬大,2025-12-10,23.979817,121.132261,1.1485294e-09
C2UC20,長嶺,2025-12-10,24.70894,121.61162,7.847591e-09
C0U940,羅東,2025-12-10,24.68184,121.74934,1.8739593e-08
C0M650,朴子,2025-12-10,23.43463,120.23902,0.9984736
C1I500,大尖山,2025-12-10,23.858572,120.994889,5.600339e-09
C0FB40,中橫21.6k,2025-12-10,24.2499,121.1455,4.875925e-09
C0G820,田尾,2025-12-10,23.901669,120.509389,0.9686908
E2K600,四湖植物園,2025-12-10,23.676986,120.163433,0.99997264
C0S730,綠島,2025-12-10,22.6672,121.47533,0.97589684
12Q970,東港工作站,2025-12-10,22.479997,120.466058,0.99277854
C0E430,南庄,2025-12-10,24.601775,121.000214,0.001368785
C1TA00,太魯閣,2025-12-10,24.15773,121.6236,3.1742246e-08
466920,臺北,2025-12-10,25.037658,121.514853,0.9981401
C0R600,舊泰武,2025-12-10,22.588194,120.664944,9.593943e-10
C1I260,北坑,2025-12-10,23.9246,121.006903,7.1461e-10
466910,鞍部,2025-12-10,25.182586,121.529731,3.360614e-08
C1I230,九份二山,2025-12-10,23.961944,120.845,8.6979596e-10
C2A660,瑞芳,2025-12-10,25.113169,121.801147,0.98980916
C0R270,琉球嶼,2025-12-10,22.332244,120.362236,0.0020550096
C1T990,高寮,2025-12-10,23.394239,121.356808,3.466033e-09
C0G620,芬園,2025-12-10,24.015678,120.6213,0.39118117
C1Z140,荖溪,2025-12-10,23.890575,121.45964,2.3320641e-08
C1I201,中心崙,2025-12-10,23.728722,120.712097,1.1749164e-09
C1I400,凌霄,2025-12-10,24.018778,121.004456,1.875657e-09
C1M640,十字,2025-12-10,23.492153,120.753683,3.2507932e-09
G2P820,農試鳳山分所,2025-12-10,22.646611,120.356083,0.9999011
C0Z270,蕃薯寮,2025-12-10,23.73835,121.540108,5.493412e-09
C0FB10,出雲山苗圃,2025-12-10,24.23105,120.90475,1.8406557e-09
C0F9Q0,外埔,2025-12-10,24.347817,120.705686,5.649112e-07
C0K580,高鐵雲林,2025-12-10,23.737456,120.417944,0.8024046
C2I090,鳳凰,2025-12-10,23.728081,120.787347,8.1849527e-10
C0U990,員山,2025-12-10,24.74435,121.72247,1.9403128e-08
C0V770,大社,2025-12-10,22.730306,120.346639,0.99989086
C0X120,麻豆,2025-12-10,23.183289,120.248611,0.995323
C0C670,龍潭,2025-12-10,24.870056,121.221389,0.46566588
C0D680,香山濕地,2025-12-10,24.783581,120.914988,0.98089063
C0S980,勝林山,2025-12-10,22.430439,120.8938,3.3213347e-08
C0V730,大寮,2025-12-10,22.605614,120.395717,0.99841267
C0R570,麟洛,2025-12-10,22.65078,120.52719,0.0095561
C2M930,石卓,2025-12-10,23.478744,120.702264,3.774059e-09
C0G9B0,和美,2025-12-10,24.105169,120.492131,0.9999197
CAG100,王功漁港,2025-12-10,23.96824,120.32586,0.99052554
C0X290,北門,2025-12-10,23.267772,120.125481,0.99967986
C2F930,大甲,2025-12-10,24.347667,120.640403,0.9977378
C0D650,湖口,2025-12-10,24.904794,121.043628,0.9960374
C0E420,竹南,2025-12-10,24.708978,120.888897,0.98812276
C0U780,五結,2025-12-10,24.68637,121.79794,2.0447949e-08
C1I250,鯉潭,2025-12-10,23.961922,120.991131,1.5814389e-09
C0R130,阿禮,2025-12-10,22.742908,120.743678,1.3938299e-09
C0X100,臺南市北區,2025-12-10,23.010394,120.194228,0.99964446
C0S920,金峰嘉蘭,2025-12-10,22.594789,120.960825,9.984457e-07
C0V490,新興,2025-12-10,22.627422,120.298803,0.999757
C0F9K0,大安,2025-12-10,24.345061,120.588025,0.99977815
467290,古坑,2025-12-10,23.633639,120.551889,0.11601443
C2E970,八甲,2025-12-10,24.535811,120.795983,0.008865537
C0V440,鳳山,2025-12-10,22.646653,120.356122,0.9999011
C1T940,大觀,2025-12-10,23.714206,121.373133,5.951214e-09
C0E740,造橋,2025-12-10,24.637056,120.864778,0.9723801
C0R100,尾寮山,2025-12-10,22.833111,120.683889,1.5515375e-09
A2K630,臺大雲林校區,2025-12-10,23.730628,120.423903,0.8017186
467990,馬祖,2025-12-10,26.169467,119.923158,1.2207948e-07
C0D580,寶山,2025-12-10,24.735006,121.025192,0.20935346
E2P990,林試扇平站,2025-12-10,22.9677,120.6857,1.223758e-09
C0AI30,三重,2025-12-10,25.057328,121.500629,0.99841607
C0AH00,汐止,2025-12-10,25.066881,121.658778,0.9981401
C1Z040,立山,2025-12-10,23.443356,121.327375,1.4824746e-08
466881,新北,2025-12-10,24.959207,121.525196,0.9981478
C0W130,花嶼,2025-12-10,23.40007,119.32276,0.9736262
C0A950,鼻頭角,2025-12-10,25.129036,121.923372,0.9409214
C0K470,林內,2025-12-10,23.748675,120.609642,0.010326247
C2F990,摩天嶺,2025-12-10,24.322458,120.936819,1.2983352e-09
82C160,茶改場,2025-12-10,24.908472,121.185333,0.9511334
C0Z320,清水林道,2025-12-10,23.27125,121.188272,1.02694875e-08
C0R760,南仁湖,2025-12-10,22.084681,120.863353,0.9999156
C0M670,大林,2025-12-10,23.600616,120.45841,0.99789083
C0M800,茶山,2025-12-10,23.299075,120.664767,9.0734403e-10
C0A9C0,天母,2025-12-10,25.117494,121.537169,0.9945296
72K220,南改斗南分場,2025-12-10,23.634556,120.477333,0.9675018
72AI40,桃改樹林分場,2025-12-10,24.944503,121.386972,0.99611217
C0S910,蘭嶼燈塔,2025-12-10,22.081197,121.503117,0.95680004
C0B050,八斗子,2025-12-10,25.144754,121.79167,0.99593824
C0U900,內城,2025-12-10,24.71813,121.68766,1.5982025e-08
C0X320,柳營,2025-12-10,23.253328,120.375253,0.9485292
C0M790,新港,2025-12-10,23.553269,120.345728,0.9990887
C0F9T0,西屯,2025-12-10,24.179494,120.641275,0.9825656
C0E950,松安,2025-12-10,24.39792,120.98599,2.8271352e-09
C0SA30,都歷,2025-12-10,23.020333,121.323642,7.592638e-09
C0C620,蘆竹,2025-12-10,25.084275,121.265767,0.9985185
C0R730,大坪頂,2025-12-10,22.024633,120.69355,0.963661
C0AJ40,石門,2025-12-10,25.273672,121.601198,0.99810666
C0E750,苗栗,2025-12-10,24.564569,120.824575,0.1957934
C0T870,鯉魚潭,2025-12-10,23.935639,121.508944,6.2416983e-09
C1V170,排雲,2025-12-10,23.463619,120.954147,2.0096788e-08
C2H950,中寮,2025-12-10,23.884447,120.766406,0.3301872
C0R350,貓鼻頭,2025-12-10,21.921774,120.7358,0.915258
C0V660,岡山,2025-12-10,22.797078,120.294958,0.9999057
C1H941,雙冬,2025-12-10,23.967378,120.802189,7.176888e-10
C0AJ70,田寮,2025-12-10,25.2698,121.4886,0.9983528
C0AI00,五股,2025-12-10,25.07445,121.42728,0.96900034
C0Z280,德武,2025-12-10,23.47426,121.41071,3.3093122e-09
C2RA10,大新,2025-12-10,22.67558,120.57788,0.17302544
C0R700,枋山,2025-12-10,22.246844,120.661086,0.9373285
C0C460,復興,2025-12-10,24.820208,121.352281,9.079629e-08
C2K300,鹿南,2025-12-10,23.63855,120.3636,0.9996682
E2H360,蓮華池,2025-12-10,23.918333,120.885278,7.4169765e-10
C0M640,中埔,2025-12-10,23.42538,120.5229,0.011999921
C0W140,金沙,2025-12-10,24.488292,118.408778,1.2078876e-05
C2A540,四堵,2025-12-10,24.8926,121.745736,5.8146437e-08
C0ACA0,新莊,2025-12-10,25.051478,121.446756,0.9971521
C0R220,潮州,2025-12-10,22.534361,120.54,0.9531502
U2HA40,臺大內茅埔,2025-12-10,23.689722,120.851117,5.2385596e-10
467490,臺中,2025-12-10,24.145736,120.684075,0.99925375
C0UB60,明池,2025-12-10,24.650688,121.475277,1.9661112e-08
C0U960,翠峰湖,2025-12-10,24.510856,121.608044,2.0240352e-08
E2HA20,林試畢祿溪站,2025-12-10,24.226944,121.308522,1.0888487e-08
C0V890,前鎮,2025-12-10,22.5718,120.3117,0.9997865
C1F941,雪嶺,2025-12-10,24.280586,121.026642,1.7255262e-08
C2H9E0,國姓南港,2025-12-10,23.911108,120.846556,1.2827467e-09
C0AC80,文山,2025-12-10,25.00235,121.575728,0.9978016
C0F9R0,龍井,2025-12-10,24.184536,120.528972,0.99994075
C0M760,民雄,2025-12-10,23.551754,120.428457,0.9981451
C0UA40,西德山,2025-12-10,24.560647,121.752608,1.4315158e-08
C2TA70,赤科坪,2025-12-10,23.39885,121.39168,1.2217901e-08
C1T920,中興,2025-12-10,23.769503,121.498653,5.2168057e-09
C0D550,雪霸,2025-12-10,24.526972,121.11605,6.6747377e-09
C2F860,梨山,2025-12-10,24.247522,121.243669,1.12121405e-08
C0R320,車城,2025-12-10,22.0744,120.716247,0.47811797
C1S870,南美山,2025-12-10,23.15025,121.382333,1.3663163e-08
C0B020,基隆嶼,2025-12-10,25.19141,121.78391,0.9993518
C1U501,牛鬥,2025-12-10,24.637836,121.573656,7.667908e-09
C0M730,嘉義市東區,2025-12-10,23.457673,120.460531,0.9870152
C2R990,泰武,2025-12-10,22.60686,120.69765,4.308721e-09
C0S700,知本,2025-12-10,22.684866,121.005642,9.707761e-09
C1N001,沙崙,2025-12-10,22.935472,120.309406,0.99039674
C0V760,橋頭,2025-12-10,22.757806,120.30575,0.9998998
C0G960,福寶,2025-12-10,24.0443,120.3814,0.99993056
C0X210,白河,2025-12-10,23.347466,120.414427,0.6559578
C0S810,東河,2025-12-10,22.972672,121.303986,0.0032030817
C2R170,屏東,2025-12-10,22.66027,120.49403,0.010481893
C0R670,楓港,2025-12-10,22.190131,120.692156,0.9982302
C0FA50,霧峰,2025-12-10,24.0419,120.6995,0.9608429
C0UB10,蘇澳,2025-12-10,24.5969,121.8571,5.9455982e-09
C0G950,防潮門,2025-12-10,24.1835,120.4871,0.9999425
C0M740,六腳,2025-12-10,23.492871,120.290625,0.99868864
C1R250,力里,2025-12-10,22.428117,120.629228,0.93123746
C0K330,虎尾,2025-12-10,23.719183,120.442036,0.73755366
C2FA00,烏石坑,2025-12-10,24.273503,120.947617,1.2711243e-09
C0V620,永安,2025-12-10,22.82315,120.236856,0.999907
C1I330,楓樹林,2025-12-10,23.986803,121.076117,1.571756e-09
C0W200,湖西,2025-12-10,23.596314,119.67275,0.94842917
72Q010,高雄農改場,2025-12-10,22.709333,120.525889,0.20369264
C0SA40,瑞和,2025-12-10,22.974361,121.156697,4.052265e-09
C0C680,龜山,2025-12-10,25.02846,121.38656,5.9683025e-05
C2V260,月眉,2025-12-10,22.971003,120.539853,1.6268116e-07
C0V450,鳳森,2025-12-10,22.545064,120.392592,0.13574842
C0FA90,小雪山林道,2025-12-10,24.29515,121.03651,2.1836087e-08
C0U720,南山,2025-12-10,24.43742,121.38167,1.3007129e-08
A2N290,臺南蘭花園區,2025-12-10,23.340258,120.379661,0.99237174
C0R560,新園,2025-12-10,22.5434,120.461558,0.5606804
C0U890,三星,2025-12-10,24.66812,121.65302,8.916195e-09
C1V300,御油山,2025-12-10,23.001983,120.715364,4.1653925e-09
C0U600,礁溪,2025-12-10,24.817539,121.765608,2.5305565e-07
C1T980,龍澗,2025-12-10,24.023289,121.411328,3.0374576e-08
C0D670,海天一線,2025-12-10,24.831986,120.914438,0.99934226
C0SA00,歷坵,2025-12-10,22.520969,120.89185,2.5544558e-08
C0M710,東石,2025-12-10,23.458927,120.15385,0.9999039
C0M780,鹿草,2025-12-10,23.41134,120.30835,0.9981855
C0U520,雙連埤,2025-12-10,24.753033,121.641303,7.630253e-09
C0B010,七堵,2025-12-10,25.094819,121.71713,0.9951648
C0R480,長治,2025-12-10,22.693128,120.542622,0.43564183
C1V830,國三S383K,2025-12-10,22.781967,120.426475,9.963117e-05
12Q980,恆春工作站,2025-12-10,22.079678,120.714425,0.47811797
C1O940,東山服務區,2025-12-10,23.286016,120.398472,0.70111763
C1U840,東澳嶺,2025-12-10,24.5378,121.8485,1.0314245e-08
C1D630,飛鳳山,2025-12-10,24.766464,121.119178,2.2352806e-08
C0S940,石寧山,2025-12-10,23.223772,121.406639,1.2851325e-08
C0K410,北港,2025-12-10,23.573957,120.292802,0.99836546
C2M620,瑞里,2025-12-10,23.545133,120.675197,1.8751347e-09
C0SB70,小港漁港,2025-12-10,23.158558,121.400431,9.2577025e-08
C2O950,安南,2025-12-10,23.076694,120.144861,0.9999051
C0F0E0,南湖圈谷,2025-12-10,24.363714,121.444667,3.7680042e-08
467610,成功,2025-12-10,23.097486,121.373428,8.846093e-07
C0G890,伸港,2025-12-10,24.148933,120.484403,0.99996305
C2E540,龍溪,2025-12-10,24.606489,120.783933,0.99711406
C1V200,梅山,2025-12-10,23.268447,120.823556,1.5613608e-09
C0T9H0,加路蘭山,2025-12-10,23.682947,121.5274,7.9122335e-09
C2O930,玉井,2025-12-10,23.126042,120.46055,0.9545774
C1F911,新伯公,2025-12-10,24.221361,120.841069,6.5022836e-09
C0R490,九如,2025-12-10,22.7405,120.490503,0.2417911
C0X200,左鎮,2025-12-10,23.056758,120.408522,0.9929488
C0FA60,鞍馬山工作站,2025-12-10,24.267064,121.000793,9.78935e-09
C0SB50,叭嗡嗡,2025-12-10,23.047062,121.343223,1.2282389e-08
C1F891,稍來,2025-12-10,24.265689,121.001142,9.430554e-09
72N240,七股研究中心,2025-12-10,23.081672,120.062894,0.99990505
C0C700,中壢,2025-12-10,24.977661,121.256375,0.9715634
C0M690,水上,2025-12-10,23.419734,120.388909,0.99617153
C0V690,鼓山,2025-12-10,22.623325,120.275575,0.99976385
C0O860,大內,2025-12-10,23.11885,120.36083,0.9973551
C0Z200,萬榮,2025-12-10,23.709219,121.420106,5.5142078e-09
C0T9D0,和中,2025-12-10,24.26676,121.74103,3.0095617e-09
C1O921,楠西,2025-12-10,23.183511,120.484083,0.0005460581
C0AJ30,淡水觀海,2025-12-10,25.184591,121.408616,0.9963248
C0V810,左營,2025-12-10,22.67491,120.28491,0.9999142
C0UA70,桃源谷,2025-12-10,24.962606,121.888875,9.877878e-09
C0X130,官田,2025-12-10,23.193217,120.315422,0.9919481
C1H000,翠峰,2025-12-10,24.109397,121.205211,7.722419e-09
C0UA90,石城,2025-12-10,24.980444,121.951214,1.7836619e-06
C1E681,南勢山,2025-12-10,24.421669,120.923831,2.113569e-09
C0A9F0,內湖,2025-12-10,25.079422,121.57545,0.9981401
C0K291,宜梧,2025-12-10,23.536281,120.169329,0.99968284
C1K540,口湖,2025-12-10,23.585344,120.180517,0.99997145
C0R780,滿州,2025-12-10,22.024403,120.839892,0.2927106
C0V870,文安,2025-12-10,22.8025,120.2164,0.99991214
C0U650,玉蘭,2025-12-10,24.675286,121.587061,7.947854e-09
C0R640,東港,2025-12-10,22.46247,120.44074,0.9928077
C0AJ80,板橋,2025-12-10,25.0107,121.4489,0.9985152
C0S660,下馬,2025-12-10,23.150427,121.070312,9.1362065e-09
C1H9B1,阿眉,2025-12-10,24.1263,120.994672,7.7279445e-09
C0UA20,多加屯,2025-12-10,24.368614,121.373189,1.1126754e-08
C0E730,頭份,2025-12-10,24.688247,120.912206,0.99243915
72V140,高改旗南分場,2025-12-10,22.857861,120.516667,0.0006524368
C0K480,莿桐,2025-12-10,23.761192,120.502372,0.3428311
C0U980,坪林石牌,2025-12-10,24.86478,121.77396,7.522294e-09
C0T900,西林,2025-12-10,23.8119,121.441458,5.05934e-09
C1I150,青雲,2025-12-10,23.793361,120.949378,7.591851e-10
C2E980,和興,2025-12-10,24.505319,120.923016,4.336754e-09
467350,澎湖,2025-12-10,23.565503,119.563094,0.9661698
C0G800,埔鹽,2025-12-10,24.000394,120.431683,0.9998805
C0H960,草屯,2025-12-10,23.973672,120.68085,0.9142789
C1V780,多納林道,2025-12-10,22.888028,120.737917,1.7318559e-09
C0E920,通霄漁港,2025-12-10,24.498589,120.673876,0.9971893
C0Z330,安通山,2025-12-10,23.290728,121.348528,5.634013e-09
C0AH10,永和,2025-12-10,25.01125,121.508111,0.9985458
C0AK10,太平里,2025-12-10,25.134937,121.364899,0.9984137
C2G640,鹿港,2025-12-10,24.0753,120.430481,0.9999305
C1E890,國三N149K,2025-12-10,24.463414,120.680019,0.9989507
C1R110,口社,2025-12-10,22.770111,120.645222,2.8855627e-06
C1M870,國三N285K,2025-12-10,23.550319,120.505833,0.7885388
C1E480,鳳美,2025-12-10,24.554803,121.034747,4.0315196e-09
C0M530,奮起湖,2025-12-10,23.493903,120.699253,2.2180495e-09
C0C590,觀音,2025-12-10,25.027072,121.153317,0.99861425
C0T9M0,靜浦,2025-12-10,23.455167,121.495028,3.5233694e-09
C2H9M0,發祥,2025-12-10,24.154094,121.164517,3.6545535e-09
C0AI40,石牌,2025-12-10,25.115597,121.513139,0.99488366
C1F871,上谷關,2025-12-10,24.203483,121.018644,1.3153069e-09
C2H9G0,百勝,2025-12-10,24.051142,120.909361,1.0670876e-09
C0G880,二水,2025-12-10,23.810742,120.6173,0.0007412448
C0R940,加祿堂,2025-12-10,22.3363,120.6217,0.9990896
C0W220,北竿,2025-12-10,26.220358,119.974881,1.1518775e-06
C0O960,崎頂,2025-12-10,22.959547,120.369317,0.673168
C0TA40,秀林,2025-12-10,24.302864,121.731144,1.3433516e-08
C0S750,向陽,2025-12-10,23.248397,120.986133,8.787963e-09
C0T9F0,水璉,2025-12-10,23.797131,121.542514,5.0959583e-09
C1M600,頭凍,2025-12-10,23.406364,120.603339,1.516562e-09
467660,臺東,2025-12-10,22.752211,121.154586,0.07516315
C1D380,新埔,2025-12-10,24.84745,121.03834,0.9814453
C2G980,田頭村,2025-12-10,23.8263,120.444175,0.56775177
C0V750,路竹,2025-12-10,22.854997,120.259439,0.99966425
C0N050,蚵寮,2025-12-10,23.301,120.1104,0.9995732
C2X060,下營,2025-12-10,23.226806,120.256291,0.9970642
72M700,南改鹿草分場,2025-12-10,23.416869,120.283061,0.99846524
C1SA50,利嘉林道,2025-12-10,22.82325,121.009389,1.4313328e-08
C0UB70,太平山中間站,2025-12-10,24.542003,121.513453,1.3527028e-08
C0A940,金山,2025-12-10,25.223628,121.643967,0.9913385
C1V340,大津,2025-12-10,22.888322,120.645986,1.7864078e-06
C0W180,七美,2025-12-10,23.219333,119.444892,0.97500014
C1F9C1,白冷,2025-12-10,24.182844,120.929889,2.703461e-09
K2E710,苗改生物防治研究中心,2025-12-10,24.422861,120.871833,1.5716087e-05
C0N040,蘆竹溝,2025-12-10,23.2344,120.0961,0.99967986
C0TB40,崇德,2025-12-10,24.166144,121.657414,3.3219557e-08
C0D760,大坪苗圃,2025-12-10,24.5362,121.1108,3.248729e-09
C2W230,畜試所澎湖,2025-12-10,23.628342,119.513206,0.972483
C0R880,後壁湖,2025-12-10,21.9457,120.7457,0.2459329
C1I280,埔中,2025-12-10,23.820778,120.642594,1.2734273e-09
467790,墾丁雷達站,2025-12-10,21.948235,120.808028,0.13613275
C0W190,望安,2025-12-10,23.380564,119.494075,0.9839032
C0Z170,卓溪,2025-12-10,23.3443,121.3029,4.908107e-09
C0F850,東勢,2025-12-10,24.246428,120.833047,4.9949733e-09
466900,淡水,2025-12-10,25.164889,121.448906,0.9984137
C0I370,魚池,2025-12-10,23.895703,120.94135,7.1027384e-10
C0C630,大溪,2025-12-10,24.882853,121.265547,0.9281007
C0A520,山佳,2025-12-10,24.974944,121.402008,0.99724305
C0I110,竹山,2025-12-10,23.761225,120.688156,7.0259906e-05
82H840,茶改南部分場,2025-12-10,23.762528,120.7405,3.5469419e-09
C0G660,溪湖,2025-12-10,23.94835,120.479122,0.97506225
C1T800,洛韶,2025-12-10,24.204558,121.453956,2.147968e-08
C1T810,慈恩,2025-12-10,24.192044,121.388386,6.3251946e-09
C1E451,象鼻,2025-12-10,24.368617,120.940228,2.6232747e-09
C0AC60,三峽,2025-12-10,24.939025,121.369728,0.9907585
C0I490,萬大林道,2025-12-10,23.928228,121.091411,2.4781066e-09
C1I290,豐丘,2025-12-10,23.668178,120.887417,1.6703132e-09
C1I320,奧萬大,2025-12-10,23.952956,121.178556,1.4483202e-09
C2M910,嘉義大學,2025-12-10,23.471325,120.485903,0.37846497
C0U770,南澳,2025-12-10,24.44935,121.81022,6.051877e-09
C2TB30,吉安,2025-12-10,23.94538,121.54803,6.8796324e-09
C0A980,社子,2025-12-10,25.109508,121.469681,0.99842775
C0V800,六龜,2025-12-10,22.997889,120.633583,9.756724e-10
C1G9D0,國一S218K,2025-12-10,23.890641,120.493253,0.9947092
C0E570,白沙屯,2025-12-10,24.549447,120.696803,0.9995811
C2F9A0,中竹林,2025-12-10,24.103556,120.751061,1.4183661e-09
C0FA40,臺中電廠,2025-12-10,24.2146,120.4907,0.9999407
C2G9A0,畜試所彰化,2025-12-10,23.86045,120.557964,0.45682874
C0H9C0,合歡山,2025-12-10,24.143442,121.272547,1.9867693e-08
G2M350,農試溪口農場,2025-12-10,23.58565,120.408111,0.9985794
C0U860,頭城,2025-12-10,24.85323,121.8308,3.0057203e-07
C0R580,南州,2025-12-10,22.48591,120.50274,0.9928077
C0D430,峨眉,2025-12-10,24.6905,121.017189,0.7099581
C0G780,秀水,2025-12-10,24.03405,120.503869,0.97316295
72N100,臺南農改場,2025-12-10,23.0605,120.342194,0.9964118
C0S900,蘭嶼高中,2025-12-10,22.04909,121.51214,0.97109765
C2TA60,六十石,2025-12-10,23.22477,121.31861,1.1444472e-08
C1F9W0,德基,2025-12-10,24.254783,121.190261,7.664457e-09
C2M980,安和,2025-12-10,23.51377,120.31593,0.99829423
C1Z120,壽豐,2025-12-10,23.870853,121.508081,5.72291e-09
C0W160,烏坵,2025-12-10,24.9944,119.44956,0.9926168
C1I240,外大坪,2025-12-10,23.958697,120.917931,1.5438211e-09
C1I550,國六W023K,2025-12-10,23.979067,120.867742,7.605939e-10
C0R870,興海,2025-12-10,21.9752,120.8439,0.13728128
C0R140,瑪家,2025-12-10,22.682903,120.686639,7.717232e-10
C0A530,坪林,2025-12-10,24.938183,121.70975,4.709417e-08
C0X260,後壁,2025-12-10,23.366358,120.362326,0.98949873
C0Z230,和平,2025-12-10,24.30717,121.77007,3.0703369e-09
C0G770,福興,2025-12-10,24.041289,120.437669,0.99988246
C0H9A0,神木村,2025-12-10,23.532742,120.843667,3.9226937e-09
C0I460,南投,2025-12-10,23.911469,120.687331,0.30678514
C0I480,梅峰,2025-12-10,24.085272,121.173572,4.964532e-09
C1V570,吉東,2025-12-10,22.85422,120.5454,0.00022750732
C2A560,福山,2025-12-10,24.776203,121.502811,2.4586916e-08
C0AH30,五分山,2025-12-10,25.07125,121.780794,1.24064e-08
C0FA10,松柏,2025-12-10,24.429115,120.617482,0.9999389
72S200,東改班鳩分場,2025-12-10,22.829528,121.077694,1.2903544e-08
72HA00,中改埔里分場,2025-12-10,23.903208,120.963364,7.2681244e-10
C2H9W0,大坪頂農水,2025-12-10,24.043122,120.932781,9.411503e-10
C0C650,平鎮,2025-12-10,24.897503,121.214636,0.94842505
C0S930,延平,2025-12-10,22.902581,121.084058,5.22017e-09
C0UA60,樟樹山,2025-12-10,24.41393,121.78325,1.2256928e-08
C2UC10,出水溪,2025-12-10,24.615822,121.652253,8.479057e-09
C1S670,摩天,2025-12-10,23.199503,121.027,2.5237519e-08
C0V630,茄萣,2025-12-10,22.906642,120.182608,0.9996092
466940,基隆,2025-12-10,25.133314,121.740475,0.995797
C0X050,東河,2025-12-10,23.296598,120.385608,0.85451055
C0R770,保力,2025-12-10,22.071122,120.764111,0.8071232
G2L020,農試嘉義分所,2025-12-10,23.485028,120.473806,0.8715873
C0X240,關子嶺,2025-12-10,23.331169,120.508025,5.3896654e-10
C0I380,集集,2025-12-10,23.828206,120.801467,5.351541e-09
466990,花蓮,2025-12-10,23.975128,121.613275,1.24042945e-08
C1V220,小關山,2025-12-10,23.154217,120.813603,5.296735e-09
C1F9G1,慶福山,2025-12-10,24.180853,120.848378,1.3898054e-09
C0FB20,雪山橋,2025-12-10,24.23192,120.9786,1.1632282e-08
C0Z250,瑞穗林道,2025-12-10,23.49284,121.30688,1.9547366e-08
C0D590,新豐,2025-12-10,24.87068,120.97721,0.99972343
C0A870,五指山,2025-12-10,25.132153,121.608692,2.0906205e-08
C0UA50,西帽山,2025-12-10,24.555361,121.802628,1.2797415e-08
C2R980,竹田國中,2025-12-10,22.61532,120.52412,0.9908905
C0X160,仁德,2025-12-10,22.968258,120.257689,0.99955946
C1H971,六分寮,2025-12-10,23.92507,120.6378,1.1043825e-09
C0W120,西嶼,2025-12-10,23.5626,119.468436,0.9757212
C0G650,員林,2025-12-10,23.946503,120.585597,0.95539314
C0AD50,鶯歌,2025-12-10,24.951533,121.346294,0.98748875
C2H9Q0,北東眼山,2025-12-10,24.120939,121.189303,9.81298e-09
C2H9T0,名間竹圍,2025-12-10,23.859914,120.637572,7.829855e-10
C0S990,山豬窟,2025-12-10,22.318619,120.857372,0.00018639294
C0X190,安平,2025-12-10,22.993161,120.152181,0.9996441
C0K400,斗六,2025-12-10,23.720583,120.541127,0.7983076
12J990,口湖工作站,2025-12-10,23.589978,120.180394,0.99997145
C0O830,北寮,2025-12-10,23.079561,120.495008,5.757508e-09
C1D410,白蘭,2025-12-10,24.579364,121.079947,2.8931633e-09
C0S970,加津林,2025-12-10,22.416211,120.926942,0.9975875
C0D700,關西,2025-12-10,24.7977,121.1732,0.9406051
C0M810,里佳,2025-12-10,23.389125,120.716647,2.7036775e-09
C0U750,龜山島,2025-12-10,24.841667,121.953133,5.0944543e-08
C0R810,內獅,2025-12-10,22.305064,120.642986,0.9990638
C1M390,龍美,2025-12-10,23.406728,120.654417,1.9113124e-09
C2K290,崙內,2025-12-10,23.69525,120.35601,0.99969083
C2FB60,頭櫃山,2025-12-10,24.129842,120.858925,1.6555265e-09
C1H840,國三N238K,2025-12-10,23.841008,120.707711,9.2617913e-10
CAQ030,崎峰國小,2025-12-10,22.42565,120.49521,0.9928077
C2E520,大湖,2025-12-10,24.414939,120.870872,1.7099953e-09
467530,阿里山,2025-12-10,23.508208,120.813242,1.1285711e-08
C1E691,南湖,2025-12-10,24.40135,120.837533,1.747471e-09
C0FA30,梧棲,2025-12-10,24.256003,120.523381,0.99982965
C1V231,高中,2025-12-10,23.134911,120.716711,8.581521e-10
C0AK30,硬漢嶺,2025-12-10,25.136097,121.426372,2.5343498e-08
C0F9V0,新社,2025-12-10,24.200172,120.815806,3.1869687e-09
C0H890,埔里,2025-12-10,23.972169,120.952425,1.1645508e-09
C0R690,墾丁,2025-12-10,21.966756,120.810269,0.5624683
C0SD20,富山,2025-12-10,22.822383,121.190825,2.818063e-06
C0F0D0,審馬陣,2025-12-10,24.381675,121.4203,1.9763643e-08
C2W030,金門農試所,2025-12-10,24.448431,118.451786,0.013336663
C0R820,白鷺,2025-12-10,22.454275,120.666219,5.0239626e-09
C0FB00,大雪山,2025-12-10,24.254668,121.007374,1.3041858e-08
C1V190,南天池,2025-12-10,23.27403,120.91176,9.131329e-09
C0E940,雪見,2025-12-10,24.42595,121.01347,6.889783e-09
K2E360,苗栗農改場,2025-12-10,24.495722,120.829111,0.0011498607
CAJ050,海口故事園區,2025-12-10,23.57543,120.14121,0.99997145
C2K280,四湖,2025-12-10,23.6304,120.22717,0.99997276
C2H9D0,三隻寮,2025-12-10,24.093078,120.861578,9.524349e-10
C0O990,媽廟,2025-12-10,22.99175,120.293525,0.99899316
C0D480,打鐵坑,2025-12-10,24.849664,121.150789,0.4616005
C0Z220,和平林道,2025-12-10,24.343922,121.656317,3.7526466e-09
C0TA10,花蓮漁港,2025-12-10,23.995322,121.638331,1.2822996e-08
72C440,桃園農改場,2025-12-10,24.950944,121.030583,0.9973317
C1E711,馬拉邦山,2025-12-10,24.367306,120.901656,1.6839082e-09
C0SB20,富岡,2025-12-10,22.792467,121.192669,1.386619e-06
C0D560,竹東,2025-12-10,24.767147,121.057881,0.7834737
C0F9U0,南屯,2025-12-10,24.137006,120.637969,0.7284889
C0M720,番路,2025-12-10,23.464657,120.554156,1.1363594e-07
C0F0A0,雪山圈谷,2025-12-10,24.388594,121.236339,2.48765e-08
C1A9N0,四十份,2025-12-10,24.934158,121.593283,6.2849466e-08
C0U760,東澳,2025-12-10,24.52196,121.83318,6.455979e-09
C0X230,鹽水,2025-12-10,23.272621,120.247641,0.99951625
C2H9H0,苗改南投蜂場,2025-12-10,23.852589,120.693481,7.4903613e-07
C0R950,萬隆國小,2025-12-10,22.507667,120.587817,0.88178843
467540,大武,2025-12-10,22.35572,120.90374,0.99750465
C0V370,古亭坑,2025-12-10,22.893178,120.401947,0.5912617
C1I340,新興橋,2025-12-10,23.563333,120.868728,7.7361995e-10
C0SA80,土坂,2025-12-10,22.453108,120.887572,1.4378445e-05
C0R160,鹽埔,2025-12-10,22.739558,120.530778,0.19808589
C0AC40,大屯山,2025-12-10,25.175675,121.522408,2.8122178e-08
466850,五分山雷達站,2025-12-10,25.071182,121.781205,1.2236045e-08
C2H9L0,馬烈霸,2025-12-10,24.1512,121.201772,8.74691e-09
C1AI50,國三N016K,2025-12-10,25.034164,121.619664,0.9974552
C1V600,藤枝,2025-12-10,23.071961,120.757042,3.940173e-09
C1E601,南勢,2025-12-10,24.572486,120.734842,0.97940946
C0O980,新市,2025-12-10,23.061614,120.298197,0.9981475
C0K420,西螺,2025-12-10,23.800407,120.467394,0.51303893
C0Z050,佳心,2025-12-10,23.34567,121.21316,1.19297985e-08
C0AD30,蘆洲,2025-12-10,25.086594,121.472331,0.9982994
C0V610,梓官,2025-12-10,22.760558,120.267211,0.99990106
K2F750,種苗改良場,2025-12-10,24.225972,120.800917,4.50084e-09
C0UA80,大溪漁港,2025-12-10,24.941801,121.902955,4.347676e-07
C1AI60,國一39K邊坡,2025-12-10,25.064361,121.383836,0.00037688715
C0W150,金寧,2025-12-10,24.457703,118.328989,0.012198488
C0R960,內埔,2025-12-10,22.608483,120.570714,0.98852175
V2C250,八德合作社,2025-12-10,24.93775,121.266389,0.96899724
C2H9S0,龍南,2025-12-10,23.953536,120.833183,1.1287794e-09
C0AH40,平等,2025-12-10,25.129142,121.577086,4.40668e-08
C0R540,佳冬,2025-12-10,22.419456,120.552375,0.9990773
466950,彭佳嶼,2025-12-10,25.627975,122.079744,0.99984854
C0A890,雙溪,2025-12-10,25.036003,121.864242,0.99723333
C0C480,桃園,2025-12-10,24.992425,121.323172,0.97949964
C0AH50,林口,2025-12-10,25.072181,121.38084,2.046299e-05
A2K360,水試臺西試驗場,2025-12-10,23.717231,120.190522,0.99997956
C2M960,外寮,2025-12-10,23.562643,120.665688,1.3183937e-09
C0F9S0,烏日,2025-12-10,24.107058,120.624103,0.93027073
C0C490,八德,2025-12-10,24.928708,121.283289,0.9680851
C0R190,赤山,2025-12-10,22.592333,120.614306,0.98214495
C0T820,天祥,2025-12-10,24.179597,121.495639,2.2952522e-08
C1F9E1,龍安,2025-12-10,24.1605,120.831961,2.8706924e-09
C0V820,小林,2025-12-10,23.148408,120.63325,5.8304417e-10
C2G870,芳苑,2025-12-10,23.922303,120.320025,0.9903606
C0E850,大河,2025-12-10,24.618069,120.948578,0.01011114
C1U670,寒溪,2025-12-10,24.634,121.71691,3.993224e-09
C0N020,城西,2025-12-10,23.0568,120.0956,0.9996128
C1Z110,三棧,2025-12-10,24.11557,121.60501,2.5760626e-08
C0R280,檳榔,2025-12-10,22.076078,120.836777,0.99934304
C2H9J0,中台,2025-12-10,23.9996,120.938739,8.0205353e-10
C0F9L0,后里,2025-12-10,24.310436,120.729725,1.7154345e-09
467441,高雄,2025-12-10,22.730432,120.312516,0.99989104
C0Z180,新城,2025-12-10,24.040486,121.604878,1.1925135e-08
C0D540,橫山,2025-12-10,24.71116,121.11693,0.04584754
C1D420,太閣南,2025-12-10,24.632808,121.160575,6.1587047e-09
C1E770,公館,2025-12-10,24.526914,120.830806,0.0045912047
CAN130,水試所海水繁養殖中心,2025-12-10,23.120802,120.07968,0.9999033
C1I430,翠華,2025-12-10,24.191961,121.224339,8.249735e-09
C1M400,菜瓜坪,2025-12-10,23.251928,120.576103,8.438717e-10
C0G730,二林,2025-12-10,23.903325,120.376081,0.9997569
72M360,南改義竹分場,2025-12-10,23.360694,120.279361,0.9991656
V2K620,麥寮合作社,2025-12-10,23.753836,120.294783,0.99969894
C0Z070,舞鶴,2025-12-10,23.46811,121.37407,3.2702896e-09
C0B040,大武崙,2025-12-10,25.166676,121.706993,0.9944202
C1Z030,紅葉,2025-12-10,23.493119,121.338806,2.854193e-09
C1I050,丹大,2025-12-10,23.753747,121.141147,8.720972e-09
C0I080,信義,2025-12-10,23.689694,120.851036,5.2385596e-10
C0D750,樂山林道6k,2025-12-10,24.49999,121.08773,9.512227e-09
C2M920,朴子農改,2025-12-10,23.469889,120.259383,0.9984771
C2A880,福隆,2025-12-10,25.017842,121.942083,2.0711725e-06
C0Z160,鳳林,2025-12-10,23.746114,121.453411,5.583615e-09
C0UB80,翠峰林道6K,2025-12-10,24.49773,121.568625,1.6523286e-08
C0V210,復興,2025-12-10,23.222403,120.806089,7.6877904e-10
C0H990,昆陽,2025-12-10,24.121322,121.273642,1.5297523e-08
C0R741,獅子,2025-12-10,22.202308,120.705236,0.9675344
C0S710,鹿野,2025-12-10,22.917711,121.122994,2.87839e-09
C0I530,小奇萊,2025-12-10,24.131764,121.295717,1.6078765e-08
C0FA70,大雪山埡口,2025-12-10,24.26867,121.03062,1.7059795e-08
C2K630,荷苞,2025-12-10,23.657717,120.595144,0.0037741028
C0Z080,富源,2025-12-10,23.587642,121.378225,1.01225845e-08
C0SB10,美和,2025-12-10,22.682078,121.060236,1.5097018e-07
C2K620,馬光農場,2025-12-10,23.721453,120.378864,0.8426683
C1I140,卡奈托灣,2025-12-10,23.754364,121.087872,2.4525313e-09
C0I520,玉山風口,2025-12-10,23.470489,120.955994,2.9080526e-08
C1G691,下水埔,2025-12-10,23.816114,120.5676,0.23412684
C0X110,臺南市南區,2025-12-10,22.961189,120.188378,0.9995738
C0V680,仁武,2025-12-10,22.701083,120.347722,0.9999142
C2G840,北斗,2025-12-10,23.877586,120.514222,0.9934264
C0R900,竹坑,2025-12-10,22.1385,120.7022,0.6116328
C0G860,社頭,2025-12-10,23.897647,120.5862,0.9955447
C0X150,安定,2025-12-10,23.102614,120.227839,0.9989377
C0R590,里港,2025-12-10,22.77919,120.49459,0.007354622
C0E610,馬都安,2025-12-10,24.451272,120.930192,1.8133015e-09
C0E550,明德,2025-12-10,24.583486,120.885411,0.13483629
C0R150,三地門,2025-12-10,22.709889,120.639944,3.7899483e-06
C0G910,花壇,2025-12-10,24.032076,120.549461,0.956002
C1D400,鳥嘴山,2025-12-10,24.71909,121.28387,2.262198e-09
C0K500,元長,2025-12-10,23.64981,120.315024,0.99977463
C0F0B0,石岡,2025-12-10,24.276061,120.777644,1.5858852e-09
C2V250,甲仙,2025-12-10,23.080106,120.591758,8.249573e-10
C0SA20,金崙山,2025-12-10,22.567419,120.959667,1.585245e-08
C0V350,溪埔,2025-12-10,22.738578,120.446797,0.09058661
C0M660,溪口,2025-12-10,23.604131,120.403569,0.9985767
C1S880,壽卡,2025-12-10,22.238911,120.858903,0.01849425
72D680,桃改新埔分場,2025-12-10,24.834444,121.066111,0.9852337
