站號,站名,日期,lat,lon,BLBTSLS
K2F750,種苗繁殖,2025-03-05,24.225972,120.800917,9.911202e-10
467990,馬祖,2025-03-05,26.169269,119.923419,4.1190933e-07
C2E540,後龍,2025-03-05,24.606489,120.783933,5.1417977e-09
467300,東吉島,2025-03-05,23.25695,119.667467,0.96465796
G2F820,農業試驗所,2025-03-05,24.031261,120.688133,5.154108e-10
467410,臺南,2025-03-05,22.993239,120.204772,8.7953705e-10
E2S960,林試太麻里2,2025-03-05,22.598014,120.989761,5.071349e-09
72C440,桃園農改,2025-03-05,24.950944,121.030583,5.4704326e-08
C1H860,瑞岩,2025-03-05,24.123772,121.18345,5.1959517e-09
72G600,臺中農改,2025-03-05,24.003028,120.534389,4.5007434e-10
72N100,臺南農改,2025-03-05,23.0605,120.342194,9.417033e-10
72T250,花蓮農改,2025-03-05,23.975222,121.563889,7.489552e-09
467620,蘭嶼,2025-03-05,22.036969,121.558339,0.99999344
K2E360,苗栗農改,2025-03-05,24.495722,120.829111,3.0292806e-09
467050,新屋,2025-03-05,25.006744,121.047486,6.15852e-08
467550,玉山,2025-03-05,23.487614,120.959522,2.5463759e-08
466881,新北,2025-03-05,24.9593,121.52,3.258901e-09
467540,大武,2025-03-05,22.355675,120.903789,0.00043835468
72Q010,高雄農改,2025-03-05,22.709333,120.525889,3.9280373e-10
U2H480,臺大溪頭,2025-03-05,23.670306,120.798194,2.3988003e-09
C0Z180,新城,2025-03-05,24.03946,121.60454,7.5628925e-09
B2N890,畜試所,2025-03-05,23.058972,120.336406,9.417033e-10
467441,高雄,2025-03-05,22.7304,120.3125,3.059007e-10
