站號,站名,日期,lat,lon,BLBTSLS
C0R710,龍磐,2025-04-12,21.931672,120.838942,0.895753
C1F9D1,白毛台,2025-04-12,24.158325,120.886933,2.3362703e-09
C0G940,竹塘,2025-04-12,23.848253,120.386764,2.995605e-09
467590,恆春,2025-04-12,22.003897,120.746339,0.8169646
C1O850,環湖,2025-04-12,23.148617,120.418633,1.5344914e-09
C0U710,太平山,2025-04-12,24.505486,121.525656,4.4493394e-08
C0E820,獅潭,2025-04-12,24.539133,120.920042,3.3597531e-09
C0V880,興達,2025-04-12,22.8778,120.2127,0.99978316
C0S890,關山,2025-04-12,23.0395,121.175017,0.0014358925
C0SB30,新蘭,2025-04-12,22.869214,121.223228,0.3799762
C2R970,屏科大,2025-04-12,22.648275,120.619247,5.5581186e-05
C1Z130,銅門,2025-04-12,23.965694,121.492842,1.3434307e-06
C0AD40,土城,2025-04-12,24.973208,121.445169,0.13384502
CAN140,六官養殖協會,2025-04-12,23.22881,120.29962,5.2543382e-05
C0X180,山上,2025-04-12,23.0757,120.363253,0.36283568
C0F9Z0,雪山東峰,2025-04-12,24.388792,121.268675,4.526722e-08
C1M480,獨立山,2025-04-12,23.537022,120.607797,2.1378959e-09
C0X220,學甲,2025-04-12,23.230367,120.182187,0.0010012777
467650,日月潭,2025-04-12,23.881325,120.90805,6.31437e-09
C0K600,箔子寮,2025-04-12,23.6197,120.14,1.7029909e-07
C0G830,埤頭,2025-04-12,23.866003,120.452806,1.2860588e-09
C0S950,七塊厝,2025-04-12,22.954453,121.229922,1.0741853e-06
467110,金門,2025-04-12,24.407306,118.289281,4.408477e-09
C0AH80,深坑,2025-04-12,25.002703,121.628328,0.048837196
C0A970,三貂角,2025-04-12,25.007606,122.002058,2.3740176e-08
C2D730,寶山農場,2025-04-12,24.732444,120.976153,4.182828e-09
C0K430,褒忠,2025-04-12,23.690938,120.303634,3.1673164e-09
467480,嘉義,2025-04-12,23.495925,120.432906,1.7190209e-09
C0V400,阿公店,2025-04-12,22.804194,120.355528,0.7151372
467550,玉山,2025-04-12,23.48718,120.95943,4.555982e-08
C0R440,大漢山,2025-04-12,22.405264,120.753181,2.7026477e-08
C0K280,四湖,2025-04-12,23.630414,120.227125,6.3818014e-08
C1F9B1,桐林,2025-04-12,24.066172,120.735194,1.1253468e-08
C2H9U0,鳳鵬,2025-04-12,23.763919,120.788061,1.1814737e-09
C0K390,土庫,2025-04-12,23.679029,120.395574,1.2909076e-09
C1I450,望鄉山,2025-04-12,23.594153,120.944286,3.046968e-08
C0E910,海埔,2025-04-12,24.648767,120.772435,8.830406e-09
B2E890,畜試北區分所,2025-04-12,24.527806,120.770972,3.6217245e-09
C0R750,四林格山,2025-04-12,22.076989,120.802439,0.9998274
C0F0C0,中坑,2025-04-12,24.248517,120.903319,4.3539683e-09
C1I121,大鞍,2025-04-12,23.678381,120.760017,1.633982e-08
72U480,花改蘭陽分場,2025-04-12,24.686306,121.716583,1.4886886e-05
C0A770,科教館,2025-04-12,25.096356,121.516507,0.004310259
C0AJ60,六塊厝,2025-04-12,25.24,121.4481,0.9537051
C0R620,墾雷,2025-04-12,21.900836,120.855269,0.981828
467420,永康,2025-04-12,23.038386,120.2367,0.9429892
C0I410,名間,2025-04-12,23.837053,120.701447,6.8167755e-10
A2C560,農工中心,2025-04-12,24.985917,121.239833,1.16751636e-07
C0V740,旗山,2025-04-12,22.888614,120.483597,0.16720816
C0Z061,玉里,2025-04-12,23.3215,121.339656,4.0707164e-07
C0S840,南田,2025-04-12,22.279725,120.889208,0.9989857
C1I470,杉林溪,2025-04-12,23.639517,120.786444,1.7836038e-08
C1X040,東原,2025-04-12,23.291597,120.463822,4.7684534e-07
C0R660,枋寮,2025-04-12,22.367722,120.590647,0.9806139
C1R120,上德文,2025-04-12,22.763272,120.704442,6.183496e-08
C0K450,大埤,2025-04-12,23.646074,120.431537,1.0412796e-09
C0UA00,土場,2025-04-12,24.576533,121.495333,2.054208e-08
467080,宜蘭,2025-04-12,24.763975,121.756528,9.509375e-06
C0N030,四草,2025-04-12,23.0235,120.1116,0.0019085177
467410,臺南,2025-04-12,22.99328,120.20492,0.9967214
C0V650,彌陀,2025-04-12,22.783806,120.246361,0.99887747
C0D660,新竹市東區,2025-04-12,24.798681,120.986942,3.9819223e-09
82S580,茶改東部分場,2025-04-12,22.907694,121.130139,0.035394464
C0SB40,興隆,2025-04-12,22.913661,121.257469,0.31329817
467050,新屋,2025-04-12,25.006725,121.047492,0.00010531834
C0C710,大溪永福,2025-04-12,24.892936,121.324975,4.0418154e-08
C0FA20,溫寮,2025-04-12,24.372177,120.583125,3.2323305e-07
C0V640,湖內,2025-04-12,22.887139,120.2445,0.99976045
C0R910,下寮,2025-04-12,22.3929,120.5548,0.98060024
C0Z020,明里,2025-04-12,23.208717,121.262342,5.2220045e-08
C0M770,嘉義梅山,2025-04-12,23.585398,120.555587,7.5233375e-10
C0C660,楊梅,2025-04-12,24.912375,121.143047,3.8104795e-07
C1E511,新開,2025-04-12,24.347703,120.827019,2.0127928e-09
G2F820,農試所(霧峰),2025-04-12,24.031261,120.688133,1.6066748e-08
C1I070,和社,2025-04-12,23.591131,120.888861,5.7498944e-08
C2F000,大肚,2025-04-12,24.15295,120.572117,1.1668876e-09
C1S850,豐南,2025-04-12,23.122139,121.262389,1.4178671e-07
C2A920,富貴角,2025-04-12,25.263783,121.565258,0.10553616
CAH030,茶改場竹圍站,2025-04-12,23.860083,120.637528,7.782597e-10
C0T960,光復,2025-04-12,23.660694,121.424964,9.285656e-05
C0F9M0,豐原,2025-04-12,24.254322,120.720692,1.9583966e-09
C0R720,旭海,2025-04-12,22.205403,120.887614,0.008938994
C0V710,苓雅,2025-04-12,22.622742,120.330669,0.99212945
C0C740,觀音工業區,2025-04-12,25.064764,121.114856,0.022786692
CAC040,拉拉山,2025-04-12,24.699317,121.427133,2.2449111e-08
C0V790,萬山,2025-04-12,22.905944,120.688056,1.1104826e-09
U2HA30,臺大和社,2025-04-12,23.590856,120.888864,5.7498944e-08
C0AJ90,澳底,2025-04-12,25.0552,121.9253,1.1313017e-06
C0Z100,東華,2025-04-12,23.89525,121.549833,1.8425293e-05
C0G970,三豐,2025-04-12,23.882,120.2895,0.00014779464
V2K610,大庄合作社,2025-04-12,23.8068,120.367939,3.9100922e-09
C0V900,汕尾,2025-04-12,22.4782,120.4151,0.9981179
C1R630,龍泉,2025-04-12,22.66701,120.59091,0.00036387204
C1AC50,關渡,2025-04-12,25.133486,121.469331,8.579558e-06
C0F9I0,神岡,2025-04-12,24.272481,120.658314,2.223166e-09
C0K460,斗南,2025-04-12,23.678734,120.478359,1.0269522e-09
C2O810,曾文,2025-04-12,23.219681,120.497328,8.282302e-05
467280,後龍,2025-04-12,24.648563,120.831834,7.745121e-09
C1F9J1,清水林,2025-04-12,24.071242,120.820419,1.8567489e-09
C2A650,火燒寮,2025-04-12,25.002719,121.742892,1.6962392e-08
466930,竹子湖,2025-04-12,25.162078,121.544547,1.1531417e-08
C1I220,樟湖,2025-04-12,23.905333,120.846983,6.782255e-09
C0I390,仁愛,2025-04-12,24.022122,121.132206,7.920221e-09
C0Z300,東里,2025-04-12,23.26853,121.30547,7.116821e-08
C1V590,新發,2025-04-12,23.057019,120.646064,5.3522453e-09
C0K510,水林,2025-04-12,23.572924,120.24597,3.3688394e-09
72S590,東改賓朗果園,2025-04-12,22.813889,121.071278,0.0001783565
82A750,茶改北部分場,2025-04-12,24.955778,121.631222,1.0096091e-08
C1A750,石碇服務區,2025-04-12,25.00872,121.646242,0.000116778174
C0X300,鹿寮,2025-04-12,23.386047,120.477331,9.063685e-10
G2AI50,關渡,2025-04-12,25.11575,121.492,0.8809889
C0K590,雲林東勢,2025-04-12,23.674192,120.255721,3.2091843e-09
C0A570,桶後,2025-04-12,24.848222,121.597992,1.8886137e-08
C1S800,華源,2025-04-12,22.657883,121.02325,2.3138757e-06
C0G720,溪州,2025-04-12,23.851589,120.499093,1.1845492e-09
C1V160,達卡努瓦,2025-04-12,23.279811,120.705319,8.5654674e-09
C2M410,馬頭山,2025-04-12,23.324361,120.582017,1.7491049e-09
C0V850,蚵仔寮,2025-04-12,22.7256,120.2527,0.99383706
C0S740,池上,2025-04-12,23.119628,121.209469,0.0037472555
C1V390,尖山,2025-04-12,22.813153,120.367789,0.5351493
C0AH70,松山,2025-04-12,25.04871,121.55042,0.0029760948
C0N010,鯤鯓國小,2025-04-12,23.1879,120.0889,0.0012625764
C0R550,新埤,2025-04-12,22.467947,120.582894,0.9975148
C0SA60,知本（水試所）,2025-04-12,22.702394,121.082761,0.00022398222
C0T9I0,豐濱,2025-04-12,23.583897,121.514806,0.00013503591
C0UB00,淡江大學蘭陽校園,2025-04-12,24.823239,121.730383,1.2294977e-08
C0W240,九宮,2025-04-12,24.423753,118.240186,4.5058997e-09
C0T9N0,富里,2025-04-12,23.171639,121.249378,2.2035987e-05
U2HA50,臺大竹山,2025-04-12,23.756972,120.681556,6.18421e-10
C0V840,鳳鼻頭,2025-04-12,22.5083,120.3591,0.9962831
C0X140,西港,2025-04-12,23.125608,120.203108,7.7236284e-05
72D080,桃改五峰分場,2025-04-12,24.612194,121.157167,5.4000293e-09
C2H9P0,伊拿谷,2025-04-12,23.963211,121.088264,5.627236e-09
C2H9F0,柑林,2025-04-12,24.018658,120.847072,1.1136028e-09
C0TA20,加灣,2025-04-12,24.082025,121.608944,1.5708434e-06
C0V530,阿蓮,2025-04-12,22.883208,120.327508,0.9851277
C1O880,關山,2025-04-12,23.173397,120.594092,1.6353499e-09
C0E791,卓蘭,2025-04-12,24.3126,120.8244,1.9819464e-09
C1I030,武界,2025-04-12,23.913225,121.052483,5.7210547e-09
C0R520,崁頂,2025-04-12,22.514781,120.506914,0.9972245
C0R341,牡丹,2025-04-12,22.130036,120.792639,0.44948056
C0R930,萬丹,2025-04-12,22.5885,120.4851,0.89879817
C0S760,紅石,2025-04-12,23.069131,121.126219,4.6519855e-08
C2C410,中央大學,2025-04-12,24.967652,121.185165,9.968465e-08
C1M610,石磐龍,2025-04-12,23.496606,120.663506,4.5904693e-09
C0UA10,鴛鴦湖,2025-04-12,24.590269,121.412228,2.5721887e-08
V2C260,八德蔬果,2025-04-12,24.978508,121.281819,2.1296478e-07
C0R800,丹路,2025-04-12,22.204481,120.750989,0.99526054
C0G920,永靖,2025-04-12,23.924703,120.547533,2.4862117e-09
C2M950,太和,2025-04-12,23.538372,120.702961,5.730917e-09
C1A630,下盆,2025-04-12,24.771003,121.538622,4.313844e-09
B2N890,畜產試驗所,2025-04-12,23.058972,120.336406,0.82181364
C0UA30,白嶺,2025-04-12,24.527819,121.519031,3.341178e-08
C1V580,溪南(特生中心),2025-04-12,23.084972,120.788475,1.52519e-08
C1T970,大農,2025-04-12,23.615233,121.413331,1.8250277e-05
C0R650,竹田,2025-04-12,22.58486,120.54344,0.80429333
C1H900,清流,2025-04-12,24.080775,120.962997,4.752475e-09
C1C510,水尾,2025-04-12,24.940081,121.087161,2.4956735e-06
C0F9X0,大雅(中科園區),2025-04-12,24.21528,120.62445,8.642878e-09
C0SB60,白守蓮,2025-04-12,23.126769,121.401914,0.99537206
C0O970,虎頭埤,2025-04-12,23.021375,120.347878,0.30133075
C0C730,中大臨海站,2025-04-12,24.966126,121.008581,0.00018298392
C0X250,新營,2025-04-12,23.310689,120.316681,2.8505217e-05
C0V700,三民,2025-04-12,22.645017,120.311233,0.99871033
C0U870,大礁溪,2025-04-12,24.791042,121.675047,1.312368e-08
C0E870,高鐵苗栗,2025-04-12,24.60725,120.826094,7.5534096e-08
A2K570,古坑花卉中心,2025-04-12,23.63353,120.55239,8.007604e-10
C0TA30,鹽寮,2025-04-12,23.845606,121.592664,4.577521e-05
C0M860,新美,2025-04-12,23.338017,120.683169,1.2986127e-09
C1E701,八卦,2025-04-12,24.491756,120.927619,5.8824976e-09
C0I420,國姓,2025-04-12,24.037803,120.855072,1.1163077e-09
C2D720,關西工作站,2025-04-12,24.757275,121.184792,3.932125e-09
C0S960,香蘭,2025-04-12,22.587569,120.993375,7.5633657e-06
467620,蘭嶼,2025-04-12,22.0369,121.55843,0.998185
C0R260,春日,2025-04-12,22.370361,120.628306,0.9035917
72G600,臺中農改場,2025-04-12,24.003028,120.534389,2.6154958e-09
C0Z210,瑞穗,2025-04-12,23.5239,121.39021,0.00027841693
C0M820,達邦,2025-04-12,23.453994,120.749517,3.9862993e-09
C0V860,南寮,2025-04-12,22.7616,120.2339,0.9941146
C0G740,大城,2025-04-12,23.852487,120.320935,8.514101e-05
C0R920,塭仔,2025-04-12,22.4169,120.5197,0.98236823
C0R470,高樹,2025-04-12,22.826389,120.600806,1.0265943e-08
C0R680,佳樂水,2025-04-12,21.993578,120.861633,0.6999195
C1O870,大棟山,2025-04-12,23.31157,120.52226,7.583143e-09
C0D360,梅花,2025-04-12,24.678347,121.208558,1.9735165e-08
C0Z190,富世,2025-04-12,24.14743,121.6297,9.7851526e-08
C0AI10,屈尺,2025-04-12,24.92184,121.54475,1.8024402e-05
B2U990,畜試東區分所,2025-04-12,24.669039,121.832561,3.328456e-05
C0SB80,長濱漁港,2025-04-12,23.313644,121.459994,1.1463574e-05
C0R240,來義,2025-04-12,22.527306,120.625111,0.98928
C0V910,大樹,2025-04-12,22.684645,120.432803,0.2389942
C1R610,西大武山,2025-04-12,22.617719,120.7322,3.384298e-08
C0G900,線西,2025-04-12,24.143358,120.443536,2.4491138e-07
C0M700,竹崎,2025-04-12,23.526178,120.555508,7.7622575e-10
C2E880,三義,2025-04-12,24.405478,120.749819,2.2961355e-09
C0C720,竹圍,2025-04-12,25.112692,121.239824,0.8743937
C0F9P0,清水,2025-04-12,24.312297,120.562242,2.4304833e-07
C0Z150,吉安光華,2025-04-12,23.930925,121.595153,0.00085252966
467300,東吉島,2025-04-12,23.25727,119.66762,0.99980927
C1D640,外坪(五指山),2025-04-12,24.644447,121.090961,5.0765077e-09
C0F9O0,潭子,2025-04-12,24.213106,120.703933,1.9315458e-09
C2H9R0,卓社,2025-04-12,23.887894,121.000086,1.0490627e-08
72T250,花蓮農改場,2025-04-12,23.975222,121.563889,0.00018843525
C0E780,銅鑼,2025-04-12,24.489681,120.790853,2.8282894e-09
C1T950,太安,2025-04-12,23.666719,121.370128,9.370739e-09
C0E830,苑裡,2025-04-12,24.439714,120.653053,7.722119e-07
467270,田中,2025-04-12,23.873803,120.581286,1.0468035e-09
C0SA10,檳榔四格山,2025-04-12,22.810031,121.109308,7.660355e-06
C1T830,布洛灣,2025-04-12,24.17184,121.57127,4.3634895e-08
C0F970,大坑,2025-04-12,24.173142,120.722289,1.8248065e-09
C1U920,思源,2025-04-12,24.393125,121.347214,2.4618872e-08
C0A931,三和,2025-04-12,25.233153,121.595236,1.0225392e-06
C0I010,廬山,2025-04-12,24.033311,121.181808,1.5921659e-08
C2M940,日野賀,2025-04-12,23.434056,120.727169,4.69708e-09
C0R860,鼻頭,2025-04-12,22.1043,120.8979,0.86310273
C0UB20,壯圍,2025-04-12,24.7359,121.8163,2.7157163e-05
C0R790,九棚,2025-04-12,22.14195,120.889281,0.16524509
C0W110,東莒,2025-04-12,25.9652,119.98069,8.145605e-08
C1U930,粉鳥林,2025-04-12,24.497088,121.842479,0.00021366192
C1I211,蘆竹湳,2025-04-12,23.934019,120.811994,1.53419e-09
C0S830,長濱,2025-04-12,23.286817,121.411975,1.2744853e-07
C1F9F1,伯公龍,2025-04-12,24.272392,120.849047,1.910733e-09
C0E810,西湖,2025-04-12,24.562947,120.7485,4.4398807e-06
C1I440,新高口,2025-04-12,23.478744,120.878939,2.3414641e-08
C0O840,王爺宮,2025-04-12,23.222064,120.40085,0.0004744507
C0T9G0,鳳林山,2025-04-12,23.735269,121.420131,8.14705e-08
C0X080,佳里,2025-04-12,23.173039,120.145086,0.0012826682
C0FB70,大甲溪埔,2025-04-12,24.370625,120.620067,1.7332819e-07
C0Z310,清水斷崖,2025-04-12,24.218294,121.689142,3.3105297e-07
C0M680,太保,2025-04-12,23.455062,120.331455,2.0111925e-09
C1S820,金峰,2025-04-12,22.590969,120.933236,1.4436537e-07
C0AD10,八里,2025-04-12,25.150211,121.403947,0.87453496
C2K240,草嶺,2025-04-12,23.59555,120.693461,4.610335e-09
C1SA70,都蘭,2025-04-12,22.87794,121.226881,0.31233388
C0K440,二崙,2025-04-12,23.772797,120.408944,1.2366279e-09
C1A760,坪林交控,2025-04-12,24.94284,121.713442,1.8558364e-08
C0F9N0,大里,2025-04-12,24.092464,120.701378,9.527911e-10
C0SA90,達仁林場,2025-04-12,22.264347,120.823972,2.0592003e-07
C1R290,石門山,2025-04-12,22.112611,120.756597,0.99992
42HA10,萬大發電廠,2025-04-12,23.978875,121.139639,6.2848717e-09
C0R890,山海,2025-04-12,21.9878,120.7091,0.34935024
C0T9A0,月眉山,2025-04-12,23.809928,121.539828,4.0047972e-08
C0AC70,信義,2025-04-12,25.037822,121.564597,0.0031151935
C0K560,棋山,2025-04-12,23.68645,120.603417,7.585265e-10
C2FB50,出雲,2025-04-12,24.206469,120.902794,5.1355347e-09
C1Z240,中平林道,2025-04-12,23.42115,121.26763,2.0777367e-08
U2H480,溪頭,2025-04-12,23.670306,120.798194,6.658843e-09
C0M880,好美里,2025-04-12,23.3364,120.138,0.0010134137
C0T9E0,大坑,2025-04-12,23.880628,121.581981,6.6375684e-08
C0K530,臺西,2025-04-12,23.701547,120.197559,7.892628e-08
C1E900,國一N128K,2025-04-12,24.560997,120.844186,3.890935e-09
C0AJ50,水湳洞,2025-04-12,25.123695,121.862238,9.596624e-06
C0AI20,白沙灣,2025-04-12,25.283128,121.519058,0.93309456
C2V310,美濃,2025-04-12,22.898792,120.51907,0.18074699
C0A860,大坪,2025-04-12,25.165914,121.632969,9.847554e-09
C1U850,觀音海岸,2025-04-12,24.38319,121.77856,1.3230042e-08
C2K610,草嶺石壁,2025-04-12,23.602469,120.707731,4.781862e-09
C0U950,鶯子嶺,2025-04-12,24.89754,121.79244,1.5752683e-08
C0O900,善化,2025-04-12,23.112883,120.297219,0.93558943
C0K550,蔦松,2025-04-12,23.514319,120.229736,6.2585666e-09
E2P980,林試六龜中心,2025-04-12,22.991703,120.645722,5.193772e-09
C0E590,通霄,2025-04-12,24.471892,120.704622,3.414103e-07
C1I310,西巒,2025-04-12,23.754486,120.883956,7.803217e-09
C0A550,泰平,2025-04-12,24.971197,121.823711,8.648369e-09
C0I360,水里,2025-04-12,23.812553,120.849792,8.5560903e-10
C0R830,高士,2025-04-12,22.121825,120.836781,0.99991256
C1I101,溪頭,2025-04-12,23.661789,120.807647,1.9278552e-08
C0AJ20,野柳,2025-04-12,25.20703,121.690021,9.331081e-06
C0B060,暖暖,2025-04-12,25.0957,121.7403,4.907182e-06
C1H920,長豐,2025-04-12,24.102039,120.879897,2.1415445e-09
C0V360,內門,2025-04-12,22.975481,120.466769,0.023172237
C0R850,林邊,2025-04-12,22.4634,120.5339,0.99791175
C0E930,龍鳳,2025-04-12,24.700034,120.859125,5.3527994e-08
C0U910,冬山,2025-04-12,24.63373,121.7937,3.328456e-05
C1E721,泰安,2025-04-12,24.489017,120.968036,1.0242531e-08
82H320,茶改中部分場,2025-04-12,23.875611,120.913583,5.720782e-09
C0M750,布袋,2025-04-12,23.380878,120.167789,3.875544e-09
C1S860,利嘉,2025-04-12,22.809417,121.050528,1.5076969e-08
E2S980,林試太麻里1,2025-04-12,22.598922,120.980044,1.0701219e-06
C0X170,關廟,2025-04-12,22.963017,120.327797,0.21198377
C0V720,林園,2025-04-12,22.507747,120.394511,0.98757213
C1I510,線浸林道,2025-04-12,23.761508,120.832956,5.726896e-09
C0D690,外湖,2025-04-12,24.917735,120.968711,1.0609677e-05
C0C750,新興坑尾,2025-04-12,25.0061,121.0971,2.0307858e-05
B2Q810,畜試南區分所,2025-04-12,21.945583,120.802167,0.6913067
C0S790,金崙,2025-04-12,22.538122,120.966875,7.3717956e-08
C0AH90,福山植物園,2025-04-12,24.760717,121.58135,5.1518696e-09
C0I540,奇萊稜線,2025-04-12,24.109231,121.326456,3.9859135e-08
C0M850,表湖,2025-04-12,23.24186,120.64166,1.6272135e-09
C0S770,大溪山,2025-04-12,22.478475,120.943325,2.931867e-08
C0AG80,中和,2025-04-12,24.991622,121.491792,0.13148955
C0T790,大禹嶺,2025-04-12,24.186117,121.316086,3.453892e-08
C0T9B0,水源,2025-04-12,23.991861,121.537169,9.4876775e-08
C0R840,牡丹池山,2025-04-12,22.168389,120.841225,3.9462938e-07
C1I131,桶頭,2025-04-12,23.641944,120.654117,8.346641e-10
CAL110,布袋國中,2025-04-12,23.35893,120.18026,0.00033869807
467571,新竹,2025-04-12,24.827853,121.014219,4.001542e-09
C0Z290,赤柯山,2025-04-12,23.36893,121.38293,3.7756084e-08
C0X280,將軍,2025-04-12,23.214999,120.13577,0.0018255406
C0S690,太麻里,2025-04-12,22.60902,120.98533,3.5539977e-06
C0U880,北關,2025-04-12,24.9072,121.8734,1.4417743e-05
C0G810,埔心,2025-04-12,23.947633,120.525456,2.5669287e-09
C0U970,大福,2025-04-12,24.80064,121.81389,1.46284965e-05
C2H9N0,仁愛東眼,2025-04-12,24.026875,121.1205,1.508675e-08
C1E670,南礦,2025-04-12,24.538278,121.002836,8.010832e-09
C0M520,東後寮,2025-04-12,23.369908,120.248065,0.00020598364
C1E461,松安,2025-04-12,24.397972,120.986022,8.849964e-09
C2N160,西拉雅風管處,2025-04-12,23.189481,120.335297,1.1583027e-05
C2M970,碧湖,2025-04-12,23.568632,120.624165,4.2326826e-09
C0A640,石碇,2025-04-12,24.993969,121.662917,3.5654068e-08
E2S960,林試太麻里2,2025-04-12,22.598,120.99775,8.981201e-06
C0F9Y0,桃山,2025-04-12,24.432739,121.303808,4.3572268e-08
C1I020,萬大,2025-04-12,23.979817,121.132261,7.980879e-09
C0U940,羅東,2025-04-12,24.68184,121.74934,1.95896e-05
C0M650,朴子,2025-04-12,23.43463,120.23902,2.8466958e-09
C1I500,大尖山,2025-04-12,23.858572,120.994889,2.3270788e-08
C0G820,田尾,2025-04-12,23.901669,120.509389,2.5591655e-09
E2K600,四湖植物園,2025-04-12,23.676986,120.163433,6.9963896e-08
C0S730,綠島,2025-04-12,22.6672,121.47533,0.99989873
12Q970,東港工作站,2025-04-12,22.479997,120.466058,0.99811375
C0E430,南庄,2025-04-12,24.601775,121.000214,3.3306011e-09
C1TA00,太魯閣,2025-04-12,24.15773,121.6236,7.401678e-08
466920,臺北,2025-04-12,25.037658,121.514853,0.0029760948
C0R600,舊泰武,2025-04-12,22.588194,120.664944,8.437691e-09
C1I260,北坑,2025-04-12,23.9246,121.006903,1.5720918e-09
466910,鞍部,2025-04-12,25.182586,121.529731,1.7956875e-08
C1I230,九份二山,2025-04-12,23.961944,120.845,5.419717e-09
C2A660,瑞芳,2025-04-12,25.113169,121.801147,2.6913904e-06
C0R270,琉球嶼,2025-04-12,22.332244,120.362236,0.9695306
C1T990,高寮,2025-04-12,23.394239,121.356808,2.5419262e-05
C0G620,芬園,2025-04-12,24.015678,120.6213,1.8495736e-09
C1Z140,荖溪,2025-04-12,23.890575,121.45964,7.25193e-08
C1I201,中心崙,2025-04-12,23.728722,120.712097,1.7405022e-09
C1I400,凌霄,2025-04-12,24.018778,121.004456,1.4948972e-08
C1M640,十字,2025-04-12,23.492153,120.753683,1.5239191e-08
G2P820,農試鳳山分所,2025-04-12,22.646611,120.356083,0.9981877
C0Z270,蕃薯寮,2025-04-12,23.73835,121.540108,9.29172e-08
C0F9Q0,外埔,2025-04-12,24.347817,120.705686,2.6948632e-09
C0K580,高鐵雲林,2025-04-12,23.737456,120.417944,1.1522178e-09
C2I090,鳳凰,2025-04-12,23.728081,120.787347,5.038597e-09
C0U990,員山,2025-04-12,24.74435,121.72247,2.038485e-05
C0V770,大社,2025-04-12,22.730306,120.346639,0.988422
C0X120,麻豆,2025-04-12,23.183289,120.248611,3.950557e-05
C0C670,龍潭,2025-04-12,24.870056,121.221389,2.8012845e-09
C0D680,香山濕地,2025-04-12,24.783581,120.914988,4.957142e-09
C0S980,勝林山,2025-04-12,22.430439,120.8938,6.157968e-08
C0V730,大寮,2025-04-12,22.605614,120.395717,0.92709464
C0R570,麟洛,2025-04-12,22.65078,120.52719,0.0001711291
C2M930,石卓,2025-04-12,23.478744,120.702264,1.563072e-08
C0G9B0,和美,2025-04-12,24.105169,120.492131,6.12977e-09
CAG100,王功漁港,2025-04-12,23.96824,120.32586,0.017293273
C0X290,北門,2025-04-12,23.267772,120.125481,0.0018853013
C2F930,大甲,2025-04-12,24.347667,120.640403,5.1630764e-08
C0D650,湖口,2025-04-12,24.904794,121.043628,3.2330072e-06
C0E420,竹南,2025-04-12,24.708978,120.888897,3.9606622e-08
C0U780,五結,2025-04-12,24.68637,121.79794,2.6970743e-05
C1I250,鯉潭,2025-04-12,23.961922,120.991131,2.5344502e-09
C0R130,阿禮,2025-04-12,22.742908,120.743678,3.315259e-08
C0X100,臺南市北區,2025-04-12,23.010394,120.194228,0.9984023
C0S920,金峰嘉蘭,2025-04-12,22.594789,120.960825,8.157777e-07
C0V490,新興,2025-04-12,22.627422,120.298803,0.9932815
C0F9K0,大安,2025-04-12,24.345061,120.588025,1.8603112e-07
467290,古坑,2025-04-12,23.633639,120.551889,8.007604e-10
C2E970,八甲,2025-04-12,24.535811,120.795983,2.946548e-09
C0V440,鳳山,2025-04-12,22.646653,120.356122,0.9981877
C1T940,大觀,2025-04-12,23.714206,121.373133,4.569776e-08
C0E740,造橋,2025-04-12,24.637056,120.864778,8.030444e-09
C0R100,尾寮山,2025-04-12,22.833111,120.683889,3.687415e-08
A2K630,臺大雲林校區,2025-04-12,23.730628,120.423903,1.1454753e-09
467990,馬祖,2025-04-12,26.169467,119.923158,1.2239821e-09
C0D580,寶山,2025-04-12,24.735006,121.025192,3.122092e-09
E2P990,林試扇平站,2025-04-12,22.9677,120.6857,9.1460395e-09
C0AI30,三重,2025-04-12,25.057328,121.500629,0.004310259
C0AH00,汐止,2025-04-12,25.066881,121.658778,0.0029760948
C1Z040,立山,2025-04-12,23.443356,121.327375,7.6822865e-08
466881,新北,2025-04-12,24.959207,121.525196,0.0837495
C0W130,花嶼,2025-04-12,23.40007,119.32276,0.99888843
C0A950,鼻頭角,2025-04-12,25.129036,121.923372,0.00074144587
C0K470,林內,2025-04-12,23.748675,120.609642,7.6081735e-10
C2F990,摩天嶺,2025-04-12,24.322458,120.936819,4.9675153e-09
82C160,茶改場,2025-04-12,24.908472,121.185333,1.9830937e-07
C0Z320,清水林道,2025-04-12,23.27125,121.188272,4.62069e-08
C0R760,南仁湖,2025-04-12,22.084681,120.863353,0.9999209
C0M670,大林,2025-04-12,23.600616,120.45841,1.7535075e-09
C0M800,茶山,2025-04-12,23.299075,120.664767,1.3203239e-09
C0A9C0,天母,2025-04-12,25.117494,121.537169,4.8379494e-05
72K220,南改斗南分場,2025-04-12,23.634556,120.477333,9.980138e-10
72AI40,桃改樹林分場,2025-04-12,24.944503,121.386972,0.028600037
C0S910,蘭嶼燈塔,2025-04-12,22.081197,121.503117,0.99787366
C0B050,八斗子,2025-04-12,25.144754,121.79167,1.3513561e-05
C0U900,內城,2025-04-12,24.71813,121.68766,1.0802415e-05
C0X320,柳營,2025-04-12,23.253328,120.375253,2.0655773e-09
C0M790,新港,2025-04-12,23.553269,120.345728,2.756067e-09
C0F9T0,西屯,2025-04-12,24.179494,120.641275,1.35118405e-08
C0SA30,都歷,2025-04-12,23.020333,121.323642,0.09943349
C0C620,蘆竹,2025-04-12,25.084275,121.265767,0.26616403
C0R730,大坪頂,2025-04-12,22.024633,120.69355,0.99712324
C0AJ40,石門,2025-04-12,25.273672,121.601198,0.35445067
C0E750,苗栗,2025-04-12,24.564569,120.824575,4.0796877e-09
C0T870,鯉魚潭,2025-04-12,23.935639,121.508944,3.4014029e-06
C1V170,排雲,2025-04-12,23.463619,120.954147,3.8120277e-08
C2H950,中寮,2025-04-12,23.884447,120.766406,7.4483673e-09
C0R350,貓鼻頭,2025-04-12,21.921774,120.7358,0.6004594
C0V660,岡山,2025-04-12,22.797078,120.294958,0.9988708
C1H941,雙冬,2025-04-12,23.967378,120.802189,1.586227e-09
C0AJ70,田寮,2025-04-12,25.2698,121.4886,0.9383726
C0AI00,五股,2025-04-12,25.07445,121.42728,1.2439318e-07
C0Z280,德武,2025-04-12,23.47426,121.41071,5.1380584e-06
C0R700,枋山,2025-04-12,22.246844,120.661086,0.99083894
C0C460,復興,2025-04-12,24.820208,121.352281,2.4010902e-08
E2H360,蓮華池,2025-04-12,23.918333,120.885278,1.6994767e-09
C0M640,中埔,2025-04-12,23.42538,120.5229,6.8074074e-10
C0W140,金沙,2025-04-12,24.488292,118.408778,2.0944548e-09
C2A540,四堵,2025-04-12,24.8926,121.745736,9.714169e-09
C0ACA0,新莊,2025-04-12,25.051478,121.446756,0.029961191
C0R220,潮州,2025-04-12,22.534361,120.54,0.9970081
U2HA40,臺大內茅埔,2025-04-12,23.689722,120.851117,2.1289073e-09
467490,臺中,2025-04-12,24.145736,120.684075,1.4662768e-08
C0U960,翠峰湖,2025-04-12,24.510856,121.608044,4.6729017e-08
E2HA20,林試畢祿溪站,2025-04-12,24.226944,121.308522,3.3931077e-08
C0V890,前鎮,2025-04-12,22.5718,120.3117,0.99427015
C1F941,雪嶺,2025-04-12,24.280586,121.026642,3.9544346e-08
C2H9E0,國姓南港,2025-04-12,23.911108,120.846556,6.9946515e-09
C0AC80,文山,2025-04-12,25.00235,121.575728,0.048162207
C0F9R0,龍井,2025-04-12,24.184536,120.528972,3.1626612e-07
C0M760,民雄,2025-04-12,23.551754,120.428457,1.7789246e-09
C0UA40,西德山,2025-04-12,24.560647,121.752608,2.5009808e-08
C1T920,中興,2025-04-12,23.769503,121.498653,8.01947e-07
C0D550,雪霸,2025-04-12,24.526972,121.11605,2.4445464e-08
C2F860,梨山,2025-04-12,24.247522,121.243669,3.4296097e-08
C0R320,車城,2025-04-12,22.0744,120.716247,0.64131427
C1S870,南美山,2025-04-12,23.15025,121.382333,2.7143129e-05
C0B020,基隆嶼,2025-04-12,25.19141,121.78391,0.90327954
C1U501,牛鬥,2025-04-12,24.637836,121.573656,8.710669e-08
C0M730,嘉義市東區,2025-04-12,23.457673,120.460531,1.4512044e-09
C0S700,知本,2025-04-12,22.684866,121.005642,1.747012e-08
C1N001,沙崙,2025-04-12,22.935472,120.309406,0.2776485
C0V760,橋頭,2025-04-12,22.757806,120.30575,0.9918565
C0G960,福寶,2025-04-12,24.0443,120.3814,6.6914105e-09
C0X210,白河,2025-04-12,23.347466,120.414427,1.5359027e-09
C0S810,東河,2025-04-12,22.972672,121.303986,0.9966508
C2R170,屏東,2025-04-12,22.66027,120.49403,0.00017465989
C0R670,楓港,2025-04-12,22.190131,120.692156,0.99798036
C0FA50,霧峰,2025-04-12,24.0419,120.6995,1.579173e-08
C0UB10,蘇澳,2025-04-12,24.5969,121.8571,1.4310375e-05
C0G950,防潮門,2025-04-12,24.1835,120.4871,3.8653107e-07
C0M740,六腳,2025-04-12,23.492871,120.290625,3.0020513e-09
C1R250,力里,2025-04-12,22.428117,120.629228,0.99778503
C0K330,虎尾,2025-04-12,23.719183,120.442036,1.0833772e-09
C2FA00,烏石坑,2025-04-12,24.273503,120.947617,4.9149267e-09
C0V620,永安,2025-04-12,22.82315,120.236856,0.99887747
C1I330,楓樹林,2025-04-12,23.986803,121.076117,9.744157e-09
C0W200,湖西,2025-04-12,23.596314,119.67275,0.9994353
72Q010,高雄農改場,2025-04-12,22.709333,120.525889,2.9153334e-08
C0SA40,瑞和,2025-04-12,22.974361,121.156697,0.013011546
C0C680,龜山,2025-04-12,25.02846,121.38656,8.207191e-08
C2V260,月眉,2025-04-12,22.971003,120.539853,0.00050858967
C0V450,鳳森,2025-04-12,22.545064,120.392592,0.9684603
C0U720,南山,2025-04-12,24.43742,121.38167,3.467926e-08
A2N290,臺南蘭花園區,2025-04-12,23.340258,120.379661,1.9453181e-09
C0R560,新園,2025-04-12,22.5434,120.461558,0.98757213
C0U890,三星,2025-04-12,24.66812,121.65302,9.974996e-07
C1V300,御油山,2025-04-12,23.001983,120.715364,1.5271926e-08
C0U600,礁溪,2025-04-12,24.817539,121.765608,2.8242812e-07
C1T980,龍澗,2025-04-12,24.023289,121.411328,6.6009044e-08
C0D670,海天一線,2025-04-12,24.831986,120.914438,1.5926364e-05
C0SA00,歷坵,2025-04-12,22.520969,120.89185,2.3963137e-08
C0M710,東石,2025-04-12,23.458927,120.15385,1.7107139e-08
C0M780,鹿草,2025-04-12,23.41134,120.30835,2.6012819e-09
C0U520,雙連埤,2025-04-12,24.753033,121.641303,1.298061e-08
C0B010,七堵,2025-04-12,25.094819,121.71713,9.755337e-06
C0R480,長治,2025-04-12,22.693128,120.542622,0.14366312
C1V830,國三S383K,2025-04-12,22.781967,120.426475,0.0028066693
12Q980,恆春工作站,2025-04-12,22.079678,120.714425,0.6415775
C1O940,東山服務區,2025-04-12,23.286016,120.398472,1.6882981e-09
C1U840,東澳嶺,2025-04-12,24.5378,121.8485,1.3626363e-08
C1D630,飛鳳山,2025-04-12,24.766464,121.119178,4.9247233e-09
C0S940,石寧山,2025-04-12,23.223772,121.406639,9.181437e-08
C0K410,北港,2025-04-12,23.573957,120.292802,3.279209e-09
C2M620,瑞里,2025-04-12,23.545133,120.675197,5.179714e-09
C0SB70,小港漁港,2025-04-12,23.158558,121.400431,0.2299302
C2O950,安南,2025-04-12,23.076694,120.144861,0.99981326
C0F0E0,南湖圈谷,2025-04-12,24.363714,121.444667,6.538153e-08
467610,成功,2025-04-12,23.097486,121.373428,0.98980904
C0G890,伸港,2025-04-12,24.148933,120.484403,2.0047005e-07
C2E540,龍溪,2025-04-12,24.606489,120.783933,8.926357e-08
C1V200,梅山,2025-04-12,23.268447,120.823556,8.547499e-09
C0T9H0,加路蘭山,2025-04-12,23.682947,121.5274,6.902597e-08
C2O930,玉井,2025-04-12,23.126042,120.46055,1.6338627e-09
C1F911,新伯公,2025-04-12,24.221361,120.841069,2.0848812e-09
C0R490,九如,2025-04-12,22.7405,120.490503,3.1118322e-08
C0X200,左鎮,2025-04-12,23.056758,120.408522,0.56635237
C0SB50,叭嗡嗡,2025-04-12,23.047062,121.343223,0.2478941
C1F891,稍來,2025-04-12,24.265689,121.001142,2.747209e-08
72N240,七股研究中心,2025-04-12,23.081672,120.062894,0.064851254
C0C700,中壢,2025-04-12,24.977661,121.256375,1.490991e-07
C0M690,水上,2025-04-12,23.419734,120.388909,1.886773e-09
C0V690,鼓山,2025-04-12,22.623325,120.275575,0.9933205
C0O860,大內,2025-04-12,23.11885,120.36083,0.8644204
C0Z200,萬榮,2025-04-12,23.709219,121.420106,5.241014e-07
C0T9D0,和中,2025-04-12,24.26676,121.74103,0.0003727148
C1O921,楠西,2025-04-12,23.183511,120.484083,1.3361575e-09
C0AJ30,淡水觀海,2025-04-12,25.184591,121.408616,0.0060597355
C0V810,左營,2025-04-12,22.67491,120.28491,0.99870914
C0UA70,桃源谷,2025-04-12,24.962606,121.888875,1.0698964e-08
C0X130,官田,2025-04-12,23.193217,120.315422,2.247799e-05
C1H000,翠峰,2025-04-12,24.109397,121.205211,2.9395832e-08
C0UA90,石城,2025-04-12,24.980444,121.951214,2.973695e-08
C1E681,南勢山,2025-04-12,24.421669,120.923831,4.524113e-09
C0A9F0,內湖,2025-04-12,25.079422,121.57545,0.002976092
C0K291,宜梧,2025-04-12,23.536281,120.169329,6.342482e-09
C1K540,口湖,2025-04-12,23.585344,120.180517,1.7158173e-07
C0R780,滿州,2025-04-12,22.024403,120.839892,0.8445261
C0V870,文安,2025-04-12,22.8025,120.2164,0.9989718
C0U650,玉蘭,2025-04-12,24.675286,121.587061,1.5722696e-08
C0R640,東港,2025-04-12,22.46247,120.44074,0.9981143
C0AJ80,板橋,2025-04-12,25.0107,121.4489,0.14322308
C0S660,下馬,2025-04-12,23.150427,121.070312,4.69521e-08
C1H9B1,阿眉,2025-04-12,24.1263,120.994672,2.5811481e-08
C0UA20,多加屯,2025-04-12,24.368614,121.373189,3.0304268e-08
C0E730,頭份,2025-04-12,24.688247,120.912206,3.8622925e-08
72V140,高改旗南分場,2025-04-12,22.857861,120.516667,0.016532766
C0K480,莿桐,2025-04-12,23.761192,120.502372,9.915475e-10
C0U980,坪林石牌,2025-04-12,24.86478,121.77396,1.2886229e-08
C0T900,西林,2025-04-12,23.8119,121.441458,1.9309266e-07
C1I150,青雲,2025-04-12,23.793361,120.949378,1.6834169e-09
467350,澎湖,2025-04-12,23.565503,119.563094,0.9977926
C0G800,埔鹽,2025-04-12,24.000394,120.431683,5.9843717e-09
C0H960,草屯,2025-04-12,23.973672,120.68085,1.2991162e-08
C1V780,多納林道,2025-04-12,22.888028,120.737917,7.7145135e-09
C0E920,通霄漁港,2025-04-12,24.498589,120.673876,2.1874555e-05
C0Z330,安通山,2025-04-12,23.290728,121.348528,3.9282437e-08
C0AH10,永和,2025-04-12,25.01125,121.508111,0.14682533
C0AK10,太平里,2025-04-12,25.134937,121.364899,0.85299987
C2G640,鹿港,2025-04-12,24.0753,120.430481,6.648208e-09
C1E890,國三N149K,2025-04-12,24.463414,120.680019,2.2103515e-08
C1R110,口社,2025-04-12,22.770111,120.645222,1.9417108e-05
C1M870,國三N285K,2025-04-12,23.550319,120.505833,8.314434e-10
C1E480,鳳美,2025-04-12,24.554803,121.034747,5.1269122e-09
C0M530,奮起湖,2025-04-12,23.493903,120.699253,5.7540714e-09
C0C590,觀音,2025-04-12,25.027072,121.153317,0.0047704773
C0T9M0,靜浦,2025-04-12,23.455167,121.495028,0.00068418804
C2H9M0,發祥,2025-04-12,24.154094,121.164517,1.1174587e-08
C0AI40,石牌,2025-04-12,25.115597,121.513139,4.712972e-05
C1F871,上谷關,2025-04-12,24.203483,121.018644,4.8732565e-09
C2H9G0,百勝,2025-04-12,24.051142,120.909361,1.8724577e-09
C0G880,二水,2025-04-12,23.810742,120.6173,7.980753e-10
C0R940,加祿堂,2025-04-12,22.3363,120.6217,0.4930189
C0W220,北竿,2025-04-12,26.220358,119.974881,1.0875261e-09
C0O960,崎頂,2025-04-12,22.959547,120.369317,0.05219095
C0S750,向陽,2025-04-12,23.248397,120.986133,2.0351221e-08
C0T9F0,水璉,2025-04-12,23.797131,121.542514,1.0514769e-07
C1M600,頭凍,2025-04-12,23.406364,120.603339,4.0989843e-09
467660,臺東,2025-04-12,22.752211,121.154586,0.9390655
C1D380,新埔,2025-04-12,24.84745,121.03834,7.837375e-09
C2G980,田頭村,2025-04-12,23.8263,120.444175,1.2368238e-09
C0V750,路竹,2025-04-12,22.854997,120.259439,0.9992521
C0N050,蚵寮,2025-04-12,23.301,120.1104,0.0010295057
72M700,南改鹿草分場,2025-04-12,23.416869,120.283061,2.8213174e-09
C1SA50,利嘉林道,2025-04-12,22.82325,121.009389,1.0539805e-08
C0A940,金山,2025-04-12,25.223628,121.643967,7.52425e-06
C1V340,大津,2025-04-12,22.888322,120.645986,4.3485238e-09
C0W180,七美,2025-04-12,23.219333,119.444892,0.999308
C1F9C1,白冷,2025-04-12,24.182844,120.929889,2.3646394e-09
K2E710,苗改生物防治研究中心,2025-04-12,24.422861,120.871833,3.0264393e-09
C0N040,蘆竹溝,2025-04-12,23.2344,120.0961,0.0020344034
C2W230,畜試所澎湖,2025-04-12,23.628342,119.513206,0.9965804
C0R880,後壁湖,2025-04-12,21.9457,120.7457,0.33930254
C1I280,埔中,2025-04-12,23.820778,120.642594,1.5085706e-09
467790,墾丁雷達站,2025-04-12,21.948235,120.808028,0.76551825
C0W190,望安,2025-04-12,23.380564,119.494075,0.99896806
C0Z170,卓溪,2025-04-12,23.3443,121.3029,4.7576427e-06
C0F850,東勢,2025-04-12,24.246428,120.833047,1.8896937e-09
466900,淡水,2025-04-12,25.164889,121.448906,0.8412701
C0I370,魚池,2025-04-12,23.895703,120.94135,1.769284e-09
C0C630,大溪,2025-04-12,24.882853,121.265547,5.5874423e-08
C0A520,山佳,2025-04-12,24.974944,121.402008,0.5321272
C0I110,竹山,2025-04-12,23.761225,120.688156,6.4677214e-10
82H840,茶改南部分場,2025-04-12,23.762528,120.7405,1.2117498e-09
C0G660,溪湖,2025-04-12,23.94835,120.479122,2.701229e-09
C1T800,洛韶,2025-04-12,24.204558,121.453956,4.503281e-08
C1T810,慈恩,2025-04-12,24.192044,121.388386,2.1833714e-08
C1E451,象鼻,2025-04-12,24.368617,120.940228,4.5132538e-09
C0AC60,三峽,2025-04-12,24.939025,121.369728,4.4131022e-07
C0I490,萬大林道,2025-04-12,23.928228,121.091411,1.6130645e-08
C1I290,豐丘,2025-04-12,23.668178,120.887417,5.065626e-09
C1I320,奧萬大,2025-04-12,23.952956,121.178556,9.9599475e-09
C2M910,嘉義大學,2025-04-12,23.471325,120.485903,8.767416e-10
C0U770,南澳,2025-04-12,24.44935,121.81022,2.410321e-05
C0A980,社子,2025-04-12,25.109508,121.469681,0.8895441
C0V800,六龜,2025-04-12,22.997889,120.633583,6.39591e-09
C1G9D0,國一S218K,2025-04-12,23.890641,120.493253,2.589342e-09
C0E570,白沙屯,2025-04-12,24.549447,120.696803,0.042994536
C2F9A0,中竹林,2025-04-12,24.103556,120.751061,1.1910786e-09
C0FA40,臺中電廠,2025-04-12,24.2146,120.4907,3.136679e-07
C2G9A0,畜試所彰化,2025-04-12,23.86045,120.557964,1.0482082e-09
C0H9C0,合歡山,2025-04-12,24.143442,121.272547,4.7510177e-08
C0X060,下營,2025-04-12,23.22695,120.256261,9.757146e-05
G2M350,農試溪口農場,2025-04-12,23.58565,120.408111,2.0067592e-09
C0U860,頭城,2025-04-12,24.85323,121.8308,3.6232402e-07
C0R580,南州,2025-04-12,22.48591,120.50274,0.9981143
C0D430,峨眉,2025-04-12,24.6905,121.017189,4.149343e-09
C0G780,秀水,2025-04-12,24.03405,120.503869,2.6230444e-09
72N100,臺南農改場,2025-04-12,23.0605,120.342194,0.8103497
C0S900,蘭嶼高中,2025-04-12,22.04909,121.51214,0.9985202
C1F9W0,德基,2025-04-12,24.254783,121.190261,1.9933093e-08
C1Z120,壽豐,2025-04-12,23.870853,121.508081,1.8425293e-05
C0W160,烏坵,2025-04-12,24.9944,119.44956,0.66513366
C1I240,外大坪,2025-04-12,23.958697,120.917931,2.5321454e-09
C1I550,國六W023K,2025-04-12,23.979067,120.867742,1.1020005e-09
C0R870,興海,2025-04-12,21.9752,120.8439,0.69148314
C0R140,瑪家,2025-04-12,22.682903,120.686639,7.4345143e-09
C0A530,坪林,2025-04-12,24.938183,121.70975,1.6659934e-08
C0X260,後壁,2025-04-12,23.366358,120.362326,7.4939624e-07
C0Z230,和平,2025-04-12,24.30717,121.77007,0.0007225454
C0G770,福興,2025-04-12,24.041289,120.437669,5.9732987e-09
C0H9A0,神木村,2025-04-12,23.532742,120.843667,1.8704919e-08
C0I460,南投,2025-04-12,23.911469,120.687331,1.3265594e-08
C0I480,梅峰,2025-04-12,24.085272,121.173572,2.6971016e-08
C1V570,吉東,2025-04-12,22.85422,120.5454,0.012318579
C2D740,屯原,2025-04-12,24.067969,121.209389,2.2576815e-08
C2A560,福山,2025-04-12,24.776203,121.502811,1.02641025e-08
C0AH30,五分山,2025-04-12,25.07125,121.780794,1.2889817e-08
C0FA10,松柏,2025-04-12,24.429115,120.617482,1.326692e-06
72S200,東改班鳩分場,2025-04-12,22.829528,121.077694,0.0023190372
72HA00,中改埔里分場,2025-04-12,23.903208,120.963364,1.6335728e-09
C2H9W0,大坪頂農水,2025-04-12,24.043122,120.932781,2.1456372e-09
C0C650,平鎮,2025-04-12,24.897503,121.214636,7.502051e-08
C0S930,延平,2025-04-12,22.902581,121.084058,0.0050733676
C0UA60,樟樹山,2025-04-12,24.41393,121.78325,1.5035186e-08
C1S670,摩天,2025-04-12,23.199503,121.027,4.552542e-08
C0V630,茄萣,2025-04-12,22.906642,120.182608,0.99978304
466940,基隆,2025-04-12,25.133314,121.740475,1.2245546e-05
C0X050,東河,2025-04-12,23.296598,120.385608,1.7452292e-09
C0R770,保力,2025-04-12,22.071122,120.764111,0.95069385
G2L020,農試嘉義分所,2025-04-12,23.485028,120.473806,9.574548e-10
C0X240,關子嶺,2025-04-12,23.331169,120.508025,1.3820654e-09
C0I380,集集,2025-04-12,23.828206,120.801467,8.736934e-10
466990,花蓮,2025-04-12,23.975128,121.613275,0.00069971243
C1V220,小關山,2025-04-12,23.154217,120.813603,1.5975775e-08
C1F9G1,慶福山,2025-04-12,24.180853,120.848378,3.4349825e-09
C0Z250,瑞穗林道,2025-04-12,23.49284,121.30688,2.0909315e-08
C0D590,新豐,2025-04-12,24.87068,120.97721,1.1524324e-06
C0A870,五指山,2025-04-12,25.132153,121.608692,1.2019399e-08
C0UA50,西帽山,2025-04-12,24.555361,121.802628,1.4201318e-08
C0X160,仁德,2025-04-12,22.968258,120.257689,0.9986222
C1H971,六分寮,2025-04-12,23.92507,120.6378,1.1734471e-09
C0W120,西嶼,2025-04-12,23.5626,119.468436,0.9960432
C0G650,員林,2025-04-12,23.946503,120.585597,2.261525e-09
C0AD50,鶯歌,2025-04-12,24.951533,121.346294,3.0553952e-07
C2H9Q0,北東眼山,2025-04-12,24.120939,121.189303,2.7355386e-08
C2H9T0,名間竹圍,2025-04-12,23.859914,120.637572,7.7681667e-10
C0S990,山豬窟,2025-04-12,22.318619,120.857372,1.2610855e-07
C0X190,安平,2025-04-12,22.993161,120.152181,0.9983953
C0K400,斗六,2025-04-12,23.720583,120.541127,9.10692e-10
12J990,口湖工作站,2025-04-12,23.589978,120.180394,1.7029909e-07
C0O830,北寮,2025-04-12,23.079561,120.495008,0.002175963
C1D410,白蘭,2025-04-12,24.579364,121.079947,8.708256e-09
C0S970,加津林,2025-04-12,22.416211,120.926942,2.5504198e-05
C0D700,關西,2025-04-12,24.7977,121.1732,7.5502896e-07
C0M810,里佳,2025-04-12,23.389125,120.716647,6.06689e-09
C0U750,龜山島,2025-04-12,24.841667,121.953133,5.641849e-07
C0R810,內獅,2025-04-12,22.305064,120.642986,0.5832867
C1M390,龍美,2025-04-12,23.406728,120.654417,4.8141486e-09
C2FB60,頭櫃山,2025-04-12,24.129842,120.858925,6.902963e-09
C1H840,國三N238K,2025-04-12,23.841008,120.707711,8.248582e-10
CAQ030,崎峰國小,2025-04-12,22.42565,120.49521,0.9981143
C2E520,大湖,2025-04-12,24.414939,120.870872,2.222954e-09
467530,阿里山,2025-04-12,23.508208,120.813242,2.5984367e-08
C1E691,南湖,2025-04-12,24.40135,120.837533,3.582023e-09
C0FA30,梧棲,2025-04-12,24.256003,120.523381,2.4317632e-07
C1V231,高中,2025-04-12,23.134911,120.716711,1.5148331e-09
C0F9V0,新社,2025-04-12,24.200172,120.815806,2.1751445e-09
C0H890,埔里,2025-04-12,23.972169,120.952425,1.676259e-09
C0R690,墾丁,2025-04-12,21.966756,120.810269,0.99748623
C0F0D0,審馬陣,2025-04-12,24.381675,121.4203,4.6760935e-08
C2W030,金門農試所,2025-04-12,24.448431,118.451786,4.922582e-09
C0R820,白鷺,2025-04-12,22.454275,120.666219,2.5857158e-08
C1V190,南天池,2025-04-12,23.27403,120.91176,2.3153817e-08
K2E360,苗栗農改場,2025-04-12,24.495722,120.829111,3.2526537e-09
CAJ050,海口故事園區,2025-04-12,23.57543,120.14121,1.7141376e-07
C2H9D0,三隻寮,2025-04-12,24.093078,120.861578,2.1661892e-09
C0O990,媽廟,2025-04-12,22.99175,120.293525,0.8984711
C0D480,打鐵坑,2025-04-12,24.849664,121.150789,2.809584e-09
C0Z220,和平林道,2025-04-12,24.343922,121.656317,2.0958746e-08
C0TA10,花蓮漁港,2025-04-12,23.995322,121.638331,0.0012741084
72C440,桃園農改場,2025-04-12,24.950944,121.030583,4.3467167e-06
C1E711,馬拉邦山,2025-04-12,24.367306,120.901656,4.9671365e-09
C0SB20,富岡,2025-04-12,22.792467,121.192669,0.5052131
C0D560,竹東,2025-04-12,24.767147,121.057881,4.1900625e-09
C0F9U0,南屯,2025-04-12,24.137006,120.637969,2.4857945e-09
C0M720,番路,2025-04-12,23.464657,120.554156,9.429543e-10
C0F0A0,雪山圈谷,2025-04-12,24.388594,121.236339,4.8693007e-08
C1A9N0,四十份,2025-04-12,24.934158,121.593283,1.6721055e-08
C0U760,東澳,2025-04-12,24.52196,121.83318,5.325318e-05
C0X230,鹽水,2025-04-12,23.272621,120.247641,0.0006256686
C2H9H0,苗改南投蜂場,2025-04-12,23.852589,120.693481,6.8339334e-10
C0R950,萬隆國小,2025-04-12,22.507667,120.587817,0.99524444
467540,大武,2025-04-12,22.35572,120.90374,4.3664862e-05
C0V370,古亭坑,2025-04-12,22.893178,120.401947,0.3075092
C1I340,新興橋,2025-04-12,23.563333,120.868728,2.908212e-09
C0SA80,土坂,2025-04-12,22.453108,120.887572,2.3981548e-07
C0R160,鹽埔,2025-04-12,22.739558,120.530778,3.0147685e-08
C0AC40,大屯山,2025-04-12,25.175675,121.522408,2.0743116e-08
466850,五分山雷達站,2025-04-12,25.071182,121.781205,1.3018769e-08
C2H9L0,馬烈霸,2025-04-12,24.1512,121.201772,2.5183711e-08
C1AI50,國三N016K,2025-04-12,25.034164,121.619664,0.0010713291
C1V600,藤枝,2025-04-12,23.071961,120.757042,2.4809973e-08
C1E601,南勢,2025-04-12,24.572486,120.734842,3.5086785e-07
C0Z180,新城,2025-04-12,24.03946,121.60454,0.00039812506
C0O980,新市,2025-04-12,23.061614,120.298197,0.9268937
C0K420,西螺,2025-04-12,23.800407,120.467394,1.1609513e-09
C0Z050,佳心,2025-04-12,23.34567,121.21316,4.066025e-08
C0AD30,蘆洲,2025-04-12,25.086594,121.472331,0.0043167025
C0V610,梓官,2025-04-12,22.760558,120.267211,0.99191034
K2F750,種苗改良場,2025-04-12,24.225972,120.800917,2.1101614e-09
C0UA80,大溪漁港,2025-04-12,24.941801,121.902955,3.288832e-08
C1AI60,國一39K邊坡,2025-04-12,25.064361,121.383836,1.0206145e-07
C0W150,金寧,2025-04-12,24.457703,118.328989,4.6802673e-09
C0R960,內埔,2025-04-12,22.608483,120.570714,0.72930646
V2C250,八德合作社,2025-04-12,24.93775,121.266389,1.18138345e-07
C2H9S0,龍南,2025-04-12,23.953536,120.833183,4.560553e-09
C0AH40,平等,2025-04-12,25.129142,121.577086,1.0119901e-08
C0R540,佳冬,2025-04-12,22.419456,120.552375,0.9797358
466950,彭佳嶼,2025-04-12,25.627975,122.079744,0.99990356
C0A890,雙溪,2025-04-12,25.036003,121.864242,0.011379537
C0C480,桃園,2025-04-12,24.992425,121.323172,1.4636076e-07
C0AH50,林口,2025-04-12,25.072181,121.38084,6.9147994e-08
A2K360,水試臺西試驗場,2025-04-12,23.717231,120.190522,9.1750294e-08
C2M960,外寮,2025-04-12,23.562643,120.665688,4.3868953e-09
C0F9S0,烏日,2025-04-12,24.107058,120.624103,2.3886464e-09
C0C490,八德,2025-04-12,24.928708,121.283289,1.1156956e-07
C0R190,赤山,2025-04-12,22.592333,120.614306,0.6864981
C0T820,天祥,2025-04-12,24.179597,121.495639,3.4466662e-08
C1F9E1,龍安,2025-04-12,24.1605,120.831961,2.1743563e-09
C0V820,小林,2025-04-12,23.148408,120.63325,1.2289273e-09
C2G870,芳苑,2025-04-12,23.922303,120.320025,0.014470847
C0E850,大河,2025-04-12,24.618069,120.948578,2.669433e-09
C1U670,寒溪,2025-04-12,24.634,121.71691,3.2274252e-06
C0N020,城西,2025-04-12,23.0568,120.0956,0.0013553364
C1Z110,三棧,2025-04-12,24.11557,121.60501,1.5923716e-07
C0R280,檳榔,2025-04-12,22.076078,120.836777,0.99991083
C2H9J0,中台,2025-04-12,23.9996,120.938739,1.624215e-09
C0F9L0,后里,2025-04-12,24.310436,120.729725,1.3927164e-09
467441,高雄,2025-04-12,22.730432,120.312516,0.98938197
C0D540,橫山,2025-04-12,24.71116,121.11693,2.79455e-09
C1D420,太閣南,2025-04-12,24.632808,121.160575,2.999752e-08
C1E770,公館,2025-04-12,24.526914,120.830806,3.6217245e-09
CAN130,水試所海水繁養殖中心,2025-04-12,23.120802,120.07968,0.061406914
C1I430,翠華,2025-04-12,24.191961,121.224339,2.8321667e-08
C1M400,菜瓜坪,2025-04-12,23.251928,120.576103,1.3359486e-09
C0G730,二林,2025-04-12,23.903325,120.376081,6.3190324e-09
72M360,南改義竹分場,2025-04-12,23.360694,120.279361,0.00018354885
V2K620,麥寮合作社,2025-04-12,23.753836,120.294783,3.2508738e-09
C0Z070,舞鶴,2025-04-12,23.46811,121.37407,1.0872964e-06
C0B040,大武崙,2025-04-12,25.166676,121.706993,6.9097628e-06
C1Z030,紅葉,2025-04-12,23.493119,121.338806,7.975288e-06
C1I050,丹大,2025-04-12,23.753747,121.141147,2.3625937e-08
C0I080,信義,2025-04-12,23.689694,120.851036,2.1289073e-09
C2M920,朴子農改,2025-04-12,23.469889,120.259383,2.887551e-09
C2A880,福隆,2025-04-12,25.017842,121.942083,2.9441507e-08
C0Z160,鳳林,2025-04-12,23.746114,121.453411,1.0163811e-06
C0V210,復興,2025-04-12,23.222403,120.806089,1.8166525e-09
C0H990,昆陽,2025-04-12,24.121322,121.273642,3.9650914e-08
C0R741,獅子,2025-04-12,22.202308,120.705236,0.99935937
C0S710,鹿野,2025-04-12,22.917711,121.122994,2.3378752e-06
C0I530,小奇萊,2025-04-12,24.131764,121.295717,4.0822272e-08
C2K630,荷苞,2025-04-12,23.657717,120.595144,6.708199e-10
C0Z080,富源,2025-04-12,23.587642,121.378225,1.7967689e-07
C0SB10,美和,2025-04-12,22.682078,121.060236,0.00021444769
C2K620,馬光農場,2025-04-12,23.721453,120.378864,1.1953595e-09
C1I140,卡奈托灣,2025-04-12,23.754364,121.087872,1.5098438e-08
C0I520,玉山風口,2025-04-12,23.470489,120.955994,4.726938e-08
C1G691,下水埔,2025-04-12,23.816114,120.5676,9.168461e-10
C0X110,臺南市南區,2025-04-12,22.961189,120.188378,0.9987717
C0V680,仁武,2025-04-12,22.701083,120.347722,0.99866396
C2G840,北斗,2025-04-12,23.877586,120.514222,2.518663e-09
C0R900,竹坑,2025-04-12,22.1385,120.7022,0.99460423
C0K250,崙背,2025-04-12,23.75555,120.318925,3.0571128e-09
C0G860,社頭,2025-04-12,23.897647,120.5862,2.2029305e-09
C0X150,安定,2025-04-12,23.102614,120.227839,0.9818075
C0R590,里港,2025-04-12,22.77919,120.49459,0.010044917
C0E610,馬都安,2025-04-12,24.451272,120.930192,3.806925e-09
C0E550,明德,2025-04-12,24.583486,120.885411,3.8409054e-09
C0R150,三地門,2025-04-12,22.709889,120.639944,2.9649691e-05
C0G910,花壇,2025-04-12,24.032076,120.549461,2.4690905e-09
C1D400,鳥嘴山,2025-04-12,24.71909,121.28387,4.494381e-09
C0K500,元長,2025-04-12,23.64981,120.315024,3.3569987e-09
C0F0B0,石岡,2025-04-12,24.276061,120.777644,1.3643208e-09
C2V250,甲仙,2025-04-12,23.080106,120.591758,3.1617174e-07
C0SA20,金崙山,2025-04-12,22.567419,120.959667,7.124495e-08
C0V350,溪埔,2025-04-12,22.738578,120.446797,0.027349787
C0M660,溪口,2025-04-12,23.604131,120.403569,2.0060817e-09
C1S880,壽卡,2025-04-12,22.238911,120.858903,2.65507e-07
72D680,桃改新埔分場,2025-04-12,24.834444,121.066111,8.245802e-09
