站號,站名,日期,lat,lon,BLBTSLS
C0K280,四湖,2025-11-17,23.630414,120.227125,0.8785971
CAH030,茶改場竹圍站,2025-11-17,23.860083,120.637528,2.722054e-07
V2K610,大庄合作社,2025-11-17,23.8068,120.367939,0.12960683
G2AI50,關渡,2025-11-17,25.11575,121.492,0.33523977
V2C260,八德蔬果,2025-11-17,24.978508,121.281819,0.6967854
A2K570,古坑花卉中心,2025-11-17,23.63353,120.55239,0.0014084111
467571,新竹,2025-11-17,24.827853,121.014219,0.2833354
C0E430,南庄,2025-11-17,24.601775,121.000214,0.0020844443
C0E420,竹南,2025-11-17,24.708978,120.888897,0.94756114
C0M530,奮起湖,2025-11-17,23.493903,120.699253,2.2692765e-09
C0C590,觀音,2025-11-17,25.027072,121.153317,0.9074807
C0X060,下營,2025-11-17,23.22695,120.256261,0.0005449462
C2D740,屯原,2025-11-17,24.067969,121.209389,5.3195482e-08
C0M810,里佳,2025-11-17,23.389125,120.716647,3.4776877e-09
V2C250,八德合作社,2025-11-17,24.93775,121.266389,0.93723625
C0K250,崙背,2025-11-17,23.75555,120.318925,0.0042075384
