站號,站名,日期,lat,lon,BLBTSLS
C0R710,龍磐,2025-04-10,21.931672,120.838942,0.99284416
C1F9D1,白毛台,2025-04-10,24.158325,120.886933,5.1687987e-09
C0G940,竹塘,2025-04-10,23.848253,120.386764,9.898209e-09
467590,恆春,2025-04-10,22.003897,120.746339,0.97594213
C1O850,環湖,2025-04-10,23.148617,120.418633,1.1102866e-07
C0U710,太平山,2025-04-10,24.505486,121.525656,4.435604e-08
C0E820,獅潭,2025-04-10,24.539133,120.920042,4.715754e-08
C0V880,興達,2025-04-10,22.8778,120.2127,0.99991256
C0S890,關山,2025-04-10,23.0395,121.175017,7.929738e-06
C0SB30,新蘭,2025-04-10,22.869214,121.223228,0.0072365827
C2R970,屏科大,2025-04-10,22.648275,120.619247,0.0028861111
C1Z130,銅門,2025-04-10,23.965694,121.492842,4.3728753e-07
C0AD40,土城,2025-04-10,24.973208,121.445169,1.6497108e-07
CAN140,六官養殖協會,2025-04-10,23.22881,120.29962,0.3957914
C0X180,山上,2025-04-10,23.0757,120.363253,0.9990805
C0F9Z0,雪山東峰,2025-04-10,24.388792,121.268675,6.1385364e-08
C1M480,獨立山,2025-04-10,23.537022,120.607797,2.965628e-09
C0X220,學甲,2025-04-10,23.230367,120.182187,0.3815006
467650,日月潭,2025-04-10,23.881325,120.90805,7.870827e-09
C0K600,箔子寮,2025-04-10,23.6197,120.14,1.6337924e-06
C0G830,埤頭,2025-04-10,23.866003,120.452806,7.5053395e-09
C0S950,七塊厝,2025-04-10,22.954453,121.229922,8.88864e-08
467110,金門,2025-04-10,24.407306,118.289281,6.348679e-09
C0AH80,深坑,2025-04-10,25.002703,121.628328,1.3326553e-07
C0A970,三貂角,2025-04-10,25.007606,122.002058,2.3896181e-08
C2D730,寶山農場,2025-04-10,24.732444,120.976153,5.858343e-07
C0K430,褒忠,2025-04-10,23.690938,120.303634,5.8435366e-05
467480,嘉義,2025-04-10,23.495925,120.432906,1.7328075e-07
C0V400,阿公店,2025-04-10,22.804194,120.355528,0.9999452
467550,玉山,2025-04-10,23.48718,120.95943,5.4072572e-08
C0R440,大漢山,2025-04-10,22.405264,120.753181,3.043448e-08
C0K280,四湖,2025-04-10,23.630414,120.227125,0.0019103269
C1F9B1,桐林,2025-04-10,24.066172,120.735194,0.0029862754
C2H9U0,鳳鵬,2025-04-10,23.763919,120.788061,1.8494748e-09
C0K390,土庫,2025-04-10,23.679029,120.395574,7.0000032e-09
C1I450,望鄉山,2025-04-10,23.594153,120.944286,3.524783e-08
C0E910,海埔,2025-04-10,24.648767,120.772435,6.4783075e-05
B2E890,畜試北區分所,2025-04-10,24.527806,120.770972,2.772461e-06
C0R750,四林格山,2025-04-10,22.076989,120.802439,0.9999945
C0F0C0,中坑,2025-04-10,24.248517,120.903319,9.193367e-09
C1I121,大鞍,2025-04-10,23.678381,120.760017,1.5719877e-08
72U480,花改蘭陽分場,2025-04-10,24.686306,121.716583,1.1485847e-08
C0A770,科教館,2025-04-10,25.096356,121.516507,2.059656e-07
C0AJ60,六塊厝,2025-04-10,25.24,121.4481,2.5517495e-06
C0R620,墾雷,2025-04-10,21.900836,120.855269,0.9832567
467420,永康,2025-04-10,23.038386,120.2367,0.99985147
C0I410,名間,2025-04-10,23.837053,120.701447,2.676591e-09
A2C560,農工中心,2025-04-10,24.985917,121.239833,2.9924834e-07
C0V740,旗山,2025-04-10,22.888614,120.483597,0.9998886
C0Z061,玉里,2025-04-10,23.3215,121.339656,1.6417582e-05
C0S840,南田,2025-04-10,22.279725,120.889208,0.0040366435
C1I470,杉林溪,2025-04-10,23.639517,120.786444,1.7694807e-08
C1X040,東原,2025-04-10,23.291597,120.463822,5.075392e-07
C0R660,枋寮,2025-04-10,22.367722,120.590647,0.99974734
C1R120,上德文,2025-04-10,22.763272,120.704442,3.757053e-08
C0K450,大埤,2025-04-10,23.646074,120.431537,3.712501e-09
C0UA00,土場,2025-04-10,24.576533,121.495333,2.0084986e-08
467080,宜蘭,2025-04-10,24.763975,121.756528,1.2514561e-08
C0N030,四草,2025-04-10,23.0235,120.1116,0.79312044
467410,臺南,2025-04-10,22.99328,120.20492,0.99983585
C0V650,彌陀,2025-04-10,22.783806,120.246361,0.99996513
C0D660,新竹市東區,2025-04-10,24.798681,120.986942,3.8306993e-05
82S580,茶改東部分場,2025-04-10,22.907694,121.130139,1.4843364e-05
C0SB40,興隆,2025-04-10,22.913661,121.257469,0.0034943046
467050,新屋,2025-04-10,25.006725,121.047492,2.263465e-06
C0C710,大溪永福,2025-04-10,24.892936,121.324975,1.0158234e-07
C0FA20,溫寮,2025-04-10,24.372177,120.583125,0.88246435
C0V640,湖內,2025-04-10,22.887139,120.2445,0.99989325
C0R910,下寮,2025-04-10,22.3929,120.5548,0.9997479
C0Z020,明里,2025-04-10,23.208717,121.262342,2.5046982e-06
C0M770,嘉義梅山,2025-04-10,23.585398,120.555587,2.270987e-09
C0C660,楊梅,2025-04-10,24.912375,121.143047,2.2874188e-07
C1E511,新開,2025-04-10,24.347703,120.827019,5.429764e-09
G2F820,農試所(霧峰),2025-04-10,24.031261,120.688133,0.017669251
C1I070,和社,2025-04-10,23.591131,120.888861,1.33863765e-08
C2F000,大肚,2025-04-10,24.15295,120.572117,1.8699344e-09
C1S850,豐南,2025-04-10,23.122139,121.262389,4.7841635e-08
C2A920,富貴角,2025-04-10,25.263783,121.565258,4.543204e-07
CAH030,茶改場竹圍站,2025-04-10,23.860083,120.637528,1.1453813e-09
C0T960,光復,2025-04-10,23.660694,121.424964,1.5637885e-06
C0F9M0,豐原,2025-04-10,24.254322,120.720692,2.8829739e-08
C0R720,旭海,2025-04-10,22.205403,120.887614,5.835704e-06
C0V710,苓雅,2025-04-10,22.622742,120.330669,0.9999549
C0C740,觀音工業區,2025-04-10,25.064764,121.114856,3.7692766e-06
CAC040,拉拉山,2025-04-10,24.699317,121.427133,2.655768e-08
C0V790,萬山,2025-04-10,22.905944,120.688056,1.2748975e-09
U2HA30,臺大和社,2025-04-10,23.590856,120.888864,1.33863765e-08
C0AJ90,澳底,2025-04-10,25.0552,121.9253,3.087245e-08
C0Z100,東華,2025-04-10,23.89525,121.549833,3.501664e-05
C0G970,三豐,2025-04-10,23.882,120.2895,0.016303327
V2K610,大庄合作社,2025-04-10,23.8068,120.367939,9.865203e-05
C0V900,汕尾,2025-04-10,22.4782,120.4151,0.99979216
C1R630,龍泉,2025-04-10,22.66701,120.59091,0.0220749
C1AC50,關渡,2025-04-10,25.133486,121.469331,1.863957e-07
C0F9I0,神岡,2025-04-10,24.272481,120.658314,8.2423306e-08
C0K460,斗南,2025-04-10,23.678734,120.478359,3.532157e-09
C2O810,曾文,2025-04-10,23.219681,120.497328,1.5812859e-05
467280,後龍,2025-04-10,24.648563,120.831834,3.33058e-05
C1F9J1,清水林,2025-04-10,24.071242,120.820419,2.7254337e-09
C2A650,火燒寮,2025-04-10,25.002719,121.742892,1.8532967e-08
466930,竹子湖,2025-04-10,25.162078,121.544547,1.2434165e-08
C1I220,樟湖,2025-04-10,23.905333,120.846983,8.566235e-09
C0I390,仁愛,2025-04-10,24.022122,121.132206,7.1487616e-09
C0Z300,東里,2025-04-10,23.26853,121.30547,1.3063231e-05
C1V590,新發,2025-04-10,23.057019,120.646064,2.4322437e-09
C0K510,水林,2025-04-10,23.572924,120.24597,6.052105e-07
72S590,東改賓朗果園,2025-04-10,22.813889,121.071278,5.324655e-07
82A750,茶改北部分場,2025-04-10,24.955778,121.631222,1.1308811e-08
C1A750,石碇服務區,2025-04-10,25.00872,121.646242,1.9848362e-07
C0X300,鹿寮,2025-04-10,23.386047,120.477331,3.7795695e-09
G2AI50,關渡,2025-04-10,25.11575,121.492,2.0570506e-06
C0K590,雲林東勢,2025-04-10,23.674192,120.255721,5.0932413e-05
C0A570,桶後,2025-04-10,24.848222,121.597992,1.8077186e-08
C1S800,華源,2025-04-10,22.657883,121.02325,0.00014431187
C0G720,溪州,2025-04-10,23.851589,120.499093,6.7638335e-09
C1V160,達卡努瓦,2025-04-10,23.279811,120.705319,4.166076e-09
C2M410,馬頭山,2025-04-10,23.324361,120.582017,1.7280547e-09
C0V850,蚵仔寮,2025-04-10,22.7256,120.2527,0.9999638
C0S740,池上,2025-04-10,23.119628,121.209469,1.7371569e-06
C1V390,尖山,2025-04-10,22.813153,120.367789,0.999928
C0AH70,松山,2025-04-10,25.04871,121.55042,1.8214611e-07
C0N010,鯤鯓國小,2025-04-10,23.1879,120.0889,0.69684845
C0R550,新埤,2025-04-10,22.467947,120.582894,0.99973255
C0SA60,知本（水試所）,2025-04-10,22.702394,121.082761,0.09180261
C0T9I0,豐濱,2025-04-10,23.583897,121.514806,1.1785538e-06
C0UB00,淡江大學蘭陽校園,2025-04-10,24.823239,121.730383,8.843468e-09
C0W240,九宮,2025-04-10,24.423753,118.240186,6.3476984e-09
C0T9N0,富里,2025-04-10,23.171639,121.249378,5.5102178e-06
U2HA50,臺大竹山,2025-04-10,23.756972,120.681556,2.4641786e-09
C0V840,鳳鼻頭,2025-04-10,22.5083,120.3591,0.99995995
C0X140,西港,2025-04-10,23.125608,120.203108,0.58280605
72D080,桃改五峰分場,2025-04-10,24.612194,121.157167,9.37816e-09
C2H9P0,伊拿谷,2025-04-10,23.963211,121.088264,6.9290156e-09
C2H9F0,柑林,2025-04-10,24.018658,120.847072,1.9388617e-09
C0TA20,加灣,2025-04-10,24.082025,121.608944,5.218375e-05
C0V530,阿蓮,2025-04-10,22.883208,120.327508,0.9997835
C1O880,關山,2025-04-10,23.173397,120.594092,1.6401573e-09
C0E791,卓蘭,2025-04-10,24.3126,120.8244,5.2424207e-09
C1I030,武界,2025-04-10,23.913225,121.052483,7.0884636e-09
C0R520,崁頂,2025-04-10,22.514781,120.506914,0.9996817
C0R341,牡丹,2025-04-10,22.130036,120.792639,0.90127134
C0R930,萬丹,2025-04-10,22.5885,120.4851,0.9995019
C0S760,紅石,2025-04-10,23.069131,121.126219,2.0428613e-08
C2C410,中央大學,2025-04-10,24.967652,121.185165,2.7720012e-07
C1M610,石磐龍,2025-04-10,23.496606,120.663506,4.721791e-09
C0UA10,鴛鴦湖,2025-04-10,24.590269,121.412228,2.6239615e-08
V2C260,八德蔬果,2025-04-10,24.978508,121.281819,1.2884453e-07
C0R800,丹路,2025-04-10,22.204481,120.750989,0.9896759
C0G920,永靖,2025-04-10,23.924703,120.547533,1.3645957e-06
C2M950,太和,2025-04-10,23.538372,120.702961,6.3099512e-09
C1A630,下盆,2025-04-10,24.771003,121.538622,8.341808e-09
B2N890,畜產試驗所,2025-04-10,23.058972,120.336406,0.9996771
C0UA30,白嶺,2025-04-10,24.527819,121.519031,3.359537e-08
C1V580,溪南(特生中心),2025-04-10,23.084972,120.788475,1.5802307e-08
C1T970,大農,2025-04-10,23.615233,121.413331,4.074709e-07
C0R650,竹田,2025-04-10,22.58486,120.54344,0.9991345
C1H900,清流,2025-04-10,24.080775,120.962997,6.6891395e-09
C1C510,水尾,2025-04-10,24.940081,121.087161,9.422032e-07
C0F9X0,大雅(中科園區),2025-04-10,24.21528,120.62445,0.0035101068
C0SB60,白守蓮,2025-04-10,23.126769,121.401914,0.76479566
C0O970,虎頭埤,2025-04-10,23.021375,120.347878,0.9991026
C0C730,中大臨海站,2025-04-10,24.966126,121.008581,2.855521e-06
C0X250,新營,2025-04-10,23.310689,120.316681,0.15867694
C0V700,三民,2025-04-10,22.645017,120.311233,0.9999611
C0U870,大礁溪,2025-04-10,24.791042,121.675047,9.49814e-09
C0E870,高鐵苗栗,2025-04-10,24.60725,120.826094,0.72755057
A2K570,古坑花卉中心,2025-04-10,23.63353,120.55239,2.9665783e-09
C0TA30,鹽寮,2025-04-10,23.845606,121.592664,7.092303e-05
C0M860,新美,2025-04-10,23.338017,120.683169,1.2230207e-09
C1E701,八卦,2025-04-10,24.491756,120.927619,1.2249612e-08
C0I420,國姓,2025-04-10,24.037803,120.855072,1.9312216e-09
C2D720,關西工作站,2025-04-10,24.757275,121.184792,2.3739526e-07
C0S960,香蘭,2025-04-10,22.587569,120.993375,0.0030539322
467620,蘭嶼,2025-04-10,22.0369,121.55843,0.9997832
C0R260,春日,2025-04-10,22.370361,120.628306,0.9993823
72G600,臺中農改場,2025-04-10,24.003028,120.534389,2.2783847e-06
C0Z210,瑞穗,2025-04-10,23.5239,121.39021,1.765747e-06
C0M820,達邦,2025-04-10,23.453994,120.749517,3.869664e-09
C0V860,南寮,2025-04-10,22.7616,120.2339,0.999964
C0G740,大城,2025-04-10,23.852487,120.320935,0.009328428
C0R920,塭仔,2025-04-10,22.4169,120.5197,0.99975324
C0R470,高樹,2025-04-10,22.826389,120.600806,0.015221272
C0R680,佳樂水,2025-04-10,21.993578,120.861633,0.98738503
C1O870,大棟山,2025-04-10,23.31157,120.52226,4.9505373e-09
C0D360,梅花,2025-04-10,24.678347,121.208558,8.319245e-09
C0Z190,富世,2025-04-10,24.14743,121.6297,7.7871036e-08
C0AI10,屈尺,2025-04-10,24.92184,121.54475,1.9267308e-07
B2U990,畜試東區分所,2025-04-10,24.669039,121.832561,1.5114573e-08
C0SB80,長濱漁港,2025-04-10,23.313644,121.459994,0.0042696474
C0R240,來義,2025-04-10,22.527306,120.625111,0.998107
C0V910,大樹,2025-04-10,22.684645,120.432803,0.092686296
C1R610,西大武山,2025-04-10,22.617719,120.7322,2.7490069e-08
C0G900,線西,2025-04-10,24.143358,120.443536,0.83464944
C0M700,竹崎,2025-04-10,23.526178,120.555508,2.4887739e-09
C2E880,三義,2025-04-10,24.405478,120.749819,5.7789946e-09
C0C720,竹圍,2025-04-10,25.112692,121.239824,1.8775048e-06
C0F9P0,清水,2025-04-10,24.312297,120.562242,0.8197836
C0Z150,吉安光華,2025-04-10,23.930925,121.595153,0.00010234191
467300,東吉島,2025-04-10,23.25727,119.66762,0.9999531
C1D640,外坪(五指山),2025-04-10,24.644447,121.090961,8.333204e-09
C0F9O0,潭子,2025-04-10,24.213106,120.703933,4.2563244e-08
C2H9R0,卓社,2025-04-10,23.887894,121.000086,9.608305e-09
72T250,花蓮農改場,2025-04-10,23.975222,121.563889,2.8839266e-05
C0E780,銅鑼,2025-04-10,24.489681,120.790853,6.1207714e-07
C1T950,太安,2025-04-10,23.666719,121.370128,7.641117e-09
C0E830,苑裡,2025-04-10,24.439714,120.653053,0.75143045
467270,田中,2025-04-10,23.873803,120.581286,4.367326e-09
C0SA10,檳榔四格山,2025-04-10,22.810031,121.109308,1.3011092e-07
C1T830,布洛灣,2025-04-10,24.17184,121.57127,2.5316249e-08
C0F970,大坑,2025-04-10,24.173142,120.722289,4.7122473e-08
C1U920,思源,2025-04-10,24.393125,121.347214,3.3313846e-08
C0A931,三和,2025-04-10,25.233153,121.595236,1.6817256e-07
C0I010,廬山,2025-04-10,24.033311,121.181808,1.266836e-08
C2M940,日野賀,2025-04-10,23.434056,120.727169,4.7729323e-09
C0R860,鼻頭,2025-04-10,22.1043,120.8979,0.99969363
C0UB20,壯圍,2025-04-10,24.7359,121.8163,1.1902684e-08
C0R790,九棚,2025-04-10,22.14195,120.889281,5.1455856e-05
C0W110,東莒,2025-04-10,25.9652,119.98069,0.0030123433
C1U930,粉鳥林,2025-04-10,24.497088,121.842479,2.2787242e-08
C1I211,蘆竹湳,2025-04-10,23.934019,120.811994,2.2243876e-09
C0S830,長濱,2025-04-10,23.286817,121.411975,8.4108115e-07
C1F9F1,伯公龍,2025-04-10,24.272392,120.849047,4.271612e-09
C0E810,西湖,2025-04-10,24.562947,120.7485,3.9451275e-05
C1I440,新高口,2025-04-10,23.478744,120.878939,2.623576e-08
C0O840,王爺宮,2025-04-10,23.222064,120.40085,1.3508497e-05
C0T9G0,鳳林山,2025-04-10,23.735269,121.420131,2.3851602e-08
C0X080,佳里,2025-04-10,23.173039,120.145086,0.69917053
C0FB70,大甲溪埔,2025-04-10,24.370625,120.620067,0.7251313
C0Z310,清水斷崖,2025-04-10,24.218294,121.689142,4.557694e-08
C0M680,太保,2025-04-10,23.455062,120.331455,2.197206e-07
C1S820,金峰,2025-04-10,22.590969,120.933236,1.2145455e-05
C0AD10,八里,2025-04-10,25.150211,121.403947,1.860442e-06
C2K240,草嶺,2025-04-10,23.59555,120.693461,5.293806e-09
C1SA70,都蘭,2025-04-10,22.87794,121.226881,0.0032997362
C0K440,二崙,2025-04-10,23.772797,120.408944,6.845078e-09
C1A760,坪林交控,2025-04-10,24.94284,121.713442,1.9681261e-08
C0F9N0,大里,2025-04-10,24.092464,120.701378,4.2542525e-09
C0SA90,達仁林場,2025-04-10,22.264347,120.823972,2.7994647e-08
C1R290,石門山,2025-04-10,22.112611,120.756597,0.99999654
42HA10,萬大發電廠,2025-04-10,23.978875,121.139639,7.544364e-09
C0R890,山海,2025-04-10,21.9878,120.7091,0.9906785
C0T9A0,月眉山,2025-04-10,23.809928,121.539828,4.0426173e-08
C0AC70,信義,2025-04-10,25.037822,121.564597,1.8391957e-07
C0K560,棋山,2025-04-10,23.68645,120.603417,2.7706455e-09
C2FB50,出雲,2025-04-10,24.206469,120.902794,8.046972e-09
C1Z240,中平林道,2025-04-10,23.42115,121.26763,1.25204345e-08
U2H480,溪頭,2025-04-10,23.670306,120.798194,9.146406e-09
C0M880,好美里,2025-04-10,23.3364,120.138,0.41043612
C0T9E0,大坑,2025-04-10,23.880628,121.581981,5.4045042e-08
C0K530,臺西,2025-04-10,23.701547,120.197559,0.0039078365
C1E900,國一N128K,2025-04-10,24.560997,120.844186,8.847689e-06
C0AJ50,水湳洞,2025-04-10,25.123695,121.862238,1.0192183e-06
C0AI20,白沙灣,2025-04-10,25.283128,121.519058,2.0166692e-06
C2V310,美濃,2025-04-10,22.898792,120.51907,0.99991065
C0A860,大坪,2025-04-10,25.165914,121.632969,9.938239e-09
C1U850,觀音海岸,2025-04-10,24.38319,121.77856,1.00569215e-08
C2K610,草嶺石壁,2025-04-10,23.602469,120.707731,5.475514e-09
C0U950,鶯子嶺,2025-04-10,24.89754,121.79244,2.0173868e-08
C0O900,善化,2025-04-10,23.112883,120.297219,0.99983597
C0K550,蔦松,2025-04-10,23.514319,120.229736,8.200632e-07
E2P980,林試六龜中心,2025-04-10,22.991703,120.645722,4.253711e-08
C0E590,通霄,2025-04-10,24.471892,120.704622,5.708565e-05
C1I310,西巒,2025-04-10,23.754486,120.883956,7.850586e-09
C0A550,泰平,2025-04-10,24.971197,121.823711,1.0407003e-08
C0I360,水里,2025-04-10,23.812553,120.849792,1.1759387e-09
C0R830,高士,2025-04-10,22.121825,120.836781,0.99999726
C1I101,溪頭,2025-04-10,23.661789,120.807647,1.8616046e-08
C0AJ20,野柳,2025-04-10,25.20703,121.690021,6.5583924e-07
C0B060,暖暖,2025-04-10,25.0957,121.7403,2.640354e-07
C1H920,長豐,2025-04-10,24.102039,120.879897,2.75776e-09
C0V360,內門,2025-04-10,22.975481,120.466769,0.013308995
C0R850,林邊,2025-04-10,22.4634,120.5339,0.999781
C0E930,龍鳳,2025-04-10,24.700034,120.859125,0.00010168878
C0U910,冬山,2025-04-10,24.63373,121.7937,1.5114573e-08
C1E721,泰安,2025-04-10,24.489017,120.968036,1.3818104e-08
82H320,茶改中部分場,2025-04-10,23.875611,120.913583,6.9925705e-09
C0M750,布袋,2025-04-10,23.380878,120.167789,1.1418742e-06
C1S860,利嘉,2025-04-10,22.809417,121.050528,1.2510289e-08
E2S980,林試太麻里1,2025-04-10,22.598922,120.980044,0.0002641862
C0X170,關廟,2025-04-10,22.963017,120.327797,0.9996061
C0V720,林園,2025-04-10,22.507747,120.394511,0.9996954
C1I510,線浸林道,2025-04-10,23.761508,120.832956,5.6767933e-09
C0D690,外湖,2025-04-10,24.917735,120.968711,2.6906923e-06
C0C750,新興坑尾,2025-04-10,25.0061,121.0971,1.4755584e-06
B2Q810,畜試南區分所,2025-04-10,21.945583,120.802167,0.98843926
C0S790,金崙,2025-04-10,22.538122,120.966875,1.5144273e-06
C0AH90,福山植物園,2025-04-10,24.760717,121.58135,9.7814175e-09
C0I540,奇萊稜線,2025-04-10,24.109231,121.326456,5.543432e-08
C0M850,表湖,2025-04-10,23.24186,120.64166,1.3027532e-09
C0S770,大溪山,2025-04-10,22.478475,120.943325,3.6351317e-08
C0AG80,中和,2025-04-10,24.991622,121.491792,1.6482154e-07
C0T790,大禹嶺,2025-04-10,24.186117,121.316086,5.039368e-08
C0T9B0,水源,2025-04-10,23.991861,121.537169,2.2308766e-08
C0R840,牡丹池山,2025-04-10,22.168389,120.841225,2.9283909e-08
C1I131,桶頭,2025-04-10,23.641944,120.654117,1.1170277e-09
CAL110,布袋國中,2025-04-10,23.35893,120.18026,0.3412004
467571,新竹,2025-04-10,24.827853,121.014219,2.8458335e-05
C0Z290,赤柯山,2025-04-10,23.36893,121.38293,1.3682852e-08
C0X280,將軍,2025-04-10,23.214999,120.13577,0.43097505
C0S690,太麻里,2025-04-10,22.60902,120.98533,2.1063031e-05
C0U880,北關,2025-04-10,24.9072,121.8734,4.224825e-07
C0G810,埔心,2025-04-10,23.947633,120.525456,1.7201818e-06
C0U970,大福,2025-04-10,24.80064,121.81389,1.2977565e-08
C2H9N0,仁愛東眼,2025-04-10,24.026875,121.1205,1.1547e-08
C1E670,南礦,2025-04-10,24.538278,121.002836,1.0646647e-08
C0M520,東後寮,2025-04-10,23.369908,120.248065,0.2818866
C1E461,松安,2025-04-10,24.397972,120.986022,1.2782558e-08
C2N160,西拉雅風管處,2025-04-10,23.189481,120.335297,0.31341046
C2M970,碧湖,2025-04-10,23.568632,120.624165,4.7015525e-09
C0A640,石碇,2025-04-10,24.993969,121.662917,1.376628e-08
E2S960,林試太麻里2,2025-04-10,22.598,120.99775,0.003621209
C0F9Y0,桃山,2025-04-10,24.432739,121.303808,6.469701e-08
C1I020,萬大,2025-04-10,23.979817,121.132261,7.2176354e-09
C0U940,羅東,2025-04-10,24.68184,121.74934,1.1618158e-08
C0M650,朴子,2025-04-10,23.43463,120.23902,4.6911774e-07
C1I500,大尖山,2025-04-10,23.858572,120.994889,2.1021e-08
C0G820,田尾,2025-04-10,23.901669,120.509389,1.5968014e-06
E2K600,四湖植物園,2025-04-10,23.676986,120.163433,0.0014850015
C0S730,綠島,2025-04-10,22.6672,121.47533,0.9711205
12Q970,東港工作站,2025-04-10,22.479997,120.466058,0.99979067
C0E430,南庄,2025-04-10,24.601775,121.000214,4.4788337e-08
C1TA00,太魯閣,2025-04-10,24.15773,121.6236,5.5133693e-08
466920,臺北,2025-04-10,25.037658,121.514853,1.8214611e-07
C0R600,舊泰武,2025-04-10,22.588194,120.664944,2.1890414e-09
C1I260,北坑,2025-04-10,23.9246,121.006903,2.291013e-09
466910,鞍部,2025-04-10,25.182586,121.529731,1.8515724e-08
C1I230,九份二山,2025-04-10,23.961944,120.845,6.6126082e-09
C2A660,瑞芳,2025-04-10,25.113169,121.801147,5.001654e-07
C0R270,琉球嶼,2025-04-10,22.332244,120.362236,0.9989393
C1T990,高寮,2025-04-10,23.394239,121.356808,2.5122506e-06
C0G620,芬園,2025-04-10,24.015678,120.6213,1.5224977e-07
C1Z140,荖溪,2025-04-10,23.890575,121.45964,3.2305394e-08
C1I201,中心崙,2025-04-10,23.728722,120.712097,2.164855e-09
C1I400,凌霄,2025-04-10,24.018778,121.004456,1.13564935e-08
C1M640,十字,2025-04-10,23.492153,120.753683,1.5794562e-08
G2P820,農試鳳山分所,2025-04-10,22.646611,120.356083,0.9999556
C0Z270,蕃薯寮,2025-04-10,23.73835,121.540108,8.593847e-08
C0F9Q0,外埔,2025-04-10,24.347817,120.705686,2.0255399e-07
C0K580,高鐵雲林,2025-04-10,23.737456,120.417944,6.4064345e-09
C2I090,鳳凰,2025-04-10,23.728081,120.787347,6.5696764e-09
C0U990,員山,2025-04-10,24.74435,121.72247,1.1721279e-08
C0V770,大社,2025-04-10,22.730306,120.346639,0.99995893
C0X120,麻豆,2025-04-10,23.183289,120.248611,0.49383697
C0C670,龍潭,2025-04-10,24.870056,121.221389,9.2772524e-08
C0D680,香山濕地,2025-04-10,24.783581,120.914988,9.64249e-05
C0S980,勝林山,2025-04-10,22.430439,120.8938,5.1999894e-08
C0V730,大寮,2025-04-10,22.605614,120.395717,0.9996127
C0R570,麟洛,2025-04-10,22.65078,120.52719,0.09746317
C2M930,石卓,2025-04-10,23.478744,120.702264,1.4890804e-08
C0G9B0,和美,2025-04-10,24.105169,120.492131,2.7645807e-05
CAG100,王功漁港,2025-04-10,23.96824,120.32586,0.018556066
C0X290,北門,2025-04-10,23.267772,120.125481,0.44148573
C2F930,大甲,2025-04-10,24.347667,120.640403,0.20336863
C0D650,湖口,2025-04-10,24.904794,121.043628,1.0623968e-06
C0E420,竹南,2025-04-10,24.708978,120.888897,5.2036507e-05
C0U780,五結,2025-04-10,24.68637,121.79794,1.1896238e-08
C1I250,鯉潭,2025-04-10,23.961922,120.991131,2.8564207e-09
C0R130,阿禮,2025-04-10,22.742908,120.743678,2.5538615e-08
C0X100,臺南市北區,2025-04-10,23.010394,120.194228,0.9998905
C0S920,金峰嘉蘭,2025-04-10,22.594789,120.960825,0.00025331645
C0V490,新興,2025-04-10,22.627422,120.298803,0.9999581
C0F9K0,大安,2025-04-10,24.345061,120.588025,0.7517247
467290,古坑,2025-04-10,23.633639,120.551889,2.9665783e-09
C2E970,八甲,2025-04-10,24.535811,120.795983,9.793852e-07
C0V440,鳳山,2025-04-10,22.646653,120.356122,0.9999556
C1T940,大觀,2025-04-10,23.714206,121.373133,4.018762e-08
C0E740,造橋,2025-04-10,24.637056,120.864778,3.8529855e-05
C0R100,尾寮山,2025-04-10,22.833111,120.683889,2.9230561e-08
A2K630,臺大雲林校區,2025-04-10,23.730628,120.423903,6.394934e-09
467990,馬祖,2025-04-10,26.169467,119.923158,3.0420246e-09
C0D580,寶山,2025-04-10,24.735006,121.025192,1.3922795e-07
E2P990,林試扇平站,2025-04-10,22.9677,120.6857,2.2882791e-09
C0AI30,三重,2025-04-10,25.057328,121.500629,2.059656e-07
C0AH00,汐止,2025-04-10,25.066881,121.658778,1.8214611e-07
C1Z040,立山,2025-04-10,23.443356,121.327375,4.697136e-08
466881,新北,2025-04-10,24.959207,121.525196,1.5485043e-07
C0W130,花嶼,2025-04-10,23.40007,119.32276,0.9998809
C0A950,鼻頭角,2025-04-10,25.129036,121.923372,3.1123605e-08
C0K470,林內,2025-04-10,23.748675,120.609642,3.3174583e-09
C2F990,摩天嶺,2025-04-10,24.322458,120.936819,7.657501e-09
82C160,茶改場,2025-04-10,24.908472,121.185333,1.711542e-07
C0Z320,清水林道,2025-04-10,23.27125,121.188272,1.3233121e-08
C0R760,南仁湖,2025-04-10,22.084681,120.863353,0.99999666
C0M670,大林,2025-04-10,23.600616,120.45841,1.4425665e-07
C0M800,茶山,2025-04-10,23.299075,120.664767,1.298521e-09
C0A9C0,天母,2025-04-10,25.117494,121.537169,3.287854e-07
72K220,南改斗南分場,2025-04-10,23.634556,120.477333,3.4558671e-09
72AI40,桃改樹林分場,2025-04-10,24.944503,121.386972,3.9779582e-07
C0S910,蘭嶼燈塔,2025-04-10,22.081197,121.503117,0.99977595
C0B050,八斗子,2025-04-10,25.144754,121.79167,1.3186217e-06
C0U900,內城,2025-04-10,24.71813,121.68766,1.1383038e-08
C0X320,柳營,2025-04-10,23.253328,120.375253,2.427699e-07
C0M790,新港,2025-04-10,23.553269,120.345728,3.9191698e-07
C0F9T0,西屯,2025-04-10,24.179494,120.641275,0.017610468
C0SA30,都歷,2025-04-10,23.020333,121.323642,0.0021165763
C0C620,蘆竹,2025-04-10,25.084275,121.265767,2.7495555e-06
C0R730,大坪頂,2025-04-10,22.024633,120.69355,0.9998283
C0AJ40,石門,2025-04-10,25.273672,121.601198,6.461008e-07
C0E750,苗栗,2025-04-10,24.564569,120.824575,1.0754403e-05
C0T870,鯉魚潭,2025-04-10,23.935639,121.508944,9.839566e-07
C1V170,排雲,2025-04-10,23.463619,120.954147,4.929603e-08
C2H950,中寮,2025-04-10,23.884447,120.766406,0.00024793163
C0R350,貓鼻頭,2025-04-10,21.921774,120.7358,0.9945967
C0V660,岡山,2025-04-10,22.797078,120.294958,0.9999646
C1H941,雙冬,2025-04-10,23.967378,120.802189,2.3319697e-09
C0AJ70,田寮,2025-04-10,25.2698,121.4886,2.179778e-06
C0AI00,五股,2025-04-10,25.07445,121.42728,1.3885521e-07
C0Z280,德武,2025-04-10,23.47426,121.41071,3.826094e-07
C0R700,枋山,2025-04-10,22.246844,120.661086,0.99963635
C0C460,復興,2025-04-10,24.820208,121.352281,1.0739855e-08
E2H360,蓮華池,2025-04-10,23.918333,120.885278,2.5242417e-09
C0M640,中埔,2025-04-10,23.42538,120.5229,2.673754e-09
C0W140,金沙,2025-04-10,24.488292,118.408778,7.09386e-09
C2A540,四堵,2025-04-10,24.8926,121.745736,9.266885e-09
C0ACA0,新莊,2025-04-10,25.051478,121.446756,1.8138583e-07
C0R220,潮州,2025-04-10,22.534361,120.54,0.9996284
U2HA40,臺大內茅埔,2025-04-10,23.689722,120.851117,2.2341202e-09
467490,臺中,2025-04-10,24.145736,120.684075,0.024063544
C0U960,翠峰湖,2025-04-10,24.510856,121.608044,4.2637833e-08
E2HA20,林試畢祿溪站,2025-04-10,24.226944,121.308522,3.709219e-08
C0V890,前鎮,2025-04-10,22.5718,120.3117,0.99995893
C1F941,雪嶺,2025-04-10,24.280586,121.026642,4.4696087e-08
C2H9E0,國姓南港,2025-04-10,23.911108,120.846556,8.838696e-09
C0AC80,文山,2025-04-10,25.00235,121.575728,1.3386753e-07
C0F9R0,龍井,2025-04-10,24.184536,120.528972,0.8201028
C0M760,民雄,2025-04-10,23.551754,120.428457,1.484194e-07
C0UA40,西德山,2025-04-10,24.560647,121.752608,2.8129259e-08
C1T920,中興,2025-04-10,23.769503,121.498653,1.199613e-05
C0D550,雪霸,2025-04-10,24.526972,121.11605,2.9466e-08
C2F860,梨山,2025-04-10,24.247522,121.243669,3.7706933e-08
C0R320,車城,2025-04-10,22.0744,120.716247,0.99137783
C1S870,南美山,2025-04-10,23.15025,121.382333,6.5406557e-06
C0B020,基隆嶼,2025-04-10,25.19141,121.78391,7.5791704e-06
C1U501,牛鬥,2025-04-10,24.637836,121.573656,1.0326173e-08
C0M730,嘉義市東區,2025-04-10,23.457673,120.460531,1.0452243e-07
C0S700,知本,2025-04-10,22.684866,121.005642,1.5430889e-08
C1N001,沙崙,2025-04-10,22.935472,120.309406,0.99974906
C0V760,橋頭,2025-04-10,22.757806,120.30575,0.99996215
C0G960,福寶,2025-04-10,24.0443,120.3814,5.0517905e-05
C0X210,白河,2025-04-10,23.347466,120.414427,1.18634325e-07
C0S810,東河,2025-04-10,22.972672,121.303986,0.16525537
C2R170,屏東,2025-04-10,22.66027,120.49403,0.10112964
C0R670,楓港,2025-04-10,22.190131,120.692156,0.99960095
C0FA50,霧峰,2025-04-10,24.0419,120.6995,0.011029964
C0UB10,蘇澳,2025-04-10,24.5969,121.8571,1.1036944e-08
C0G950,防潮門,2025-04-10,24.1835,120.4871,0.85437435
C0M740,六腳,2025-04-10,23.492871,120.290625,3.8237704e-07
C1R250,力里,2025-04-10,22.428117,120.629228,0.99801296
C0K330,虎尾,2025-04-10,23.719183,120.442036,5.9585856e-09
C2FA00,烏石坑,2025-04-10,24.273503,120.947617,7.500403e-09
C0V620,永安,2025-04-10,22.82315,120.236856,0.99996513
C1I330,楓樹林,2025-04-10,23.986803,121.076117,8.930577e-09
C0W200,湖西,2025-04-10,23.596314,119.67275,0.99996686
72Q010,高雄農改場,2025-04-10,22.709333,120.525889,0.06796289
C0SA40,瑞和,2025-04-10,22.974361,121.156697,1.578041e-05
C0C680,龜山,2025-04-10,25.02846,121.38656,1.9278e-08
C2V260,月眉,2025-04-10,22.971003,120.539853,0.002751775
C0V450,鳳森,2025-04-10,22.545064,120.392592,0.9992866
C0U720,南山,2025-04-10,24.43742,121.38167,2.88227e-08
A2N290,臺南蘭花園區,2025-04-10,23.340258,120.379661,1.5811253e-07
C0R560,新園,2025-04-10,22.5434,120.461558,0.9996954
C0U890,三星,2025-04-10,24.66812,121.65302,1.0485866e-08
C1V300,御油山,2025-04-10,23.001983,120.715364,1.5374454e-08
C0U600,礁溪,2025-04-10,24.817539,121.765608,1.8761588e-08
C1T980,龍澗,2025-04-10,24.023289,121.411328,3.600506e-08
C0D670,海天一線,2025-04-10,24.831986,120.914438,4.8067108e-05
C0SA00,歷坵,2025-04-10,22.520969,120.89185,1.9572473e-08
C0M710,東石,2025-04-10,23.458927,120.15385,1.0732647e-06
C0M780,鹿草,2025-04-10,23.41134,120.30835,3.7830372e-07
C0U520,雙連埤,2025-04-10,24.753033,121.641303,9.494898e-09
C0B010,七堵,2025-04-10,25.094819,121.71713,3.7414318e-07
C0R480,長治,2025-04-10,22.693128,120.542622,0.047753196
C1V830,國三S383K,2025-04-10,22.781967,120.426475,0.0057954174
12Q980,恆春工作站,2025-04-10,22.079678,120.714425,0.9913976
C1O940,東山服務區,2025-04-10,23.286016,120.398472,1.6816486e-07
C1U840,東澳嶺,2025-04-10,24.5378,121.8485,1.5632331e-08
C1D630,飛鳳山,2025-04-10,24.766464,121.119178,1.0015421e-08
C0S940,石寧山,2025-04-10,23.223772,121.406639,4.7241134e-05
C0K410,北港,2025-04-10,23.573957,120.292802,5.694277e-07
C2M620,瑞里,2025-04-10,23.545133,120.675197,5.591768e-09
C0SB70,小港漁港,2025-04-10,23.158558,121.400431,0.45532557
C2O950,安南,2025-04-10,23.076694,120.144861,0.9998927
C0F0E0,南湖圈谷,2025-04-10,24.363714,121.444667,7.9496466e-08
467610,成功,2025-04-10,23.097486,121.373428,0.34840682
C0G890,伸港,2025-04-10,24.148933,120.484403,0.8022207
C2E540,龍溪,2025-04-10,24.606489,120.783933,0.79804426
C1V200,梅山,2025-04-10,23.268447,120.823556,3.2173355e-09
C0T9H0,加路蘭山,2025-04-10,23.682947,121.5274,2.4446164e-08
C2O930,玉井,2025-04-10,23.126042,120.46055,8.7904986e-08
C1F911,新伯公,2025-04-10,24.221361,120.841069,4.4854485e-09
C0R490,九如,2025-04-10,22.7405,120.490503,0.070578486
C0X200,左鎮,2025-04-10,23.056758,120.408522,0.9999315
C0SB50,叭嗡嗡,2025-04-10,23.047062,121.343223,0.11664149
C1F891,稍來,2025-04-10,24.265689,121.001142,3.74762e-08
72N240,七股研究中心,2025-04-10,23.081672,120.062894,0.83833325
C0C700,中壢,2025-04-10,24.977661,121.256375,1.13076176e-07
C0M690,水上,2025-04-10,23.419734,120.388909,1.7671543e-07
C0V690,鼓山,2025-04-10,22.623325,120.275575,0.99995863
C0O860,大內,2025-04-10,23.11885,120.36083,0.9997137
C0Z200,萬榮,2025-04-10,23.709219,121.420106,1.000142e-06
C0T9D0,和中,2025-04-10,24.26676,121.74103,1.0536572e-07
C1O921,楠西,2025-04-10,23.183511,120.484083,6.1164705e-08
C0AJ30,淡水觀海,2025-04-10,25.184591,121.408616,8.094872e-07
C0V810,左營,2025-04-10,22.67491,120.28491,0.9999611
C0UA70,桃源谷,2025-04-10,24.962606,121.888875,1.1728078e-08
C0X130,官田,2025-04-10,23.193217,120.315422,0.35285515
C1H000,翠峰,2025-04-10,24.109397,121.205211,4.1952067e-08
C0UA90,石城,2025-04-10,24.980444,121.951214,2.8683457e-08
C1E681,南勢山,2025-04-10,24.421669,120.923831,9.65994e-09
C0A9F0,內湖,2025-04-10,25.079422,121.57545,1.8214611e-07
C0K291,宜梧,2025-04-10,23.536281,120.169329,8.5789077e-07
C1K540,口湖,2025-04-10,23.585344,120.180517,1.7010639e-06
C0R780,滿州,2025-04-10,22.024403,120.839892,0.9742602
C0V870,文安,2025-04-10,22.8025,120.2164,0.9999661
C0U650,玉蘭,2025-04-10,24.675286,121.587061,8.677715e-09
C0R640,東港,2025-04-10,22.46247,120.44074,0.9997911
C0AJ80,板橋,2025-04-10,25.0107,121.4489,1.7062926e-07
C0S660,下馬,2025-04-10,23.150427,121.070312,1.496763e-08
C1H9B1,阿眉,2025-04-10,24.1263,120.994672,2.4606198e-08
C0UA20,多加屯,2025-04-10,24.368614,121.373189,4.6815373e-08
C0E730,頭份,2025-04-10,24.688247,120.912206,5.4395554e-05
72V140,高改旗南分場,2025-04-10,22.857861,120.516667,0.04144546
C0K480,莿桐,2025-04-10,23.761192,120.502372,4.0577177e-09
C0U980,坪林石牌,2025-04-10,24.86478,121.77396,1.1128261e-08
C0T900,西林,2025-04-10,23.8119,121.441458,4.062475e-07
C1I150,青雲,2025-04-10,23.793361,120.949378,2.1326503e-09
467350,澎湖,2025-04-10,23.565503,119.563094,0.999961
C0G800,埔鹽,2025-04-10,24.000394,120.431683,3.8625913e-05
C0H960,草屯,2025-04-10,23.973672,120.68085,0.0032971404
C1V780,多納林道,2025-04-10,22.888028,120.737917,4.1377963e-09
C0E920,通霄漁港,2025-04-10,24.498589,120.673876,0.72226226
C0Z330,安通山,2025-04-10,23.290728,121.348528,3.287841e-08
C0AH10,永和,2025-04-10,25.01125,121.508111,1.7821306e-07
C0AK10,太平里,2025-04-10,25.134937,121.364899,1.764609e-06
C2G640,鹿港,2025-04-10,24.0753,120.430481,4.9280425e-05
C1E890,國三N149K,2025-04-10,24.463414,120.680019,1.9694065e-05
C1R110,口社,2025-04-10,22.770111,120.645222,0.0023216102
C1M870,國三N285K,2025-04-10,23.550319,120.505833,2.499363e-09
C1E480,鳳美,2025-04-10,24.554803,121.034747,9.298436e-09
C0M530,奮起湖,2025-04-10,23.493903,120.699253,6.4064465e-09
C0C590,觀音,2025-04-10,25.027072,121.153317,1.7189436e-06
C0T9M0,靜浦,2025-04-10,23.455167,121.495028,8.775773e-06
C2H9M0,發祥,2025-04-10,24.154094,121.164517,1.2023916e-08
C0AI40,石牌,2025-04-10,25.115597,121.513139,3.3481672e-07
C1F871,上谷關,2025-04-10,24.203483,121.018644,7.57551e-09
C2H9G0,百勝,2025-04-10,24.051142,120.909361,4.9218687e-09
C0G880,二水,2025-04-10,23.810742,120.6173,3.5368894e-09
C0R940,加祿堂,2025-04-10,22.3363,120.6217,0.99953574
C0W220,北竿,2025-04-10,26.220358,119.974881,2.794118e-09
C0O960,崎頂,2025-04-10,22.959547,120.369317,0.9955511
C0S750,向陽,2025-04-10,23.248397,120.986133,2.4309138e-08
C0T9F0,水璉,2025-04-10,23.797131,121.542514,1.2542955e-07
C1M600,頭凍,2025-04-10,23.406364,120.603339,3.9226937e-09
467660,臺東,2025-04-10,22.752211,121.154586,0.071281396
C1D380,新埔,2025-04-10,24.84745,121.03834,8.4899654e-07
C2G980,田頭村,2025-04-10,23.8263,120.444175,6.856459e-09
C0V750,路竹,2025-04-10,22.854997,120.259439,0.9999624
C0N050,蚵寮,2025-04-10,23.301,120.1104,0.4181017
72M700,南改鹿草分場,2025-04-10,23.416869,120.283061,4.541207e-07
C1SA50,利嘉林道,2025-04-10,22.82325,121.009389,5.4235434e-09
C0A940,金山,2025-04-10,25.223628,121.643967,5.9369773e-07
C1V340,大津,2025-04-10,22.888322,120.645986,0.0031808808
C0W180,七美,2025-04-10,23.219333,119.444892,0.99995613
C1F9C1,白冷,2025-04-10,24.182844,120.929889,4.66339e-09
K2E710,苗改生物防治研究中心,2025-04-10,24.422861,120.871833,2.220366e-08
C0N040,蘆竹溝,2025-04-10,23.2344,120.0961,0.44260368
C2W230,畜試所澎湖,2025-04-10,23.628342,119.513206,0.99988157
C0R880,後壁湖,2025-04-10,21.9457,120.7457,0.9913669
C1I280,埔中,2025-04-10,23.820778,120.642594,2.0511375e-09
467790,墾丁雷達站,2025-04-10,21.948235,120.808028,0.9850937
C0W190,望安,2025-04-10,23.380564,119.494075,0.99995273
C0Z170,卓溪,2025-04-10,23.3443,121.3029,9.015706e-06
C0F850,東勢,2025-04-10,24.246428,120.833047,5.1926823e-09
466900,淡水,2025-04-10,25.164889,121.448906,1.6693941e-06
C0I370,魚池,2025-04-10,23.895703,120.94135,2.4737665e-09
C0C630,大溪,2025-04-10,24.882853,121.265547,1.5530904e-07
C0A520,山佳,2025-04-10,24.974944,121.402008,1.2985073e-07
C0I110,竹山,2025-04-10,23.761225,120.688156,2.6443736e-09
82H840,茶改南部分場,2025-04-10,23.762528,120.7405,1.8750488e-09
C0G660,溪湖,2025-04-10,23.94835,120.479122,2.2412228e-06
C1T800,洛韶,2025-04-10,24.204558,121.453956,2.68652e-08
C1T810,慈恩,2025-04-10,24.192044,121.388386,3.4366884e-08
C1E451,象鼻,2025-04-10,24.368617,120.940228,8.235617e-09
C0AC60,三峽,2025-04-10,24.939025,121.369728,2.8283537e-07
C0I490,萬大林道,2025-04-10,23.928228,121.091411,1.2993342e-08
C1I290,豐丘,2025-04-10,23.668178,120.887417,5.5570535e-09
C1I320,奧萬大,2025-04-10,23.952956,121.178556,8.925281e-09
C2M910,嘉義大學,2025-04-10,23.471325,120.485903,3.6608743e-09
C0U770,南澳,2025-04-10,24.44935,121.81022,2.8504516e-08
C0A980,社子,2025-04-10,25.109508,121.469681,2.1134247e-06
C0V800,六龜,2025-04-10,22.997889,120.633583,6.720243e-08
C1G9D0,國一S218K,2025-04-10,23.890641,120.493253,2.3480418e-06
C0E570,白沙屯,2025-04-10,24.549447,120.696803,0.84281063
C2F9A0,中竹林,2025-04-10,24.103556,120.751061,2.0204356e-09
C0FA40,臺中電廠,2025-04-10,24.2146,120.4907,0.81860274
C2G9A0,畜試所彰化,2025-04-10,23.86045,120.557964,4.3966035e-09
C0H9C0,合歡山,2025-04-10,24.143442,121.272547,6.5097694e-08
C0X060,下營,2025-04-10,23.22695,120.256261,0.44432265
G2M350,農試溪口農場,2025-04-10,23.58565,120.408111,2.1613538e-07
C0U860,頭城,2025-04-10,24.85323,121.8308,1.9216436e-08
C0R580,南州,2025-04-10,22.48591,120.50274,0.9997911
C0D430,峨眉,2025-04-10,24.6905,121.017189,5.566938e-07
C0G780,秀水,2025-04-10,24.03405,120.503869,2.3018256e-06
72N100,臺南農改場,2025-04-10,23.0605,120.342194,0.999618
C0S900,蘭嶼高中,2025-04-10,22.04909,121.51214,0.99988306
C1F9W0,德基,2025-04-10,24.254783,121.190261,2.6545374e-08
C1Z120,壽豐,2025-04-10,23.870853,121.508081,3.501664e-05
C0W160,烏坵,2025-04-10,24.9944,119.44956,0.8250155
C1I240,外大坪,2025-04-10,23.958697,120.917931,2.8676714e-09
C1I550,國六W023K,2025-04-10,23.979067,120.867742,1.9240705e-09
C0R870,興海,2025-04-10,21.9752,120.8439,0.98840445
C0R140,瑪家,2025-04-10,22.682903,120.686639,2.01677e-09
C0A530,坪林,2025-04-10,24.938183,121.70975,1.8510676e-08
C0X260,後壁,2025-04-10,23.366358,120.362326,0.078454025
C0Z230,和平,2025-04-10,24.30717,121.77007,1.18330256e-07
C0G770,福興,2025-04-10,24.041289,120.437669,5.7354773e-05
C0H9A0,神木村,2025-04-10,23.532742,120.843667,1.5159786e-08
C0I460,南投,2025-04-10,23.911469,120.687331,0.012413499
C0I480,梅峰,2025-04-10,24.085272,121.173572,3.2801115e-08
C1V570,吉東,2025-04-10,22.85422,120.5454,0.026052898
C2D740,屯原,2025-04-10,24.067969,121.209389,2.4573225e-08
C2A560,福山,2025-04-10,24.776203,121.502811,9.302978e-09
C0AH30,五分山,2025-04-10,25.07125,121.780794,1.6492463e-08
C0FA10,松柏,2025-04-10,24.429115,120.617482,0.86387014
72S200,東改班鳩分場,2025-04-10,22.829528,121.077694,1.7177441e-06
72HA00,中改埔里分場,2025-04-10,23.903208,120.963364,2.3981142e-09
C2H9W0,大坪頂農水,2025-04-10,24.043122,120.932781,2.7637945e-09
C0C650,平鎮,2025-04-10,24.897503,121.214636,9.5530666e-08
C0S930,延平,2025-04-10,22.902581,121.084058,2.5522947e-06
C0UA60,樟樹山,2025-04-10,24.41393,121.78325,1.0415165e-08
C1S670,摩天,2025-04-10,23.199503,121.027,2.013942e-08
C0V630,茄萣,2025-04-10,22.906642,120.182608,0.9999121
466940,基隆,2025-04-10,25.133314,121.740475,1.2577816e-06
C0X050,東河,2025-04-10,23.296598,120.385608,2.2531952e-07
C0R770,保力,2025-04-10,22.071122,120.764111,0.99590534
G2L020,農試嘉義分所,2025-04-10,23.485028,120.473806,3.1371283e-09
C0X240,關子嶺,2025-04-10,23.331169,120.508025,1.3142938e-09
C0I380,集集,2025-04-10,23.828206,120.801467,1.1985101e-09
466990,花蓮,2025-04-10,23.975128,121.613275,9.2499606e-05
C1V220,小關山,2025-04-10,23.154217,120.813603,1.6858019e-08
C1F9G1,慶福山,2025-04-10,24.180853,120.848378,7.3597377e-09
C0Z250,瑞穗林道,2025-04-10,23.49284,121.30688,1.27454065e-08
C0D590,新豐,2025-04-10,24.87068,120.97721,1.0388152e-06
C0A870,五指山,2025-04-10,25.132153,121.608692,1.3261218e-08
C0UA50,西帽山,2025-04-10,24.555361,121.802628,1.5057198e-08
C0X160,仁德,2025-04-10,22.968258,120.257689,0.99988544
C1H971,六分寮,2025-04-10,23.92507,120.6378,1.9938824e-09
C0W120,西嶼,2025-04-10,23.5626,119.468436,0.99994737
C0G650,員林,2025-04-10,23.946503,120.585597,7.252676e-07
C0AD50,鶯歌,2025-04-10,24.951533,121.346294,2.2942176e-07
C2H9Q0,北東眼山,2025-04-10,24.120939,121.189303,2.6202855e-08
C2H9T0,名間竹圍,2025-04-10,23.859914,120.637572,1.1458621e-09
C0S990,山豬窟,2025-04-10,22.318619,120.857372,3.9282437e-08
C0X190,安平,2025-04-10,22.993161,120.152181,0.99988925
C0K400,斗六,2025-04-10,23.720583,120.541127,3.901443e-09
12J990,口湖工作站,2025-04-10,23.589978,120.180394,1.6337924e-06
C0O830,北寮,2025-04-10,23.079561,120.495008,0.0018821269
C1D410,白蘭,2025-04-10,24.579364,121.079947,1.1624918e-08
C0S970,加津林,2025-04-10,22.416211,120.926942,0.0016863259
C0D700,關西,2025-04-10,24.7977,121.1732,2.538792e-07
C0M810,里佳,2025-04-10,23.389125,120.716647,6.3915806e-09
C0U750,龜山島,2025-04-10,24.841667,121.953133,3.649812e-08
C0R810,內獅,2025-04-10,22.305064,120.642986,0.99953794
C1M390,龍美,2025-04-10,23.406728,120.654417,4.796258e-09
C2FB60,頭櫃山,2025-04-10,24.129842,120.858925,8.428524e-09
C1H840,國三N238K,2025-04-10,23.841008,120.707711,1.1928133e-09
CAQ030,崎峰國小,2025-04-10,22.42565,120.49521,0.9997911
C2E520,大湖,2025-04-10,24.414939,120.870872,7.036521e-09
467530,阿里山,2025-04-10,23.508208,120.813242,2.556152e-08
C1E691,南湖,2025-04-10,24.40135,120.837533,7.762469e-09
C0FA30,梧棲,2025-04-10,24.256003,120.523381,0.8204923
C1V231,高中,2025-04-10,23.134911,120.716711,1.2919495e-09
C0F9V0,新社,2025-04-10,24.200172,120.815806,4.4697175e-09
C0H890,埔里,2025-04-10,23.972169,120.952425,4.713036e-09
C0R690,墾丁,2025-04-10,21.966756,120.810269,0.99991536
C0F0D0,審馬陣,2025-04-10,24.381675,121.4203,7.1034904e-08
C2W030,金門農試所,2025-04-10,24.448431,118.451786,6.3125154e-09
C0R820,白鷺,2025-04-10,22.454275,120.666219,1.4913544e-08
C1V190,南天池,2025-04-10,23.27403,120.91176,2.660554e-08
K2E360,苗栗農改場,2025-04-10,24.495722,120.829111,1.4316313e-06
CAJ050,海口故事園區,2025-04-10,23.57543,120.14121,1.6854165e-06
C2H9D0,三隻寮,2025-04-10,24.093078,120.861578,2.8096643e-09
C0O990,媽廟,2025-04-10,22.99175,120.293525,0.9998073
C0D480,打鐵坑,2025-04-10,24.849664,121.150789,8.9542205e-08
C0Z220,和平林道,2025-04-10,24.343922,121.656317,2.2589866e-08
C0TA10,花蓮漁港,2025-04-10,23.995322,121.638331,0.00011981843
72C440,桃園農改場,2025-04-10,24.950944,121.030583,1.6668696e-06
C1E711,馬拉邦山,2025-04-10,24.367306,120.901656,7.2693895e-09
C0SB20,富岡,2025-04-10,22.792467,121.192669,0.046068456
C0D560,竹東,2025-04-10,24.767147,121.057881,3.2469535e-07
C0F9U0,南屯,2025-04-10,24.137006,120.637969,8.688547e-07
C0M720,番路,2025-04-10,23.464657,120.554156,1.3803451e-09
C0F0A0,雪山圈谷,2025-04-10,24.388594,121.236339,7.631871e-08
C1A9N0,四十份,2025-04-10,24.934158,121.593283,1.0086833e-08
C0U760,東澳,2025-04-10,24.52196,121.83318,2.1717462e-08
C0X230,鹽水,2025-04-10,23.272621,120.247641,0.36042807
C2H9H0,苗改南投蜂場,2025-04-10,23.852589,120.693481,2.7317621e-09
C0R950,萬隆國小,2025-04-10,22.507667,120.587817,0.99940753
467540,大武,2025-04-10,22.35572,120.90374,0.0030382844
C0V370,古亭坑,2025-04-10,22.893178,120.401947,0.9999165
C1I340,新興橋,2025-04-10,23.563333,120.868728,3.945889e-09
C0SA80,土坂,2025-04-10,22.453108,120.887572,4.6634716e-05
C0R160,鹽埔,2025-04-10,22.739558,120.530778,0.05303292
C0AC40,大屯山,2025-04-10,25.175675,121.522408,2.3813053e-08
466850,五分山雷達站,2025-04-10,25.071182,121.781205,1.6750487e-08
C2H9L0,馬烈霸,2025-04-10,24.1512,121.201772,2.7808385e-08
C1AI50,國三N016K,2025-04-10,25.034164,121.619664,1.4867199e-07
C1V600,藤枝,2025-04-10,23.071961,120.757042,1.8579296e-08
C1E601,南勢,2025-04-10,24.572486,120.734842,7.951123e-06
C0Z180,新城,2025-04-10,24.03946,121.60454,4.942194e-05
C0O980,新市,2025-04-10,23.061614,120.298197,0.9998068
C0K420,西螺,2025-04-10,23.800407,120.467394,6.3178875e-09
C0Z050,佳心,2025-04-10,23.34567,121.21316,1.3199091e-08
C0AD30,蘆洲,2025-04-10,25.086594,121.472331,1.9853815e-07
C0V610,梓官,2025-04-10,22.760558,120.267211,0.99996257
K2F750,種苗改良場,2025-04-10,24.225972,120.800917,4.401823e-09
C0UA80,大溪漁港,2025-04-10,24.941801,121.902955,2.9520848e-08
C1AI60,國一39K邊坡,2025-04-10,25.064361,121.383836,2.0246569e-08
C0W150,金寧,2025-04-10,24.457703,118.328989,6.3336816e-09
C0R960,內埔,2025-04-10,22.608483,120.570714,0.99898255
V2C250,八德合作社,2025-04-10,24.93775,121.266389,1.3325575e-07
C2H9S0,龍南,2025-04-10,23.953536,120.833183,7.342772e-09
C0AH40,平等,2025-04-10,25.129142,121.577086,1.0437796e-08
C0R540,佳冬,2025-04-10,22.419456,120.552375,0.99974483
466950,彭佳嶼,2025-04-10,25.627975,122.079744,0.99965715
C0A890,雙溪,2025-04-10,25.036003,121.864242,4.7345358e-07
C0C480,桃園,2025-04-10,24.992425,121.323172,1.3189155e-07
C0AH50,林口,2025-04-10,25.072181,121.38084,1.8898424e-08
A2K360,水試臺西試驗場,2025-04-10,23.717231,120.190522,0.005365657
C2M960,外寮,2025-04-10,23.562643,120.665688,4.921108e-09
C0F9S0,烏日,2025-04-10,24.107058,120.624103,1.3146889e-06
C0C490,八德,2025-04-10,24.928708,121.283289,1.3052652e-07
C0R190,赤山,2025-04-10,22.592333,120.614306,0.9987295
C0T820,天祥,2025-04-10,24.179597,121.495639,2.3400533e-08
C1F9E1,龍安,2025-04-10,24.1605,120.831961,5.2350964e-09
C0V820,小林,2025-04-10,23.148408,120.63325,1.2093808e-09
C2G870,芳苑,2025-04-10,23.922303,120.320025,0.017199576
C0E850,大河,2025-04-10,24.618069,120.948578,1.4941937e-06
C1U670,寒溪,2025-04-10,24.634,121.71691,1.3400989e-08
C0N020,城西,2025-04-10,23.0568,120.0956,0.78389716
C1Z110,三棧,2025-04-10,24.11557,121.60501,3.2829533e-08
C0R280,檳榔,2025-04-10,22.076078,120.836777,0.9999894
C2H9J0,中台,2025-04-10,23.9996,120.938739,2.2317437e-09
C0F9L0,后里,2025-04-10,24.310436,120.729725,2.129427e-09
467441,高雄,2025-04-10,22.730432,120.312516,0.9999593
C0D540,橫山,2025-04-10,24.71116,121.11693,7.362423e-08
C1D420,太閣南,2025-04-10,24.632808,121.160575,2.412553e-08
C1E770,公館,2025-04-10,24.526914,120.830806,2.772461e-06
CAN130,水試所海水繁養殖中心,2025-04-10,23.120802,120.07968,0.7930747
C1I430,翠華,2025-04-10,24.191961,121.224339,4.2043624e-08
C1M400,菜瓜坪,2025-04-10,23.251928,120.576103,1.2793016e-09
C0G730,二林,2025-04-10,23.903325,120.376081,4.5375797e-05
72M360,南改義竹分場,2025-04-10,23.360694,120.279361,0.2672792
V2K620,麥寮合作社,2025-04-10,23.753836,120.294783,7.315753e-05
C0Z070,舞鶴,2025-04-10,23.46811,121.37407,1.8035415e-07
C0B040,大武崙,2025-04-10,25.166676,121.706993,9.1191185e-07
C1Z030,紅葉,2025-04-10,23.493119,121.338806,3.147181e-07
C1I050,丹大,2025-04-10,23.753747,121.141147,2.8177748e-08
C0I080,信義,2025-04-10,23.689694,120.851036,2.2341202e-09
C2M920,朴子農改,2025-04-10,23.469889,120.259383,5.755814e-07
C2A880,福隆,2025-04-10,25.017842,121.942083,2.9124099e-08
C0Z160,鳳林,2025-04-10,23.746114,121.453411,2.6792263e-06
C0V210,復興,2025-04-10,23.222403,120.806089,1.3348533e-09
C0H990,昆陽,2025-04-10,24.121322,121.273642,5.6802076e-08
C0R741,獅子,2025-04-10,22.202308,120.705236,0.998567
C0S710,鹿野,2025-04-10,22.917711,121.122994,1.3494655e-07
C0I530,小奇萊,2025-04-10,24.131764,121.295717,5.8440413e-08
C2K630,荷苞,2025-04-10,23.657717,120.595144,2.378118e-09
C0Z080,富源,2025-04-10,23.587642,121.378225,9.7297296e-08
C0SB10,美和,2025-04-10,22.682078,121.060236,0.074693136
C2K620,馬光農場,2025-04-10,23.721453,120.378864,7.151912e-09
C1I140,卡奈托灣,2025-04-10,23.754364,121.087872,2.090469e-08
C0I520,玉山風口,2025-04-10,23.470489,120.955994,5.4519226e-08
C1G691,下水埔,2025-04-10,23.816114,120.5676,3.7199293e-09
C0X110,臺南市南區,2025-04-10,22.961189,120.188378,0.99990255
C0V680,仁武,2025-04-10,22.701083,120.347722,0.99996036
C2G840,北斗,2025-04-10,23.877586,120.514222,2.0654857e-06
C0R900,竹坑,2025-04-10,22.1385,120.7022,0.99952793
C0K250,崙背,2025-04-10,23.75555,120.318925,5.7689544e-05
C0G860,社頭,2025-04-10,23.897647,120.5862,8.472438e-07
C0X150,安定,2025-04-10,23.102614,120.227839,0.9998434
C0R590,里港,2025-04-10,22.77919,120.49459,0.04157435
C0E610,馬都安,2025-04-10,24.451272,120.930192,8.127336e-09
C0E550,明德,2025-04-10,24.583486,120.885411,7.9567135e-06
C0R150,三地門,2025-04-10,22.709889,120.639944,0.0030168034
C0G910,花壇,2025-04-10,24.032076,120.549461,1.4194286e-06
C1D400,鳥嘴山,2025-04-10,24.71909,121.28387,7.25814e-09
C0K500,元長,2025-04-10,23.64981,120.315024,5.4618176e-05
C0F0B0,石岡,2025-04-10,24.276061,120.777644,2.0691973e-09
C2V250,甲仙,2025-04-10,23.080106,120.591758,3.8915232e-08
C0SA20,金崙山,2025-04-10,22.567419,120.959667,4.3933447e-08
C0V350,溪埔,2025-04-10,22.738578,120.446797,0.07673103
C0M660,溪口,2025-04-10,23.604131,120.403569,2.1565997e-07
C1S880,壽卡,2025-04-10,22.238911,120.858903,3.082197e-08
72D680,桃改新埔分場,2025-04-10,24.834444,121.066111,9.4071726e-07
