站號,站名,日期,lat,lon,BLBTSLS
C0K280,四湖,2025-11-27,23.630414,120.227125,0.9999927
CAH030,茶改場竹圍站,2025-11-27,23.860083,120.637528,7.00569e-10
V2K610,大庄合作社,2025-11-27,23.8068,120.367939,0.99998176
G2AI50,關渡,2025-11-27,25.11575,121.492,0.00036911078
V2C260,八德蔬果,2025-11-27,24.978508,121.281819,0.020106403
A2K570,古坑花卉中心,2025-11-27,23.63353,120.55239,6.5809686e-06
467571,新竹,2025-11-27,24.827853,121.014219,0.99881303
C0E430,南庄,2025-11-27,24.601775,121.000214,1.3434482e-09
C0E420,竹南,2025-11-27,24.708978,120.888897,0.9999592
C0M530,奮起湖,2025-11-27,23.493903,120.699253,1.1449489e-09
C0C590,觀音,2025-11-27,25.027072,121.153317,0.9998941
C0X060,下營,2025-11-27,23.22695,120.256261,0.99999374
C2D740,屯原,2025-11-27,24.067969,121.209389,1.9368962e-08
C0M810,里佳,2025-11-27,23.389125,120.716647,1.1267102e-09
V2C250,八德合作社,2025-11-27,24.93775,121.266389,0.2525342
C0K250,崙背,2025-11-27,23.75555,120.318925,0.9999916
