站號,站名,日期,lat,lon,BlastGRU-TW
C0R710,龍磐,2025-11-28,21.931672,120.838942,0.835538
C1F9D1,白毛台,2025-11-28,24.158325,120.886933,0.43330818
C0G940,竹塘,2025-11-28,23.848253,120.386764,0.46980205
467590,恆春,2025-11-28,22.003897,120.746339,0.8840227
C1O850,環湖,2025-11-28,23.148617,120.418633,0.31045604
C0U710,太平山,2025-11-28,24.505486,121.525656,0.04890869
C0E820,獅潭,2025-11-28,24.539133,120.920042,0.8853699
C0V880,興達,2025-11-28,22.8778,120.2127,0.9146893
C0S890,關山,2025-11-28,23.0395,121.175017,0.9666375
C0SB30,新蘭,2025-11-28,22.869214,121.223228,0.9727539
C2R970,屏科大,2025-11-28,22.648275,120.619247,0.26235855
C1Z130,銅門,2025-11-28,23.965694,121.492842,0.9902281
C0AD40,土城,2025-11-28,24.973208,121.445169,0.56278485
CAN140,六官養殖協會,2025-11-28,23.22881,120.29962,0.6700097
C0X180,山上,2025-11-28,23.0757,120.363253,0.44947824
C0F9Z0,雪山東峰,2025-11-28,24.388792,121.268675,0.00040358948
C1M480,獨立山,2025-11-28,23.537022,120.607797,0.45682067
C0X220,學甲,2025-11-28,23.230367,120.182187,0.30673835
467650,日月潭,2025-11-28,23.881325,120.90805,0.7280573
C0K600,箔子寮,2025-11-28,23.6197,120.14,0.7559698
C0G830,埤頭,2025-11-28,23.866003,120.452806,0.18599492
C0S950,七塊厝,2025-11-28,22.954453,121.229922,0.8954115
467110,金門,2025-11-28,24.407306,118.289281,0.0027967112
C0AH80,深坑,2025-11-28,25.002703,121.628328,0.61474234
C0A970,三貂角,2025-11-28,25.007606,122.002058,0.85482866
C2D730,寶山農場,2025-11-28,24.732444,120.976153,0.4270214
C0K430,褒忠,2025-11-28,23.690938,120.303634,0.23888645
467480,嘉義,2025-11-28,23.495925,120.432906,0.23039667
C0V400,阿公店,2025-11-28,22.804194,120.355528,0.79596263
C0E960,觀霧分站,2025-11-28,24.505781,121.113921,0.0019037286
467550,玉山,2025-11-28,23.48718,120.95943,0.0005120838
C0R440,大漢山,2025-11-28,22.405264,120.753181,0.008855006
C0SD30,東清國小,2025-11-28,22.057128,121.564922,0.98762083
C0K280,四湖,2025-11-28,23.630414,120.227125,0.71251005
C1F9B1,桐林,2025-11-28,24.066172,120.735194,0.8562364
C2H9U0,鳳鵬,2025-11-28,23.763919,120.788061,0.15384383
C0K390,土庫,2025-11-28,23.679029,120.395574,0.14147545
C1I450,望鄉山,2025-11-28,23.594153,120.944286,0.0006902859
C0E910,海埔,2025-11-28,24.648767,120.772435,0.47578293
B2E890,畜試北區分所,2025-11-28,24.527806,120.770972,0.8431033
C0R750,四林格山,2025-11-28,22.076989,120.802439,0.66749007
C0F0C0,中坑,2025-11-28,24.248517,120.903319,0.4592353
C1I121,大鞍,2025-11-28,23.678381,120.760017,0.07690658
72U480,花改蘭陽分場,2025-11-28,24.686306,121.716583,0.99796003
C0A770,科教館,2025-11-28,25.096356,121.516507,0.55054563
C0AJ60,六塊厝,2025-11-28,25.24,121.4481,0.6205744
C0R620,墾雷,2025-11-28,21.900836,120.855269,0.92666686
467420,永康,2025-11-28,23.038386,120.2367,0.58369744
C0I410,名間,2025-11-28,23.837053,120.701447,0.07364865
A2C560,農工中心,2025-11-28,24.985917,121.239833,0.69269866
C0V740,旗山,2025-11-28,22.888614,120.483597,0.32288906
C0Z061,玉里,2025-11-28,23.3215,121.339656,0.99843436
C0S840,南田,2025-11-28,22.279725,120.889208,0.7242179
C1I470,杉林溪,2025-11-28,23.639517,120.786444,0.01901229
C1X040,東原,2025-11-28,23.291597,120.463822,0.19671786
C0R660,枋寮,2025-11-28,22.367722,120.590647,0.5079051
C1R120,上德文,2025-11-28,22.763272,120.704442,0.73638207
C0K450,大埤,2025-11-28,23.646074,120.431537,0.20837907
C0UA00,土場,2025-11-28,24.576533,121.495333,0.9815169
467080,宜蘭,2025-11-28,24.763975,121.756528,0.98636436
C0N030,四草,2025-11-28,23.0235,120.1116,0.4185419
467410,臺南,2025-11-28,22.99328,120.20492,0.42477497
C0V650,彌陀,2025-11-28,22.783806,120.246361,0.9415804
C0D660,新竹市東區,2025-11-28,24.798681,120.986942,0.32068795
82S580,茶改東部分場,2025-11-28,22.907694,121.130139,0.95945925
C0SB40,興隆,2025-11-28,22.913661,121.257469,0.9718436
467050,新屋,2025-11-28,25.006725,121.047492,0.49255815
C0C710,大溪永福,2025-11-28,24.892936,121.324975,0.31697887
C0FA20,溫寮,2025-11-28,24.372177,120.583125,0.66086876
C0V640,湖內,2025-11-28,22.887139,120.2445,0.91415286
C0R910,下寮,2025-11-28,22.3929,120.5548,0.5089505
C0Z020,明里,2025-11-28,23.208717,121.262342,0.9978087
C0M770,嘉義梅山,2025-11-28,23.585398,120.555587,0.0675781
C0C660,楊梅,2025-11-28,24.912375,121.143047,0.70107764
C0SD40,牛頭山,2025-11-28,22.676661,121.506944,0.7629398
C1E511,新開,2025-11-28,24.347703,120.827019,0.9114087
G2F820,農試所(霧峰),2025-11-28,24.031261,120.688133,0.87629014
C2M990,大巃頂,2025-11-28,23.5547,120.61439,0.7167639
C1I070,和社,2025-11-28,23.591131,120.888861,0.50258726
C2E990,新坪頂,2025-11-28,24.30201,120.8574,0.66029364
C0TA80,立霧山,2025-11-28,24.183258,121.641899,0.77165276
C2F000,大肚,2025-11-28,24.15295,120.572117,0.9012727
C1S850,豐南,2025-11-28,23.122139,121.262389,0.94792515
C2A920,富貴角,2025-11-28,25.263783,121.565258,0.66784394
CAH030,茶改場竹圍站,2025-11-28,23.860083,120.637528,0.123319976
C0T960,光復,2025-11-28,23.660694,121.424964,0.9827909
C0F9M0,豐原,2025-11-28,24.254322,120.720692,0.84127593
C0R720,旭海,2025-11-28,22.205403,120.887614,0.75939435
C0V710,苓雅,2025-11-28,22.622742,120.330669,0.8350913
C0C740,觀音工業區,2025-11-28,25.064764,121.114856,0.41598403
CAC040,拉拉山,2025-11-28,24.699317,121.427133,0.049371455
C0V790,萬山,2025-11-28,22.905944,120.688056,0.10136584
U2HA30,臺大和社,2025-11-28,23.590856,120.888864,0.50258726
C2H9K0,屯原,2025-11-28,24.067969,121.209389,0.0033664207
C0AJ90,澳底,2025-11-28,25.0552,121.9253,0.7598481
C0Z100,東華,2025-11-28,23.89525,121.549833,0.9965001
C0G970,三豐,2025-11-28,23.882,120.2895,0.70031583
V2K610,大庄合作社,2025-11-28,23.8068,120.367939,0.34340084
C0V900,汕尾,2025-11-28,22.4782,120.4151,0.37130162
C1R630,龍泉,2025-11-28,22.66701,120.59091,0.27081537
C1AC50,關渡,2025-11-28,25.133486,121.469331,0.772579
C0C800,四稜,2025-11-28,24.64733,121.4293,0.32156837
C0F9I0,神岡,2025-11-28,24.272481,120.658314,0.8342413
C0K460,斗南,2025-11-28,23.678734,120.478359,0.21133418
C2O810,曾文,2025-11-28,23.219681,120.497328,0.27265164
467280,後龍,2025-11-28,24.648563,120.831834,0.5119253
C1F9J1,清水林,2025-11-28,24.071242,120.820419,0.49827993
C2A650,火燒寮,2025-11-28,25.002719,121.742892,0.78140426
466930,竹子湖,2025-11-28,25.162078,121.544547,0.47608924
C1I220,樟湖,2025-11-28,23.905333,120.846983,0.13019642
C0I390,仁愛,2025-11-28,24.022122,121.132206,0.19233444
C0Z300,東里,2025-11-28,23.26853,121.30547,0.9978189
C1V590,新發,2025-11-28,23.057019,120.646064,0.69287115
C0K510,水林,2025-11-28,23.572924,120.24597,0.49853858
72S590,東改賓朗果園,2025-11-28,22.813889,121.071278,0.9392665
82A750,茶改北部分場,2025-11-28,24.955778,121.631222,0.6671329
C1A750,石碇服務區,2025-11-28,25.00872,121.646242,0.76236063
C0X300,鹿寮,2025-11-28,23.386047,120.477331,0.21243393
G2AI50,關渡,2025-11-28,25.11575,121.492,0.514819
C0K590,雲林東勢,2025-11-28,23.674192,120.255721,0.270468
C0A570,桶後,2025-11-28,24.848222,121.597992,0.92837787
C1S800,華源,2025-11-28,22.657883,121.02325,0.9959188
C0G720,溪州,2025-11-28,23.851589,120.499093,0.19606853
C1V160,達卡努瓦,2025-11-28,23.279811,120.705319,0.2448815
C2M410,馬頭山,2025-11-28,23.324361,120.582017,0.352468
C0V850,蚵仔寮,2025-11-28,22.7256,120.2527,0.91008526
C0S740,池上,2025-11-28,23.119628,121.209469,0.94398695
C1V390,尖山,2025-11-28,22.813153,120.367789,0.7947935
C0AH70,松山,2025-11-28,25.04871,121.55042,0.56481004
C0N010,鯤鯓國小,2025-11-28,23.1879,120.0889,0.31305543
C0R550,新埤,2025-11-28,22.467947,120.582894,0.36914057
C0SA60,知本（水試所）,2025-11-28,22.702394,121.082761,0.99653125
C0T9I0,豐濱,2025-11-28,23.583897,121.514806,0.9912574
C0UB00,淡江大學蘭陽校園,2025-11-28,24.823239,121.730383,0.9045654
C0W240,九宮,2025-11-28,24.423753,118.240186,0.0028789176
C0T9N0,富里,2025-11-28,23.171639,121.249378,0.98451424
U2HA50,臺大竹山,2025-11-28,23.756972,120.681556,0.047908526
C0V840,鳳鼻頭,2025-11-28,22.5083,120.3591,0.721224
C0X140,西港,2025-11-28,23.125608,120.203108,0.63368404
72D080,桃改五峰分場,2025-11-28,24.612194,121.157167,0.11232901
C2H9P0,伊拿谷,2025-11-28,23.963211,121.088264,0.59260714
C2K250,崙背,2025-11-28,23.75553,120.31893,0.23872288
C2H9F0,柑林,2025-11-28,24.018658,120.847072,0.8438448
C0TA20,加灣,2025-11-28,24.082025,121.608944,0.964081
C0V530,阿蓮,2025-11-28,22.883208,120.327508,0.8620688
C0FB30,八仙山苗圃,2025-11-28,24.192719,121.001366,0.5139534
C1O880,關山,2025-11-28,23.173397,120.594092,0.08680486
C0E791,卓蘭,2025-11-28,24.3126,120.8244,0.89652705
C1I030,武界,2025-11-28,23.913225,121.052483,0.5489793
C0R520,崁頂,2025-11-28,22.514781,120.506914,0.28301805
C0R341,牡丹,2025-11-28,22.130036,120.792639,0.6512531
C0R930,萬丹,2025-11-28,22.5885,120.4851,0.8242925
C0S760,紅石,2025-11-28,23.069131,121.126219,0.46429342
C2C410,中央大學,2025-11-28,24.967652,121.185165,0.691962
C1M610,石磐龍,2025-11-28,23.496606,120.663506,0.32836732
C0C790,東眼山,2025-11-28,24.8284,121.40888,0.46114445
C0UA10,鴛鴦湖,2025-11-28,24.590269,121.412228,0.012923527
V2C260,八德蔬果,2025-11-28,24.978508,121.281819,0.7234192
C0R800,丹路,2025-11-28,22.204481,120.750989,0.7417604
C0G920,永靖,2025-11-28,23.924703,120.547533,0.19992739
C2M950,太和,2025-11-28,23.538372,120.702961,0.048076212
C1A630,下盆,2025-11-28,24.771003,121.538622,0.9898789
B2N890,畜產試驗所,2025-11-28,23.058972,120.336406,0.7055016
C0UA30,白嶺,2025-11-28,24.527819,121.519031,0.6691904
C1V580,溪南(特生中心),2025-11-28,23.084972,120.788475,0.024535643
C1T970,大農,2025-11-28,23.615233,121.413331,0.9903041
C0R650,竹田,2025-11-28,22.58486,120.54344,0.6977211
C1H900,清流,2025-11-28,24.080775,120.962997,0.43938997
C1C510,水尾,2025-11-28,24.940081,121.087161,0.6363145
C2N170,茅港尾,2025-11-28,23.2061,120.2624,0.6726063
C0F9X0,大雅(中科園區),2025-11-28,24.21528,120.62445,0.83172023
C0SB60,白守蓮,2025-11-28,23.126769,121.401914,0.9786547
C0O970,虎頭埤,2025-11-28,23.021375,120.347878,0.4846243
C0C730,中大臨海站,2025-11-28,24.966126,121.008581,0.46348232
C0X250,新營,2025-11-28,23.310689,120.316681,0.5361351
C0V700,三民,2025-11-28,22.645017,120.311233,0.78518975
C0U870,大礁溪,2025-11-28,24.791042,121.675047,0.9898291
C0E870,高鐵苗栗,2025-11-28,24.60725,120.826094,0.4927883
A2K570,古坑花卉中心,2025-11-28,23.63353,120.55239,0.06286486
C0TA30,鹽寮,2025-11-28,23.845606,121.592664,0.9967383
C0M860,新美,2025-11-28,23.338017,120.683169,0.6567164
C1E701,八卦,2025-11-28,24.491756,120.927619,0.37606665
C2TA90,加納納,2025-11-28,23.466421,121.359867,0.9953734
C0I420,國姓,2025-11-28,24.037803,120.855072,0.8573068
C2D720,關西工作站,2025-11-28,24.757275,121.184792,0.61926365
C0S960,香蘭,2025-11-28,22.587569,120.993375,0.99280125
467620,蘭嶼,2025-11-28,22.0369,121.55843,0.37335068
C0R260,春日,2025-11-28,22.370361,120.628306,0.4921745
72G600,臺中農改場,2025-11-28,24.003028,120.534389,0.21955198
C0Z210,瑞穗,2025-11-28,23.5239,121.39021,0.99300003
C0M820,達邦,2025-11-28,23.453994,120.749517,0.36753803
C0V860,南寮,2025-11-28,22.7616,120.2339,0.9109812
C0G740,大城,2025-11-28,23.852487,120.320935,0.68566483
C0R920,塭仔,2025-11-28,22.4169,120.5197,0.5026522
C0R470,高樹,2025-11-28,22.826389,120.600806,0.20989788
C0R680,佳樂水,2025-11-28,21.993578,120.861633,0.8492924
C1O870,大棟山,2025-11-28,23.31157,120.52226,0.087891266
C0D360,梅花,2025-11-28,24.678347,121.208558,0.78031105
C0Z190,富世,2025-11-28,24.14743,121.6297,0.96358037
C0AI10,屈尺,2025-11-28,24.92184,121.54475,0.6696072
B2U990,畜試東區分所,2025-11-28,24.669039,121.832561,0.9992622
C0SB80,長濱漁港,2025-11-28,23.313644,121.459994,0.99850684
C0TA50,和仁,2025-11-28,24.241394,121.712472,0.990421
C0V910,大樹,2025-11-28,22.684645,120.432803,0.7433777
C1R610,西大武山,2025-11-28,22.617719,120.7322,0.7343986
C0G900,線西,2025-11-28,24.143358,120.443536,0.43520704
C0M700,竹崎,2025-11-28,23.526178,120.555508,0.08867328
C2E880,三義,2025-11-28,24.405478,120.749819,0.67378116
C0C720,竹圍,2025-11-28,25.112692,121.239824,0.5141333
C0F9P0,清水,2025-11-28,24.312297,120.562242,0.6202582
C0Z150,吉安光華,2025-11-28,23.930925,121.595153,0.995009
C0FA80,小雪山天池,2025-11-28,24.28025,121.02627,0.0007137937
467300,東吉島,2025-11-28,23.25727,119.66762,0.0014991738
C1D640,外坪(五指山),2025-11-28,24.644447,121.090961,0.8356679
C0F9O0,潭子,2025-11-28,24.213106,120.703933,0.67479014
C2H9R0,卓社,2025-11-28,23.887894,121.000086,0.096932985
72T250,花蓮農改場,2025-11-28,23.975222,121.563889,0.98823637
C0E780,銅鑼,2025-11-28,24.489681,120.790853,0.8400165
C1T950,太安,2025-11-28,23.666719,121.370128,0.9521217
C0E830,苑裡,2025-11-28,24.439714,120.653053,0.6905265
467270,田中,2025-11-28,23.873803,120.581286,0.20768897
C0SA10,檳榔四格山,2025-11-28,22.810031,121.109308,0.9108281
C1T830,布洛灣,2025-11-28,24.17184,121.57127,0.9557966
C0F970,大坑,2025-11-28,24.173142,120.722289,0.8367898
C1U920,思源,2025-11-28,24.393125,121.347214,0.018116517
C2H9Y0,松茗,2025-11-28,23.8167,120.650765,0.32827267
C0A931,三和,2025-11-28,25.233153,121.595236,0.72383326
C0I010,廬山,2025-11-28,24.033311,121.181808,0.013201114
C2M940,日野賀,2025-11-28,23.434056,120.727169,0.09505421
C0R860,鼻頭,2025-11-28,22.1043,120.8979,0.8036745
C0UB20,壯圍,2025-11-28,24.7359,121.8163,0.9979769
C0R790,九棚,2025-11-28,22.14195,120.889281,0.6447137
C0W110,東莒,2025-11-28,25.9652,119.98069,0.00077422697
C1U930,粉鳥林,2025-11-28,24.497088,121.842479,0.9988312
C1I211,蘆竹湳,2025-11-28,23.934019,120.811994,0.51702535
C0S830,長濱,2025-11-28,23.286817,121.411975,0.9984764
C1F9F1,伯公龍,2025-11-28,24.272392,120.849047,0.4163047
C0UB90,太平山莊,2025-11-28,24.494171,121.536209,0.04590978
C0E810,西湖,2025-11-28,24.562947,120.7485,0.48665968
C1I440,新高口,2025-11-28,23.478744,120.878939,0.0013212898
C0O840,王爺宮,2025-11-28,23.222064,120.40085,0.73881876
C0T9G0,鳳林山,2025-11-28,23.735269,121.420131,0.99588346
C0X080,佳里,2025-11-28,23.173039,120.145086,0.31382602
C0FB70,大甲溪埔,2025-11-28,24.370625,120.620067,0.66716963
C0Z310,清水斷崖,2025-11-28,24.218294,121.689142,0.986972
C0M680,太保,2025-11-28,23.455062,120.331455,0.4650226
C1S820,金峰,2025-11-28,22.590969,120.933236,0.9915689
C0AD10,八里,2025-11-28,25.150211,121.403947,0.5137471
C2K240,草嶺,2025-11-28,23.59555,120.693461,0.57765174
C1SA70,都蘭,2025-11-28,22.87794,121.226881,0.97178835
C0K440,二崙,2025-11-28,23.772797,120.408944,0.14301336
C1A760,坪林交控,2025-11-28,24.94284,121.713442,0.91133684
C0F9N0,大里,2025-11-28,24.092464,120.701378,0.9084478
C0SA90,達仁林場,2025-11-28,22.264347,120.823972,0.70151496
C1R290,石門山,2025-11-28,22.112611,120.756597,0.72548085
42HA10,萬大發電廠,2025-11-28,23.978875,121.139639,0.22356541
C0R890,山海,2025-11-28,21.9878,120.7091,0.14625412
C0T9A0,月眉山,2025-11-28,23.809928,121.539828,0.9954182
C0AC70,信義,2025-11-28,25.037822,121.564597,0.56415296
C0K560,棋山,2025-11-28,23.68645,120.603417,0.061964244
C2FB50,出雲,2025-11-28,24.206469,120.902794,0.52363074
C1Z240,中平林道,2025-11-28,23.42115,121.26763,0.7977009
U2H480,溪頭,2025-11-28,23.670306,120.798194,0.44643322
C0M880,好美里,2025-11-28,23.3364,120.138,0.26917943
C0T9E0,大坑,2025-11-28,23.880628,121.581981,0.99272853
C0K530,臺西,2025-11-28,23.701547,120.197559,0.6601309
C1E900,國一N128K,2025-11-28,24.560997,120.844186,0.80179334
C0AJ50,水湳洞,2025-11-28,25.123695,121.862238,0.6919851
C0AI20,白沙灣,2025-11-28,25.283128,121.519058,0.6123719
C2V310,美濃,2025-11-28,22.898792,120.51907,0.3284546
C0A860,大坪,2025-11-28,25.165914,121.632969,0.8027083
C1U850,觀音海岸,2025-11-28,24.38319,121.77856,0.9939258
C2K610,草嶺石壁,2025-11-28,23.602469,120.707731,0.5290041
C0U950,鶯子嶺,2025-11-28,24.89754,121.79244,0.6062431
C0O900,善化,2025-11-28,23.112883,120.297219,0.6996341
C0K550,蔦松,2025-11-28,23.514319,120.229736,0.47879612
E2P980,林試六龜中心,2025-11-28,22.991703,120.645722,0.1256259
C0E590,通霄,2025-11-28,24.471892,120.704622,0.7520154
C1I310,西巒,2025-11-28,23.754486,120.883956,0.6719819
C0A550,泰平,2025-11-28,24.971197,121.823711,0.9063869
C0I360,水里,2025-11-28,23.812553,120.849792,0.059274524
C0R830,高士,2025-11-28,22.121825,120.836781,0.71739095
C1I101,溪頭,2025-11-28,23.661789,120.807647,0.007907595
C0AJ20,野柳,2025-11-28,25.20703,121.690021,0.82956797
C0B060,暖暖,2025-11-28,25.0957,121.7403,0.74028283
C1H920,長豐,2025-11-28,24.102039,120.879897,0.4496809
C0V360,內門,2025-11-28,22.975481,120.466769,0.5214928
C0R850,林邊,2025-11-28,22.4634,120.5339,0.36978465
C0E930,龍鳳,2025-11-28,24.700034,120.859125,0.3088997
C0U910,冬山,2025-11-28,24.63373,121.7937,0.9992622
C1E721,泰安,2025-11-28,24.489017,120.968036,0.03845138
82H320,茶改中部分場,2025-11-28,23.875611,120.913583,0.84714925
C0M750,布袋,2025-11-28,23.380878,120.167789,0.24385935
C1S860,利嘉,2025-11-28,22.809417,121.050528,0.97726417
E2S980,林試太麻里1,2025-11-28,22.598922,120.980044,0.9923915
C0X170,關廟,2025-11-28,22.963017,120.327797,0.5799283
C0V720,林園,2025-11-28,22.507747,120.394511,0.72774804
C1I510,線浸林道,2025-11-28,23.761508,120.832956,0.08653954
C0D690,外湖,2025-11-28,24.917735,120.968711,0.49922886
C0C750,新興坑尾,2025-11-28,25.0061,121.0971,0.5601629
B2Q810,畜試南區分所,2025-11-28,21.945583,120.802167,0.85281336
C0S790,金崙,2025-11-28,22.538122,120.966875,0.96725214
C0AH90,福山植物園,2025-11-28,24.760717,121.58135,0.9771331
C0I540,奇萊稜線,2025-11-28,24.109231,121.326456,0.005518446
C0M850,表湖,2025-11-28,23.24186,120.64166,0.610987
C0S770,大溪山,2025-11-28,22.478475,120.943325,0.7915794
C0AG80,中和,2025-11-28,24.991622,121.491792,0.5626862
C0T790,大禹嶺,2025-11-28,24.186117,121.316086,0.0010846489
C0T9B0,水源,2025-11-28,23.991861,121.537169,0.9069447
C0R840,牡丹池山,2025-11-28,22.168389,120.841225,0.37556732
C1I131,桶頭,2025-11-28,23.641944,120.654117,0.12873642
CAL110,布袋國中,2025-11-28,23.35893,120.18026,0.23671396
467571,新竹,2025-11-28,24.827853,121.014219,0.34954116
C0Z290,赤柯山,2025-11-28,23.36893,121.38293,0.9722657
C0X280,將軍,2025-11-28,23.214999,120.13577,0.30538866
C0S690,太麻里,2025-11-28,22.60902,120.98533,0.9751374
C0U880,北關,2025-11-28,24.9072,121.8734,0.9609039
CAW010,東引,2025-11-28,26.3588,120.4836,0.00076914165
C0G810,埔心,2025-11-28,23.947633,120.525456,0.19946563
C0U970,大福,2025-11-28,24.80064,121.81389,0.9867382
C2H9N0,仁愛東眼,2025-11-28,24.026875,121.1205,0.033730555
C1E670,南礦,2025-11-28,24.538278,121.002836,0.1304891
C0M520,東後寮,2025-11-28,23.369908,120.248065,0.23592067
C1E461,松安,2025-11-28,24.397972,120.986022,0.057328485
C2N160,西拉雅風管處,2025-11-28,23.189481,120.335297,0.70051515
C2M970,碧湖,2025-11-28,23.568632,120.624165,0.726345
C0A640,石碇,2025-11-28,24.993969,121.662917,0.80515784
E2S960,林試太麻里2,2025-11-28,22.598,120.99775,0.99284613
C0F9Y0,桃山,2025-11-28,24.432739,121.303808,0.00035327303
C1I020,萬大,2025-11-28,23.979817,121.132261,0.1883539
C2UC20,長嶺,2025-11-28,24.70894,121.61162,0.9979278
C0U940,羅東,2025-11-28,24.68184,121.74934,0.99796635
C0M650,朴子,2025-11-28,23.43463,120.23902,0.17990601
C1I500,大尖山,2025-11-28,23.858572,120.994889,0.00077602454
C0FB40,中橫21.6k,2025-11-28,24.2499,121.1455,0.059844967
C0G820,田尾,2025-11-28,23.901669,120.509389,0.19960068
E2K600,四湖植物園,2025-11-28,23.676986,120.163433,0.6701239
C0S730,綠島,2025-11-28,22.6672,121.47533,0.69612557
12Q970,東港工作站,2025-11-28,22.479997,120.466058,0.3684698
C0E430,南庄,2025-11-28,24.601775,121.000214,0.88529813
C1TA00,太魯閣,2025-11-28,24.15773,121.6236,0.9572081
466920,臺北,2025-11-28,25.037658,121.514853,0.56481004
C0R600,舊泰武,2025-11-28,22.588194,120.664944,0.8570689
C1I260,北坑,2025-11-28,23.9246,121.006903,0.55196726
466910,鞍部,2025-11-28,25.182586,121.529731,0.4074288
C1I230,九份二山,2025-11-28,23.961944,120.845,0.64265794
C2A660,瑞芳,2025-11-28,25.113169,121.801147,0.6196309
C0R270,琉球嶼,2025-11-28,22.332244,120.362236,0.9118581
C1T990,高寮,2025-11-28,23.394239,121.356808,0.9973801
C0G620,芬園,2025-11-28,24.015678,120.6213,0.86990017
C1Z140,荖溪,2025-11-28,23.890575,121.45964,0.7924226
C1I201,中心崙,2025-11-28,23.728722,120.712097,0.6399478
C1I400,凌霄,2025-11-28,24.018778,121.004456,0.041579574
C1M640,十字,2025-11-28,23.492153,120.753683,0.08312323
G2P820,農試鳳山分所,2025-11-28,22.646611,120.356083,0.78348595
C0Z270,蕃薯寮,2025-11-28,23.73835,121.540108,0.99805915
C0FB10,出雲山苗圃,2025-11-28,24.23105,120.90475,0.4584555
C0F9Q0,外埔,2025-11-28,24.347817,120.705686,0.85184926
C0K580,高鐵雲林,2025-11-28,23.737456,120.417944,0.12456218
C2I090,鳳凰,2025-11-28,23.728081,120.787347,0.8098269
C0U990,員山,2025-11-28,24.74435,121.72247,0.99797124
C0V770,大社,2025-11-28,22.730306,120.346639,0.90892124
C0X120,麻豆,2025-11-28,23.183289,120.248611,0.60432965
C0C670,龍潭,2025-11-28,24.870056,121.221389,0.6522496
C0D680,香山濕地,2025-11-28,24.783581,120.914988,0.25245258
C0S980,勝林山,2025-11-28,22.430439,120.8938,0.6081461
C0V730,大寮,2025-11-28,22.605614,120.395717,0.8338493
C0R570,麟洛,2025-11-28,22.65078,120.52719,0.39069548
C2M930,石卓,2025-11-28,23.478744,120.702264,0.021799132
C0G9B0,和美,2025-11-28,24.105169,120.492131,0.35795096
CAG100,王功漁港,2025-11-28,23.96824,120.32586,0.3033561
C0X290,北門,2025-11-28,23.267772,120.125481,0.30695233
C2F930,大甲,2025-11-28,24.347667,120.640403,0.67545044
C0D650,湖口,2025-11-28,24.904794,121.043628,0.62610316
C0E420,竹南,2025-11-28,24.708978,120.888897,0.32933062
C0U780,五結,2025-11-28,24.68637,121.79794,0.997975
C1I250,鯉潭,2025-11-28,23.961922,120.991131,0.50827885
C0R130,阿禮,2025-11-28,22.742908,120.743678,0.62512726
C0X100,臺南市北區,2025-11-28,23.010394,120.194228,0.43150046
C0S920,金峰嘉蘭,2025-11-28,22.594789,120.960825,0.9923835
C0V490,新興,2025-11-28,22.627422,120.298803,0.83707035
C0F9K0,大安,2025-11-28,24.345061,120.588025,0.6665022
467290,古坑,2025-11-28,23.633639,120.551889,0.06286486
C2E970,八甲,2025-11-28,24.535811,120.795983,0.82363445
C0V440,鳳山,2025-11-28,22.646653,120.356122,0.78348595
C1T940,大觀,2025-11-28,23.714206,121.373133,0.9974549
C0E740,造橋,2025-11-28,24.637056,120.864778,0.5015777
C0R100,尾寮山,2025-11-28,22.833111,120.683889,0.5557775
A2K630,臺大雲林校區,2025-11-28,23.730628,120.423903,0.1241992
467990,馬祖,2025-11-28,26.169467,119.923158,0.00092215865
C0D580,寶山,2025-11-28,24.735006,121.025192,0.560633
E2P990,林試扇平站,2025-11-28,22.9677,120.6857,0.8578331
C0AI30,三重,2025-11-28,25.057328,121.500629,0.55054563
C0AH00,汐止,2025-11-28,25.066881,121.658778,0.56481004
C1Z040,立山,2025-11-28,23.443356,121.327375,0.99170244
466881,新北,2025-11-28,24.959207,121.525196,0.5890575
C0W130,花嶼,2025-11-28,23.40007,119.32276,0.00055085024
C0A950,鼻頭角,2025-11-28,25.129036,121.923372,0.8404689
C0K470,林內,2025-11-28,23.748675,120.609642,0.048094388
C2F990,摩天嶺,2025-11-28,24.322458,120.936819,0.49670818
82C160,茶改場,2025-11-28,24.908472,121.185333,0.69329834
C0Z320,清水林道,2025-11-28,23.27125,121.188272,0.99315375
C0R760,南仁湖,2025-11-28,22.084681,120.863353,0.7251173
C0M670,大林,2025-11-28,23.600616,120.45841,0.23663273
C0M800,茶山,2025-11-28,23.299075,120.664767,0.42542428
C0A9C0,天母,2025-11-28,25.117494,121.537169,0.74287426
72K220,南改斗南分場,2025-11-28,23.634556,120.477333,0.20867063
72AI40,桃改樹林分場,2025-11-28,24.944503,121.386972,0.5787777
C0S910,蘭嶼燈塔,2025-11-28,22.081197,121.503117,0.9488532
C0B050,八斗子,2025-11-28,25.144754,121.79167,0.70993406
C0U900,內城,2025-11-28,24.71813,121.68766,0.9979504
C0X320,柳營,2025-11-28,23.253328,120.375253,0.72722757
C0M790,新港,2025-11-28,23.553269,120.345728,0.26066583
C0F9T0,西屯,2025-11-28,24.179494,120.641275,0.4859602
C0E950,松安,2025-11-28,24.39792,120.98599,0.057328485
C0SA30,都歷,2025-11-28,23.020333,121.323642,0.9787159
C0C620,蘆竹,2025-11-28,25.084275,121.265767,0.63158464
C0R730,大坪頂,2025-11-28,22.024633,120.69355,0.22181328
C0AJ40,石門,2025-11-28,25.273672,121.601198,0.6355545
C0E750,苗栗,2025-11-28,24.564569,120.824575,0.7969027
C0T870,鯉魚潭,2025-11-28,23.935639,121.508944,0.99112874
C1V170,排雲,2025-11-28,23.463619,120.954147,0.0026717847
C2H950,中寮,2025-11-28,23.884447,120.766406,0.16461442
C0R350,貓鼻頭,2025-11-28,21.921774,120.7358,0.18576193
C0V660,岡山,2025-11-28,22.797078,120.294958,0.94101274
C1H941,雙冬,2025-11-28,23.967378,120.802189,0.5580905
C0AJ70,田寮,2025-11-28,25.2698,121.4886,0.6157045
C0AI00,五股,2025-11-28,25.07445,121.42728,0.5893621
C0Z280,德武,2025-11-28,23.47426,121.41071,0.9954939
C2RA10,大新,2025-11-28,22.67558,120.57788,0.27440956
C0R700,枋山,2025-11-28,22.246844,120.661086,0.16442072
C0C460,復興,2025-11-28,24.820208,121.352281,0.43809295
C2K300,鹿南,2025-11-28,23.63855,120.3636,0.13786353
E2H360,蓮華池,2025-11-28,23.918333,120.885278,0.5447891
C0M640,中埔,2025-11-28,23.42538,120.5229,0.11594502
C0W140,金沙,2025-11-28,24.488292,118.408778,0.0040437467
C2A540,四堵,2025-11-28,24.8926,121.745736,0.8779065
C0ACA0,新莊,2025-11-28,25.051478,121.446756,0.19350182
C0R220,潮州,2025-11-28,22.534361,120.54,0.2805719
U2HA40,臺大內茅埔,2025-11-28,23.689722,120.851117,0.91319877
467490,臺中,2025-11-28,24.145736,120.684075,0.8211525
C0UB60,明池,2025-11-28,24.650688,121.475277,0.32717246
C0U960,翠峰湖,2025-11-28,24.510856,121.608044,0.13965541
E2HA20,林試畢祿溪站,2025-11-28,24.226944,121.308522,0.00128238
C0V890,前鎮,2025-11-28,22.5718,120.3117,0.83708084
C1F941,雪嶺,2025-11-28,24.280586,121.026642,0.0007137937
C2H9E0,國姓南港,2025-11-28,23.911108,120.846556,0.09312143
C0AC80,文山,2025-11-28,25.00235,121.575728,0.61409146
C0F9R0,龍井,2025-11-28,24.184536,120.528972,0.5519463
C0M760,民雄,2025-11-28,23.551754,120.428457,0.23058029
C0UA40,西德山,2025-11-28,24.560647,121.752608,0.9982286
C2TA70,赤科坪,2025-11-28,23.39885,121.39168,0.9775732
C1T920,中興,2025-11-28,23.769503,121.498653,0.9975315
C0D550,雪霸,2025-11-28,24.526972,121.11605,0.0057755406
C2F860,梨山,2025-11-28,24.247522,121.243669,0.0011894328
C0R320,車城,2025-11-28,22.0744,120.716247,0.19895734
C1S870,南美山,2025-11-28,23.15025,121.382333,0.98472404
C0B020,基隆嶼,2025-11-28,25.19141,121.78391,0.61102825
C1U501,牛鬥,2025-11-28,24.637836,121.573656,0.99958646
C0M730,嘉義市東區,2025-11-28,23.457673,120.460531,0.111480236
C2R990,泰武,2025-11-28,22.60686,120.69765,0.5924454
C0S700,知本,2025-11-28,22.684866,121.005642,0.9885587
C1N001,沙崙,2025-11-28,22.935472,120.309406,0.58271265
C0V760,橋頭,2025-11-28,22.757806,120.30575,0.90940607
C0G960,福寶,2025-11-28,24.0443,120.3814,0.34460825
C0X210,白河,2025-11-28,23.347466,120.414427,0.22150514
C0S810,東河,2025-11-28,22.972672,121.303986,0.84013
C2R170,屏東,2025-11-28,22.66027,120.49403,0.39283332
C0R670,楓港,2025-11-28,22.190131,120.692156,0.100582145
C0FA50,霧峰,2025-11-28,24.0419,120.6995,0.87060905
C0UB10,蘇澳,2025-11-28,24.5969,121.8571,0.9996056
C0G950,防潮門,2025-11-28,24.1835,120.4871,0.5515671
C0M740,六腳,2025-11-28,23.492871,120.290625,0.27495733
C1R250,力里,2025-11-28,22.428117,120.629228,0.42420745
C0K330,虎尾,2025-11-28,23.719183,120.442036,0.12848163
C2FA00,烏石坑,2025-11-28,24.273503,120.947617,0.50871843
C0V620,永安,2025-11-28,22.82315,120.236856,0.9415804
C1I330,楓樹林,2025-11-28,23.986803,121.076117,0.120103225
C0W200,湖西,2025-11-28,23.596314,119.67275,0.00053370965
72Q010,高雄農改場,2025-11-28,22.709333,120.525889,0.27669242
C0SA40,瑞和,2025-11-28,22.974361,121.156697,0.95962834
C0C680,龜山,2025-11-28,25.02846,121.38656,0.7641493
C2V260,月眉,2025-11-28,22.971003,120.539853,0.40145406
C0V450,鳳森,2025-11-28,22.545064,120.392592,0.7332035
C0FA90,小雪山林道,2025-11-28,24.29515,121.03651,0.0005276534
C0U720,南山,2025-11-28,24.43742,121.38167,0.6725961
A2N290,臺南蘭花園區,2025-11-28,23.340258,120.379661,0.5159754
C0R560,新園,2025-11-28,22.5434,120.461558,0.72774804
C0U890,三星,2025-11-28,24.66812,121.65302,0.9995515
C1V300,御油山,2025-11-28,23.001983,120.715364,0.015760748
C0U600,礁溪,2025-11-28,24.817539,121.765608,0.9528738
C1T980,龍澗,2025-11-28,24.023289,121.411328,0.67613655
C0D670,海天一線,2025-11-28,24.831986,120.914438,0.32480735
C0SA00,歷坵,2025-11-28,22.520969,120.89185,0.9309712
C0M710,東石,2025-11-28,23.458927,120.15385,0.5530684
C0M780,鹿草,2025-11-28,23.41134,120.30835,0.17720091
C0U520,雙連埤,2025-11-28,24.753033,121.641303,0.9897605
C0B010,七堵,2025-11-28,25.094819,121.71713,0.7298158
C0R480,長治,2025-11-28,22.693128,120.542622,0.7427584
C1V830,國三S383K,2025-11-28,22.781967,120.426475,0.27614367
12Q980,恆春工作站,2025-11-28,22.079678,120.714425,0.19876955
C1O940,東山服務區,2025-11-28,23.286016,120.398472,0.7054892
C1U840,東澳嶺,2025-11-28,24.5378,121.8485,0.9996266
C1D630,飛鳳山,2025-11-28,24.766464,121.119178,0.78402454
C0S940,石寧山,2025-11-28,23.223772,121.406639,0.99784243
C0K410,北港,2025-11-28,23.573957,120.292802,0.505105
C2M620,瑞里,2025-11-28,23.545133,120.675197,0.11911587
C0SB70,小港漁港,2025-11-28,23.158558,121.400431,0.9900773
C2O950,安南,2025-11-28,23.076694,120.144861,0.44093814
C0F0E0,南湖圈谷,2025-11-28,24.363714,121.444667,0.0016603178
467610,成功,2025-11-28,23.097486,121.373428,0.9773607
C0G890,伸港,2025-11-28,24.148933,120.484403,0.43526995
C2E540,龍溪,2025-11-28,24.606489,120.783933,0.48314065
C1V200,梅山,2025-11-28,23.268447,120.823556,0.7828849
C0T9H0,加路蘭山,2025-11-28,23.682947,121.5274,0.9937587
C2O930,玉井,2025-11-28,23.126042,120.46055,0.44314596
C1F911,新伯公,2025-11-28,24.221361,120.841069,0.32933673
C0R490,九如,2025-11-28,22.7405,120.490503,0.27778754
C0X200,左鎮,2025-11-28,23.056758,120.408522,0.55708694
C0FA60,鞍馬山工作站,2025-11-28,24.267064,121.000793,0.0008994713
C0SB50,叭嗡嗡,2025-11-28,23.047062,121.343223,0.98183066
C1F891,稍來,2025-11-28,24.265689,121.001142,0.0009777597
72N240,七股研究中心,2025-11-28,23.081672,120.062894,0.43053234
C0C700,中壢,2025-11-28,24.977661,121.256375,0.7211091
C0M690,水上,2025-11-28,23.419734,120.388909,0.46193224
C0V690,鼓山,2025-11-28,22.623325,120.275575,0.8378787
C0O860,大內,2025-11-28,23.11885,120.36083,0.70098776
C0Z200,萬榮,2025-11-28,23.709219,121.420106,0.998389
C0T9D0,和中,2025-11-28,24.26676,121.74103,0.9982479
C1O921,楠西,2025-11-28,23.183511,120.484083,0.3057677
C0AJ30,淡水觀海,2025-11-28,25.184591,121.408616,0.6700024
C0V810,左營,2025-11-28,22.67491,120.28491,0.78460133
C0UA70,桃源谷,2025-11-28,24.962606,121.888875,0.82695794
C0X130,官田,2025-11-28,23.193217,120.315422,0.6997569
C1H000,翠峰,2025-11-28,24.109397,121.205211,0.0185263
C0UA90,石城,2025-11-28,24.980444,121.951214,0.87620777
C1E681,南勢山,2025-11-28,24.421669,120.923831,0.05643501
C0A9F0,內湖,2025-11-28,25.079422,121.57545,0.5648105
C0K291,宜梧,2025-11-28,23.536281,120.169329,0.48051295
C1K540,口湖,2025-11-28,23.585344,120.180517,0.7560785
C0R780,滿州,2025-11-28,22.024403,120.839892,0.8746932
C0V870,文安,2025-11-28,22.8025,120.2164,0.94141906
C0U650,玉蘭,2025-11-28,24.675286,121.587061,0.99793094
C0R640,東港,2025-11-28,22.46247,120.44074,0.36929786
C0AJ80,板橋,2025-11-28,25.0107,121.4489,0.5470821
C0S660,下馬,2025-11-28,23.150427,121.070312,0.88675725
C1H9B1,阿眉,2025-11-28,24.1263,120.994672,0.0029148948
C0UA20,多加屯,2025-11-28,24.368614,121.373189,0.00066320447
C0E730,頭份,2025-11-28,24.688247,120.912206,0.32274836
72V140,高改旗南分場,2025-11-28,22.857861,120.516667,0.29411963
C0K480,莿桐,2025-11-28,23.761192,120.502372,0.09434168
C0U980,坪林石牌,2025-11-28,24.86478,121.77396,0.8198966
C0T900,西林,2025-11-28,23.8119,121.441458,0.9970902
C1I150,青雲,2025-11-28,23.793361,120.949378,0.5062735
C2E980,和興,2025-11-28,24.505319,120.923016,0.7658416
467350,澎湖,2025-11-28,23.565503,119.563094,0.00047171928
C0G800,埔鹽,2025-11-28,24.000394,120.431683,0.4315292
C0H960,草屯,2025-11-28,23.973672,120.68085,0.8516589
C1V780,多納林道,2025-11-28,22.888028,120.737917,0.64833474
C0E920,通霄漁港,2025-11-28,24.498589,120.673876,0.718897
C0Z330,安通山,2025-11-28,23.290728,121.348528,0.9983438
C0AH10,永和,2025-11-28,25.01125,121.508111,0.54791474
C0AK10,太平里,2025-11-28,25.134937,121.364899,0.5322062
C2G640,鹿港,2025-11-28,24.0753,120.430481,0.34449795
C1E890,國三N149K,2025-11-28,24.463414,120.680019,0.7323485
C1R110,口社,2025-11-28,22.770111,120.645222,0.11066635
C1M870,國三N285K,2025-11-28,23.550319,120.505833,0.06430225
C1E480,鳳美,2025-11-28,24.554803,121.034747,0.8717695
C0M530,奮起湖,2025-11-28,23.493903,120.699253,0.044675868
C0C590,觀音,2025-11-28,25.027072,121.153317,0.53225857
C0T9M0,靜浦,2025-11-28,23.455167,121.495028,0.99586457
C2H9M0,發祥,2025-11-28,24.154094,121.164517,0.13685614
C0AI40,石牌,2025-11-28,25.115597,121.513139,0.73813826
C1F871,上谷關,2025-11-28,24.203483,121.018644,0.66226625
C2H9G0,百勝,2025-11-28,24.051142,120.909361,0.42001262
C0G880,二水,2025-11-28,23.810742,120.6173,0.041184776
C0R940,加祿堂,2025-11-28,22.3363,120.6217,0.2357476
C0W220,北竿,2025-11-28,26.220358,119.974881,0.0009662828
C0O960,崎頂,2025-11-28,22.959547,120.369317,0.6056061
C0TA40,秀林,2025-11-28,24.302864,121.731144,0.83957565
C0S750,向陽,2025-11-28,23.248397,120.986133,0.013474561
C0T9F0,水璉,2025-11-28,23.797131,121.542514,0.9967862
C1M600,頭凍,2025-11-28,23.406364,120.603339,0.49509412
467660,臺東,2025-11-28,22.752211,121.154586,0.9773881
C1D380,新埔,2025-11-28,24.84745,121.03834,0.45720705
C2G980,田頭村,2025-11-28,23.8263,120.444175,0.14312117
C0V750,路竹,2025-11-28,22.854997,120.259439,0.9248213
C0N050,蚵寮,2025-11-28,23.301,120.1104,0.269882
C2X060,下營,2025-11-28,23.226806,120.256291,0.67337674
72M700,南改鹿草分場,2025-11-28,23.416869,120.283061,0.17867403
C1SA50,利嘉林道,2025-11-28,22.82325,121.009389,0.80826366
C0UB70,太平山中間站,2025-11-28,24.542003,121.513453,0.9726452
C0A940,金山,2025-11-28,25.223628,121.643967,0.8225291
C1V340,大津,2025-11-28,22.888322,120.645986,0.075822785
C0W180,七美,2025-11-28,23.219333,119.444892,0.0008058364
C1F9C1,白冷,2025-11-28,24.182844,120.929889,0.70851874
K2E710,苗改生物防治研究中心,2025-11-28,24.422861,120.871833,0.88102907
C0N040,蘆竹溝,2025-11-28,23.2344,120.0961,0.30757862
C0TB40,崇德,2025-11-28,24.166144,121.657414,0.9700703
C0D760,大坪苗圃,2025-11-28,24.5362,121.1108,0.022544699
C2W230,畜試所澎湖,2025-11-28,23.628342,119.513206,0.000417989
C0R880,後壁湖,2025-11-28,21.9457,120.7457,0.14845642
C1I280,埔中,2025-11-28,23.820778,120.642594,0.35099852
467790,墾丁雷達站,2025-11-28,21.948235,120.808028,0.83000034
C0W190,望安,2025-11-28,23.380564,119.494075,0.000586241
C0Z170,卓溪,2025-11-28,23.3443,121.3029,0.9974412
C0F850,東勢,2025-11-28,24.246428,120.833047,0.8631943
466900,淡水,2025-11-28,25.164889,121.448906,0.53210855
C0I370,魚池,2025-11-28,23.895703,120.94135,0.6388591
C0C630,大溪,2025-11-28,24.882853,121.265547,0.6684014
C0A520,山佳,2025-11-28,24.974944,121.402008,0.69858074
C0I110,竹山,2025-11-28,23.761225,120.688156,0.046520155
82H840,茶改南部分場,2025-11-28,23.762528,120.7405,0.26680505
C0G660,溪湖,2025-11-28,23.94835,120.479122,0.18646058
C1T800,洛韶,2025-11-28,24.204558,121.453956,0.6514681
C1T810,慈恩,2025-11-28,24.192044,121.388386,0.07912073
C1E451,象鼻,2025-11-28,24.368617,120.940228,0.100765385
C0AC60,三峽,2025-11-28,24.939025,121.369728,0.5810306
C0I490,萬大林道,2025-11-28,23.928228,121.091411,0.0054496857
C1I290,豐丘,2025-11-28,23.668178,120.887417,0.28478768
C1I320,奧萬大,2025-11-28,23.952956,121.178556,0.11389296
C2M910,嘉義大學,2025-11-28,23.471325,120.485903,0.1092575
C0U770,南澳,2025-11-28,24.44935,121.81022,0.99712646
C2TB30,吉安,2025-11-28,23.94538,121.54803,0.9934854
C0A980,社子,2025-11-28,25.109508,121.469681,0.49822906
C0V800,六龜,2025-11-28,22.997889,120.633583,0.11944386
C1G9D0,國一S218K,2025-11-28,23.890641,120.493253,0.19151464
C0E570,白沙屯,2025-11-28,24.549447,120.696803,0.50548786
C2F9A0,中竹林,2025-11-28,24.103556,120.751061,0.83744514
C0FA40,臺中電廠,2025-11-28,24.2146,120.4907,0.5520991
C2G9A0,畜試所彰化,2025-11-28,23.86045,120.557964,0.20768723
C0H9C0,合歡山,2025-11-28,24.143442,121.272547,0.0007165181
C0X060,下營,2025-11-28,23.22695,120.256261,0.69862854
G2M350,農試溪口農場,2025-11-28,23.58565,120.408111,0.23133565
C0U860,頭城,2025-11-28,24.85323,121.8308,0.95466256
C0R580,南州,2025-11-28,22.48591,120.50274,0.36929786
C0D430,峨眉,2025-11-28,24.6905,121.017189,0.42707664
C0G780,秀水,2025-11-28,24.03405,120.503869,0.2193232
72N100,臺南農改場,2025-11-28,23.0605,120.342194,0.7036091
C0S900,蘭嶼高中,2025-11-28,22.04909,121.51214,0.9832072
C2TA60,六十石,2025-11-28,23.22477,121.31861,0.9677941
C1F9W0,德基,2025-11-28,24.254783,121.190261,0.0020944243
C2M980,安和,2025-11-28,23.51377,120.31593,0.27497888
C1Z120,壽豐,2025-11-28,23.870853,121.508081,0.9965001
C0W160,烏坵,2025-11-28,24.9944,119.44956,0.00055750326
C1I240,外大坪,2025-11-28,23.958697,120.917931,0.5247246
C1I550,國六W023K,2025-11-28,23.979067,120.867742,0.30124626
C0R870,興海,2025-11-28,21.9752,120.8439,0.8525896
C0R140,瑪家,2025-11-28,22.682903,120.686639,0.8097235
C0A530,坪林,2025-11-28,24.938183,121.70975,0.8878878
C0X260,後壁,2025-11-28,23.366358,120.362326,0.50144655
C0Z230,和平,2025-11-28,24.30717,121.77007,0.99828655
C0G770,福興,2025-11-28,24.041289,120.437669,0.43170714
C0H9A0,神木村,2025-11-28,23.532742,120.843667,0.040037397
C0I460,南投,2025-11-28,23.911469,120.687331,0.15385987
C0I480,梅峰,2025-11-28,24.085272,121.173572,0.0018906712
C1V570,吉東,2025-11-28,22.85422,120.5454,0.292751
C2D740,屯原,2025-11-28,24.067969,121.209389,0.0013800059
C2A560,福山,2025-11-28,24.776203,121.502811,0.97954273
C0AH30,五分山,2025-11-28,25.07125,121.780794,0.6279256
C0FA10,松柏,2025-11-28,24.429115,120.617482,0.68780845
72S200,東改班鳩分場,2025-11-28,22.829528,121.077694,0.9518604
72HA00,中改埔里分場,2025-11-28,23.903208,120.963364,0.55909866
C2H9W0,大坪頂農水,2025-11-28,24.043122,120.932781,0.44592342
C0C650,平鎮,2025-11-28,24.897503,121.214636,0.5493453
C0S930,延平,2025-11-28,22.902581,121.084058,0.9490647
C0UA60,樟樹山,2025-11-28,24.41393,121.78325,0.98888934
C2UC10,出水溪,2025-11-28,24.615822,121.652253,0.9979754
C1S670,摩天,2025-11-28,23.199503,121.027,0.5415457
C0V630,茄萣,2025-11-28,22.906642,120.182608,0.9146387
466940,基隆,2025-11-28,25.133314,121.740475,0.7048554
C0X050,東河,2025-11-28,23.296598,120.385608,0.70477796
C0R770,保力,2025-11-28,22.071122,120.764111,0.24533117
G2L020,農試嘉義分所,2025-11-28,23.485028,120.473806,0.08594517
C0X240,關子嶺,2025-11-28,23.331169,120.508025,0.75743914
C0I380,集集,2025-11-28,23.828206,120.801467,0.056587387
466990,花蓮,2025-11-28,23.975128,121.613275,0.98902845
C1V220,小關山,2025-11-28,23.154217,120.813603,0.008758411
C1F9G1,慶福山,2025-11-28,24.180853,120.848378,0.43363193
C0FB20,雪山橋,2025-11-28,24.23192,120.9786,0.0015540903
C0Z250,瑞穗林道,2025-11-28,23.49284,121.30688,0.7906068
C0D590,新豐,2025-11-28,24.87068,120.97721,0.045021422
C0A870,五指山,2025-11-28,25.132153,121.608692,0.3141193
C0UA50,西帽山,2025-11-28,24.555361,121.802628,0.9986845
C2R980,竹田國中,2025-11-28,22.61532,120.52412,0.6956115
C0X160,仁德,2025-11-28,22.968258,120.257689,0.83859766
C1H971,六分寮,2025-11-28,23.92507,120.6378,0.7011456
C0W120,西嶼,2025-11-28,23.5626,119.468436,0.0004580406
C0G650,員林,2025-11-28,23.946503,120.585597,0.8998258
C0AD50,鶯歌,2025-11-28,24.951533,121.346294,0.5784021
C2H9Q0,北東眼山,2025-11-28,24.120939,121.189303,0.0010551941
C2H9T0,名間竹圍,2025-11-28,23.859914,120.637572,0.1237878
C0S990,山豬窟,2025-11-28,22.318619,120.857372,0.7788003
C0X190,安平,2025-11-28,22.993161,120.152181,0.42978072
C0K400,斗六,2025-11-28,23.720583,120.541127,0.110310294
12J990,口湖工作站,2025-11-28,23.589978,120.180394,0.7559698
C0O830,北寮,2025-11-28,23.079561,120.495008,0.14167328
C1D410,白蘭,2025-11-28,24.579364,121.079947,0.053324636
C0S970,加津林,2025-11-28,22.416211,120.926942,0.7502855
C0D700,關西,2025-11-28,24.7977,121.1732,0.6365491
C0M810,里佳,2025-11-28,23.389125,120.716647,0.033105932
C0U750,龜山島,2025-11-28,24.841667,121.953133,0.5922424
C0R810,內獅,2025-11-28,22.305064,120.642986,0.22964242
C1M390,龍美,2025-11-28,23.406728,120.654417,0.22425672
C2K290,崙內,2025-11-28,23.69525,120.35601,0.23848142
C2FB60,頭櫃山,2025-11-28,24.129842,120.858925,0.4373872
C1H840,國三N238K,2025-11-28,23.841008,120.707711,0.059677135
CAQ030,崎峰國小,2025-11-28,22.42565,120.49521,0.36929765
C2E520,大湖,2025-11-28,24.414939,120.870872,0.9061102
467530,阿里山,2025-11-28,23.508208,120.813242,0.0007694195
C1E691,南湖,2025-11-28,24.40135,120.837533,0.38846332
C0FA30,梧棲,2025-11-28,24.256003,120.523381,0.6202134
C1V231,高中,2025-11-28,23.134911,120.716711,0.5853524
C0AK30,硬漢嶺,2025-11-28,25.136097,121.426372,0.55818266
C0F9V0,新社,2025-11-28,24.200172,120.815806,0.6467484
C0H890,埔里,2025-11-28,23.972169,120.952425,0.34957805
C0R690,墾丁,2025-11-28,21.966756,120.810269,0.6035839
C0SD20,富山,2025-11-28,22.822383,121.190825,0.9770405
C0F0D0,審馬陣,2025-11-28,24.381675,121.4203,0.00033160977
C2W030,金門農試所,2025-11-28,24.448431,118.451786,0.0030338375
C0R820,白鷺,2025-11-28,22.454275,120.666219,0.7967706
C0FB00,大雪山,2025-11-28,24.254668,121.007374,0.0013042476
C1V190,南天池,2025-11-28,23.27403,120.91176,0.010054675
C0E940,雪見,2025-11-28,24.42595,121.01347,0.0031969687
K2E360,苗栗農改場,2025-11-28,24.495722,120.829111,0.84006804
CAJ050,海口故事園區,2025-11-28,23.57543,120.14121,0.75602406
C2K280,四湖,2025-11-28,23.6304,120.22717,0.67057145
C2H9D0,三隻寮,2025-11-28,24.093078,120.861578,0.4384526
C0O990,媽廟,2025-11-28,22.99175,120.293525,0.5857958
C0D480,打鐵坑,2025-11-28,24.849664,121.150789,0.65148044
C0Z220,和平林道,2025-11-28,24.343922,121.656317,0.99529654
C0TA10,花蓮漁港,2025-11-28,23.995322,121.638331,0.9894664
72C440,桃園農改場,2025-11-28,24.950944,121.030583,0.5678849
C1E711,馬拉邦山,2025-11-28,24.367306,120.901656,0.16774543
C0SB20,富岡,2025-11-28,22.792467,121.192669,0.9763329
C0D560,竹東,2025-11-28,24.767147,121.057881,0.559621
C0F9U0,南屯,2025-11-28,24.137006,120.637969,0.3717403
C0M720,番路,2025-11-28,23.464657,120.554156,0.16059424
C0F0A0,雪山圈谷,2025-11-28,24.388594,121.236339,0.00038215748
C1A9N0,四十份,2025-11-28,24.934158,121.593283,0.6419104
C0U760,東澳,2025-11-28,24.52196,121.83318,0.9988416
C0X230,鹽水,2025-11-28,23.272621,120.247641,0.26908726
C2H9H0,苗改南投蜂場,2025-11-28,23.852589,120.693481,0.06393168
C0R950,萬隆國小,2025-11-28,22.507667,120.587817,0.27765694
467540,大武,2025-11-28,22.35572,120.90374,0.75778043
C0V370,古亭坑,2025-11-28,22.893178,120.401947,0.36492893
C1I340,新興橋,2025-11-28,23.563333,120.868728,0.77394474
C0SA80,土坂,2025-11-28,22.453108,120.887572,0.86541045
C0R160,鹽埔,2025-11-28,22.739558,120.530778,0.27366397
C0AC40,大屯山,2025-11-28,25.175675,121.522408,0.05819861
466850,五分山雷達站,2025-11-28,25.071182,121.781205,0.61779004
C2H9L0,馬烈霸,2025-11-28,24.1512,121.201772,0.00111769
C1AI50,國三N016K,2025-11-28,25.034164,121.619664,0.6217975
C1V600,藤枝,2025-11-28,23.071961,120.757042,0.048569754
C1E601,南勢,2025-11-28,24.572486,120.734842,0.16615422
C0O980,新市,2025-11-28,23.061614,120.298197,0.6977955
C0K420,西螺,2025-11-28,23.800407,120.467394,0.15051427
C0Z050,佳心,2025-11-28,23.34567,121.21316,0.9822233
C0AD30,蘆洲,2025-11-28,25.086594,121.472331,0.5494037
C0V610,梓官,2025-11-28,22.760558,120.267211,0.90975344
K2F750,種苗改良場,2025-11-28,24.225972,120.800917,0.50940144
C0UA80,大溪漁港,2025-11-28,24.941801,121.902955,0.94600487
C1AI60,國一39K邊坡,2025-11-28,25.064361,121.383836,0.77953225
C0W150,金寧,2025-11-28,24.457703,118.328989,0.0029477095
C0R960,內埔,2025-11-28,22.608483,120.570714,0.69635266
V2C250,八德合作社,2025-11-28,24.93775,121.266389,0.5634226
C2H9S0,龍南,2025-11-28,23.953536,120.833183,0.2342779
C0AH40,平等,2025-11-28,25.129142,121.577086,0.7893666
C0R540,佳冬,2025-11-28,22.419456,120.552375,0.5010373
466950,彭佳嶼,2025-11-28,25.627975,122.079744,0.604936
C0A890,雙溪,2025-11-28,25.036003,121.864242,0.8165839
C0C480,桃園,2025-11-28,24.992425,121.323172,0.72407866
C0AH50,林口,2025-11-28,25.072181,121.38084,0.7424383
A2K360,水試臺西試驗場,2025-11-28,23.717231,120.190522,0.6562343
C2M960,外寮,2025-11-28,23.562643,120.665688,0.67307526
C0F9S0,烏日,2025-11-28,24.107058,120.624103,0.9097019
C0C490,八德,2025-11-28,24.928708,121.283289,0.5626917
C0R190,赤山,2025-11-28,22.592333,120.614306,0.6974902
C0T820,天祥,2025-11-28,24.179597,121.495639,0.93157965
C1F9E1,龍安,2025-11-28,24.1605,120.831961,0.7235128
C0V820,小林,2025-11-28,23.148408,120.63325,0.48280448
C2G870,芳苑,2025-11-28,23.922303,120.320025,0.26524544
C0E850,大河,2025-11-28,24.618069,120.948578,0.72590524
C1U670,寒溪,2025-11-28,24.634,121.71691,0.99928653
C0N020,城西,2025-11-28,23.0568,120.0956,0.41689503
C1Z110,三棧,2025-11-28,24.11557,121.60501,0.8961717
C0R280,檳榔,2025-11-28,22.076078,120.836777,0.74060553
C2H9J0,中台,2025-11-28,23.9996,120.938739,0.39838815
C0F9L0,后里,2025-11-28,24.310436,120.729725,0.89349014
467441,高雄,2025-11-28,22.730432,120.312516,0.90969586
C0Z180,新城,2025-11-28,24.040486,121.604878,0.98874104
C0D540,橫山,2025-11-28,24.71116,121.11693,0.719449
C1D420,太閣南,2025-11-28,24.632808,121.160575,0.1168683
C1E770,公館,2025-11-28,24.526914,120.830806,0.8431033
CAN130,水試所海水繁養殖中心,2025-11-28,23.120802,120.07968,0.42918342
C1I430,翠華,2025-11-28,24.191961,121.224339,0.0018871966
C1M400,菜瓜坪,2025-11-28,23.251928,120.576103,0.57210666
C0G730,二林,2025-11-28,23.903325,120.376081,0.55600774
72M360,南改義竹分場,2025-11-28,23.360694,120.279361,0.23388773
V2K620,麥寮合作社,2025-11-28,23.753836,120.294783,0.23922172
C0Z070,舞鶴,2025-11-28,23.46811,121.37407,0.9953044
C0B040,大武崙,2025-11-28,25.166676,121.706993,0.6786201
C1Z030,紅葉,2025-11-28,23.493119,121.338806,0.99221396
C1I050,丹大,2025-11-28,23.753747,121.141147,0.026106285
C0I080,信義,2025-11-28,23.689694,120.851036,0.91319877
C0D750,樂山林道6k,2025-11-28,24.49999,121.08773,0.0007689438
C2M920,朴子農改,2025-11-28,23.469889,120.259383,0.18068801
C2A880,福隆,2025-11-28,25.017842,121.942083,0.8771198
C0Z160,鳳林,2025-11-28,23.746114,121.453411,0.998478
C0UB80,翠峰林道6K,2025-11-28,24.49773,121.568625,0.06616106
C0V210,復興,2025-11-28,23.222403,120.806089,0.7105994
C0H990,昆陽,2025-11-28,24.121322,121.273642,0.012804712
C0R741,獅子,2025-11-28,22.202308,120.705236,0.7335843
C0S710,鹿野,2025-11-28,22.917711,121.122994,0.9087016
C0I530,小奇萊,2025-11-28,24.131764,121.295717,0.011975053
C0FA70,大雪山埡口,2025-11-28,24.26867,121.03062,0.00072552514
C2K630,荷苞,2025-11-28,23.657717,120.595144,0.062460605
C0Z080,富源,2025-11-28,23.587642,121.378225,0.9966549
C0SB10,美和,2025-11-28,22.682078,121.060236,0.9965265
C2K620,馬光農場,2025-11-28,23.721453,120.378864,0.119891584
C1I140,卡奈托灣,2025-11-28,23.754364,121.087872,0.081338584
C0I520,玉山風口,2025-11-28,23.470489,120.955994,0.0005279762
C1G691,下水埔,2025-11-28,23.816114,120.5676,0.10045018
C0X110,臺南市南區,2025-11-28,22.961189,120.188378,0.8398418
C0V680,仁武,2025-11-28,22.701083,120.347722,0.7823878
C2G840,北斗,2025-11-28,23.877586,120.514222,0.20339248
C0R900,竹坑,2025-11-28,22.1385,120.7022,0.06818691
C0K250,崙背,2025-11-28,23.75555,120.318925,0.45176536
C0G860,社頭,2025-11-28,23.897647,120.5862,0.20851807
C0X150,安定,2025-11-28,23.102614,120.227839,0.64286983
C0R590,里港,2025-11-28,22.77919,120.49459,0.27773985
C0E610,馬都安,2025-11-28,24.451272,120.930192,0.25770116
C0E550,明德,2025-11-28,24.583486,120.885411,0.8057799
C0R150,三地門,2025-11-28,22.709889,120.639944,0.11102206
C0G910,花壇,2025-11-28,24.032076,120.549461,0.24123293
C1D400,鳥嘴山,2025-11-28,24.71909,121.28387,0.41652998
C0K500,元長,2025-11-28,23.64981,120.315024,0.25953516
C0F0B0,石岡,2025-11-28,24.276061,120.777644,0.9074574
C2V250,甲仙,2025-11-28,23.080106,120.591758,0.23531093
C0SA20,金崙山,2025-11-28,22.567419,120.959667,0.92877746
C0V350,溪埔,2025-11-28,22.738578,120.446797,0.65224123
C0M660,溪口,2025-11-28,23.604131,120.403569,0.23133565
C1S880,壽卡,2025-11-28,22.238911,120.858903,0.6984505
72D680,桃改新埔分場,2025-11-28,24.834444,121.066111,0.44400495
