站號,站名,日期,lat,lon,BlastGRU-TW
C0K280,四湖,2025-11-15,23.630414,120.227125,0.900473
A2K570,古坑花卉中心,2025-11-15,23.63353,120.55239,0.703742
467571,新竹,2025-11-15,24.827853,121.014219,0.88170487
C0E430,南庄,2025-11-15,24.601775,121.000214,0.9679406
C0E420,竹南,2025-11-15,24.708978,120.888897,0.16967599
C0M530,奮起湖,2025-11-15,23.493903,120.699253,0.09193438
C0C590,觀音,2025-11-15,25.027072,121.153317,0.85727954
C0X060,下營,2025-11-15,23.22695,120.256261,0.99121296
C2D740,屯原,2025-11-15,24.067969,121.209389,0.0036462657
C0M810,里佳,2025-11-15,23.389125,120.716647,0.0860599
C0K250,崙背,2025-11-15,23.75555,120.318925,0.87295806
