站號,站名,日期,lat,lon,BLBTSLS
C0R710,龍磐,2025-03-26,21.931672,120.838942,0.999996
C1F9D1,白毛台,2025-03-26,24.158325,120.886933,3.818779e-09
C0G940,竹塘,2025-03-26,23.848253,120.386764,1.3237128e-09
467590,恆春,2025-03-26,22.003897,120.746339,0.99999404
C1O850,環湖,2025-03-26,23.148617,120.418633,1.5248226e-09
C0U710,太平山,2025-03-26,24.505486,121.525656,3.3888778e-08
C0E820,獅潭,2025-03-26,24.539133,120.920042,2.477903e-07
C0V880,興達,2025-03-26,22.8778,120.2127,4.960717e-09
C0S890,關山,2025-03-26,23.0395,121.175017,4.533937e-08
C0SB30,新蘭,2025-03-26,22.869214,121.223228,9.102049e-08
C2R970,屏科大,2025-03-26,22.648275,120.619247,8.9043445e-10
K2F750,種苗繁殖,2025-03-26,24.225972,120.800917,5.9730367e-09
C1Z130,銅門,2025-03-26,23.965694,121.492842,2.5590497e-08
C0AD40,土城,2025-03-26,24.973208,121.445169,0.92700213
CAN140,六官養殖協會,2025-03-26,23.22881,120.29962,1.4042395e-09
C0X180,山上,2025-03-26,23.0757,120.363253,2.5190954e-09
C0F9Z0,雪山東峰,2025-03-26,24.388792,121.268675,6.172043e-08
C1M480,獨立山,2025-03-26,23.537022,120.607797,3.4313548e-09
C0X220,學甲,2025-03-26,23.230367,120.182187,1.8521931e-09
467650,日月潭,2025-03-26,23.881325,120.90805,6.3961783e-09
C0K600,箔子寮,2025-03-26,23.6197,120.14,6.4190817e-09
C0G830,埤頭,2025-03-26,23.866003,120.452806,1.1308352e-09
C0S950,七塊厝,2025-03-26,22.954453,121.229922,3.2739425e-08
467110,金門,2025-03-26,24.407306,118.289281,1.0104067e-08
C0AH80,深坑,2025-03-26,25.002703,121.628328,0.87433594
467990,馬祖,2025-03-26,26.169269,119.923419,8.619222e-09
C0A970,三貂角,2025-03-26,25.007606,122.002058,1.4585471e-06
C2D730,寶山農場,2025-03-26,24.732444,120.976153,2.2005403e-07
C0K430,褒忠,2025-03-26,23.690938,120.303634,2.9480307e-06
467480,嘉義,2025-03-26,23.495925,120.432906,1.6072592e-09
C2E540,後龍,2025-03-26,24.606489,120.783933,0.7259817
C0V400,阿公店,2025-03-26,22.804194,120.355528,1.15610085e-07
467550,玉山,2025-03-26,23.48718,120.95943,5.580562e-08
C0R440,大漢山,2025-03-26,22.405264,120.753181,2.5931786e-08
C0K280,四湖,2025-03-26,23.630414,120.227125,2.0328103e-05
C1F9B1,桐林,2025-03-26,24.066172,120.735194,0.039271764
C2H9U0,鳳鵬,2025-03-26,23.763919,120.788061,1.6351004e-09
C0K390,土庫,2025-03-26,23.679029,120.395574,1.2262042e-09
C1I450,望鄉山,2025-03-26,23.594153,120.944286,3.4654466e-08
C0E910,海埔,2025-03-26,24.648767,120.772435,4.8912364e-07
B2E890,畜試北區分所,2025-03-26,24.527806,120.770972,9.28936e-07
C0R750,四林格山,2025-03-26,22.076989,120.802439,0.9428072
C0F0C0,中坑,2025-03-26,24.248517,120.903319,8.063888e-09
C1I121,大鞍,2025-03-26,23.678381,120.760017,1.3284889e-08
72U480,花改蘭陽分場,2025-03-26,24.686306,121.716583,2.1569588e-06
C0A770,科教館,2025-03-26,25.096356,121.516507,0.9556004
C0AJ60,六塊厝,2025-03-26,25.24,121.4481,0.9596869
C0R620,墾雷,2025-03-26,21.900836,120.855269,0.9999961
467420,永康,2025-03-26,23.038386,120.2367,4.1798294e-09
467300,東吉島,2025-03-26,23.25695,119.667467,0.9999944
C0I410,名間,2025-03-26,23.837053,120.701447,1.195478e-09
A2C560,農工中心,2025-03-26,24.985917,121.239833,0.04966336
C0V740,旗山,2025-03-26,22.888614,120.483597,9.7088375e-08
C0Z061,玉里,2025-03-26,23.3215,121.339656,8.214395e-08
C0S840,南田,2025-03-26,22.279725,120.889208,1.0453177e-08
C1I470,杉林溪,2025-03-26,23.639517,120.786444,1.5659726e-08
C1X040,東原,2025-03-26,23.291597,120.463822,1.3055516e-09
C0R660,枋寮,2025-03-26,22.367722,120.590647,7.365794e-08
C1R120,上德文,2025-03-26,22.763272,120.704442,1.5560135e-08
C0K450,大埤,2025-03-26,23.646074,120.431537,2.0119562e-09
C0UA00,土場,2025-03-26,24.576533,121.495333,1.950688e-08
467080,宜蘭,2025-03-26,24.763975,121.756528,4.029007e-06
C0N030,四草,2025-03-26,23.0235,120.1116,2.1046946e-09
467410,臺南,2025-03-26,22.99328,120.20492,3.4875187e-09
C0V650,彌陀,2025-03-26,22.783806,120.246361,4.127965e-07
C0D660,新竹市東區,2025-03-26,24.798681,120.986942,1.3612725e-08
82S580,茶改東部分場,2025-03-26,22.907694,121.130139,5.1527564e-08
C0SB40,興隆,2025-03-26,22.913661,121.257469,8.95311e-08
467050,新屋,2025-03-26,25.006725,121.047492,0.53652394
C0C710,大溪永福,2025-03-26,24.892936,121.324975,0.0530196
C0FA20,溫寮,2025-03-26,24.372177,120.583125,0.9935139
C0V640,湖內,2025-03-26,22.887139,120.2445,4.8841438e-09
C0R910,下寮,2025-03-26,22.3929,120.5548,8.2729805e-08
C0Z020,明里,2025-03-26,23.208717,121.262342,5.5115187e-08
C0M770,嘉義梅山,2025-03-26,23.585398,120.555587,1.5234766e-09
G2F820,農業試驗所,2025-03-26,24.031261,120.688133,0.2850422
C0C660,楊梅,2025-03-26,24.912375,121.143047,0.012249886
C1E511,新開,2025-03-26,24.347703,120.827019,8.451399e-09
G2F820,農試所(霧峰),2025-03-26,24.031261,120.688133,0.15633978
C1I070,和社,2025-03-26,23.591131,120.888861,1.6965531e-08
C2F000,大肚,2025-03-26,24.15295,120.572117,1.84133e-09
C1S850,豐南,2025-03-26,23.122139,121.262389,2.9523552e-08
C2A920,富貴角,2025-03-26,25.263783,121.565258,0.36785862
CAH030,茶改場竹圍站,2025-03-26,23.860083,120.637528,1.0406959e-09
C0T960,光復,2025-03-26,23.660694,121.424964,2.6295478e-08
C0F9M0,豐原,2025-03-26,24.254322,120.720692,5.9220373e-08
C0R720,旭海,2025-03-26,22.205403,120.887614,7.8659035e-09
C0V710,苓雅,2025-03-26,22.622742,120.330669,2.1515788e-07
C0C740,觀音工業區,2025-03-26,25.064764,121.114856,0.58347464
CAC040,拉拉山,2025-03-26,24.699317,121.427133,2.78678e-08
C0V790,萬山,2025-03-26,22.905944,120.688056,1.4368493e-09
U2HA30,臺大和社,2025-03-26,23.590856,120.888864,1.6965531e-08
C0AJ90,澳底,2025-03-26,25.0552,121.9253,4.857038e-06
C0Z100,東華,2025-03-26,23.89525,121.549833,3.185494e-08
C0G970,三豐,2025-03-26,23.882,120.2895,6.6763655e-06
V2K610,大庄合作社,2025-03-26,23.8068,120.367939,7.2095045e-06
C0V900,汕尾,2025-03-26,22.4782,120.4151,9.075404e-08
C1R630,龍泉,2025-03-26,22.66701,120.59091,8.6946755e-10
C1AC50,關渡,2025-03-26,25.133486,121.469331,0.8745794
C0F9I0,神岡,2025-03-26,24.272481,120.658314,8.586375e-08
C0K460,斗南,2025-03-26,23.678734,120.478359,2.0130846e-09
467410,臺南,2025-03-26,22.993239,120.204772,0.00032766204
C2O810,曾文,2025-03-26,23.219681,120.497328,1.0249718e-09
467280,後龍,2025-03-26,24.648563,120.831834,2.927758e-07
C1F9J1,清水林,2025-03-26,24.071242,120.820419,3.5518366e-09
C2A650,火燒寮,2025-03-26,25.002719,121.742892,2.420673e-07
466930,竹子湖,2025-03-26,25.162078,121.544547,1.7233948e-08
C1I220,樟湖,2025-03-26,23.905333,120.846983,6.8802493e-09
C0I390,仁愛,2025-03-26,24.022122,121.132206,8.325118e-09
C0Z300,東里,2025-03-26,23.26853,121.30547,6.435511e-08
C1V590,新發,2025-03-26,23.057019,120.646064,5.6298983e-09
C0K510,水林,2025-03-26,23.572924,120.24597,3.183451e-09
72S590,東改賓朗果園,2025-03-26,22.813889,121.071278,3.3598898e-08
82A750,茶改北部分場,2025-03-26,24.955778,121.631222,1.7474619e-08
C1A750,石碇服務區,2025-03-26,25.00872,121.646242,0.8550619
C0X300,鹿寮,2025-03-26,23.386047,120.477331,1.2214774e-09
G2AI50,關渡,2025-03-26,25.11575,121.492,0.9630044
C0K590,雲林東勢,2025-03-26,23.674192,120.255721,2.6701302e-06
C0A570,桶後,2025-03-26,24.848222,121.597992,2.1112855e-08
C1S800,華源,2025-03-26,22.657883,121.02325,6.414764e-08
C0G720,溪州,2025-03-26,23.851589,120.499093,1.1423814e-09
C1V160,達卡努瓦,2025-03-26,23.279811,120.705319,7.426252e-09
C2M410,馬頭山,2025-03-26,23.324361,120.582017,1.4804931e-09
C0V850,蚵仔寮,2025-03-26,22.7256,120.2527,2.489063e-07
C0S740,池上,2025-03-26,23.119628,121.209469,4.473293e-08
C1V390,尖山,2025-03-26,22.813153,120.367789,7.5883115e-08
C0AH70,松山,2025-03-26,25.04871,121.55042,0.94919556
C0N010,鯤鯓國小,2025-03-26,23.1879,120.0889,2.2613007e-09
C0R550,新埤,2025-03-26,22.467947,120.582894,5.8672274e-08
C0SA60,知本（水試所）,2025-03-26,22.702394,121.082761,1.178096e-07
C0T9I0,豐濱,2025-03-26,23.583897,121.514806,3.4655855e-08
C0UB00,淡江大學蘭陽校園,2025-03-26,24.823239,121.730383,1.4862571e-08
C0W240,九宮,2025-03-26,24.423753,118.240186,1.0149593e-08
C0T9N0,富里,2025-03-26,23.171639,121.249378,6.078788e-08
U2HA50,臺大竹山,2025-03-26,23.756972,120.681556,1.1597562e-09
C0V840,鳳鼻頭,2025-03-26,22.5083,120.3591,1.7898118e-07
C0X140,西港,2025-03-26,23.125608,120.203108,2.144737e-09
72D080,桃改五峰分場,2025-03-26,24.612194,121.157167,1.750531e-08
C2H9P0,伊拿谷,2025-03-26,23.963211,121.088264,5.0195372e-09
C2H9F0,柑林,2025-03-26,24.018658,120.847072,1.8589813e-09
C0TA20,加灣,2025-03-26,24.082025,121.608944,3.1919225e-08
C0V530,阿蓮,2025-03-26,22.883208,120.327508,3.3458825e-09
C1O880,關山,2025-03-26,23.173397,120.594092,1.1718301e-09
C0E791,卓蘭,2025-03-26,24.3126,120.8244,4.9901927e-09
C1I030,武界,2025-03-26,23.913225,121.052483,5.2073217e-09
C0R520,崁頂,2025-03-26,22.514781,120.506914,7.418752e-08
C0R341,牡丹,2025-03-26,22.130036,120.792639,1.2167297e-08
C0R930,萬丹,2025-03-26,22.5885,120.4851,6.7806546e-08
C0S760,紅石,2025-03-26,23.069131,121.126219,2.4443226e-08
C2C410,中央大學,2025-03-26,24.967652,121.185165,0.035956662
C1M610,石磐龍,2025-03-26,23.496606,120.663506,5.710796e-09
C0UA10,鴛鴦湖,2025-03-26,24.590269,121.412228,3.018514e-08
V2C260,八德蔬果,2025-03-26,24.978508,121.281819,0.052012462
C0R800,丹路,2025-03-26,22.204481,120.750989,1.8238541e-08
C0G920,永靖,2025-03-26,23.924703,120.547533,2.4425656e-08
C2M950,太和,2025-03-26,23.538372,120.702961,7.710586e-09
C1A630,下盆,2025-03-26,24.771003,121.538622,1.6904513e-08
B2N890,畜產試驗所,2025-03-26,23.058972,120.336406,3.3381375e-09
C0UA30,白嶺,2025-03-26,24.527819,121.519031,2.5894323e-08
C1V580,溪南(特生中心),2025-03-26,23.084972,120.788475,1.5530187e-08
C1T970,大農,2025-03-26,23.615233,121.413331,3.323686e-08
E2S960,林試太麻里2,2025-03-26,22.598014,120.989761,1.4387881e-07
C0R650,竹田,2025-03-26,22.58486,120.54344,7.344484e-08
C1H900,清流,2025-03-26,24.080775,120.962997,5.074775e-09
C1C510,水尾,2025-03-26,24.940081,121.087161,0.122475944
C0F9X0,大雅(中科園區),2025-03-26,24.21528,120.62445,0.018069752
C0SB60,白守蓮,2025-03-26,23.126769,121.401914,1.5457864e-07
C0O970,虎頭埤,2025-03-26,23.021375,120.347878,3.0337155e-09
C0C730,中大臨海站,2025-03-26,24.966126,121.008581,0.6858585
C0X250,新營,2025-03-26,23.310689,120.316681,1.1840748e-09
C0V700,三民,2025-03-26,22.645017,120.311233,3.206152e-07
C0U870,大礁溪,2025-03-26,24.791042,121.675047,1.4781575e-08
C0E870,高鐵苗栗,2025-03-26,24.60725,120.826094,0.4133773
A2K570,古坑花卉中心,2025-03-26,23.63353,120.55239,1.1371705e-09
C0TA30,鹽寮,2025-03-26,23.845606,121.592664,3.3040035e-08
C0M860,新美,2025-03-26,23.338017,120.683169,2.3056106e-09
C1E701,八卦,2025-03-26,24.491756,120.927619,2.7587927e-08
C0I420,國姓,2025-03-26,24.037803,120.855072,1.9413002e-09
C2D720,關西工作站,2025-03-26,24.757275,121.184792,6.617343e-08
C0S960,香蘭,2025-03-26,22.587569,120.993375,2.1190234e-08
467620,蘭嶼,2025-03-26,22.0369,121.55843,0.99999696
C0R260,春日,2025-03-26,22.370361,120.628306,3.9756557e-08
72G600,臺中農改場,2025-03-26,24.003028,120.534389,2.4786324e-08
C0Z210,瑞穗,2025-03-26,23.5239,121.39021,4.0766558e-08
C0M820,達邦,2025-03-26,23.453994,120.749517,4.6451474e-09
C0V860,南寮,2025-03-26,22.7616,120.2339,2.524829e-07
C0G740,大城,2025-03-26,23.852487,120.320935,4.6382847e-06
C0R920,塭仔,2025-03-26,22.4169,120.5197,8.509909e-08
C0R470,高樹,2025-03-26,22.826389,120.600806,9.54652e-10
C0R680,佳樂水,2025-03-26,21.993578,120.861633,0.9999946
C1O870,大棟山,2025-03-26,23.31157,120.52226,1.0659489e-08
C0D360,梅花,2025-03-26,24.678347,121.208558,2.5297568e-08
C0Z190,富世,2025-03-26,24.14743,121.6297,1.7519104e-08
C0AI10,屈尺,2025-03-26,24.92184,121.54475,0.9144386
B2U990,畜試東區分所,2025-03-26,24.669039,121.832561,4.170338e-06
C0SB80,長濱漁港,2025-03-26,23.313644,121.459994,1.5788078e-07
C0R240,來義,2025-03-26,22.527306,120.625111,3.064862e-08
C0V910,大樹,2025-03-26,22.684645,120.432803,8.408239e-10
C1R610,西大武山,2025-03-26,22.617719,120.7322,2.638566e-08
C0G900,線西,2025-03-26,24.143358,120.443536,0.9893443
C0M700,竹崎,2025-03-26,23.526178,120.555508,1.5321809e-09
C2E880,三義,2025-03-26,24.405478,120.749819,1.0152497e-08
C0C720,竹圍,2025-03-26,25.112692,121.239824,0.95996296
C0F9P0,清水,2025-03-26,24.312297,120.562242,0.99123806
C0Z150,吉安光華,2025-03-26,23.930925,121.595153,3.0999253e-08
467300,東吉島,2025-03-26,23.25727,119.66762,0.9999962
C1D640,外坪(五指山),2025-03-26,24.644447,121.090961,2.8701681e-08
C0F9O0,潭子,2025-03-26,24.213106,120.703933,7.485699e-08
C2H9R0,卓社,2025-03-26,23.887894,121.000086,7.3312685e-09
72T250,花蓮農改場,2025-03-26,23.975222,121.563889,3.3729435e-08
C0E780,銅鑼,2025-03-26,24.489681,120.790853,1.8057514e-07
C1T950,太安,2025-03-26,23.666719,121.370128,6.9198496e-09
C0E830,苑裡,2025-03-26,24.439714,120.653053,0.99450564
467270,田中,2025-03-26,23.873803,120.581286,1.237815e-09
C0SA10,檳榔四格山,2025-03-26,22.810031,121.109308,2.9556118e-08
C1T830,布洛灣,2025-03-26,24.17184,121.57127,1.956206e-08
C0F970,大坑,2025-03-26,24.173142,120.722289,1.0942643e-07
C1U920,思源,2025-03-26,24.393125,121.347214,2.1919629e-08
C0A931,三和,2025-03-26,25.233153,121.595236,0.28998858
C0I010,廬山,2025-03-26,24.033311,121.181808,1.692726e-08
C2M940,日野賀,2025-03-26,23.434056,120.727169,5.9090928e-09
C0R860,鼻頭,2025-03-26,22.1043,120.8979,0.9999959
C0UB20,壯圍,2025-03-26,24.7359,121.8163,4.3169352e-06
C0R790,九棚,2025-03-26,22.14195,120.889281,8.567396e-09
C0W110,東莒,2025-03-26,25.9652,119.98069,7.1833725e-08
C1U930,粉鳥林,2025-03-26,24.497088,121.842479,2.4084198e-08
C1I211,蘆竹湳,2025-03-26,23.934019,120.811994,2.4919182e-09
C0S830,長濱,2025-03-26,23.286817,121.411975,5.775064e-08
C1F9F1,伯公龍,2025-03-26,24.272392,120.849047,4.105353e-09
C0E810,西湖,2025-03-26,24.562947,120.7485,1.5986832e-07
C1I440,新高口,2025-03-26,23.478744,120.878939,2.7619727e-08
C0O840,王爺宮,2025-03-26,23.222064,120.40085,9.268701e-10
C0T9G0,鳳林山,2025-03-26,23.735269,121.420131,2.4625683e-08
C0X080,佳里,2025-03-26,23.173039,120.145086,2.261801e-09
C0FB70,大甲溪埔,2025-03-26,24.370625,120.620067,0.98512375
C0Z310,清水斷崖,2025-03-26,24.218294,121.689142,1.7956532e-08
C0M680,太保,2025-03-26,23.455062,120.331455,1.3930778e-09
C1S820,金峰,2025-03-26,22.590969,120.933236,1.48571e-08
C0AD10,八里,2025-03-26,25.150211,121.403947,0.958865
C2K240,草嶺,2025-03-26,23.59555,120.693461,5.357025e-09
C1SA70,都蘭,2025-03-26,22.87794,121.226881,8.932693e-08
C0K440,二崙,2025-03-26,23.772797,120.408944,1.1789503e-09
C1A760,坪林交控,2025-03-26,24.94284,121.713442,3.2406086e-07
C0F9N0,大里,2025-03-26,24.092464,120.701378,1.3827482e-09
C0SA90,達仁林場,2025-03-26,22.264347,120.823972,7.695424e-09
C1R290,石門山,2025-03-26,22.112611,120.756597,0.9999425
42HA10,萬大發電廠,2025-03-26,23.978875,121.139639,7.0599935e-09
C0R890,山海,2025-03-26,21.9878,120.7091,0.9999914
C0T9A0,月眉山,2025-03-26,23.809928,121.539828,2.3740855e-08
C0AC70,信義,2025-03-26,25.037822,121.564597,0.9487307
C0K560,棋山,2025-03-26,23.68645,120.603417,1.1592541e-09
C2FB50,出雲,2025-03-26,24.206469,120.902794,5.8447296e-09
C1Z240,中平林道,2025-03-26,23.42115,121.26763,1.1163764e-08
U2H480,溪頭,2025-03-26,23.670306,120.798194,7.091547e-09
C0M880,好美里,2025-03-26,23.3364,120.138,1.6580356e-09
C0T9E0,大坑,2025-03-26,23.880628,121.581981,2.4515971e-08
C0K530,臺西,2025-03-26,23.701547,120.197559,3.6867154e-05
C1E900,國一N128K,2025-03-26,24.560997,120.844186,4.2441724e-07
C0AJ50,水湳洞,2025-03-26,25.123695,121.862238,0.97034955
C0AI20,白沙灣,2025-03-26,25.283128,121.519058,0.9466351
C2V310,美濃,2025-03-26,22.898792,120.51907,1.0837025e-07
C0A860,大坪,2025-03-26,25.165914,121.632969,1.4983398e-08
C1U850,觀音海岸,2025-03-26,24.38319,121.77856,1.0587274e-08
C2K610,草嶺石壁,2025-03-26,23.602469,120.707731,5.591139e-09
C0U950,鶯子嶺,2025-03-26,24.89754,121.79244,1.9464808e-08
C0O900,善化,2025-03-26,23.112883,120.297219,3.648397e-09
C0K550,蔦松,2025-03-26,23.514319,120.229736,4.1242045e-09
E2P980,林試六龜中心,2025-03-26,22.991703,120.645722,1.0245008e-09
C0E590,通霄,2025-03-26,24.471892,120.704622,1.3435883e-06
C1I310,西巒,2025-03-26,23.754486,120.883956,5.7757e-09
C0A550,泰平,2025-03-26,24.971197,121.823711,1.5372166e-08
C0I360,水里,2025-03-26,23.812553,120.849792,9.2213903e-10
C0R830,高士,2025-03-26,22.121825,120.836781,0.9997775
C1I101,溪頭,2025-03-26,23.661789,120.807647,1.4425452e-08
C0AJ20,野柳,2025-03-26,25.20703,121.690021,0.9701215
C0B060,暖暖,2025-03-26,25.0957,121.7403,0.89359564
C1H920,長豐,2025-03-26,24.102039,120.879897,3.4075818e-09
C0V360,內門,2025-03-26,22.975481,120.466769,9.2827307e-10
C0R850,林邊,2025-03-26,22.4634,120.5339,7.497903e-08
C0E930,龍鳳,2025-03-26,24.700034,120.859125,1.2039618e-07
C0U910,冬山,2025-03-26,24.63373,121.7937,4.170338e-06
C1E721,泰安,2025-03-26,24.489017,120.968036,1.1930846e-08
82H320,茶改中部分場,2025-03-26,23.875611,120.913583,5.240811e-09
C0M750,布袋,2025-03-26,23.380878,120.167789,1.5966415e-09
C1S860,利嘉,2025-03-26,22.809417,121.050528,9.861087e-09
72C440,桃園農改,2025-03-26,24.950944,121.030583,9.433484e-06
E2S980,林試太麻里1,2025-03-26,22.598922,120.980044,1.7621586e-08
C0X170,關廟,2025-03-26,22.963017,120.327797,5.0380877e-09
C0V720,林園,2025-03-26,22.507747,120.394511,6.9965495e-08
C1I510,線浸林道,2025-03-26,23.761508,120.832956,6.5207146e-09
C0D690,外湖,2025-03-26,24.917735,120.968711,0.71134675
C0C750,新興坑尾,2025-03-26,25.0061,121.0971,0.2749094
B2Q810,畜試南區分所,2025-03-26,21.945583,120.802167,0.99999434
C0S790,金崙,2025-03-26,22.538122,120.966875,1.0289565e-08
C0AH90,福山植物園,2025-03-26,24.760717,121.58135,1.9204856e-08
C0I540,奇萊稜線,2025-03-26,24.109231,121.326456,4.9458205e-08
C0M850,表湖,2025-03-26,23.24186,120.64166,2.3504254e-09
C0S770,大溪山,2025-03-26,22.478475,120.943325,8.2786595e-09
C0AG80,中和,2025-03-26,24.991622,121.491792,0.9257839
C0T790,大禹嶺,2025-03-26,24.186117,121.316086,4.2951353e-08
C0T9B0,水源,2025-03-26,23.991861,121.537169,2.3704295e-08
C0R840,牡丹池山,2025-03-26,22.168389,120.841225,7.492167e-09
C1I131,桶頭,2025-03-26,23.641944,120.654117,1.1765713e-09
CAL110,布袋國中,2025-03-26,23.35893,120.18026,1.4380007e-09
467571,新竹,2025-03-26,24.827853,121.014219,1.3728496e-08
C0Z290,赤柯山,2025-03-26,23.36893,121.38293,3.6358806e-08
C0X280,將軍,2025-03-26,23.214999,120.13577,1.8947393e-09
C0S690,太麻里,2025-03-26,22.60902,120.98533,1.9520489e-07
C0U880,北關,2025-03-26,24.9072,121.8734,0.9840292
C1H860,瑞岩,2025-03-26,24.123772,121.18345,1.7975312e-08
C0G810,埔心,2025-03-26,23.947633,120.525456,2.5720661e-08
C0U970,大福,2025-03-26,24.80064,121.81389,6.239146e-06
C2H9N0,仁愛東眼,2025-03-26,24.026875,121.1205,1.5348611e-08
C1E670,南礦,2025-03-26,24.538278,121.002836,1.1146977e-08
C0M520,東後寮,2025-03-26,23.369908,120.248065,1.4197439e-09
C1E461,松安,2025-03-26,24.397972,120.986022,1.1755087e-08
72G600,臺中農改,2025-03-26,24.003028,120.534389,1.3211189e-06
C2N160,西拉雅風管處,2025-03-26,23.189481,120.335297,1.4848425e-09
C2M970,碧湖,2025-03-26,23.568632,120.624165,4.70279e-09
C0A640,石碇,2025-03-26,24.993969,121.662917,2.0831676e-07
E2S960,林試太麻里2,2025-03-26,22.598,120.99775,2.2321663e-08
C0F9Y0,桃山,2025-03-26,24.432739,121.303808,6.560626e-08
C1I020,萬大,2025-03-26,23.979817,121.132261,8.385229e-09
C0U940,羅東,2025-03-26,24.68184,121.74934,2.8170928e-06
C0M650,朴子,2025-03-26,23.43463,120.23902,1.6190836e-09
C1I500,大尖山,2025-03-26,23.858572,120.994889,2.2803503e-08
C0G820,田尾,2025-03-26,23.901669,120.509389,2.555099e-08
E2K600,四湖植物園,2025-03-26,23.676986,120.163433,1.5022312e-05
C0S730,綠島,2025-03-26,22.6672,121.47533,1.7594559e-07
12Q970,東港工作站,2025-03-26,22.479997,120.466058,7.8578694e-08
C0E430,南庄,2025-03-26,24.601775,121.000214,2.1544597e-07
C1TA00,太魯閣,2025-03-26,24.15773,121.6236,1.6982106e-08
466920,臺北,2025-03-26,25.037658,121.514853,0.94919556
C0R600,舊泰武,2025-03-26,22.588194,120.664944,5.645232e-09
C1I260,北坑,2025-03-26,23.9246,121.006903,2.6295466e-09
466910,鞍部,2025-03-26,25.182586,121.529731,2.2189477e-08
C1I230,九份二山,2025-03-26,23.961944,120.845,4.5356563e-09
C2A660,瑞芳,2025-03-26,25.113169,121.801147,0.8732799
C0R270,琉球嶼,2025-03-26,22.332244,120.362236,1.3907574e-07
C1T990,高寮,2025-03-26,23.394239,121.356808,4.1583455e-08
C0G620,芬園,2025-03-26,24.015678,120.6213,1.23675825e-08
C1Z140,荖溪,2025-03-26,23.890575,121.45964,3.0547014e-08
C1I201,中心崙,2025-03-26,23.728722,120.712097,2.7300484e-09
C1I400,凌霄,2025-03-26,24.018778,121.004456,1.500522e-08
C1M640,十字,2025-03-26,23.492153,120.753683,1.3557327e-08
G2P820,農試鳳山分所,2025-03-26,22.646611,120.356083,2.2944539e-07
C0Z270,蕃薯寮,2025-03-26,23.73835,121.540108,2.6834728e-08
C0F9Q0,外埔,2025-03-26,24.347817,120.705686,1.8683137e-07
C0K580,高鐵雲林,2025-03-26,23.737456,120.417944,1.3240637e-09
C2I090,鳳凰,2025-03-26,23.728081,120.787347,5.0247e-09
C0U990,員山,2025-03-26,24.74435,121.72247,3.095077e-06
C0V770,大社,2025-03-26,22.730306,120.346639,1.9506457e-07
C0X120,麻豆,2025-03-26,23.183289,120.248611,1.6185279e-09
C0C670,龍潭,2025-03-26,24.870056,121.221389,9.644644e-08
C0D680,香山濕地,2025-03-26,24.783581,120.914988,1.4719455e-08
C0S980,勝林山,2025-03-26,22.430439,120.8938,1.913743e-08
C0V730,大寮,2025-03-26,22.605614,120.395717,7.732209e-08
C0R570,麟洛,2025-03-26,22.65078,120.52719,9.372916e-10
C2M930,石卓,2025-03-26,23.478744,120.702264,1.2889425e-08
C0G9B0,和美,2025-03-26,24.105169,120.492131,1.4275042e-07
CAG100,王功漁港,2025-03-26,23.96824,120.32586,1.9963777e-06
C0X290,北門,2025-03-26,23.267772,120.125481,1.900226e-09
C2F930,大甲,2025-03-26,24.347667,120.640403,0.8013952
C0D650,湖口,2025-03-26,24.904794,121.043628,0.17177467
C0E420,竹南,2025-03-26,24.708978,120.888897,8.5303036e-08
C0U780,五結,2025-03-26,24.68637,121.79794,4.281703e-06
C1I250,鯉潭,2025-03-26,23.961922,120.991131,3.3733725e-09
C0R130,阿禮,2025-03-26,22.742908,120.743678,1.6127139e-08
C0X100,臺南市北區,2025-03-26,23.010394,120.194228,3.7154761e-09
C0S920,金峰嘉蘭,2025-03-26,22.594789,120.960825,1.7621586e-08
C0V490,新興,2025-03-26,22.627422,120.298803,2.3547888e-07
C0F9K0,大安,2025-03-26,24.345061,120.588025,0.9872654
72N100,臺南農改,2025-03-26,23.0605,120.342194,0.0001336928
467290,古坑,2025-03-26,23.633639,120.551889,1.1371705e-09
C2E970,八甲,2025-03-26,24.535811,120.795983,8.5723684e-08
C0V440,鳳山,2025-03-26,22.646653,120.356122,2.2944539e-07
C1T940,大觀,2025-03-26,23.714206,121.373133,2.5779107e-08
72T250,花蓮農改,2025-03-26,23.975222,121.563889,7.0878644e-07
C0E740,造橋,2025-03-26,24.637056,120.864778,3.4058363e-07
C0R100,尾寮山,2025-03-26,22.833111,120.683889,1.5593141e-08
A2K630,臺大雲林校區,2025-03-26,23.730628,120.423903,1.3262527e-09
467990,馬祖,2025-03-26,26.169467,119.923158,1.6797197e-08
C0D580,寶山,2025-03-26,24.735006,121.025192,8.908193e-08
E2P990,林試扇平站,2025-03-26,22.9677,120.6857,4.641888e-09
C0AI30,三重,2025-03-26,25.057328,121.500629,0.9556004
C0AH00,汐止,2025-03-26,25.066881,121.658778,0.94919556
C1Z040,立山,2025-03-26,23.443356,121.327375,4.0329443e-08
466881,新北,2025-03-26,24.959207,121.525196,0.90510887
C0W130,花嶼,2025-03-26,23.40007,119.32276,0.99999636
C0A950,鼻頭角,2025-03-26,25.129036,121.923372,7.4510435e-06
C0K470,林內,2025-03-26,23.748675,120.609642,1.0418418e-09
C2F990,摩天嶺,2025-03-26,24.322458,120.936819,5.583285e-09
82C160,茶改場,2025-03-26,24.908472,121.185333,0.0012212965
C0Z320,清水林道,2025-03-26,23.27125,121.188272,3.3219685e-08
C0R760,南仁湖,2025-03-26,22.084681,120.863353,0.9999353
C0M670,大林,2025-03-26,23.600616,120.45841,4.5620667e-09
C0M800,茶山,2025-03-26,23.299075,120.664767,1.8508052e-09
C0A9C0,天母,2025-03-26,25.117494,121.537169,0.9754788
72K220,南改斗南分場,2025-03-26,23.634556,120.477333,2.0374087e-09
72AI40,桃改樹林分場,2025-03-26,24.944503,121.386972,0.9439847
C0S910,蘭嶼燈塔,2025-03-26,22.081197,121.503117,0.99993956
C0B050,八斗子,2025-03-26,25.144754,121.79167,0.97945905
C0U900,內城,2025-03-26,24.71813,121.68766,1.7197274e-06
C0X320,柳營,2025-03-26,23.253328,120.375253,1.5862663e-09
C0M790,新港,2025-03-26,23.553269,120.345728,2.263415e-09
C0F9T0,西屯,2025-03-26,24.179494,120.641275,0.202253
C0SA30,都歷,2025-03-26,23.020333,121.323642,7.322929e-08
C0C620,蘆竹,2025-03-26,25.084275,121.265767,0.9393718
C0R730,大坪頂,2025-03-26,22.024633,120.69355,0.99999005
C0AJ40,石門,2025-03-26,25.273672,121.601198,0.6162423
C0E750,苗栗,2025-03-26,24.564569,120.824575,5.183769e-07
C0T870,鯉魚潭,2025-03-26,23.935639,121.508944,2.6203855e-08
C1V170,排雲,2025-03-26,23.463619,120.954147,4.923138e-08
C2H950,中寮,2025-03-26,23.884447,120.766406,0.00050573243
C0R350,貓鼻頭,2025-03-26,21.921774,120.7358,0.99999434
C0V660,岡山,2025-03-26,22.797078,120.294958,4.0085078e-07
C1H941,雙冬,2025-03-26,23.967378,120.802189,2.6838656e-09
C0AJ70,田寮,2025-03-26,25.2698,121.4886,0.9504115
C0AI00,五股,2025-03-26,25.07445,121.42728,0.006008532
C0Z280,德武,2025-03-26,23.47426,121.41071,3.7325893e-08
C0R700,枋山,2025-03-26,22.246844,120.661086,6.027964e-08
C0C460,復興,2025-03-26,24.820208,121.352281,1.9520614e-08
E2H360,蓮華池,2025-03-26,23.918333,120.885278,2.9998075e-09
C0M640,中埔,2025-03-26,23.42538,120.5229,2.007341e-09
C0W140,金沙,2025-03-26,24.488292,118.408778,8.369139e-09
C2A540,四堵,2025-03-26,24.8926,121.745736,1.3177835e-08
C0ACA0,新莊,2025-03-26,25.051478,121.446756,0.9549411
C0R220,潮州,2025-03-26,22.534361,120.54,6.9206315e-08
U2HA40,臺大內茅埔,2025-03-26,23.689722,120.851117,2.3963036e-09
467490,臺中,2025-03-26,24.145736,120.684075,0.1131068
C0U960,翠峰湖,2025-03-26,24.510856,121.608044,3.7442764e-08
E2HA20,林試畢祿溪站,2025-03-26,24.226944,121.308522,3.3835363e-08
C0V890,前鎮,2025-03-26,22.5718,120.3117,2.4595298e-07
467620,蘭嶼,2025-03-26,22.036969,121.558339,0.99999744
C1F941,雪嶺,2025-03-26,24.280586,121.026642,4.2137234e-08
C2H9E0,國姓南港,2025-03-26,23.911108,120.846556,7.1952035e-09
C0AC80,文山,2025-03-26,25.00235,121.575728,0.86836535
C0F9R0,龍井,2025-03-26,24.184536,120.528972,0.9917594
C0M760,民雄,2025-03-26,23.551754,120.428457,4.6557025e-09
C0UA40,西德山,2025-03-26,24.560647,121.752608,2.15411e-08
C1T920,中興,2025-03-26,23.769503,121.498653,2.8724683e-08
C0D550,雪霸,2025-03-26,24.526972,121.11605,2.7390156e-08
C2F860,梨山,2025-03-26,24.247522,121.243669,3.4607897e-08
C0R320,車城,2025-03-26,22.0744,120.716247,0.99999064
C1S870,南美山,2025-03-26,23.15025,121.382333,6.1159575e-08
C0B020,基隆嶼,2025-03-26,25.19141,121.78391,0.9734811
C1U501,牛鬥,2025-03-26,24.637836,121.573656,1.8913015e-07
C0M730,嘉義市東區,2025-03-26,23.457673,120.460531,3.1172245e-09
C0S700,知本,2025-03-26,22.684866,121.005642,1.2139828e-08
C1N001,沙崙,2025-03-26,22.935472,120.309406,5.2757527e-09
C0V760,橋頭,2025-03-26,22.757806,120.30575,2.2837133e-07
C0G960,福寶,2025-03-26,24.0443,120.3814,1.57391e-07
C0X210,白河,2025-03-26,23.347466,120.414427,1.8041043e-09
C0S810,東河,2025-03-26,22.972672,121.303986,1.3976367e-07
C2R170,屏東,2025-03-26,22.66027,120.49403,9.370681e-10
C0R670,楓港,2025-03-26,22.190131,120.692156,5.4226977e-08
C0FA50,霧峰,2025-03-26,24.0419,120.6995,0.1256257
C0UB10,蘇澳,2025-03-26,24.5969,121.8571,2.1691793e-08
C0G950,防潮門,2025-03-26,24.1835,120.4871,0.9926776
C0M740,六腳,2025-03-26,23.492871,120.290625,1.6734192e-09
C1R250,力里,2025-03-26,22.428117,120.629228,3.0788243e-08
C0K330,虎尾,2025-03-26,23.719183,120.442036,1.3332095e-09
C2FA00,烏石坑,2025-03-26,24.273503,120.947617,5.486208e-09
C0V620,永安,2025-03-26,22.82315,120.236856,4.127965e-07
C1I330,楓樹林,2025-03-26,23.986803,121.076117,9.483857e-09
C0W200,湖西,2025-03-26,23.596314,119.67275,0.9999955
72Q010,高雄農改場,2025-03-26,22.709333,120.525889,1.0068817e-09
C0SA40,瑞和,2025-03-26,22.974361,121.156697,5.299375e-08
C0C680,龜山,2025-03-26,25.02846,121.38656,2.1889343e-07
C2V260,月眉,2025-03-26,22.971003,120.539853,9.156507e-10
C0V450,鳳森,2025-03-26,22.545064,120.392592,4.0107444e-08
C0U720,南山,2025-03-26,24.43742,121.38167,1.8342224e-08
A2N290,臺南蘭花園區,2025-03-26,23.340258,120.379661,1.2269178e-09
C0R560,新園,2025-03-26,22.5434,120.461558,6.9965495e-08
C0U890,三星,2025-03-26,24.66812,121.65302,8.371671e-07
C1V300,御油山,2025-03-26,23.001983,120.715364,1.4890208e-08
C0U600,礁溪,2025-03-26,24.817539,121.765608,4.1998446e-06
C1T980,龍澗,2025-03-26,24.023289,121.411328,3.72687e-08
C0D670,海天一線,2025-03-26,24.831986,120.914438,1.0762412e-08
C0SA00,歷坵,2025-03-26,22.520969,120.89185,9.652997e-09
C0M710,東石,2025-03-26,23.458927,120.15385,3.4648169e-09
C0M780,鹿草,2025-03-26,23.41134,120.30835,1.595716e-09
C0U520,雙連埤,2025-03-26,24.753033,121.641303,1.4769316e-08
C0B010,七堵,2025-03-26,25.094819,121.71713,0.9498442
C0R480,長治,2025-03-26,22.693128,120.542622,8.4765295e-10
C1V830,國三S383K,2025-03-26,22.781967,120.426475,1.0025049e-09
12Q980,恆春工作站,2025-03-26,22.079678,120.714425,0.9999907
C1O940,東山服務區,2025-03-26,23.286016,120.398472,1.3773365e-09
C1U840,東澳嶺,2025-03-26,24.5378,121.8485,1.2766063e-08
C1D630,飛鳳山,2025-03-26,24.766464,121.119178,3.0057542e-08
C0S940,石寧山,2025-03-26,23.223772,121.406639,7.52722e-08
C0K410,北港,2025-03-26,23.573957,120.292802,3.0815543e-09
C2M620,瑞里,2025-03-26,23.545133,120.675197,6.8077095e-09
C0SB70,小港漁港,2025-03-26,23.158558,121.400431,1.9865728e-07
C2O950,安南,2025-03-26,23.076694,120.144861,4.8695026e-09
C0F0E0,南湖圈谷,2025-03-26,24.363714,121.444667,6.5897716e-08
467610,成功,2025-03-26,23.097486,121.373428,1.354379e-07
C0G890,伸港,2025-03-26,24.148933,120.484403,0.98831874
C2E540,龍溪,2025-03-26,24.606489,120.783933,0.52981806
C1V200,梅山,2025-03-26,23.268447,120.823556,5.1857145e-09
C0T9H0,加路蘭山,2025-03-26,23.682947,121.5274,3.2438887e-08
C2O930,玉井,2025-03-26,23.126042,120.46055,1.6041812e-09
C1F911,新伯公,2025-03-26,24.221361,120.841069,3.2684189e-09
C0R490,九如,2025-03-26,22.7405,120.490503,1.0070046e-09
C0X200,左鎮,2025-03-26,23.056758,120.408522,1.1302281e-07
C0SB50,叭嗡嗡,2025-03-26,23.047062,121.343223,1.1391273e-07
C1F891,稍來,2025-03-26,24.265689,121.001142,2.9616668e-08
72N240,七股研究中心,2025-03-26,23.081672,120.062894,2.9356204e-09
C0C700,中壢,2025-03-26,24.977661,121.256375,0.02628478
C0M690,水上,2025-03-26,23.419734,120.388909,1.3766746e-09
C0V690,鼓山,2025-03-26,22.623325,120.275575,2.3704347e-07
C0O860,大內,2025-03-26,23.11885,120.36083,3.387131e-09
C0Z200,萬榮,2025-03-26,23.709219,121.420106,3.009047e-08
C0T9D0,和中,2025-03-26,24.26676,121.74103,1.7858165e-08
C1O921,楠西,2025-03-26,23.183511,120.484083,1.4675043e-09
C0AJ30,淡水觀海,2025-03-26,25.184591,121.408616,0.9755403
C0V810,左營,2025-03-26,22.67491,120.28491,3.1844553e-07
C0UA70,桃源谷,2025-03-26,24.962606,121.888875,1.7300344e-08
C0X130,官田,2025-03-26,23.193217,120.315422,1.4990708e-09
C1H000,翠峰,2025-03-26,24.109397,121.205211,3.2046717e-08
C0UA90,石城,2025-03-26,24.980444,121.951214,4.6087202e-06
C1E681,南勢山,2025-03-26,24.421669,120.923831,1.55596e-08
C0A9F0,內湖,2025-03-26,25.079422,121.57545,0.94919556
C0K291,宜梧,2025-03-26,23.536281,120.169329,4.1899746e-09
C1K540,口湖,2025-03-26,23.585344,120.180517,6.423037e-09
C0R780,滿州,2025-03-26,22.024403,120.839892,0.9999944
C0V870,文安,2025-03-26,22.8025,120.2164,4.4957503e-07
C0U650,玉蘭,2025-03-26,24.675286,121.587061,1.263513e-08
C0R640,東港,2025-03-26,22.46247,120.44074,8.835717e-08
K2E360,苗栗農改,2025-03-26,24.495722,120.829111,9.03511e-08
C0AJ80,板橋,2025-03-26,25.0107,121.4489,0.93335134
C0S660,下馬,2025-03-26,23.150427,121.070312,2.865628e-08
C1H9B1,阿眉,2025-03-26,24.1263,120.994672,2.5136538e-08
C0UA20,多加屯,2025-03-26,24.368614,121.373189,4.3383608e-08
C0E730,頭份,2025-03-26,24.688247,120.912206,9.064627e-08
72V140,高改旗南分場,2025-03-26,22.857861,120.516667,8.9967367e-10
C0K480,莿桐,2025-03-26,23.761192,120.502372,9.960456e-10
C0U980,坪林石牌,2025-03-26,24.86478,121.77396,1.647539e-08
C0T900,西林,2025-03-26,23.8119,121.441458,2.5650701e-08
C1I150,青雲,2025-03-26,23.793361,120.949378,2.088284e-09
467350,澎湖,2025-03-26,23.565503,119.563094,0.99999595
C0G800,埔鹽,2025-03-26,24.000394,120.431683,1.1098039e-07
C0H960,草屯,2025-03-26,23.973672,120.68085,0.05261296
C1V780,多納林道,2025-03-26,22.888028,120.737917,6.0638476e-09
C0E920,通霄漁港,2025-03-26,24.498589,120.673876,0.9957801
C0Z330,安通山,2025-03-26,23.290728,121.348528,3.8292622e-08
C0AH10,永和,2025-03-26,25.01125,121.508111,0.93569154
C0AK10,太平里,2025-03-26,25.134937,121.364899,0.9543324
C2G640,鹿港,2025-03-26,24.0753,120.430481,1.5601135e-07
C1E890,國三N149K,2025-03-26,24.463414,120.680019,2.9008982e-06
C1R110,口社,2025-03-26,22.770111,120.645222,7.930284e-10
C1M870,國三N285K,2025-03-26,23.550319,120.505833,1.4660412e-09
467050,新屋,2025-03-26,25.006744,121.047486,1.8946115e-05
C1E480,鳳美,2025-03-26,24.554803,121.034747,2.6960883e-08
C0M530,奮起湖,2025-03-26,23.493903,120.699253,7.772914e-09
C0C590,觀音,2025-03-26,25.027072,121.153317,0.1591407
C0T9M0,靜浦,2025-03-26,23.455167,121.495028,4.4220798e-08
C2H9M0,發祥,2025-03-26,24.154094,121.164517,9.83843e-09
C0AI40,石牌,2025-03-26,25.115597,121.513139,0.97804594
C1F871,上谷關,2025-03-26,24.203483,121.018644,5.335173e-09
C2H9G0,百勝,2025-03-26,24.051142,120.909361,3.83325e-09
C0G880,二水,2025-03-26,23.810742,120.6173,1.0566349e-09
C0R940,加祿堂,2025-03-26,22.3363,120.6217,6.085784e-08
C0W220,北竿,2025-03-26,26.220358,119.974881,1.6388448e-08
C0O960,崎頂,2025-03-26,22.959547,120.369317,4.077035e-09
C0S750,向陽,2025-03-26,23.248397,120.986133,2.3375106e-08
C0T9F0,水璉,2025-03-26,23.797131,121.542514,2.4522611e-08
C1M600,頭凍,2025-03-26,23.406364,120.603339,4.5154835e-09
467660,臺東,2025-03-26,22.752211,121.154586,9.271468e-08
C1D380,新埔,2025-03-26,24.84745,121.03834,2.0675576e-07
C2G980,田頭村,2025-03-26,23.8263,120.444175,1.1788378e-09
C0V750,路竹,2025-03-26,22.854997,120.259439,3.781075e-07
C0N050,蚵寮,2025-03-26,23.301,120.1104,1.6619109e-09
72M700,南改鹿草分場,2025-03-26,23.416869,120.283061,1.6132329e-09
C1SA50,利嘉林道,2025-03-26,22.82325,121.009389,7.3099056e-09
467550,玉山,2025-03-26,23.487614,120.959522,5.6334997e-08
C0A940,金山,2025-03-26,25.223628,121.643967,0.9568718
C1V340,大津,2025-03-26,22.888322,120.645986,1.0192384e-09
C0W180,七美,2025-03-26,23.219333,119.444892,0.99999565
C1F9C1,白冷,2025-03-26,24.182844,120.929889,4.23471e-09
K2E710,苗改生物防治研究中心,2025-03-26,24.422861,120.871833,1.5815687e-07
C0N040,蘆竹溝,2025-03-26,23.2344,120.0961,1.8999868e-09
C2W230,畜試所澎湖,2025-03-26,23.628342,119.513206,0.9999946
C0R880,後壁湖,2025-03-26,21.9457,120.7457,0.9999913
C1I280,埔中,2025-03-26,23.820778,120.642594,1.9738844e-09
467790,墾丁雷達站,2025-03-26,21.948235,120.808028,0.99999523
C0W190,望安,2025-03-26,23.380564,119.494075,0.9999964
466881,新北,2025-03-26,24.9593,121.52,0.8792253
C0Z170,卓溪,2025-03-26,23.3443,121.3029,7.921146e-08
C0F850,東勢,2025-03-26,24.246428,120.833047,4.2155377e-09
466900,淡水,2025-03-26,25.164889,121.448906,0.95414066
C0I370,魚池,2025-03-26,23.895703,120.94135,2.7459661e-09
C0C630,大溪,2025-03-26,24.882853,121.265547,0.0054115946
C0A520,山佳,2025-03-26,24.974944,121.402008,0.92938584
C0I110,竹山,2025-03-26,23.761225,120.688156,1.170367e-09
82H840,茶改南部分場,2025-03-26,23.762528,120.7405,1.7756872e-09
C0G660,溪湖,2025-03-26,23.94835,120.479122,2.8081066e-08
C1T800,洛韶,2025-03-26,24.204558,121.453956,2.2086995e-08
C1T810,慈恩,2025-03-26,24.192044,121.388386,2.3174627e-08
C1E451,象鼻,2025-03-26,24.368617,120.940228,1.4816746e-08
C0AC60,三峽,2025-03-26,24.939025,121.369728,0.47734618
C0I490,萬大林道,2025-03-26,23.928228,121.091411,1.3990884e-08
C1I290,豐丘,2025-03-26,23.668178,120.887417,6.8521837e-09
C1I320,奧萬大,2025-03-26,23.952956,121.178556,7.452133e-09
C2M910,嘉義大學,2025-03-26,23.471325,120.485903,1.9028228e-09
C0U770,南澳,2025-03-26,24.44935,121.81022,2.5893533e-08
C0A980,社子,2025-03-26,25.109508,121.469681,0.9643342
C0V800,六龜,2025-03-26,22.997889,120.633583,1.013046e-09
C1G9D0,國一S218K,2025-03-26,23.890641,120.493253,2.4187086e-08
C0E570,白沙屯,2025-03-26,24.549447,120.696803,0.40361148
C2F9A0,中竹林,2025-03-26,24.103556,120.751061,2.1712108e-09
C0FA40,臺中電廠,2025-03-26,24.2146,120.4907,0.9917234
C2G9A0,畜試所彰化,2025-03-26,23.86045,120.557964,1.2376993e-09
C0H9C0,合歡山,2025-03-26,24.143442,121.272547,5.9329135e-08
C0X060,下營,2025-03-26,23.22695,120.256261,1.4109891e-09
G2M350,農試溪口農場,2025-03-26,23.58565,120.408111,4.8610582e-09
C0U860,頭城,2025-03-26,24.85323,121.8308,6.794721e-06
C0R580,南州,2025-03-26,22.48591,120.50274,8.835717e-08
C0D430,峨眉,2025-03-26,24.6905,121.017189,2.182918e-07
C0G780,秀水,2025-03-26,24.03405,120.503869,2.5196972e-08
72N100,臺南農改場,2025-03-26,23.0605,120.342194,3.3487109e-09
C0S900,蘭嶼高中,2025-03-26,22.04909,121.51214,0.9998621
467540,大武,2025-03-26,22.355675,120.903789,1.8355178e-07
C1F9W0,德基,2025-03-26,24.254783,121.190261,2.32569e-08
C1Z120,壽豐,2025-03-26,23.870853,121.508081,3.185494e-08
C0W160,烏坵,2025-03-26,24.9944,119.44956,0.00012022025
C1I240,外大坪,2025-03-26,23.958697,120.917931,3.4444891e-09
C1I550,國六W023K,2025-03-26,23.979067,120.867742,1.7749219e-09
C0R870,興海,2025-03-26,21.9752,120.8439,0.9999944
C0R140,瑪家,2025-03-26,22.682903,120.686639,4.9264894e-09
C0A530,坪林,2025-03-26,24.938183,121.70975,2.0366681e-07
C0X260,後壁,2025-03-26,23.366358,120.362326,1.1885936e-09
C0Z230,和平,2025-03-26,24.30717,121.77007,1.8030011e-08
C0G770,福興,2025-03-26,24.041289,120.437669,1.1405111e-07
C0H9A0,神木村,2025-03-26,23.532742,120.843667,1.8162966e-08
C0I460,南投,2025-03-26,23.911469,120.687331,0.04255122
C0I480,梅峰,2025-03-26,24.085272,121.173572,2.723933e-08
C1V570,吉東,2025-03-26,22.85422,120.5454,9.0973545e-10
C2D740,屯原,2025-03-26,24.067969,121.209389,2.6190262e-08
C2A560,福山,2025-03-26,24.776203,121.502811,1.5112843e-08
C0AH30,五分山,2025-03-26,25.07125,121.780794,1.5713882e-08
C0FA10,松柏,2025-03-26,24.429115,120.617482,0.99701226
72S200,東改班鳩分場,2025-03-26,22.829528,121.077694,3.7251997e-08
72HA00,中改埔里分場,2025-03-26,23.903208,120.963364,2.817365e-09
C2H9W0,大坪頂農水,2025-03-26,24.043122,120.932781,3.4215517e-09
C0C650,平鎮,2025-03-26,24.897503,121.214636,0.0020964725
C0S930,延平,2025-03-26,22.902581,121.084058,4.333804e-08
C0UA60,樟樹山,2025-03-26,24.41393,121.78325,1.5338252e-08
C1S670,摩天,2025-03-26,23.199503,121.027,3.119183e-08
C0V630,茄萣,2025-03-26,22.906642,120.182608,4.959998e-09
466940,基隆,2025-03-26,25.133314,121.740475,0.9775477
C0X050,東河,2025-03-26,23.296598,120.385608,1.4083326e-09
C0R770,保力,2025-03-26,22.071122,120.764111,0.9999931
G2L020,農試嘉義分所,2025-03-26,23.485028,120.473806,1.4466031e-09
C0X240,關子嶺,2025-03-26,23.331169,120.508025,1.7407444e-09
C0I380,集集,2025-03-26,23.828206,120.801467,8.923642e-10
466990,花蓮,2025-03-26,23.975128,121.613275,3.5751924e-08
C1V220,小關山,2025-03-26,23.154217,120.813603,1.7299024e-08
C1F9G1,慶福山,2025-03-26,24.180853,120.848378,5.9462106e-09
C0Z250,瑞穗林道,2025-03-26,23.49284,121.30688,1.1384688e-08
C0D590,新豐,2025-03-26,24.87068,120.97721,1.2203479e-07
C0A870,五指山,2025-03-26,25.132153,121.608692,1.8083014e-08
C0UA50,西帽山,2025-03-26,24.555361,121.802628,1.3293329e-08
C0X160,仁德,2025-03-26,22.968258,120.257689,4.1120694e-09
C1H971,六分寮,2025-03-26,23.92507,120.6378,2.297235e-09
C0W120,西嶼,2025-03-26,23.5626,119.468436,0.9999961
C0G650,員林,2025-03-26,23.946503,120.585597,1.6081493e-08
C0AD50,鶯歌,2025-03-26,24.951533,121.346294,0.31107086
C2H9Q0,北東眼山,2025-03-26,24.120939,121.189303,2.9730145e-08
C2H9T0,名間竹圍,2025-03-26,23.859914,120.637572,1.0414067e-09
C0S990,山豬窟,2025-03-26,22.318619,120.857372,7.588323e-09
72Q010,高雄農改,2025-03-26,22.709333,120.525889,4.982337e-09
C0X190,安平,2025-03-26,22.993161,120.152181,3.6971528e-09
C0K400,斗六,2025-03-26,23.720583,120.541127,9.830322e-10
12J990,口湖工作站,2025-03-26,23.589978,120.180394,6.4190817e-09
C0O830,北寮,2025-03-26,23.079561,120.495008,8.8539276e-10
C1D410,白蘭,2025-03-26,24.579364,121.079947,1.2265838e-08
C0S970,加津林,2025-03-26,22.416211,120.926942,1.04326805e-08
C0D700,關西,2025-03-26,24.7977,121.1732,0.0011043509
C0M810,里佳,2025-03-26,23.389125,120.716647,7.619955e-09
C0U750,龜山島,2025-03-26,24.841667,121.953133,3.7527272e-08
C0R810,內獅,2025-03-26,22.305064,120.642986,6.13719e-08
C1M390,龍美,2025-03-26,23.406728,120.654417,5.6664295e-09
C2FB60,頭櫃山,2025-03-26,24.129842,120.858925,6.4371046e-09
C1H840,國三N238K,2025-03-26,23.841008,120.707711,9.541878e-10
CAQ030,崎峰國小,2025-03-26,22.42565,120.49521,8.835717e-08
C2E520,大湖,2025-03-26,24.414939,120.870872,9.104129e-09
467530,阿里山,2025-03-26,23.508208,120.813242,2.722697e-08
C1E691,南湖,2025-03-26,24.40135,120.837533,1.3056493e-08
C0FA30,梧棲,2025-03-26,24.256003,120.523381,0.9913221
C1V231,高中,2025-03-26,23.134911,120.716711,2.1527946e-09
C0F9V0,新社,2025-03-26,24.200172,120.815806,3.7364196e-09
C0H890,埔里,2025-03-26,23.972169,120.952425,3.3116356e-09
C0R690,墾丁,2025-03-26,21.966756,120.810269,0.99999267
C0F0D0,審馬陣,2025-03-26,24.381675,121.4203,6.475899e-08
C2W030,金門農試所,2025-03-26,24.448431,118.451786,1.0121831e-08
C0R820,白鷺,2025-03-26,22.454275,120.666219,8.195549e-09
U2H480,臺大溪頭,2025-03-26,23.670306,120.798194,6.4322934e-09
C1V190,南天池,2025-03-26,23.27403,120.91176,2.5773502e-08
K2E360,苗栗農改場,2025-03-26,24.495722,120.829111,3.9744694e-07
CAJ050,海口故事園區,2025-03-26,23.57543,120.14121,6.4179186e-09
C2H9D0,三隻寮,2025-03-26,24.093078,120.861578,3.5198495e-09
C0O990,媽廟,2025-03-26,22.99175,120.293525,3.934901e-09
C0D480,打鐵坑,2025-03-26,24.849664,121.150789,9.622191e-08
C0Z220,和平林道,2025-03-26,24.343922,121.656317,1.7008233e-08
C0TA10,花蓮漁港,2025-03-26,23.995322,121.638331,3.5833438e-08
72C440,桃園農改場,2025-03-26,24.950944,121.030583,0.4370553
C1E711,馬拉邦山,2025-03-26,24.367306,120.901656,9.800971e-09
C0SB20,富岡,2025-03-26,22.792467,121.192669,1.00774514e-07
C0D560,竹東,2025-03-26,24.767147,121.057881,7.456601e-08
C0F9U0,南屯,2025-03-26,24.137006,120.637969,2.6055933e-08
C0M720,番路,2025-03-26,23.464657,120.554156,1.6517007e-09
C0F0A0,雪山圈谷,2025-03-26,24.388594,121.236339,7.52026e-08
C1A9N0,四十份,2025-03-26,24.934158,121.593283,1.7248778e-08
C0U760,東澳,2025-03-26,24.52196,121.83318,2.3253351e-08
C0X230,鹽水,2025-03-26,23.272621,120.247641,1.6355401e-09
C2H9H0,苗改南投蜂場,2025-03-26,23.852589,120.693481,1.1791504e-09
C0R950,萬隆國小,2025-03-26,22.507667,120.587817,4.547977e-08
467540,大武,2025-03-26,22.35572,120.90374,1.087983e-08
C0V370,古亭坑,2025-03-26,22.893178,120.401947,7.9519666e-08
C1I340,新興橋,2025-03-26,23.563333,120.868728,3.869384e-09
C0SA80,土坂,2025-03-26,22.453108,120.887572,9.566594e-09
C0R160,鹽埔,2025-03-26,22.739558,120.530778,1.0067703e-09
C0AC40,大屯山,2025-03-26,25.175675,121.522408,2.6600214e-08
466850,五分山雷達站,2025-03-26,25.071182,121.781205,1.5962282e-08
C2H9L0,馬烈霸,2025-03-26,24.1512,121.201772,2.6320466e-08
C1AI50,國三N016K,2025-03-26,25.034164,121.619664,0.9140236
C1V600,藤枝,2025-03-26,23.071961,120.757042,1.9732907e-08
C1E601,南勢,2025-03-26,24.572486,120.734842,6.788937e-08
C0Z180,新城,2025-03-26,24.03946,121.60454,3.465625e-08
C0O980,新市,2025-03-26,23.061614,120.298197,3.656994e-09
C0K420,西螺,2025-03-26,23.800407,120.467394,1.180334e-09
C0Z050,佳心,2025-03-26,23.34567,121.21316,3.553404e-08
C0AD30,蘆洲,2025-03-26,25.086594,121.472331,0.9524466
C0V610,梓官,2025-03-26,22.760558,120.267211,2.2989265e-07
K2F750,種苗改良場,2025-03-26,24.225972,120.800917,3.467514e-09
C0UA80,大溪漁港,2025-03-26,24.941801,121.902955,5.6581935e-06
C1AI60,國一39K邊坡,2025-03-26,25.064361,121.383836,2.522747e-07
C0W150,金寧,2025-03-26,24.457703,118.328989,1.0034274e-08
C0R960,內埔,2025-03-26,22.608483,120.570714,6.0246876e-08
V2C250,八德合作社,2025-03-26,24.93775,121.266389,0.024821592
C2H9S0,龍南,2025-03-26,23.953536,120.833183,5.6601324e-09
C0AH40,平等,2025-03-26,25.129142,121.577086,1.531066e-08
C0R540,佳冬,2025-03-26,22.419456,120.552375,7.0571964e-08
466950,彭佳嶼,2025-03-26,25.627975,122.079744,0.99999297
C0A890,雙溪,2025-03-26,25.036003,121.864242,0.95525074
C0C480,桃園,2025-03-26,24.992425,121.323172,0.06470713
C0AH50,林口,2025-03-26,25.072181,121.38084,1.9502905e-07
A2K360,水試臺西試驗場,2025-03-26,23.717231,120.190522,4.0069157e-05
B2N890,畜試所,2025-03-26,23.058972,120.336406,0.00019565492
C2M960,外寮,2025-03-26,23.562643,120.665688,4.9906688e-09
C0F9S0,烏日,2025-03-26,24.107058,120.624103,2.3559382e-08
C0C490,八德,2025-03-26,24.928708,121.283289,0.023664718
C0R190,赤山,2025-03-26,22.592333,120.614306,5.8508e-08
C0T820,天祥,2025-03-26,24.179597,121.495639,1.9627016e-08
C1F9E1,龍安,2025-03-26,24.1605,120.831961,4.4727364e-09
C0V820,小林,2025-03-26,23.148408,120.63325,1.4862224e-09
C2G870,芳苑,2025-03-26,23.922303,120.320025,1.5928986e-06
C0E850,大河,2025-03-26,24.618069,120.948578,5.279772e-08
C1U670,寒溪,2025-03-26,24.634,121.71691,6.680376e-07
C0N020,城西,2025-03-26,23.0568,120.0956,2.0934645e-09
C1Z110,三棧,2025-03-26,24.11557,121.60501,3.143701e-08
C0R280,檳榔,2025-03-26,22.076078,120.836777,0.9999825
C2H9J0,中台,2025-03-26,23.9996,120.938739,2.8384006e-09
C0F9L0,后里,2025-03-26,24.310436,120.729725,2.2649524e-09
467441,高雄,2025-03-26,22.730432,120.312516,2.020807e-07
C0D540,橫山,2025-03-26,24.71116,121.11693,7.173816e-08
C1D420,太閣南,2025-03-26,24.632808,121.160575,3.2012018e-08
C1E770,公館,2025-03-26,24.526914,120.830806,9.28936e-07
CAN130,水試所海水繁養殖中心,2025-03-26,23.120802,120.07968,2.8718532e-09
C1I430,翠華,2025-03-26,24.191961,121.224339,3.349626e-08
C1M400,菜瓜坪,2025-03-26,23.251928,120.576103,1.5756431e-09
C0G730,二林,2025-03-26,23.903325,120.376081,1.7430354e-07
72M360,南改義竹分場,2025-03-26,23.360694,120.279361,1.4158632e-09
V2K620,麥寮合作社,2025-03-26,23.753836,120.294783,3.7872348e-06
C0Z070,舞鶴,2025-03-26,23.46811,121.37407,3.5165566e-08
C0B040,大武崙,2025-03-26,25.166676,121.706993,0.9581999
C1Z030,紅葉,2025-03-26,23.493119,121.338806,3.7037328e-08
C1I050,丹大,2025-03-26,23.753747,121.141147,2.5677036e-08
C0I080,信義,2025-03-26,23.689694,120.851036,2.3963036e-09
C2M920,朴子農改,2025-03-26,23.469889,120.259383,1.6420542e-09
C2A880,福隆,2025-03-26,25.017842,121.942083,5.7091984e-06
C0Z160,鳳林,2025-03-26,23.746114,121.453411,3.104286e-08
C0V210,復興,2025-03-26,23.222403,120.806089,2.0287185e-09
C0H990,昆陽,2025-03-26,24.121322,121.273642,4.586332e-08
C0R741,獅子,2025-03-26,22.202308,120.705236,3.2032602e-08
C0S710,鹿野,2025-03-26,22.917711,121.122994,3.4235967e-08
C0I530,小奇萊,2025-03-26,24.131764,121.295717,4.747476e-08
C2K630,荷苞,2025-03-26,23.657717,120.595144,1.2323849e-09
C0Z080,富源,2025-03-26,23.587642,121.378225,3.9749658e-08
467441,高雄,2025-03-26,22.7304,120.3125,0.9986838
C0SB10,美和,2025-03-26,22.682078,121.060236,1.1556776e-07
C2K620,馬光農場,2025-03-26,23.721453,120.378864,1.3209536e-09
C1I140,卡奈托灣,2025-03-26,23.754364,121.087872,1.3677921e-08
C0I520,玉山風口,2025-03-26,23.470489,120.955994,5.804416e-08
C1G691,下水埔,2025-03-26,23.816114,120.5676,1.002025e-09
C0X110,臺南市南區,2025-03-26,22.961189,120.188378,4.1051575e-09
C0V680,仁武,2025-03-26,22.701083,120.347722,3.067228e-07
C2G840,北斗,2025-03-26,23.877586,120.514222,2.3674293e-08
C0R900,竹坑,2025-03-26,22.1385,120.7022,5.8920676e-08
C0K250,崙背,2025-03-26,23.75555,120.318925,2.89776e-06
C0G860,社頭,2025-03-26,23.897647,120.5862,1.9851935e-08
C0X150,安定,2025-03-26,23.102614,120.227839,3.81356e-09
C0R590,里港,2025-03-26,22.77919,120.49459,9.752482e-10
C0E610,馬都安,2025-03-26,24.451272,120.930192,1.3533119e-08
C0E550,明德,2025-03-26,24.583486,120.885411,4.044214e-07
C0R150,三地門,2025-03-26,22.709889,120.639944,7.8989454e-10
C0G910,花壇,2025-03-26,24.032076,120.549461,2.2034147e-08
C1D400,鳥嘴山,2025-03-26,24.71909,121.28387,1.47012456e-08
C0K500,元長,2025-03-26,23.64981,120.315024,2.775985e-06
C0F0B0,石岡,2025-03-26,24.276061,120.777644,2.4239215e-09
C2V250,甲仙,2025-03-26,23.080106,120.591758,1.0790691e-09
C0SA20,金崙山,2025-03-26,22.567419,120.959667,3.086238e-08
C0V350,溪埔,2025-03-26,22.738578,120.446797,9.140402e-10
C0M660,溪口,2025-03-26,23.604131,120.403569,4.8600106e-09
C1S880,壽卡,2025-03-26,22.238911,120.858903,7.619781e-09
72D680,桃改新埔分場,2025-03-26,24.834444,121.066111,2.2146966e-07
