站號,站名,日期,lat,lon,BLBTSLS
K2F750,種苗繁殖,2025-02-25,24.225972,120.800917,5.1565563e-10
C0R170,屏東,2025-02-25,22.660269,120.494072,1.4652955e-08
467990,馬祖,2025-02-25,26.169269,119.923419,1.8666395e-07
C2E540,後龍,2025-02-25,24.606489,120.783933,7.067467e-10
467300,東吉島,2025-02-25,23.25695,119.667467,0.9296959
G2F820,農業試驗所,2025-02-25,24.031261,120.688133,6.676466e-10
467410,臺南,2025-02-25,22.993239,120.204772,1.5273666e-09
C0V310,美濃,2025-02-25,22.898742,120.519153,3.7034934e-07
E2S960,林試太麻里2,2025-02-25,22.598014,120.989761,2.592689e-08
72C440,桃園農改,2025-02-25,24.950944,121.030583,1.6115459e-06
C1H860,瑞岩,2025-02-25,24.123772,121.18345,5.966e-09
72G600,臺中農改,2025-02-25,24.003028,120.534389,5.350447e-10
72N100,臺南農改,2025-02-25,23.0605,120.342194,7.7669965e-10
72T250,花蓮農改,2025-02-25,23.975222,121.563889,1.37832e-08
467620,蘭嶼,2025-02-25,22.036969,121.558339,0.9998967
K2E360,苗栗農改,2025-02-25,24.495722,120.829111,7.4961654e-10
467050,新屋,2025-02-25,25.006744,121.047486,9.522603e-05
467550,玉山,2025-02-25,23.487614,120.959522,3.634598e-08
466881,新北,2025-02-25,24.9593,121.52,3.9065347e-07
467540,大武,2025-02-25,22.355675,120.903789,0.00050060236
72Q010,高雄農改,2025-02-25,22.709333,120.525889,3.8515408e-10
U2H480,臺大溪頭,2025-02-25,23.670306,120.798194,2.879642e-09
C0Z180,新城,2025-02-25,24.03946,121.60454,1.4070821e-08
B2N890,畜試所,2025-02-25,23.058972,120.336406,7.7669965e-10
467441,高雄,2025-02-25,22.7304,120.3125,8.2591456e-10
