站號,站名,日期,lat,lon,BLBTSLS
C0R710,龍磐,2025-12-13,21.931672,120.838942,0.099733874
C1F9D1,白毛台,2025-12-13,24.158325,120.886933,3.6692682e-10
C0G940,竹塘,2025-12-13,23.848253,120.386764,0.0045341323
467590,恆春,2025-12-13,22.003897,120.746339,0.9836359
C1O850,環湖,2025-12-13,23.148617,120.418633,1.0880676e-09
C0U710,太平山,2025-12-13,24.505486,121.525656,1.698635e-08
C0E820,獅潭,2025-12-13,24.539133,120.920042,3.9309378e-10
C2SD70,二層坪,2025-12-13,22.94105,121.16838,7.2329565e-10
C0V880,興達,2025-12-13,22.8778,120.2127,0.00012531027
C0S890,關山,2025-12-13,23.0395,121.175017,6.589979e-10
C0SB30,新蘭,2025-12-13,22.869214,121.223228,3.935969e-07
C2R970,屏科大,2025-12-13,22.648275,120.619247,5.527837e-08
C1Z130,銅門,2025-12-13,23.965694,121.492842,1.4701014e-09
C0AD40,土城,2025-12-13,24.973208,121.445169,5.1706917e-05
CAN140,六官養殖協會,2025-12-13,23.22881,120.29962,3.1177906e-06
C0X180,山上,2025-12-13,23.0757,120.363253,1.809502e-08
C0F9Z0,雪山東峰,2025-12-13,24.388792,121.268675,1.2402213e-08
C1M480,獨立山,2025-12-13,23.537022,120.607797,9.644361e-10
C0X220,學甲,2025-12-13,23.230367,120.182187,0.0016158497
467650,日月潭,2025-12-13,23.881325,120.90805,6.7104e-10
A2K570,古坑(花卉中心),2025-12-13,23.633531,120.552392,3.1371414e-06
C0K600,箔子寮,2025-12-13,23.6197,120.14,0.13791355
C0G830,埤頭,2025-12-13,23.866003,120.452806,2.4600362e-07
C0S950,七塊厝,2025-12-13,22.954453,121.229922,6.6698475e-10
467110,金門,2025-12-13,24.407306,118.289281,0.9628613
C0AH80,深坑,2025-12-13,25.002703,121.628328,5.6965264e-06
C0A970,三貂角,2025-12-13,25.007606,122.002058,7.2193425e-09
C2D730,寶山農場,2025-12-13,24.732444,120.976153,2.269186e-06
C0K430,褒忠,2025-12-13,23.690938,120.303634,1.0194078e-05
467480,嘉義,2025-12-13,23.495925,120.432906,9.696671e-05
C0V400,阿公店,2025-12-13,22.804194,120.355528,3.3921546e-09
C0E960,觀霧分站,2025-12-13,24.505781,121.113921,5.9280354e-09
467550,玉山,2025-12-13,23.48718,120.95943,2.1433966e-08
C0R440,大漢山,2025-12-13,22.405264,120.753181,1.4913743e-08
C0SD30,東清國小,2025-12-13,22.057128,121.564922,0.9993648
C1F9B1,桐林,2025-12-13,24.066172,120.735194,2.5518457e-08
C2H9U0,鳳鵬,2025-12-13,23.763919,120.788061,5.57746e-10
C0K390,土庫,2025-12-13,23.679029,120.395574,1.2365081e-06
C1I450,望鄉山,2025-12-13,23.594153,120.944286,9.8225295e-09
C0E910,海埔,2025-12-13,24.648767,120.772435,0.567614
B2E890,畜試北區分所,2025-12-13,24.527806,120.770972,2.0159828e-08
C0R750,四林格山,2025-12-13,22.076989,120.802439,0.034054823
C0F0C0,中坑,2025-12-13,24.248517,120.903319,7.456338e-10
C1I121,大鞍,2025-12-13,23.678381,120.760017,2.1081619e-09
C2G9E0,移民庄,2025-12-13,23.9784,120.40283,0.007837618
72U480,花改蘭陽分場,2025-12-13,24.686306,121.716583,1.173774e-09
C0A770,科教館,2025-12-13,25.096356,121.516507,1.0785582e-06
C0AJ60,六塊厝,2025-12-13,25.24,121.4481,0.17160885
C0R620,墾雷,2025-12-13,21.900836,120.855269,0.106205456
467420,永康,2025-12-13,23.038386,120.2367,7.23829e-07
C2M530,奮起湖,2025-12-13,23.493903,120.699253,1.3661332e-09
C0I410,名間,2025-12-13,23.837053,120.701447,9.971975e-10
A2C560,農工中心,2025-12-13,24.985917,121.239833,0.0520606
C0V740,旗山,2025-12-13,22.888614,120.483597,5.69674e-09
C0Z061,玉里,2025-12-13,23.3215,121.339656,1.0204346e-09
C0S840,南田,2025-12-13,22.279725,120.889208,0.38631016
C1I470,杉林溪,2025-12-13,23.639517,120.786444,3.1143899e-09
C1X040,東原,2025-12-13,23.291597,120.463822,3.0630823e-10
C0R660,枋寮,2025-12-13,22.367722,120.590647,2.5343594e-08
C1R120,上德文,2025-12-13,22.763272,120.704442,5.346254e-10
C0K450,大埤,2025-12-13,23.646074,120.431537,0.0020942888
C0UA00,土場,2025-12-13,24.576533,121.495333,1.1684582e-08
467080,宜蘭,2025-12-13,24.763975,121.756528,7.4246054e-10
C0N030,四草,2025-12-13,23.0235,120.1116,0.07513504
467410,臺南,2025-12-13,22.99328,120.20492,0.01681013
C0V650,彌陀,2025-12-13,22.783806,120.246361,0.016641904
C0D660,新竹市東區,2025-12-13,24.798681,120.986942,0.10572218
82S580,茶改東部分場,2025-12-13,22.907694,121.130139,5.7091296e-09
C0SB40,興隆,2025-12-13,22.913661,121.257469,0.840571
467050,新屋,2025-12-13,25.006725,121.047492,0.99982446
C0C710,大溪永福,2025-12-13,24.892936,121.324975,2.6024875e-07
C0FA20,溫寮,2025-12-13,24.372177,120.583125,0.0024736242
C0V640,湖內,2025-12-13,22.887139,120.2445,0.00012531027
C0R910,下寮,2025-12-13,22.3929,120.5548,6.709422e-06
C0Z020,明里,2025-12-13,23.208717,121.262342,1.1226259e-09
C0M770,嘉義梅山,2025-12-13,23.585398,120.555587,1.2718891e-05
C0C660,楊梅,2025-12-13,24.912375,121.143047,0.097566195
C0SD40,牛頭山,2025-12-13,22.676661,121.506944,0.002579979
C1E511,新開,2025-12-13,24.347703,120.827019,3.7893047e-10
G2F820,農試所(霧峰),2025-12-13,24.031261,120.688133,1.295619e-07
C2M990,大巃頂,2025-12-13,23.5547,120.61439,7.721384e-10
C1I070,和社,2025-12-13,23.591131,120.888861,4.7953225e-10
C2E990,新坪頂,2025-12-13,24.30201,120.8574,7.8580564e-10
C0TA80,立霧山,2025-12-13,24.183258,121.641899,1.123044e-08
C2F000,大肚,2025-12-13,24.15295,120.572117,3.736313e-09
C1S850,豐南,2025-12-13,23.122139,121.262389,7.333027e-10
C2M9B0,西興,2025-12-13,23.2428,120.57617,4.258943e-10
C2A920,富貴角,2025-12-13,25.263783,121.565258,0.516588
CAH030,茶改場竹圍站,2025-12-13,23.860083,120.637528,4.6660126e-10
C0T960,光復,2025-12-13,23.660694,121.424964,1.487385e-09
C0F9M0,豐原,2025-12-13,24.254322,120.720692,9.738856e-10
C0R720,旭海,2025-12-13,22.205403,120.887614,0.9956965
C0V710,苓雅,2025-12-13,22.622742,120.330669,6.8970627e-07
C0C740,觀音工業區,2025-12-13,25.064764,121.114856,0.9996942
CAC040,拉拉山,2025-12-13,24.699317,121.427133,3.409898e-08
C0V790,萬山,2025-12-13,22.905944,120.688056,7.0718903e-10
U2HA30,臺大和社,2025-12-13,23.590856,120.888864,4.7953225e-10
C2H9K0,屯原,2025-12-13,24.067969,121.209389,3.2313636e-09
C0AJ90,澳底,2025-12-13,25.0552,121.9253,1.3804958e-08
C0Z100,東華,2025-12-13,23.89525,121.549833,1.2511596e-09
C0G970,三豐,2025-12-13,23.882,120.2895,0.85942686
V2K610,大庄合作社,2025-12-13,23.8068,120.367939,0.00049045566
C0V900,汕尾,2025-12-13,22.4782,120.4151,2.9950737e-09
C1R630,龍泉,2025-12-13,22.66701,120.59091,5.527837e-08
C1AC50,關渡,2025-12-13,25.133486,121.469331,2.6841417e-07
C0C800,四稜,2025-12-13,24.64733,121.4293,1.8073393e-08
C0F9I0,神岡,2025-12-13,24.272481,120.658314,1.7682719e-09
C0K460,斗南,2025-12-13,23.678734,120.478359,0.0020942888
C2O810,曾文,2025-12-13,23.219681,120.497328,3.4717346e-10
467280,後龍,2025-12-13,24.648563,120.831834,0.28097925
C1F9J1,清水林,2025-12-13,24.071242,120.820419,4.6660925e-10
C2A650,火燒寮,2025-12-13,25.002719,121.742892,2.3846415e-08
466930,竹子湖,2025-12-13,25.162078,121.544547,9.383061e-09
C1I220,樟湖,2025-12-13,23.905333,120.846983,8.1457374e-10
C0I390,仁愛,2025-12-13,24.022122,121.132206,7.100449e-10
C0Z300,東里,2025-12-13,23.26853,121.30547,1.0306137e-09
C1V590,新發,2025-12-13,23.057019,120.646064,6.053098e-10
C0K510,水林,2025-12-13,23.572924,120.24597,5.214831e-06
72S590,東改賓朗果園,2025-12-13,22.813889,121.071278,2.5450584e-07
82A750,茶改北部分場,2025-12-13,24.955778,121.631222,2.3830593e-08
C1A750,石碇服務區,2025-12-13,25.00872,121.646242,6.755146e-07
C0X300,鹿寮,2025-12-13,23.386047,120.477331,1.095122e-08
G2AI50,關渡,2025-12-13,25.11575,121.492,4.7315975e-06
C0K590,雲林東勢,2025-12-13,23.674192,120.255721,2.5403933e-06
C2K310,港尾布雞,2025-12-13,23.74834,120.38439,4.6992508e-07
C0A570,桶後,2025-12-13,24.848222,121.597992,4.6830376e-08
C1S800,華源,2025-12-13,22.657883,121.02325,0.999116
C0G720,溪州,2025-12-13,23.851589,120.499093,2.4600362e-07
C1V160,達卡努瓦,2025-12-13,23.279811,120.705319,9.576977e-10
C2M410,馬頭山,2025-12-13,23.324361,120.582017,3.3276723e-10
C0V850,蚵仔寮,2025-12-13,22.7256,120.2527,0.05087869
C0S740,池上,2025-12-13,23.119628,121.209469,6.6095535e-10
C1V390,尖山,2025-12-13,22.813153,120.367789,3.3921546e-09
C0AH70,松山,2025-12-13,25.04871,121.55042,1.0785582e-06
C0N010,鯤鯓國小,2025-12-13,23.1879,120.0889,0.017285064
C0R550,新埤,2025-12-13,22.467947,120.582894,1.198314e-08
C0SA60,知本（水試所）,2025-12-13,22.702394,121.082761,0.99956286
C0T9I0,豐濱,2025-12-13,23.583897,121.514806,4.9658266e-10
C0UB00,淡江大學蘭陽校園,2025-12-13,24.823239,121.730383,8.221099e-09
C0W240,九宮,2025-12-13,24.423753,118.240186,0.83977276
C0T9N0,富里,2025-12-13,23.171639,121.249378,1.1312732e-09
U2HA50,臺大竹山,2025-12-13,23.756972,120.681556,8.839505e-09
C0V840,鳳鼻頭,2025-12-13,22.5083,120.3591,2.7560039e-09
C0X140,西港,2025-12-13,23.125608,120.203108,8.7530876e-05
72D080,桃改五峰分場,2025-12-13,24.612194,121.157167,1.0490202e-09
C2H9P0,伊拿谷,2025-12-13,23.963211,121.088264,8.2895735e-10
C2K250,崙背,2025-12-13,23.75553,120.31893,1.0194078e-05
C2H9F0,柑林,2025-12-13,24.018658,120.847072,3.7690928e-10
C0TA20,加灣,2025-12-13,24.082025,121.608944,6.5260397e-09
C0V530,阿蓮,2025-12-13,22.883208,120.327508,2.898351e-08
C0FB30,八仙山苗圃,2025-12-13,24.192719,121.001366,7.0086037e-10
C1O880,關山,2025-12-13,23.173397,120.594092,3.078134e-10
C0E791,卓蘭,2025-12-13,24.3126,120.8244,3.6885087e-10
C1I030,武界,2025-12-13,23.913225,121.052483,9.130853e-10
C0R520,崁頂,2025-12-13,22.514781,120.506914,2.2071704e-06
C0R341,牡丹,2025-12-13,22.130036,120.792639,0.99654835
C0R930,萬丹,2025-12-13,22.5885,120.4851,5.9229976e-08
C0S760,紅石,2025-12-13,23.069131,121.126219,1.0810885e-08
C2C410,中央大學,2025-12-13,24.967652,121.185165,0.052060552
C1M610,石磐龍,2025-12-13,23.496606,120.663506,9.774531e-10
C0C790,東眼山,2025-12-13,24.8284,121.40888,1.36880995e-08
C0UA10,鴛鴦湖,2025-12-13,24.590269,121.412228,1.8935697e-08
V2C260,八德蔬果,2025-12-13,24.978508,121.281819,1.6835766e-05
C0R800,丹路,2025-12-13,22.204481,120.750989,0.99102116
C0G920,永靖,2025-12-13,23.924703,120.547533,7.488912e-08
C2M950,太和,2025-12-13,23.538372,120.702961,1.3443403e-09
C1A630,下盆,2025-12-13,24.771003,121.538622,5.0802875e-08
B2N890,畜產試驗所,2025-12-13,23.058972,120.336406,2.666209e-07
C0UA30,白嶺,2025-12-13,24.527819,121.519031,1.3690658e-08
467571,新竹,2025-12-13,24.828575,121.01455,0.99244606
C1V580,溪南(特生中心),2025-12-13,23.084972,120.788475,2.4073579e-09
C1T970,大農,2025-12-13,23.615233,121.413331,1.5395867e-09
C0R650,竹田,2025-12-13,22.58486,120.54344,4.9314417e-07
C1H900,清流,2025-12-13,24.080775,120.962997,5.276777e-10
C1C510,水尾,2025-12-13,24.940081,121.087161,0.9995723
C2N170,茅港尾,2025-12-13,23.2061,120.2624,3.1177906e-06
C0F9X0,大雅(中科園區),2025-12-13,24.21528,120.62445,5.6699e-09
C0SB60,白守蓮,2025-12-13,23.126769,121.401914,9.107672e-09
C0O970,虎頭埤,2025-12-13,23.021375,120.347878,2.486265e-08
C0C730,中大臨海站,2025-12-13,24.966126,121.008581,0.9985167
C0X250,新營,2025-12-13,23.310689,120.316681,1.9228555e-06
C0V700,三民,2025-12-13,22.645017,120.311233,0.9107397
C0U870,大礁溪,2025-12-13,24.791042,121.675047,9.132164e-09
C0E870,高鐵苗栗,2025-12-13,24.60725,120.826094,0.28097925
A2K570,古坑花卉中心,2025-12-13,23.63353,120.55239,1.344566e-05
C0TA30,鹽寮,2025-12-13,23.845606,121.592664,1.2353384e-09
C0M860,新美,2025-12-13,23.338017,120.683169,5.2454785e-10
C1E701,八卦,2025-12-13,24.491756,120.927619,1.0019084e-09
C2TA90,加納納,2025-12-13,23.466421,121.359867,7.5628015e-10
C0I420,國姓,2025-12-13,24.037803,120.855072,3.6965306e-10
C2D720,關西工作站,2025-12-13,24.757275,121.184792,4.768328e-09
C0S960,香蘭,2025-12-13,22.587569,120.993375,6.787263e-09
467620,蘭嶼,2025-12-13,22.0369,121.55843,0.9925007
C0R260,春日,2025-12-13,22.370361,120.628306,6.694998e-09
72G600,臺中農改場,2025-12-13,24.003028,120.534389,9.5814606e-08
C0Z210,瑞穗,2025-12-13,23.5239,121.39021,7.341592e-10
C0M820,達邦,2025-12-13,23.453994,120.749517,8.0705775e-10
C0V860,南寮,2025-12-13,22.7616,120.2339,0.05087869
C0G740,大城,2025-12-13,23.852487,120.320935,0.85942686
C0R920,塭仔,2025-12-13,22.4169,120.5197,6.6685893e-06
C0R470,高樹,2025-12-13,22.826389,120.600806,1.6058375e-07
C0R680,佳樂水,2025-12-13,21.993578,120.861633,0.099733874
C1O870,大棟山,2025-12-13,23.31157,120.52226,1.2244304e-09
C0D360,梅花,2025-12-13,24.678347,121.208558,5.563648e-10
C0Z190,富世,2025-12-13,24.14743,121.6297,3.2011773e-08
C0AI10,屈尺,2025-12-13,24.92184,121.54475,2.8721246e-05
B2U990,畜試東區分所,2025-12-13,24.669039,121.832561,1.3736503e-09
C0SB80,長濱漁港,2025-12-13,23.313644,121.459994,7.4840506e-10
C0TA50,和仁,2025-12-13,24.241394,121.712472,1.4337913e-09
C0V910,大樹,2025-12-13,22.684645,120.432803,8.969114e-07
C1R610,西大武山,2025-12-13,22.617719,120.7322,5.1838946e-09
C0G900,線西,2025-12-13,24.143358,120.443536,0.98134017
C0M700,竹崎,2025-12-13,23.526178,120.555508,6.2099e-07
C2E880,三義,2025-12-13,24.405478,120.749819,9.542005e-10
C0C720,竹圍,2025-12-13,25.112692,121.239824,0.999746
C0F9P0,清水,2025-12-13,24.312297,120.562242,0.0007988891
C0Z150,吉安光華,2025-12-13,23.930925,121.595153,1.5804257e-09
C0FA80,小雪山天池,2025-12-13,24.28025,121.02627,9.973216e-09
467300,東吉島,2025-12-13,23.25727,119.66762,0.89213544
C1D640,外坪(五指山),2025-12-13,24.644447,121.090961,5.1615157e-10
C2R9A0,高士國小,2025-12-13,22.12553,120.84653,0.99654835
C0F9O0,潭子,2025-12-13,24.213106,120.703933,9.738856e-10
C2H9R0,卓社,2025-12-13,23.887894,121.000086,1.0462506e-09
72T250,花蓮農改場,2025-12-13,23.975222,121.563889,1.5280426e-09
C0E780,銅鑼,2025-12-13,24.489681,120.790853,2.0159828e-08
C1T950,太安,2025-12-13,23.666719,121.370128,1.0932041e-08
C0E830,苑裡,2025-12-13,24.439714,120.653053,0.057186764
467270,田中,2025-12-13,23.873803,120.581286,1.6053934e-07
C0SA10,檳榔四格山,2025-12-13,22.810031,121.109308,4.4682874e-08
C1T830,布洛灣,2025-12-13,24.17184,121.57127,1.703177e-08
C0F970,大坑,2025-12-13,24.173142,120.722289,3.1817773e-08
C1U920,思源,2025-12-13,24.393125,121.347214,1.2162007e-08
C2H9Y0,松茗,2025-12-13,23.8167,120.650765,4.963052e-10
C0A931,三和,2025-12-13,25.233153,121.595236,8.4056495e-08
C0I010,廬山,2025-12-13,24.033311,121.181808,1.6267946e-09
C2M940,日野賀,2025-12-13,23.434056,120.727169,1.5192284e-09
C0R860,鼻頭,2025-12-13,22.1043,120.8979,0.36460775
C0UB20,壯圍,2025-12-13,24.7359,121.8163,7.1540507e-10
C0R790,九棚,2025-12-13,22.14195,120.889281,0.97788835
C0W110,東莒,2025-12-13,25.9652,119.98069,0.09461719
C1U930,粉鳥林,2025-12-13,24.497088,121.842479,4.3991957e-09
C1I211,蘆竹湳,2025-12-13,23.934019,120.811994,3.1384975e-10
C0S830,長濱,2025-12-13,23.286817,121.411975,1.1113536e-09
C1F9F1,伯公龍,2025-12-13,24.272392,120.849047,9.579589e-10
C0UB90,太平山莊,2025-12-13,24.494171,121.536209,1.720124e-08
C0E810,西湖,2025-12-13,24.562947,120.7485,0.95284414
C1I440,新高口,2025-12-13,23.478744,120.878939,6.5773245e-09
C0O840,王爺宮,2025-12-13,23.222064,120.40085,3.9734722e-08
C0T9G0,鳳林山,2025-12-13,23.735269,121.420131,8.0601215e-09
C0X080,佳里,2025-12-13,23.173039,120.145086,0.00884384
C0FB70,大甲溪埔,2025-12-13,24.370625,120.620067,0.0024736242
C0Z310,清水斷崖,2025-12-13,24.218294,121.689142,1.2446332e-09
C0M680,太保,2025-12-13,23.455062,120.331455,1.5309497e-06
C1S820,金峰,2025-12-13,22.590969,120.933236,2.5129816e-09
C0AD10,八里,2025-12-13,25.150211,121.403947,0.9996677
C2K240,草嶺,2025-12-13,23.59555,120.693461,8.423778e-10
C1SA70,都蘭,2025-12-13,22.87794,121.226881,1.4262741e-07
C0K440,二崙,2025-12-13,23.772797,120.408944,1.4871028e-07
C1A760,坪林交控,2025-12-13,24.94284,121.713442,1.0557353e-07
C0F9N0,大里,2025-12-13,24.092464,120.701378,2.4676979e-08
C0SA90,達仁林場,2025-12-13,22.264347,120.823972,4.332494e-07
C1R290,石門山,2025-12-13,22.112611,120.756597,0.98819506
42HA10,萬大發電廠,2025-12-13,23.978875,121.139639,5.8668637e-10
C0R890,山海,2025-12-13,21.9878,120.7091,0.9836359
C0T9A0,月眉山,2025-12-13,23.809928,121.539828,1.9522763e-09
C0AC70,信義,2025-12-13,25.037822,121.564597,4.432845e-06
C0K560,棋山,2025-12-13,23.68645,120.603417,4.568382e-07
C2FB50,出雲,2025-12-13,24.206469,120.902794,9.76108e-10
C1Z240,中平林道,2025-12-13,23.42115,121.26763,1.5126368e-08
U2H480,溪頭,2025-12-13,23.670306,120.798194,8.192778e-10
C0M880,好美里,2025-12-13,23.3364,120.138,0.00037398635
C0T9E0,大坑,2025-12-13,23.880628,121.581981,1.8216803e-09
C0K530,臺西,2025-12-13,23.701547,120.197559,0.075485535
C1E900,國一N128K,2025-12-13,24.560997,120.844186,1.2483258e-06
C0AJ50,水湳洞,2025-12-13,25.123695,121.862238,1.2296641e-08
C0AI20,白沙灣,2025-12-13,25.283128,121.519058,0.9987993
C2V310,美濃,2025-12-13,22.898792,120.51907,5.69674e-09
C0A860,大坪,2025-12-13,25.165914,121.632969,1.2506925e-08
C1U850,觀音海岸,2025-12-13,24.38319,121.77856,2.2349387e-09
C2K610,草嶺石壁,2025-12-13,23.602469,120.707731,8.8663993e-10
C0U950,鶯子嶺,2025-12-13,24.89754,121.79244,1.8874577e-08
C0O900,善化,2025-12-13,23.112883,120.297219,2.666209e-07
C0K550,蔦松,2025-12-13,23.514319,120.229736,0.00010202124
E2P980,林試六龜中心,2025-12-13,22.991703,120.645722,1.0146414e-09
C0E590,通霄,2025-12-13,24.471892,120.704622,0.8778824
C1I310,西巒,2025-12-13,23.754486,120.883956,8.0462004e-10
C0A550,泰平,2025-12-13,24.971197,121.823711,1.8261167e-08
C0I360,水里,2025-12-13,23.812553,120.849792,2.9618277e-10
C0R830,高士,2025-12-13,22.121825,120.836781,0.97389466
C1I101,溪頭,2025-12-13,23.661789,120.807647,3.6898826e-09
C0AJ20,野柳,2025-12-13,25.20703,121.690021,1.1750518e-07
C0B060,暖暖,2025-12-13,25.0957,121.7403,2.2243334e-08
C1H920,長豐,2025-12-13,24.102039,120.879897,4.2331327e-10
C2S9B0,利吉,2025-12-13,22.86246,121.15486,5.7091296e-09
C0V360,內門,2025-12-13,22.975481,120.466769,1.1112093e-09
C0R850,林邊,2025-12-13,22.4634,120.5339,9.02501e-05
C0E930,龍鳳,2025-12-13,24.700034,120.859125,0.75723845
C0U910,冬山,2025-12-13,24.63373,121.7937,1.3736503e-09
C1E721,泰安,2025-12-13,24.489017,120.968036,2.628343e-09
82H320,茶改中部分場,2025-12-13,23.875611,120.913583,5.588759e-10
C0M750,布袋,2025-12-13,23.380878,120.167789,0.006651259
C1S860,利嘉,2025-12-13,22.809417,121.050528,1.340768e-09
E2S980,林試太麻里1,2025-12-13,22.598922,120.980044,4.035697e-09
C0X170,關廟,2025-12-13,22.963017,120.327797,1.9512164e-08
C0V720,林園,2025-12-13,22.507747,120.394511,3.9675556e-09
C1I510,線浸林道,2025-12-13,23.761508,120.832956,1.1114637e-09
C0D690,外湖,2025-12-13,24.917735,120.968711,0.42681506
C0C750,新興坑尾,2025-12-13,25.0061,121.0971,0.9998388
B2Q810,畜試南區分所,2025-12-13,21.945583,120.802167,0.099733874
C0S790,金崙,2025-12-13,22.538122,120.966875,2.0090072e-09
C0AH90,福山植物園,2025-12-13,24.760717,121.58135,4.6736236e-08
C0I540,奇萊稜線,2025-12-13,24.109231,121.326456,2.033411e-08
C0M850,表湖,2025-12-13,23.24186,120.64166,4.8785553e-10
C0S770,大溪山,2025-12-13,22.478475,120.943325,1.5344563e-09
C0AG80,中和,2025-12-13,24.991622,121.491792,5.1706917e-05
C0T790,大禹嶺,2025-12-13,24.186117,121.316086,9.356576e-09
C0T9B0,水源,2025-12-13,23.991861,121.537169,4.5654267e-09
C0R840,牡丹池山,2025-12-13,22.168389,120.841225,0.0043061357
C1I131,桶頭,2025-12-13,23.641944,120.654117,1.6507663e-08
CAL110,布袋國中,2025-12-13,23.35893,120.18026,0.00037045457
C2M9D0,何竹子腳,2025-12-13,23.53641,120.38203,9.696671e-05
467571,新竹,2025-12-13,24.827853,121.014219,0.99244606
C0Z290,赤柯山,2025-12-13,23.36893,121.38293,5.5524767e-09
C0X280,將軍,2025-12-13,23.214999,120.13577,0.002001081
C0S690,太麻里,2025-12-13,22.60902,120.98533,1.6896801e-09
C0U880,北關,2025-12-13,24.9072,121.8734,1.6563234e-08
CAW010,東引,2025-12-13,26.3588,120.4836,0.28136453
C0G810,埔心,2025-12-13,23.947633,120.525456,7.488912e-08
C0U970,大福,2025-12-13,24.80064,121.81389,7.4246054e-10
C2H9N0,仁愛東眼,2025-12-13,24.026875,121.1205,1.0567659e-09
C1E670,南礦,2025-12-13,24.538278,121.002836,1.927847e-09
C0M520,東後寮,2025-12-13,23.369908,120.248065,3.4367196e-05
C1E461,松安,2025-12-13,24.397972,120.986022,1.9060955e-09
C2N160,西拉雅風管處,2025-12-13,23.189481,120.335297,1.1576101e-07
C2M970,碧湖,2025-12-13,23.568632,120.624165,7.61398e-10
C0A640,石碇,2025-12-13,24.993969,121.662917,1.0557353e-07
E2S960,林試太麻里2,2025-12-13,22.598,120.99775,7.58135e-09
C0F9Y0,桃山,2025-12-13,24.432739,121.303808,1.972365e-08
C1I020,萬大,2025-12-13,23.979817,121.132261,7.1704026e-10
C2UC20,長嶺,2025-12-13,24.70894,121.61162,8.690154e-09
C0U940,羅東,2025-12-13,24.68184,121.74934,1.173774e-09
C0M650,朴子,2025-12-13,23.43463,120.23902,2.7585486e-06
C1I500,大尖山,2025-12-13,23.858572,120.994889,2.833019e-09
C0FB40,中橫21.6k,2025-12-13,24.2499,121.1455,1.5253229e-09
C0G820,田尾,2025-12-13,23.901669,120.509389,7.488912e-08
E2K600,四湖植物園,2025-12-13,23.676986,120.163433,0.044614747
C0S730,綠島,2025-12-13,22.6672,121.47533,0.20312071
12Q970,東港工作站,2025-12-13,22.479997,120.466058,9.02501e-05
C0E430,南庄,2025-12-13,24.601775,121.000214,5.5290155e-09
C1TA00,太魯閣,2025-12-13,24.15773,121.6236,2.7264177e-08
466920,臺北,2025-12-13,25.037658,121.514853,1.0785582e-06
C0R600,舊泰武,2025-12-13,22.588194,120.664944,6.189721e-10
C1I260,北坑,2025-12-13,23.9246,121.006903,1.1033002e-09
466910,鞍部,2025-12-13,25.182586,121.529731,2.6204955e-08
C1I230,九份二山,2025-12-13,23.961944,120.845,4.4973367e-10
C2M810,里佳,2025-12-13,23.389125,120.716647,2.1412667e-09
C2A660,瑞芳,2025-12-13,25.113169,121.801147,3.2246668e-08
C0R270,琉球嶼,2025-12-13,22.332244,120.362236,2.2036458e-08
C2V580,瑞山,2025-12-13,22.90304,120.43424,1.4051504e-09
C1T990,高寮,2025-12-13,23.394239,121.356808,7.384834e-10
C0G620,芬園,2025-12-13,24.015678,120.6213,6.751112e-09
C1Z140,荖溪,2025-12-13,23.890575,121.45964,1.2982566e-08
C1I201,中心崙,2025-12-13,23.728722,120.712097,7.810777e-10
C1I400,凌霄,2025-12-13,24.018778,121.004456,1.1180039e-09
C1M640,十字,2025-12-13,23.492153,120.753683,2.9679537e-09
G2P820,農試鳳山分所,2025-12-13,22.646611,120.356083,6.8970627e-07
C0Z270,蕃薯寮,2025-12-13,23.73835,121.540108,1.4645515e-09
C2E420,竹南,2025-12-13,24.70898,120.88897,0.75723845
C0FB10,出雲山苗圃,2025-12-13,24.23105,120.90475,7.4563516e-10
C0F9Q0,外埔,2025-12-13,24.347817,120.705686,2.4099258e-09
C0K580,高鐵雲林,2025-12-13,23.737456,120.417944,4.6992508e-07
C2I090,鳳凰,2025-12-13,23.728081,120.787347,4.684364e-10
C0U990,員山,2025-12-13,24.74435,121.72247,1.173774e-09
C0V770,大社,2025-12-13,22.730306,120.346639,9.986012e-05
C0X120,麻豆,2025-12-13,23.183289,120.248611,2.2344532e-06
C0C670,龍潭,2025-12-13,24.870056,121.221389,2.6220337e-07
C0D680,香山濕地,2025-12-13,24.783581,120.914988,0.426815
C0S980,勝林山,2025-12-13,22.430439,120.8938,4.4999218e-09
C0V730,大寮,2025-12-13,22.605614,120.395717,6.8970627e-07
C0R570,麟洛,2025-12-13,22.65078,120.52719,3.3926133e-07
C2M930,石卓,2025-12-13,23.478744,120.702264,2.8965645e-09
C0G9B0,和美,2025-12-13,24.105169,120.492131,0.99904656
CAG100,王功漁港,2025-12-13,23.96824,120.32586,0.97197855
C0X290,北門,2025-12-13,23.267772,120.125481,0.002001081
C2F930,大甲,2025-12-13,24.347667,120.640403,0.002473623
C0D650,湖口,2025-12-13,24.904794,121.043628,0.9995723
C0E420,竹南,2025-12-13,24.708978,120.888897,0.8627105
C0U780,五結,2025-12-13,24.68637,121.79794,1.3736503e-09
C1I250,鯉潭,2025-12-13,23.961922,120.991131,9.355127e-10
C0R130,阿禮,2025-12-13,22.742908,120.743678,6.063197e-10
C0X100,臺南市北區,2025-12-13,23.010394,120.194228,0.01681013
C0S920,金峰嘉蘭,2025-12-13,22.594789,120.960825,3.910077e-09
C0V490,新興,2025-12-13,22.627422,120.298803,0.9824451
C0F9K0,大安,2025-12-13,24.345061,120.588025,0.0024736242
467290,古坑,2025-12-13,23.633639,120.551889,3.1371414e-06
C2E970,八甲,2025-12-13,24.535811,120.795983,1.2483258e-06
C0V440,鳳山,2025-12-13,22.646653,120.356122,6.8970627e-07
C1T940,大觀,2025-12-13,23.714206,121.373133,2.265916e-09
C0E740,造橋,2025-12-13,24.637056,120.864778,0.28097934
C0R100,尾寮山,2025-12-13,22.833111,120.683889,6.448235e-10
A2K630,臺大雲林校區,2025-12-13,23.730628,120.423903,4.6992508e-07
467990,馬祖,2025-12-13,26.169467,119.923158,0.0001721359
C0D580,寶山,2025-12-13,24.735006,121.025192,7.030454e-10
E2P990,林試扇平站,2025-12-13,22.9677,120.6857,6.078702e-10
C0AI30,三重,2025-12-13,25.057328,121.500629,1.0785582e-06
C0AH00,汐止,2025-12-13,25.066881,121.658778,1.9872884e-06
C1Z040,立山,2025-12-13,23.443356,121.327375,4.777787e-09
466881,新北,2025-12-13,24.959207,121.525196,5.5283675e-05
C0W130,花嶼,2025-12-13,23.40007,119.32276,0.7014082
C0A950,鼻頭角,2025-12-13,25.129036,121.923372,1.3790221e-08
C0K470,林內,2025-12-13,23.748675,120.609642,4.568382e-07
C2F990,摩天嶺,2025-12-13,24.322458,120.936819,7.945546e-10
C2E430,南庄,2025-12-13,24.601775,121.000214,5.969549e-10
82C160,茶改場,2025-12-13,24.908472,121.185333,0.097566195
C2TB60,南安,2025-12-13,23.29818,121.26157,1.0577157e-09
C0Z320,清水林道,2025-12-13,23.27125,121.188272,3.0605782e-09
C0R760,南仁湖,2025-12-13,22.084681,120.863353,0.9881449
C0M670,大林,2025-12-13,23.600616,120.45841,0.0007795039
C0M800,茶山,2025-12-13,23.299075,120.664767,4.938322e-10
C0A9C0,天母,2025-12-13,25.117494,121.537169,3.8745216e-06
72K220,南改斗南分場,2025-12-13,23.634556,120.477333,0.0020942888
72AI40,桃改樹林分場,2025-12-13,24.944503,121.386972,0.00011166672
C0S910,蘭嶼燈塔,2025-12-13,22.081197,121.503117,0.9985243
C0B050,八斗子,2025-12-13,25.144754,121.79167,1.87651e-07
C0U900,內城,2025-12-13,24.71813,121.68766,1.1380535e-09
C0X320,柳營,2025-12-13,23.253328,120.375253,3.9734722e-08
C0M790,新港,2025-12-13,23.553269,120.345728,5.7011075e-06
C0F9T0,西屯,2025-12-13,24.179494,120.641275,5.6699e-09
C0E950,松安,2025-12-13,24.39792,120.98599,1.9060955e-09
C0SA30,都歷,2025-12-13,23.020333,121.323642,0.6193228
C0C620,蘆竹,2025-12-13,25.084275,121.265767,0.9992114
C0R730,大坪頂,2025-12-13,22.024633,120.69355,0.98683876
C0AJ40,石門,2025-12-13,25.273672,121.601198,0.89938736
C0E750,苗栗,2025-12-13,24.564569,120.824575,1.2483258e-06
C0T870,鯉魚潭,2025-12-13,23.935639,121.508944,1.4834864e-09
C1V170,排雲,2025-12-13,23.463619,120.954147,1.8354122e-08
C2H950,中寮,2025-12-13,23.884447,120.766406,3.2306657e-10
C0R350,貓鼻頭,2025-12-13,21.921774,120.7358,0.98757833
C0V660,岡山,2025-12-13,22.797078,120.294958,0.01292574
C1H941,雙冬,2025-12-13,23.967378,120.802189,3.5307138e-10
C0AJ70,田寮,2025-12-13,25.2698,121.4886,0.99891037
C0AI00,五股,2025-12-13,25.07445,121.42728,1.4138514e-07
C0Z280,德武,2025-12-13,23.47426,121.41071,7.7732504e-10
C2RA10,大新,2025-12-13,22.67558,120.57788,5.527837e-08
C0R700,枋山,2025-12-13,22.246844,120.661086,0.82074535
C0C460,復興,2025-12-13,24.820208,121.352281,9.76682e-09
C2K300,鹿南,2025-12-13,23.63855,120.3636,1.2365081e-06
E2H360,蓮華池,2025-12-13,23.918333,120.885278,3.4724962e-10
C0M640,中埔,2025-12-13,23.42538,120.5229,1.1246517e-08
C0W140,金沙,2025-12-13,24.488292,118.408778,0.93738824
C2A540,四堵,2025-12-13,24.8926,121.745736,1.9766697e-08
C0ACA0,新莊,2025-12-13,25.051478,121.446756,3.4449588e-06
C0R220,潮州,2025-12-13,22.534361,120.54,2.2071704e-06
U2HA40,臺大內茅埔,2025-12-13,23.689722,120.851117,3.3453768e-10
467490,臺中,2025-12-13,24.145736,120.684075,3.1817773e-08
C0UB60,明池,2025-12-13,24.650688,121.475277,3.0526046e-08
C0U960,翠峰湖,2025-12-13,24.510856,121.608044,1.6494884e-08
E2HA20,林試畢祿溪站,2025-12-13,24.226944,121.308522,4.5804813e-09
C2M9A0,大華,2025-12-13,23.4824,120.67491,9.2993535e-10
C0V890,前鎮,2025-12-13,22.5718,120.3117,1.0084485e-05
C1F941,雪嶺,2025-12-13,24.280586,121.026642,9.973216e-09
C2H9E0,國姓南港,2025-12-13,23.911108,120.846556,8.597052e-10
C0AC80,文山,2025-12-13,25.00235,121.575728,5.6965264e-06
C0F9R0,龍井,2025-12-13,24.184536,120.528972,0.034416944
C0M760,民雄,2025-12-13,23.551754,120.428457,0.0007795039
C0UA40,西德山,2025-12-13,24.560647,121.752608,1.46086405e-08
C2TA70,赤科坪,2025-12-13,23.39885,121.39168,6.6348815e-09
C1T920,中興,2025-12-13,23.769503,121.498653,1.1439142e-09
C0D550,雪霸,2025-12-13,24.526972,121.11605,4.3896486e-09
C2F860,梨山,2025-12-13,24.247522,121.243669,6.467774e-09
C0R320,車城,2025-12-13,22.0744,120.716247,0.16485894
C1S870,南美山,2025-12-13,23.15025,121.382333,2.1812891e-09
C0B020,基隆嶼,2025-12-13,25.19141,121.78391,9.628176e-08
C1U501,牛鬥,2025-12-13,24.637836,121.573656,1.2107709e-08
C0M730,嘉義市東區,2025-12-13,23.457673,120.460531,4.746951e-08
C2R990,泰武,2025-12-13,22.60686,120.69765,1.6944695e-09
C0S700,知本,2025-12-13,22.684866,121.005642,1.5285002e-09
C1N001,沙崙,2025-12-13,22.935472,120.309406,1.9512164e-08
C0V760,橋頭,2025-12-13,22.757806,120.30575,9.986012e-05
C0G960,福寶,2025-12-13,24.0443,120.3814,0.33343583
C0X210,白河,2025-12-13,23.347466,120.414427,1.095122e-08
C0S810,東河,2025-12-13,22.972672,121.303986,0.02064073
C2R170,屏東,2025-12-13,22.66027,120.49403,3.3926133e-07
C0R670,楓港,2025-12-13,22.190131,120.692156,0.1410724
C0FA50,霧峰,2025-12-13,24.0419,120.6995,2.4676979e-08
C0UB10,蘇澳,2025-12-13,24.5969,121.8571,1.3615549e-09
C0G950,防潮門,2025-12-13,24.1835,120.4871,0.97888577
C0M740,六腳,2025-12-13,23.492871,120.290625,3.06416e-06
C1R250,力里,2025-12-13,22.428117,120.629228,4.950339e-09
C0K330,虎尾,2025-12-13,23.719183,120.442036,4.6992508e-07
C2FA00,烏石坑,2025-12-13,24.273503,120.947617,7.796384e-10
C0V620,永安,2025-12-13,22.82315,120.236856,0.01292574
C1I330,楓樹林,2025-12-13,23.986803,121.076117,1.0173834e-09
C0W200,湖西,2025-12-13,23.596314,119.67275,0.881275
72Q010,高雄農改場,2025-12-13,22.709333,120.525889,4.6501677e-06
C0SA40,瑞和,2025-12-13,22.974361,121.156697,7.2329565e-10
C0C680,龜山,2025-12-13,25.02846,121.38656,4.057132e-07
C2V260,月眉,2025-12-13,22.971003,120.539853,1.3342577e-09
C0V450,鳳森,2025-12-13,22.545064,120.392592,3.9675556e-09
C0FA90,小雪山林道,2025-12-13,24.29515,121.03651,1.3400759e-08
C0U720,南山,2025-12-13,24.43742,121.38167,1.06294005e-08
A2N290,臺南蘭花園區,2025-12-13,23.340258,120.379661,1.8104688e-08
C0R560,新園,2025-12-13,22.5434,120.461558,3.9675556e-09
C0U890,三星,2025-12-13,24.66812,121.65302,1.1914899e-09
C1V300,御油山,2025-12-13,23.001983,120.715364,2.329947e-09
C0U600,礁溪,2025-12-13,24.817539,121.765608,7.4246054e-10
C1T980,龍澗,2025-12-13,24.023289,121.411328,2.1865095e-08
C0D670,海天一線,2025-12-13,24.831986,120.914438,0.729883
C0SA00,歷坵,2025-12-13,22.520969,120.89185,1.5202314e-09
C0M710,東石,2025-12-13,23.458927,120.15385,0.0059340443
C0M780,鹿草,2025-12-13,23.41134,120.30835,2.7585486e-06
C0U520,雙連埤,2025-12-13,24.753033,121.641303,8.853696e-09
C0B010,七堵,2025-12-13,25.094819,121.71713,8.748699e-08
C0R480,長治,2025-12-13,22.693128,120.542622,2.2089002e-07
C1V830,國三S383K,2025-12-13,22.781967,120.426475,4.3492225e-08
12Q980,恆春工作站,2025-12-13,22.079678,120.714425,0.16485894
C1O940,東山服務區,2025-12-13,23.286016,120.398472,1.8104688e-08
C1U840,東澳嶺,2025-12-13,24.5378,121.8485,1.1394811e-08
C1D630,飛鳳山,2025-12-13,24.766464,121.119178,5.436435e-10
C0S940,石寧山,2025-12-13,23.223772,121.406639,3.252995e-09
C0K410,北港,2025-12-13,23.573957,120.292802,5.2148216e-06
C2M620,瑞里,2025-12-13,23.545133,120.675197,9.774531e-10
C0SB70,小港漁港,2025-12-13,23.158558,121.400431,8.15899e-09
C2O950,安南,2025-12-13,23.076694,120.144861,0.031810418
C0F0E0,南湖圈谷,2025-12-13,24.363714,121.444667,2.1919377e-08
467610,成功,2025-12-13,23.097486,121.373428,2.1905214e-07
C0G890,伸港,2025-12-13,24.148933,120.484403,0.97888577
C2E540,龍溪,2025-12-13,24.606489,120.783933,1.2483258e-06
C1V200,梅山,2025-12-13,23.268447,120.823556,6.6139294e-10
C0T9H0,加路蘭山,2025-12-13,23.682947,121.5274,3.0999117e-09
C2O930,玉井,2025-12-13,23.126042,120.46055,1.0880676e-09
C1F911,新伯公,2025-12-13,24.221361,120.841069,6.302431e-10
C0R490,九如,2025-12-13,22.7405,120.490503,4.6501677e-06
C0X200,左鎮,2025-12-13,23.056758,120.408522,1.809502e-08
C2TB50,麻汝,2025-12-13,23.42554,121.39358,7.7732504e-10
C0FA60,鞍馬山工作站,2025-12-13,24.267064,121.000793,6.5124244e-09
C0SB50,叭嗡嗡,2025-12-13,23.047062,121.343223,4.9265157e-07
C1F891,稍來,2025-12-13,24.265689,121.001142,6.2220855e-09
C2M9C0,紫雲,2025-12-13,23.494914,120.540253,3.1431669e-06
72N240,七股研究中心,2025-12-13,23.081672,120.062894,0.07462742
C0C700,中壢,2025-12-13,24.977661,121.256375,1.6835766e-05
C0M690,水上,2025-12-13,23.419734,120.388909,1.5309482e-06
C0V690,鼓山,2025-12-13,22.623325,120.275575,0.9824451
C0O860,大內,2025-12-13,23.11885,120.36083,1.1576101e-07
C0Z200,萬榮,2025-12-13,23.709219,121.420106,1.2672365e-09
C0T9D0,和中,2025-12-13,24.26676,121.74103,1.4324983e-09
C2S9A0,北份子寮,2025-12-13,22.78561,121.07813,0.9992167
C1O921,楠西,2025-12-13,23.183511,120.484083,1.0880676e-09
C0AJ30,淡水觀海,2025-12-13,25.184591,121.408616,0.9996675
C0V810,左營,2025-12-13,22.67491,120.28491,0.9107397
C0UA70,桃源谷,2025-12-13,24.962606,121.888875,4.7848183e-09
C0X130,官田,2025-12-13,23.193217,120.315422,1.1576101e-07
C1H000,翠峰,2025-12-13,24.109397,121.205211,6.518638e-09
C0UA90,石城,2025-12-13,24.980444,121.951214,1.2178907e-08
C1E681,南勢山,2025-12-13,24.421669,120.923831,1.0741735e-09
C0A9F0,內湖,2025-12-13,25.079422,121.57545,2.882878e-06
C0K291,宜梧,2025-12-13,23.536281,120.169329,0.12064998
C1K540,口湖,2025-12-13,23.585344,120.180517,0.1379136
C0R780,滿州,2025-12-13,22.024403,120.839892,0.73154855
C0V870,文安,2025-12-13,22.8025,120.2164,0.05087869
C0U650,玉蘭,2025-12-13,24.675286,121.587061,8.731741e-09
C0R640,東港,2025-12-13,22.46247,120.44074,2.7560039e-09
C0AJ80,板橋,2025-12-13,25.0107,121.4489,5.1706917e-05
C0S660,下馬,2025-12-13,23.150427,121.070312,1.9597717e-09
C2N190,烏樹,2025-12-13,23.32393,120.36989,1.8104688e-08
C1H9B1,阿眉,2025-12-13,24.1263,120.994672,2.7072586e-09
C0UA20,多加屯,2025-12-13,24.368614,121.373189,1.0806514e-08
C0E730,頭份,2025-12-13,24.688247,120.912206,0.75723845
72V140,高改旗南分場,2025-12-13,22.857861,120.516667,5.69674e-09
C0K480,莿桐,2025-12-13,23.761192,120.502372,3.328459e-05
C0U980,坪林石牌,2025-12-13,24.86478,121.77396,1.7366267e-08
C0T900,西林,2025-12-13,23.8119,121.441458,1.2926915e-09
C1I150,青雲,2025-12-13,23.793361,120.949378,2.8498945e-10
C2E980,和興,2025-12-13,24.505319,120.923016,7.219312e-10
467350,澎湖,2025-12-13,23.565503,119.563094,0.91811717
C0G800,埔鹽,2025-12-13,24.000394,120.431683,0.15754233
C0H960,草屯,2025-12-13,23.973672,120.68085,3.899313e-10
C1V780,多納林道,2025-12-13,22.888028,120.737917,1.1429698e-09
C0E920,通霄漁港,2025-12-13,24.498589,120.673876,0.8778824
C0Z330,安通山,2025-12-13,23.290728,121.348528,1.4753401e-09
C0AH10,永和,2025-12-13,25.01125,121.508111,5.1706917e-05
C0AK10,太平里,2025-12-13,25.134937,121.364899,0.9984382
C2G640,鹿港,2025-12-13,24.0753,120.430481,0.99904656
C1E890,國三N149K,2025-12-13,24.463414,120.680019,0.8778824
C1R110,口社,2025-12-13,22.770111,120.645222,3.981307e-09
C1M870,國三N285K,2025-12-13,23.550319,120.505833,3.1431669e-06
C1E480,鳳美,2025-12-13,24.554803,121.034747,4.960384e-10
C0M530,奮起湖,2025-12-13,23.493903,120.699253,1.8815476e-09
C0C590,觀音,2025-12-13,25.027072,121.153317,0.99995387
C0T9M0,靜浦,2025-12-13,23.455167,121.495028,7.62046e-10
C2H9M0,發祥,2025-12-13,24.154094,121.164517,1.0880489e-09
C2G9C0,埔南,2025-12-13,23.99124,120.46969,0.15754233
C0AI40,石牌,2025-12-13,25.115597,121.513139,2.882878e-06
C1F871,上谷關,2025-12-13,24.203483,121.018644,7.796563e-10
C2H9G0,百勝,2025-12-13,24.051142,120.909361,3.5203715e-10
C0G880,二水,2025-12-13,23.810742,120.6173,2.4574117e-08
C0R940,加祿堂,2025-12-13,22.3363,120.6217,0.82074535
C0W220,北竿,2025-12-13,26.220358,119.974881,0.049346015
C0O960,崎頂,2025-12-13,22.959547,120.369317,1.9512164e-08
C0TA40,秀林,2025-12-13,24.302864,121.731144,8.990635e-09
C0S750,向陽,2025-12-13,23.248397,120.986133,6.0037273e-09
C0T9F0,水璉,2025-12-13,23.797131,121.542514,1.4522343e-09
C1M600,頭凍,2025-12-13,23.406364,120.603339,8.290206e-10
467660,臺東,2025-12-13,22.752211,121.154586,0.99954265
C1D380,新埔,2025-12-13,24.84745,121.03834,0.99244606
C2G980,田頭村,2025-12-13,23.8263,120.444175,1.4871028e-07
C0V750,路竹,2025-12-13,22.854997,120.259439,0.01292574
C0N050,蚵寮,2025-12-13,23.301,120.1104,0.002001081
C2X060,下營,2025-12-13,23.226806,120.256291,3.1177906e-06
72M700,南改鹿草分場,2025-12-13,23.416869,120.283061,2.7585486e-06
C1SA50,利嘉林道,2025-12-13,22.82325,121.009389,1.0358801e-08
C0UB70,太平山中間站,2025-12-13,24.542003,121.513453,1.22137545e-08
C0A940,金山,2025-12-13,25.223628,121.643967,2.5181441e-06
C1V340,大津,2025-12-13,22.888322,120.645986,6.2646097e-09
C0W180,七美,2025-12-13,23.219333,119.444892,0.9616024
C1F9C1,白冷,2025-12-13,24.182844,120.929889,3.583969e-10
K2E710,苗改生物防治研究中心,2025-12-13,24.422861,120.871833,3.9147763e-10
C0N040,蘆竹溝,2025-12-13,23.2344,120.0961,0.002001081
C0TB40,崇德,2025-12-13,24.166144,121.657414,1.4541032e-08
C0D760,大坪苗圃,2025-12-13,24.5362,121.1108,2.5334785e-09
C2W230,畜試所澎湖,2025-12-13,23.628342,119.513206,0.9129314
C0R880,後壁湖,2025-12-13,21.9457,120.7457,0.9836359
C1I280,埔中,2025-12-13,23.820778,120.642594,4.965173e-10
467790,墾丁雷達站,2025-12-13,21.948235,120.808028,0.099733874
C0W190,望安,2025-12-13,23.380564,119.494075,0.9386049
C0Z170,卓溪,2025-12-13,23.3443,121.3029,7.9550083e-10
C0F850,東勢,2025-12-13,24.246428,120.833047,6.86267e-10
466900,淡水,2025-12-13,25.164889,121.448906,2.3939829e-05
C0I370,魚池,2025-12-13,23.895703,120.94135,3.658227e-10
C0C630,大溪,2025-12-13,24.882853,121.265547,0.000121774596
C0A520,山佳,2025-12-13,24.974944,121.402008,0.00017286719
C0I110,竹山,2025-12-13,23.761225,120.688156,1.0422438e-08
82H840,茶改南部分場,2025-12-13,23.762528,120.7405,5.5605287e-10
C2SD80,再來山,2025-12-13,23.34371,121.44122,8.31878e-10
C0G660,溪湖,2025-12-13,23.94835,120.479122,7.488912e-08
C1T800,洛韶,2025-12-13,24.204558,121.453956,1.771365e-08
C1T810,慈恩,2025-12-13,24.192044,121.388386,7.794188e-09
C1E451,象鼻,2025-12-13,24.368617,120.940228,1.0741735e-09
C0AC60,三峽,2025-12-13,24.939025,121.369728,9.726518e-05
C0I490,萬大林道,2025-12-13,23.928228,121.091411,1.97189e-09
C1I290,豐丘,2025-12-13,23.668178,120.887417,1.2743967e-09
C1I320,奧萬大,2025-12-13,23.952956,121.178556,1.035524e-09
C2M910,嘉義大學,2025-12-13,23.471325,120.485903,4.746951e-08
C0U770,南澳,2025-12-13,24.44935,121.81022,4.3991957e-09
C2TB30,吉安,2025-12-13,23.94538,121.54803,1.5443983e-09
C0A980,社子,2025-12-13,25.109508,121.469681,5.0293333e-05
C0V800,六龜,2025-12-13,22.997889,120.633583,1.0813396e-09
C1G9D0,國一S218K,2025-12-13,23.890641,120.493253,2.4600362e-07
C0E570,白沙屯,2025-12-13,24.549447,120.696803,0.95284414
C2F9A0,中竹林,2025-12-13,24.103556,120.751061,3.5709566e-10
C0FA40,臺中電廠,2025-12-13,24.2146,120.4907,0.38044757
C2G9A0,畜試所彰化,2025-12-13,23.86045,120.557964,1.605395e-07
C0H9C0,合歡山,2025-12-13,24.143442,121.272547,1.6358843e-08
G2M350,農試溪口農場,2025-12-13,23.58565,120.408111,0.0007795039
C0U860,頭城,2025-12-13,24.85323,121.8308,2.826003e-09
C0R580,南州,2025-12-13,22.48591,120.50274,9.02501e-05
C0D430,峨眉,2025-12-13,24.6905,121.017189,5.169655e-07
C0G780,秀水,2025-12-13,24.03405,120.503869,9.5814606e-08
72N100,臺南農改場,2025-12-13,23.0605,120.342194,2.666209e-07
C0S900,蘭嶼高中,2025-12-13,22.04909,121.51214,0.99914706
C2TA60,六十石,2025-12-13,23.22477,121.31861,3.6949532e-09
C1F9W0,德基,2025-12-13,24.254783,121.190261,5.0442415e-09
C2M980,安和,2025-12-13,23.51377,120.31593,3.06416e-06
C1Z120,壽豐,2025-12-13,23.870853,121.508081,1.2511596e-09
C0W160,烏坵,2025-12-13,24.9944,119.44956,0.55705327
C1I240,外大坪,2025-12-13,23.958697,120.917931,3.94293e-10
C1I550,國六W023K,2025-12-13,23.979067,120.867742,3.6687434e-10
C0R870,興海,2025-12-13,21.9752,120.8439,0.099733874
C0R140,瑪家,2025-12-13,22.682903,120.686639,5.0592797e-10
C0A530,坪林,2025-12-13,24.938183,121.70975,6.005116e-08
C0X260,後壁,2025-12-13,23.366358,120.362326,3.774043e-07
C0Z230,和平,2025-12-13,24.30717,121.77007,1.6744313e-09
C0G770,福興,2025-12-13,24.041289,120.437669,0.15754233
C0H9A0,神木村,2025-12-13,23.532742,120.843667,2.6821512e-09
C0I460,南投,2025-12-13,23.911469,120.687331,3.899313e-10
C0I480,梅峰,2025-12-13,24.085272,121.173572,3.6622012e-09
C1V570,吉東,2025-12-13,22.85422,120.5454,1.6058375e-07
C2A560,福山,2025-12-13,24.776203,121.502811,8.618268e-09
C0AH30,五分山,2025-12-13,25.07125,121.780794,1.7451137e-08
C0FA10,松柏,2025-12-13,24.429115,120.617482,0.057186764
72S200,東改班鳩分場,2025-12-13,22.829528,121.077694,3.5390449e-06
72HA00,中改埔里分場,2025-12-13,23.903208,120.963364,3.6186984e-10
C2H9W0,大坪頂農水,2025-12-13,24.043122,120.932781,4.4442544e-10
C0C650,平鎮,2025-12-13,24.897503,121.214636,2.6220337e-07
C0S930,延平,2025-12-13,22.902581,121.084058,3.6551393e-09
C0UA60,樟樹山,2025-12-13,24.41393,121.78325,1.9226911e-09
C2UC10,出水溪,2025-12-13,24.615822,121.652253,1.178146e-08
C1S670,摩天,2025-12-13,23.199503,121.027,1.1082191e-08
C2C590,觀音,2025-12-13,25.027072,121.153317,0.9996942
C0V630,茄萣,2025-12-13,22.906642,120.182608,0.00012531027
466940,基隆,2025-12-13,25.133314,121.740475,1.4811879e-07
C0X050,東河,2025-12-13,23.296598,120.385608,1.8104688e-08
C0R770,保力,2025-12-13,22.071122,120.764111,0.96663153
G2L020,農試嘉義分所,2025-12-13,23.485028,120.473806,4.746951e-08
C0X240,關子嶺,2025-12-13,23.331169,120.508025,3.063088e-10
C0I380,集集,2025-12-13,23.828206,120.801467,2.9984962e-10
466990,花蓮,2025-12-13,23.975128,121.613275,6.5260397e-09
C1V220,小關山,2025-12-13,23.154217,120.813603,2.7293248e-09
C1F9G1,慶福山,2025-12-13,24.180853,120.848378,4.5813e-10
C0FB20,雪山橋,2025-12-13,24.23192,120.9786,5.384294e-09
C0Z250,瑞穗林道,2025-12-13,23.49284,121.30688,1.6164957e-08
C0D590,新豐,2025-12-13,24.87068,120.97721,0.729883
C0A870,五指山,2025-12-13,25.132153,121.608692,8.317881e-09
C0UA50,西帽山,2025-12-13,24.555361,121.802628,1.1311205e-08
C2R980,竹田國中,2025-12-13,22.61532,120.52412,4.9314417e-07
C0X160,仁德,2025-12-13,22.968258,120.257689,3.8094329e-06
C1H971,六分寮,2025-12-13,23.92507,120.6378,3.065584e-10
C0W120,西嶼,2025-12-13,23.5626,119.468436,0.93306446
C0G650,員林,2025-12-13,23.946503,120.585597,2.918527e-08
C0AD50,鶯歌,2025-12-13,24.951533,121.346294,5.5247033e-06
C2H9Q0,北東眼山,2025-12-13,24.120939,121.189303,4.313581e-09
C2H9T0,名間竹圍,2025-12-13,23.859914,120.637572,4.6660126e-10
C0S990,山豬窟,2025-12-13,22.318619,120.857372,5.629334e-06
C0X190,安平,2025-12-13,22.993161,120.152181,0.05872341
C0K400,斗六,2025-12-13,23.720583,120.541127,3.328459e-05
12J990,口湖工作站,2025-12-13,23.589978,120.180394,0.13791355
C0O830,北寮,2025-12-13,23.079561,120.495008,4.083609e-10
C1D410,白蘭,2025-12-13,24.579364,121.079947,1.9173445e-09
C0S970,加津林,2025-12-13,22.416211,120.926942,1.3414255e-07
C0D700,關西,2025-12-13,24.7977,121.1732,5.545851e-09
C0M810,里佳,2025-12-13,23.389125,120.716647,2.3541584e-09
C0U750,龜山島,2025-12-13,24.841667,121.953133,8.81901e-09
C0R810,內獅,2025-12-13,22.305064,120.642986,0.82074535
C1M390,龍美,2025-12-13,23.406728,120.654417,1.503925e-09
C2K290,崙內,2025-12-13,23.69525,120.35601,1.2365068e-06
C2FB60,頭櫃山,2025-12-13,24.129842,120.858925,9.458868e-10
C1H840,國三N238K,2025-12-13,23.841008,120.707711,7.2298806e-10
CAQ030,崎峰國小,2025-12-13,22.42565,120.49521,9.02501e-05
C2E520,大湖,2025-12-13,24.414939,120.870872,3.9147763e-10
467530,阿里山,2025-12-13,23.508208,120.813242,8.774095e-09
C1E691,南湖,2025-12-13,24.40135,120.837533,8.2577123e-10
C0FA30,梧棲,2025-12-13,24.256003,120.523381,0.034416944
C1V231,高中,2025-12-13,23.134911,120.716711,6.0280503e-10
C0AK30,硬漢嶺,2025-12-13,25.136097,121.426372,1.1267945e-08
C0F9V0,新社,2025-12-13,24.200172,120.815806,5.6725047e-10
C0H890,埔里,2025-12-13,23.972169,120.952425,4.061742e-10
C0R690,墾丁,2025-12-13,21.966756,120.810269,0.19481377
C0SD20,富山,2025-12-13,22.822383,121.190825,0.9826343
C0F0D0,審馬陣,2025-12-13,24.381675,121.4203,1.5735987e-08
C2W030,金門農試所,2025-12-13,24.448431,118.451786,0.9211096
C0R820,白鷺,2025-12-13,22.454275,120.666219,2.1308653e-09
C0FB00,大雪山,2025-12-13,24.254668,121.007374,6.5754935e-09
C1V190,南天池,2025-12-13,23.27403,120.91176,6.778789e-09
C0E940,雪見,2025-12-13,24.42595,121.01347,5.332945e-09
K2E360,苗栗農改場,2025-12-13,24.495722,120.829111,4.069268e-08
CAJ050,海口故事園區,2025-12-13,23.57543,120.14121,0.13791355
C2K280,四湖,2025-12-13,23.6304,120.22717,0.044614747
C2H9D0,三隻寮,2025-12-13,24.093078,120.861578,4.955164e-10
C0O990,媽廟,2025-12-13,22.99175,120.293525,7.23829e-07
C0D480,打鐵坑,2025-12-13,24.849664,121.150789,1.2935541e-05
C0Z220,和平林道,2025-12-13,24.343922,121.656317,1.6486257e-09
C0TA10,花蓮漁港,2025-12-13,23.995322,121.638331,6.9123307e-09
72C440,桃園農改場,2025-12-13,24.950944,121.030583,0.9995723
C1E711,馬拉邦山,2025-12-13,24.367306,120.901656,1.1530884e-09
C0SB20,富岡,2025-12-13,22.792467,121.192669,0.9683013
C0D560,竹東,2025-12-13,24.767147,121.057881,2.7619516e-08
C0F9U0,南屯,2025-12-13,24.137006,120.637969,2.4515396e-07
C2SD60,明峰,2025-12-13,22.8671,121.11825,5.7091296e-09
C0M720,番路,2025-12-13,23.464657,120.554156,9.236247e-10
C0F0A0,雪山圈谷,2025-12-13,24.388594,121.236339,1.909987e-08
C1A9N0,四十份,2025-12-13,24.934158,121.593283,2.870305e-08
C0U760,東澳,2025-12-13,24.52196,121.83318,4.3031694e-09
C0X230,鹽水,2025-12-13,23.272621,120.247641,0.0003263726
C2H9H0,苗改南投蜂場,2025-12-13,23.852589,120.693481,9.971975e-10
C2TB70,達谷寮,2025-12-13,23.38,121.35968,8.295916e-10
C0R950,萬隆國小,2025-12-13,22.507667,120.587817,8.768826e-09
467540,大武,2025-12-13,22.35572,120.90374,0.36088505
C0V370,古亭坑,2025-12-13,22.893178,120.401947,1.4051504e-09
C1I340,新興橋,2025-12-13,23.563333,120.868728,5.933315e-10
C0SA80,土坂,2025-12-13,22.453108,120.887572,2.3268703e-08
C0R160,鹽埔,2025-12-13,22.739558,120.530778,4.6501677e-06
C0AC40,大屯山,2025-12-13,25.175675,121.522408,1.7856665e-08
466850,五分山雷達站,2025-12-13,25.071182,121.781205,1.746249e-08
C2H9L0,馬烈霸,2025-12-13,24.1512,121.201772,4.313581e-09
C1AI50,國三N016K,2025-12-13,25.034164,121.619664,7.881651e-07
C2V920,匏子寮,2025-12-13,23.04905,120.55319,5.199687e-10
C1V600,藤枝,2025-12-13,23.071961,120.757042,1.9789057e-09
C1E601,南勢,2025-12-13,24.572486,120.734842,0.95284414
C0O980,新市,2025-12-13,23.061614,120.298197,2.666209e-07
C0K420,西螺,2025-12-13,23.800407,120.467394,1.4871028e-07
C0Z050,佳心,2025-12-13,23.34567,121.21316,3.799729e-09
C0AD30,蘆洲,2025-12-13,25.086594,121.472331,1.23133495e-05
C0V610,梓官,2025-12-13,22.760558,120.267211,0.016703065
K2F750,種苗改良場,2025-12-13,24.225972,120.800917,5.6725047e-10
C0UA80,大溪漁港,2025-12-13,24.941801,121.902955,6.131653e-09
C1AI60,國一39K邊坡,2025-12-13,25.064361,121.383836,8.201651e-08
C0W150,金寧,2025-12-13,24.457703,118.328989,0.9628613
C0R960,內埔,2025-12-13,22.608483,120.570714,4.931447e-07
V2C250,八德合作社,2025-12-13,24.93775,121.266389,0.000121774596
C2H9S0,龍南,2025-12-13,23.953536,120.833183,6.160782e-10
C0AH40,平等,2025-12-13,25.129142,121.577086,1.31410385e-08
C0R540,佳冬,2025-12-13,22.419456,120.552375,4.9198807e-06
466950,彭佳嶼,2025-12-13,25.627975,122.079744,0.9934116
C0A890,雙溪,2025-12-13,25.036003,121.864242,9.197225e-09
C0C480,桃園,2025-12-13,24.992425,121.323172,1.6835766e-05
C0AH50,林口,2025-12-13,25.072181,121.38084,4.1945583e-08
A2K360,水試臺西試驗場,2025-12-13,23.717231,120.190522,0.075485535
C2M960,外寮,2025-12-13,23.562643,120.665688,8.1686863e-10
C0F9S0,烏日,2025-12-13,24.107058,120.624103,2.451544e-07
C2N180,鹿陶洋,2025-12-13,23.14325,120.48352,1.0880676e-09
C0C490,八德,2025-12-13,24.928708,121.283289,0.000121774596
C0R190,赤山,2025-12-13,22.592333,120.614306,1.883973e-07
C0T820,天祥,2025-12-13,24.179597,121.495639,1.5113939e-08
C1F9E1,龍安,2025-12-13,24.1605,120.831961,5.662106e-10
C2SD50,順那,2025-12-13,23.04166,121.29332,0.0069027725
C0V820,小林,2025-12-13,23.148408,120.63325,4.249733e-10
C2G870,芳苑,2025-12-13,23.922303,120.320025,0.97197855
C0E850,大河,2025-12-13,24.618069,120.948578,8.744703e-10
C1U670,寒溪,2025-12-13,24.634,121.71691,1.1762213e-09
C0N020,城西,2025-12-13,23.0568,120.0956,0.05425176
C1Z110,三棧,2025-12-13,24.11557,121.60501,1.4812056e-08
C0R280,檳榔,2025-12-13,22.076078,120.836777,0.99654835
C2H9J0,中台,2025-12-13,23.9996,120.938739,4.4442544e-10
C0F9L0,后里,2025-12-13,24.310436,120.729725,3.699006e-10
467441,高雄,2025-12-13,22.730432,120.312516,9.986012e-05
C0Z180,新城,2025-12-13,24.040486,121.604878,6.3494903e-09
C0D540,橫山,2025-12-13,24.71116,121.11693,6.69465e-10
C1D420,太閣南,2025-12-13,24.632808,121.160575,2.2729716e-09
C1E770,公館,2025-12-13,24.526914,120.830806,6.047292e-06
CAN130,水試所海水繁養殖中心,2025-12-13,23.120802,120.07968,0.07513504
C1I430,翠華,2025-12-13,24.191961,121.224339,8.02735e-09
C1M400,菜瓜坪,2025-12-13,23.251928,120.576103,4.258943e-10
C0G730,二林,2025-12-13,23.903325,120.376081,0.0045341323
72M360,南改義竹分場,2025-12-13,23.360694,120.279361,3.4367196e-05
V2K620,麥寮合作社,2025-12-13,23.753836,120.294783,1.0194078e-05
C0Z070,舞鶴,2025-12-13,23.46811,121.37407,7.65814e-10
C0B040,大武崙,2025-12-13,25.166676,121.706993,7.2855364e-08
C1Z030,紅葉,2025-12-13,23.493119,121.338806,7.7911666e-10
C1I050,丹大,2025-12-13,23.753747,121.141147,8.667823e-09
C0I080,信義,2025-12-13,23.689694,120.851036,3.3453768e-10
C2TB80,庄子底,2025-12-13,23.71794,121.49438,1.106012e-09
C0D750,樂山林道6k,2025-12-13,24.49999,121.08773,7.766497e-09
C2M920,朴子農改,2025-12-13,23.469889,120.259383,2.7585486e-06
C2A880,福隆,2025-12-13,25.017842,121.942083,1.3804958e-08
C0Z160,鳳林,2025-12-13,23.746114,121.453411,1.1235148e-09
C0UB80,翠峰林道6K,2025-12-13,24.49773,121.568625,1.8178632e-08
C0V210,復興,2025-12-13,23.222403,120.806089,7.419509e-10
C0H990,昆陽,2025-12-13,24.121322,121.273642,1.2665992e-08
C0R741,獅子,2025-12-13,22.202308,120.705236,0.8467475
C0S710,鹿野,2025-12-13,22.917711,121.122994,1.5207389e-09
C0I530,小奇萊,2025-12-13,24.131764,121.295717,1.3397973e-08
C0FA70,大雪山埡口,2025-12-13,24.26867,121.03062,9.822754e-09
C2K630,荷苞,2025-12-13,23.657717,120.595144,3.1371414e-06
C0Z080,富源,2025-12-13,23.587642,121.378225,2.8691487e-09
C2M9E0,旺來山,2025-12-13,23.555153,120.486463,3.1431669e-06
C0SB10,美和,2025-12-13,22.682078,121.060236,0.9995425
C2K620,馬光農場,2025-12-13,23.721453,120.378864,4.6992508e-07
C1I140,卡奈托灣,2025-12-13,23.754364,121.087872,1.8778905e-09
C0I520,玉山風口,2025-12-13,23.470489,120.955994,2.1522741e-08
C1G691,下水埔,2025-12-13,23.816114,120.5676,2.48022e-07
C0X110,臺南市南區,2025-12-13,22.961189,120.188378,3.0012714e-06
C0V680,仁武,2025-12-13,22.701083,120.347722,9.986012e-05
C2G840,北斗,2025-12-13,23.877586,120.514222,2.4600362e-07
C2TB90,長橋,2025-12-13,23.6874,121.46186,1.1285017e-09
C0R900,竹坑,2025-12-13,22.1385,120.7022,0.1410724
C0G860,社頭,2025-12-13,23.897647,120.5862,1.605395e-07
C0X150,安定,2025-12-13,23.102614,120.227839,8.7530876e-05
C0R590,里港,2025-12-13,22.77919,120.49459,2.1715307e-08
C0E610,馬都安,2025-12-13,24.451272,120.930192,7.6138057e-10
C0E550,明德,2025-12-13,24.583486,120.885411,7.266364e-10
C0R150,三地門,2025-12-13,22.709889,120.639944,3.5889595e-08
C0G910,花壇,2025-12-13,24.032076,120.549461,9.5814606e-08
C1D400,鳥嘴山,2025-12-13,24.71909,121.28387,1.7955667e-09
C0K500,元長,2025-12-13,23.64981,120.315024,2.5403933e-06
C0F0B0,石岡,2025-12-13,24.276061,120.777644,3.698999e-10
C2V250,甲仙,2025-12-13,23.080106,120.591758,4.4952955e-10
C0SA20,金崙山,2025-12-13,22.567419,120.959667,2.5291864e-09
C0V350,溪埔,2025-12-13,22.738578,120.446797,4.3492225e-08
C0M660,溪口,2025-12-13,23.604131,120.403569,0.0007795039
C1S880,壽卡,2025-12-13,22.238911,120.858903,0.9953645
72D680,桃改新埔分場,2025-12-13,24.834444,121.066111,0.99244606
