站號,站名,日期,lat,lon,BLBTSLS
C0R710,龍磐,2025-12-12,21.931672,120.838942,0.065255456
C1F9D1,白毛台,2025-12-12,24.158325,120.886933,1.5115458e-09
C0G940,竹塘,2025-12-12,23.848253,120.386764,0.9999486
467590,恆春,2025-12-12,22.003897,120.746339,0.11898568
C1O850,環湖,2025-12-12,23.148617,120.418633,1.2304604e-05
C0U710,太平山,2025-12-12,24.505486,121.525656,3.15491e-08
C0E820,獅潭,2025-12-12,24.539133,120.920042,0.09456603
C0V880,興達,2025-12-12,22.8778,120.2127,0.99984133
C0S890,關山,2025-12-12,23.0395,121.175017,3.1694697e-08
C0SB30,新蘭,2025-12-12,22.869214,121.223228,0.00018223068
C2R970,屏科大,2025-12-12,22.648275,120.619247,0.000753485
C1Z130,銅門,2025-12-12,23.965694,121.492842,1.488521e-08
C0AD40,土城,2025-12-12,24.973208,121.445169,0.9997376
CAN140,六官養殖協會,2025-12-12,23.22881,120.29962,0.99656993
C0X180,山上,2025-12-12,23.0757,120.363253,0.9710748
C0F9Z0,雪山東峰,2025-12-12,24.388792,121.268675,2.8080853e-08
C1M480,獨立山,2025-12-12,23.537022,120.607797,1.2510951e-09
C0X220,學甲,2025-12-12,23.230367,120.182187,0.9998368
467650,日月潭,2025-12-12,23.881325,120.90805,2.3673876e-09
C0K600,箔子寮,2025-12-12,23.6197,120.14,0.9999135
C0G830,埤頭,2025-12-12,23.866003,120.452806,0.96395725
C0S950,七塊厝,2025-12-12,22.954453,121.229922,1.0626177e-08
467110,金門,2025-12-12,24.407306,118.289281,0.92304283
C0AH80,深坑,2025-12-12,25.002703,121.628328,0.9997321
C0A970,三貂角,2025-12-12,25.007606,122.002058,8.2343295e-06
C2D730,寶山農場,2025-12-12,24.732444,120.976153,0.9997827
C0K430,褒忠,2025-12-12,23.690938,120.303634,0.9972324
467480,嘉義,2025-12-12,23.495925,120.432906,0.99375266
C0V400,阿公店,2025-12-12,22.804194,120.355528,0.9914515
C0E960,觀霧分站,2025-12-12,24.505781,121.113921,1.1348439e-08
467550,玉山,2025-12-12,23.48718,120.95943,3.427334e-08
C0R440,大漢山,2025-12-12,22.405264,120.753181,2.1770338e-08
C0SD30,東清國小,2025-12-12,22.057128,121.564922,0.9988802
C1F9B1,桐林,2025-12-12,24.066172,120.735194,0.2007763
C2H9U0,鳳鵬,2025-12-12,23.763919,120.788061,1.5803423e-08
C0K390,土庫,2025-12-12,23.679029,120.395574,0.9830104
C1I450,望鄉山,2025-12-12,23.594153,120.944286,1.93165e-08
C0E910,海埔,2025-12-12,24.648767,120.772435,0.9947178
B2E890,畜試北區分所,2025-12-12,24.527806,120.770972,0.9974014
C0R750,四林格山,2025-12-12,22.076989,120.802439,0.92523736
C0F0C0,中坑,2025-12-12,24.248517,120.903319,3.1342038e-09
C1I121,大鞍,2025-12-12,23.678381,120.760017,4.901408e-09
72U480,花改蘭陽分場,2025-12-12,24.686306,121.716583,9.675248e-08
C0A770,科教館,2025-12-12,25.096356,121.516507,0.99961084
C0AJ60,六塊厝,2025-12-12,25.24,121.4481,0.99997807
C0R620,墾雷,2025-12-12,21.900836,120.855269,0.31535527
467420,永康,2025-12-12,23.038386,120.2367,0.9993217
C0I410,名間,2025-12-12,23.837053,120.701447,3.1540974e-08
A2C560,農工中心,2025-12-12,24.985917,121.239833,0.9998784
C0V740,旗山,2025-12-12,22.888614,120.483597,0.98793375
C0Z061,玉里,2025-12-12,23.3215,121.339656,6.409737e-08
C0S840,南田,2025-12-12,22.279725,120.889208,0.9989781
C1I470,杉林溪,2025-12-12,23.639517,120.786444,6.095714e-09
C1X040,東原,2025-12-12,23.291597,120.463822,1.5841831e-09
C0R660,枋寮,2025-12-12,22.367722,120.590647,0.99948084
C1R120,上德文,2025-12-12,22.763272,120.704442,4.942188e-09
C0K450,大埤,2025-12-12,23.646074,120.431537,0.9775737
C0UA00,土場,2025-12-12,24.576533,121.495333,2.3758567e-08
467080,宜蘭,2025-12-12,24.763975,121.756528,5.891961e-07
C0N030,四草,2025-12-12,23.0235,120.1116,0.99977833
467410,臺南,2025-12-12,22.99328,120.20492,0.99986035
C0V650,彌陀,2025-12-12,22.783806,120.246361,0.99996454
C0D660,新竹市東區,2025-12-12,24.798681,120.986942,0.9997163
82S580,茶改東部分場,2025-12-12,22.907694,121.130139,6.721698e-07
C0SB40,興隆,2025-12-12,22.913661,121.257469,7.9605576e-05
467050,新屋,2025-12-12,25.006725,121.047492,0.9999737
C0C710,大溪永福,2025-12-12,24.892936,121.324975,0.99801564
C0FA20,溫寮,2025-12-12,24.372177,120.583125,0.99981225
C0V640,湖內,2025-12-12,22.887139,120.2445,0.9998422
C0R910,下寮,2025-12-12,22.3929,120.5548,0.9994808
C0Z020,明里,2025-12-12,23.208717,121.262342,6.062312e-08
C0M770,嘉義梅山,2025-12-12,23.585398,120.555587,0.023352807
C0C660,楊梅,2025-12-12,24.912375,121.143047,0.9998054
C0SD40,牛頭山,2025-12-12,22.676661,121.506944,0.9656716
C1E511,新開,2025-12-12,24.347703,120.827019,4.3087787e-09
G2F820,農試所(霧峰),2025-12-12,24.031261,120.688133,0.076456256
C2M990,大巃頂,2025-12-12,23.5547,120.61439,1.7074466e-09
C1I070,和社,2025-12-12,23.591131,120.888861,6.49284e-09
C2E990,新坪頂,2025-12-12,24.30201,120.8574,8.732007e-09
C0TA80,立霧山,2025-12-12,24.183258,121.641899,2.8045525e-08
C2F000,大肚,2025-12-12,24.15295,120.572117,7.755862e-07
C1S850,豐南,2025-12-12,23.122139,121.262389,1.261435e-08
C2A920,富貴角,2025-12-12,25.263783,121.565258,0.99991894
CAH030,茶改場竹圍站,2025-12-12,23.860083,120.637528,7.728545e-10
C0T960,光復,2025-12-12,23.660694,121.424964,5.7246026e-09
C0F9M0,豐原,2025-12-12,24.254322,120.720692,0.0011382625
C0R720,旭海,2025-12-12,22.205403,120.887614,0.9998612
C0V710,苓雅,2025-12-12,22.622742,120.330669,0.9999067
C0C740,觀音工業區,2025-12-12,25.064764,121.114856,0.99992967
CAC040,拉拉山,2025-12-12,24.699317,121.427133,1.8003515e-08
C0V790,萬山,2025-12-12,22.905944,120.688056,3.0691776e-09
U2HA30,臺大和社,2025-12-12,23.590856,120.888864,6.49284e-09
C2H9K0,屯原,2025-12-12,24.067969,121.209389,8.402712e-09
C0AJ90,澳底,2025-12-12,25.0552,121.9253,0.0091038635
C0Z100,東華,2025-12-12,23.89525,121.549833,1.3768486e-08
C0G970,三豐,2025-12-12,23.882,120.2895,0.775114
V2K610,大庄合作社,2025-12-12,23.8068,120.367939,0.99962604
C0V900,汕尾,2025-12-12,22.4782,120.4151,0.999504
C1R630,龍泉,2025-12-12,22.66701,120.59091,0.012178864
C1AC50,關渡,2025-12-12,25.133486,121.469331,0.999718
C0C800,四稜,2025-12-12,24.64733,121.4293,3.1569144e-08
C0F9I0,神岡,2025-12-12,24.272481,120.658314,0.015907854
C0K460,斗南,2025-12-12,23.678734,120.478359,0.97017485
C2O810,曾文,2025-12-12,23.219681,120.497328,1.4563098e-08
467280,後龍,2025-12-12,24.648563,120.831834,0.99688715
C1F9J1,清水林,2025-12-12,24.071242,120.820419,8.635985e-10
C2A650,火燒寮,2025-12-12,25.002719,121.742892,3.7759725e-07
466930,竹子湖,2025-12-12,25.162078,121.544547,1.9848362e-07
C1I220,樟湖,2025-12-12,23.905333,120.846983,2.8238585e-09
C0I390,仁愛,2025-12-12,24.022122,121.132206,2.5221532e-09
C0Z300,東里,2025-12-12,23.26853,121.30547,9.420957e-08
C1V590,新發,2025-12-12,23.057019,120.646064,2.9631966e-09
C0K510,水林,2025-12-12,23.572924,120.24597,0.99750566
72S590,東改賓朗果園,2025-12-12,22.813889,121.071278,1.5246917e-07
82A750,茶改北部分場,2025-12-12,24.955778,121.631222,1.0679273e-07
C1A750,石碇服務區,2025-12-12,25.00872,121.646242,0.9995348
C0X300,鹿寮,2025-12-12,23.386047,120.477331,0.002675135
G2AI50,關渡,2025-12-12,25.11575,121.492,0.9999748
C0K590,雲林東勢,2025-12-12,23.674192,120.255721,0.9836232
C0A570,桶後,2025-12-12,24.848222,121.597992,1.3897372e-08
C1S800,華源,2025-12-12,22.657883,121.02325,5.3783634e-07
C0G720,溪州,2025-12-12,23.851589,120.499093,0.94784796
C1V160,達卡努瓦,2025-12-12,23.279811,120.705319,2.982333e-09
C2M410,馬頭山,2025-12-12,23.324361,120.582017,1.0316521e-09
C0V850,蚵仔寮,2025-12-12,22.7256,120.2527,0.9999547
C0S740,池上,2025-12-12,23.119628,121.209469,1.4704757e-07
C1V390,尖山,2025-12-12,22.813153,120.367789,0.97657263
C0AH70,松山,2025-12-12,25.04871,121.55042,0.99959266
C0N010,鯤鯓國小,2025-12-12,23.1879,120.0889,0.9998888
C0R550,新埤,2025-12-12,22.467947,120.582894,0.9992553
C0SA60,知本（水試所）,2025-12-12,22.702394,121.082761,8.994341e-06
C0T9I0,豐濱,2025-12-12,23.583897,121.514806,5.6334755e-09
C0UB00,淡江大學蘭陽校園,2025-12-12,24.823239,121.730383,1.8678394e-08
C0W240,九宮,2025-12-12,24.423753,118.240186,0.9420197
C0T9N0,富里,2025-12-12,23.171639,121.249378,1.5609946e-07
U2HA50,臺大竹山,2025-12-12,23.756972,120.681556,1.32055975e-05
C0V840,鳳鼻頭,2025-12-12,22.5083,120.3591,0.97145575
C0X140,西港,2025-12-12,23.125608,120.203108,0.99904823
72D080,桃改五峰分場,2025-12-12,24.612194,121.157167,3.0751075e-09
C2H9P0,伊拿谷,2025-12-12,23.963211,121.088264,2.8448341e-09
C2K250,崙背,2025-12-12,23.75553,120.31893,0.99723005
C2H9F0,柑林,2025-12-12,24.018658,120.847072,3.3018912e-09
C0TA20,加灣,2025-12-12,24.082025,121.608944,1.9909673e-07
C0V530,阿蓮,2025-12-12,22.883208,120.327508,0.9857871
C0FB30,八仙山苗圃,2025-12-12,24.192719,121.001366,3.0299336e-09
C1O880,關山,2025-12-12,23.173397,120.594092,8.208529e-10
C0E791,卓蘭,2025-12-12,24.3126,120.8244,8.365612e-09
C1I030,武界,2025-12-12,23.913225,121.052483,2.781219e-09
C0R520,崁頂,2025-12-12,22.514781,120.506914,0.99915147
C0R341,牡丹,2025-12-12,22.130036,120.792639,0.99899375
C0R930,萬丹,2025-12-12,22.5885,120.4851,0.9802295
C0S760,紅石,2025-12-12,23.069131,121.126219,2.1308702e-08
C2C410,中央大學,2025-12-12,24.967652,121.185165,0.9998731
C1M610,石磐龍,2025-12-12,23.496606,120.663506,1.9547655e-09
C0C790,東眼山,2025-12-12,24.8284,121.40888,3.72709e-08
C0UA10,鴛鴦湖,2025-12-12,24.590269,121.412228,1.44353605e-08
V2C260,八德蔬果,2025-12-12,24.978508,121.281819,0.9996577
C0R800,丹路,2025-12-12,22.204481,120.750989,0.9971511
C0G920,永靖,2025-12-12,23.924703,120.547533,0.9713045
C2M950,太和,2025-12-12,23.538372,120.702961,2.762519e-09
C1A630,下盆,2025-12-12,24.771003,121.538622,7.00023e-09
B2N890,畜產試驗所,2025-12-12,23.058972,120.336406,0.9957272
C0UA30,白嶺,2025-12-12,24.527819,121.519031,2.4353133e-08
C1V580,溪南(特生中心),2025-12-12,23.084972,120.788475,6.942774e-09
C1T970,大農,2025-12-12,23.615233,121.413331,5.250566e-09
C0R650,竹田,2025-12-12,22.58486,120.54344,0.99835837
C1H900,清流,2025-12-12,24.080775,120.962997,2.951526e-09
C1C510,水尾,2025-12-12,24.940081,121.087161,0.9999753
C2N170,茅港尾,2025-12-12,23.2061,120.2624,0.99673766
C0F9X0,大雅(中科園區),2025-12-12,24.21528,120.62445,0.0002832154
C0SB60,白守蓮,2025-12-12,23.126769,121.401914,0.0063466756
C0O970,虎頭埤,2025-12-12,23.021375,120.347878,0.9658499
C0C730,中大臨海站,2025-12-12,24.966126,121.008581,0.99996567
C0X250,新營,2025-12-12,23.310689,120.316681,0.9970985
C0V700,三民,2025-12-12,22.645017,120.311233,0.9999334
C0U870,大礁溪,2025-12-12,24.791042,121.675047,1.7245885e-08
C0E870,高鐵苗栗,2025-12-12,24.60725,120.826094,0.9961707
A2K570,古坑花卉中心,2025-12-12,23.63353,120.55239,0.005144983
C0TA30,鹽寮,2025-12-12,23.845606,121.592664,1.4333354e-08
C0M860,新美,2025-12-12,23.338017,120.683169,7.9563583e-10
C1E701,八卦,2025-12-12,24.491756,120.927619,1.1199295e-08
C2TA90,加納納,2025-12-12,23.466421,121.359867,7.1235404e-09
C0I420,國姓,2025-12-12,24.037803,120.855072,2.6050753e-09
C2D720,關西工作站,2025-12-12,24.757275,121.184792,0.9650384
C0S960,香蘭,2025-12-12,22.587569,120.993375,0.022877637
467620,蘭嶼,2025-12-12,22.0369,121.55843,0.86423147
C0R260,春日,2025-12-12,22.370361,120.628306,0.99943876
72G600,臺中農改場,2025-12-12,24.003028,120.534389,0.9740922
C0Z210,瑞穗,2025-12-12,23.5239,121.39021,7.766097e-09
C0M820,達邦,2025-12-12,23.453994,120.749517,1.5660075e-09
C0V860,南寮,2025-12-12,22.7616,120.2339,0.99995476
C0G740,大城,2025-12-12,23.852487,120.320935,0.7456053
C0R920,塭仔,2025-12-12,22.4169,120.5197,0.99949074
C0R470,高樹,2025-12-12,22.826389,120.600806,0.010279696
C0R680,佳樂水,2025-12-12,21.993578,120.861633,0.07853196
C1O870,大棟山,2025-12-12,23.31157,120.52226,3.8277923e-09
C0D360,梅花,2025-12-12,24.678347,121.208558,6.374393e-08
C0Z190,富世,2025-12-12,24.14743,121.6297,1.7556108e-07
C0AI10,屈尺,2025-12-12,24.92184,121.54475,0.99918383
B2U990,畜試東區分所,2025-12-12,24.669039,121.832561,2.9918553e-08
C0SB80,長濱漁港,2025-12-12,23.313644,121.459994,2.7794607e-07
C0TA50,和仁,2025-12-12,24.241394,121.712472,2.1840336e-08
C0V910,大樹,2025-12-12,22.684645,120.432803,0.89580876
C1R610,西大武山,2025-12-12,22.617719,120.7322,2.327656e-08
C0G900,線西,2025-12-12,24.143358,120.443536,0.9999444
C0M700,竹崎,2025-12-12,23.526178,120.555508,0.017637903
C2E880,三義,2025-12-12,24.405478,120.749819,1.8333713e-09
C0C720,竹圍,2025-12-12,25.112692,121.239824,0.99997276
C0F9P0,清水,2025-12-12,24.312297,120.562242,0.99985313
C0Z150,吉安光華,2025-12-12,23.930925,121.595153,2.3558394e-08
C0FA80,小雪山天池,2025-12-12,24.28025,121.02627,2.1568932e-08
467300,東吉島,2025-12-12,23.25727,119.66762,0.94969076
C1D640,外坪(五指山),2025-12-12,24.644447,121.090961,8.213435e-09
C0F9O0,潭子,2025-12-12,24.213106,120.703933,0.3116718
C2H9R0,卓社,2025-12-12,23.887894,121.000086,2.962914e-09
72T250,花蓮農改場,2025-12-12,23.975222,121.563889,4.5557734e-08
C0E780,銅鑼,2025-12-12,24.489681,120.790853,0.73364556
C1T950,太安,2025-12-12,23.666719,121.370128,6.1809935e-09
C0E830,苑裡,2025-12-12,24.439714,120.653053,0.99968565
467270,田中,2025-12-12,23.873803,120.581286,0.40583396
C0SA10,檳榔四格山,2025-12-12,22.810031,121.109308,5.3010027e-08
C1T830,布洛灣,2025-12-12,24.17184,121.57127,4.5106397e-08
C0F970,大坑,2025-12-12,24.173142,120.722289,0.97449225
C1U920,思源,2025-12-12,24.393125,121.347214,1.5191915e-08
C2H9Y0,松茗,2025-12-12,23.8167,120.650765,4.366451e-09
C0A931,三和,2025-12-12,25.233153,121.595236,0.9973991
C0I010,廬山,2025-12-12,24.033311,121.181808,4.2136246e-09
C2M940,日野賀,2025-12-12,23.434056,120.727169,2.0203161e-09
C0R860,鼻頭,2025-12-12,22.1043,120.8979,0.98383325
C0UB20,壯圍,2025-12-12,24.7359,121.8163,1.1908513e-07
C0R790,九棚,2025-12-12,22.14195,120.889281,0.99911714
C0W110,東莒,2025-12-12,25.9652,119.98069,0.9356092
C1U930,粉鳥林,2025-12-12,24.497088,121.842479,3.645241e-08
C1I211,蘆竹湳,2025-12-12,23.934019,120.811994,1.1148779e-09
C0S830,長濱,2025-12-12,23.286817,121.411975,3.3843627e-08
C1F9F1,伯公龍,2025-12-12,24.272392,120.849047,1.6589603e-08
C0UB90,太平山莊,2025-12-12,24.494171,121.536209,3.1679345e-08
C0E810,西湖,2025-12-12,24.562947,120.7485,0.99967766
C1I440,新高口,2025-12-12,23.478744,120.878939,1.37293075e-08
C0O840,王爺宮,2025-12-12,23.222064,120.40085,4.7917574e-06
C0T9G0,鳳林山,2025-12-12,23.735269,121.420131,1.26349375e-08
C0X080,佳里,2025-12-12,23.173039,120.145086,0.9998888
C0FB70,大甲溪埔,2025-12-12,24.370625,120.620067,0.99981725
C0Z310,清水斷崖,2025-12-12,24.218294,121.689142,1.6488718e-08
C0M680,太保,2025-12-12,23.455062,120.331455,0.98623997
C1S820,金峰,2025-12-12,22.590969,120.933236,2.3199444e-05
C0AD10,八里,2025-12-12,25.150211,121.403947,0.9999734
C2K240,草嶺,2025-12-12,23.59555,120.693461,1.9437383e-09
C1SA70,都蘭,2025-12-12,22.87794,121.226881,7.899795e-05
C0K440,二崙,2025-12-12,23.772797,120.408944,0.8392765
C1A760,坪林交控,2025-12-12,24.94284,121.713442,5.620727e-07
C0F9N0,大里,2025-12-12,24.092464,120.701378,0.002045763
C0SA90,達仁林場,2025-12-12,22.264347,120.823972,7.3181465e-05
C1R290,石門山,2025-12-12,22.112611,120.756597,0.99575126
42HA10,萬大發電廠,2025-12-12,23.978875,121.139639,2.9762244e-09
C0R890,山海,2025-12-12,21.9878,120.7091,0.3230831
C0T9A0,月眉山,2025-12-12,23.809928,121.539828,9.094531e-09
C0AC70,信義,2025-12-12,25.037822,121.564597,0.99960226
C0K560,棋山,2025-12-12,23.68645,120.603417,0.0018362313
C2FB50,出雲,2025-12-12,24.206469,120.902794,2.4879716e-09
C1Z240,中平林道,2025-12-12,23.42115,121.26763,1.1202329e-08
U2H480,溪頭,2025-12-12,23.670306,120.798194,2.5745779e-09
C0M880,好美里,2025-12-12,23.3364,120.138,0.9998078
C0T9E0,大坑,2025-12-12,23.880628,121.581981,9.1617185e-09
C0K530,臺西,2025-12-12,23.701547,120.197559,0.9997934
C1E900,國一N128K,2025-12-12,24.560997,120.844186,0.9998319
C0AJ50,水湳洞,2025-12-12,25.123695,121.862238,0.999715
C0AI20,白沙灣,2025-12-12,25.283128,121.519058,0.999977
C2V310,美濃,2025-12-12,22.898792,120.51907,0.99078566
C0A860,大坪,2025-12-12,25.165914,121.632969,5.241546e-06
C1U850,觀音海岸,2025-12-12,24.38319,121.77856,1.5216276e-08
C2K610,草嶺石壁,2025-12-12,23.602469,120.707731,2.0217887e-09
C0U950,鶯子嶺,2025-12-12,24.89754,121.79244,2.2780029e-08
C0O900,善化,2025-12-12,23.112883,120.297219,0.997999
C0K550,蔦松,2025-12-12,23.514319,120.229736,0.999471
E2P980,林試六龜中心,2025-12-12,22.991703,120.645722,1.2080137e-09
C0E590,通霄,2025-12-12,24.471892,120.704622,0.9988277
C1I310,西巒,2025-12-12,23.754486,120.883956,1.7834872e-09
C0A550,泰平,2025-12-12,24.971197,121.823711,9.475398e-08
C0I360,水里,2025-12-12,23.812553,120.849792,4.871723e-09
C0R830,高士,2025-12-12,22.121825,120.836781,0.9910049
C1I101,溪頭,2025-12-12,23.661789,120.807647,8.002066e-09
C0AJ20,野柳,2025-12-12,25.20703,121.690021,0.9998335
C0B060,暖暖,2025-12-12,25.0957,121.7403,0.999356
C1H920,長豐,2025-12-12,24.102039,120.879897,1.4039448e-09
C0V360,內門,2025-12-12,22.975481,120.466769,9.71583e-05
C0R850,林邊,2025-12-12,22.4634,120.5339,0.9994404
C0E930,龍鳳,2025-12-12,24.700034,120.859125,0.97856003
C0U910,冬山,2025-12-12,24.63373,121.7937,2.9918553e-08
C1E721,泰安,2025-12-12,24.489017,120.968036,4.8737583e-09
82H320,茶改中部分場,2025-12-12,23.875611,120.913583,2.384263e-09
C0M750,布袋,2025-12-12,23.380878,120.167789,0.99925303
C1S860,利嘉,2025-12-12,22.809417,121.050528,1.9710036e-08
E2S980,林試太麻里1,2025-12-12,22.598922,120.980044,0.001602504
C0X170,關廟,2025-12-12,22.963017,120.327797,0.9349368
C0V720,林園,2025-12-12,22.507747,120.394511,0.9907031
C1I510,線浸林道,2025-12-12,23.761508,120.832956,1.876795e-09
C0D690,外湖,2025-12-12,24.917735,120.968711,0.9998879
C0C750,新興坑尾,2025-12-12,25.0061,121.0971,0.99998397
B2Q810,畜試南區分所,2025-12-12,21.945583,120.802167,0.07950451
C0S790,金崙,2025-12-12,22.538122,120.966875,6.15226e-06
C0AH90,福山植物園,2025-12-12,24.760717,121.58135,1.2054388e-08
C0I540,奇萊稜線,2025-12-12,24.109231,121.326456,2.526555e-08
C0M850,表湖,2025-12-12,23.24186,120.64166,6.7230316e-10
C0S770,大溪山,2025-12-12,22.478475,120.943325,4.29292e-07
C0AG80,中和,2025-12-12,24.991622,121.491792,0.9997378
C0T790,大禹嶺,2025-12-12,24.186117,121.316086,1.7332084e-08
C0T9B0,水源,2025-12-12,23.991861,121.537169,2.189865e-08
C0R840,牡丹池山,2025-12-12,22.168389,120.841225,0.40546277
C1I131,桶頭,2025-12-12,23.641944,120.654117,3.02204e-08
CAL110,布袋國中,2025-12-12,23.35893,120.18026,0.99971914
467571,新竹,2025-12-12,24.827853,121.014219,0.99718463
C0Z290,赤柯山,2025-12-12,23.36893,121.38293,1.6266869e-08
C0X280,將軍,2025-12-12,23.214999,120.13577,0.99984646
C0S690,太麻里,2025-12-12,22.60902,120.98533,2.3249166e-07
C0U880,北關,2025-12-12,24.9072,121.8734,0.94311464
CAW010,東引,2025-12-12,26.3588,120.4836,0.99814534
C0G810,埔心,2025-12-12,23.947633,120.525456,0.97407067
C0U970,大福,2025-12-12,24.80064,121.81389,7.1403156e-07
C2H9N0,仁愛東眼,2025-12-12,24.026875,121.1205,3.6957215e-09
C1E670,南礦,2025-12-12,24.538278,121.002836,3.6916425e-09
C0M520,東後寮,2025-12-12,23.369908,120.248065,0.99969375
C1E461,松安,2025-12-12,24.397972,120.986022,4.3202832e-09
C2N160,西拉雅風管處,2025-12-12,23.189481,120.335297,0.9422658
C2M970,碧湖,2025-12-12,23.568632,120.624165,1.6875833e-09
C0A640,石碇,2025-12-12,24.993969,121.662917,2.9991086e-05
E2S960,林試太麻里2,2025-12-12,22.598,120.99775,0.038950797
C0F9Y0,桃山,2025-12-12,24.432739,121.303808,2.8206086e-08
C1I020,萬大,2025-12-12,23.979817,121.132261,2.5382574e-09
C2UC20,長嶺,2025-12-12,24.70894,121.61162,2.1862174e-08
C0U940,羅東,2025-12-12,24.68184,121.74934,9.995806e-08
C0M650,朴子,2025-12-12,23.43463,120.23902,0.99587196
C1I500,大尖山,2025-12-12,23.858572,120.994889,8.97073e-09
C0FB40,中橫21.6k,2025-12-12,24.2499,121.1455,9.827833e-09
C0G820,田尾,2025-12-12,23.901669,120.509389,0.97391057
E2K600,四湖植物園,2025-12-12,23.676986,120.163433,0.99980617
C0S730,綠島,2025-12-12,22.6672,121.47533,0.99050564
12Q970,東港工作站,2025-12-12,22.479997,120.466058,0.99950224
C0E430,南庄,2025-12-12,24.601775,121.000214,0.06555428
C1TA00,太魯閣,2025-12-12,24.15773,121.6236,1.3017348e-07
466920,臺北,2025-12-12,25.037658,121.514853,0.99959266
C0R600,舊泰武,2025-12-12,22.588194,120.664944,2.0630573e-09
C1I260,北坑,2025-12-12,23.9246,121.006903,1.0745527e-09
466910,鞍部,2025-12-12,25.182586,121.529731,9.8787105e-08
C1I230,九份二山,2025-12-12,23.961944,120.845,3.0997165e-09
C2A660,瑞芳,2025-12-12,25.113169,121.801147,0.99947244
C0R270,琉球嶼,2025-12-12,22.332244,120.362236,0.99819756
C1T990,高寮,2025-12-12,23.394239,121.356808,9.273322e-09
C0G620,芬園,2025-12-12,24.015678,120.6213,0.018392373
C1Z140,荖溪,2025-12-12,23.890575,121.45964,5.1527174e-08
C1I201,中心崙,2025-12-12,23.728722,120.712097,2.4926456e-09
C1I400,凌霄,2025-12-12,24.018778,121.004456,3.5574437e-09
C1M640,十字,2025-12-12,23.492153,120.753683,5.4997966e-09
G2P820,農試鳳山分所,2025-12-12,22.646611,120.356083,0.99992573
C0Z270,蕃薯寮,2025-12-12,23.73835,121.540108,9.300139e-09
C0FB10,出雲山苗圃,2025-12-12,24.23105,120.90475,3.117724e-09
C0F9Q0,外埔,2025-12-12,24.347817,120.705686,0.016487246
C0K580,高鐵雲林,2025-12-12,23.737456,120.417944,0.93102425
C2I090,鳳凰,2025-12-12,23.728081,120.787347,2.2083784e-09
C0U990,員山,2025-12-12,24.74435,121.72247,1.0519443e-07
C0V770,大社,2025-12-12,22.730306,120.346639,0.9999479
C0X120,麻豆,2025-12-12,23.183289,120.248611,0.9952752
C0C670,龍潭,2025-12-12,24.870056,121.221389,0.40175843
C0D680,香山濕地,2025-12-12,24.783581,120.914988,0.999399
C0S980,勝林山,2025-12-12,22.430439,120.8938,4.5647496e-08
C0V730,大寮,2025-12-12,22.605614,120.395717,0.9998626
C0R570,麟洛,2025-12-12,22.65078,120.52719,0.04982414
C2M930,石卓,2025-12-12,23.478744,120.702264,5.2822675e-09
C0G9B0,和美,2025-12-12,24.105169,120.492131,0.9999723
CAG100,王功漁港,2025-12-12,23.96824,120.32586,0.9698521
C0X290,北門,2025-12-12,23.267772,120.125481,0.9998465
C2F930,大甲,2025-12-12,24.347667,120.640403,0.9997666
C0D650,湖口,2025-12-12,24.904794,121.043628,0.9999717
C0E420,竹南,2025-12-12,24.708978,120.888897,0.98113036
C0U780,五結,2025-12-12,24.68637,121.79794,1.13728966e-07
C1I250,鯉潭,2025-12-12,23.961922,120.991131,2.2928839e-09
C0R130,阿禮,2025-12-12,22.742908,120.743678,4.7276303e-09
C0X100,臺南市北區,2025-12-12,23.010394,120.194228,0.99987566
C0S920,金峰嘉蘭,2025-12-12,22.594789,120.960825,0.0014967687
C0V490,新興,2025-12-12,22.627422,120.298803,0.9999097
C0F9K0,大安,2025-12-12,24.345061,120.588025,0.99981856
467290,古坑,2025-12-12,23.633639,120.551889,0.005144983
C2E970,八甲,2025-12-12,24.535811,120.795983,0.99651194
C0V440,鳳山,2025-12-12,22.646653,120.356122,0.99992573
C1T940,大觀,2025-12-12,23.714206,121.373133,8.94773e-09
C0E740,造橋,2025-12-12,24.637056,120.864778,0.9961115
C0R100,尾寮山,2025-12-12,22.833111,120.683889,5.0180824e-09
A2K630,臺大雲林校區,2025-12-12,23.730628,120.423903,0.9305625
467990,馬祖,2025-12-12,26.169467,119.923158,4.0662767e-06
C0D580,寶山,2025-12-12,24.735006,121.025192,0.528508
E2P990,林試扇平站,2025-12-12,22.9677,120.6857,2.8160165e-09
C0AI30,三重,2025-12-12,25.057328,121.500629,0.99961084
C0AH00,汐止,2025-12-12,25.066881,121.658778,0.99959266
C1Z040,立山,2025-12-12,23.443356,121.327375,2.085431e-08
466881,新北,2025-12-12,24.959207,121.525196,0.99973583
C0W130,花嶼,2025-12-12,23.40007,119.32276,0.9555649
C0A950,鼻頭角,2025-12-12,25.129036,121.923372,0.9960514
C0K470,林內,2025-12-12,23.748675,120.609642,0.00036501922
C2F990,摩天嶺,2025-12-12,24.322458,120.936819,2.459258e-09
82C160,茶改場,2025-12-12,24.908472,121.185333,0.9997388
C0Z320,清水林道,2025-12-12,23.27125,121.188272,1.4245729e-08
C0R760,南仁湖,2025-12-12,22.084681,120.863353,0.99575
C0M670,大林,2025-12-12,23.600616,120.45841,0.99223596
C0M800,茶山,2025-12-12,23.299075,120.664767,8.307348e-10
C0A9C0,天母,2025-12-12,25.117494,121.537169,0.9998267
72K220,南改斗南分場,2025-12-12,23.634556,120.477333,0.9693641
72AI40,桃改樹林分場,2025-12-12,24.944503,121.386972,0.99985635
C0S910,蘭嶼燈塔,2025-12-12,22.081197,121.503117,0.99634486
C0B050,八斗子,2025-12-12,25.144754,121.79167,0.99974203
C0U900,內城,2025-12-12,24.71813,121.68766,8.583886e-08
C0X320,柳營,2025-12-12,23.253328,120.375253,0.050022863
C0M790,新港,2025-12-12,23.553269,120.345728,0.997395
C0F9T0,西屯,2025-12-12,24.179494,120.641275,0.8700522
C0E950,松安,2025-12-12,24.39792,120.98599,4.320275e-09
C0SA30,都歷,2025-12-12,23.020333,121.323642,2.2882894e-07
C0C620,蘆竹,2025-12-12,25.084275,121.265767,0.9999743
C0R730,大坪頂,2025-12-12,22.024633,120.69355,0.9967414
C0AJ40,石門,2025-12-12,25.273672,121.601198,0.99994296
C0E750,苗栗,2025-12-12,24.564569,120.824575,0.9998414
C0T870,鯉魚潭,2025-12-12,23.935639,121.508944,1.5827826e-08
C1V170,排雲,2025-12-12,23.463619,120.954147,2.7577089e-08
C2H950,中寮,2025-12-12,23.884447,120.766406,1.974081e-06
C0R350,貓鼻頭,2025-12-12,21.921774,120.7358,0.42794955
C0V660,岡山,2025-12-12,22.797078,120.294958,0.99996424
C1H941,雙冬,2025-12-12,23.967378,120.802189,1.0709392e-09
C0AJ70,田寮,2025-12-12,25.2698,121.4886,0.9999776
C0AI00,五股,2025-12-12,25.07445,121.42728,0.9995823
C0Z280,德武,2025-12-12,23.47426,121.41071,7.5886994e-09
C2RA10,大新,2025-12-12,22.67558,120.57788,0.0122713735
C0R700,枋山,2025-12-12,22.246844,120.661086,0.901224
C0C460,復興,2025-12-12,24.820208,121.352281,4.2361157e-06
C2K300,鹿南,2025-12-12,23.63855,120.3636,0.90856093
E2H360,蓮華池,2025-12-12,23.918333,120.885278,1.0303779e-09
C0M640,中埔,2025-12-12,23.42538,120.5229,0.0007785177
C0W140,金沙,2025-12-12,24.488292,118.408778,0.09872407
C2A540,四堵,2025-12-12,24.8926,121.745736,3.018886e-07
C0ACA0,新莊,2025-12-12,25.051478,121.446756,0.999738
C0R220,潮州,2025-12-12,22.534361,120.54,0.99895734
U2HA40,臺大內茅埔,2025-12-12,23.689722,120.851117,6.849776e-10
467490,臺中,2025-12-12,24.145736,120.684075,0.95332223
C0UB60,明池,2025-12-12,24.650688,121.475277,3.153153e-08
C0U960,翠峰湖,2025-12-12,24.510856,121.608044,2.8935235e-08
E2HA20,林試畢祿溪站,2025-12-12,24.226944,121.308522,1.4264407e-08
C0V890,前鎮,2025-12-12,22.5718,120.3117,0.9999188
C1F941,雪嶺,2025-12-12,24.280586,121.026642,2.1568932e-08
C2H9E0,國姓南港,2025-12-12,23.911108,120.846556,2.8940905e-09
C0AC80,文山,2025-12-12,25.00235,121.575728,0.99973226
C0F9R0,龍井,2025-12-12,24.184536,120.528972,0.9998931
C0M760,民雄,2025-12-12,23.551754,120.428457,0.9927349
C0UA40,西德山,2025-12-12,24.560647,121.752608,2.1952765e-08
C2TA70,赤科坪,2025-12-12,23.39885,121.39168,1.6064234e-08
C1T920,中興,2025-12-12,23.769503,121.498653,1.2009728e-08
C0D550,雪霸,2025-12-12,24.526972,121.11605,1.0480947e-08
C2F860,梨山,2025-12-12,24.247522,121.243669,1.4637089e-08
C0R320,車城,2025-12-12,22.0744,120.716247,0.33714315
C1S870,南美山,2025-12-12,23.15025,121.382333,1.6464982e-07
C0B020,基隆嶼,2025-12-12,25.19141,121.78391,0.99998564
C1U501,牛鬥,2025-12-12,24.637836,121.573656,2.6151328e-08
C0M730,嘉義市東區,2025-12-12,23.457673,120.460531,0.18927579
C2R990,泰武,2025-12-12,22.60686,120.69765,8.139778e-09
C0S700,知本,2025-12-12,22.684866,121.005642,3.266501e-08
C1N001,沙崙,2025-12-12,22.935472,120.309406,0.96094435
C0V760,橋頭,2025-12-12,22.757806,120.30575,0.99995196
C0G960,福寶,2025-12-12,24.0443,120.3814,0.999973
C0X210,白河,2025-12-12,23.347466,120.414427,0.0031516238
C0S810,東河,2025-12-12,22.972672,121.303986,0.6283117
C2R170,屏東,2025-12-12,22.66027,120.49403,0.05003278
C0R670,楓港,2025-12-12,22.190131,120.692156,0.9966626
C0FA50,霧峰,2025-12-12,24.0419,120.6995,0.051121168
C0UB10,蘇澳,2025-12-12,24.5969,121.8571,1.4438995e-08
C0G950,防潮門,2025-12-12,24.1835,120.4871,0.99989444
C0M740,六腳,2025-12-12,23.492871,120.290625,0.9969526
C1R250,力里,2025-12-12,22.428117,120.629228,0.99090636
C0K330,虎尾,2025-12-12,23.719183,120.442036,0.8972172
C2FA00,烏石坑,2025-12-12,24.273503,120.947617,2.4142965e-09
C0V620,永安,2025-12-12,22.82315,120.236856,0.99996454
C1I330,楓樹林,2025-12-12,23.986803,121.076117,2.8856295e-09
C0W200,湖西,2025-12-12,23.596314,119.67275,0.9796978
72Q010,高雄農改場,2025-12-12,22.709333,120.525889,0.4162001
C0SA40,瑞和,2025-12-12,22.974361,121.156697,4.640359e-08
C0C680,龜山,2025-12-12,25.02846,121.38656,4.6445995e-05
C2V260,月眉,2025-12-12,22.971003,120.539853,1.1082731e-06
C0V450,鳳森,2025-12-12,22.545064,120.392592,0.90715885
C0FA90,小雪山林道,2025-12-12,24.29515,121.03651,2.700123e-08
C0U720,南山,2025-12-12,24.43742,121.38167,2.4062205e-08
A2N290,臺南蘭花園區,2025-12-12,23.340258,120.379661,0.9631495
C0R560,新園,2025-12-12,22.5434,120.461558,0.9907031
C0U890,三星,2025-12-12,24.66812,121.65302,3.828758e-08
C1V300,御油山,2025-12-12,23.001983,120.715364,6.8011943e-09
C0U600,礁溪,2025-12-12,24.817539,121.765608,4.315437e-06
C1T980,龍澗,2025-12-12,24.023289,121.411328,5.47701e-08
C0D670,海天一線,2025-12-12,24.831986,120.914438,0.9992831
C0SA00,歷坵,2025-12-12,22.520969,120.89185,9.688969e-08
C0M710,東石,2025-12-12,23.458927,120.15385,0.9998936
C0M780,鹿草,2025-12-12,23.41134,120.30835,0.9945716
C0U520,雙連埤,2025-12-12,24.753033,121.641303,1.7086368e-08
C0B010,七堵,2025-12-12,25.094819,121.71713,0.9995268
C0R480,長治,2025-12-12,22.693128,120.542622,0.77180004
C1V830,國三S383K,2025-12-12,22.781967,120.426475,0.0076353233
12Q980,恆春工作站,2025-12-12,22.079678,120.714425,0.3378753
C1O940,東山服務區,2025-12-12,23.286016,120.398472,0.0068288916
C1U840,東澳嶺,2025-12-12,24.5378,121.8485,1.6754992e-08
C1D630,飛鳳山,2025-12-12,24.766464,121.119178,1.4103433e-07
C0S940,石寧山,2025-12-12,23.223772,121.406639,1.4487347e-07
C0K410,北港,2025-12-12,23.573957,120.292802,0.99650425
C2M620,瑞里,2025-12-12,23.545133,120.675197,2.3712785e-09
C0SB70,小港漁港,2025-12-12,23.158558,121.400431,0.00012482156
C2O950,安南,2025-12-12,23.076694,120.144861,0.99996066
C0F0E0,南湖圈谷,2025-12-12,24.363714,121.444667,4.973168e-08
467610,成功,2025-12-12,23.097486,121.373428,0.0013177
C0G890,伸港,2025-12-12,24.148933,120.484403,0.99994326
C2E540,龍溪,2025-12-12,24.606489,120.783933,0.99570286
C1V200,梅山,2025-12-12,23.268447,120.823556,2.5052478e-09
C0T9H0,加路蘭山,2025-12-12,23.682947,121.5274,1.4405957e-08
C2O930,玉井,2025-12-12,23.126042,120.46055,0.020323616
C1F911,新伯公,2025-12-12,24.221361,120.841069,9.100657e-09
C0R490,九如,2025-12-12,22.7405,120.490503,0.46648353
C0X200,左鎮,2025-12-12,23.056758,120.408522,0.99843115
C0FA60,鞍馬山工作站,2025-12-12,24.267064,121.000793,1.3209189e-08
C0SB50,叭嗡嗡,2025-12-12,23.047062,121.343223,2.456117e-06
C1F891,稍來,2025-12-12,24.265689,121.001142,1.2811335e-08
72N240,七股研究中心,2025-12-12,23.081672,120.062894,0.999936
C0C700,中壢,2025-12-12,24.977661,121.256375,0.99961233
C0M690,水上,2025-12-12,23.419734,120.388909,0.9804084
C0V690,鼓山,2025-12-12,22.623325,120.275575,0.99990976
C0O860,大內,2025-12-12,23.11885,120.36083,0.9963197
C0Z200,萬榮,2025-12-12,23.709219,121.420106,1.0827476e-08
C0T9D0,和中,2025-12-12,24.26676,121.74103,1.996197e-08
C1O921,楠西,2025-12-12,23.183511,120.484083,2.0345203e-06
C0AJ30,淡水觀海,2025-12-12,25.184591,121.408616,0.99996793
C0V810,左營,2025-12-12,22.67491,120.28491,0.9999335
C0UA70,桃源谷,2025-12-12,24.962606,121.888875,2.4070191e-08
C0X130,官田,2025-12-12,23.193217,120.315422,0.9589897
C1H000,翠峰,2025-12-12,24.109397,121.205211,1.2100275e-08
C0UA90,石城,2025-12-12,24.980444,121.951214,7.165136e-05
C1E681,南勢山,2025-12-12,24.421669,120.923831,3.956281e-09
C0A9F0,內湖,2025-12-12,25.079422,121.57545,0.99959266
C0K291,宜梧,2025-12-12,23.536281,120.169329,0.9994724
C1K540,口湖,2025-12-12,23.585344,120.180517,0.99991345
C0R780,滿州,2025-12-12,22.024403,120.839892,0.14793584
C0V870,文安,2025-12-12,22.8025,120.2164,0.999967
C0U650,玉蘭,2025-12-12,24.675286,121.587061,2.198134e-08
C0R640,東港,2025-12-12,22.46247,120.44074,0.9995026
C0AJ80,板橋,2025-12-12,25.0107,121.4489,0.99973935
C0S660,下馬,2025-12-12,23.150427,121.070312,1.1449101e-08
C1H9B1,阿眉,2025-12-12,24.1263,120.994672,9.897303e-09
C0UA20,多加屯,2025-12-12,24.368614,121.373189,1.6541323e-08
C0E730,頭份,2025-12-12,24.688247,120.912206,0.9804628
72V140,高改旗南分場,2025-12-12,22.857861,120.516667,0.024106704
C0K480,莿桐,2025-12-12,23.761192,120.502372,0.35645023
C0U980,坪林石牌,2025-12-12,24.86478,121.77396,1.6115608e-08
C0T900,西林,2025-12-12,23.8119,121.441458,1.0110891e-08
C1I150,青雲,2025-12-12,23.793361,120.949378,2.2269346e-09
C2E980,和興,2025-12-12,24.505319,120.923016,1.9192077e-08
467350,澎湖,2025-12-12,23.565503,119.563094,0.9694683
C0G800,埔鹽,2025-12-12,24.000394,120.431683,0.9999638
C0H960,草屯,2025-12-12,23.973672,120.68085,0.011943686
C1V780,多納林道,2025-12-12,22.888028,120.737917,3.2372673e-09
C0E920,通霄漁港,2025-12-12,24.498589,120.673876,0.99622864
C0Z330,安通山,2025-12-12,23.290728,121.348528,1.6222128e-08
C0AH10,永和,2025-12-12,25.01125,121.508111,0.99973875
C0AK10,太平里,2025-12-12,25.134937,121.364899,0.9999739
C2G640,鹿港,2025-12-12,24.0753,120.430481,0.999973
C1E890,國三N149K,2025-12-12,24.463414,120.680019,0.99986494
C1R110,口社,2025-12-12,22.770111,120.645222,4.1433074e-07
C1M870,國三N285K,2025-12-12,23.550319,120.505833,0.25634274
C1E480,鳳美,2025-12-12,24.554803,121.034747,1.7688194e-08
C0M530,奮起湖,2025-12-12,23.493903,120.699253,2.7909064e-09
C0C590,觀音,2025-12-12,25.027072,121.153317,0.99998033
C0T9M0,靜浦,2025-12-12,23.455167,121.495028,1.03257e-08
C2H9M0,發祥,2025-12-12,24.154094,121.164517,4.8600013e-09
C0AI40,石牌,2025-12-12,25.115597,121.513139,0.99982905
C1F871,上谷關,2025-12-12,24.203483,121.018644,2.3120885e-09
C2H9G0,百勝,2025-12-12,24.051142,120.909361,2.0199693e-09
C0G880,二水,2025-12-12,23.810742,120.6173,6.333952e-05
C0R940,加祿堂,2025-12-12,22.3363,120.6217,0.99960166
C0W220,北竿,2025-12-12,26.220358,119.974881,0.0026672273
C0O960,崎頂,2025-12-12,22.959547,120.369317,0.52574915
C0TA40,秀林,2025-12-12,24.302864,121.731144,2.2069983e-08
C0S750,向陽,2025-12-12,23.248397,120.986133,1.1679146e-08
C0T9F0,水璉,2025-12-12,23.797131,121.542514,9.567615e-09
C1M600,頭凍,2025-12-12,23.406364,120.603339,1.4547072e-09
467660,臺東,2025-12-12,22.752211,121.154586,0.9597275
C1D380,新埔,2025-12-12,24.84745,121.03834,0.9995594
C2G980,田頭村,2025-12-12,23.8263,120.444175,0.83991474
C0V750,路竹,2025-12-12,22.854997,120.259439,0.99994266
C0N050,蚵寮,2025-12-12,23.301,120.1104,0.9998076
C2X060,下營,2025-12-12,23.226806,120.256291,0.9967439
72M700,南改鹿草分場,2025-12-12,23.416869,120.283061,0.9957507
C1SA50,利嘉林道,2025-12-12,22.82325,121.009389,1.0386479e-08
C0UB70,太平山中間站,2025-12-12,24.542003,121.513453,2.5315186e-08
C0A940,金山,2025-12-12,25.223628,121.643967,0.9998164
C1V340,大津,2025-12-12,22.888322,120.645986,7.82301e-06
C0W180,七美,2025-12-12,23.219333,119.444892,0.9657979
C1F9C1,白冷,2025-12-12,24.182844,120.929889,3.3863494e-09
K2E710,苗改生物防治研究中心,2025-12-12,24.422861,120.871833,0.008974396
C0N040,蘆竹溝,2025-12-12,23.2344,120.0961,0.9998465
C0TB40,崇德,2025-12-12,24.166144,121.657414,2.1702621e-07
C0D760,大坪苗圃,2025-12-12,24.5362,121.1108,4.5928603e-09
C2W230,畜試所澎湖,2025-12-12,23.628342,119.513206,0.9656691
C0R880,後壁湖,2025-12-12,21.9457,120.7457,0.34850886
C1I280,埔中,2025-12-12,23.820778,120.642594,4.180515e-09
467790,墾丁雷達站,2025-12-12,21.948235,120.808028,0.079436585
C0W190,望安,2025-12-12,23.380564,119.494075,0.97413075
C0Z170,卓溪,2025-12-12,23.3443,121.3029,4.892127e-08
C0F850,東勢,2025-12-12,24.246428,120.833047,1.5619069e-08
466900,淡水,2025-12-12,25.164889,121.448906,0.9999739
C0I370,魚池,2025-12-12,23.895703,120.94135,8.317892e-10
C0C630,大溪,2025-12-12,24.882853,121.265547,0.9977724
C0A520,山佳,2025-12-12,24.974944,121.402008,0.9997502
C0I110,竹山,2025-12-12,23.761225,120.688156,6.2572785e-06
82H840,茶改南部分場,2025-12-12,23.762528,120.7405,8.275329e-09
C0G660,溪湖,2025-12-12,23.94835,120.479122,0.97968256
C1T800,洛韶,2025-12-12,24.204558,121.453956,2.6288406e-08
C1T810,慈恩,2025-12-12,24.192044,121.388386,1.0372028e-08
C1E451,象鼻,2025-12-12,24.368617,120.940228,5.0403846e-09
C0AC60,三峽,2025-12-12,24.939025,121.369728,0.99962664
C0I490,萬大林道,2025-12-12,23.928228,121.091411,4.777523e-09
C1I290,豐丘,2025-12-12,23.668178,120.887417,2.2351518e-09
C1I320,奧萬大,2025-12-12,23.952956,121.178556,3.1891152e-09
C2M910,嘉義大學,2025-12-12,23.471325,120.485903,0.0358991
C0U770,南澳,2025-12-12,24.44935,121.81022,1.926712e-08
C2TB30,吉安,2025-12-12,23.94538,121.54803,1.9430608e-08
C0A980,社子,2025-12-12,25.109508,121.469681,0.99997383
C0V800,六龜,2025-12-12,22.997889,120.633583,1.3027482e-09
C1G9D0,國一S218K,2025-12-12,23.890641,120.493253,0.99268126
C0E570,白沙屯,2025-12-12,24.549447,120.696803,0.9992711
C2F9A0,中竹林,2025-12-12,24.103556,120.751061,2.044053e-09
C0FA40,臺中電廠,2025-12-12,24.2146,120.4907,0.9998931
C2G9A0,畜試所彰化,2025-12-12,23.86045,120.557964,0.40727833
C0H9C0,合歡山,2025-12-12,24.143442,121.272547,2.583059e-08
G2M350,農試溪口農場,2025-12-12,23.58565,120.408111,0.99509305
C0U860,頭城,2025-12-12,24.85323,121.8308,5.4826246e-06
C0R580,南州,2025-12-12,22.48591,120.50274,0.9995026
C0D430,峨眉,2025-12-12,24.6905,121.017189,0.99978256
C0G780,秀水,2025-12-12,24.03405,120.503869,0.9741854
72N100,臺南農改場,2025-12-12,23.0605,120.342194,0.99521595
C0S900,蘭嶼高中,2025-12-12,22.04909,121.51214,0.9982924
C2TA60,六十石,2025-12-12,23.22477,121.31861,1.3834903e-08
C1F9W0,德基,2025-12-12,24.254783,121.190261,1.1534013e-08
C2M980,安和,2025-12-12,23.51377,120.31593,0.9957832
C1Z120,壽豐,2025-12-12,23.870853,121.508081,1.3768486e-08
C0W160,烏坵,2025-12-12,24.9944,119.44956,0.8438379
C1I240,外大坪,2025-12-12,23.958697,120.917931,2.2264717e-09
C1I550,國六W023K,2025-12-12,23.979067,120.867742,1.4485025e-09
C0R870,興海,2025-12-12,21.9752,120.8439,0.07950451
C0R140,瑪家,2025-12-12,22.682903,120.686639,2.3630793e-09
C0A530,坪林,2025-12-12,24.938183,121.70975,2.653341e-07
C0X260,後壁,2025-12-12,23.366358,120.362326,0.9946698
C0Z230,和平,2025-12-12,24.30717,121.77007,2.0267626e-08
C0G770,福興,2025-12-12,24.041289,120.437669,0.9999642
C0H9A0,神木村,2025-12-12,23.532742,120.843667,7.676746e-09
C0I460,南投,2025-12-12,23.911469,120.687331,5.0470142e-05
C0I480,梅峰,2025-12-12,24.085272,121.173572,7.812987e-09
C1V570,吉東,2025-12-12,22.85422,120.5454,0.011492695
C2A560,福山,2025-12-12,24.776203,121.502811,6.445339e-08
C0AH30,五分山,2025-12-12,25.07125,121.780794,2.9183376e-08
C0FA10,松柏,2025-12-12,24.429115,120.617482,0.99969274
72S200,東改班鳩分場,2025-12-12,22.829528,121.077694,4.3790098e-07
72HA00,中改埔里分場,2025-12-12,23.903208,120.963364,1.0424938e-09
C2H9W0,大坪頂農水,2025-12-12,24.043122,120.932781,1.3979407e-09
C0C650,平鎮,2025-12-12,24.897503,121.214636,0.99909323
C0S930,延平,2025-12-12,22.902581,121.084058,1.6914827e-07
C0UA60,樟樹山,2025-12-12,24.41393,121.78325,2.0905526e-08
C2UC10,出水溪,2025-12-12,24.615822,121.652253,2.2611593e-08
C1S670,摩天,2025-12-12,23.199503,121.027,2.522645e-08
C0V630,茄萣,2025-12-12,22.906642,120.182608,0.99984133
466940,基隆,2025-12-12,25.133314,121.740475,0.9997318
C0X050,東河,2025-12-12,23.296598,120.385608,0.01749397
C0R770,保力,2025-12-12,22.071122,120.764111,0.90278333
G2L020,農試嘉義分所,2025-12-12,23.485028,120.473806,0.41527078
C0X240,關子嶺,2025-12-12,23.331169,120.508025,7.677533e-10
C0I380,集集,2025-12-12,23.828206,120.801467,5.8398486e-09
466990,花蓮,2025-12-12,23.975128,121.613275,5.1476878e-08
C1V220,小關山,2025-12-12,23.154217,120.813603,8.049905e-09
C1F9G1,慶福山,2025-12-12,24.180853,120.848378,2.6625886e-09
C0FB20,雪山橋,2025-12-12,24.23192,120.9786,1.5123483e-08
C0Z250,瑞穗林道,2025-12-12,23.49284,121.30688,1.1242527e-08
C0D590,新豐,2025-12-12,24.87068,120.97721,0.99995226
C0A870,五指山,2025-12-12,25.132153,121.608692,1.3692231e-07
C0UA50,西帽山,2025-12-12,24.555361,121.802628,2.1841961e-08
C2R980,竹田國中,2025-12-12,22.61532,120.52412,0.99828994
C0X160,仁德,2025-12-12,22.968258,120.257689,0.9997709
C1H971,六分寮,2025-12-12,23.92507,120.6378,2.5400058e-09
C0W120,西嶼,2025-12-12,23.5626,119.468436,0.97545475
C0G650,員林,2025-12-12,23.946503,120.585597,0.67819124
C0AD50,鶯歌,2025-12-12,24.951533,121.346294,0.9996118
C2H9Q0,北東眼山,2025-12-12,24.120939,121.189303,1.3870916e-08
C2H9T0,名間竹圍,2025-12-12,23.859914,120.637572,7.730137e-10
C0S990,山豬窟,2025-12-12,22.318619,120.857372,6.846824e-05
C0X190,安平,2025-12-12,22.993161,120.152181,0.9998756
C0K400,斗六,2025-12-12,23.720583,120.541127,0.79308456
12J990,口湖工作站,2025-12-12,23.589978,120.180394,0.9999135
C0O830,北寮,2025-12-12,23.079561,120.495008,4.7285706e-08
C1D410,白蘭,2025-12-12,24.579364,121.079947,4.1229464e-09
C0S970,加津林,2025-12-12,22.416211,120.926942,0.9993812
C0D700,關西,2025-12-12,24.7977,121.1732,0.99929476
C0M810,里佳,2025-12-12,23.389125,120.716647,2.736205e-09
C0U750,龜山島,2025-12-12,24.841667,121.953133,4.0549466e-07
C0R810,內獅,2025-12-12,22.305064,120.642986,0.9996068
C1M390,龍美,2025-12-12,23.406728,120.654417,1.8859814e-09
C2K290,崙內,2025-12-12,23.69525,120.35601,0.997202
C2FB60,頭櫃山,2025-12-12,24.129842,120.858925,3.672666e-09
C1H840,國三N238K,2025-12-12,23.841008,120.707711,9.743614e-10
CAQ030,崎峰國小,2025-12-12,22.42565,120.49521,0.9995026
C2E520,大湖,2025-12-12,24.414939,120.870872,3.2584906e-09
467530,阿里山,2025-12-12,23.508208,120.813242,1.5146838e-08
C1E691,南湖,2025-12-12,24.40135,120.837533,3.9198667e-09
C0FA30,梧棲,2025-12-12,24.256003,120.523381,0.9998531
C1V231,高中,2025-12-12,23.134911,120.716711,7.8802254e-10
C0AK30,硬漢嶺,2025-12-12,25.136097,121.426372,2.674399e-07
C0F9V0,新社,2025-12-12,24.200172,120.815806,4.34249e-09
C0H890,埔里,2025-12-12,23.972169,120.952425,3.0674394e-09
C0R690,墾丁,2025-12-12,21.966756,120.810269,0.8298512
C0SD20,富山,2025-12-12,22.822383,121.190825,0.15898633
C0F0D0,審馬陣,2025-12-12,24.381675,121.4203,2.9333997e-08
C2W030,金門農試所,2025-12-12,24.448431,118.451786,0.968783
C0R820,白鷺,2025-12-12,22.454275,120.666219,1.670875e-08
C0FB00,大雪山,2025-12-12,24.254668,121.007374,1.661221e-08
C1V190,南天池,2025-12-12,23.27403,120.91176,1.3015443e-08
C0E940,雪見,2025-12-12,24.42595,121.01347,1.0920079e-08
K2E360,苗栗農改場,2025-12-12,24.495722,120.829111,0.98698926
CAJ050,海口故事園區,2025-12-12,23.57543,120.14121,0.9999135
C2K280,四湖,2025-12-12,23.6304,120.22717,0.99980885
C2H9D0,三隻寮,2025-12-12,24.093078,120.861578,1.3987702e-09
C0O990,媽廟,2025-12-12,22.99175,120.293525,0.9989839
C0D480,打鐵坑,2025-12-12,24.849664,121.150789,0.3903084
C0Z220,和平林道,2025-12-12,24.343922,121.656317,8.447176e-09
C0TA10,花蓮漁港,2025-12-12,23.995322,121.638331,5.515915e-08
72C440,桃園農改場,2025-12-12,24.950944,121.030583,0.99994695
C1E711,馬拉邦山,2025-12-12,24.367306,120.901656,3.4132865e-09
C0SB20,富岡,2025-12-12,22.792467,121.192669,0.08182468
C0D560,竹東,2025-12-12,24.767147,121.057881,0.98793995
C0F9U0,南屯,2025-12-12,24.137006,120.637969,0.8612272
C0M720,番路,2025-12-12,23.464657,120.554156,1.0118839e-05
C0F0A0,雪山圈谷,2025-12-12,24.388594,121.236339,3.377875e-08
C1A9N0,四十份,2025-12-12,24.934158,121.593283,5.823284e-07
C0U760,東澳,2025-12-12,24.52196,121.83318,3.255045e-08
C0X230,鹽水,2025-12-12,23.272621,120.247641,0.9997956
C2H9H0,苗改南投蜂場,2025-12-12,23.852589,120.693481,5.4353205e-08
C0R950,萬隆國小,2025-12-12,22.507667,120.587817,0.99779564
467540,大武,2025-12-12,22.35572,120.90374,0.9995131
C0V370,古亭坑,2025-12-12,22.893178,120.401947,0.8822546
C1I340,新興橋,2025-12-12,23.563333,120.868728,1.044514e-09
C0SA80,土坂,2025-12-12,22.453108,120.887572,0.0025107397
C0R160,鹽埔,2025-12-12,22.739558,120.530778,0.37955603
C0AC40,大屯山,2025-12-12,25.175675,121.522408,5.2347094e-08
466850,五分山雷達站,2025-12-12,25.071182,121.781205,2.8858732e-08
C2H9L0,馬烈霸,2025-12-12,24.1512,121.201772,1.1915745e-08
C1AI50,國三N016K,2025-12-12,25.034164,121.619664,0.9995498
C1V600,藤枝,2025-12-12,23.071961,120.757042,7.3419595e-09
C1E601,南勢,2025-12-12,24.572486,120.734842,0.9994494
C0O980,新市,2025-12-12,23.061614,120.298197,0.9977433
C0K420,西螺,2025-12-12,23.800407,120.467394,0.79640687
C0Z050,佳心,2025-12-12,23.34567,121.21316,1.5848338e-08
C0AD30,蘆洲,2025-12-12,25.086594,121.472331,0.9996087
C0V610,梓官,2025-12-12,22.760558,120.267211,0.99995196
K2F750,種苗改良場,2025-12-12,24.225972,120.800917,6.023766e-09
C0UA80,大溪漁港,2025-12-12,24.941801,121.902955,1.4221157e-05
C1AI60,國一39K邊坡,2025-12-12,25.064361,121.383836,0.00021090255
C0W150,金寧,2025-12-12,24.457703,118.328989,0.960497
C0R960,內埔,2025-12-12,22.608483,120.570714,0.99788916
V2C250,八德合作社,2025-12-12,24.93775,121.266389,0.9994236
C2H9S0,龍南,2025-12-12,23.953536,120.833183,2.3226878e-09
C0AH40,平等,2025-12-12,25.129142,121.577086,1.844581e-06
C0R540,佳冬,2025-12-12,22.419456,120.552375,0.99948055
466950,彭佳嶼,2025-12-12,25.627975,122.079744,0.9998374
C0A890,雙溪,2025-12-12,25.036003,121.864242,0.99952376
C0C480,桃園,2025-12-12,24.992425,121.323172,0.99968195
C0AH50,林口,2025-12-12,25.072181,121.38084,1.880427e-05
A2K360,水試臺西試驗場,2025-12-12,23.717231,120.190522,0.9997884
C2M960,外寮,2025-12-12,23.562643,120.665688,1.7731623e-09
C0F9S0,烏日,2025-12-12,24.107058,120.624103,0.76556504
C0C490,八德,2025-12-12,24.928708,121.283289,0.9993797
C0R190,赤山,2025-12-12,22.592333,120.614306,0.99757653
C0T820,天祥,2025-12-12,24.179597,121.495639,3.3924284e-08
C1F9E1,龍安,2025-12-12,24.1605,120.831961,3.4081082e-09
C0V820,小林,2025-12-12,23.148408,120.63325,6.043915e-10
C2G870,芳苑,2025-12-12,23.922303,120.320025,0.9660313
C0E850,大河,2025-12-12,24.618069,120.948578,0.85950327
C1U670,寒溪,2025-12-12,24.634,121.71691,2.4808223e-08
C0N020,城西,2025-12-12,23.0568,120.0956,0.99976635
C1Z110,三棧,2025-12-12,24.11557,121.60501,4.6935e-08
C0R280,檳榔,2025-12-12,22.076078,120.836777,0.9989153
C2H9J0,中台,2025-12-12,23.9996,120.938739,1.3331409e-09
C0F9L0,后里,2025-12-12,24.310436,120.729725,3.189103e-09
467441,高雄,2025-12-12,22.730432,120.312516,0.999948
C0Z180,新城,2025-12-12,24.040486,121.604878,4.838573e-08
C0D540,橫山,2025-12-12,24.71116,121.11693,0.1182148
C1D420,太閣南,2025-12-12,24.632808,121.160575,1.1424233e-08
C1E770,公館,2025-12-12,24.526914,120.830806,0.9974014
CAN130,水試所海水繁養殖中心,2025-12-12,23.120802,120.07968,0.9999353
C1I430,翠華,2025-12-12,24.191961,121.224339,1.2555517e-08
C1M400,菜瓜坪,2025-12-12,23.251928,120.576103,7.024864e-10
C0G730,二林,2025-12-12,23.903325,120.376081,0.9999433
72M360,南改義竹分場,2025-12-12,23.360694,120.279361,0.9996933
V2K620,麥寮合作社,2025-12-12,23.753836,120.294783,0.99776775
C0Z070,舞鶴,2025-12-12,23.46811,121.37407,6.977955e-09
C0B040,大武崙,2025-12-12,25.166676,121.706993,0.99969167
C1Z030,紅葉,2025-12-12,23.493119,121.338806,6.3815677e-09
C1I050,丹大,2025-12-12,23.753747,121.141147,1.2460945e-08
C0I080,信義,2025-12-12,23.689694,120.851036,6.849776e-10
C0D750,樂山林道6k,2025-12-12,24.49999,121.08773,1.4130339e-08
C2M920,朴子農改,2025-12-12,23.469889,120.259383,0.99597734
C2A880,福隆,2025-12-12,25.017842,121.942083,7.9971316e-05
C0Z160,鳳林,2025-12-12,23.746114,121.453411,1.1610205e-08
C0UB80,翠峰林道6K,2025-12-12,24.49773,121.568625,1.9591297e-08
C0V210,復興,2025-12-12,23.222403,120.806089,6.994528e-10
C0H990,昆陽,2025-12-12,24.121322,121.273642,2.167831e-08
C0R741,獅子,2025-12-12,22.202308,120.705236,0.99421847
C0S710,鹿野,2025-12-12,22.917711,121.122994,1.18709655e-08
C0I530,小奇萊,2025-12-12,24.131764,121.295717,2.2599306e-08
C0FA70,大雪山埡口,2025-12-12,24.26867,121.03062,2.136136e-08
C2K630,荷苞,2025-12-12,23.657717,120.595144,0.0002453449
C0Z080,富源,2025-12-12,23.587642,121.378225,1.7193498e-08
C0SB10,美和,2025-12-12,22.682078,121.060236,8.422086e-06
C2K620,馬光農場,2025-12-12,23.721453,120.378864,0.94857717
C1I140,卡奈托灣,2025-12-12,23.754364,121.087872,4.9151327e-09
C0I520,玉山風口,2025-12-12,23.470489,120.955994,3.5655294e-08
C1G691,下水埔,2025-12-12,23.816114,120.5676,0.20528257
C0X110,臺南市南區,2025-12-12,22.961189,120.188378,0.99977946
C0V680,仁武,2025-12-12,22.701083,120.347722,0.99993366
C2G840,北斗,2025-12-12,23.877586,120.514222,0.99131984
C0R900,竹坑,2025-12-12,22.1385,120.7022,0.85661155
C0G860,社頭,2025-12-12,23.897647,120.5862,0.93558645
C0X150,安定,2025-12-12,23.102614,120.227839,0.99964017
C0R590,里港,2025-12-12,22.77919,120.49459,0.12632008
C0E610,馬都安,2025-12-12,24.451272,120.930192,3.858793e-09
C0E550,明德,2025-12-12,24.583486,120.885411,0.9998193
C0R150,三地門,2025-12-12,22.709889,120.639944,4.9777947e-07
C0G910,花壇,2025-12-12,24.032076,120.549461,0.9528624
C1D400,鳥嘴山,2025-12-12,24.71909,121.28387,2.6320253e-09
C0K500,元長,2025-12-12,23.64981,120.315024,0.98650557
C0F0B0,石岡,2025-12-12,24.276061,120.777644,2.765825e-09
C2V250,甲仙,2025-12-12,23.080106,120.591758,1.58941e-09
C0SA20,金崙山,2025-12-12,22.567419,120.959667,2.6881448e-08
C0V350,溪埔,2025-12-12,22.738578,120.446797,0.43055552
C0M660,溪口,2025-12-12,23.604131,120.403569,0.99507034
C1S880,壽卡,2025-12-12,22.238911,120.858903,0.00014236465
72D680,桃改新埔分場,2025-12-12,24.834444,121.066111,0.9995003
