站號,站名,日期,lat,lon,BLBTSLS
K2F750,種苗繁殖,2025-03-23,24.225972,120.800917,6.5044916e-09
467990,馬祖,2025-03-23,26.169269,119.923419,1.3800904e-08
C2E540,後龍,2025-03-23,24.606489,120.783933,0.00019929161
467300,東吉島,2025-03-23,23.25695,119.667467,0.9998946
G2F820,農業試驗所,2025-03-23,24.031261,120.688133,4.8801117e-05
467410,臺南,2025-03-23,22.993239,120.204772,1.0766389e-05
E2S960,林試太麻里2,2025-03-23,22.598014,120.989761,1.6480424e-06
72C440,桃園農改,2025-03-23,24.950944,121.030583,1.9737222e-07
C1H860,瑞岩,2025-03-23,24.123772,121.18345,1.1503057e-08
72G600,臺中農改,2025-03-23,24.003028,120.534389,9.939159e-07
72N100,臺南農改,2025-03-23,23.0605,120.342194,5.361538e-06
72T250,花蓮農改,2025-03-23,23.975222,121.563889,3.330162e-07
467620,蘭嶼,2025-03-23,22.036969,121.558339,0.9998614
K2E360,苗栗農改,2025-03-23,24.495722,120.829111,6.482226e-08
467050,新屋,2025-03-23,25.006744,121.047486,2.3456732e-07
467550,玉山,2025-03-23,23.487614,120.959522,4.7328474e-08
466881,新北,2025-03-23,24.9593,121.52,3.2465354e-07
467540,大武,2025-03-23,22.355675,120.903789,2.3710345e-06
72Q010,高雄農改,2025-03-23,22.709333,120.525889,4.7833035e-09
U2H480,臺大溪頭,2025-03-23,23.670306,120.798194,4.7923625e-09
C0Z180,新城,2025-03-23,24.03946,121.60454,1.797891e-08
B2N890,畜試所,2025-03-23,23.058972,120.336406,7.4348463e-06
467441,高雄,2025-03-23,22.7304,120.3125,0.0027875048
