站號,站名,日期,lat,lon,BLBTSLS
C0K280,四湖,2025-10-20,23.630414,120.227125,0.5683545
A2K570,古坑花卉中心,2025-10-20,23.63353,120.55239,0.89669037
467571,新竹,2025-10-20,24.827853,121.014219,0.7832001
C0E430,南庄,2025-10-20,24.601775,121.000214,0.99830157
C0E420,竹南,2025-10-20,24.708978,120.888897,0.997268
C0M530,奮起湖,2025-10-20,23.493903,120.699253,2.0270863e-09
C0C590,觀音,2025-10-20,25.027072,121.153317,0.9985709
C0X060,下營,2025-10-20,23.22695,120.256261,0.79574215
C2D740,屯原,2025-10-20,24.067969,121.209389,1.1385138e-09
C0M810,里佳,2025-10-20,23.389125,120.716647,2.0492137e-09
C0K250,崙背,2025-10-20,23.75555,120.318925,0.8657675
