站號,站名,日期,lat,lon,BLBTSLS
K2F750,種苗繁殖,2025-01-05,24.225972,120.800917,1.3833471e-09
C0R170,屏東,2025-01-05,22.660269,120.494072,5.122609e-10
467990,馬祖,2025-01-05,26.169269,119.923419,5.3489313e-08
C2E540,後龍,2025-01-05,24.606489,120.783933,1.859928e-07
467300,東吉島,2025-01-05,23.25695,119.667467,0.9893257
G2F820,農業試驗所,2025-01-05,24.031261,120.688133,6.86004e-10
467410,臺南,2025-01-05,22.993239,120.204772,5.5111693e-09
C0V310,美濃,2025-01-05,22.898742,120.519153,5.013966e-10
E2S960,林試太麻里2,2025-01-05,22.598014,120.989761,2.058652e-08
72C440,桃園農改,2025-01-05,24.950944,121.030583,6.1248876e-08
C1H860,瑞岩,2025-01-05,24.123772,121.18345,4.990602e-09
72G600,臺中農改,2025-01-05,24.003028,120.534389,5.0820588e-09
72N100,臺南農改,2025-01-05,23.0605,120.342194,1.09054e-09
72T250,花蓮農改,2025-01-05,23.975222,121.563889,1.3744295e-08
467620,蘭嶼,2025-01-05,22.036969,121.558339,0.71832675
K2E360,苗栗農改,2025-01-05,24.495722,120.829111,2.3710761e-08
467050,新屋,2025-01-05,25.006744,121.047486,9.122784e-08
467550,玉山,2025-01-05,23.487614,120.959522,2.6301597e-08
466881,新北,2025-01-05,24.9593,121.52,6.442202e-09
467540,大武,2025-01-05,22.355675,120.903789,0.0028973387
72Q010,高雄農改,2025-01-05,22.709333,120.525889,6.294118e-10
U2H480,臺大溪頭,2025-01-05,23.670306,120.798194,2.1176971e-09
B2N890,畜試所,2025-01-05,23.058972,120.336406,1.09054e-09
467441,高雄,2025-01-05,22.7304,120.3125,1.5185824e-09
