站號,站名,日期,lat,lon,BLBTSLS
C0R710,龍磐,2025-04-27,21.931672,120.838942,1.1490345e-05
C1F9D1,白毛台,2025-04-27,24.158325,120.886933,1.9796465e-08
C0G940,竹塘,2025-04-27,23.848253,120.386764,1.7002516e-07
467590,恆春,2025-04-27,22.003897,120.746339,2.944453e-05
C1O850,環湖,2025-04-27,23.148617,120.418633,0.252614
C0U710,太平山,2025-04-27,24.505486,121.525656,1.3947686e-09
C0E820,獅潭,2025-04-27,24.539133,120.920042,0.00010529475
C0V880,興達,2025-04-27,22.8778,120.2127,0.9687306
C0S890,關山,2025-04-27,23.0395,121.175017,0.010120653
C0SB30,新蘭,2025-04-27,22.869214,121.223228,0.66082054
C2R970,屏科大,2025-04-27,22.648275,120.619247,0.9995786
C1Z130,銅門,2025-04-27,23.965694,121.492842,0.31518432
C0AD40,土城,2025-04-27,24.973208,121.445169,2.1671324e-08
CAN140,六官養殖協會,2025-04-27,23.22881,120.29962,0.94152176
C0X180,山上,2025-04-27,23.0757,120.363253,0.9961851
C0F9Z0,雪山東峰,2025-04-27,24.388792,121.268675,7.584517e-09
C1M480,獨立山,2025-04-27,23.537022,120.607797,4.519372e-08
C0X220,學甲,2025-04-27,23.230367,120.182187,0.0001943875
467650,日月潭,2025-04-27,23.881325,120.90805,4.7641896e-10
C0K600,箔子寮,2025-04-27,23.6197,120.14,1.4439374e-07
C0G830,埤頭,2025-04-27,23.866003,120.452806,3.8808826e-06
C0S950,七塊厝,2025-04-27,22.954453,121.229922,0.00030756826
467110,金門,2025-04-27,24.407306,118.289281,4.5532174e-09
C0AH80,深坑,2025-04-27,25.002703,121.628328,1.3731088e-08
C0A970,三貂角,2025-04-27,25.007606,122.002058,0.002795469
C2D730,寶山農場,2025-04-27,24.732444,120.976153,1.8680237e-09
C0K430,褒忠,2025-04-27,23.690938,120.303634,1.0057019e-05
467480,嘉義,2025-04-27,23.495925,120.432906,2.3507387e-07
C0V400,阿公店,2025-04-27,22.804194,120.355528,7.107293e-05
467550,玉山,2025-04-27,23.48718,120.95943,4.712544e-08
C0R440,大漢山,2025-04-27,22.405264,120.753181,5.8938604e-10
C0K280,四湖,2025-04-27,23.630414,120.227125,5.8116946e-08
C1F9B1,桐林,2025-04-27,24.066172,120.735194,9.827253e-07
C2H9U0,鳳鵬,2025-04-27,23.763919,120.788061,2.3821312e-09
C0K390,土庫,2025-04-27,23.679029,120.395574,4.525692e-06
C1I450,望鄉山,2025-04-27,23.594153,120.944286,1.6941536e-08
C0E910,海埔,2025-04-27,24.648767,120.772435,2.2217723e-08
B2E890,畜試北區分所,2025-04-27,24.527806,120.770972,5.5177036e-08
C0R750,四林格山,2025-04-27,22.076989,120.802439,6.4667344e-10
C0F0C0,中坑,2025-04-27,24.248517,120.903319,3.508415e-09
C1I121,大鞍,2025-04-27,23.678381,120.760017,5.675351e-10
72U480,花改蘭陽分場,2025-04-27,24.686306,121.716583,0.0047752657
C0A770,科教館,2025-04-27,25.096356,121.516507,2.2929724e-08
C0AJ60,六塊厝,2025-04-27,25.24,121.4481,6.9450787e-09
C0R620,墾雷,2025-04-27,21.900836,120.855269,1.0957867e-05
467420,永康,2025-04-27,23.038386,120.2367,0.9920891
C0I410,名間,2025-04-27,23.837053,120.701447,8.376469e-09
A2C560,農工中心,2025-04-27,24.985917,121.239833,4.2756937e-10
C0V740,旗山,2025-04-27,22.888614,120.483597,3.4680927e-06
C0Z061,玉里,2025-04-27,23.3215,121.339656,0.0011317903
C0S840,南田,2025-04-27,22.279725,120.889208,0.56462365
C1I470,杉林溪,2025-04-27,23.639517,120.786444,7.1396555e-10
C1X040,東原,2025-04-27,23.291597,120.463822,0.2662794
C0R660,枋寮,2025-04-27,22.367722,120.590647,0.99925274
C1R120,上德文,2025-04-27,22.763272,120.704442,6.888964e-06
C0K450,大埤,2025-04-27,23.646074,120.431537,0.0029357139
C0UA00,土場,2025-04-27,24.576533,121.495333,1.3196709e-05
467080,宜蘭,2025-04-27,24.763975,121.756528,0.012009433
C0N030,四草,2025-04-27,23.0235,120.1116,0.9884401
467410,臺南,2025-04-27,22.99328,120.20492,0.98769504
C0V650,彌陀,2025-04-27,22.783806,120.246361,0.7389759
C0D660,新竹市東區,2025-04-27,24.798681,120.986942,1.1145844e-09
82S580,茶改東部分場,2025-04-27,22.907694,121.130139,0.03191443
C0SB40,興隆,2025-04-27,22.913661,121.257469,0.49059248
467050,新屋,2025-04-27,25.006725,121.047492,4.892831e-10
C0C710,大溪永福,2025-04-27,24.892936,121.324975,3.6205297e-09
C0FA20,溫寮,2025-04-27,24.372177,120.583125,1.1786124e-06
C0V640,湖內,2025-04-27,22.887139,120.2445,0.9681869
C0R910,下寮,2025-04-27,22.3929,120.5548,0.99925244
C0Z020,明里,2025-04-27,23.208717,121.262342,0.0017791044
C0M770,嘉義梅山,2025-04-27,23.585398,120.555587,0.95594984
C0C660,楊梅,2025-04-27,24.912375,121.143047,4.2742423e-10
C1E511,新開,2025-04-27,24.347703,120.827019,1.4113153e-05
G2F820,農試所(霧峰),2025-04-27,24.031261,120.688133,7.0927734e-07
C1I070,和社,2025-04-27,23.591131,120.888861,6.173774e-07
C2F000,大肚,2025-04-27,24.15295,120.572117,0.0037557243
C1S850,豐南,2025-04-27,23.122139,121.262389,8.4372705e-06
C2A920,富貴角,2025-04-27,25.263783,121.565258,1.5089907e-09
CAH030,茶改場竹圍站,2025-04-27,23.860083,120.637528,2.4902316e-09
C0T960,光復,2025-04-27,23.660694,121.424964,0.051199
C0F9M0,豐原,2025-04-27,24.254322,120.720692,0.006915395
C0R720,旭海,2025-04-27,22.205403,120.887614,0.005906598
C0V710,苓雅,2025-04-27,22.622742,120.330669,0.99095166
C0C740,觀音工業區,2025-04-27,25.064764,121.114856,7.93773e-10
CAC040,拉拉山,2025-04-27,24.699317,121.427133,1.5142034e-09
C0V790,萬山,2025-04-27,22.905944,120.688056,0.9995854
U2HA30,臺大和社,2025-04-27,23.590856,120.888864,6.173774e-07
C0AJ90,澳底,2025-04-27,25.0552,121.9253,0.022010889
C0Z100,東華,2025-04-27,23.89525,121.549833,0.53484243
C0G970,三豐,2025-04-27,23.882,120.2895,1.2287779e-08
V2K610,大庄合作社,2025-04-27,23.8068,120.367939,2.7048013e-06
C0V900,汕尾,2025-04-27,22.4782,120.4151,0.99608004
C1R630,龍泉,2025-04-27,22.66701,120.59091,0.9993005
C1AC50,關渡,2025-04-27,25.133486,121.469331,1.5782087e-09
C0F9I0,神岡,2025-04-27,24.272481,120.658314,2.2891079e-07
C0K460,斗南,2025-04-27,23.678734,120.478359,0.0017731636
C2O810,曾文,2025-04-27,23.219681,120.497328,0.9918061
467280,後龍,2025-04-27,24.648563,120.831834,1.8862305e-08
C1F9J1,清水林,2025-04-27,24.071242,120.820419,1.0412518e-09
C2A650,火燒寮,2025-04-27,25.002719,121.742892,9.796292e-06
466930,竹子湖,2025-04-27,25.162078,121.544547,4.7066556e-10
C1I220,樟湖,2025-04-27,23.905333,120.846983,4.3087434e-10
C0I390,仁愛,2025-04-27,24.022122,121.132206,8.379245e-10
C0Z300,東里,2025-04-27,23.26853,121.30547,0.006182346
C1V590,新發,2025-04-27,23.057019,120.646064,0.70437664
C0K510,水林,2025-04-27,23.572924,120.24597,3.681021e-07
72S590,東改賓朗果園,2025-04-27,22.813889,121.071278,0.005386399
82A750,茶改北部分場,2025-04-27,24.955778,121.631222,4.645174e-09
C1A750,石碇服務區,2025-04-27,25.00872,121.646242,4.057155e-08
C0X300,鹿寮,2025-04-27,23.386047,120.477331,0.33257645
G2AI50,關渡,2025-04-27,25.11575,121.492,3.9346606e-09
C0K590,雲林東勢,2025-04-27,23.674192,120.255721,7.206413e-07
C0A570,桶後,2025-04-27,24.848222,121.597992,0.00050399883
C1S800,華源,2025-04-27,22.657883,121.02325,2.3696466e-06
C0G720,溪州,2025-04-27,23.851589,120.499093,3.1711224e-06
C1V160,達卡努瓦,2025-04-27,23.279811,120.705319,9.678526e-10
C2M410,馬頭山,2025-04-27,23.324361,120.582017,0.012515886
C0V850,蚵仔寮,2025-04-27,22.7256,120.2527,0.9332372
C0S740,池上,2025-04-27,23.119628,121.209469,0.017771823
C1V390,尖山,2025-04-27,22.813153,120.367789,2.2582091e-05
C0AH70,松山,2025-04-27,25.04871,121.55042,2.0547331e-08
C0N010,鯤鯓國小,2025-04-27,23.1879,120.0889,0.9492947
C0R550,新埤,2025-04-27,22.467947,120.582894,0.9956721
C0SA60,知本（水試所）,2025-04-27,22.702394,121.082761,6.467905e-05
C0T9I0,豐濱,2025-04-27,23.583897,121.514806,0.20135286
C0UB00,淡江大學蘭陽校園,2025-04-27,24.823239,121.730383,0.00023049882
C0W240,九宮,2025-04-27,24.423753,118.240186,4.6236677e-09
C0T9N0,富里,2025-04-27,23.171639,121.249378,0.0004436866
U2HA50,臺大竹山,2025-04-27,23.756972,120.681556,0.45805243
C0V840,鳳鼻頭,2025-04-27,22.5083,120.3591,0.0010747991
C0X140,西港,2025-04-27,23.125608,120.203108,0.9969406
72D080,桃改五峰分場,2025-04-27,24.612194,121.157167,5.4115235e-10
C2H9P0,伊拿谷,2025-04-27,23.963211,121.088264,4.846706e-10
C2H9F0,柑林,2025-04-27,24.018658,120.847072,2.6094935e-07
C0TA20,加灣,2025-04-27,24.082025,121.608944,0.00013998711
C0V530,阿蓮,2025-04-27,22.883208,120.327508,0.99134094
C1O880,關山,2025-04-27,23.173397,120.594092,0.61301976
C0E791,卓蘭,2025-04-27,24.3126,120.8244,0.004069345
C1I030,武界,2025-04-27,23.913225,121.052483,4.6393894e-10
C0R520,崁頂,2025-04-27,22.514781,120.506914,0.99928576
C0R341,牡丹,2025-04-27,22.130036,120.792639,0.0010607737
C0R930,萬丹,2025-04-27,22.5885,120.4851,0.9945898
C0S760,紅石,2025-04-27,23.069131,121.126219,1.6493491e-09
C2C410,中央大學,2025-04-27,24.967652,121.185165,4.2402196e-10
C1M610,石磐龍,2025-04-27,23.496606,120.663506,9.77304e-10
C0UA10,鴛鴦湖,2025-04-27,24.590269,121.412228,1.8142079e-09
V2C260,八德蔬果,2025-04-27,24.978508,121.281819,9.324752e-10
C0R800,丹路,2025-04-27,22.204481,120.750989,0.021108331
C0G920,永靖,2025-04-27,23.924703,120.547533,1.422327e-06
C2M950,太和,2025-04-27,23.538372,120.702961,8.657376e-10
C1A630,下盆,2025-04-27,24.771003,121.538622,1.4540831e-09
B2N890,畜產試驗所,2025-04-27,23.058972,120.336406,0.99058497
C0UA30,白嶺,2025-04-27,24.527819,121.519031,5.368868e-10
C1V580,溪南(特生中心),2025-04-27,23.084972,120.788475,3.4856367e-09
C1T970,大農,2025-04-27,23.615233,121.413331,0.088675395
C0R650,竹田,2025-04-27,22.58486,120.54344,0.99876225
C1H900,清流,2025-04-27,24.080775,120.962997,4.7171794e-10
C1C510,水尾,2025-04-27,24.940081,121.087161,4.1610704e-10
C0F9X0,大雅(中科園區),2025-04-27,24.21528,120.62445,5.603654e-08
C0SB60,白守蓮,2025-04-27,23.126769,121.401914,0.97957206
C0O970,虎頭埤,2025-04-27,23.021375,120.347878,0.9944643
C0C730,中大臨海站,2025-04-27,24.966126,121.008581,5.085411e-10
C0X250,新營,2025-04-27,23.310689,120.316681,0.00094133255
C0V700,三民,2025-04-27,22.645017,120.311233,0.91356105
C0U870,大礁溪,2025-04-27,24.791042,121.675047,7.173398e-07
C0E870,高鐵苗栗,2025-04-27,24.60725,120.826094,2.4533605e-08
A2K570,古坑花卉中心,2025-04-27,23.63353,120.55239,0.88781285
C0TA30,鹽寮,2025-04-27,23.845606,121.592664,0.6416308
C0M860,新美,2025-04-27,23.338017,120.683169,1.3627896e-08
C1E701,八卦,2025-04-27,24.491756,120.927619,6.208941e-08
C0I420,國姓,2025-04-27,24.037803,120.855072,1.19081726e-07
C2D720,關西工作站,2025-04-27,24.757275,121.184792,8.313181e-10
C0S960,香蘭,2025-04-27,22.587569,120.993375,1.7473471e-06
467620,蘭嶼,2025-04-27,22.0369,121.55843,9.514643e-08
C0R260,春日,2025-04-27,22.370361,120.628306,0.99906796
72G600,臺中農改場,2025-04-27,24.003028,120.534389,6.773371e-06
C0Z210,瑞穗,2025-04-27,23.5239,121.39021,0.26138234
C0M820,達邦,2025-04-27,23.453994,120.749517,1.2097038e-09
C0V860,南寮,2025-04-27,22.7616,120.2339,0.93452686
C0G740,大城,2025-04-27,23.852487,120.320935,1.1221019e-08
C0R920,塭仔,2025-04-27,22.4169,120.5197,0.99925536
C0R470,高樹,2025-04-27,22.826389,120.600806,0.9991336
C0R680,佳樂水,2025-04-27,21.993578,120.861633,4.4469402e-06
C1O870,大棟山,2025-04-27,23.31157,120.52226,4.518195e-10
C0D360,梅花,2025-04-27,24.678347,121.208558,5.665962e-10
C0Z190,富世,2025-04-27,24.14743,121.6297,2.5175595e-08
C0AI10,屈尺,2025-04-27,24.92184,121.54475,3.1888614e-08
B2U990,畜試東區分所,2025-04-27,24.669039,121.832561,0.050829925
C0SB80,長濱漁港,2025-04-27,23.313644,121.459994,0.014543607
C0R240,來義,2025-04-27,22.527306,120.625111,0.99954647
C0V910,大樹,2025-04-27,22.684645,120.432803,0.99697244
C1R610,西大武山,2025-04-27,22.617719,120.7322,6.002019e-10
C0G900,線西,2025-04-27,24.143358,120.443536,3.399421e-07
C0M700,竹崎,2025-04-27,23.526178,120.555508,0.964331
C2E880,三義,2025-04-27,24.405478,120.749819,1.2350898e-07
C0C720,竹圍,2025-04-27,25.112692,121.239824,3.9340002e-09
C0F9P0,清水,2025-04-27,24.312297,120.562242,7.335048e-07
C0Z150,吉安光華,2025-04-27,23.930925,121.595153,0.77307343
467300,東吉島,2025-04-27,23.25727,119.66762,1.873416e-05
C1D640,外坪(五指山),2025-04-27,24.644447,121.090961,5.3259797e-10
C0F9O0,潭子,2025-04-27,24.213106,120.703933,0.0055950214
C2H9R0,卓社,2025-04-27,23.887894,121.000086,5.2973212e-09
72T250,花蓮農改場,2025-04-27,23.975222,121.563889,0.5986971
C0E780,銅鑼,2025-04-27,24.489681,120.790853,2.5191254e-08
C1T950,太安,2025-04-27,23.666719,121.370128,1.304531e-09
C0E830,苑裡,2025-04-27,24.439714,120.653053,1.5234389e-07
467270,田中,2025-04-27,23.873803,120.581286,8.493179e-05
C0SA10,檳榔四格山,2025-04-27,22.810031,121.109308,0.0015663616
C1T830,布洛灣,2025-04-27,24.17184,121.57127,4.908572e-06
C0F970,大坑,2025-04-27,24.173142,120.722289,0.021831198
C1U920,思源,2025-04-27,24.393125,121.347214,1.3407527e-09
C0A931,三和,2025-04-27,25.233153,121.595236,2.9226477e-09
C0I010,廬山,2025-04-27,24.033311,121.181808,5.6576255e-10
C2M940,日野賀,2025-04-27,23.434056,120.727169,8.177915e-10
C0R860,鼻頭,2025-04-27,22.1043,120.8979,0.000100195
C0UB20,壯圍,2025-04-27,24.7359,121.8163,0.0077569643
C0R790,九棚,2025-04-27,22.14195,120.889281,0.5343574
C0W110,東莒,2025-04-27,25.9652,119.98069,1.207489e-08
C1U930,粉鳥林,2025-04-27,24.497088,121.842479,0.023961913
C1I211,蘆竹湳,2025-04-27,23.934019,120.811994,1.383603e-09
C0S830,長濱,2025-04-27,23.286817,121.411975,9.550113e-05
C1F9F1,伯公龍,2025-04-27,24.272392,120.849047,0.94571346
C0E810,西湖,2025-04-27,24.562947,120.7485,8.812587e-09
C1I440,新高口,2025-04-27,23.478744,120.878939,1.4967831e-08
C0O840,王爺宮,2025-04-27,23.222064,120.40085,0.9975871
C0T9G0,鳳林山,2025-04-27,23.735269,121.420131,3.1396366e-09
C0X080,佳里,2025-04-27,23.173039,120.145086,0.9492689
C0FB70,大甲溪埔,2025-04-27,24.370625,120.620067,7.3843336e-07
C0Z310,清水斷崖,2025-04-27,24.218294,121.689142,2.721212e-08
C0M680,太保,2025-04-27,23.455062,120.331455,1.4996428e-07
C1S820,金峰,2025-04-27,22.590969,120.933236,6.2085505e-08
C0AD10,八里,2025-04-27,25.150211,121.403947,3.9334376e-09
C2K240,草嶺,2025-04-27,23.59555,120.693461,1.1457856e-09
C1SA70,都蘭,2025-04-27,22.87794,121.226881,0.49152786
C0K440,二崙,2025-04-27,23.772797,120.408944,0.00028551577
C1A760,坪林交控,2025-04-27,24.94284,121.713442,0.0012610441
C0F9N0,大里,2025-04-27,24.092464,120.701378,0.02458258
C0SA90,達仁林場,2025-04-27,22.264347,120.823972,5.3261267e-08
C1R290,石門山,2025-04-27,22.112611,120.756597,1.994316e-09
42HA10,萬大發電廠,2025-04-27,23.978875,121.139639,4.915927e-10
C0R890,山海,2025-04-27,21.9878,120.7091,7.708242e-07
C0T9A0,月眉山,2025-04-27,23.809928,121.539828,7.027182e-07
C0AC70,信義,2025-04-27,25.037822,121.564597,1.9981893e-08
C0K560,棋山,2025-04-27,23.68645,120.603417,0.7984683
C2FB50,出雲,2025-04-27,24.206469,120.902794,6.341632e-10
C1Z240,中平林道,2025-04-27,23.42115,121.26763,8.31223e-10
U2H480,溪頭,2025-04-27,23.670306,120.798194,3.449938e-10
C0M880,好美里,2025-04-27,23.3364,120.138,1.1971186e-07
C0T9E0,大坑,2025-04-27,23.880628,121.581981,0.00032813658
C0K530,臺西,2025-04-27,23.701547,120.197559,1.699036e-07
C1E900,國一N128K,2025-04-27,24.560997,120.844186,5.0089522e-08
C0AJ50,水湳洞,2025-04-27,25.123695,121.862238,6.359468e-08
C0AI20,白沙灣,2025-04-27,25.283128,121.519058,6.160702e-09
C2V310,美濃,2025-04-27,22.898792,120.51907,4.802069e-06
C0A860,大坪,2025-04-27,25.165914,121.632969,8.886496e-10
C1U850,觀音海岸,2025-04-27,24.38319,121.77856,1.9573883e-09
C2K610,草嶺石壁,2025-04-27,23.602469,120.707731,1.1025303e-09
C0U950,鶯子嶺,2025-04-27,24.89754,121.79244,1.2480516e-09
C0O900,善化,2025-04-27,23.112883,120.297219,0.99175674
C0K550,蔦松,2025-04-27,23.514319,120.229736,7.336755e-07
E2P980,林試六龜中心,2025-04-27,22.991703,120.645722,0.84106857
C0E590,通霄,2025-04-27,24.471892,120.704622,6.8776904e-09
C1I310,西巒,2025-04-27,23.754486,120.883956,3.9534878e-10
C0A550,泰平,2025-04-27,24.971197,121.823711,4.0866346e-09
C0I360,水里,2025-04-27,23.812553,120.849792,3.4119523e-09
C0R830,高士,2025-04-27,22.121825,120.836781,1.3370396e-09
C1I101,溪頭,2025-04-27,23.661789,120.807647,7.2179623e-10
C0AJ20,野柳,2025-04-27,25.20703,121.690021,6.485442e-08
C0B060,暖暖,2025-04-27,25.0957,121.7403,1.4848574e-08
C1H920,長豐,2025-04-27,24.102039,120.879897,6.5145206e-10
C0V360,內門,2025-04-27,22.975481,120.466769,0.99700725
C0R850,林邊,2025-04-27,22.4634,120.5339,0.9960382
C0E930,龍鳳,2025-04-27,24.700034,120.859125,4.3639203e-09
C0U910,冬山,2025-04-27,24.63373,121.7937,0.050829925
C1E721,泰安,2025-04-27,24.489017,120.968036,2.1009485e-09
82H320,茶改中部分場,2025-04-27,23.875611,120.913583,5.6456495e-10
C0M750,布袋,2025-04-27,23.380878,120.167789,1.4154448e-07
C1S860,利嘉,2025-04-27,22.809417,121.050528,3.4288294e-09
E2S980,林試太麻里1,2025-04-27,22.598922,120.980044,3.8798137e-07
C0X170,關廟,2025-04-27,22.963017,120.327797,0.9940915
C0V720,林園,2025-04-27,22.507747,120.394511,0.97880864
C1I510,線浸林道,2025-04-27,23.761508,120.832956,4.4585352e-10
C0D690,外湖,2025-04-27,24.917735,120.968711,4.9153176e-10
C0C750,新興坑尾,2025-04-27,25.0061,121.0971,4.515464e-10
B2Q810,畜試南區分所,2025-04-27,21.945583,120.802167,5.347526e-06
C0S790,金崙,2025-04-27,22.538122,120.966875,7.672622e-08
C0AH90,福山植物園,2025-04-27,24.760717,121.58135,1.8527478e-09
C0I540,奇萊稜線,2025-04-27,24.109231,121.326456,1.0644556e-08
C0M850,表湖,2025-04-27,23.24186,120.64166,1.555115e-07
C0S770,大溪山,2025-04-27,22.478475,120.943325,2.3146796e-08
C0AG80,中和,2025-04-27,24.991622,121.491792,2.1651864e-08
C0T790,大禹嶺,2025-04-27,24.186117,121.316086,5.6793166e-09
C0T9B0,水源,2025-04-27,23.991861,121.537169,5.647669e-08
C0R840,牡丹池山,2025-04-27,22.168389,120.841225,5.3616045e-09
C1I131,桶頭,2025-04-27,23.641944,120.654117,0.0011196283
CAL110,布袋國中,2025-04-27,23.35893,120.18026,4.4498993e-08
467571,新竹,2025-04-27,24.827853,121.014219,7.668825e-10
C0Z290,赤柯山,2025-04-27,23.36893,121.38293,1.3453458e-09
C0X280,將軍,2025-04-27,23.214999,120.13577,0.00038913338
C0S690,太麻里,2025-04-27,22.60902,120.98533,1.2656133e-09
C0U880,北關,2025-04-27,24.9072,121.8734,1.21837265e-05
C0G810,埔心,2025-04-27,23.947633,120.525456,1.4218808e-06
C0U970,大福,2025-04-27,24.80064,121.81389,0.0147290435
C2H9N0,仁愛東眼,2025-04-27,24.026875,121.1205,5.360641e-10
C1E670,南礦,2025-04-27,24.538278,121.002836,1.7954639e-09
C0M520,東後寮,2025-04-27,23.369908,120.248065,3.8694893e-08
C1E461,松安,2025-04-27,24.397972,120.986022,2.2360174e-09
C2N160,西拉雅風管處,2025-04-27,23.189481,120.335297,0.99459434
C2M970,碧湖,2025-04-27,23.568632,120.624165,1.5415936e-09
C0A640,石碇,2025-04-27,24.993969,121.662917,2.9475044e-05
E2S960,林試太麻里2,2025-04-27,22.598,120.99775,2.2644604e-06
C0F9Y0,桃山,2025-04-27,24.432739,121.303808,1.2743122e-08
C1I020,萬大,2025-04-27,23.979817,121.132261,8.1100193e-10
C0U940,羅東,2025-04-27,24.68184,121.74934,0.0054696924
C0M650,朴子,2025-04-27,23.43463,120.23902,1.4880945e-07
C1I500,大尖山,2025-04-27,23.858572,120.994889,8.1027673e-10
C0G820,田尾,2025-04-27,23.901669,120.509389,1.4238253e-06
E2K600,四湖植物園,2025-04-27,23.676986,120.163433,5.7795376e-08
C0S730,綠島,2025-04-27,22.6672,121.47533,1.6154763e-05
12Q970,東港工作站,2025-04-27,22.479997,120.466058,0.9960918
C0E430,南庄,2025-04-27,24.601775,121.000214,7.72603e-05
C1TA00,太魯閣,2025-04-27,24.15773,121.6236,1.0108885e-08
466920,臺北,2025-04-27,25.037658,121.514853,2.0547409e-08
C0R600,舊泰武,2025-04-27,22.588194,120.664944,0.11345982
C1I260,北坑,2025-04-27,23.9246,121.006903,1.1240442e-09
466910,鞍部,2025-04-27,25.182586,121.529731,5.856299e-10
C1I230,九份二山,2025-04-27,23.961944,120.845,5.3628296e-10
C2A660,瑞芳,2025-04-27,25.113169,121.801147,2.0994435e-08
C0R270,琉球嶼,2025-04-27,22.332244,120.362236,1.1854855e-08
C1T990,高寮,2025-04-27,23.394239,121.356808,0.00559364
C0G620,芬園,2025-04-27,24.015678,120.6213,5.932607e-06
C1Z140,荖溪,2025-04-27,23.890575,121.45964,2.969981e-09
C1I201,中心崙,2025-04-27,23.728722,120.712097,1.0092756e-09
C1I400,凌霄,2025-04-27,24.018778,121.004456,5.3660626e-10
C1M640,十字,2025-04-27,23.492153,120.753683,7.483679e-10
G2P820,農試鳳山分所,2025-04-27,22.646611,120.356083,0.901526
C0Z270,蕃薯寮,2025-04-27,23.73835,121.540108,6.580833e-05
C0F9Q0,外埔,2025-04-27,24.347817,120.705686,5.597779e-08
C0K580,高鐵雲林,2025-04-27,23.737456,120.417944,0.023201577
C2I090,鳳凰,2025-04-27,23.728081,120.787347,3.4029685e-10
C0U990,員山,2025-04-27,24.74435,121.72247,0.0067666
C0V770,大社,2025-04-27,22.730306,120.346639,0.89824045
C0X120,麻豆,2025-04-27,23.183289,120.248611,0.9934688
C0C670,龍潭,2025-04-27,24.870056,121.221389,5.815725e-10
C0D680,香山濕地,2025-04-27,24.783581,120.914988,1.6599532e-09
C0S980,勝林山,2025-04-27,22.430439,120.8938,9.1628316e-10
C0V730,大寮,2025-04-27,22.605614,120.395717,0.9911051
C0R570,麟洛,2025-04-27,22.65078,120.52719,0.9986609
C2M930,石卓,2025-04-27,23.478744,120.702264,7.003098e-10
C0G9B0,和美,2025-04-27,24.105169,120.492131,3.378308e-06
CAG100,王功漁港,2025-04-27,23.96824,120.32586,1.1552419e-08
C0X290,北門,2025-04-27,23.267772,120.125481,0.0003861744
C2F930,大甲,2025-04-27,24.347667,120.640403,2.7386537e-07
C0D650,湖口,2025-04-27,24.904794,121.043628,4.2122805e-10
C0E420,竹南,2025-04-27,24.708978,120.888897,3.689974e-09
C0U780,五結,2025-04-27,24.68637,121.79794,0.007767362
C1I250,鯉潭,2025-04-27,23.961922,120.991131,8.670067e-10
C0R130,阿禮,2025-04-27,22.742908,120.743678,1.8417407e-07
C0X100,臺南市北區,2025-04-27,23.010394,120.194228,0.98835707
C0S920,金峰嘉蘭,2025-04-27,22.594789,120.960825,3.3855125e-07
C0V490,新興,2025-04-27,22.627422,120.298803,0.99092114
C0F9K0,大安,2025-04-27,24.345061,120.588025,8.4388193e-07
467290,古坑,2025-04-27,23.633639,120.551889,0.88781285
C2E970,八甲,2025-04-27,24.535811,120.795983,2.1998536e-08
C0V440,鳳山,2025-04-27,22.646653,120.356122,0.901526
C1T940,大觀,2025-04-27,23.714206,121.373133,8.976125e-08
C0E740,造橋,2025-04-27,24.637056,120.864778,2.0014124e-08
C0R100,尾寮山,2025-04-27,22.833111,120.683889,3.1983458e-08
A2K630,臺大雲林校區,2025-04-27,23.730628,120.423903,0.02325577
467990,馬祖,2025-04-27,26.169467,119.923158,9.624997e-09
C0D580,寶山,2025-04-27,24.735006,121.025192,1.2168498e-09
E2P990,林試扇平站,2025-04-27,22.9677,120.6857,0.9985213
C0AI30,三重,2025-04-27,25.057328,121.500629,2.2929724e-08
C0AH00,汐止,2025-04-27,25.066881,121.658778,2.0547331e-08
C1Z040,立山,2025-04-27,23.443356,121.327375,1.7855971e-06
466881,新北,2025-04-27,24.959207,121.525196,1.7172555e-08
C0W130,花嶼,2025-04-27,23.40007,119.32276,2.997233e-07
C0A950,鼻頭角,2025-04-27,25.129036,121.923372,0.01188693
C0K470,林內,2025-04-27,23.748675,120.609642,0.9685975
C2F990,摩天嶺,2025-04-27,24.322458,120.936819,9.524931e-10
82C160,茶改場,2025-04-27,24.908472,121.185333,3.8615372e-10
C0Z320,清水林道,2025-04-27,23.27125,121.188272,3.9792287e-08
C0R760,南仁湖,2025-04-27,22.084681,120.863353,1.994141e-09
C0M670,大林,2025-04-27,23.600616,120.45841,4.5571596e-07
C0M800,茶山,2025-04-27,23.299075,120.664767,1.4501322e-07
C0A9C0,天母,2025-04-27,25.117494,121.537169,3.38644e-09
72K220,南改斗南分場,2025-04-27,23.634556,120.477333,0.001802479
72AI40,桃改樹林分場,2025-04-27,24.944503,121.386972,3.7248638e-09
C0S910,蘭嶼燈塔,2025-04-27,22.081197,121.503117,8.915729e-07
C0B050,八斗子,2025-04-27,25.144754,121.79167,1.00177935e-07
C0U900,內城,2025-04-27,24.71813,121.68766,0.003582125
C0X320,柳營,2025-04-27,23.253328,120.375253,0.0169945
C0M790,新港,2025-04-27,23.553269,120.345728,1.4702248e-07
C0F9T0,西屯,2025-04-27,24.179494,120.641275,5.780133e-08
C0SA30,都歷,2025-04-27,23.020333,121.323642,0.5267963
C0C620,蘆竹,2025-04-27,25.084275,121.265767,7.360619e-10
C0R730,大坪頂,2025-04-27,22.024633,120.69355,1.0283875e-08
C0AJ40,石門,2025-04-27,25.273672,121.601198,2.010115e-09
C0E750,苗栗,2025-04-27,24.564569,120.824575,5.4561774e-08
C0T870,鯉魚潭,2025-04-27,23.935639,121.508944,0.42868495
C1V170,排雲,2025-04-27,23.463619,120.954147,6.2015914e-08
C2H950,中寮,2025-04-27,23.884447,120.766406,4.5397934e-09
C0R350,貓鼻頭,2025-04-27,21.921774,120.7358,4.0301315e-05
C0V660,岡山,2025-04-27,22.797078,120.294958,0.7383156
C1H941,雙冬,2025-04-27,23.967378,120.802189,1.0556176e-09
C0AJ70,田寮,2025-04-27,25.2698,121.4886,6.7542163e-09
C0AI00,五股,2025-04-27,25.07445,121.42728,6.4848543e-10
C0Z280,德武,2025-04-27,23.47426,121.41071,0.008852745
C0R700,枋山,2025-04-27,22.246844,120.661086,0.0009937155
C0C460,復興,2025-04-27,24.820208,121.352281,6.490695e-10
E2H360,蓮華池,2025-04-27,23.918333,120.885278,8.5322965e-10
C0M640,中埔,2025-04-27,23.42538,120.5229,0.5891206
C0W140,金沙,2025-04-27,24.488292,118.408778,5.601856e-09
C2A540,四堵,2025-04-27,24.8926,121.745736,1.2297157e-08
C0ACA0,新莊,2025-04-27,25.051478,121.446756,9.260736e-09
C0R220,潮州,2025-04-27,22.534361,120.54,0.9993136
U2HA40,臺大內茅埔,2025-04-27,23.689722,120.851117,1.1111458e-09
467490,臺中,2025-04-27,24.145736,120.684075,2.1184887e-05
C0U960,翠峰湖,2025-04-27,24.510856,121.608044,1.2338148e-09
E2HA20,林試畢祿溪站,2025-04-27,24.226944,121.308522,2.2629487e-09
C0V890,前鎮,2025-04-27,22.5718,120.3117,0.99115723
C1F941,雪嶺,2025-04-27,24.280586,121.026642,3.9911e-09
C2H9E0,國姓南港,2025-04-27,23.911108,120.846556,4.3539078e-10
C0AC80,文山,2025-04-27,25.00235,121.575728,1.3320435e-08
C0F9R0,龍井,2025-04-27,24.184536,120.528972,3.7640646e-07
C0M760,民雄,2025-04-27,23.551754,120.428457,5.719192e-07
C0UA40,西德山,2025-04-27,24.560647,121.752608,1.2790868e-09
C1T920,中興,2025-04-27,23.769503,121.498653,0.10895084
C0D550,雪霸,2025-04-27,24.526972,121.11605,1.86279e-09
C2F860,梨山,2025-04-27,24.247522,121.243669,2.3649955e-09
C0R320,車城,2025-04-27,22.0744,120.716247,2.9196914e-07
C1S870,南美山,2025-04-27,23.15025,121.382333,0.00056290434
C0B020,基隆嶼,2025-04-27,25.19141,121.78391,1.8574761e-08
C1U501,牛鬥,2025-04-27,24.637836,121.573656,0.000432669
C0M730,嘉義市東區,2025-04-27,23.457673,120.460531,0.8827052
C0S700,知本,2025-04-27,22.684866,121.005642,1.2071085e-09
C1N001,沙崙,2025-04-27,22.935472,120.309406,0.9941973
C0V760,橋頭,2025-04-27,22.757806,120.30575,0.91300225
C0G960,福寶,2025-04-27,24.0443,120.3814,4.2220563e-06
C0X210,白河,2025-04-27,23.347466,120.414427,0.013810482
C0S810,東河,2025-04-27,22.972672,121.303986,0.9040159
C2R170,屏東,2025-04-27,22.66027,120.49403,0.9986605
C0R670,楓港,2025-04-27,22.190131,120.692156,0.0017657921
C0FA50,霧峰,2025-04-27,24.0419,120.6995,5.712743e-07
C0UB10,蘇澳,2025-04-27,24.5969,121.8571,0.86839443
C0G950,防潮門,2025-04-27,24.1835,120.4871,4.0139741e-07
C0M740,六腳,2025-04-27,23.492871,120.290625,1.8678755e-07
C1R250,力里,2025-04-27,22.428117,120.629228,0.9994934
C0K330,虎尾,2025-04-27,23.719183,120.442036,0.014008308
C2FA00,烏石坑,2025-04-27,24.273503,120.947617,1.033604e-09
C0V620,永安,2025-04-27,22.82315,120.236856,0.7389759
C1I330,楓樹林,2025-04-27,23.986803,121.076117,1.4835827e-09
C0W200,湖西,2025-04-27,23.596314,119.67275,5.052689e-07
72Q010,高雄農改場,2025-04-27,22.709333,120.525889,0.9987952
C0SA40,瑞和,2025-04-27,22.974361,121.156697,0.046100803
C0C680,龜山,2025-04-27,25.02846,121.38656,8.735139e-09
C2V260,月眉,2025-04-27,22.971003,120.539853,0.99759233
C0V450,鳳森,2025-04-27,22.545064,120.392592,0.9440947
C0U720,南山,2025-04-27,24.43742,121.38167,6.160535e-10
A2N290,臺南蘭花園區,2025-04-27,23.340258,120.379661,1.1715606e-07
C0R560,新園,2025-04-27,22.5434,120.461558,0.97880864
C0U890,三星,2025-04-27,24.66812,121.65302,0.011249052
C1V300,御油山,2025-04-27,23.001983,120.715364,7.967524e-09
C0U600,礁溪,2025-04-27,24.817539,121.765608,0.037737116
C1T980,龍澗,2025-04-27,24.023289,121.411328,2.6827192e-09
C0D670,海天一線,2025-04-27,24.831986,120.914438,9.2755803e-10
C0SA00,歷坵,2025-04-27,22.520969,120.89185,4.8264686e-09
C0M710,東石,2025-04-27,23.458927,120.15385,1.5374167e-06
C0M780,鹿草,2025-04-27,23.41134,120.30835,1.1791053e-07
C0U520,雙連埤,2025-04-27,24.753033,121.641303,5.644373e-07
C0B010,七堵,2025-04-27,25.094819,121.71713,3.919622e-08
C0R480,長治,2025-04-27,22.693128,120.542622,0.99709547
C1V830,國三S383K,2025-04-27,22.781967,120.426475,0.99011517
12Q980,恆春工作站,2025-04-27,22.079678,120.714425,2.9160964e-07
C1O940,東山服務區,2025-04-27,23.286016,120.398472,0.29633784
C1U840,東澳嶺,2025-04-27,24.5378,121.8485,6.7414487e-09
C1D630,飛鳳山,2025-04-27,24.766464,121.119178,3.9111342e-10
C0S940,石寧山,2025-04-27,23.223772,121.406639,0.01440732
C0K410,北港,2025-04-27,23.573957,120.292802,3.2547817e-07
C2M620,瑞里,2025-04-27,23.545133,120.675197,8.7534135e-10
C0SB70,小港漁港,2025-04-27,23.158558,121.400431,0.06392321
C2O950,安南,2025-04-27,23.076694,120.144861,0.6081469
C0F0E0,南湖圈谷,2025-04-27,24.363714,121.444667,9.698729e-09
467610,成功,2025-04-27,23.097486,121.373428,0.94369274
C0G890,伸港,2025-04-27,24.148933,120.484403,3.203551e-07
C2E540,龍溪,2025-04-27,24.606489,120.783933,2.561467e-08
C1V200,梅山,2025-04-27,23.268447,120.823556,8.360187e-06
C0T9H0,加路蘭山,2025-04-27,23.682947,121.5274,1.4801824e-09
C2O930,玉井,2025-04-27,23.126042,120.46055,0.014185709
C1F911,新伯公,2025-04-27,24.221361,120.841069,0.98337793
C0R490,九如,2025-04-27,22.7405,120.490503,0.99876195
C0X200,左鎮,2025-04-27,23.056758,120.408522,0.0016537901
C0SB50,叭嗡嗡,2025-04-27,23.047062,121.343223,0.9797947
C1F891,稍來,2025-04-27,24.265689,121.001142,2.0595503e-09
72N240,七股研究中心,2025-04-27,23.081672,120.062894,0.6575358
C0C700,中壢,2025-04-27,24.977661,121.256375,8.3410395e-10
C0M690,水上,2025-04-27,23.419734,120.388909,1.2652403e-07
C0V690,鼓山,2025-04-27,22.623325,120.275575,0.99092114
C0O860,大內,2025-04-27,23.11885,120.36083,0.9908304
C0Z200,萬榮,2025-04-27,23.709219,121.420106,0.006867608
C0T9D0,和中,2025-04-27,24.26676,121.74103,0.35689798
C1O921,楠西,2025-04-27,23.183511,120.484083,0.102344826
C0AJ30,淡水觀海,2025-04-27,25.184591,121.408616,4.968065e-09
C0V810,左營,2025-04-27,22.67491,120.28491,0.913557
C0UA70,桃源谷,2025-04-27,24.962606,121.888875,4.004056e-08
C0X130,官田,2025-04-27,23.193217,120.315422,0.99464595
C1H000,翠峰,2025-04-27,24.109397,121.205211,6.7309642e-09
C0UA90,石城,2025-04-27,24.980444,121.951214,0.006146417
C1E681,南勢山,2025-04-27,24.421669,120.923831,9.4178304e-08
C0A9F0,內湖,2025-04-27,25.079422,121.57545,2.0547331e-08
C0K291,宜梧,2025-04-27,23.536281,120.169329,7.336825e-07
C1K540,口湖,2025-04-27,23.585344,120.180517,1.4436922e-07
C0R780,滿州,2025-04-27,22.024403,120.839892,1.662754e-05
C0V870,文安,2025-04-27,22.8025,120.2164,0.79728514
C0U650,玉蘭,2025-04-27,24.675286,121.587061,8.794076e-07
C0R640,東港,2025-04-27,22.46247,120.44074,0.9960888
C0AJ80,板橋,2025-04-27,25.0107,121.4489,2.4526962e-08
C0S660,下馬,2025-04-27,23.150427,121.070312,1.5194226e-09
C1H9B1,阿眉,2025-04-27,24.1263,120.994672,1.2263283e-09
C0UA20,多加屯,2025-04-27,24.368614,121.373189,5.536075e-09
C0E730,頭份,2025-04-27,24.688247,120.912206,3.831072e-09
72V140,高改旗南分場,2025-04-27,22.857861,120.516667,0.9971213
C0K480,莿桐,2025-04-27,23.761192,120.502372,0.0017696408
C0U980,坪林石牌,2025-04-27,24.86478,121.77396,2.3428473e-07
C0T900,西林,2025-04-27,23.8119,121.441458,0.0067001046
C1I150,青雲,2025-04-27,23.793361,120.949378,9.416979e-10
467350,澎湖,2025-04-27,23.565503,119.563094,2.5217582e-07
C0G800,埔鹽,2025-04-27,24.000394,120.431683,2.5104137e-06
C0H960,草屯,2025-04-27,23.973672,120.68085,2.870588e-07
C1V780,多納林道,2025-04-27,22.888028,120.737917,7.786925e-08
C0E920,通霄漁港,2025-04-27,24.498589,120.673876,1.7383433e-08
C0Z330,安通山,2025-04-27,23.290728,121.348528,5.243663e-08
C0AH10,永和,2025-04-27,25.01125,121.508111,2.5324024e-08
C0AK10,太平里,2025-04-27,25.134937,121.364899,3.6073227e-09
C2G640,鹿港,2025-04-27,24.0753,120.430481,4.22287e-06
C1E890,國三N149K,2025-04-27,24.463414,120.680019,5.2517503e-08
C1R110,口社,2025-04-27,22.770111,120.645222,0.9994371
C1M870,國三N285K,2025-04-27,23.550319,120.505833,0.9906139
C1E480,鳳美,2025-04-27,24.554803,121.034747,1.9744842e-08
C0M530,奮起湖,2025-04-27,23.493903,120.699253,8.613005e-10
C0C590,觀音,2025-04-27,25.027072,121.153317,6.228388e-10
C0T9M0,靜浦,2025-04-27,23.455167,121.495028,0.18838431
C2H9M0,發祥,2025-04-27,24.154094,121.164517,7.3853834e-10
C0AI40,石牌,2025-04-27,25.115597,121.513139,3.7206958e-09
C1F871,上谷關,2025-04-27,24.203483,121.018644,7.539311e-10
C2H9G0,百勝,2025-04-27,24.051142,120.909361,6.0173697e-09
C0G880,二水,2025-04-27,23.810742,120.6173,1.8463269e-06
C0R940,加祿堂,2025-04-27,22.3363,120.6217,0.51820713
C0W220,北竿,2025-04-27,26.220358,119.974881,6.5498456e-09
C0O960,崎頂,2025-04-27,22.959547,120.369317,0.99316233
C0S750,向陽,2025-04-27,23.248397,120.986133,6.7973813e-09
C0T9F0,水璉,2025-04-27,23.797131,121.542514,0.0013899105
C1M600,頭凍,2025-04-27,23.406364,120.603339,2.8840228e-09
467660,臺東,2025-04-27,22.752211,121.154586,0.95135546
C1D380,新埔,2025-04-27,24.84745,121.03834,5.2018395e-10
C2G980,田頭村,2025-04-27,23.8263,120.444175,0.00028551577
C0V750,路竹,2025-04-27,22.854997,120.259439,0.06143799
C0N050,蚵寮,2025-04-27,23.301,120.1104,1.1967944e-07
72M700,南改鹿草分場,2025-04-27,23.416869,120.283061,1.4867298e-07
C1SA50,利嘉林道,2025-04-27,22.82325,121.009389,6.8540756e-10
C0A940,金山,2025-04-27,25.223628,121.643967,4.9635492e-08
C1V340,大津,2025-04-27,22.888322,120.645986,0.99991006
C0W180,七美,2025-04-27,23.219333,119.444892,1.4926699e-06
C1F9C1,白冷,2025-04-27,24.182844,120.929889,0.7484602
K2E710,苗改生物防治研究中心,2025-04-27,24.422861,120.871833,2.4064536e-06
C0N040,蘆竹溝,2025-04-27,23.2344,120.0961,0.0003861744
C2W230,畜試所澎湖,2025-04-27,23.628342,119.513206,1.0370508e-07
C0R880,後壁湖,2025-04-27,21.9457,120.7457,9.3009106e-07
C1I280,埔中,2025-04-27,23.820778,120.642594,1.650885e-09
467790,墾丁雷達站,2025-04-27,21.948235,120.808028,1.4221548e-06
C0W190,望安,2025-04-27,23.380564,119.494075,3.2335362e-07
C0Z170,卓溪,2025-04-27,23.3443,121.3029,0.0005504382
C0F850,東勢,2025-04-27,24.246428,120.833047,0.00037476793
466900,淡水,2025-04-27,25.164889,121.448906,3.606731e-09
C0I370,魚池,2025-04-27,23.895703,120.94135,9.891693e-10
C0C630,大溪,2025-04-27,24.882853,121.265547,6.584903e-10
C0A520,山佳,2025-04-27,24.974944,121.402008,1.2463109e-08
C0I110,竹山,2025-04-27,23.761225,120.688156,1.7492367e-07
82H840,茶改南部分場,2025-04-27,23.762528,120.7405,1.7745766e-09
C0G660,溪湖,2025-04-27,23.94835,120.479122,1.8339339e-06
C1T800,洛韶,2025-04-27,24.204558,121.453956,1.5481144e-09
C1T810,慈恩,2025-04-27,24.192044,121.388386,2.8246234e-09
C1E451,象鼻,2025-04-27,24.368617,120.940228,6.295282e-07
C0AC60,三峽,2025-04-27,24.939025,121.369728,1.3123148e-09
C0I490,萬大林道,2025-04-27,23.928228,121.091411,4.704457e-10
C1I290,豐丘,2025-04-27,23.668178,120.887417,3.9067874e-10
C1I320,奧萬大,2025-04-27,23.952956,121.178556,2.8447582e-09
C2M910,嘉義大學,2025-04-27,23.471325,120.485903,0.9683284
C0U770,南澳,2025-04-27,24.44935,121.81022,2.1513673e-05
C0A980,社子,2025-04-27,25.109508,121.469681,4.385908e-09
C0V800,六龜,2025-04-27,22.997889,120.633583,0.91179496
C1G9D0,國一S218K,2025-04-27,23.890641,120.493253,1.1872368e-06
C0E570,白沙屯,2025-04-27,24.549447,120.696803,1.4435168e-08
C2F9A0,中竹林,2025-04-27,24.103556,120.751061,2.279916e-07
C0FA40,臺中電廠,2025-04-27,24.2146,120.4907,3.7640646e-07
C2G9A0,畜試所彰化,2025-04-27,23.86045,120.557964,8.438686e-05
C0H9C0,合歡山,2025-04-27,24.143442,121.272547,1.890293e-08
C0X060,下營,2025-04-27,23.22695,120.256261,0.9463452
G2M350,農試溪口農場,2025-04-27,23.58565,120.408111,7.348989e-07
C0U860,頭城,2025-04-27,24.85323,121.8308,0.03987519
C0R580,南州,2025-04-27,22.48591,120.50274,0.9960888
C0D430,峨眉,2025-04-27,24.6905,121.017189,1.867956e-09
C0G780,秀水,2025-04-27,24.03405,120.503869,6.7743335e-06
72N100,臺南農改場,2025-04-27,23.0605,120.342194,0.9897977
C0S900,蘭嶼高中,2025-04-27,22.04909,121.51214,1.9663103e-06
C1F9W0,德基,2025-04-27,24.254783,121.190261,1.3957346e-09
C1Z120,壽豐,2025-04-27,23.870853,121.508081,0.53484243
C0W160,烏坵,2025-04-27,24.9944,119.44956,8.212637e-09
C1I240,外大坪,2025-04-27,23.958697,120.917931,8.1030765e-10
C1I550,國六W023K,2025-04-27,23.979067,120.867742,3.4115681e-09
C0R870,興海,2025-04-27,21.9752,120.8439,5.3149106e-06
C0R140,瑪家,2025-04-27,22.682903,120.686639,0.29350907
C0A530,坪林,2025-04-27,24.938183,121.70975,6.874497e-05
C0X260,後壁,2025-04-27,23.366358,120.362326,3.129317e-07
C0Z230,和平,2025-04-27,24.30717,121.77007,0.37781042
C0G770,福興,2025-04-27,24.041289,120.437669,2.569407e-06
C0H9A0,神木村,2025-04-27,23.532742,120.843667,1.7985727e-09
C0I460,南投,2025-04-27,23.911469,120.687331,6.7114044e-08
C0I480,梅峰,2025-04-27,24.085272,121.173572,3.5520331e-09
C1V570,吉東,2025-04-27,22.85422,120.5454,0.99624836
C2D740,屯原,2025-04-27,24.067969,121.209389,1.1452743e-09
C2A560,福山,2025-04-27,24.776203,121.502811,1.4953142e-06
C0AH30,五分山,2025-04-27,25.07125,121.780794,1.5946329e-09
C0FA10,松柏,2025-04-27,24.429115,120.617482,1.9046996e-07
72S200,東改班鳩分場,2025-04-27,22.829528,121.077694,0.012475193
72HA00,中改埔里分場,2025-04-27,23.903208,120.963364,9.526748e-10
C2H9W0,大坪頂農水,2025-04-27,24.043122,120.932781,6.4007033e-10
C0C650,平鎮,2025-04-27,24.897503,121.214636,5.1514837e-10
C0S930,延平,2025-04-27,22.902581,121.084058,0.009960136
C0UA60,樟樹山,2025-04-27,24.41393,121.78325,7.037053e-06
C1S670,摩天,2025-04-27,23.199503,121.027,2.043328e-09
C0V630,茄萣,2025-04-27,22.906642,120.182608,0.9687852
466940,基隆,2025-04-27,25.133314,121.740475,8.921677e-08
C0X050,東河,2025-04-27,23.296598,120.385608,0.4558989
C0R770,保力,2025-04-27,22.071122,120.764111,6.772602e-08
G2L020,農試嘉義分所,2025-04-27,23.485028,120.473806,0.99394536
C0X240,關子嶺,2025-04-27,23.331169,120.508025,0.00012135255
C0I380,集集,2025-04-27,23.828206,120.801467,3.7764134e-09
466990,花蓮,2025-04-27,23.975128,121.613275,0.65030795
C1V220,小關山,2025-04-27,23.154217,120.813603,2.9053677e-09
C1F9G1,慶福山,2025-04-27,24.180853,120.848378,5.189326e-09
C0Z250,瑞穗林道,2025-04-27,23.49284,121.30688,9.1065383e-10
C0D590,新豐,2025-04-27,24.87068,120.97721,7.2484935e-10
C0A870,五指山,2025-04-27,25.132153,121.608692,4.484642e-10
C0UA50,西帽山,2025-04-27,24.555361,121.802628,8.713556e-09
C0X160,仁德,2025-04-27,22.968258,120.257689,0.9869943
C1H971,六分寮,2025-04-27,23.92507,120.6378,4.4265165e-09
C0W120,西嶼,2025-04-27,23.5626,119.468436,1.3763608e-07
C0G650,員林,2025-04-27,23.946503,120.585597,0.00012926116
C0AD50,鶯歌,2025-04-27,24.951533,121.346294,1.0375089e-09
C2H9Q0,北東眼山,2025-04-27,24.120939,121.189303,1.4190805e-09
C2H9T0,名間竹圍,2025-04-27,23.859914,120.637572,2.4902316e-09
C0S990,山豬窟,2025-04-27,22.318619,120.857372,1.4390286e-06
C0X190,安平,2025-04-27,22.993161,120.152181,0.9883708
C0K400,斗六,2025-04-27,23.720583,120.541127,0.0814917
12J990,口湖工作站,2025-04-27,23.589978,120.180394,1.4439374e-07
C0O830,北寮,2025-04-27,23.079561,120.495008,0.99622864
C1D410,白蘭,2025-04-27,24.579364,121.079947,1.8196938e-09
C0S970,加津林,2025-04-27,22.416211,120.926942,0.9727359
C0D700,關西,2025-04-27,24.7977,121.1732,7.9960044e-10
C0M810,里佳,2025-04-27,23.389125,120.716647,1.2423846e-09
C0U750,龜山島,2025-04-27,24.841667,121.953133,7.2570323e-09
C0R810,內獅,2025-04-27,22.305064,120.642986,0.6076947
C1M390,龍美,2025-04-27,23.406728,120.654417,1.6348103e-09
C2FB60,頭櫃山,2025-04-27,24.129842,120.858925,4.4255855e-10
C1H840,國三N238K,2025-04-27,23.841008,120.707711,3.887619e-09
CAQ030,崎峰國小,2025-04-27,22.42565,120.49521,0.9960888
C2E520,大湖,2025-04-27,24.414939,120.870872,3.966937e-06
467530,阿里山,2025-04-27,23.508208,120.813242,1.3486298e-08
C1E691,南湖,2025-04-27,24.40135,120.837533,6.090853e-07
C0FA30,梧棲,2025-04-27,24.256003,120.523381,7.3499e-07
C1V231,高中,2025-04-27,23.134911,120.716711,3.38155e-07
C0AK30,硬漢嶺,2025-04-27,25.136097,121.426372,4.888298e-10
C0F9V0,新社,2025-04-27,24.200172,120.815806,0.9283912
C0H890,埔里,2025-04-27,23.972169,120.952425,1.7154279e-09
C0R690,墾丁,2025-04-27,21.966756,120.810269,1.3943225e-08
C0F0D0,審馬陣,2025-04-27,24.381675,121.4203,8.587485e-09
C2W030,金門農試所,2025-04-27,24.448431,118.451786,4.7457083e-09
C0R820,白鷺,2025-04-27,22.454275,120.666219,5.0720093e-08
C1V190,南天池,2025-04-27,23.27403,120.91176,9.375727e-09
K2E360,苗栗農改場,2025-04-27,24.495722,120.829111,4.040343e-08
CAJ050,海口故事園區,2025-04-27,23.57543,120.14121,1.4438135e-07
C2H9D0,三隻寮,2025-04-27,24.093078,120.861578,6.185425e-10
C0O990,媽廟,2025-04-27,22.99175,120.293525,0.99214214
C0D480,打鐵坑,2025-04-27,24.849664,121.150789,5.7104665e-10
C0Z220,和平林道,2025-04-27,24.343922,121.656317,7.924467e-09
C0TA10,花蓮漁港,2025-04-27,23.995322,121.638331,0.6672766
72C440,桃園農改場,2025-04-27,24.950944,121.030583,4.5033796e-10
C1E711,馬拉邦山,2025-04-27,24.367306,120.901656,4.9900883e-09
C0SB20,富岡,2025-04-27,22.792467,121.192669,0.89414334
C0D560,竹東,2025-04-27,24.767147,121.057881,9.845783e-10
C0F9U0,南屯,2025-04-27,24.137006,120.637969,5.296185e-06
C0M720,番路,2025-04-27,23.464657,120.554156,0.09868602
C0F0A0,雪山圈谷,2025-04-27,24.388594,121.236339,1.6249937e-08
C1A9N0,四十份,2025-04-27,24.934158,121.593283,2.4608486e-09
C0U760,東澳,2025-04-27,24.52196,121.83318,0.015658664
C0X230,鹽水,2025-04-27,23.272621,120.247641,1.06506526e-07
C2H9H0,苗改南投蜂場,2025-04-27,23.852589,120.693481,9.909922e-09
C0R950,萬隆國小,2025-04-27,22.507667,120.587817,0.9994403
467540,大武,2025-04-27,22.35572,120.90374,0.98993003
C0V370,古亭坑,2025-04-27,22.893178,120.401947,3.8538046e-06
C1I340,新興橋,2025-04-27,23.563333,120.868728,6.994288e-10
C0SA80,土坂,2025-04-27,22.453108,120.887572,1.9278963e-05
C0R160,鹽埔,2025-04-27,22.739558,120.530778,0.9987945
C0AC40,大屯山,2025-04-27,25.175675,121.522408,6.510223e-10
466850,五分山雷達站,2025-04-27,25.071182,121.781205,1.5198689e-09
C2H9L0,馬烈霸,2025-04-27,24.1512,121.201772,1.609376e-09
C1AI50,國三N016K,2025-04-27,25.034164,121.619664,1.2400391e-08
C1V600,藤枝,2025-04-27,23.071961,120.757042,5.467478e-09
C1E601,南勢,2025-04-27,24.572486,120.734842,6.4945493e-09
C0O980,新市,2025-04-27,23.061614,120.298197,0.9917516
C0K420,西螺,2025-04-27,23.800407,120.467394,0.00014581182
C0Z050,佳心,2025-04-27,23.34567,121.21316,1.7107783e-09
C0AD30,蘆洲,2025-04-27,25.086594,121.472331,2.2904896e-08
C0V610,梓官,2025-04-27,22.760558,120.267211,0.91300225
K2F750,種苗改良場,2025-04-27,24.225972,120.800917,0.96765393
C0UA80,大溪漁港,2025-04-27,24.941801,121.902955,0.012332226
C1AI60,國一39K邊坡,2025-04-27,25.064361,121.383836,1.2356359e-08
C0W150,金寧,2025-04-27,24.457703,118.328989,4.6771973e-09
C0R960,內埔,2025-04-27,22.608483,120.570714,0.998847
V2C250,八德合作社,2025-04-27,24.93775,121.266389,6.517504e-10
C2H9S0,龍南,2025-04-27,23.953536,120.833183,5.40914e-10
C0AH40,平等,2025-04-27,25.129142,121.577086,7.1762035e-10
C0R540,佳冬,2025-04-27,22.419456,120.552375,0.9992541
466950,彭佳嶼,2025-04-27,25.627975,122.079744,1.3092821e-07
C0A890,雙溪,2025-04-27,25.036003,121.864242,1.9714872e-07
C0C480,桃園,2025-04-27,24.992425,121.323172,9.819509e-10
C0AH50,林口,2025-04-27,25.072181,121.38084,6.9675283e-09
A2K360,水試臺西試驗場,2025-04-27,23.717231,120.190522,1.8598323e-07
C2M960,外寮,2025-04-27,23.562643,120.665688,1.3301641e-09
C0F9S0,烏日,2025-04-27,24.107058,120.624103,0.00983331
C0C490,八德,2025-04-27,24.928708,121.283289,6.431555e-10
C0R190,赤山,2025-04-27,22.592333,120.614306,0.9989224
C0T820,天祥,2025-04-27,24.179597,121.495639,1.06326084e-07
C1F9E1,龍安,2025-04-27,24.1605,120.831961,0.0186857
C0V820,小林,2025-04-27,23.148408,120.63325,0.0018453443
C2G870,芳苑,2025-04-27,23.922303,120.320025,1.0466883e-08
C0E850,大河,2025-04-27,24.618069,120.948578,3.2870295e-07
C1U670,寒溪,2025-04-27,24.634,121.71691,0.011794315
C0N020,城西,2025-04-27,23.0568,120.0956,0.9883855
C1Z110,三棧,2025-04-27,24.11557,121.60501,1.9431646e-08
C0R280,檳榔,2025-04-27,22.076078,120.836777,4.6523296e-09
C2H9J0,中台,2025-04-27,23.9996,120.938739,7.827466e-10
C0F9L0,后里,2025-04-27,24.310436,120.729725,0.00044347308
467441,高雄,2025-04-27,22.730432,120.312516,0.8995784
C0Z180,新城,2025-04-27,24.040486,121.604878,0.6298916
C0D540,橫山,2025-04-27,24.71116,121.11693,6.5905953e-10
C1D420,太閣南,2025-04-27,24.632808,121.160575,7.6085216e-10
C1E770,公館,2025-04-27,24.526914,120.830806,5.5177036e-08
CAN130,水試所海水繁養殖中心,2025-04-27,23.120802,120.07968,0.6546827
C1I430,翠華,2025-04-27,24.191961,121.224339,3.3404814e-09
C1M400,菜瓜坪,2025-04-27,23.251928,120.576103,7.142331e-05
C0G730,二林,2025-04-27,23.903325,120.376081,2.1555078e-07
72M360,南改義竹分場,2025-04-27,23.360694,120.279361,3.8707515e-08
V2K620,麥寮合作社,2025-04-27,23.753836,120.294783,1.0731331e-05
C0Z070,舞鶴,2025-04-27,23.46811,121.37407,0.003648855
C0B040,大武崙,2025-04-27,25.166676,121.706993,4.9908518e-08
C1Z030,紅葉,2025-04-27,23.493119,121.338806,0.058484122
C1I050,丹大,2025-04-27,23.753747,121.141147,5.2344573e-09
C0I080,信義,2025-04-27,23.689694,120.851036,1.1111458e-09
C2M920,朴子農改,2025-04-27,23.469889,120.259383,1.5839309e-07
C2A880,福隆,2025-04-27,25.017842,121.942083,0.006630332
C0Z160,鳳林,2025-04-27,23.746114,121.453411,0.01427046
C0V210,復興,2025-04-27,23.222403,120.806089,3.1062697e-05
C0H990,昆陽,2025-04-27,24.121322,121.273642,1.3465248e-08
C0R741,獅子,2025-04-27,22.202308,120.705236,0.23067328
C0S710,鹿野,2025-04-27,22.917711,121.122994,0.0005543911
C0I530,小奇萊,2025-04-27,24.131764,121.295717,1.4300831e-08
C2K630,荷苞,2025-04-27,23.657717,120.595144,0.33132243
C0Z080,富源,2025-04-27,23.587642,121.378225,1.2634015e-05
C0SB10,美和,2025-04-27,22.682078,121.060236,6.483813e-05
C2K620,馬光農場,2025-04-27,23.721453,120.378864,0.03224324
C1I140,卡奈托灣,2025-04-27,23.754364,121.087872,1.6280517e-09
C0I520,玉山風口,2025-04-27,23.470489,120.955994,4.4858442e-08
C1G691,下水埔,2025-04-27,23.816114,120.5676,0.0005653576
C0X110,臺南市南區,2025-04-27,22.961189,120.188378,0.98697597
C0V680,仁武,2025-04-27,22.701083,120.347722,0.9135404
C2G840,北斗,2025-04-27,23.877586,120.514222,1.0407072e-06
C0R900,竹坑,2025-04-27,22.1385,120.7022,8.017452e-06
C0K250,崙背,2025-04-27,23.75555,120.318925,1.0057019e-05
C0G860,社頭,2025-04-27,23.897647,120.5862,2.3263605e-05
C0X150,安定,2025-04-27,23.102614,120.227839,0.9964482
C0R590,里港,2025-04-27,22.77919,120.49459,0.99749905
C0E610,馬都安,2025-04-27,24.451272,120.930192,3.1856368e-07
C0E550,明德,2025-04-27,24.583486,120.885411,4.7684395e-08
C0R150,三地門,2025-04-27,22.709889,120.639944,0.9994083
C0G910,花壇,2025-04-27,24.032076,120.549461,3.7114487e-06
C1D400,鳥嘴山,2025-04-27,24.71909,121.28387,5.416842e-10
C0K500,元長,2025-04-27,23.64981,120.315024,8.827788e-07
C0F0B0,石岡,2025-04-27,24.276061,120.777644,5.1787258e-05
C2V250,甲仙,2025-04-27,23.080106,120.591758,0.942054
C0SA20,金崙山,2025-04-27,22.567419,120.959667,8.822438e-10
C0V350,溪埔,2025-04-27,22.738578,120.446797,0.9986456
C0M660,溪口,2025-04-27,23.604131,120.403569,7.331964e-07
C1S880,壽卡,2025-04-27,22.238911,120.858903,7.2949916e-08
72D680,桃改新埔分場,2025-04-27,24.834444,121.066111,5.370066e-10
