站號,站名,日期,lat,lon,BLBTSLS
C0K280,四湖,2025-11-22,23.630414,120.227125,0.9267741
CAH030,茶改場竹圍站,2025-11-22,23.860083,120.637528,1.6936762e-07
V2K610,大庄合作社,2025-11-22,23.8068,120.367939,0.28901878
G2AI50,關渡,2025-11-22,25.11575,121.492,0.99900484
V2C260,八德蔬果,2025-11-22,24.978508,121.281819,0.99985605
A2K570,古坑花卉中心,2025-11-22,23.63353,120.55239,0.028205559
467571,新竹,2025-11-22,24.827853,121.014219,0.65514475
C0E430,南庄,2025-11-22,24.601775,121.000214,3.589254e-05
C0E420,竹南,2025-11-22,24.708978,120.888897,0.07121503
C0M530,奮起湖,2025-11-22,23.493903,120.699253,1.7970433e-09
C0C590,觀音,2025-11-22,25.027072,121.153317,0.19797999
C0X060,下營,2025-11-22,23.22695,120.256261,0.96275395
C2D740,屯原,2025-11-22,24.067969,121.209389,4.526409e-09
C0M810,里佳,2025-11-22,23.389125,120.716647,1.9152355e-09
V2C250,八德合作社,2025-11-22,24.93775,121.266389,0.9997786
C0K250,崙背,2025-11-22,23.75555,120.318925,0.86086315
