站號,站名,日期,lat,lon,BLBTSLS
C0R710,龍磐,2025-06-13,21.931672,120.838942,0.0111043425
C1F9D1,白毛台,2025-06-13,24.158325,120.886933,6.3765576e-08
C0G940,竹塘,2025-06-13,23.848253,120.386764,2.8458996e-06
467590,恆春,2025-06-13,22.003897,120.746339,0.12522043
C1O850,環湖,2025-06-13,23.148617,120.418633,0.10339965
C0U710,太平山,2025-06-13,24.505486,121.525656,2.8031675e-08
C0E820,獅潭,2025-06-13,24.539133,120.920042,1.4690656e-07
C0V880,興達,2025-06-13,22.8778,120.2127,0.5247288
C0S890,關山,2025-06-13,23.0395,121.175017,0.10122439
C0SB30,新蘭,2025-06-13,22.869214,121.223228,0.08541399
C2R970,屏科大,2025-06-13,22.648275,120.619247,0.066787854
C1Z130,銅門,2025-06-13,23.965694,121.492842,0.018487316
C0AD40,土城,2025-06-13,24.973208,121.445169,0.0150331585
CAN140,六官養殖協會,2025-06-13,23.22881,120.29962,0.0028517828
C0X180,山上,2025-06-13,23.0757,120.363253,0.19691798
C0F9Z0,雪山東峰,2025-06-13,24.388792,121.268675,2.0763144e-08
C1M480,獨立山,2025-06-13,23.537022,120.607797,3.831958e-08
C0X220,學甲,2025-06-13,23.230367,120.182187,0.00017881779
467650,日月潭,2025-06-13,23.881325,120.90805,1.3355987e-06
C0K600,箔子寮,2025-06-13,23.6197,120.14,3.4355402e-05
C0G830,埤頭,2025-06-13,23.866003,120.452806,2.7567985e-05
C0S950,七塊厝,2025-06-13,22.954453,121.229922,0.0027613821
467110,金門,2025-06-13,24.407306,118.289281,0.0025273918
C0AH80,深坑,2025-06-13,25.002703,121.628328,0.008232317
C0A970,三貂角,2025-06-13,25.007606,122.002058,0.9217751
C2D730,寶山農場,2025-06-13,24.732444,120.976153,1.8852148e-07
C0K430,褒忠,2025-06-13,23.690938,120.303634,7.818429e-05
467480,嘉義,2025-06-13,23.495925,120.432906,0.0003738038
C0V400,阿公店,2025-06-13,22.804194,120.355528,0.3534215
C0E960,觀霧分站,2025-06-13,24.505781,121.113921,3.8751153e-09
467550,玉山,2025-06-13,23.48718,120.95943,2.1358671e-08
C0R440,大漢山,2025-06-13,22.405264,120.753181,1.3653211e-08
C0K280,四湖,2025-06-13,23.630414,120.227125,0.00010503321
C1F9B1,桐林,2025-06-13,24.066172,120.735194,0.06335181
C2H9U0,鳳鵬,2025-06-13,23.763919,120.788061,0.001950877
C0K390,土庫,2025-06-13,23.679029,120.395574,6.6709745e-06
C1I450,望鄉山,2025-06-13,23.594153,120.944286,1.19060894e-08
C0E910,海埔,2025-06-13,24.648767,120.772435,5.065276e-07
B2E890,畜試北區分所,2025-06-13,24.527806,120.770972,2.0731788e-07
C0R750,四林格山,2025-06-13,22.076989,120.802439,3.2403182e-07
C0F0C0,中坑,2025-06-13,24.248517,120.903319,4.5599964e-09
C1I121,大鞍,2025-06-13,23.678381,120.760017,5.0875116e-08
72U480,花改蘭陽分場,2025-06-13,24.686306,121.716583,0.06070939
C0A770,科教館,2025-06-13,25.096356,121.516507,0.0011031269
C0AJ60,六塊厝,2025-06-13,25.24,121.4481,1.926033e-05
C0R620,墾雷,2025-06-13,21.900836,120.855269,0.002316638
467420,永康,2025-06-13,23.038386,120.2367,0.06720555
C0I410,名間,2025-06-13,23.837053,120.701447,1.1635549e-05
A2C560,農工中心,2025-06-13,24.985917,121.239833,2.0743734e-07
C0V740,旗山,2025-06-13,22.888614,120.483597,0.5773803
C0Z061,玉里,2025-06-13,23.3215,121.339656,1.0638523e-05
C0S840,南田,2025-06-13,22.279725,120.889208,0.11379994
C1I470,杉林溪,2025-06-13,23.639517,120.786444,2.9175473e-08
C1X040,東原,2025-06-13,23.291597,120.463822,0.3321109
C0R660,枋寮,2025-06-13,22.367722,120.590647,0.053601187
C1R120,上德文,2025-06-13,22.763272,120.704442,8.5114647e-07
C0K450,大埤,2025-06-13,23.646074,120.431537,0.00019106807
C0UA00,土場,2025-06-13,24.576533,121.495333,0.97518235
467080,宜蘭,2025-06-13,24.763975,121.756528,0.35308424
C0N030,四草,2025-06-13,23.0235,120.1116,0.03258326
467410,臺南,2025-06-13,22.99328,120.20492,0.06651059
C0V650,彌陀,2025-06-13,22.783806,120.246361,0.3038534
C0D660,新竹市東區,2025-06-13,24.798681,120.986942,3.838403e-07
82S580,茶改東部分場,2025-06-13,22.907694,121.130139,0.6181477
C0SB40,興隆,2025-06-13,22.913661,121.257469,0.11456488
467050,新屋,2025-06-13,25.006725,121.047492,2.4447456e-06
C0C710,大溪永福,2025-06-13,24.892936,121.324975,5.9005754e-07
C0FA20,溫寮,2025-06-13,24.372177,120.583125,0.0001281115
C0V640,湖內,2025-06-13,22.887139,120.2445,0.57407445
C0R910,下寮,2025-06-13,22.3929,120.5548,0.05353745
C0Z020,明里,2025-06-13,23.208717,121.262342,0.0004861006
C0M770,嘉義梅山,2025-06-13,23.585398,120.555587,0.000110354646
C0C660,楊梅,2025-06-13,24.912375,121.143047,4.9901953e-08
C1E511,新開,2025-06-13,24.347703,120.827019,0.000114269504
G2F820,農試所(霧峰),2025-06-13,24.031261,120.688133,0.076664716
C1I070,和社,2025-06-13,23.591131,120.888861,0.98087895
C2F000,大肚,2025-06-13,24.15295,120.572117,0.0026261094
C1S850,豐南,2025-06-13,23.122139,121.262389,1.6434093e-07
C2A920,富貴角,2025-06-13,25.263783,121.565258,2.572627e-05
CAH030,茶改場竹圍站,2025-06-13,23.860083,120.637528,0.00016410298
C0T960,光復,2025-06-13,23.660694,121.424964,0.918825
C0F9M0,豐原,2025-06-13,24.254322,120.720692,3.8894006e-05
C0R720,旭海,2025-06-13,22.205403,120.887614,0.15565285
C0V710,苓雅,2025-06-13,22.622742,120.330669,0.20976405
C0C740,觀音工業區,2025-06-13,25.064764,121.114856,5.8940345e-06
CAC040,拉拉山,2025-06-13,24.699317,121.427133,1.7317511e-08
C0V790,萬山,2025-06-13,22.905944,120.688056,0.00022492235
U2HA30,臺大和社,2025-06-13,23.590856,120.888864,0.98087895
C0AJ90,澳底,2025-06-13,25.0552,121.9253,0.8901038
C0Z100,東華,2025-06-13,23.89525,121.549833,0.0878413
C0G970,三豐,2025-06-13,23.882,120.2895,9.6138365e-06
V2K610,大庄合作社,2025-06-13,23.8068,120.367939,2.7342137e-05
C0V900,汕尾,2025-06-13,22.4782,120.4151,0.01835543
C1R630,龍泉,2025-06-13,22.66701,120.59091,0.083918534
C1AC50,關渡,2025-06-13,25.133486,121.469331,0.00047007305
C0C800,四稜,2025-06-13,24.64733,121.4293,1.7440213e-07
C0F9I0,神岡,2025-06-13,24.272481,120.658314,3.669248e-06
C0K460,斗南,2025-06-13,23.678734,120.478359,0.00017192823
C2O810,曾文,2025-06-13,23.219681,120.497328,0.5793555
467280,後龍,2025-06-13,24.648563,120.831834,3.8921954e-07
C1F9J1,清水林,2025-06-13,24.071242,120.820419,5.244033e-08
C2A650,火燒寮,2025-06-13,25.002719,121.742892,0.023866354
466930,竹子湖,2025-06-13,25.162078,121.544547,1.1000732e-08
C1I220,樟湖,2025-06-13,23.905333,120.846983,4.0920728e-08
C0I390,仁愛,2025-06-13,24.022122,121.132206,3.214961e-07
C0Z300,東里,2025-06-13,23.26853,121.30547,0.04352563
C1V590,新發,2025-06-13,23.057019,120.646064,6.294694e-07
C0K510,水林,2025-06-13,23.572924,120.24597,6.188534e-05
72S590,東改賓朗果園,2025-06-13,22.813889,121.071278,0.09421566
82A750,茶改北部分場,2025-06-13,24.955778,121.631222,5.253635e-07
C1A750,石碇服務區,2025-06-13,25.00872,121.646242,0.046109904
C0X300,鹿寮,2025-06-13,23.386047,120.477331,0.009148194
G2AI50,關渡,2025-06-13,25.11575,121.492,0.0001849573
C0K590,雲林東勢,2025-06-13,23.674192,120.255721,5.552577e-05
C0A570,桶後,2025-06-13,24.848222,121.597992,0.07176897
C1S800,華源,2025-06-13,22.657883,121.02325,0.22385575
C0G720,溪州,2025-06-13,23.851589,120.499093,2.275729e-05
C1V160,達卡努瓦,2025-06-13,23.279811,120.705319,4.516976e-08
C2M410,馬頭山,2025-06-13,23.324361,120.582017,0.032362476
C0V850,蚵仔寮,2025-06-13,22.7256,120.2527,0.5670862
C0S740,池上,2025-06-13,23.119628,121.209469,0.024751024
C1V390,尖山,2025-06-13,22.813153,120.367789,0.52128947
C0AH70,松山,2025-06-13,25.04871,121.55042,0.0009095615
C0N010,鯤鯓國小,2025-06-13,23.1879,120.0889,0.034597684
C0R550,新埤,2025-06-13,22.467947,120.582894,0.01961322
C0SA60,知本（水試所）,2025-06-13,22.702394,121.082761,0.042555425
C0T9I0,豐濱,2025-06-13,23.583897,121.514806,0.055873185
C0UB00,淡江大學蘭陽校園,2025-06-13,24.823239,121.730383,0.04841679
C0W240,九宮,2025-06-13,24.423753,118.240186,0.0036437896
C0T9N0,富里,2025-06-13,23.171639,121.249378,0.031206984
U2HA50,臺大竹山,2025-06-13,23.756972,120.681556,1.9810777e-05
C0V840,鳳鼻頭,2025-06-13,22.5083,120.3591,0.028262125
C0X140,西港,2025-06-13,23.125608,120.203108,0.03201398
72D080,桃改五峰分場,2025-06-13,24.612194,121.157167,1.2995096e-09
C2H9P0,伊拿谷,2025-06-13,23.963211,121.088264,7.771376e-06
C2H9F0,柑林,2025-06-13,24.018658,120.847072,0.07229115
C0TA20,加灣,2025-06-13,24.082025,121.608944,0.00044156198
C0V530,阿蓮,2025-06-13,22.883208,120.327508,0.15475698
C0FB30,八仙山苗圃,2025-06-13,24.192719,121.001366,4.9229762e-09
C1O880,關山,2025-06-13,23.173397,120.594092,0.06906296
C0E791,卓蘭,2025-06-13,24.3126,120.8244,0.000107774096
C1I030,武界,2025-06-13,23.913225,121.052483,1.6638662e-06
C0R520,崁頂,2025-06-13,22.514781,120.506914,0.03087036
C0R341,牡丹,2025-06-13,22.130036,120.792639,0.07084691
C0R930,萬丹,2025-06-13,22.5885,120.4851,0.028772254
C0S760,紅石,2025-06-13,23.069131,121.126219,1.0898793e-08
C2C410,中央大學,2025-06-13,24.967652,121.185165,1.8721965e-07
C1M610,石磐龍,2025-06-13,23.496606,120.663506,8.191111e-09
C0C790,東眼山,2025-06-13,24.8284,121.40888,3.3815434e-07
C0UA10,鴛鴦湖,2025-06-13,24.590269,121.412228,2.3497227e-08
V2C260,八德蔬果,2025-06-13,24.978508,121.281819,2.174333e-07
C0R800,丹路,2025-06-13,22.204481,120.750989,0.12524723
C0G920,永靖,2025-06-13,23.924703,120.547533,0.002062665
C2M950,太和,2025-06-13,23.538372,120.702961,4.8851874e-09
C1A630,下盆,2025-06-13,24.771003,121.538622,7.055743e-08
B2N890,畜產試驗所,2025-06-13,23.058972,120.336406,0.14550044
C0UA30,白嶺,2025-06-13,24.527819,121.519031,8.479869e-08
C1V580,溪南(特生中心),2025-06-13,23.084972,120.788475,1.1461905e-08
C1T970,大農,2025-06-13,23.615233,121.413331,0.004632958
C0R650,竹田,2025-06-13,22.58486,120.54344,0.021638544
C1H900,清流,2025-06-13,24.080775,120.962997,1.9310201e-08
C1C510,水尾,2025-06-13,24.940081,121.087161,6.23935e-07
C0F9X0,大雅(中科園區),2025-06-13,24.21528,120.62445,0.0051045553
C0SB60,白守蓮,2025-06-13,23.126769,121.401914,0.033937313
C0O970,虎頭埤,2025-06-13,23.021375,120.347878,0.6691895
C0C730,中大臨海站,2025-06-13,24.966126,121.008581,2.4286792e-06
C0X250,新營,2025-06-13,23.310689,120.316681,0.00045993726
C0V700,三民,2025-06-13,22.645017,120.311233,0.9225707
C0U870,大礁溪,2025-06-13,24.791042,121.675047,3.656369e-05
C0E870,高鐵苗栗,2025-06-13,24.60725,120.826094,4.8204724e-06
A2K570,古坑花卉中心,2025-06-13,23.63353,120.55239,0.0003043715
C0TA30,鹽寮,2025-06-13,23.845606,121.592664,0.11640086
C0M860,新美,2025-06-13,23.338017,120.683169,7.196748e-06
C1E701,八卦,2025-06-13,24.491756,120.927619,5.1297025e-08
C0I420,國姓,2025-06-13,24.037803,120.855072,0.02673032
C2D720,關西工作站,2025-06-13,24.757275,121.184792,8.185273e-08
C0S960,香蘭,2025-06-13,22.587569,120.993375,0.056030747
467620,蘭嶼,2025-06-13,22.0369,121.55843,0.35951403
C0R260,春日,2025-06-13,22.370361,120.628306,0.13815495
72G600,臺中農改場,2025-06-13,24.003028,120.534389,0.0022321544
C0Z210,瑞穗,2025-06-13,23.5239,121.39021,0.0005815294
C0M820,達邦,2025-06-13,23.453994,120.749517,1.643484e-08
C0V860,南寮,2025-06-13,22.7616,120.2339,0.5657339
C0G740,大城,2025-06-13,23.852487,120.320935,8.939014e-06
C0R920,塭仔,2025-06-13,22.4169,120.5197,0.0482192
C0R470,高樹,2025-06-13,22.826389,120.600806,0.21828516
C0R680,佳樂水,2025-06-13,21.993578,120.861633,0.03173226
C1O870,大棟山,2025-06-13,23.31157,120.52226,1.2199319e-08
C0D360,梅花,2025-06-13,24.678347,121.208558,6.6083274e-05
C0Z190,富世,2025-06-13,24.14743,121.6297,0.010039778
C0AI10,屈尺,2025-06-13,24.92184,121.54475,0.14519016
B2U990,畜試東區分所,2025-06-13,24.669039,121.832561,0.013821793
C0SB80,長濱漁港,2025-06-13,23.313644,121.459994,0.013364683
C0R240,來義,2025-06-13,22.527306,120.625111,0.039086334
C0V910,大樹,2025-06-13,22.684645,120.432803,0.092742845
C1R610,西大武山,2025-06-13,22.617719,120.7322,8.544027e-09
C0G900,線西,2025-06-13,24.143358,120.443536,0.0006668631
C0M700,竹崎,2025-06-13,23.526178,120.555508,7.560288e-05
C2E880,三義,2025-06-13,24.405478,120.749819,2.2500687e-07
C0C720,竹圍,2025-06-13,25.112692,121.239824,0.00019054809
C0F9P0,清水,2025-06-13,24.312297,120.562242,0.0005743976
C0Z150,吉安光華,2025-06-13,23.930925,121.595153,0.15416911
C0FA80,小雪山天池,2025-06-13,24.28025,121.02627,1.0804618e-08
467300,東吉島,2025-06-13,23.25727,119.66762,0.025359495
C1D640,外坪(五指山),2025-06-13,24.644447,121.090961,2.1079443e-07
C0F9O0,潭子,2025-06-13,24.213106,120.703933,0.0008611907
C2H9R0,卓社,2025-06-13,23.887894,121.000086,1.69963e-08
72T250,花蓮農改場,2025-06-13,23.975222,121.563889,0.09672244
C0E780,銅鑼,2025-06-13,24.489681,120.790853,7.072909e-08
C1T950,太安,2025-06-13,23.666719,121.370128,9.6803426e-08
C0E830,苑裡,2025-06-13,24.439714,120.653053,2.5512565e-05
467270,田中,2025-06-13,23.873803,120.581286,0.00054422964
C0SA10,檳榔四格山,2025-06-13,22.810031,121.109308,0.023266077
C1T830,布洛灣,2025-06-13,24.17184,121.57127,0.9972923
C0F970,大坑,2025-06-13,24.173142,120.722289,0.0011521133
C1U920,思源,2025-06-13,24.393125,121.347214,3.513062e-09
C0A931,三和,2025-06-13,25.233153,121.595236,7.111394e-08
C0I010,廬山,2025-06-13,24.033311,121.181808,6.326247e-08
C2M940,日野賀,2025-06-13,23.434056,120.727169,7.329297e-09
C0R860,鼻頭,2025-06-13,22.1043,120.8979,0.6239167
C0UB20,壯圍,2025-06-13,24.7359,121.8163,0.07118844
C0R790,九棚,2025-06-13,22.14195,120.889281,0.8589877
C0W110,東莒,2025-06-13,25.9652,119.98069,0.54530454
C1U930,粉鳥林,2025-06-13,24.497088,121.842479,0.27654812
C1I211,蘆竹湳,2025-06-13,23.934019,120.811994,0.049695462
C0S830,長濱,2025-06-13,23.286817,121.411975,4.274695e-07
C1F9F1,伯公龍,2025-06-13,24.272392,120.849047,1.7621587e-05
C0UB90,太平山莊,2025-06-13,24.494171,121.536209,2.738133e-08
C0E810,西湖,2025-06-13,24.562947,120.7485,1.2068357e-07
C1I440,新高口,2025-06-13,23.478744,120.878939,7.7071745e-09
C0O840,王爺宮,2025-06-13,23.222064,120.40085,0.024594352
C0T9G0,鳳林山,2025-06-13,23.735269,121.420131,7.1479176e-06
C0X080,佳里,2025-06-13,23.173039,120.145086,0.034543436
C0FB70,大甲溪埔,2025-06-13,24.370625,120.620067,0.0001260395
C0Z310,清水斷崖,2025-06-13,24.218294,121.689142,0.006395708
C0M680,太保,2025-06-13,23.455062,120.331455,0.00038355167
C1S820,金峰,2025-06-13,22.590969,120.933236,0.41357425
C0AD10,八里,2025-06-13,25.150211,121.403947,0.00019666212
C2K240,草嶺,2025-06-13,23.59555,120.693461,5.876453e-09
C1SA70,都蘭,2025-06-13,22.87794,121.226881,0.118766196
C0K440,二崙,2025-06-13,23.772797,120.408944,3.281733e-05
C1A760,坪林交控,2025-06-13,24.94284,121.713442,0.8454316
C0F9N0,大里,2025-06-13,24.092464,120.701378,0.0018478078
C0SA90,達仁林場,2025-06-13,22.264347,120.823972,2.334066e-06
C1R290,石門山,2025-06-13,22.112611,120.756597,0.0026130055
42HA10,萬大發電廠,2025-06-13,23.978875,121.139639,9.824819e-08
C0R890,山海,2025-06-13,21.9878,120.7091,0.0205295
C0T9A0,月眉山,2025-06-13,23.809928,121.539828,2.4234518e-07
C0AC70,信義,2025-06-13,25.037822,121.564597,0.00091287115
C0K560,棋山,2025-06-13,23.68645,120.603417,0.00022592887
C2FB50,出雲,2025-06-13,24.206469,120.902794,2.2905464e-08
C1Z240,中平林道,2025-06-13,23.42115,121.26763,1.5477409e-07
U2H480,溪頭,2025-06-13,23.670306,120.798194,2.469261e-08
C0M880,好美里,2025-06-13,23.3364,120.138,0.00011751196
C0T9E0,大坑,2025-06-13,23.880628,121.581981,1.667205e-06
C0K530,臺西,2025-06-13,23.701547,120.197559,8.512745e-05
C1E900,國一N128K,2025-06-13,24.560997,120.844186,1.5864056e-07
C0AJ50,水湳洞,2025-06-13,25.123695,121.862238,0.007356269
C0AI20,白沙灣,2025-06-13,25.283128,121.519058,1.86563e-05
C2V310,美濃,2025-06-13,22.898792,120.51907,0.5703823
C0A860,大坪,2025-06-13,25.165914,121.632969,1.400281e-07
C1U850,觀音海岸,2025-06-13,24.38319,121.77856,0.024600938
C2K610,草嶺石壁,2025-06-13,23.602469,120.707731,5.3525517e-09
C0U950,鶯子嶺,2025-06-13,24.89754,121.79244,4.2673143e-08
C0O900,善化,2025-06-13,23.112883,120.297219,0.09578567
C0K550,蔦松,2025-06-13,23.514319,120.229736,3.149005e-05
E2P980,林試六龜中心,2025-06-13,22.991703,120.645722,0.12101341
C0E590,通霄,2025-06-13,24.471892,120.704622,2.4375703e-07
C1I310,西巒,2025-06-13,23.754486,120.883956,1.7562465e-06
C0A550,泰平,2025-06-13,24.971197,121.823711,4.2545548e-08
C0I360,水里,2025-06-13,23.812553,120.849792,0.00019869907
C0R830,高士,2025-06-13,22.121825,120.836781,2.9328623e-05
C1I101,溪頭,2025-06-13,23.661789,120.807647,2.5321562e-08
C0AJ20,野柳,2025-06-13,25.20703,121.690021,9.568506e-06
C0B060,暖暖,2025-06-13,25.0957,121.7403,0.0014266504
C1H920,長豐,2025-06-13,24.102039,120.879897,3.511443e-08
C0V360,內門,2025-06-13,22.975481,120.466769,0.44205514
C0R850,林邊,2025-06-13,22.4634,120.5339,0.018714255
C0E930,龍鳳,2025-06-13,24.700034,120.859125,4.879486e-07
C0U910,冬山,2025-06-13,24.63373,121.7937,0.013821793
C1E721,泰安,2025-06-13,24.489017,120.968036,2.980019e-09
82H320,茶改中部分場,2025-06-13,23.875611,120.913583,0.0022267173
C0M750,布袋,2025-06-13,23.380878,120.167789,0.0002447781
C1S860,利嘉,2025-06-13,22.809417,121.050528,0.0025970258
E2S980,林試太麻里1,2025-06-13,22.598922,120.980044,0.2402673
C0X170,關廟,2025-06-13,22.963017,120.327797,0.21618009
C0V720,林園,2025-06-13,22.507747,120.394511,0.027674986
C1I510,線浸林道,2025-06-13,23.761508,120.832956,1.1052385e-08
C0D690,外湖,2025-06-13,24.917735,120.968711,1.2461526e-06
C0C750,新興坑尾,2025-06-13,25.0061,121.0971,2.2870904e-06
B2Q810,畜試南區分所,2025-06-13,21.945583,120.802167,0.027701668
C0S790,金崙,2025-06-13,22.538122,120.966875,0.3743014
C0AH90,福山植物園,2025-06-13,24.760717,121.58135,1.6551051e-07
C0I540,奇萊稜線,2025-06-13,24.109231,121.326456,1.5322286e-08
C0M850,表湖,2025-06-13,23.24186,120.64166,7.3821155e-07
C0S770,大溪山,2025-06-13,22.478475,120.943325,0.0021512194
C0AG80,中和,2025-06-13,24.991622,121.491792,0.015050637
C0T790,大禹嶺,2025-06-13,24.186117,121.316086,5.567323e-09
C0T9B0,水源,2025-06-13,23.991861,121.537169,0.001720105
C0R840,牡丹池山,2025-06-13,22.168389,120.841225,7.9397716e-07
C1I131,桶頭,2025-06-13,23.641944,120.654117,3.7147738e-06
CAL110,布袋國中,2025-06-13,23.35893,120.18026,0.000107224645
467571,新竹,2025-06-13,24.827853,121.014219,2.189686e-07
C0Z290,赤柯山,2025-06-13,23.36893,121.38293,1.7393017e-08
C0X280,將軍,2025-06-13,23.214999,120.13577,0.00022510106
C0S690,太麻里,2025-06-13,22.60902,120.98533,0.0006943991
C0U880,北關,2025-06-13,24.9072,121.8734,0.60941625
C0G810,埔心,2025-06-13,23.947633,120.525456,0.0019626922
C0U970,大福,2025-06-13,24.80064,121.81389,0.2870195
C2H9N0,仁愛東眼,2025-06-13,24.026875,121.1205,1.05444734e-07
C1E670,南礦,2025-06-13,24.538278,121.002836,2.0624553e-09
C0M520,東後寮,2025-06-13,23.369908,120.248065,9.019012e-05
C1E461,松安,2025-06-13,24.397972,120.986022,3.9686228e-09
C2N160,西拉雅風管處,2025-06-13,23.189481,120.335297,0.12531553
C2M970,碧湖,2025-06-13,23.568632,120.624165,9.425106e-09
C0A640,石碇,2025-06-13,24.993969,121.662917,0.12724899
E2S960,林試太麻里2,2025-06-13,22.598,120.99775,0.047985062
C0F9Y0,桃山,2025-06-13,24.432739,121.303808,1.7825359e-08
C1I020,萬大,2025-06-13,23.979817,121.132261,2.8425828e-07
C0U940,羅東,2025-06-13,24.68184,121.74934,0.061507966
C0M650,朴子,2025-06-13,23.43463,120.23902,0.00015703475
C1I500,大尖山,2025-06-13,23.858572,120.994889,2.9962695e-08
C0FB40,中橫21.6k,2025-06-13,24.2499,121.1455,1.7643202e-07
C0G820,田尾,2025-06-13,23.901669,120.509389,0.0019753615
E2K600,四湖植物園,2025-06-13,23.676986,120.163433,0.00010534254
C0S730,綠島,2025-06-13,22.6672,121.47533,0.0023320683
12Q970,東港工作站,2025-06-13,22.479997,120.466058,0.018410675
C0E430,南庄,2025-06-13,24.601775,121.000214,1.2737696e-07
C1TA00,太魯閣,2025-06-13,24.15773,121.6236,0.0033359414
466920,臺北,2025-06-13,25.037658,121.514853,0.0009095615
C0R600,舊泰武,2025-06-13,22.588194,120.664944,5.1959343e-08
C1I260,北坑,2025-06-13,23.9246,121.006903,0.005559033
466910,鞍部,2025-06-13,25.182586,121.529731,5.434903e-09
C1I230,九份二山,2025-06-13,23.961944,120.845,0.0004697635
C2A660,瑞芳,2025-06-13,25.113169,121.801147,0.0002919426
C0R270,琉球嶼,2025-06-13,22.332244,120.362236,0.009322282
C1T990,高寮,2025-06-13,23.394239,121.356808,3.3912573e-05
C0G620,芬園,2025-06-13,24.015678,120.6213,0.043512885
C1Z140,荖溪,2025-06-13,23.890575,121.45964,4.82457e-06
C1I201,中心崙,2025-06-13,23.728722,120.712097,1.2057467e-06
C1I400,凌霄,2025-06-13,24.018778,121.004456,1.2191184e-07
C1M640,十字,2025-06-13,23.492153,120.753683,3.4422776e-08
G2P820,農試鳳山分所,2025-06-13,22.646611,120.356083,0.94229215
C0Z270,蕃薯寮,2025-06-13,23.73835,121.540108,5.088578e-06
C0FB10,出雲山苗圃,2025-06-13,24.23105,120.90475,4.57725e-09
C0F9Q0,外埔,2025-06-13,24.347817,120.705686,2.6153457e-06
C0K580,高鐵雲林,2025-06-13,23.737456,120.417944,1.3983468e-05
C2I090,鳳凰,2025-06-13,23.728081,120.787347,8.263203e-08
C0U990,員山,2025-06-13,24.74435,121.72247,0.073472954
C0V770,大社,2025-06-13,22.730306,120.346639,0.6833397
C0X120,麻豆,2025-06-13,23.183289,120.248611,0.029226607
C0C670,龍潭,2025-06-13,24.870056,121.221389,3.7385103e-08
C0D680,香山濕地,2025-06-13,24.783581,120.914988,6.7321673e-07
C0S980,勝林山,2025-06-13,22.430439,120.8938,8.093721e-07
C0V730,大寮,2025-06-13,22.605614,120.395717,0.11695909
C0R570,麟洛,2025-06-13,22.65078,120.52719,0.073279664
C2M930,石卓,2025-06-13,23.478744,120.702264,4.985286e-08
C0G9B0,和美,2025-06-13,24.105169,120.492131,0.00020679086
CAG100,王功漁港,2025-06-13,23.96824,120.32586,6.077153e-06
C0X290,北門,2025-06-13,23.267772,120.125481,0.0002256628
C2F930,大甲,2025-06-13,24.347667,120.640403,6.867788e-05
C0D650,湖口,2025-06-13,24.904794,121.043628,7.019298e-07
C0E420,竹南,2025-06-13,24.708978,120.888897,3.8894868e-07
C0U780,五結,2025-06-13,24.68637,121.79794,0.07066704
C1I250,鯉潭,2025-06-13,23.961922,120.991131,0.03283671
C0R130,阿禮,2025-06-13,22.742908,120.743678,6.840878e-08
C0X100,臺南市北區,2025-06-13,23.010394,120.194228,0.08275971
C0S920,金峰嘉蘭,2025-06-13,22.594789,120.960825,0.26557395
C0V490,新興,2025-06-13,22.627422,120.298803,0.20622714
C0F9K0,大安,2025-06-13,24.345061,120.588025,0.000132801
467290,古坑,2025-06-13,23.633639,120.551889,0.0003043715
C2E970,八甲,2025-06-13,24.535811,120.795983,4.4650413e-08
C0V440,鳳山,2025-06-13,22.646653,120.356122,0.94229215
C1T940,大觀,2025-06-13,23.714206,121.373133,4.3857927e-08
C0E740,造橋,2025-06-13,24.637056,120.864778,4.1925227e-07
C0R100,尾寮山,2025-06-13,22.833111,120.683889,2.0478299e-07
A2K630,臺大雲林校區,2025-06-13,23.730628,120.423903,1.4031129e-05
467990,馬祖,2025-06-13,26.169467,119.923158,0.99632895
C0D580,寶山,2025-06-13,24.735006,121.025192,1.3611722e-06
E2P990,林試扇平站,2025-06-13,22.9677,120.6857,0.03148804
C0AI30,三重,2025-06-13,25.057328,121.500629,0.0011031269
C0AH00,汐止,2025-06-13,25.066881,121.658778,0.0009095615
C1Z040,立山,2025-06-13,23.443356,121.327375,2.6126534e-06
466881,新北,2025-06-13,24.959207,121.525196,0.011588288
C0W130,花嶼,2025-06-13,23.40007,119.32276,0.9983703
C0A950,鼻頭角,2025-06-13,25.129036,121.923372,0.9971828
C0K470,林內,2025-06-13,23.748675,120.609642,0.00013046715
C2F990,摩天嶺,2025-06-13,24.322458,120.936819,2.1815522e-08
82C160,茶改場,2025-06-13,24.908472,121.185333,2.5731161e-08
C0Z320,清水林道,2025-06-13,23.27125,121.188272,0.00035935943
C0R760,南仁湖,2025-06-13,22.084681,120.863353,0.0025846309
C0M670,大林,2025-06-13,23.600616,120.45841,0.0003568534
C0M800,茶山,2025-06-13,23.299075,120.664767,0.060437605
C0A9C0,天母,2025-06-13,25.117494,121.537169,0.0020883947
72K220,南改斗南分場,2025-06-13,23.634556,120.477333,0.00017290279
72AI40,桃改樹林分場,2025-06-13,24.944503,121.386972,6.9969224e-07
C0S910,蘭嶼燈塔,2025-06-13,22.081197,121.503117,0.03581647
C0B050,八斗子,2025-06-13,25.144754,121.79167,0.017796827
C0U900,內城,2025-06-13,24.71813,121.68766,0.05010369
C0X320,柳營,2025-06-13,23.253328,120.375253,0.21184601
C0M790,新港,2025-06-13,23.553269,120.345728,2.2466762e-05
C0F9T0,西屯,2025-06-13,24.179494,120.641275,0.010074858
C0E950,松安,2025-06-13,24.39792,120.98599,3.9686228e-09
C0SA30,都歷,2025-06-13,23.020333,121.323642,0.16537796
C0C620,蘆竹,2025-06-13,25.084275,121.265767,9.475745e-06
C0R730,大坪頂,2025-06-13,22.024633,120.69355,0.96438575
C0AJ40,石門,2025-06-13,25.273672,121.601198,2.7914013e-05
C0E750,苗栗,2025-06-13,24.564569,120.824575,1.6780537e-07
C0T870,鯉魚潭,2025-06-13,23.935639,121.508944,0.05240009
C1V170,排雲,2025-06-13,23.463619,120.954147,1.7301927e-08
C2H950,中寮,2025-06-13,23.884447,120.766406,0.015249567
C0R350,貓鼻頭,2025-06-13,21.921774,120.7358,0.0019173659
C0V660,岡山,2025-06-13,22.797078,120.294958,0.3060999
C1H941,雙冬,2025-06-13,23.967378,120.802189,0.0020074407
C0AJ70,田寮,2025-06-13,25.2698,121.4886,1.8437335e-05
C0AI00,五股,2025-06-13,25.07445,121.42728,1.1277941e-05
C0Z280,德武,2025-06-13,23.47426,121.41071,5.3113486e-06
C0R700,枋山,2025-06-13,22.246844,120.661086,0.06572632
C0C460,復興,2025-06-13,24.820208,121.352281,1.0688403e-05
E2H360,蓮華池,2025-06-13,23.918333,120.885278,2.0565112e-05
C0M640,中埔,2025-06-13,23.42538,120.5229,0.00019161758
C0W140,金沙,2025-06-13,24.488292,118.408778,0.0008855196
C2A540,四堵,2025-06-13,24.8926,121.745736,1.7702201e-05
C0ACA0,新莊,2025-06-13,25.051478,121.446756,0.0015451162
C0R220,潮州,2025-06-13,22.534361,120.54,0.030897014
U2HA40,臺大內茅埔,2025-06-13,23.689722,120.851117,0.7975189
467490,臺中,2025-06-13,24.145736,120.684075,0.011886851
C0UB60,明池,2025-06-13,24.650688,121.475277,1.8727502e-07
C0U960,翠峰湖,2025-06-13,24.510856,121.608044,2.8152018e-08
E2HA20,林試畢祿溪站,2025-06-13,24.226944,121.308522,6.4796892e-09
C0V890,前鎮,2025-06-13,22.5718,120.3117,0.18286873
C1F941,雪嶺,2025-06-13,24.280586,121.026642,1.0804618e-08
C2H9E0,國姓南港,2025-06-13,23.911108,120.846556,3.2633874e-08
C0AC80,文山,2025-06-13,25.00235,121.575728,0.008292144
C0F9R0,龍井,2025-06-13,24.184536,120.528972,0.0007971936
C0M760,民雄,2025-06-13,23.551754,120.428457,0.0003746079
C0UA40,西德山,2025-06-13,24.560647,121.752608,2.2102714e-08
C1T920,中興,2025-06-13,23.769503,121.498653,0.054560073
C0D550,雪霸,2025-06-13,24.526972,121.11605,9.606125e-09
C2F860,梨山,2025-06-13,24.247522,121.243669,6.6531807e-09
C0R320,車城,2025-06-13,22.0744,120.716247,0.69037235
C1S870,南美山,2025-06-13,23.15025,121.382333,0.0465282
C0B020,基隆嶼,2025-06-13,25.19141,121.78391,0.9518904
C1U501,牛鬥,2025-06-13,24.637836,121.573656,0.0013079522
C0M730,嘉義市東區,2025-06-13,23.457673,120.460531,0.0023920848
C0S700,知本,2025-06-13,22.684866,121.005642,0.0037060042
C1N001,沙崙,2025-06-13,22.935472,120.309406,0.18703847
C0V760,橋頭,2025-06-13,22.757806,120.30575,0.63367736
C0G960,福寶,2025-06-13,24.0443,120.3814,0.00020210863
C0X210,白河,2025-06-13,23.347466,120.414427,0.052295938
C0S810,東河,2025-06-13,22.972672,121.303986,0.025142744
C2R170,屏東,2025-06-13,22.66027,120.49403,0.07311628
C0R670,楓港,2025-06-13,22.190131,120.692156,0.3444615
C0FA50,霧峰,2025-06-13,24.0419,120.6995,0.07116923
C0UB10,蘇澳,2025-06-13,24.5969,121.8571,0.039713778
C0G950,防潮門,2025-06-13,24.1835,120.4871,0.00073691295
C0M740,六腳,2025-06-13,23.492871,120.290625,3.38173e-05
C1R250,力里,2025-06-13,22.428117,120.629228,0.046611622
C0K330,虎尾,2025-06-13,23.719183,120.442036,1.2105248e-05
C2FA00,烏石坑,2025-06-13,24.273503,120.947617,2.326817e-08
C0V620,永安,2025-06-13,22.82315,120.236856,0.3038534
C1I330,楓樹林,2025-06-13,23.986803,121.076117,2.8030872e-08
C0W200,湖西,2025-06-13,23.596314,119.67275,0.47943926
72Q010,高雄農改場,2025-06-13,22.709333,120.525889,0.110910505
C0SA40,瑞和,2025-06-13,22.974361,121.156697,0.4649585
C0C680,龜山,2025-06-13,25.02846,121.38656,0.011653999
C2V260,月眉,2025-06-13,22.971003,120.539853,0.35281163
C0V450,鳳森,2025-06-13,22.545064,120.392592,0.037357006
C0FA90,小雪山林道,2025-06-13,24.29515,121.03651,1.4087605e-08
C0U720,南山,2025-06-13,24.43742,121.38167,2.8667353e-06
A2N290,臺南蘭花園區,2025-06-13,23.340258,120.379661,0.000850682
C0R560,新園,2025-06-13,22.5434,120.461558,0.027674986
C0U890,三星,2025-06-13,24.66812,121.65302,0.024463894
C1V300,御油山,2025-06-13,23.001983,120.715364,8.54054e-09
C0U600,礁溪,2025-06-13,24.817539,121.765608,0.6322712
C1T980,龍澗,2025-06-13,24.023289,121.411328,9.3470184e-08
C0D670,海天一線,2025-06-13,24.831986,120.914438,7.381228e-07
C0SA00,歷坵,2025-06-13,22.520969,120.89185,0.0014442654
C0M710,東石,2025-06-13,23.458927,120.15385,1.4312341e-05
C0M780,鹿草,2025-06-13,23.41134,120.30835,0.00013315503
C0U520,雙連埤,2025-06-13,24.753033,121.641303,2.5583464e-05
C0B010,七堵,2025-06-13,25.094819,121.71713,0.0109337075
C0R480,長治,2025-06-13,22.693128,120.542622,0.09942177
C1V830,國三S383K,2025-06-13,22.781967,120.426475,0.113965616
12Q980,恆春工作站,2025-06-13,22.079678,120.714425,0.6914129
C1O940,東山服務區,2025-06-13,23.286016,120.398472,0.04870975
C1U840,東澳嶺,2025-06-13,24.5378,121.8485,2.4128154e-08
C1D630,飛鳳山,2025-06-13,24.766464,121.119178,1.9919864e-06
C0S940,石寧山,2025-06-13,23.223772,121.406639,0.16330417
C0K410,北港,2025-06-13,23.573957,120.292802,5.0160845e-05
C2M620,瑞里,2025-06-13,23.545133,120.675197,5.6288463e-09
C0SB70,小港漁港,2025-06-13,23.158558,121.400431,0.14956689
C2O950,安南,2025-06-13,23.076694,120.144861,0.011773326
C0F0E0,南湖圈谷,2025-06-13,24.363714,121.444667,2.4257357e-08
467610,成功,2025-06-13,23.097486,121.373428,0.04618116
C0G890,伸港,2025-06-13,24.148933,120.484403,0.0007161113
C2E540,龍溪,2025-06-13,24.606489,120.783933,5.172153e-06
C1V200,梅山,2025-06-13,23.268447,120.823556,7.958998e-06
C0T9H0,加路蘭山,2025-06-13,23.682947,121.5274,3.7757636e-07
C2O930,玉井,2025-06-13,23.126042,120.46055,0.14001359
C1F911,新伯公,2025-06-13,24.221361,120.841069,0.0006196804
C0R490,九如,2025-06-13,22.7405,120.490503,0.103673875
C0X200,左鎮,2025-06-13,23.056758,120.408522,0.81166786
C0FA60,鞍馬山工作站,2025-06-13,24.267064,121.000793,9.182116e-09
C0SB50,叭嗡嗡,2025-06-13,23.047062,121.343223,0.08655601
C1F891,稍來,2025-06-13,24.265689,121.001142,8.9785015e-09
72N240,七股研究中心,2025-06-13,23.081672,120.062894,0.0047777817
C0C700,中壢,2025-06-13,24.977661,121.256375,1.2050519e-07
C0M690,水上,2025-06-13,23.419734,120.388909,0.00041290873
C0V690,鼓山,2025-06-13,22.623325,120.275575,0.20541637
C0O860,大內,2025-06-13,23.11885,120.36083,0.12807643
C0Z200,萬榮,2025-06-13,23.709219,121.420106,0.0013456764
C0T9D0,和中,2025-06-13,24.26676,121.74103,0.26762974
C1O921,楠西,2025-06-13,23.183511,120.484083,0.16016476
C0AJ30,淡水觀海,2025-06-13,25.184591,121.408616,0.00012023182
C0V810,左營,2025-06-13,22.67491,120.28491,0.9223586
C0UA70,桃源谷,2025-06-13,24.962606,121.888875,1.2101837e-07
C0X130,官田,2025-06-13,23.193217,120.315422,0.11511885
C1H000,翠峰,2025-06-13,24.109397,121.205211,4.4978368e-09
C0UA90,石城,2025-06-13,24.980444,121.951214,0.88399726
C1E681,南勢山,2025-06-13,24.421669,120.923831,1.8765443e-09
C0A9F0,內湖,2025-06-13,25.079422,121.57545,0.0009095615
C0K291,宜梧,2025-06-13,23.536281,120.169329,3.128865e-05
C1K540,口湖,2025-06-13,23.585344,120.180517,3.4201268e-05
C0R780,滿州,2025-06-13,22.024403,120.839892,0.14593574
C0V870,文安,2025-06-13,22.8025,120.2164,0.23398979
C0U650,玉蘭,2025-06-13,24.675286,121.587061,0.00034758777
C0R640,東港,2025-06-13,22.46247,120.44074,0.018400345
C0AJ80,板橋,2025-06-13,25.0107,121.4489,0.017639456
C0S660,下馬,2025-06-13,23.150427,121.070312,1.1392936e-07
C1H9B1,阿眉,2025-06-13,24.1263,120.994672,3.0995643e-08
C0UA20,多加屯,2025-06-13,24.368614,121.373189,5.5880363e-09
C0E730,頭份,2025-06-13,24.688247,120.912206,4.3198693e-07
72V140,高改旗南分場,2025-06-13,22.857861,120.516667,0.27792045
C0K480,莿桐,2025-06-13,23.761192,120.502372,0.00059512485
C0U980,坪林石牌,2025-06-13,24.86478,121.77396,6.1634064e-06
C0T900,西林,2025-06-13,23.8119,121.441458,0.001924711
C1I150,青雲,2025-06-13,23.793361,120.949378,0.737794
467350,澎湖,2025-06-13,23.565503,119.563094,0.9971049
C0G800,埔鹽,2025-06-13,24.000394,120.431683,0.00010999555
C0H960,草屯,2025-06-13,23.973672,120.68085,0.064259455
C1V780,多納林道,2025-06-13,22.888028,120.737917,1.6084e-07
C0E920,通霄漁港,2025-06-13,24.498589,120.673876,1.040317e-05
C0Z330,安通山,2025-06-13,23.290728,121.348528,1.3075034e-08
C0AH10,永和,2025-06-13,25.01125,121.508111,0.0174839
C0AK10,太平里,2025-06-13,25.134937,121.364899,0.0002112612
C2G640,鹿港,2025-06-13,24.0753,120.430481,0.00020371446
C1E890,國三N149K,2025-06-13,24.463414,120.680019,5.658235e-07
C1R110,口社,2025-06-13,22.770111,120.645222,0.0991584
C1M870,國三N285K,2025-06-13,23.550319,120.505833,0.00028713458
C1E480,鳳美,2025-06-13,24.554803,121.034747,8.4306225e-07
C0M530,奮起湖,2025-06-13,23.493903,120.699253,4.769738e-09
C0C590,觀音,2025-06-13,25.027072,121.153317,6.6264442e-06
C0T9M0,靜浦,2025-06-13,23.455167,121.495028,0.0005978882
C2H9M0,發祥,2025-06-13,24.154094,121.164517,1.8891901e-08
C0AI40,石牌,2025-06-13,25.115597,121.513139,0.003087776
C1F871,上谷關,2025-06-13,24.203483,121.018644,3.084367e-08
C2H9G0,百勝,2025-06-13,24.051142,120.909361,8.953433e-05
C0G880,二水,2025-06-13,23.810742,120.6173,2.7038084e-05
C0R940,加祿堂,2025-06-13,22.3363,120.6217,0.110335365
C0W220,北竿,2025-06-13,26.220358,119.974881,0.9828321
C0O960,崎頂,2025-06-13,22.959547,120.369317,0.56151086
C0S750,向陽,2025-06-13,23.248397,120.986133,9.754999e-09
C0T9F0,水璉,2025-06-13,23.797131,121.542514,0.00025891644
C1M600,頭凍,2025-06-13,23.406364,120.603339,2.629297e-08
467660,臺東,2025-06-13,22.752211,121.154586,0.0010603201
C1D380,新埔,2025-06-13,24.84745,121.03834,1.2504604e-07
C2G980,田頭村,2025-06-13,23.8263,120.444175,3.2788677e-05
C0V750,路竹,2025-06-13,22.854997,120.259439,0.8240011
C0N050,蚵寮,2025-06-13,23.301,120.1104,0.00011791988
72M700,南改鹿草分場,2025-06-13,23.416869,120.283061,0.0001578063
C1SA50,利嘉林道,2025-06-13,22.82325,121.009389,4.288306e-09
C0UB70,太平山中間站,2025-06-13,24.542003,121.513453,4.0407176e-07
C0A940,金山,2025-06-13,25.223628,121.643967,6.303492e-06
C1V340,大津,2025-06-13,22.888322,120.645986,0.3092158
C0W180,七美,2025-06-13,23.219333,119.444892,0.92174935
C1F9C1,白冷,2025-06-13,24.182844,120.929889,2.744107e-06
K2E710,苗改生物防治研究中心,2025-06-13,24.422861,120.871833,3.3371913e-07
C0N040,蘆竹溝,2025-06-13,23.2344,120.0961,0.000225394
C0D760,大坪苗圃,2025-06-13,24.5362,121.1108,1.9851925e-09
C2W230,畜試所澎湖,2025-06-13,23.628342,119.513206,0.99901146
C0R880,後壁湖,2025-06-13,21.9457,120.7457,0.017697712
C1I280,埔中,2025-06-13,23.820778,120.642594,0.00050594803
467790,墾丁雷達站,2025-06-13,21.948235,120.808028,0.06497493
C0W190,望安,2025-06-13,23.380564,119.494075,0.9977014
C0Z170,卓溪,2025-06-13,23.3443,121.3029,9.368639e-07
C0F850,東勢,2025-06-13,24.246428,120.833047,0.00022395061
466900,淡水,2025-06-13,25.164889,121.448906,0.00021325935
C0I370,魚池,2025-06-13,23.895703,120.94135,0.0007305538
C0C630,大溪,2025-06-13,24.882853,121.265547,1.5527928e-07
C0A520,山佳,2025-06-13,24.974944,121.402008,2.0796257e-05
C0I110,竹山,2025-06-13,23.761225,120.688156,2.7558613e-06
82H840,茶改南部分場,2025-06-13,23.762528,120.7405,0.00047539824
C0G660,溪湖,2025-06-13,23.94835,120.479122,0.0018866623
C1T800,洛韶,2025-06-13,24.204558,121.453956,9.9348114e-08
C1T810,慈恩,2025-06-13,24.192044,121.388386,2.3607591e-09
C1E451,象鼻,2025-06-13,24.368617,120.940228,1.9557687e-09
C0AC60,三峽,2025-06-13,24.939025,121.369728,2.4981688e-07
C0I490,萬大林道,2025-06-13,23.928228,121.091411,5.095358e-08
C1I290,豐丘,2025-06-13,23.668178,120.887417,4.4172728e-09
C1I320,奧萬大,2025-06-13,23.952956,121.178556,2.6254833e-08
C2M910,嘉義大學,2025-06-13,23.471325,120.485903,0.0010094733
C0U770,南澳,2025-06-13,24.44935,121.81022,0.89659095
C0A980,社子,2025-06-13,25.109508,121.469681,0.00018050258
C0V800,六龜,2025-06-13,22.997889,120.633583,0.1571198
C1G9D0,國一S218K,2025-06-13,23.890641,120.493253,0.0025276695
C0E570,白沙屯,2025-06-13,24.549447,120.696803,2.7595643e-06
C2F9A0,中竹林,2025-06-13,24.103556,120.751061,0.0045195627
C0FA40,臺中電廠,2025-06-13,24.2146,120.4907,0.00080188265
C2G9A0,畜試所彰化,2025-06-13,23.86045,120.557964,0.00054279406
C0H9C0,合歡山,2025-06-13,24.143442,121.272547,1.2869232e-08
C0X060,下營,2025-06-13,23.22695,120.256261,0.002835787
G2M350,農試溪口農場,2025-06-13,23.58565,120.408111,0.00037085812
C0U860,頭城,2025-06-13,24.85323,121.8308,0.59133923
C0R580,南州,2025-06-13,22.48591,120.50274,0.018400354
C0D430,峨眉,2025-06-13,24.6905,121.017189,1.8976394e-07
C0G780,秀水,2025-06-13,24.03405,120.503869,0.002211885
72N100,臺南農改場,2025-06-13,23.0605,120.342194,0.15007137
C0S900,蘭嶼高中,2025-06-13,22.04909,121.51214,0.006754324
C1F9W0,德基,2025-06-13,24.254783,121.190261,2.2262137e-08
C1Z120,壽豐,2025-06-13,23.870853,121.508081,0.0878413
C0W160,烏坵,2025-06-13,24.9944,119.44956,0.9981027
C1I240,外大坪,2025-06-13,23.958697,120.917931,0.014587485
C1I550,國六W023K,2025-06-13,23.979067,120.867742,0.0018233699
C0R870,興海,2025-06-13,21.9752,120.8439,0.027748792
C0R140,瑪家,2025-06-13,22.682903,120.686639,4.4888054e-07
C0A530,坪林,2025-06-13,24.938183,121.70975,0.030878598
C0X260,後壁,2025-06-13,23.366358,120.362326,0.00031721985
C0Z230,和平,2025-06-13,24.30717,121.77007,0.26853588
C0G770,福興,2025-06-13,24.041289,120.437669,0.00010572607
C0H9A0,神木村,2025-06-13,23.532742,120.843667,1.25661055e-08
C0I460,南投,2025-06-13,23.911469,120.687331,0.42825687
C0I480,梅峰,2025-06-13,24.085272,121.173572,5.5156386e-09
C1V570,吉東,2025-06-13,22.85422,120.5454,0.27575034
C2D740,屯原,2025-06-13,24.067969,121.209389,2.3933218e-08
C2A560,福山,2025-06-13,24.776203,121.502811,0.0014240125
C0AH30,五分山,2025-06-13,25.07125,121.780794,3.994803e-08
C0FA10,松柏,2025-06-13,24.429115,120.617482,2.4932091e-05
72S200,東改班鳩分場,2025-06-13,22.829528,121.077694,0.093411714
72HA00,中改埔里分場,2025-06-13,23.903208,120.963364,0.00026409532
C2H9W0,大坪頂農水,2025-06-13,24.043122,120.932781,3.112402e-08
C0C650,平鎮,2025-06-13,24.897503,121.214636,2.3320686e-08
C0S930,延平,2025-06-13,22.902581,121.084058,0.76614344
C0UA60,樟樹山,2025-06-13,24.41393,121.78325,0.0021381278
C1S670,摩天,2025-06-13,23.199503,121.027,1.64654e-08
C0V630,茄萣,2025-06-13,22.906642,120.182608,0.5255112
466940,基隆,2025-06-13,25.133314,121.740475,0.016253252
C0X050,東河,2025-06-13,23.296598,120.385608,0.07072969
C0R770,保力,2025-06-13,22.071122,120.764111,0.86599964
G2L020,農試嘉義分所,2025-06-13,23.485028,120.473806,0.00033689756
C0X240,關子嶺,2025-06-13,23.331169,120.508025,0.00028178707
C0I380,集集,2025-06-13,23.828206,120.801467,0.0003740423
466990,花蓮,2025-06-13,23.975128,121.613275,0.099745154
C1V220,小關山,2025-06-13,23.154217,120.813603,1.3204555e-08
C1F9G1,慶福山,2025-06-13,24.180853,120.848378,5.5660596e-09
C0FB20,雪山橋,2025-06-13,24.23192,120.9786,9.016858e-09
C0Z250,瑞穗林道,2025-06-13,23.49284,121.30688,2.6898434e-07
C0D590,新豐,2025-06-13,24.87068,120.97721,2.475208e-07
C0A870,五指山,2025-06-13,25.132153,121.608692,8.293421e-09
C0UA50,西帽山,2025-06-13,24.555361,121.802628,9.8182994e-08
C0X160,仁德,2025-06-13,22.968258,120.257689,0.14495166
C1H971,六分寮,2025-06-13,23.92507,120.6378,6.175099e-05
C0W120,西嶼,2025-06-13,23.5626,119.468436,0.99922895
C0G650,員林,2025-06-13,23.946503,120.585597,0.0635603
C0AD50,鶯歌,2025-06-13,24.951533,121.346294,1.5263647e-07
C2H9Q0,北東眼山,2025-06-13,24.120939,121.189303,3.5086845e-08
C2H9T0,名間竹圍,2025-06-13,23.859914,120.637572,0.0001606757
C0S990,山豬窟,2025-06-13,22.318619,120.857372,3.9846927e-05
C0X190,安平,2025-06-13,22.993161,120.152181,0.08310234
C0K400,斗六,2025-06-13,23.720583,120.541127,0.00036773906
12J990,口湖工作站,2025-06-13,23.589978,120.180394,3.4355402e-05
C0O830,北寮,2025-06-13,23.079561,120.495008,0.15477051
C1D410,白蘭,2025-06-13,24.579364,121.079947,1.9890813e-09
C0S970,加津林,2025-06-13,22.416211,120.926942,0.020785319
C0D700,關西,2025-06-13,24.7977,121.1732,3.7068537e-07
C0M810,里佳,2025-06-13,23.389125,120.716647,4.8862683e-09
C0U750,龜山島,2025-06-13,24.841667,121.953133,0.9957797
C0R810,內獅,2025-06-13,22.305064,120.642986,0.099122785
C1M390,龍美,2025-06-13,23.406728,120.654417,8.835005e-09
C2FB60,頭櫃山,2025-06-13,24.129842,120.858925,3.1749636e-08
C1H840,國三N238K,2025-06-13,23.841008,120.707711,0.0038876126
CAQ030,崎峰國小,2025-06-13,22.42565,120.49521,0.018400345
C2E520,大湖,2025-06-13,24.414939,120.870872,1.0686884e-05
467530,阿里山,2025-06-13,23.508208,120.813242,8.316992e-09
C1E691,南湖,2025-06-13,24.40135,120.837533,2.8923357e-09
C0FA30,梧棲,2025-06-13,24.256003,120.523381,0.0005731384
C1V231,高中,2025-06-13,23.134911,120.716711,4.2099316e-08
C0AK30,硬漢嶺,2025-06-13,25.136097,121.426372,1.310867e-08
C0F9V0,新社,2025-06-13,24.200172,120.815806,4.3961714e-05
C0H890,埔里,2025-06-13,23.972169,120.952425,1.145647e-05
C0R690,墾丁,2025-06-13,21.966756,120.810269,0.0031934648
C0F0D0,審馬陣,2025-06-13,24.381675,121.4203,1.4944924e-08
C2W030,金門農試所,2025-06-13,24.448431,118.451786,0.004658162
C0R820,白鷺,2025-06-13,22.454275,120.666219,0.087245435
C0FB00,大雪山,2025-06-13,24.254668,121.007374,8.433991e-09
C1V190,南天池,2025-06-13,23.27403,120.91176,7.839034e-09
C0E940,雪見,2025-06-13,24.42595,121.01347,1.4117866e-08
K2E360,苗栗農改場,2025-06-13,24.495722,120.829111,1.3653647e-07
CAJ050,海口故事園區,2025-06-13,23.57543,120.14121,3.4341676e-05
C2H9D0,三隻寮,2025-06-13,24.093078,120.861578,2.6677698e-08
C0O990,媽廟,2025-06-13,22.99175,120.293525,0.088896096
C0D480,打鐵坑,2025-06-13,24.849664,121.150789,3.5706336e-08
C0Z220,和平林道,2025-06-13,24.343922,121.656317,0.15622212
C0TA10,花蓮漁港,2025-06-13,23.995322,121.638331,0.12276749
72C440,桃園農改場,2025-06-13,24.950944,121.030583,9.610734e-07
C1E711,馬拉邦山,2025-06-13,24.367306,120.901656,1.423595e-08
C0SB20,富岡,2025-06-13,22.792467,121.192669,0.027027346
C0D560,竹東,2025-06-13,24.767147,121.057881,1.4840073e-07
C0F9U0,南屯,2025-06-13,24.137006,120.637969,0.006682281
C0M720,番路,2025-06-13,23.464657,120.554156,0.00010742996
C0F0A0,雪山圈谷,2025-06-13,24.388594,121.236339,1.859142e-08
C1A9N0,四十份,2025-06-13,24.934158,121.593283,0.0004255964
C0U760,東澳,2025-06-13,24.52196,121.83318,0.32490525
C0X230,鹽水,2025-06-13,23.272621,120.247641,9.402075e-05
C2H9H0,苗改南投蜂場,2025-06-13,23.852589,120.693481,2.2240263e-05
C0R950,萬隆國小,2025-06-13,22.507667,120.587817,0.032504283
467540,大武,2025-06-13,22.35572,120.90374,0.015041717
C0V370,古亭坑,2025-06-13,22.893178,120.401947,0.58634114
C1I340,新興橋,2025-06-13,23.563333,120.868728,8.287874e-08
C0SA80,土坂,2025-06-13,22.453108,120.887572,0.1407186
C0R160,鹽埔,2025-06-13,22.739558,120.530778,0.111474484
C0AC40,大屯山,2025-06-13,25.175675,121.522408,4.4159587e-09
466850,五分山雷達站,2025-06-13,25.071182,121.781205,3.9069107e-08
C2H9L0,馬烈霸,2025-06-13,24.1512,121.201772,1.91953e-08
C1AI50,國三N016K,2025-06-13,25.034164,121.619664,0.00036055548
C1V600,藤枝,2025-06-13,23.071961,120.757042,2.3263999e-08
C1E601,南勢,2025-06-13,24.572486,120.734842,5.411663e-08
C0O980,新市,2025-06-13,23.061614,120.298197,0.09802697
C0K420,西螺,2025-06-13,23.800407,120.467394,3.7378377e-05
C0Z050,佳心,2025-06-13,23.34567,121.21316,2.5328227e-08
C0AD30,蘆洲,2025-06-13,25.086594,121.472331,0.001148499
C0V610,梓官,2025-06-13,22.760558,120.267211,0.6326303
K2F750,種苗改良場,2025-06-13,24.225972,120.800917,0.00017212803
C0UA80,大溪漁港,2025-06-13,24.941801,121.902955,0.9333862
C1AI60,國一39K邊坡,2025-06-13,25.064361,121.383836,0.011108229
C0W150,金寧,2025-06-13,24.457703,118.328989,0.003435546
C0R960,內埔,2025-06-13,22.608483,120.570714,0.022678196
V2C250,八德合作社,2025-06-13,24.93775,121.266389,4.7867008e-08
C2H9S0,龍南,2025-06-13,23.953536,120.833183,3.2027042e-08
C0AH40,平等,2025-06-13,25.129142,121.577086,5.4803646e-08
C0R540,佳冬,2025-06-13,22.419456,120.552375,0.053830806
466950,彭佳嶼,2025-06-13,25.627975,122.079744,0.99824345
C0A890,雙溪,2025-06-13,25.036003,121.864242,0.43955493
C0C480,桃園,2025-06-13,24.992425,121.323172,2.4738276e-07
C0AH50,林口,2025-06-13,25.072181,121.38084,0.011068726
A2K360,水試臺西試驗場,2025-06-13,23.717231,120.190522,9.254116e-05
C2M960,外寮,2025-06-13,23.562643,120.665688,7.495554e-09
C0F9S0,烏日,2025-06-13,24.107058,120.624103,0.049607195
C0C490,八德,2025-06-13,24.928708,121.283289,4.5710053e-08
C0R190,赤山,2025-06-13,22.592333,120.614306,0.023186518
C0T820,天祥,2025-06-13,24.179597,121.495639,0.015415083
C1F9E1,龍安,2025-06-13,24.1605,120.831961,4.8143444e-05
C0V820,小林,2025-06-13,23.148408,120.63325,4.0393887e-05
C2G870,芳苑,2025-06-13,23.922303,120.320025,5.2888263e-06
C0E850,大河,2025-06-13,24.618069,120.948578,1.9850388e-07
C1U670,寒溪,2025-06-13,24.634,121.71691,0.004376289
C0N020,城西,2025-06-13,23.0568,120.0956,0.025212811
C1Z110,三棧,2025-06-13,24.11557,121.60501,0.00021456262
C0R280,檳榔,2025-06-13,22.076078,120.836777,0.6859379
C2H9J0,中台,2025-06-13,23.9996,120.938739,4.7407342e-05
C0F9L0,后里,2025-06-13,24.310436,120.729725,0.0004658217
467441,高雄,2025-06-13,22.730432,120.312516,0.67725134
C0Z180,新城,2025-06-13,24.040486,121.604878,0.10313906
C0D540,橫山,2025-06-13,24.71116,121.11693,2.1203398e-07
C1D420,太閣南,2025-06-13,24.632808,121.160575,1.8425138e-07
C1E770,公館,2025-06-13,24.526914,120.830806,2.0731828e-07
CAN130,水試所海水繁養殖中心,2025-06-13,23.120802,120.07968,0.00481879
C1I430,翠華,2025-06-13,24.191961,121.224339,3.615092e-09
C1M400,菜瓜坪,2025-06-13,23.251928,120.576103,0.028556
C0G730,二林,2025-06-13,23.903325,120.376081,0.00015484293
72M360,南改義竹分場,2025-06-13,23.360694,120.279361,9.0710404e-05
V2K620,麥寮合作社,2025-06-13,23.753836,120.294783,7.791701e-05
C0Z070,舞鶴,2025-06-13,23.46811,121.37407,1.2045123e-06
C0B040,大武崙,2025-06-13,25.166676,121.706993,0.004039048
C1Z030,紅葉,2025-06-13,23.493119,121.338806,2.0487438e-05
C1I050,丹大,2025-06-13,23.753747,121.141147,1.0522189e-08
C0I080,信義,2025-06-13,23.689694,120.851036,0.7975189
C0D750,樂山林道6k,2025-06-13,24.49999,121.08773,5.014676e-09
C2M920,朴子農改,2025-06-13,23.469889,120.259383,0.00015183918
C2A880,福隆,2025-06-13,25.017842,121.942083,0.8724048
C0Z160,鳳林,2025-06-13,23.746114,121.453411,0.0040825987
C0UB80,翠峰林道6K,2025-06-13,24.49773,121.568625,5.818868e-09
C0V210,復興,2025-06-13,23.222403,120.806089,0.0005355056
C0H990,昆陽,2025-06-13,24.121322,121.273642,7.2701245e-09
C0R741,獅子,2025-06-13,22.202308,120.705236,0.19015938
C0S710,鹿野,2025-06-13,22.917711,121.122994,0.023121096
C0I530,小奇萊,2025-06-13,24.131764,121.295717,7.7382545e-09
C0FA70,大雪山埡口,2025-06-13,24.26867,121.03062,1.0655058e-08
C2K630,荷苞,2025-06-13,23.657717,120.595144,7.691282e-05
C0Z080,富源,2025-06-13,23.587642,121.378225,0.78394574
C0SB10,美和,2025-06-13,22.682078,121.060236,0.04272762
C2K620,馬光農場,2025-06-13,23.721453,120.378864,1.7051349e-05
C1I140,卡奈托灣,2025-06-13,23.754364,121.087872,1.3976535e-08
C0I520,玉山風口,2025-06-13,23.470489,120.955994,2.3971046e-08
C1G691,下水埔,2025-06-13,23.816114,120.5676,0.0005431067
C0X110,臺南市南區,2025-06-13,22.961189,120.188378,0.14077994
C0V680,仁武,2025-06-13,22.701083,120.347722,0.9241767
C2G840,北斗,2025-06-13,23.877586,120.514222,0.0024944714
C0R900,竹坑,2025-06-13,22.1385,120.7022,0.19561924
C0K250,崙背,2025-06-13,23.75555,120.318925,7.8291196e-05
C0G860,社頭,2025-06-13,23.897647,120.5862,0.0096539045
C0X150,安定,2025-06-13,23.102614,120.227839,0.058661923
C0R590,里港,2025-06-13,22.77919,120.49459,0.19086719
C0E610,馬都安,2025-06-13,24.451272,120.930192,2.458245e-09
C0E550,明德,2025-06-13,24.583486,120.885411,1.3849694e-07
C0R150,三地門,2025-06-13,22.709889,120.639944,0.103862055
C0G910,花壇,2025-06-13,24.032076,120.549461,0.0022278968
C1D400,鳥嘴山,2025-06-13,24.71909,121.28387,2.9819862e-09
C0K500,元長,2025-06-13,23.64981,120.315024,6.655208e-05
C0F0B0,石岡,2025-06-13,24.276061,120.777644,0.00018860567
C2V250,甲仙,2025-06-13,23.080106,120.591758,0.15900102
C0SA20,金崙山,2025-06-13,22.567419,120.959667,5.9037895e-08
C0V350,溪埔,2025-06-13,22.738578,120.446797,0.14962153
C0M660,溪口,2025-06-13,23.604131,120.403569,0.00037256756
C1S880,壽卡,2025-06-13,22.238911,120.858903,5.1306356e-06
72D680,桃改新埔分場,2025-06-13,24.834444,121.066111,1.3317025e-07
