站號,站名,日期,lat,lon,BLBTSLS
CAH030,茶改場竹圍站,2025-12-09,23.860083,120.637528,5.879915e-10
V2K610,大庄合作社,2025-12-09,23.8068,120.367939,0.9739036
G2AI50,關渡,2025-12-09,25.11575,121.492,0.00062799803
V2C260,八德蔬果,2025-12-09,24.978508,121.281819,0.13793863
A2K570,古坑花卉中心,2025-12-09,23.63353,120.55239,1.5976925e-09
467571,新竹,2025-12-09,24.827853,121.014219,0.5228765
C0E430,南庄,2025-12-09,24.601775,121.000214,4.844229e-10
C0E420,竹南,2025-12-09,24.708978,120.888897,0.10355
C0M530,奮起湖,2025-12-09,23.493903,120.699253,2.186029e-09
C0C590,觀音,2025-12-09,25.027072,121.153317,0.9749932
C0M810,里佳,2025-12-09,23.389125,120.716647,3.35401e-09
V2C250,八德合作社,2025-12-09,24.93775,121.266389,0.16668136
