站號,站名,日期,lat,lon,BLBTSLS
K2F750,種苗繁殖,2025-02-27,24.225972,120.800917,9.1402275e-10
C0R170,屏東,2025-02-27,22.660269,120.494072,3.9837514e-07
467990,馬祖,2025-02-27,26.169269,119.923419,1.7577847e-06
C2E540,後龍,2025-02-27,24.606489,120.783933,2.8702434e-09
467300,東吉島,2025-02-27,23.25695,119.667467,0.96650106
G2F820,農業試驗所,2025-02-27,24.031261,120.688133,5.3366667e-10
467410,臺南,2025-02-27,22.993239,120.204772,1.2802438e-09
C0V310,美濃,2025-02-27,22.898742,120.519153,2.5577162e-06
E2S960,林試太麻里2,2025-02-27,22.598014,120.989761,2.2825478e-08
72C440,桃園農改,2025-02-27,24.950944,121.030583,0.0025622756
C1H860,瑞岩,2025-02-27,24.123772,121.18345,5.9252883e-09
72G600,臺中農改,2025-02-27,24.003028,120.534389,4.4384177e-10
72N100,臺南農改,2025-02-27,23.0605,120.342194,9.910862e-10
72T250,花蓮農改,2025-02-27,23.975222,121.563889,2.4681874e-08
467620,蘭嶼,2025-02-27,22.036969,121.558339,0.99992836
K2E360,苗栗農改,2025-02-27,24.495722,120.829111,2.1667883e-09
467050,新屋,2025-02-27,25.006744,121.047486,0.01846854
467550,玉山,2025-02-27,23.487614,120.959522,3.1491144e-08
466881,新北,2025-02-27,24.9593,121.52,6.178851e-07
467540,大武,2025-02-27,22.355675,120.903789,0.017305585
72Q010,高雄農改,2025-02-27,22.709333,120.525889,3.7183384e-10
U2H480,臺大溪頭,2025-02-27,23.670306,120.798194,1.8446131e-09
C0Z180,新城,2025-02-27,24.03946,121.60454,2.563989e-08
B2N890,畜試所,2025-02-27,23.058972,120.336406,9.910862e-10
467441,高雄,2025-02-27,22.7304,120.3125,4.9959714e-10
