站號,站名,日期,lat,lon,BLBTSLS
C0R710,龍磐,2025-02-02,21.931672,120.838942,0.99904454
C1F9D1,白毛台,2025-02-02,24.158325,120.886933,0.015777651
C0G940,竹塘,2025-02-02,23.848253,120.386764,0.024429346
467590,恆春,2025-02-02,22.003897,120.746339,0.68385404
C1O850,環湖,2025-02-02,23.148617,120.418633,0.017900923
C0U710,太平山,2025-02-02,24.505486,121.525656,0.16798544
C0E820,獅潭,2025-02-02,24.539133,120.920042,0.0315695
C0V880,興達,2025-02-02,22.8778,120.2127,0.009763077
C0S890,關山,2025-02-02,23.0395,121.175017,0.03348839
C0SB30,新蘭,2025-02-02,22.869214,121.223228,0.01916018
C2R970,屏科大,2025-02-02,22.648275,120.619247,0.0018107892
K2F750,種苗繁殖,2025-02-02,24.225972,120.800917,0.0126667805
C1Z130,銅門,2025-02-02,23.965694,121.492842,0.25405908
C0AD40,土城,2025-02-02,24.973208,121.445169,0.22141086
CAN140,六官養殖協會,2025-02-02,23.22881,120.29962,0.024850007
C0X180,山上,2025-02-02,23.0757,120.363253,0.018494567
C0F9Z0,雪山東峰,2025-02-02,24.388792,121.268675,0.032400705
C1M480,獨立山,2025-02-02,23.537022,120.607797,0.02214398
C0X220,學甲,2025-02-02,23.230367,120.182187,0.011175317
C0R170,屏東,2025-02-02,22.660269,120.494072,0.014299686
467650,日月潭,2025-02-02,23.881325,120.90805,0.020838711
C0K600,箔子寮,2025-02-02,23.6197,120.14,0.066076145
C0G830,埤頭,2025-02-02,23.866003,120.452806,0.01292439
C0S950,七塊厝,2025-02-02,22.954453,121.229922,0.03330695
467110,金門,2025-02-02,24.407306,118.289281,0.3284807
C0AH80,深坑,2025-02-02,25.002703,121.628328,0.20791638
467990,馬祖,2025-02-02,26.169269,119.923419,0.52069527
C0A970,三貂角,2025-02-02,25.007606,122.002058,0.14156286
C2D730,寶山農場,2025-02-02,24.732444,120.976153,0.029655488
C0K430,褒忠,2025-02-02,23.690938,120.303634,0.018866315
467480,嘉義,2025-02-02,23.495925,120.432906,0.01713262
C2E540,後龍,2025-02-02,24.606489,120.783933,0.03177556
C0V400,阿公店,2025-02-02,22.804194,120.355528,0.009635541
C0R440,大漢山,2025-02-02,22.405264,120.753181,0.08987952
C0K280,四湖,2025-02-02,23.630414,120.227125,0.06687925
C1F9B1,桐林,2025-02-02,24.066172,120.735194,0.01517003
C2H9U0,鳳鵬,2025-02-02,23.763919,120.788061,0.011449163
C0K390,土庫,2025-02-02,23.679029,120.395574,0.011036431
C1I450,望鄉山,2025-02-02,23.594153,120.944286,0.024281532
C0E910,海埔,2025-02-02,24.648767,120.772435,0.031183394
B2E890,畜試北區分所,2025-02-02,24.527806,120.770972,0.036430378
C0R750,四林格山,2025-02-02,22.076989,120.802439,0.3541054
C0F0C0,中坑,2025-02-02,24.248517,120.903319,0.024852768
C1I121,大鞍,2025-02-02,23.678381,120.760017,0.0616774
72U480,花改蘭陽分場,2025-02-02,24.686306,121.716583,0.030044092
C0A770,科教館,2025-02-02,25.096356,121.516507,0.10707677
C0AJ60,六塊厝,2025-02-02,25.24,121.4481,0.4672579
C0R620,墾雷,2025-02-02,21.900836,120.855269,0.99857104
467420,永康,2025-02-02,23.038386,120.2367,0.02340891
467300,東吉島,2025-02-02,23.25695,119.667467,0.9291121
C0I410,名間,2025-02-02,23.837053,120.701447,0.017316975
A2C560,農工中心,2025-02-02,24.985917,121.239833,0.27410582
C0V740,旗山,2025-02-02,22.888614,120.483597,0.0067615993
C0Z061,玉里,2025-02-02,23.3215,121.339656,0.13508016
C0S840,南田,2025-02-02,22.279725,120.889208,0.24925284
C1I470,杉林溪,2025-02-02,23.639517,120.786444,0.059649482
C1X040,東原,2025-02-02,23.291597,120.463822,0.026041092
C0R660,枋寮,2025-02-02,22.367722,120.590647,0.012351547
C1R120,上德文,2025-02-02,22.763272,120.704442,0.0112707745
C0K450,大埤,2025-02-02,23.646074,120.431537,0.015401772
C0UA00,土場,2025-02-02,24.576533,121.495333,0.19823673
467080,宜蘭,2025-02-02,24.763975,121.756528,0.037865873
C0N030,四草,2025-02-02,23.0235,120.1116,0.013520194
C0V650,彌陀,2025-02-02,22.783806,120.246361,0.009006186
C0D660,新竹市東區,2025-02-02,24.798681,120.986942,0.029744871
82S580,茶改東部分場,2025-02-02,22.907694,121.130139,0.023367135
C0SB40,興隆,2025-02-02,22.913661,121.257469,0.019910013
C0C710,大溪永福,2025-02-02,24.892936,121.324975,0.16685522
C0FA20,溫寮,2025-02-02,24.372177,120.583125,0.06520125
C0V640,湖內,2025-02-02,22.887139,120.2445,0.00949924
C0R910,下寮,2025-02-02,22.3929,120.5548,0.012351547
C0Z020,明里,2025-02-02,23.208717,121.262342,0.1778529
C0M770,嘉義梅山,2025-02-02,23.585398,120.555587,0.0145459315
G2F820,農業試驗所,2025-02-02,24.031261,120.688133,0.014310915
C0C660,楊梅,2025-02-02,24.912375,121.143047,0.16911343
C1E511,新開,2025-02-02,24.347703,120.827019,0.02199654
G2F820,農試所(霧峰),2025-02-02,24.031261,120.688133,0.014310915
C1I070,和社,2025-02-02,23.591131,120.888861,0.0353444
C2F000,大肚,2025-02-02,24.15295,120.572117,0.014342146
C1S850,豐南,2025-02-02,23.122139,121.262389,0.046035245
C2A920,富貴角,2025-02-02,25.263783,121.565258,0.32798362
CAH030,茶改場竹圍站,2025-02-02,23.860083,120.637528,0.016853737
C0T960,光復,2025-02-02,23.660694,121.424964,0.010525198
C0F9M0,豐原,2025-02-02,24.254322,120.720692,0.01958096
C0R720,旭海,2025-02-02,22.205403,120.887614,0.2748148
C0V710,苓雅,2025-02-02,22.622742,120.330669,0.93261415
C0C740,觀音工業區,2025-02-02,25.064764,121.114856,0.6538353
CAC040,拉拉山,2025-02-02,24.699317,121.427133,0.18577152
C0V790,萬山,2025-02-02,22.905944,120.688056,0.0031905414
U2HA30,臺大和社,2025-02-02,23.590856,120.888864,0.0353444
C0AJ90,澳底,2025-02-02,25.0552,121.9253,0.114103444
C0Z100,東華,2025-02-02,23.89525,121.549833,0.17510386
C0G970,三豐,2025-02-02,23.882,120.2895,0.79491866
V2K610,大庄合作社,2025-02-02,23.8068,120.367939,0.017693684
C0V900,汕尾,2025-02-02,22.4782,120.4151,0.04771705
C1R630,龍泉,2025-02-02,22.66701,120.59091,0.0018798484
C1AC50,關渡,2025-02-02,25.133486,121.469331,0.11524449
C0F9I0,神岡,2025-02-02,24.272481,120.658314,0.014977439
C0K460,斗南,2025-02-02,23.678734,120.478359,0.015063515
467410,臺南,2025-02-02,22.993239,120.204772,0.012923264
C2O810,曾文,2025-02-02,23.219681,120.497328,0.017809117
467280,後龍,2025-02-02,24.648563,120.831834,0.03135653
C1F9J1,清水林,2025-02-02,24.071242,120.820419,0.012115837
C2A650,火燒寮,2025-02-02,25.002719,121.742892,0.1234998
466930,竹子湖,2025-02-02,25.162078,121.544547,0.07148749
C1I220,樟湖,2025-02-02,23.905333,120.846983,0.013593603
C0I390,仁愛,2025-02-02,24.022122,121.132206,0.010313302
C0Z300,東里,2025-02-02,23.26853,121.30547,0.1827357
C0V310,美濃,2025-02-02,22.898742,120.519153,0.0068196934
C1V590,新發,2025-02-02,23.057019,120.646064,0.0032126098
C0K510,水林,2025-02-02,23.572924,120.24597,0.016825877
72S590,東改賓朗果園,2025-02-02,22.813889,121.071278,0.027270008
82A750,茶改北部分場,2025-02-02,24.955778,121.631222,0.15480287
C1A750,石碇服務區,2025-02-02,25.00872,121.646242,0.13402459
C0X300,鹿寮,2025-02-02,23.386047,120.477331,0.025642445
G2AI50,關渡,2025-02-02,25.11575,121.492,0.3788578
C0K590,雲林東勢,2025-02-02,23.674192,120.255721,0.01907341
C0A570,桶後,2025-02-02,24.848222,121.597992,0.11099473
C1S800,華源,2025-02-02,22.657883,121.02325,0.6683734
C0G720,溪州,2025-02-02,23.851589,120.499093,0.013089165
C1V160,達卡努瓦,2025-02-02,23.279811,120.705319,0.020117769
C2M410,馬頭山,2025-02-02,23.324361,120.582017,0.026667193
C0V850,蚵仔寮,2025-02-02,22.7256,120.2527,0.039808236
C0S740,池上,2025-02-02,23.119628,121.209469,0.025910415
C1V390,尖山,2025-02-02,22.813153,120.367789,0.010079144
C0AH70,松山,2025-02-02,25.04871,121.55042,0.10555574
C0N010,鯤鯓國小,2025-02-02,23.1879,120.0889,0.010463235
C0R550,新埤,2025-02-02,22.467947,120.582894,0.03758084
C0SA60,知本（水試所）,2025-02-02,22.702394,121.082761,0.75562406
C0T9I0,豐濱,2025-02-02,23.583897,121.514806,0.017463777
C0UB00,淡江大學蘭陽校園,2025-02-02,24.823239,121.730383,0.10405826
C0W240,九宮,2025-02-02,24.423753,118.240186,0.33229184
C0T9N0,富里,2025-02-02,23.171639,121.249378,0.051632367
U2HA50,臺大竹山,2025-02-02,23.756972,120.681556,0.011786054
C0V840,鳳鼻頭,2025-02-02,22.5083,120.3591,0.011905208
C0X140,西港,2025-02-02,23.125608,120.203108,0.024241108
72D080,桃改五峰分場,2025-02-02,24.612194,121.157167,0.04831581
C2H9P0,伊拿谷,2025-02-02,23.963211,121.088264,0.011299484
C2H9F0,柑林,2025-02-02,24.018658,120.847072,0.019197412
C0TA20,加灣,2025-02-02,24.082025,121.608944,0.73686105
C0V530,阿蓮,2025-02-02,22.883208,120.327508,0.011992759
C1O880,關山,2025-02-02,23.173397,120.594092,0.015518024
C0E791,卓蘭,2025-02-02,24.3126,120.8244,0.02014851
C1I030,武界,2025-02-02,23.913225,121.052483,0.011720545
C0R520,崁頂,2025-02-02,22.514781,120.506914,0.005902448
C0R341,牡丹,2025-02-02,22.130036,120.792639,0.40756834
C0R930,萬丹,2025-02-02,22.5885,120.4851,0.009172474
C0S760,紅石,2025-02-02,23.069131,121.126219,0.35924482
C1M610,石磐龍,2025-02-02,23.496606,120.663506,0.04397036
C0UA10,鴛鴦湖,2025-02-02,24.590269,121.412228,0.06358904
V2C260,八德蔬果,2025-02-02,24.978508,121.281819,0.12130103
C0R800,丹路,2025-02-02,22.204481,120.750989,0.28244045
C0G920,永靖,2025-02-02,23.924703,120.547533,0.0129163945
C2M950,太和,2025-02-02,23.538372,120.702961,0.045584243
C1A630,下盆,2025-02-02,24.771003,121.538622,0.07717043
B2N890,畜產試驗所,2025-02-02,23.058972,120.336406,0.026377998
C0UA30,白嶺,2025-02-02,24.527819,121.519031,0.20411219
C1V580,溪南(特生中心),2025-02-02,23.084972,120.788475,0.022164576
C1T970,大農,2025-02-02,23.615233,121.413331,0.01860884
E2S960,林試太麻里2,2025-02-02,22.598014,120.989761,0.9010213
C0R650,竹田,2025-02-02,22.58486,120.54344,0.0027640949
C1H900,清流,2025-02-02,24.080775,120.962997,0.0120913945
C1C510,水尾,2025-02-02,24.940081,121.087161,0.34349826
C0F9X0,大雅(中科園區),2025-02-02,24.21528,120.62445,0.012325834
C0SB60,白守蓮,2025-02-02,23.126769,121.401914,0.020697594
C0O970,虎頭埤,2025-02-02,23.021375,120.347878,0.016190227
C0C730,中大臨海站,2025-02-02,24.966126,121.008581,0.52059317
C0X250,新營,2025-02-02,23.310689,120.316681,0.022656152
C0V700,三民,2025-02-02,22.645017,120.311233,0.85678566
C0U870,大礁溪,2025-02-02,24.791042,121.675047,0.07656939
C0E870,高鐵苗栗,2025-02-02,24.60725,120.826094,0.030731633
A2K570,古坑花卉中心,2025-02-02,23.63353,120.55239,0.0168913
C0M860,新美,2025-02-02,23.338017,120.683169,0.020113437
C1E701,八卦,2025-02-02,24.491756,120.927619,0.032147396
C0I420,國姓,2025-02-02,24.037803,120.855072,0.019307591
C2D720,關西工作站,2025-02-02,24.757275,121.184792,0.032220393
C0S960,香蘭,2025-02-02,22.587569,120.993375,0.9010213
C0R260,春日,2025-02-02,22.370361,120.628306,0.012595234
72G600,臺中農改場,2025-02-02,24.003028,120.534389,0.013318097
C0Z210,瑞穗,2025-02-02,23.5239,121.39021,0.03298012
C0M820,達邦,2025-02-02,23.453994,120.749517,0.03835538
C0V860,南寮,2025-02-02,22.7616,120.2339,0.039633
C0G740,大城,2025-02-02,23.852487,120.320935,0.7936047
C0R920,塭仔,2025-02-02,22.4169,120.5197,0.012477648
C0R470,高樹,2025-02-02,22.826389,120.600806,0.0065395343
C0R680,佳樂水,2025-02-02,21.993578,120.861633,0.96665466
C1O870,大棟山,2025-02-02,23.31157,120.52226,0.025135458
C0D360,梅花,2025-02-02,24.678347,121.208558,0.066650905
C0Z190,富世,2025-02-02,24.14743,121.6297,0.5427154
C0AI10,屈尺,2025-02-02,24.92184,121.54475,0.33998445
B2U990,畜試東區分所,2025-02-02,24.669039,121.832561,0.031697206
C0SB80,長濱漁港,2025-02-02,23.313644,121.459994,0.13059244
C0R240,來義,2025-02-02,22.527306,120.625111,0.004436454
C0V910,大樹,2025-02-02,22.684645,120.432803,0.008324552
C1R610,西大武山,2025-02-02,22.617719,120.7322,0.2753956
C0G900,線西,2025-02-02,24.143358,120.443536,0.017926635
C0M700,竹崎,2025-02-02,23.526178,120.555508,0.016595809
C2E880,三義,2025-02-02,24.405478,120.749819,0.023714254
C0C720,竹圍,2025-02-02,25.112692,121.239824,0.36707377
C0F9P0,清水,2025-02-02,24.312297,120.562242,0.03366389
C0Z150,吉安光華,2025-02-02,23.930925,121.595153,0.28695866
C1D640,外坪(五指山),2025-02-02,24.644447,121.090961,0.054427166
C0F9O0,潭子,2025-02-02,24.213106,120.703933,0.02244301
C2H9R0,卓社,2025-02-02,23.887894,121.000086,0.019006414
72T250,花蓮農改場,2025-02-02,23.975222,121.563889,0.68719554
C0E780,銅鑼,2025-02-02,24.489681,120.790853,0.037426174
C1T950,太安,2025-02-02,23.666719,121.370128,0.5133269
C0E830,苑裡,2025-02-02,24.439714,120.653053,0.10573596
467270,田中,2025-02-02,23.873803,120.581286,0.012566474
C0SA10,檳榔四格山,2025-02-02,22.810031,121.109308,0.02934492
C1T830,布洛灣,2025-02-02,24.17184,121.57127,0.84565514
C0F970,大坑,2025-02-02,24.173142,120.722289,0.013951308
C1U920,思源,2025-02-02,24.393125,121.347214,0.04001055
C0A931,三和,2025-02-02,25.233153,121.595236,0.15274303
C0I010,廬山,2025-02-02,24.033311,121.181808,0.01373728
C2M940,日野賀,2025-02-02,23.434056,120.727169,0.040355295
C0R860,鼻頭,2025-02-02,22.1043,120.8979,0.57679063
C0UB20,壯圍,2025-02-02,24.7359,121.8163,0.030079491
C0R790,九棚,2025-02-02,22.14195,120.889281,0.45356673
C0W110,東莒,2025-02-02,25.9652,119.98069,0.6943223
C1U930,粉鳥林,2025-02-02,24.497088,121.842479,0.05511323
C1I211,蘆竹湳,2025-02-02,23.934019,120.811994,0.015889756
C0S830,長濱,2025-02-02,23.286817,121.411975,0.13224648
C1F9F1,伯公龍,2025-02-02,24.272392,120.849047,0.012651577
C0E810,西湖,2025-02-02,24.562947,120.7485,0.16713887
C1I440,新高口,2025-02-02,23.478744,120.878939,0.03340572
C0O840,王爺宮,2025-02-02,23.222064,120.40085,0.019664658
C0T9G0,鳳林山,2025-02-02,23.735269,121.420131,0.05587071
C0X080,佳里,2025-02-02,23.173039,120.145086,0.010463235
C0FB70,大甲溪埔,2025-02-02,24.370625,120.620067,0.06500801
C0Z310,清水斷崖,2025-02-02,24.218294,121.689142,0.08484846
C0M680,太保,2025-02-02,23.455062,120.331455,0.016532013
C1S820,金峰,2025-02-02,22.590969,120.933236,0.8168733
C0AD10,八里,2025-02-02,25.150211,121.403947,0.36707377
C2K240,草嶺,2025-02-02,23.59555,120.693461,0.095404856
C1SA70,都蘭,2025-02-02,22.87794,121.226881,0.019910013
C0K440,二崙,2025-02-02,23.772797,120.408944,0.013210247
C1A760,坪林交控,2025-02-02,24.94284,121.713442,0.16173862
C0F9N0,大里,2025-02-02,24.092464,120.701378,0.015642608
C0SA90,達仁林場,2025-02-02,22.264347,120.823972,0.12733176
C1R290,石門山,2025-02-02,22.112611,120.756597,0.38586727
42HA10,萬大發電廠,2025-02-02,23.978875,121.139639,0.009474335
C0R890,山海,2025-02-02,21.9878,120.7091,0.9900607
C0T9A0,月眉山,2025-02-02,23.809928,121.539828,0.05824705
C0AC70,信義,2025-02-02,25.037822,121.564597,0.10555574
C0K560,棋山,2025-02-02,23.68645,120.603417,0.017080298
C2FB50,出雲,2025-02-02,24.206469,120.902794,0.02599075
C1Z240,中平林道,2025-02-02,23.42115,121.26763,0.46980622
U2H480,溪頭,2025-02-02,23.670306,120.798194,0.057824038
C0M880,好美里,2025-02-02,23.3364,120.138,0.010935409
C0T9E0,大坑,2025-02-02,23.880628,121.581981,0.18436061
C0K530,臺西,2025-02-02,23.701547,120.197559,0.07109908
C1E900,國一N128K,2025-02-02,24.560997,120.844186,0.03440807
C0AJ50,水湳洞,2025-02-02,25.123695,121.862238,0.12527439
C0AI20,白沙灣,2025-02-02,25.283128,121.519058,0.4538199
C0A860,大坪,2025-02-02,25.165914,121.632969,0.07938795
C1U850,觀音海岸,2025-02-02,24.38319,121.77856,0.061525445
C2K610,草嶺石壁,2025-02-02,23.602469,120.707731,0.094729014
C0U950,鶯子嶺,2025-02-02,24.89754,121.79244,0.12319647
C0O900,善化,2025-02-02,23.112883,120.297219,0.026878746
C0K550,蔦松,2025-02-02,23.514319,120.229736,0.014414572
E2P980,林試六龜中心,2025-02-02,22.991703,120.645722,0.009253205
C0E590,通霄,2025-02-02,24.471892,120.704622,0.7983625
C1I310,西巒,2025-02-02,23.754486,120.883956,0.03551164
C0A550,泰平,2025-02-02,24.971197,121.823711,0.14562838
C0I360,水里,2025-02-02,23.812553,120.849792,0.010488958
C0R830,高士,2025-02-02,22.121825,120.836781,0.3747204
C1I101,溪頭,2025-02-02,23.661789,120.807647,0.038300928
C0AJ20,野柳,2025-02-02,25.20703,121.690021,0.20175824
C0B060,暖暖,2025-02-02,25.0957,121.7403,0.121587574
C1H920,長豐,2025-02-02,24.102039,120.879897,0.011112692
C0V360,內門,2025-02-02,22.975481,120.466769,0.0114258025
C0R850,林邊,2025-02-02,22.4634,120.5339,0.042509682
C0E930,龍鳳,2025-02-02,24.700034,120.859125,0.0633315
C0U910,冬山,2025-02-02,24.63373,121.7937,0.031697206
C1E721,泰安,2025-02-02,24.489017,120.968036,0.02585019
82H320,茶改中部分場,2025-02-02,23.875611,120.913583,0.018991929
C0M750,布袋,2025-02-02,23.380878,120.167789,0.01188413
C1S860,利嘉,2025-02-02,22.809417,121.050528,0.4925314
72C440,桃園農改,2025-02-02,24.950944,121.030583,0.37247342
E2S980,林試太麻里1,2025-02-02,22.598922,120.980044,0.86977047
C0X170,關廟,2025-02-02,22.963017,120.327797,0.017421411
C0V720,林園,2025-02-02,22.507747,120.394511,0.010864528
C1I510,線浸林道,2025-02-02,23.761508,120.832956,0.026980596
C0D690,外湖,2025-02-02,24.917735,120.968711,0.38535562
C0C750,新興坑尾,2025-02-02,25.0061,121.0971,0.48463908
B2Q810,畜試南區分所,2025-02-02,21.945583,120.802167,0.9665951
C0S790,金崙,2025-02-02,22.538122,120.966875,0.6800626
C0AH90,福山植物園,2025-02-02,24.760717,121.58135,0.20181037
C0I540,奇萊稜線,2025-02-02,24.109231,121.326456,0.023373067
C0M850,表湖,2025-02-02,23.24186,120.64166,0.0145895565
C0S770,大溪山,2025-02-02,22.478475,120.943325,0.61478394
C0AG80,中和,2025-02-02,24.991622,121.491792,0.22141086
C0T790,大禹嶺,2025-02-02,24.186117,121.316086,0.023226986
C0T9B0,水源,2025-02-02,23.991861,121.537169,0.45386755
C0R840,牡丹池山,2025-02-02,22.168389,120.841225,0.22653894
C1I131,桶頭,2025-02-02,23.641944,120.654117,0.018104324
CAL110,布袋國中,2025-02-02,23.35893,120.18026,0.01188413
467571,新竹,2025-02-02,24.827853,121.014219,0.13360398
C0Z290,赤柯山,2025-02-02,23.36893,121.38293,0.313177
C0X280,將軍,2025-02-02,23.214999,120.13577,0.011262797
C0S690,太麻里,2025-02-02,22.60902,120.98533,0.6249746
C0U880,北關,2025-02-02,24.9072,121.8734,0.20246841
C1H860,瑞岩,2025-02-02,24.123772,121.18345,0.030129278
C0G810,埔心,2025-02-02,23.947633,120.525456,0.013071639
C0U970,大福,2025-02-02,24.80064,121.81389,0.037796378
C2H9N0,仁愛東眼,2025-02-02,24.026875,121.1205,0.012685084
C1E670,南礦,2025-02-02,24.538278,121.002836,0.029780228
C0M520,東後寮,2025-02-02,23.369908,120.248065,0.011773276
C1E461,松安,2025-02-02,24.397972,120.986022,0.028363746
72G600,臺中農改,2025-02-02,24.003028,120.534389,0.013318097
C2N160,西拉雅風管處,2025-02-02,23.189481,120.335297,0.023120884
C2M970,碧湖,2025-02-02,23.568632,120.624165,0.09575667
C0A640,石碇,2025-02-02,24.993969,121.662917,0.10491292
E2S960,林試太麻里2,2025-02-02,22.598,120.99775,0.9033483
C0F9Y0,桃山,2025-02-02,24.432739,121.303808,0.032876775
C1I020,萬大,2025-02-02,23.979817,121.132261,0.010351652
C0U940,羅東,2025-02-02,24.68184,121.74934,0.029875973
C0M650,朴子,2025-02-02,23.43463,120.23902,0.012717823
C1I500,大尖山,2025-02-02,23.858572,120.994889,0.025799774
C0G820,田尾,2025-02-02,23.901669,120.509389,0.012917555
E2K600,四湖植物園,2025-02-02,23.676986,120.163433,0.06687925
C0S730,綠島,2025-02-02,22.6672,121.47533,0.9894193
12Q970,東港工作站,2025-02-02,22.479997,120.466058,0.047670674
C0E430,南庄,2025-02-02,24.601775,121.000214,0.031028043
C1TA00,太魯閣,2025-02-02,24.15773,121.6236,0.5077753
466920,臺北,2025-02-02,25.037658,121.514853,0.10555574
C0R600,舊泰武,2025-02-02,22.588194,120.664944,0.029748643
C1I260,北坑,2025-02-02,23.9246,121.006903,0.016226437
466910,鞍部,2025-02-02,25.182586,121.529731,0.11126704
C1I230,九份二山,2025-02-02,23.961944,120.845,0.010318657
C2A660,瑞芳,2025-02-02,25.113169,121.801147,0.11607983
C0R270,琉球嶼,2025-02-02,22.332244,120.362236,0.84462434
C1T990,高寮,2025-02-02,23.394239,121.356808,0.09335777
C0G620,芬園,2025-02-02,24.015678,120.6213,0.014161823
C1Z140,荖溪,2025-02-02,23.890575,121.45964,0.45946944
C1I201,中心崙,2025-02-02,23.728722,120.712097,0.017526874
C1I400,凌霄,2025-02-02,24.018778,121.004456,0.012473331
C1M640,十字,2025-02-02,23.492153,120.753683,0.029870745
G2P820,農試鳳山分所,2025-02-02,22.646611,120.356083,0.8047759
C0Z270,蕃薯寮,2025-02-02,23.73835,121.540108,0.058228586
C0F9Q0,外埔,2025-02-02,24.347817,120.705686,0.024541004
C0K580,高鐵雲林,2025-02-02,23.737456,120.417944,0.012544891
C2I090,鳳凰,2025-02-02,23.728081,120.787347,0.03965282
C0U990,員山,2025-02-02,24.74435,121.72247,0.030193651
C0V770,大社,2025-02-02,22.730306,120.346639,0.030465383
C0X120,麻豆,2025-02-02,23.183289,120.248611,0.026800243
C0C670,龍潭,2025-02-02,24.870056,121.221389,0.13303563
C0D680,香山濕地,2025-02-02,24.783581,120.914988,0.028575957
C0S980,勝林山,2025-02-02,22.430439,120.8938,0.26247168
C0V730,大寮,2025-02-02,22.605614,120.395717,0.93126124
C0R570,麟洛,2025-02-02,22.65078,120.52719,0.014294002
C2M930,石卓,2025-02-02,23.478744,120.702264,0.03161725
C0G9B0,和美,2025-02-02,24.105169,120.492131,0.01913878
CAG100,王功漁港,2025-02-02,23.96824,120.32586,0.7955767
C0X290,北門,2025-02-02,23.267772,120.125481,0.011262797
C2F930,大甲,2025-02-02,24.347667,120.640403,0.06504984
C0D650,湖口,2025-02-02,24.904794,121.043628,0.3430689
C0E420,竹南,2025-02-02,24.708978,120.888897,0.065081745
C0U780,五結,2025-02-02,24.68637,121.79794,0.030079491
C1I250,鯉潭,2025-02-02,23.961922,120.991131,0.009213719
C0R130,阿禮,2025-02-02,22.742908,120.743678,0.014188211
C0X100,臺南市北區,2025-02-02,23.010394,120.194228,0.013232899
C0S920,金峰嘉蘭,2025-02-02,22.594789,120.960825,0.86408055
C0V490,新興,2025-02-02,22.627422,120.298803,0.9326505
C0F9K0,大安,2025-02-02,24.345061,120.588025,0.06567195
72N100,臺南農改,2025-02-02,23.0605,120.342194,0.026377998
467290,古坑,2025-02-02,23.633639,120.551889,0.0168913
C2E970,八甲,2025-02-02,24.535811,120.795983,0.035743862
C0V440,鳳山,2025-02-02,22.646653,120.356122,0.8047759
C1T940,大觀,2025-02-02,23.714206,121.373133,0.055746935
72T250,花蓮農改,2025-02-02,23.975222,121.563889,0.68719554
C0E740,造橋,2025-02-02,24.637056,120.864778,0.031629384
C0R100,尾寮山,2025-02-02,22.833111,120.683889,0.015238815
A2K630,臺大雲林校區,2025-02-02,23.730628,120.423903,0.012539925
C0D580,寶山,2025-02-02,24.735006,121.025192,0.029460397
E2P990,林試扇平站,2025-02-02,22.9677,120.6857,0.01090854
C0AI30,三重,2025-02-02,25.057328,121.500629,0.10707677
C0AH00,汐止,2025-02-02,25.066881,121.658778,0.10555574
C1Z040,立山,2025-02-02,23.443356,121.327375,0.44280005
C0W130,花嶼,2025-02-02,23.40007,119.32276,0.963048
C0A950,鼻頭角,2025-02-02,25.129036,121.923372,0.99286836
C0K470,林內,2025-02-02,23.748675,120.609642,0.011020669
C2F990,摩天嶺,2025-02-02,24.322458,120.936819,0.024830425
82C160,茶改場,2025-02-02,24.908472,121.185333,0.16424954
C0Z320,清水林道,2025-02-02,23.27125,121.188272,0.3349859
C0R760,南仁湖,2025-02-02,22.084681,120.863353,0.3856664
C0M670,大林,2025-02-02,23.600616,120.45841,0.013716952
C0M800,茶山,2025-02-02,23.299075,120.664767,0.019328667
C0A9C0,天母,2025-02-02,25.117494,121.537169,0.126477
72K220,南改斗南分場,2025-02-02,23.634556,120.477333,0.015054298
72AI40,桃改樹林分場,2025-02-02,24.944503,121.386972,0.14807618
C0S910,蘭嶼燈塔,2025-02-02,22.081197,121.503117,0.99431753
C0B050,八斗子,2025-02-02,25.144754,121.79167,0.12675288
C0U900,內城,2025-02-02,24.71813,121.68766,0.02982119
C0X320,柳營,2025-02-02,23.253328,120.375253,0.021769525
C0M790,新港,2025-02-02,23.553269,120.345728,0.011422054
C0F9T0,西屯,2025-02-02,24.179494,120.641275,0.012655937
C0SA30,都歷,2025-02-02,23.020333,121.323642,0.028652804
C0C620,蘆竹,2025-02-02,25.084275,121.265767,0.4906951
C0R730,大坪頂,2025-02-02,22.024633,120.69355,0.8430393
C0AJ40,石門,2025-02-02,25.273672,121.601198,0.35205567
C0E750,苗栗,2025-02-02,24.564569,120.824575,0.034265287
C0T870,鯉魚潭,2025-02-02,23.935639,121.508944,0.25527364
C1V170,排雲,2025-02-02,23.463619,120.954147,0.028177133
C2H950,中寮,2025-02-02,23.884447,120.766406,0.017549962
C0R350,貓鼻頭,2025-02-02,21.921774,120.7358,0.8314806
C0V660,岡山,2025-02-02,22.797078,120.294958,0.009007097
C1H941,雙冬,2025-02-02,23.967378,120.802189,0.01620951
C0AJ70,田寮,2025-02-02,25.2698,121.4886,0.4620306
C0AI00,五股,2025-02-02,25.07445,121.42728,0.102245755
C0Z280,德武,2025-02-02,23.47426,121.41071,0.04680742
C0R700,枋山,2025-02-02,22.246844,120.661086,0.17858687
C0C460,復興,2025-02-02,24.820208,121.352281,0.20091479
E2H360,蓮華池,2025-02-02,23.918333,120.885278,0.016396573
C0M640,中埔,2025-02-02,23.42538,120.5229,0.020178521
C0W140,金沙,2025-02-02,24.488292,118.408778,0.85359204
C2A540,四堵,2025-02-02,24.8926,121.745736,0.14555253
C0ACA0,新莊,2025-02-02,25.051478,121.446756,0.0841638
C0R220,潮州,2025-02-02,22.534361,120.54,0.0057607247
U2HA40,臺大內茅埔,2025-02-02,23.689722,120.851117,0.060716458
467490,臺中,2025-02-02,24.145736,120.684075,0.014058596
C0U960,翠峰湖,2025-02-02,24.510856,121.608044,0.16855982
E2HA20,林試畢祿溪站,2025-02-02,24.226944,121.308522,0.037405185
C0V890,前鎮,2025-02-02,22.5718,120.3117,0.94475037
467620,蘭嶼,2025-02-02,22.036969,121.558339,0.99833316
C1F941,雪嶺,2025-02-02,24.280586,121.026642,0.043409973
C2H9E0,國姓南港,2025-02-02,23.911108,120.846556,0.013986209
C0AC80,文山,2025-02-02,25.00235,121.575728,0.20794448
C0F9R0,龍井,2025-02-02,24.184536,120.528972,0.016984848
C0M760,民雄,2025-02-02,23.551754,120.428457,0.013718241
C0UA40,西德山,2025-02-02,24.560647,121.752608,0.10860363
C1T920,中興,2025-02-02,23.769503,121.498653,0.054850183
C0D550,雪霸,2025-02-02,24.526972,121.11605,0.036814127
C2F860,梨山,2025-02-02,24.247522,121.243669,0.037782002
C0R320,車城,2025-02-02,22.0744,120.716247,0.22329463
C1S870,南美山,2025-02-02,23.15025,121.382333,0.05157442
C0B020,基隆嶼,2025-02-02,25.19141,121.78391,0.99158156
C1U501,牛鬥,2025-02-02,24.637836,121.573656,0.051374227
C0M730,嘉義市東區,2025-02-02,23.457673,120.460531,0.021423992
C0S700,知本,2025-02-02,22.684866,121.005642,0.5063247
C1N001,沙崙,2025-02-02,22.935472,120.309406,0.017882397
C0V760,橋頭,2025-02-02,22.757806,120.30575,0.03260854
C0G960,福寶,2025-02-02,24.0443,120.3814,0.018935215
C0X210,白河,2025-02-02,23.347466,120.414427,0.025876427
C0S810,東河,2025-02-02,22.972672,121.303986,0.0017180953
C2R170,屏東,2025-02-02,22.66027,120.49403,0.014299686
C0R670,楓港,2025-02-02,22.190131,120.692156,0.07900479
C0FA50,霧峰,2025-02-02,24.0419,120.6995,0.014329492
C0UB10,蘇澳,2025-02-02,24.5969,121.8571,0.059881423
C0G950,防潮門,2025-02-02,24.1835,120.4871,0.016997982
C0M740,六腳,2025-02-02,23.492871,120.290625,0.01199811
C1R250,力里,2025-02-02,22.428117,120.629228,0.11569778
C0K330,虎尾,2025-02-02,23.719183,120.442036,0.012544194
C2FA00,烏石坑,2025-02-02,24.273503,120.947617,0.024872
C0V620,永安,2025-02-02,22.82315,120.236856,0.009006186
C1I330,楓樹林,2025-02-02,23.986803,121.076117,0.011352972
C0W200,湖西,2025-02-02,23.596314,119.67275,0.9491991
72Q010,高雄農改場,2025-02-02,22.709333,120.525889,0.007014944
C0SA40,瑞和,2025-02-02,22.974361,121.156697,0.027871573
C0C680,龜山,2025-02-02,25.02846,121.38656,0.09617348
C2V260,月眉,2025-02-02,22.971003,120.539853,0.006073986
C0V450,鳳森,2025-02-02,22.545064,120.392592,0.007548181
C0U720,南山,2025-02-02,24.43742,121.38167,0.18261951
A2N290,臺南蘭花園區,2025-02-02,23.340258,120.379661,0.018111605
C0R560,新園,2025-02-02,22.5434,120.461558,0.010864528
C0U890,三星,2025-02-02,24.66812,121.65302,0.051347703
C1V300,御油山,2025-02-02,23.001983,120.715364,0.025443455
C0U600,礁溪,2025-02-02,24.817539,121.765608,0.09577319
C1T980,龍澗,2025-02-02,24.023289,121.411328,0.42471746
C0D670,海天一線,2025-02-02,24.831986,120.914438,0.97808146
C0SA00,歷坵,2025-02-02,22.520969,120.89185,0.59052986
C0M710,東石,2025-02-02,23.458927,120.15385,0.013209383
C0M780,鹿草,2025-02-02,23.41134,120.30835,0.012526558
C0U520,雙連埤,2025-02-02,24.753033,121.641303,0.07667263
C0B010,七堵,2025-02-02,25.094819,121.71713,0.12653756
C0R480,長治,2025-02-02,22.693128,120.542622,0.0074394206
C1V830,國三S383K,2025-02-02,22.781967,120.426475,0.0106458645
12Q980,恆春工作站,2025-02-02,22.079678,120.714425,0.22329463
C1O940,東山服務區,2025-02-02,23.286016,120.398472,0.024647774
C1U840,東澳嶺,2025-02-02,24.5378,121.8485,0.057126436
C1D630,飛鳳山,2025-02-02,24.766464,121.119178,0.059657626
C0S940,石寧山,2025-02-02,23.223772,121.406639,0.18012959
C0K410,北港,2025-02-02,23.573957,120.292802,0.016991736
C2M620,瑞里,2025-02-02,23.545133,120.675197,0.044680037
C0SB70,小港漁港,2025-02-02,23.158558,121.400431,0.046557177
C2O950,安南,2025-02-02,23.076694,120.144861,0.011192508
C0F0E0,南湖圈谷,2025-02-02,24.363714,121.444667,0.049715567
467610,成功,2025-02-02,23.097486,121.373428,0.021363704
C0G890,伸港,2025-02-02,24.148933,120.484403,0.017926635
C2E540,龍溪,2025-02-02,24.606489,120.783933,0.03177556
C1V200,梅山,2025-02-02,23.268447,120.823556,0.015147173
C0T9H0,加路蘭山,2025-02-02,23.682947,121.5274,0.088027716
C2O930,玉井,2025-02-02,23.126042,120.46055,0.018512025
C1F911,新伯公,2025-02-02,24.221361,120.841069,0.0124481525
C0R490,九如,2025-02-02,22.7405,120.490503,0.006980176
C0X200,左鎮,2025-02-02,23.056758,120.408522,0.016174437
C0SB50,叭嗡嗡,2025-02-02,23.047062,121.343223,0.026199063
C1F891,稍來,2025-02-02,24.265689,121.001142,0.03064243
72N240,七股研究中心,2025-02-02,23.081672,120.062894,0.011153771
C0C700,中壢,2025-02-02,24.977661,121.256375,0.1205034
C0M690,水上,2025-02-02,23.419734,120.388909,0.016634125
C0V690,鼓山,2025-02-02,22.623325,120.275575,0.9326505
C0O860,大內,2025-02-02,23.11885,120.36083,0.02578193
C0Z200,萬榮,2025-02-02,23.709219,121.420106,0.05786243
C0T9D0,和中,2025-02-02,24.26676,121.74103,0.023374846
C1O921,楠西,2025-02-02,23.183511,120.484083,0.017682498
C0AJ30,淡水觀海,2025-02-02,25.184591,121.408616,0.25310227
C0V810,左營,2025-02-02,22.67491,120.28491,0.85678566
C0UA70,桃源谷,2025-02-02,24.962606,121.888875,0.1428058
C0X130,官田,2025-02-02,23.193217,120.315422,0.023568846
C1H000,翠峰,2025-02-02,24.109397,121.205211,0.01728969
C0UA90,石城,2025-02-02,24.980444,121.951214,0.14969249
C1E681,南勢山,2025-02-02,24.421669,120.923831,0.021834694
C0A9F0,內湖,2025-02-02,25.079422,121.57545,0.10555574
C0K291,宜梧,2025-02-02,23.536281,120.169329,0.014414572
C1K540,口湖,2025-02-02,23.585344,120.180517,0.066091135
C0R780,滿州,2025-02-02,22.024403,120.839892,0.6733258
C0V870,文安,2025-02-02,22.8025,120.2164,0.010120781
C0U650,玉蘭,2025-02-02,24.675286,121.587061,0.06661214
C0R640,東港,2025-02-02,22.46247,120.44074,0.047670674
K2E360,苗栗農改,2025-02-02,24.495722,120.829111,0.03649541
C0AJ80,板橋,2025-02-02,25.0107,121.4489,0.22389156
C0S660,下馬,2025-02-02,23.150427,121.070312,0.37173727
C1H9B1,阿眉,2025-02-02,24.1263,120.994672,0.0356938
C0UA20,多加屯,2025-02-02,24.368614,121.373189,0.02393107
C0E730,頭份,2025-02-02,24.688247,120.912206,0.0651318
72V140,高改旗南分場,2025-02-02,22.857861,120.516667,0.0068196934
C0K480,莿桐,2025-02-02,23.761192,120.502372,0.014058398
C0U980,坪林石牌,2025-02-02,24.86478,121.77396,0.096774414
C0T900,西林,2025-02-02,23.8119,121.441458,0.05233556
C1I150,青雲,2025-02-02,23.793361,120.949378,0.021916064
467350,澎湖,2025-02-02,23.565503,119.563094,0.95083314
C0G800,埔鹽,2025-02-02,24.000394,120.431683,0.025950259
C0H960,草屯,2025-02-02,23.973672,120.68085,0.014259309
C1V780,多納林道,2025-02-02,22.888028,120.737917,0.017924333
C0E920,通霄漁港,2025-02-02,24.498589,120.673876,0.8122876
C0Z330,安通山,2025-02-02,23.290728,121.348528,0.13558538
C0AH10,永和,2025-02-02,25.01125,121.508111,0.22402224
C0AK10,太平里,2025-02-02,25.134937,121.364899,0.36053184
C2G640,鹿港,2025-02-02,24.0753,120.430481,0.018921737
C1E890,國三N149K,2025-02-02,24.463414,120.680019,0.105328575
C1R110,口社,2025-02-02,22.770111,120.645222,0.0016118293
C1M870,國三N285K,2025-02-02,23.550319,120.505833,0.014208973
467050,新屋,2025-02-02,25.006744,121.047486,0.50596684
C1E480,鳳美,2025-02-02,24.554803,121.034747,0.042831
C0M530,奮起湖,2025-02-02,23.493903,120.699253,0.045724954
C0C590,觀音,2025-02-02,25.027072,121.153317,0.6079836
C0T9M0,靜浦,2025-02-02,23.455167,121.495028,0.043929476
C2H9M0,發祥,2025-02-02,24.154094,121.164517,0.032326978
C0AI40,石牌,2025-02-02,25.115597,121.513139,0.12658268
C1F871,上谷關,2025-02-02,24.203483,121.018644,0.025185477
C2H9G0,百勝,2025-02-02,24.051142,120.909361,0.010941476
C0G880,二水,2025-02-02,23.810742,120.6173,0.012263557
C0R940,加祿堂,2025-02-02,22.3363,120.6217,0.09515692
C0W220,北竿,2025-02-02,26.220358,119.974881,0.580974
C0O960,崎頂,2025-02-02,22.959547,120.369317,0.016297853
C0S750,向陽,2025-02-02,23.248397,120.986133,0.021570353
C0T9F0,水璉,2025-02-02,23.797131,121.542514,0.05253607
C1M600,頭凍,2025-02-02,23.406364,120.603339,0.024836116
467660,臺東,2025-02-02,22.752211,121.154586,0.0147581985
C1D380,新埔,2025-02-02,24.84745,121.03834,0.13119076
C2G980,田頭村,2025-02-02,23.8263,120.444175,0.013210247
C0V750,路竹,2025-02-02,22.854997,120.259439,0.009928101
C0N050,蚵寮,2025-02-02,23.301,120.1104,0.010935409
72M700,南改鹿草分場,2025-02-02,23.416869,120.283061,0.012711052
C1SA50,利嘉林道,2025-02-02,22.82325,121.009389,0.27724248
467550,玉山,2025-02-02,23.487614,120.959522,0.033652063
C0A940,金山,2025-02-02,25.223628,121.643967,0.19751464
C1V340,大津,2025-02-02,22.888322,120.645986,0.0017419312
C0W180,七美,2025-02-02,23.219333,119.444892,0.9633476
C1F9C1,白冷,2025-02-02,24.182844,120.929889,0.014592778
K2E710,苗改生物防治研究中心,2025-02-02,24.422861,120.871833,0.0212755
C0N040,蘆竹溝,2025-02-02,23.2344,120.0961,0.011262797
C2W230,畜試所澎湖,2025-02-02,23.628342,119.513206,0.9657993
C0R880,後壁湖,2025-02-02,21.9457,120.7457,0.9854723
C1I280,埔中,2025-02-02,23.820778,120.642594,0.012061614
467790,墾丁雷達站,2025-02-02,21.948235,120.808028,0.9614017
C0W190,望安,2025-02-02,23.380564,119.494075,0.95972484
466881,新北,2025-02-02,24.9593,121.52,0.21892941
C0Z170,卓溪,2025-02-02,23.3443,121.3029,0.09795277
C0F850,東勢,2025-02-02,24.246428,120.833047,0.023809293
466900,淡水,2025-02-02,25.164889,121.448906,0.36053184
C0I370,魚池,2025-02-02,23.895703,120.94135,0.02359957
C0C630,大溪,2025-02-02,24.882853,121.265547,0.13483876
C0A520,山佳,2025-02-02,24.974944,121.402008,0.06958562
C0I110,竹山,2025-02-02,23.761225,120.688156,0.012865595
82H840,茶改南部分場,2025-02-02,23.762528,120.7405,0.011715039
C0G660,溪湖,2025-02-02,23.94835,120.479122,0.013106984
C1T800,洛韶,2025-02-02,24.204558,121.453956,0.4813345
C1T810,慈恩,2025-02-02,24.192044,121.388386,0.014542841
C1E451,象鼻,2025-02-02,24.368617,120.940228,0.018319732
C0AC60,三峽,2025-02-02,24.939025,121.369728,0.14626878
C0I490,萬大林道,2025-02-02,23.928228,121.091411,0.016979937
C1I290,豐丘,2025-02-02,23.668178,120.887417,0.056949567
C1I320,奧萬大,2025-02-02,23.952956,121.178556,0.013704795
C2M910,嘉義大學,2025-02-02,23.471325,120.485903,0.021090146
C0U770,南澳,2025-02-02,24.44935,121.81022,0.06195655
C0A980,社子,2025-02-02,25.109508,121.469681,0.38304076
C0V800,六龜,2025-02-02,22.997889,120.633583,0.009035966
C1G9D0,國一S218K,2025-02-02,23.890641,120.493253,0.012924396
C0E570,白沙屯,2025-02-02,24.549447,120.696803,0.1696537
C2F9A0,中竹林,2025-02-02,24.103556,120.751061,0.016423378
C0FA40,臺中電廠,2025-02-02,24.2146,120.4907,0.016984858
C2G9A0,畜試所彰化,2025-02-02,23.86045,120.557964,0.012566474
C0H9C0,合歡山,2025-02-02,24.143442,121.272547,0.026363559
C0X060,下營,2025-02-02,23.22695,120.256261,0.024855956
G2M350,農試溪口農場,2025-02-02,23.58565,120.408111,0.013569583
C0U860,頭城,2025-02-02,24.85323,121.8308,0.093572855
C0R580,南州,2025-02-02,22.48591,120.50274,0.047670674
C0D430,峨眉,2025-02-02,24.6905,121.017189,0.029635336
C0G780,秀水,2025-02-02,24.03405,120.503869,0.013318097
72N100,臺南農改場,2025-02-02,23.0605,120.342194,0.026377998
C0S900,蘭嶼高中,2025-02-02,22.04909,121.51214,0.99541295
467540,大武,2025-02-02,22.355675,120.903789,0.48265728
C1F9W0,德基,2025-02-02,24.254783,121.190261,0.029309165
C1Z120,壽豐,2025-02-02,23.870853,121.508081,0.17510386
C0W160,烏坵,2025-02-02,24.9944,119.44956,0.91099244
C1I240,外大坪,2025-02-02,23.958697,120.917931,0.009443063
C1I550,國六W023K,2025-02-02,23.979067,120.867742,0.015299773
C0R870,興海,2025-02-02,21.9752,120.8439,0.9665951
C0R140,瑪家,2025-02-02,22.682903,120.686639,0.010877346
C0A530,坪林,2025-02-02,24.938183,121.70975,0.15075754
C0X260,後壁,2025-02-02,23.366358,120.362326,0.018115541
C0Z230,和平,2025-02-02,24.30717,121.77007,0.023111043
C0G770,福興,2025-02-02,24.041289,120.437669,0.025950259
C0H9A0,神木村,2025-02-02,23.532742,120.843667,0.03026518
C0I460,南投,2025-02-02,23.911469,120.687331,0.013249278
C0I480,梅峰,2025-02-02,24.085272,121.173572,0.016056359
C1V570,吉東,2025-02-02,22.85422,120.5454,0.006918153
C2D740,屯原,2025-02-02,24.067969,121.209389,0.015415112
C2A560,福山,2025-02-02,24.776203,121.502811,0.21573894
C0AH30,五分山,2025-02-02,25.07125,121.780794,0.07977901
C0FA10,松柏,2025-02-02,24.429115,120.617482,0.10575165
72S200,東改班鳩分場,2025-02-02,22.829528,121.077694,0.026507875
72HA00,中改埔里分場,2025-02-02,23.903208,120.963364,0.016392441
C2H9W0,大坪頂農水,2025-02-02,24.043122,120.932781,0.011195136
C0C650,平鎮,2025-02-02,24.897503,121.214636,0.12863056
C0S930,延平,2025-02-02,22.902581,121.084058,0.025009856
C0UA60,樟樹山,2025-02-02,24.41393,121.78325,0.33147585
C1S670,摩天,2025-02-02,23.199503,121.027,0.44694486
C0V630,茄萣,2025-02-02,22.906642,120.182608,0.009763086
466940,基隆,2025-02-02,25.133314,121.740475,0.12666628
C0X050,東河,2025-02-02,23.296598,120.385608,0.02476647
C0R770,保力,2025-02-02,22.071122,120.764111,0.890024
G2L020,農試嘉義分所,2025-02-02,23.485028,120.473806,0.016287558
C0X240,關子嶺,2025-02-02,23.331169,120.508025,0.026504686
C0I380,集集,2025-02-02,23.828206,120.801467,0.010492046
466990,花蓮,2025-02-02,23.975128,121.613275,0.7004663
C1V220,小關山,2025-02-02,23.154217,120.813603,0.02133364
C1F9G1,慶福山,2025-02-02,24.180853,120.848378,0.017218538
C0Z250,瑞穗林道,2025-02-02,23.49284,121.30688,0.53131527
C0D590,新豐,2025-02-02,24.87068,120.97721,0.9532319
C0A870,五指山,2025-02-02,25.132153,121.608692,0.06826878
C0UA50,西帽山,2025-02-02,24.555361,121.802628,0.11041003
C0X160,仁德,2025-02-02,22.968258,120.257689,0.008651413
C1H971,六分寮,2025-02-02,23.92507,120.6378,0.0151678575
C0W120,西嶼,2025-02-02,23.5626,119.468436,0.9693399
C0G650,員林,2025-02-02,23.946503,120.585597,0.012580174
C0AD50,鶯歌,2025-02-02,24.951533,121.346294,0.14217316
C2H9Q0,北東眼山,2025-02-02,24.120939,121.189303,0.031813838
C2H9T0,名間竹圍,2025-02-02,23.859914,120.637572,0.016853737
C0S990,山豬窟,2025-02-02,22.318619,120.857372,0.18019223
72Q010,高雄農改,2025-02-02,22.709333,120.525889,0.007014944
C0X190,安平,2025-02-02,22.993161,120.152181,0.013232905
C0K400,斗六,2025-02-02,23.720583,120.541127,0.015248771
12J990,口湖工作站,2025-02-02,23.589978,120.180394,0.06607617
C0O830,北寮,2025-02-02,23.079561,120.495008,0.012701606
C1D410,白蘭,2025-02-02,24.579364,121.079947,0.030441012
C0S970,加津林,2025-02-02,22.416211,120.926942,0.47949794
C0D700,關西,2025-02-02,24.7977,121.1732,0.031820126
C0M810,里佳,2025-02-02,23.389125,120.716647,0.02921489
C0U750,龜山島,2025-02-02,24.841667,121.953133,0.93949604
C0R810,內獅,2025-02-02,22.305064,120.642986,0.09091145
C1M390,龍美,2025-02-02,23.406728,120.654417,0.027274162
C2FB60,頭櫃山,2025-02-02,24.129842,120.858925,0.018427456
C1H840,國三N238K,2025-02-02,23.841008,120.707711,0.016735693
CAQ030,崎峰國小,2025-02-02,22.42565,120.49521,0.047670674
C2E520,大湖,2025-02-02,24.414939,120.870872,0.02166002
467530,阿里山,2025-02-02,23.508208,120.813242,0.040770385
C1E691,南湖,2025-02-02,24.40135,120.837533,0.020519536
C0FA30,梧棲,2025-02-02,24.256003,120.523381,0.03366389
C1V231,高中,2025-02-02,23.134911,120.716711,0.013889213
C0F9V0,新社,2025-02-02,24.200172,120.815806,0.013438784
C0H890,埔里,2025-02-02,23.972169,120.952425,0.015253376
C0R690,墾丁,2025-02-02,21.966756,120.810269,0.8790344
C0F0D0,審馬陣,2025-02-02,24.381675,121.4203,0.027089154
C0R820,白鷺,2025-02-02,22.454275,120.666219,0.028768914
U2H480,臺大溪頭,2025-02-02,23.670306,120.798194,0.057824053
C1V190,南天池,2025-02-02,23.27403,120.91176,0.02016128
K2E360,苗栗農改場,2025-02-02,24.495722,120.829111,0.03649541
CAJ050,海口故事園區,2025-02-02,23.57543,120.14121,0.066091135
C2H9D0,三隻寮,2025-02-02,24.093078,120.861578,0.011128434
C0O990,媽廟,2025-02-02,22.99175,120.293525,0.023055594
C0D480,打鐵坑,2025-02-02,24.849664,121.150789,0.1322055
C0Z220,和平林道,2025-02-02,24.343922,121.656317,0.06072565
C0TA10,花蓮漁港,2025-02-02,23.995322,121.638331,0.7103616
72C440,桃園農改場,2025-02-02,24.950944,121.030583,0.37247342
C1E711,馬拉邦山,2025-02-02,24.367306,120.901656,0.018689351
C0SB20,富岡,2025-02-02,22.792467,121.192669,0.02188784
C0D560,竹東,2025-02-02,24.767147,121.057881,0.032324817
C0F9U0,南屯,2025-02-02,24.137006,120.637969,0.012768314
C0M720,番路,2025-02-02,23.464657,120.554156,0.020528173
C0F0A0,雪山圈谷,2025-02-02,24.388594,121.236339,0.030877547
C1A9N0,四十份,2025-02-02,24.934158,121.593283,0.17895389
C0U760,東澳,2025-02-02,24.52196,121.83318,0.05425853
C0X230,鹽水,2025-02-02,23.272621,120.247641,0.01098096
C2H9H0,苗改南投蜂場,2025-02-02,23.852589,120.693481,0.017148372
C0R950,萬隆國小,2025-02-02,22.507667,120.587817,0.0050998353
C0V370,古亭坑,2025-02-02,22.893178,120.401947,0.015423532
C1I340,新興橋,2025-02-02,23.563333,120.868728,0.09827661
C0SA80,土坂,2025-02-02,22.453108,120.887572,0.72940326
C0R160,鹽埔,2025-02-02,22.739558,120.530778,0.007014944
C0AC40,大屯山,2025-02-02,25.175675,121.522408,0.10765129
466850,五分山雷達站,2025-02-02,25.071182,121.781205,0.0805797
C2H9L0,馬烈霸,2025-02-02,24.1512,121.201772,0.031639025
C1AI50,國三N016K,2025-02-02,25.034164,121.619664,0.09474699
C1V600,藤枝,2025-02-02,23.071961,120.757042,0.020984786
C1E601,南勢,2025-02-02,24.572486,120.734842,0.1615328
C0Z180,新城,2025-02-02,24.03946,121.60454,0.6965871
C0O980,新市,2025-02-02,23.061614,120.298197,0.026878746
C0K420,西螺,2025-02-02,23.800407,120.467394,0.013304758
C0Z050,佳心,2025-02-02,23.34567,121.21316,0.33090395
C0AD30,蘆洲,2025-02-02,25.086594,121.472331,0.10701364
C0V610,梓官,2025-02-02,22.760558,120.267211,0.03260854
K2F750,種苗改良場,2025-02-02,24.225972,120.800917,0.0126667805
C0UA80,大溪漁港,2025-02-02,24.941801,121.902955,0.20015933
C1AI60,國一39K邊坡,2025-02-02,25.064361,121.383836,0.10016601
C0W150,金寧,2025-02-02,24.457703,118.328989,0.33656636
C0R960,內埔,2025-02-02,22.608483,120.570714,0.0027132032
V2C250,八德合作社,2025-02-02,24.93775,121.266389,0.1334948
C2H9S0,龍南,2025-02-02,23.953536,120.833183,0.019251533
C0AH40,平等,2025-02-02,25.129142,121.577086,0.077527545
C0R540,佳冬,2025-02-02,22.419456,120.552375,0.012351547
466950,彭佳嶼,2025-02-02,25.627975,122.079744,0.99724823
C0A890,雙溪,2025-02-02,25.036003,121.864242,0.11091316
C0C480,桃園,2025-02-02,24.992425,121.323172,0.123049244
C0AH50,林口,2025-02-02,25.072181,121.38084,0.09574281
A2K360,水試臺西試驗場,2025-02-02,23.717231,120.190522,0.07004405
B2N890,畜試所,2025-02-02,23.058972,120.336406,0.026377998
C2M960,外寮,2025-02-02,23.562643,120.665688,0.09477777
C0F9S0,烏日,2025-02-02,24.107058,120.624103,0.015928553
C0C490,八德,2025-02-02,24.928708,121.283289,0.1335188
C0R190,赤山,2025-02-02,22.592333,120.614306,0.0026905304
C0T820,天祥,2025-02-02,24.179597,121.495639,0.7701319
C1F9E1,龍安,2025-02-02,24.1605,120.831961,0.013761004
C0V820,小林,2025-02-02,23.148408,120.63325,0.016202902
C2G870,芳苑,2025-02-02,23.922303,120.320025,0.7928363
C0E850,大河,2025-02-02,24.618069,120.948578,0.033923566
C1U670,寒溪,2025-02-02,24.634,121.71691,0.029881343
C0N020,城西,2025-02-02,23.0568,120.0956,0.013232899
C1Z110,三棧,2025-02-02,24.11557,121.60501,0.7055578
C0R280,檳榔,2025-02-02,22.076078,120.836777,0.40858382
C2H9J0,中台,2025-02-02,23.9996,120.938739,0.01106989
C0F9L0,后里,2025-02-02,24.310436,120.729725,0.01971393
C0D540,橫山,2025-02-02,24.71116,121.11693,0.030136345
C1D420,太閣南,2025-02-02,24.632808,121.160575,0.07223134
C1E770,公館,2025-02-02,24.526914,120.830806,0.036430378
CAN130,水試所海水繁養殖中心,2025-02-02,23.120802,120.07968,0.011153771
C1I430,翠華,2025-02-02,24.191961,121.224339,0.020375045
C1M400,菜瓜坪,2025-02-02,23.251928,120.576103,0.017049735
C0G730,二林,2025-02-02,23.903325,120.376081,0.035364307
72M360,南改義竹分場,2025-02-02,23.360694,120.279361,0.011773276
V2K620,麥寮合作社,2025-02-02,23.753836,120.294783,0.018866315
C0Z070,舞鶴,2025-02-02,23.46811,121.37407,0.045615703
C0B040,大武崙,2025-02-02,25.166676,121.706993,0.124011174
C1Z030,紅葉,2025-02-02,23.493119,121.338806,0.03432851
C1I050,丹大,2025-02-02,23.753747,121.141147,0.018863322
C0I080,信義,2025-02-02,23.689694,120.851036,0.060716458
C2M920,朴子農改,2025-02-02,23.469889,120.259383,0.012717823
C2A880,福隆,2025-02-02,25.017842,121.942083,0.15206103
C0Z160,鳳林,2025-02-02,23.746114,121.453411,0.057201248
C0V210,復興,2025-02-02,23.222403,120.806089,0.013813612
C0H990,昆陽,2025-02-02,24.121322,121.273642,0.020688662
C0R741,獅子,2025-02-02,22.202308,120.705236,0.28977153
C0S710,鹿野,2025-02-02,22.917711,121.122994,0.032313243
C0I530,小奇萊,2025-02-02,24.131764,121.295717,0.021100821
C2K630,荷苞,2025-02-02,23.657717,120.595144,0.016493289
C0Z080,富源,2025-02-02,23.587642,121.378225,0.2591459
467441,高雄,2025-02-02,22.7304,120.3125,0.030474167
C0SB10,美和,2025-02-02,22.682078,121.060236,0.75548935
C2K620,馬光農場,2025-02-02,23.721453,120.378864,0.012510495
C1I140,卡奈托灣,2025-02-02,23.754364,121.087872,0.015067766
C0I520,玉山風口,2025-02-02,23.470489,120.955994,0.044892065
C1G691,下水埔,2025-02-02,23.816114,120.5676,0.014000367
C0X110,臺南市南區,2025-02-02,22.961189,120.188378,0.008684015
C0V680,仁武,2025-02-02,22.701083,120.347722,0.85785747
C2G840,北斗,2025-02-02,23.877586,120.514222,0.013090409
C0R900,竹坑,2025-02-02,22.1385,120.7022,0.21510173
C0K250,崙背,2025-02-02,23.75555,120.318925,0.018866315
C0G860,社頭,2025-02-02,23.897647,120.5862,0.012619079
C0X150,安定,2025-02-02,23.102614,120.227839,0.024241108
C0R590,里港,2025-02-02,22.77919,120.49459,0.011193847
C0E610,馬都安,2025-02-02,24.451272,120.930192,0.021095306
C0E550,明德,2025-02-02,24.583486,120.885411,0.034609877
C0R150,三地門,2025-02-02,22.709889,120.639944,0.0016399863
C0G910,花壇,2025-02-02,24.032076,120.549461,0.013301414
C1D400,鳥嘴山,2025-02-02,24.71909,121.28387,0.08455083
C0K500,元長,2025-02-02,23.64981,120.315024,0.018860156
C0F0B0,石岡,2025-02-02,24.276061,120.777644,0.019854506
C2V250,甲仙,2025-02-02,23.080106,120.591758,0.012221061
C0SA20,金崙山,2025-02-02,22.567419,120.959667,0.46589056
C0V350,溪埔,2025-02-02,22.738578,120.446797,0.0063885
C0M660,溪口,2025-02-02,23.604131,120.403569,0.013569583
C1S880,壽卡,2025-02-02,22.238911,120.858903,0.13129175
72D680,桃改新埔分場,2025-02-02,24.834444,121.066111,0.12987389
