站號,站名,日期,lat,lon,BLBTSLS
C0R710,龍磐,2025-11-22,21.931672,120.838942,0.970402
C1F9D1,白毛台,2025-11-22,24.158325,120.886933,3.664004e-09
C0G940,竹塘,2025-11-22,23.848253,120.386764,0.54180235
467590,恆春,2025-11-22,22.003897,120.746339,0.8147974
C1O850,環湖,2025-11-22,23.148617,120.418633,0.03186339
C0U710,太平山,2025-11-22,24.505486,121.525656,1.9170857e-08
C0E820,獅潭,2025-11-22,24.539133,120.920042,4.7228295e-05
C2SD70,二層坪,2025-11-22,22.94105,121.16838,1.1090633e-07
C0V880,興達,2025-11-22,22.8778,120.2127,0.016483288
C0S890,關山,2025-11-22,23.0395,121.175017,2.5389275e-07
C0SB30,新蘭,2025-11-22,22.869214,121.223228,2.981767e-05
C2R970,屏科大,2025-11-22,22.648275,120.619247,0.47763366
C1Z130,銅門,2025-11-22,23.965694,121.492842,2.4598771e-06
C0AD40,土城,2025-11-22,24.973208,121.445169,0.9996244
CAN140,六官養殖協會,2025-11-22,23.22881,120.29962,0.015663471
C0X180,山上,2025-11-22,23.0757,120.363253,0.0030699186
C0F9Z0,雪山東峰,2025-11-22,24.388792,121.268675,1.1189089e-08
C1M480,獨立山,2025-11-22,23.537022,120.607797,8.705777e-10
C0X220,學甲,2025-11-22,23.230367,120.182187,0.02339695
467650,日月潭,2025-11-22,23.881325,120.90805,2.291699e-09
C0K600,箔子寮,2025-11-22,23.6197,120.14,0.62699044
C0G830,埤頭,2025-11-22,23.866003,120.452806,2.1764316e-05
C0S950,七塊厝,2025-11-22,22.954453,121.229922,8.2414e-09
467110,金門,2025-11-22,24.407306,118.289281,0.89951473
C0AH80,深坑,2025-11-22,25.002703,121.628328,0.99971575
C0A970,三貂角,2025-11-22,25.007606,122.002058,0.3844628
C2D730,寶山農場,2025-11-22,24.732444,120.976153,0.8445036
C0K430,褒忠,2025-11-22,23.690938,120.303634,0.043450896
467480,嘉義,2025-11-22,23.495925,120.432906,0.0010503733
C0V400,阿公店,2025-11-22,22.804194,120.355528,0.00036353894
C0E960,觀霧分站,2025-11-22,24.505781,121.113921,6.6088885e-09
467550,玉山,2025-11-22,23.48718,120.95943,1.1708007e-08
C0R440,大漢山,2025-11-22,22.405264,120.753181,4.4524974e-08
C0SD30,東清國小,2025-11-22,22.057128,121.564922,0.9543123
C0K280,四湖,2025-11-22,23.630414,120.227125,0.9267741
C1F9B1,桐林,2025-11-22,24.066172,120.735194,1.6131164e-05
C2H9U0,鳳鵬,2025-11-22,23.763919,120.788061,1.3125326e-09
C0K390,土庫,2025-11-22,23.679029,120.395574,0.00010922513
C1I450,望鄉山,2025-11-22,23.594153,120.944286,4.6140296e-09
C0E910,海埔,2025-11-22,24.648767,120.772435,0.008702424
B2E890,畜試北區分所,2025-11-22,24.527806,120.770972,0.03909852
C0R750,四林格山,2025-11-22,22.076989,120.802439,0.99979204
C0F0C0,中坑,2025-11-22,24.248517,120.903319,3.3395005e-09
C1I121,大鞍,2025-11-22,23.678381,120.760017,2.3998803e-09
C2G9E0,移民庄,2025-11-22,23.9784,120.40283,0.93834716
72U480,花改蘭陽分場,2025-11-22,24.686306,121.716583,0.004896548
C0A770,科教館,2025-11-22,25.096356,121.516507,0.99907875
C0AJ60,六塊厝,2025-11-22,25.24,121.4481,0.99826187
C0R620,墾雷,2025-11-22,21.900836,120.855269,0.9591002
467420,永康,2025-11-22,23.038386,120.2367,0.0017305344
C2M530,奮起湖,2025-11-22,23.493903,120.699253,1.79704e-09
C0I410,名間,2025-11-22,23.837053,120.701447,1.65043e-05
A2C560,農工中心,2025-11-22,24.985917,121.239833,0.99946445
C0V740,旗山,2025-11-22,22.888614,120.483597,0.0026960366
C0Z061,玉里,2025-11-22,23.3215,121.339656,2.4625247e-06
C0S840,南田,2025-11-22,22.279725,120.889208,0.20410083
C1I470,杉林溪,2025-11-22,23.639517,120.786444,2.677122e-09
C1X040,東原,2025-11-22,23.291597,120.463822,1.7480722e-06
C0R660,枋寮,2025-11-22,22.367722,120.590647,0.06471844
C1R120,上德文,2025-11-22,22.763272,120.704442,2.0870974e-09
C0K450,大埤,2025-11-22,23.646074,120.431537,0.00016490891
C0UA00,土場,2025-11-22,24.576533,121.495333,0.011438546
467080,宜蘭,2025-11-22,24.763975,121.756528,2.3928278e-05
C0N030,四草,2025-11-22,23.0235,120.1116,0.0014421669
467410,臺南,2025-11-22,22.99328,120.20492,0.00065094867
C0V650,彌陀,2025-11-22,22.783806,120.246361,0.01043197
C0D660,新竹市東區,2025-11-22,24.798681,120.986942,0.5345608
82S580,茶改東部分場,2025-11-22,22.907694,121.130139,2.568001e-07
C0SB40,興隆,2025-11-22,22.913661,121.257469,1.608867e-05
467050,新屋,2025-11-22,25.006725,121.047492,0.20955469
C0C710,大溪永福,2025-11-22,24.892936,121.324975,0.99973166
C0FA20,溫寮,2025-11-22,24.372177,120.583125,0.057360288
C0V640,湖內,2025-11-22,22.887139,120.2445,0.012614207
C0R910,下寮,2025-11-22,22.3929,120.5548,0.06471844
C0Z020,明里,2025-11-22,23.208717,121.262342,8.10081e-06
C0M770,嘉義梅山,2025-11-22,23.585398,120.555587,0.0005630702
C0C660,楊梅,2025-11-22,24.912375,121.143047,0.9995345
C0SD40,牛頭山,2025-11-22,22.676661,121.506944,0.9503652
C1E511,新開,2025-11-22,24.347703,120.827019,1.1565073e-08
G2F820,農試所(霧峰),2025-11-22,24.031261,120.688133,0.0001666596
C2M990,大巃頂,2025-11-22,23.5547,120.61439,2.0146518e-09
C1I070,和社,2025-11-22,23.591131,120.888861,5.7651807e-08
C2E990,新坪頂,2025-11-22,24.30201,120.8574,3.227766e-09
C0TA80,立霧山,2025-11-22,24.183258,121.641899,2.247259e-08
C2F000,大肚,2025-11-22,24.15295,120.572117,6.0436435e-08
C1S850,豐南,2025-11-22,23.122139,121.262389,2.2821256e-08
C2M9B0,西興,2025-11-22,23.2428,120.57617,3.061063e-09
C2A920,富貴角,2025-11-22,25.263783,121.565258,0.9998631
CAH030,茶改場竹圍站,2025-11-22,23.860083,120.637528,1.6498273e-09
C0T960,光復,2025-11-22,23.660694,121.424964,9.200457e-08
C0F9M0,豐原,2025-11-22,24.254322,120.720692,3.5184755e-08
C0R720,旭海,2025-11-22,22.205403,120.887614,0.94623286
C0V710,苓雅,2025-11-22,22.622742,120.330669,0.007514926
C0C740,觀音工業區,2025-11-22,25.064764,121.114856,0.34001392
CAC040,拉拉山,2025-11-22,24.699317,121.427133,1.01945886e-07
C0V790,萬山,2025-11-22,22.905944,120.688056,1.7529356e-07
U2HA30,臺大和社,2025-11-22,23.590856,120.888864,5.7651807e-08
C2H9K0,屯原,2025-11-22,24.067969,121.209389,2.1355933e-09
C0AJ90,澳底,2025-11-22,25.0552,121.9253,0.9982606
C0Z100,東華,2025-11-22,23.89525,121.549833,1.6036005e-05
C0G970,三豐,2025-11-22,23.882,120.2895,0.17017634
V2K610,大庄合作社,2025-11-22,23.8068,120.367939,0.2178421
C0V900,汕尾,2025-11-22,22.4782,120.4151,0.023883034
C1R630,龍泉,2025-11-22,22.66701,120.59091,0.9932096
C1AC50,關渡,2025-11-22,25.133486,121.469331,0.99984175
C0C800,四稜,2025-11-22,24.64733,121.4293,1.4986263e-07
C0F9I0,神岡,2025-11-22,24.272481,120.658314,1.9029162e-06
C0K460,斗南,2025-11-22,23.678734,120.478359,0.00012326417
C2O810,曾文,2025-11-22,23.219681,120.497328,0.00012330894
467280,後龍,2025-11-22,24.648563,120.831834,0.014069454
C1F9J1,清水林,2025-11-22,24.071242,120.820419,9.085147e-10
C2A650,火燒寮,2025-11-22,25.002719,121.742892,0.00033986155
466930,竹子湖,2025-11-22,25.162078,121.544547,0.0005582514
C1I220,樟湖,2025-11-22,23.905333,120.846983,1.1902769e-09
C0I390,仁愛,2025-11-22,24.022122,121.132206,1.7044174e-09
C0Z300,東里,2025-11-22,23.26853,121.30547,3.428604e-05
C1V590,新發,2025-11-22,23.057019,120.646064,1.5053772e-09
C0K510,水林,2025-11-22,23.572924,120.24597,0.0128449
72S590,東改賓朗果園,2025-11-22,22.813889,121.071278,5.408567e-08
82A750,茶改北部分場,2025-11-22,24.955778,121.631222,0.6845326
C1A750,石碇服務區,2025-11-22,25.00872,121.646242,0.99974406
C0X300,鹿寮,2025-11-22,23.386047,120.477331,0.044762958
G2AI50,關渡,2025-11-22,25.11575,121.492,0.9901934
C0K590,雲林東勢,2025-11-22,23.674192,120.255721,0.02093552
C2K310,港尾布雞,2025-11-22,23.74834,120.38439,6.056881e-05
C0A570,桶後,2025-11-22,24.848222,121.597992,0.00033727032
C1S800,華源,2025-11-22,22.657883,121.02325,4.2450516e-05
C0G720,溪州,2025-11-22,23.851589,120.499093,1.8837136e-05
C1V160,達卡努瓦,2025-11-22,23.279811,120.705319,1.1148481e-09
C2M410,馬頭山,2025-11-22,23.324361,120.582017,1.9544034e-07
C0V850,蚵仔寮,2025-11-22,22.7256,120.2527,0.010424445
C0S740,池上,2025-11-22,23.119628,121.209469,0.0053979917
C1V390,尖山,2025-11-22,22.813153,120.367789,7.370547e-05
C0AH70,松山,2025-11-22,25.04871,121.55042,0.9991912
C0N010,鯤鯓國小,2025-11-22,23.1879,120.0889,0.018398494
C0R550,新埤,2025-11-22,22.467947,120.582894,0.0044452557
C0SA60,知本（水試所）,2025-11-22,22.702394,121.082761,0.0016344478
C0T9I0,豐濱,2025-11-22,23.583897,121.514806,9.657309e-08
C0UB00,淡江大學蘭陽校園,2025-11-22,24.823239,121.730383,6.3509586e-05
C0W240,九宮,2025-11-22,24.423753,118.240186,0.90600795
C0T9N0,富里,2025-11-22,23.171639,121.249378,0.0021242485
U2HA50,臺大竹山,2025-11-22,23.756972,120.681556,1.2070849e-05
C0V840,鳳鼻頭,2025-11-22,22.5083,120.3591,0.00032859461
C0X140,西港,2025-11-22,23.125608,120.203108,5.3227222e-06
72D080,桃改五峰分場,2025-11-22,24.612194,121.157167,3.0048297e-09
C2H9P0,伊拿谷,2025-11-22,23.963211,121.088264,1.332729e-09
C2K250,崙背,2025-11-22,23.75553,120.31893,0.043697346
C2H9F0,柑林,2025-11-22,24.018658,120.847072,1.7919687e-06
C0TA20,加灣,2025-11-22,24.082025,121.608944,0.97255903
C0V530,阿蓮,2025-11-22,22.883208,120.327508,0.002911954
C0FB30,八仙山苗圃,2025-11-22,24.192719,121.001366,3.6486334e-09
C1O880,關山,2025-11-22,23.173397,120.594092,3.041968e-08
C0E791,卓蘭,2025-11-22,24.3126,120.8244,8.440428e-09
C1I030,武界,2025-11-22,23.913225,121.052483,1.2814726e-09
C0R520,崁頂,2025-11-22,22.514781,120.506914,0.9975387
C0R341,牡丹,2025-11-22,22.130036,120.792639,0.962305
C0R930,萬丹,2025-11-22,22.5885,120.4851,0.7687682
C0S760,紅石,2025-11-22,23.069131,121.126219,2.1606937e-08
C2C410,中央大學,2025-11-22,24.967652,121.185165,0.99953616
C1M610,石磐龍,2025-11-22,23.496606,120.663506,1.6947701e-09
C0C790,東眼山,2025-11-22,24.8284,121.40888,7.6583165e-06
C0UA10,鴛鴦湖,2025-11-22,24.590269,121.412228,2.1105649e-08
V2C260,八德蔬果,2025-11-22,24.978508,121.281819,0.999883
C0R800,丹路,2025-11-22,22.204481,120.750989,0.85576963
C0G920,永靖,2025-11-22,23.924703,120.547533,5.884677e-06
C2M950,太和,2025-11-22,23.538372,120.702961,1.7868922e-09
C1A630,下盆,2025-11-22,24.771003,121.538622,4.306454e-06
B2N890,畜產試驗所,2025-11-22,23.058972,120.336406,0.014209322
C0UA30,白嶺,2025-11-22,24.527819,121.519031,1.8702849e-08
C1V580,溪南(特生中心),2025-11-22,23.084972,120.788475,1.5647924e-09
C1T970,大農,2025-11-22,23.615233,121.413331,5.1206992e-08
C0R650,竹田,2025-11-22,22.58486,120.54344,0.9996158
C1H900,清流,2025-11-22,24.080775,120.962997,1.3166422e-09
C1C510,水尾,2025-11-22,24.940081,121.087161,0.7807631
C2N170,茅港尾,2025-11-22,23.2061,120.2624,0.015663471
C0F9X0,大雅(中科園區),2025-11-22,24.21528,120.62445,3.350481e-06
C0SB60,白守蓮,2025-11-22,23.126769,121.401914,0.09157073
C0O970,虎頭埤,2025-11-22,23.021375,120.347878,0.00032893938
C0C730,中大臨海站,2025-11-22,24.966126,121.008581,0.15598053
C0X250,新營,2025-11-22,23.310689,120.316681,0.030695396
C0V700,三民,2025-11-22,22.645017,120.311233,0.12942801
C0U870,大礁溪,2025-11-22,24.791042,121.675047,1.481559e-05
C0E870,高鐵苗栗,2025-11-22,24.60725,120.826094,0.011601937
A2K570,古坑花卉中心,2025-11-22,23.63353,120.55239,0.028205559
C0TA30,鹽寮,2025-11-22,23.845606,121.592664,3.985103e-05
C0M860,新美,2025-11-22,23.338017,120.683169,3.1553353e-09
C1E701,八卦,2025-11-22,24.491756,120.927619,1.9297342e-09
C2TA90,加納納,2025-11-22,23.466421,121.359867,1.2688884e-07
C0I420,國姓,2025-11-22,24.037803,120.855072,6.588967e-07
C2D720,關西工作站,2025-11-22,24.757275,121.184792,0.9861971
C0S960,香蘭,2025-11-22,22.587569,120.993375,0.027240159
467620,蘭嶼,2025-11-22,22.0369,121.55843,0.95609313
C0R260,春日,2025-11-22,22.370361,120.628306,0.014153206
72G600,臺中農改場,2025-11-22,24.003028,120.534389,5.727282e-06
C0Z210,瑞穗,2025-11-22,23.5239,121.39021,6.4077386e-07
C0M820,達邦,2025-11-22,23.453994,120.749517,1.4599385e-09
C0V860,南寮,2025-11-22,22.7616,120.2339,0.010414853
C0G740,大城,2025-11-22,23.852487,120.320935,0.18350697
C0R920,塭仔,2025-11-22,22.4169,120.5197,0.08072852
C0R470,高樹,2025-11-22,22.826389,120.600806,0.02568785
C0R680,佳樂水,2025-11-22,21.993578,120.861633,0.9885739
C1O870,大棟山,2025-11-22,23.31157,120.52226,1.5800912e-09
C0D360,梅花,2025-11-22,24.678347,121.208558,4.593423e-08
C0Z190,富世,2025-11-22,24.14743,121.6297,1.4666483e-06
C0AI10,屈尺,2025-11-22,24.92184,121.54475,0.9998336
B2U990,畜試東區分所,2025-11-22,24.669039,121.832561,0.00022657347
C0SB80,長濱漁港,2025-11-22,23.313644,121.459994,4.8524722e-05
C0TA50,和仁,2025-11-22,24.241394,121.712472,2.294053e-08
C0V910,大樹,2025-11-22,22.684645,120.432803,0.88385504
C1R610,西大武山,2025-11-22,22.617719,120.7322,5.130407e-08
C0G900,線西,2025-11-22,24.143358,120.443536,0.9410766
C0M700,竹崎,2025-11-22,23.526178,120.555508,0.0041739885
C2E880,三義,2025-11-22,24.405478,120.749819,4.3591366e-09
C0C720,竹圍,2025-11-22,25.112692,121.239824,0.9901934
C0F9P0,清水,2025-11-22,24.312297,120.562242,0.41681218
C0Z150,吉安光華,2025-11-22,23.930925,121.595153,0.0009807172
C0FA80,小雪山天池,2025-11-22,24.28025,121.02627,7.572462e-09
467300,東吉島,2025-11-22,23.25727,119.66762,0.25662363
C1D640,外坪(五指山),2025-11-22,24.644447,121.090961,7.980986e-09
C2R9A0,高士國小,2025-11-22,22.12553,120.84653,0.91349053
C0F9O0,潭子,2025-11-22,24.213106,120.703933,2.4668776e-07
C2H9R0,卓社,2025-11-22,23.887894,121.000086,1.03505e-09
72T250,花蓮農改場,2025-11-22,23.975222,121.563889,0.98344594
C0E780,銅鑼,2025-11-22,24.489681,120.790853,0.012782665
C1T950,太安,2025-11-22,23.666719,121.370128,8.044796e-08
C0E830,苑裡,2025-11-22,24.439714,120.653053,0.0074306726
467270,田中,2025-11-22,23.873803,120.581286,9.706875e-05
C0SA10,檳榔四格山,2025-11-22,22.810031,121.109308,1.4754759e-08
C1T830,布洛灣,2025-11-22,24.17184,121.57127,0.00038605553
C0F970,大坑,2025-11-22,24.173142,120.722289,5.2156124e-06
C1U920,思源,2025-11-22,24.393125,121.347214,1.4085966e-08
C2H9Y0,松茗,2025-11-22,23.8167,120.650765,8.553235e-10
C0A931,三和,2025-11-22,25.233153,121.595236,0.9995934
C0I010,廬山,2025-11-22,24.033311,121.181808,1.272075e-09
C2M940,日野賀,2025-11-22,23.434056,120.727169,1.4638394e-09
C0R860,鼻頭,2025-11-22,22.1043,120.8979,0.60602695
C0UB20,壯圍,2025-11-22,24.7359,121.8163,0.007328028
C0R790,九棚,2025-11-22,22.14195,120.889281,0.90189946
C0W110,東莒,2025-11-22,25.9652,119.98069,0.66729146
C1U930,粉鳥林,2025-11-22,24.497088,121.842479,2.5207125e-06
C1I211,蘆竹湳,2025-11-22,23.934019,120.811994,1.2432286e-09
C0S830,長濱,2025-11-22,23.286817,121.411975,4.057724e-07
C1F9F1,伯公龍,2025-11-22,24.272392,120.849047,5.4910867e-09
C0UB90,太平山莊,2025-11-22,24.494171,121.536209,1.930674e-08
C0E810,西湖,2025-11-22,24.562947,120.7485,0.0048988205
C1I440,新高口,2025-11-22,23.478744,120.878939,2.7837292e-09
C0O840,王爺宮,2025-11-22,23.222064,120.40085,0.48909095
C0T9G0,鳳林山,2025-11-22,23.735269,121.420131,1.9033935e-08
C0X080,佳里,2025-11-22,23.173039,120.145086,0.01840001
C0FB70,大甲溪埔,2025-11-22,24.370625,120.620067,0.109742634
C0Z310,清水斷崖,2025-11-22,24.218294,121.689142,1.5817987e-08
C0M680,太保,2025-11-22,23.455062,120.331455,9.390032e-05
C1S820,金峰,2025-11-22,22.590969,120.933236,0.00035243595
C0AD10,八里,2025-11-22,25.150211,121.403947,0.9901934
C2K240,草嶺,2025-11-22,23.59555,120.693461,1.8987043e-09
C1SA70,都蘭,2025-11-22,22.87794,121.226881,1.608867e-05
C0K440,二崙,2025-11-22,23.772797,120.408944,3.0644074e-05
C1A760,坪林交控,2025-11-22,24.94284,121.713442,0.5347723
C0F9N0,大里,2025-11-22,24.092464,120.701378,0.00023874831
C0SA90,達仁林場,2025-11-22,22.264347,120.823972,0.99991244
C1R290,石門山,2025-11-22,22.112611,120.756597,0.9939929
42HA10,萬大發電廠,2025-11-22,23.978875,121.139639,1.2039515e-09
C0R890,山海,2025-11-22,21.9878,120.7091,0.9964177
C0T9A0,月眉山,2025-11-22,23.809928,121.539828,2.5631921e-08
C0AC70,信義,2025-11-22,25.037822,121.564597,0.9991912
C0K560,棋山,2025-11-22,23.68645,120.603417,0.006735307
C2FB50,出雲,2025-11-22,24.206469,120.902794,2.8816804e-09
C1Z240,中平林道,2025-11-22,23.42115,121.26763,1.2280287e-07
U2H480,溪頭,2025-11-22,23.670306,120.798194,1.8942299e-09
C0M880,好美里,2025-11-22,23.3364,120.138,0.021352785
C0T9E0,大坑,2025-11-22,23.880628,121.581981,3.6405787e-08
C0K530,臺西,2025-11-22,23.701547,120.197559,0.9546391
C1E900,國一N128K,2025-11-22,24.560997,120.844186,0.84445554
C0AJ50,水湳洞,2025-11-22,25.123695,121.862238,0.99713695
C0AI20,白沙灣,2025-11-22,25.283128,121.519058,0.99880886
C2V310,美濃,2025-11-22,22.898792,120.51907,0.004098633
C0A860,大坪,2025-11-22,25.165914,121.632969,0.8642917
C1U850,觀音海岸,2025-11-22,24.38319,121.77856,1.3202968e-08
C2K610,草嶺石壁,2025-11-22,23.602469,120.707731,1.8635042e-09
C0U950,鶯子嶺,2025-11-22,24.89754,121.79244,1.5444366e-06
C0O900,善化,2025-11-22,23.112883,120.297219,0.012940581
C0K550,蔦松,2025-11-22,23.514319,120.229736,0.13134317
E2P980,林試六龜中心,2025-11-22,22.991703,120.645722,2.2483993e-08
C0E590,通霄,2025-11-22,24.471892,120.704622,0.10097329
C1I310,西巒,2025-11-22,23.754486,120.883956,1.9465058e-09
C0A550,泰平,2025-11-22,24.971197,121.823711,0.0026826437
C0I360,水里,2025-11-22,23.812553,120.849792,3.3276486e-09
C0R830,高士,2025-11-22,22.121825,120.836781,0.9980132
C1I101,溪頭,2025-11-22,23.661789,120.807647,1.8725184e-09
C0AJ20,野柳,2025-11-22,25.20703,121.690021,0.9993947
C0B060,暖暖,2025-11-22,25.0957,121.7403,0.9994446
C1H920,長豐,2025-11-22,24.102039,120.879897,1.7465313e-09
C2S9B0,利吉,2025-11-22,22.86246,121.15486,6.375384e-07
C0V360,內門,2025-11-22,22.975481,120.466769,0.0004630653
C0R850,林邊,2025-11-22,22.4634,120.5339,0.011849765
C0E930,龍鳳,2025-11-22,24.700034,120.859125,0.105913624
C0U910,冬山,2025-11-22,24.63373,121.7937,0.00022657347
C1E721,泰安,2025-11-22,24.489017,120.968036,2.8705336e-09
82H320,茶改中部分場,2025-11-22,23.875611,120.913583,2.8176284e-09
C0M750,布袋,2025-11-22,23.380878,120.167789,0.004499937
C1S860,利嘉,2025-11-22,22.809417,121.050528,1.8218689e-08
E2S980,林試太麻里1,2025-11-22,22.598922,120.980044,0.00632415
C0X170,關廟,2025-11-22,22.963017,120.327797,0.00035232623
C0V720,林園,2025-11-22,22.507747,120.394511,0.0001931651
C1I510,線浸林道,2025-11-22,23.761508,120.832956,1.388335e-09
C0D690,外湖,2025-11-22,24.917735,120.968711,0.24101691
C0C750,新興坑尾,2025-11-22,25.0061,121.0971,0.4785012
B2Q810,畜試南區分所,2025-11-22,21.945583,120.802167,0.98900956
C0S790,金崙,2025-11-22,22.538122,120.966875,0.00017275447
C0AH90,福山植物園,2025-11-22,24.760717,121.58135,4.9253642e-05
C0I540,奇萊稜線,2025-11-22,24.109231,121.326456,2.1215389e-08
C0M850,表湖,2025-11-22,23.24186,120.64166,1.6028845e-09
C0S770,大溪山,2025-11-22,22.478475,120.943325,0.00066025363
C0AG80,中和,2025-11-22,24.991622,121.491792,0.9996239
C0T790,大禹嶺,2025-11-22,24.186117,121.316086,7.791944e-09
C0T9B0,水源,2025-11-22,23.991861,121.537169,2.7950614e-07
C0R840,牡丹池山,2025-11-22,22.168389,120.841225,0.99992937
C1I131,桶頭,2025-11-22,23.641944,120.654117,2.6640132e-07
CAL110,布袋國中,2025-11-22,23.35893,120.18026,0.004499937
C2M9D0,何竹子腳,2025-11-22,23.53641,120.38203,0.00204431
467571,新竹,2025-11-22,24.827853,121.014219,0.25662282
C0Z290,赤柯山,2025-11-22,23.36893,121.38293,1.5739918e-08
C0X280,將軍,2025-11-22,23.214999,120.13577,0.028325234
C0S690,太麻里,2025-11-22,22.60902,120.98533,2.2123493e-07
C0U880,北關,2025-11-22,24.9072,121.8734,0.99901193
CAW010,東引,2025-11-22,26.3588,120.4836,0.71911526
C0G810,埔心,2025-11-22,23.947633,120.525456,5.882489e-06
C0U970,大福,2025-11-22,24.80064,121.81389,3.0649568e-05
C2H9N0,仁愛東眼,2025-11-22,24.026875,121.1205,1.2099115e-09
C1E670,南礦,2025-11-22,24.538278,121.002836,3.824771e-09
C0M520,東後寮,2025-11-22,23.369908,120.248065,0.003601857
C1E461,松安,2025-11-22,24.397972,120.986022,1.5257215e-09
C2N160,西拉雅風管處,2025-11-22,23.189481,120.335297,0.99074286
C2M970,碧湖,2025-11-22,23.568632,120.624165,2.0661566e-09
C0A640,石碇,2025-11-22,24.993969,121.662917,0.9998599
E2S960,林試太麻里2,2025-11-22,22.598,120.99775,0.027880244
C0F9Y0,桃山,2025-11-22,24.432739,121.303808,1.3983254e-08
C1I020,萬大,2025-11-22,23.979817,121.132261,1.6659321e-09
C2UC20,長嶺,2025-11-22,24.70894,121.61162,0.00017932865
C0U940,羅東,2025-11-22,24.68184,121.74934,0.0058631147
C0M650,朴子,2025-11-22,23.43463,120.23902,0.0040917834
C1I500,大尖山,2025-11-22,23.858572,120.994889,2.3998712e-09
C0FB40,中橫21.6k,2025-11-22,24.2499,121.1455,1.4596545e-09
C0G820,田尾,2025-11-22,23.901669,120.509389,5.882489e-06
E2K600,四湖植物園,2025-11-22,23.676986,120.163433,0.8811352
C0S730,綠島,2025-11-22,22.6672,121.47533,0.9456365
12Q970,東港工作站,2025-11-22,22.479997,120.466058,0.023883034
C0E430,南庄,2025-11-22,24.601775,121.000214,3.5892503e-05
C1TA00,太魯閣,2025-11-22,24.15773,121.6236,5.091458e-07
466920,臺北,2025-11-22,25.037658,121.514853,0.9991912
C0R600,舊泰武,2025-11-22,22.588194,120.664944,1.5682284e-09
C1I260,北坑,2025-11-22,23.9246,121.006903,1.1495945e-09
466910,鞍部,2025-11-22,25.182586,121.529731,0.00043730126
C1I230,九份二山,2025-11-22,23.961944,120.845,1.537817e-09
C2M810,里佳,2025-11-22,23.389125,120.716647,1.9152355e-09
C2A660,瑞芳,2025-11-22,25.113169,121.801147,0.9990167
C0R270,琉球嶼,2025-11-22,22.332244,120.362236,1.9426034e-06
C2V580,瑞山,2025-11-22,22.90304,120.43424,3.6649468e-05
C1T990,高寮,2025-11-22,23.394239,121.356808,3.9356905e-06
C0G620,芬園,2025-11-22,24.015678,120.6213,3.062786e-05
C1Z140,荖溪,2025-11-22,23.890575,121.45964,2.1814024e-08
C1I201,中心崙,2025-11-22,23.728722,120.712097,5.901476e-10
C1I400,凌霄,2025-11-22,24.018778,121.004456,1.2110035e-09
C1M640,十字,2025-11-22,23.492153,120.753683,1.734527e-09
G2P820,農試鳳山分所,2025-11-22,22.646611,120.356083,0.09992065
C0Z270,蕃薯寮,2025-11-22,23.73835,121.540108,1.2546533e-07
C2E420,竹南,2025-11-22,24.70898,120.88897,0.07121503
C0FB10,出雲山苗圃,2025-11-22,24.23105,120.90475,3.3395005e-09
C0F9Q0,外埔,2025-11-22,24.347817,120.705686,0.00020874116
C0K580,高鐵雲林,2025-11-22,23.737456,120.417944,4.2882493e-05
C2I090,鳳凰,2025-11-22,23.728081,120.787347,1.0076271e-09
C0U990,員山,2025-11-22,24.74435,121.72247,0.0060801413
C0V770,大社,2025-11-22,22.730306,120.346639,0.0073568467
C0X120,麻豆,2025-11-22,23.183289,120.248611,0.00011511358
C0C670,龍潭,2025-11-22,24.870056,121.221389,0.99948716
C0D680,香山濕地,2025-11-22,24.783581,120.914988,0.26577127
C0S980,勝林山,2025-11-22,22.430439,120.8938,1.9001508e-06
C0V730,大寮,2025-11-22,22.605614,120.395717,0.0047977236
C0R570,麟洛,2025-11-22,22.65078,120.52719,0.7297354
C2M930,石卓,2025-11-22,23.478744,120.702264,1.945129e-09
C0G9B0,和美,2025-11-22,24.105169,120.492131,0.9637751
CAG100,王功漁港,2025-11-22,23.96824,120.32586,0.0615408
C0X290,北門,2025-11-22,23.267772,120.125481,0.028325234
C2F930,大甲,2025-11-22,24.347667,120.640403,0.42507982
C0D650,湖口,2025-11-22,24.904794,121.043628,0.7312425
C0E420,竹南,2025-11-22,24.708978,120.888897,0.07121503
C0U780,五結,2025-11-22,24.68637,121.79794,0.007324914
C1I250,鯉潭,2025-11-22,23.961922,120.991131,2.1821838e-09
C0R130,阿禮,2025-11-22,22.742908,120.743678,1.4703565e-09
C0X100,臺南市北區,2025-11-22,23.010394,120.194228,0.0011733103
C0S920,金峰嘉蘭,2025-11-22,22.594789,120.960825,0.004564177
C0V490,新興,2025-11-22,22.627422,120.298803,0.0074823764
C0F9K0,大安,2025-11-22,24.345061,120.588025,0.08875248
467290,古坑,2025-11-22,23.633639,120.551889,0.028205559
C2E970,八甲,2025-11-22,24.535811,120.795983,0.2456469
C0V440,鳳山,2025-11-22,22.646653,120.356122,0.09992065
C1T940,大觀,2025-11-22,23.714206,121.373133,3.008358e-08
C0E740,造橋,2025-11-22,24.637056,120.864778,0.011600281
C0R100,尾寮山,2025-11-22,22.833111,120.683889,3.3775058e-09
A2K630,臺大雲林校區,2025-11-22,23.730628,120.423903,4.2882493e-05
467990,馬祖,2025-11-22,26.169467,119.923158,0.45512715
C0D580,寶山,2025-11-22,24.735006,121.025192,0.010827521
E2P990,林試扇平站,2025-11-22,22.9677,120.6857,8.17229e-09
C0AI30,三重,2025-11-22,25.057328,121.500629,0.99907875
C0AH00,汐止,2025-11-22,25.066881,121.658778,0.9991912
C1Z040,立山,2025-11-22,23.443356,121.327375,1.3646999e-06
466881,新北,2025-11-22,24.959207,121.525196,0.9996753
C0W130,花嶼,2025-11-22,23.40007,119.32276,0.5990861
C0A950,鼻頭角,2025-11-22,25.129036,121.923372,0.73632467
C0K470,林內,2025-11-22,23.748675,120.609642,0.0009757701
C2F990,摩天嶺,2025-11-22,24.322458,120.936819,2.2155422e-09
C2E430,南庄,2025-11-22,24.601775,121.000214,3.5892503e-05
82C160,茶改場,2025-11-22,24.908472,121.185333,0.99972016
C2TB60,南安,2025-11-22,23.29818,121.26157,8.5798814e-07
C0Z320,清水林道,2025-11-22,23.27125,121.188272,1.177595e-07
C0R760,南仁湖,2025-11-22,22.084681,120.863353,0.99398357
C0M670,大林,2025-11-22,23.600616,120.45841,0.0029944656
C0M800,茶山,2025-11-22,23.299075,120.664767,6.929822e-09
C0A9C0,天母,2025-11-22,25.117494,121.537169,0.9997957
72K220,南改斗南分場,2025-11-22,23.634556,120.477333,0.00012326417
72AI40,桃改樹林分場,2025-11-22,24.944503,121.386972,0.99945366
C0S910,蘭嶼燈塔,2025-11-22,22.081197,121.503117,0.87328357
C0B050,八斗子,2025-11-22,25.144754,121.79167,0.9956328
C0U900,內城,2025-11-22,24.71813,121.68766,0.0037309104
C0X320,柳營,2025-11-22,23.253328,120.375253,0.99800956
C0M790,新港,2025-11-22,23.553269,120.345728,0.0004312153
C0F9T0,西屯,2025-11-22,24.179494,120.641275,1.0586401e-05
C0E950,松安,2025-11-22,24.39792,120.98599,1.5257186e-09
C0SA30,都歷,2025-11-22,23.020333,121.323642,1.5620979e-05
C0C620,蘆竹,2025-11-22,25.084275,121.265767,0.91546935
C0R730,大坪頂,2025-11-22,22.024633,120.69355,0.67964566
C0AJ40,石門,2025-11-22,25.273672,121.601198,0.99979824
C0E750,苗栗,2025-11-22,24.564569,120.824575,0.85135615
C0T870,鯉魚潭,2025-11-22,23.935639,121.508944,4.75357e-06
C1V170,排雲,2025-11-22,23.463619,120.954147,1.6947936e-08
C2H950,中寮,2025-11-22,23.884447,120.766406,6.428914e-06
C0R350,貓鼻頭,2025-11-22,21.921774,120.7358,0.9959527
C0V660,岡山,2025-11-22,22.797078,120.294958,0.01043197
C1H941,雙冬,2025-11-22,23.967378,120.802189,1.1197004e-09
C0AJ70,田寮,2025-11-22,25.2698,121.4886,0.998596
C0AI00,五股,2025-11-22,25.07445,121.42728,0.9997007
C0Z280,德武,2025-11-22,23.47426,121.41071,2.077026e-07
C2RA10,大新,2025-11-22,22.67558,120.57788,0.9930489
C0R700,枋山,2025-11-22,22.246844,120.661086,0.16999455
C0C460,復興,2025-11-22,24.820208,121.352281,0.8263734
C2K300,鹿南,2025-11-22,23.63855,120.3636,0.00013003641
E2H360,蓮華池,2025-11-22,23.918333,120.885278,1.0133281e-09
C0M640,中埔,2025-11-22,23.42538,120.5229,0.0010337686
C0W140,金沙,2025-11-22,24.488292,118.408778,0.65327954
C2A540,四堵,2025-11-22,24.8926,121.745736,0.0025680144
C0ACA0,新莊,2025-11-22,25.051478,121.446756,0.99874616
C0R220,潮州,2025-11-22,22.534361,120.54,0.9970881
U2HA40,臺大內茅埔,2025-11-22,23.689722,120.851117,9.814196e-09
467490,臺中,2025-11-22,24.145736,120.684075,7.408613e-05
C0UB60,明池,2025-11-22,24.650688,121.475277,1.5424554e-07
C0U960,翠峰湖,2025-11-22,24.510856,121.608044,1.9783858e-08
E2HA20,林試畢祿溪站,2025-11-22,24.226944,121.308522,4.281319e-09
C2M9A0,大華,2025-11-22,23.4824,120.67491,1.7450861e-09
C0V890,前鎮,2025-11-22,22.5718,120.3117,0.013542598
C1F941,雪嶺,2025-11-22,24.280586,121.026642,7.572462e-09
C2H9E0,國姓南港,2025-11-22,23.911108,120.846556,1.2069152e-09
C0AC80,文山,2025-11-22,25.00235,121.575728,0.99971575
C0F9R0,龍井,2025-11-22,24.184536,120.528972,0.6307213
C0M760,民雄,2025-11-22,23.551754,120.428457,0.0044662296
C0UA40,西德山,2025-11-22,24.560647,121.752608,7.952421e-08
C2TA70,赤科坪,2025-11-22,23.39885,121.39168,1.6979612e-08
C1T920,中興,2025-11-22,23.769503,121.498653,4.9305336e-06
C0D550,雪霸,2025-11-22,24.526972,121.11605,5.8899636e-09
C2F860,梨山,2025-11-22,24.247522,121.243669,4.4201722e-09
C0R320,車城,2025-11-22,22.0744,120.716247,0.9013133
C1S870,南美山,2025-11-22,23.15025,121.382333,0.003110623
C0B020,基隆嶼,2025-11-22,25.19141,121.78391,0.32728994
C1U501,牛鬥,2025-11-22,24.637836,121.573656,0.52021766
C0M730,嘉義市東區,2025-11-22,23.457673,120.460531,0.5124148
C2R990,泰武,2025-11-22,22.60686,120.69765,7.393618e-09
C0S700,知本,2025-11-22,22.684866,121.005642,7.525612e-08
C1N001,沙崙,2025-11-22,22.935472,120.309406,0.00064233126
C0V760,橋頭,2025-11-22,22.757806,120.30575,0.009341197
C0G960,福寶,2025-11-22,24.0443,120.3814,0.96676
C0X210,白河,2025-11-22,23.347466,120.414427,0.3784901
C0S810,東河,2025-11-22,22.972672,121.303986,0.0027347293
C2R170,屏東,2025-11-22,22.66027,120.49403,0.7297354
C0R670,楓港,2025-11-22,22.190131,120.692156,0.8764132
C0FA50,霧峰,2025-11-22,24.0419,120.6995,9.785435e-05
C0UB10,蘇澳,2025-11-22,24.5969,121.8571,0.28944537
C0G950,防潮門,2025-11-22,24.1835,120.4871,0.6307213
C0M740,六腳,2025-11-22,23.492871,120.290625,0.0020814112
C1R250,力里,2025-11-22,22.428117,120.629228,0.00037836278
C0K330,虎尾,2025-11-22,23.719183,120.442036,3.7219346e-05
C2FA00,烏石坑,2025-11-22,24.273503,120.947617,2.2879387e-09
C0V620,永安,2025-11-22,22.82315,120.236856,0.01043197
C1I330,楓樹林,2025-11-22,23.986803,121.076117,1.3821893e-09
C0W200,湖西,2025-11-22,23.596314,119.67275,0.60801345
72Q010,高雄農改場,2025-11-22,22.709333,120.525889,0.22655347
C0SA40,瑞和,2025-11-22,22.974361,121.156697,1.5093563e-07
C0C680,龜山,2025-11-22,25.02846,121.38656,0.999825
C2V260,月眉,2025-11-22,22.971003,120.539853,7.437083e-05
C0V450,鳳森,2025-11-22,22.545064,120.392592,1.6001863e-05
C0FA90,小雪山林道,2025-11-22,24.29515,121.03651,1.0427111e-08
C0U720,南山,2025-11-22,24.43742,121.38167,1.6863455e-08
A2N290,臺南蘭花園區,2025-11-22,23.340258,120.379661,0.0011888534
C0R560,新園,2025-11-22,22.5434,120.461558,0.0001931651
C0U890,三星,2025-11-22,24.66812,121.65302,0.5730115
C1V300,御油山,2025-11-22,23.001983,120.715364,1.9434712e-09
C0U600,礁溪,2025-11-22,24.817539,121.765608,0.45837137
C1T980,龍澗,2025-11-22,24.023289,121.411328,7.366988e-08
C0D670,海天一線,2025-11-22,24.831986,120.914438,0.48092473
C0SA00,歷坵,2025-11-22,22.520969,120.89185,9.654241e-07
C0M710,東石,2025-11-22,23.458927,120.15385,0.10203985
C0M780,鹿草,2025-11-22,23.41134,120.30835,0.0028463237
C0U520,雙連埤,2025-11-22,24.753033,121.641303,1.3275375e-05
C0B010,七堵,2025-11-22,25.094819,121.71713,0.9990921
C0R480,長治,2025-11-22,22.693128,120.542622,0.7077103
C1V830,國三S383K,2025-11-22,22.781967,120.426475,3.1815762e-06
12Q980,恆春工作站,2025-11-22,22.079678,120.714425,0.9013133
C1O940,東山服務區,2025-11-22,23.286016,120.398472,0.9406671
C1U840,東澳嶺,2025-11-22,24.5378,121.8485,2.6488408e-06
C1D630,飛鳳山,2025-11-22,24.766464,121.119178,0.000484187
C0S940,石寧山,2025-11-22,23.223772,121.406639,0.00012634501
C0K410,北港,2025-11-22,23.573957,120.292802,0.009706396
C2M620,瑞里,2025-11-22,23.545133,120.675197,1.7014129e-09
C0SB70,小港漁港,2025-11-22,23.158558,121.400431,0.26366413
C2O950,安南,2025-11-22,23.076694,120.144861,0.0037348028
C0F0E0,南湖圈谷,2025-11-22,24.363714,121.444667,3.2758226e-08
467610,成功,2025-11-22,23.097486,121.373428,0.11070482
C0G890,伸港,2025-11-22,24.148933,120.484403,0.9410766
C2E540,龍溪,2025-11-22,24.606489,120.783933,0.010005548
C1V200,梅山,2025-11-22,23.268447,120.823556,9.33312e-09
C0T9H0,加路蘭山,2025-11-22,23.682947,121.5274,1.5443284e-08
C2O930,玉井,2025-11-22,23.126042,120.46055,0.0030699186
C1F911,新伯公,2025-11-22,24.221361,120.841069,4.9984044e-09
C0R490,九如,2025-11-22,22.7405,120.490503,0.2958417
C0X200,左鎮,2025-11-22,23.056758,120.408522,0.0004886509
C2TB50,麻汝,2025-11-22,23.42554,121.39358,9.0545875e-08
C0FA60,鞍馬山工作站,2025-11-22,24.267064,121.000793,4.126392e-09
C0SB50,叭嗡嗡,2025-11-22,23.047062,121.343223,0.00016738824
C1F891,稍來,2025-11-22,24.265689,121.001142,3.938986e-09
C2M9C0,紫雲,2025-11-22,23.494914,120.540253,0.13054162
72N240,七股研究中心,2025-11-22,23.081672,120.062894,0.0039822813
C0C700,中壢,2025-11-22,24.977661,121.256375,0.99989957
C0M690,水上,2025-11-22,23.419734,120.388909,5.1231505e-05
C0V690,鼓山,2025-11-22,22.623325,120.275575,0.0074457508
C0O860,大內,2025-11-22,23.11885,120.36083,0.01920312
C0Z200,萬榮,2025-11-22,23.709219,121.420106,1.8677005e-06
C0T9D0,和中,2025-11-22,24.26676,121.74103,3.0421095e-05
C2S9A0,北份子寮,2025-11-22,22.78561,121.07813,8.004624e-05
C1O921,楠西,2025-11-22,23.183511,120.484083,0.010450885
C0AJ30,淡水觀海,2025-11-22,25.184591,121.408616,0.99978846
C0V810,左營,2025-11-22,22.67491,120.28491,0.12942801
C0UA70,桃源谷,2025-11-22,24.962606,121.888875,0.000117342104
C0X130,官田,2025-11-22,23.193217,120.315422,0.9929314
C1H000,翠峰,2025-11-22,24.109397,121.205211,1.16993455e-08
C0UA90,石城,2025-11-22,24.980444,121.951214,0.9547145
C1E681,南勢山,2025-11-22,24.421669,120.923831,9.695617e-10
C0A9F0,內湖,2025-11-22,25.079422,121.57545,0.9991912
C0K291,宜梧,2025-11-22,23.536281,120.169329,0.12960784
C1K540,口湖,2025-11-22,23.585344,120.180517,0.62699044
C0R780,滿州,2025-11-22,22.024403,120.839892,0.80745655
C0V870,文安,2025-11-22,22.8025,120.2164,0.012350703
C0U650,玉蘭,2025-11-22,24.675286,121.587061,0.00013470178
C0R640,東港,2025-11-22,22.46247,120.44074,0.023883034
C0AJ80,板橋,2025-11-22,25.0107,121.4489,0.99957794
C0S660,下馬,2025-11-22,23.150427,121.070312,2.767837e-08
C2N190,烏樹,2025-11-22,23.32393,120.36989,0.9926538
C1H9B1,阿眉,2025-11-22,24.1263,120.994672,1.866998e-09
C0UA20,多加屯,2025-11-22,24.368614,121.373189,7.346106e-09
C0E730,頭份,2025-11-22,24.688247,120.912206,0.07296667
72V140,高改旗南分場,2025-11-22,22.857861,120.516667,0.004098633
C0K480,莿桐,2025-11-22,23.761192,120.502372,0.0005292711
C0U980,坪林石牌,2025-11-22,24.86478,121.77396,3.921076e-06
C0T900,西林,2025-11-22,23.8119,121.441458,4.6534677e-07
C1I150,青雲,2025-11-22,23.793361,120.949378,1.2208112e-09
C2E980,和興,2025-11-22,24.505319,120.923016,3.0071172e-09
467350,澎湖,2025-11-22,23.565503,119.563094,0.8361831
C0G800,埔鹽,2025-11-22,24.000394,120.431683,0.93834716
C0H960,草屯,2025-11-22,23.973672,120.68085,3.4115663e-05
C1V780,多納林道,2025-11-22,22.888028,120.737917,5.0679456e-09
C0E920,通霄漁港,2025-11-22,24.498589,120.673876,0.10147212
C0Z330,安通山,2025-11-22,23.290728,121.348528,3.9803144e-08
C0AH10,永和,2025-11-22,25.01125,121.508111,0.99957794
C0AK10,太平里,2025-11-22,25.134937,121.364899,0.9922254
C2G640,鹿港,2025-11-22,24.0753,120.430481,0.9668334
C1E890,國三N149K,2025-11-22,24.463414,120.680019,0.01542937
C1R110,口社,2025-11-22,22.770111,120.645222,0.009616316
C1M870,國三N285K,2025-11-22,23.550319,120.505833,0.011684218
C1E480,鳳美,2025-11-22,24.554803,121.034747,5.8408625e-09
C0M530,奮起湖,2025-11-22,23.493903,120.699253,1.7970433e-09
C0C590,觀音,2025-11-22,25.027072,121.153317,0.19797999
C0T9M0,靜浦,2025-11-22,23.455167,121.495028,2.6629436e-06
C2H9M0,發祥,2025-11-22,24.154094,121.164517,1.2714395e-09
C2G9C0,埔南,2025-11-22,23.99124,120.46969,0.9386131
C0AI40,石牌,2025-11-22,25.115597,121.513139,0.99978626
C1F871,上谷關,2025-11-22,24.203483,121.018644,3.193388e-09
C2H9G0,百勝,2025-11-22,24.051142,120.909361,1.5598666e-09
C0G880,二水,2025-11-22,23.810742,120.6173,0.014225007
C0R940,加祿堂,2025-11-22,22.3363,120.6217,0.9786677
C0W220,北竿,2025-11-22,26.220358,119.974881,0.4579133
C0O960,崎頂,2025-11-22,22.959547,120.369317,1.1595229e-05
C0TA40,秀林,2025-11-22,24.302864,121.731144,3.4406103e-08
C0S750,向陽,2025-11-22,23.248397,120.986133,5.980401e-09
C0T9F0,水璉,2025-11-22,23.797131,121.542514,1.4392383e-07
C1M600,頭凍,2025-11-22,23.406364,120.603339,2.220492e-09
467660,臺東,2025-11-22,22.752211,121.154586,0.0021685543
C1D380,新埔,2025-11-22,24.84745,121.03834,0.63535315
C2G980,田頭村,2025-11-22,23.8263,120.444175,3.0644103e-05
C0V750,路竹,2025-11-22,22.854997,120.259439,0.010614521
C0N050,蚵寮,2025-11-22,23.301,120.1104,0.021352785
C2X060,下營,2025-11-22,23.226806,120.256291,0.015663471
72M700,南改鹿草分場,2025-11-22,23.416869,120.283061,0.004102849
C1SA50,利嘉林道,2025-11-22,22.82325,121.009389,9.379182e-08
C0UB70,太平山中間站,2025-11-22,24.542003,121.513453,1.598738e-07
C0A940,金山,2025-11-22,25.223628,121.643967,0.999448
C1V340,大津,2025-11-22,22.888322,120.645986,0.012401468
C0W180,七美,2025-11-22,23.219333,119.444892,0.57230854
C1F9C1,白冷,2025-11-22,24.182844,120.929889,1.4299051e-09
K2E710,苗改生物防治研究中心,2025-11-22,24.422861,120.871833,2.9309613e-08
C0N040,蘆竹溝,2025-11-22,23.2344,120.0961,0.028325234
C0TB40,崇德,2025-11-22,24.166144,121.657414,8.735185e-06
C0D760,大坪苗圃,2025-11-22,24.5362,121.1108,3.538401e-09
C2W230,畜試所澎湖,2025-11-22,23.628342,119.513206,0.7074603
C0R880,後壁湖,2025-11-22,21.9457,120.7457,0.9966901
C1I280,埔中,2025-11-22,23.820778,120.642594,8.097808e-10
467790,墾丁雷達站,2025-11-22,21.948235,120.808028,0.98630565
C0W190,望安,2025-11-22,23.380564,119.494075,0.6596223
C0Z170,卓溪,2025-11-22,23.3443,121.3029,6.3607723e-07
C0F850,東勢,2025-11-22,24.246428,120.833047,8.787946e-09
466900,淡水,2025-11-22,25.164889,121.448906,0.9922254
C0I370,魚池,2025-11-22,23.895703,120.94135,1.010331e-09
C0C630,大溪,2025-11-22,24.882853,121.265547,0.9993437
C0A520,山佳,2025-11-22,24.974944,121.402008,0.999493
C0I110,竹山,2025-11-22,23.761225,120.688156,7.62898e-05
82H840,茶改南部分場,2025-11-22,23.762528,120.7405,9.566954e-10
C2SD80,再來山,2025-11-22,23.34371,121.44122,2.845089e-07
C0G660,溪湖,2025-11-22,23.94835,120.479122,8.322132e-06
C1T800,洛韶,2025-11-22,24.204558,121.453956,1.8863709e-08
C1T810,慈恩,2025-11-22,24.192044,121.388386,1.29459945e-08
C1E451,象鼻,2025-11-22,24.368617,120.940228,8.934167e-10
C0AC60,三峽,2025-11-22,24.939025,121.369728,0.99954337
C0I490,萬大林道,2025-11-22,23.928228,121.091411,1.0229992e-09
C1I290,豐丘,2025-11-22,23.668178,120.887417,1.936574e-09
C1I320,奧萬大,2025-11-22,23.952956,121.178556,7.779109e-10
C2M910,嘉義大學,2025-11-22,23.471325,120.485903,0.09101028
C0U770,南澳,2025-11-22,24.44935,121.81022,4.0145252e-08
C2TB30,吉安,2025-11-22,23.94538,121.54803,5.896389e-05
C0A980,社子,2025-11-22,25.109508,121.469681,0.98864806
C0V800,六龜,2025-11-22,22.997889,120.633583,3.151091e-08
C1G9D0,國一S218K,2025-11-22,23.890641,120.493253,2.1764336e-05
C0E570,白沙屯,2025-11-22,24.549447,120.696803,0.0050873035
C2F9A0,中竹林,2025-11-22,24.103556,120.751061,3.961735e-08
C0FA40,臺中電廠,2025-11-22,24.2146,120.4907,0.6307213
C2G9A0,畜試所彰化,2025-11-22,23.86045,120.557964,9.706875e-05
C0H9C0,合歡山,2025-11-22,24.143442,121.272547,1.1723918e-08
C0X060,下營,2025-11-22,23.22695,120.256261,0.96275395
G2M350,農試溪口農場,2025-11-22,23.58565,120.408111,0.007987893
C0U860,頭城,2025-11-22,24.85323,121.8308,0.56505173
C0R580,南州,2025-11-22,22.48591,120.50274,0.023883034
C0D430,峨眉,2025-11-22,24.6905,121.017189,0.8445182
C0G780,秀水,2025-11-22,24.03405,120.503869,5.7272873e-06
72N100,臺南農改場,2025-11-22,23.0605,120.342194,0.014209322
C0S900,蘭嶼高中,2025-11-22,22.04909,121.51214,0.942624
C2TA60,六十石,2025-11-22,23.22477,121.31861,2.6204804e-08
C1F9W0,德基,2025-11-22,24.254783,121.190261,2.938197e-09
C2M980,安和,2025-11-22,23.51377,120.31593,0.0014702975
C1Z120,壽豐,2025-11-22,23.870853,121.508081,1.6036005e-05
C0W160,烏坵,2025-11-22,24.9944,119.44956,0.8753621
C1I240,外大坪,2025-11-22,23.958697,120.917931,2.0458315e-09
C1I550,國六W023K,2025-11-22,23.979067,120.867742,2.9764402e-09
C0R870,興海,2025-11-22,21.9752,120.8439,0.98900956
C0R140,瑪家,2025-11-22,22.682903,120.686639,1.6704088e-09
C0A530,坪林,2025-11-22,24.938183,121.70975,0.030728478
C0X260,後壁,2025-11-22,23.366358,120.362326,0.0011888534
C0Z230,和平,2025-11-22,24.30717,121.77007,4.0236293e-05
C0G770,福興,2025-11-22,24.041289,120.437669,0.93834716
C0H9A0,神木村,2025-11-22,23.532742,120.843667,1.748321e-09
C0I460,南投,2025-11-22,23.911469,120.687331,0.0014643171
C0I480,梅峰,2025-11-22,24.085272,121.173572,2.4413116e-09
C1V570,吉東,2025-11-22,22.85422,120.5454,0.0019545122
C2D740,屯原,2025-11-22,24.067969,121.209389,4.526409e-09
C2A560,福山,2025-11-22,24.776203,121.502811,0.016478574
C0AH30,五分山,2025-11-22,25.07125,121.780794,0.0011807987
C0FA10,松柏,2025-11-22,24.429115,120.617482,0.0059703747
72S200,東改班鳩分場,2025-11-22,22.829528,121.077694,2.138034e-07
72HA00,中改埔里分場,2025-11-22,23.903208,120.963364,1.0677391e-09
C2H9W0,大坪頂農水,2025-11-22,24.043122,120.932781,1.7166684e-09
C0C650,平鎮,2025-11-22,24.897503,121.214636,0.9998226
C0S930,延平,2025-11-22,22.902581,121.084058,7.1925996e-08
C0UA60,樟樹山,2025-11-22,24.41393,121.78325,1.9528551e-07
C2UC10,出水溪,2025-11-22,24.615822,121.652253,5.8329774e-06
C1S670,摩天,2025-11-22,23.199503,121.027,2.1206851e-08
C2C590,觀音,2025-11-22,25.027072,121.153317,0.19797999
C0V630,茄萣,2025-11-22,22.906642,120.182608,0.016483288
466940,基隆,2025-11-22,25.133314,121.740475,0.99628276
C0X050,東河,2025-11-22,23.296598,120.385608,0.9851019
C0R770,保力,2025-11-22,22.071122,120.764111,0.6222282
G2L020,農試嘉義分所,2025-11-22,23.485028,120.473806,0.16029112
C0X240,關子嶺,2025-11-22,23.331169,120.508025,3.2977958e-08
C0I380,集集,2025-11-22,23.828206,120.801467,3.6799164e-09
466990,花蓮,2025-11-22,23.975128,121.613275,0.98420036
C1V220,小關山,2025-11-22,23.154217,120.813603,1.9573136e-09
C1F9G1,慶福山,2025-11-22,24.180853,120.848378,2.3834763e-09
C0FB20,雪山橋,2025-11-22,24.23192,120.9786,3.8017878e-09
C0Z250,瑞穗林道,2025-11-22,23.49284,121.30688,3.3906468e-07
C0D590,新豐,2025-11-22,24.87068,120.97721,0.29843473
C0A870,五指山,2025-11-22,25.132153,121.608692,0.0001461034
C0UA50,西帽山,2025-11-22,24.555361,121.802628,4.295131e-07
C2R980,竹田國中,2025-11-22,22.61532,120.52412,0.9996158
C0X160,仁德,2025-11-22,22.968258,120.257689,0.016993089
C1H971,六分寮,2025-11-22,23.92507,120.6378,1.2802664e-08
C0W120,西嶼,2025-11-22,23.5626,119.468436,0.8247409
C0G650,員林,2025-11-22,23.946503,120.585597,1.9275745e-05
C0AD50,鶯歌,2025-11-22,24.951533,121.346294,0.9996249
C2H9Q0,北東眼山,2025-11-22,24.120939,121.189303,2.4204658e-09
C2H9T0,名間竹圍,2025-11-22,23.859914,120.637572,1.6498273e-09
C0S990,山豬窟,2025-11-22,22.318619,120.857372,0.99969226
C0X190,安平,2025-11-22,22.993161,120.152181,0.0011733103
C0K400,斗六,2025-11-22,23.720583,120.541127,0.00033322859
12J990,口湖工作站,2025-11-22,23.589978,120.180394,0.62699044
C0O830,北寮,2025-11-22,23.079561,120.495008,6.265084e-05
C1D410,白蘭,2025-11-22,24.579364,121.079947,3.5631071e-09
C0S970,加津林,2025-11-22,22.416211,120.926942,0.9993371
C0D700,關西,2025-11-22,24.7977,121.1732,0.98705816
C0M810,里佳,2025-11-22,23.389125,120.716647,1.9152355e-09
C0U750,龜山島,2025-11-22,24.841667,121.953133,0.0105163315
C0R810,內獅,2025-11-22,22.305064,120.642986,0.9787961
C1M390,龍美,2025-11-22,23.406728,120.654417,1.8338819e-09
C2K290,崙內,2025-11-22,23.69525,120.35601,0.043697428
C2FB60,頭櫃山,2025-11-22,24.129842,120.858925,1.5149777e-09
C1H840,國三N238K,2025-11-22,23.841008,120.707711,2.7635205e-09
CAQ030,崎峰國小,2025-11-22,22.42565,120.49521,0.023883034
C2E520,大湖,2025-11-22,24.414939,120.870872,2.2635888e-08
467530,阿里山,2025-11-22,23.508208,120.813242,2.493026e-09
C1E691,南湖,2025-11-22,24.40135,120.837533,1.3338607e-09
C0FA30,梧棲,2025-11-22,24.256003,120.523381,0.41681218
C1V231,高中,2025-11-22,23.134911,120.716711,1.0663795e-09
C0AK30,硬漢嶺,2025-11-22,25.136097,121.426372,0.0012369102
C0F9V0,新社,2025-11-22,24.200172,120.815806,2.1927897e-09
C0H890,埔里,2025-11-22,23.972169,120.952425,1.7648822e-09
C0R690,墾丁,2025-11-22,21.966756,120.810269,0.97643906
C0SD20,富山,2025-11-22,22.822383,121.190825,0.00092885515
C0F0D0,審馬陣,2025-11-22,24.381675,121.4203,1.11312755e-08
C2W030,金門農試所,2025-11-22,24.448431,118.451786,0.90757364
C0R820,白鷺,2025-11-22,22.454275,120.666219,4.6054858e-08
C0FB00,大雪山,2025-11-22,24.254668,121.007374,5.3134714e-09
C1V190,南天池,2025-11-22,23.27403,120.91176,6.8794486e-09
C0E940,雪見,2025-11-22,24.42595,121.01347,2.5517959e-09
K2E360,苗栗農改場,2025-11-22,24.495722,120.829111,0.021242628
CAJ050,海口故事園區,2025-11-22,23.57543,120.14121,0.62699044
C2K280,四湖,2025-11-22,23.6304,120.22717,0.8811352
C2H9D0,三隻寮,2025-11-22,24.093078,120.861578,1.6558992e-09
C0O990,媽廟,2025-11-22,22.99175,120.293525,0.0006523093
C0D480,打鐵坑,2025-11-22,24.849664,121.150789,0.99949694
C0Z220,和平林道,2025-11-22,24.343922,121.656317,1.6355317e-08
C0TA10,花蓮漁港,2025-11-22,23.995322,121.638331,0.9839215
72C440,桃園農改場,2025-11-22,24.950944,121.030583,0.47249463
C1E711,馬拉邦山,2025-11-22,24.367306,120.901656,8.9035807e-10
C0SB20,富岡,2025-11-22,22.792467,121.192669,0.0007103034
C0D560,竹東,2025-11-22,24.767147,121.057881,0.9875442
C0F9U0,南屯,2025-11-22,24.137006,120.637969,2.5991367e-05
C2SD60,明峰,2025-11-22,22.8671,121.11825,3.153033e-08
C0M720,番路,2025-11-22,23.464657,120.554156,2.101971e-05
C0F0A0,雪山圈谷,2025-11-22,24.388594,121.236339,1.7239273e-08
C1A9N0,四十份,2025-11-22,24.934158,121.593283,0.44797745
C0U760,東澳,2025-11-22,24.52196,121.83318,1.972363e-06
C0X230,鹽水,2025-11-22,23.272621,120.247641,0.018051468
C2H9H0,苗改南投蜂場,2025-11-22,23.852589,120.693481,3.6367772e-05
C2TB70,達谷寮,2025-11-22,23.38,121.35968,1.2940573e-06
C0R950,萬隆國小,2025-11-22,22.507667,120.587817,0.9862453
467540,大武,2025-11-22,22.35572,120.90374,0.9992424
C0V370,古亭坑,2025-11-22,22.893178,120.401947,0.00021343387
C1I340,新興橋,2025-11-22,23.563333,120.868728,2.538083e-09
C0SA80,土坂,2025-11-22,22.453108,120.887572,0.6408305
C0R160,鹽埔,2025-11-22,22.739558,120.530778,0.22655392
C0AC40,大屯山,2025-11-22,25.175675,121.522408,2.7977812e-05
466850,五分山雷達站,2025-11-22,25.071182,121.781205,0.0010311883
C2H9L0,馬烈霸,2025-11-22,24.1512,121.201772,2.3861282e-09
C1AI50,國三N016K,2025-11-22,25.034164,121.619664,0.9994447
C2V920,匏子寮,2025-11-22,23.04905,120.55319,9.741967e-08
C1V600,藤枝,2025-11-22,23.071961,120.757042,1.4129551e-09
C1E601,南勢,2025-11-22,24.572486,120.734842,0.004450891
C0O980,新市,2025-11-22,23.061614,120.298197,0.012940581
C0K420,西螺,2025-11-22,23.800407,120.467394,2.2263224e-05
C0Z050,佳心,2025-11-22,23.34567,121.21316,1.9182636e-08
C0AD30,蘆洲,2025-11-22,25.086594,121.472331,0.9990782
C0V610,梓官,2025-11-22,22.760558,120.267211,0.009341197
K2F750,種苗改良場,2025-11-22,24.225972,120.800917,3.0515783e-09
C0UA80,大溪漁港,2025-11-22,24.941801,121.902955,0.9989443
C1AI60,國一39K邊坡,2025-11-22,25.064361,121.383836,0.9997773
C0W150,金寧,2025-11-22,24.457703,118.328989,0.900373
C0R960,內埔,2025-11-22,22.608483,120.570714,0.9995956
V2C250,八德合作社,2025-11-22,24.93775,121.266389,0.99977237
C2H9S0,龍南,2025-11-22,23.953536,120.833183,9.710922e-10
C0AH40,平等,2025-11-22,25.129142,121.577086,0.3330053
C0R540,佳冬,2025-11-22,22.419456,120.552375,0.051454097
466950,彭佳嶼,2025-11-22,25.627975,122.079744,0.3266126
C0A890,雙溪,2025-11-22,25.036003,121.864242,0.9983167
C0C480,桃園,2025-11-22,24.992425,121.323172,0.9998779
C0AH50,林口,2025-11-22,25.072181,121.38084,0.9998408
A2K360,水試臺西試驗場,2025-11-22,23.717231,120.190522,0.9483551
C2M960,外寮,2025-11-22,23.562643,120.665688,1.9480508e-09
C0F9S0,烏日,2025-11-22,24.107058,120.624103,0.0010865203
C2N180,鹿陶洋,2025-11-22,23.14325,120.48352,0.010450885
C0C490,八德,2025-11-22,24.928708,121.283289,0.9997786
C0R190,赤山,2025-11-22,22.592333,120.614306,0.9995671
C0T820,天祥,2025-11-22,24.179597,121.495639,2.4091057e-06
C1F9E1,龍安,2025-11-22,24.1605,120.831961,1.5165157e-09
C2SD50,順那,2025-11-22,23.04166,121.29332,1.9142706e-06
C0V820,小林,2025-11-22,23.148408,120.63325,3.3872798e-09
C2G870,芳苑,2025-11-22,23.922303,120.320025,0.061712563
C0E850,大河,2025-11-22,24.618069,120.948578,0.08927172
C1U670,寒溪,2025-11-22,24.634,121.71691,4.138032e-05
C0N020,城西,2025-11-22,23.0568,120.0956,0.0011733103
C1Z110,三棧,2025-11-22,24.11557,121.60501,2.3126634e-07
C0R280,檳榔,2025-11-22,22.076078,120.836777,0.9670888
C2H9J0,中台,2025-11-22,23.9996,120.938739,1.4540581e-09
C0F9L0,后里,2025-11-22,24.310436,120.729725,2.4110763e-08
467441,高雄,2025-11-22,22.730432,120.312516,0.0073568467
C0Z180,新城,2025-11-22,24.040486,121.604878,0.98394775
C0D540,橫山,2025-11-22,24.71116,121.11693,0.0018696623
C1D420,太閣南,2025-11-22,24.632808,121.160575,7.1781514e-09
C1E770,公館,2025-11-22,24.526914,120.830806,0.03909852
CAN130,水試所海水繁養殖中心,2025-11-22,23.120802,120.07968,0.0039822813
C1I430,翠華,2025-11-22,24.191961,121.224339,5.2952904e-09
C1M400,菜瓜坪,2025-11-22,23.251928,120.576103,3.7704684e-09
C0G730,二林,2025-11-22,23.903325,120.376081,0.96540993
72M360,南改義竹分場,2025-11-22,23.360694,120.279361,0.0036369197
V2K620,麥寮合作社,2025-11-22,23.753836,120.294783,0.043450896
C0Z070,舞鶴,2025-11-22,23.46811,121.37407,1.0187999e-07
C0B040,大武崙,2025-11-22,25.166676,121.706993,0.9977887
C1Z030,紅葉,2025-11-22,23.493119,121.338806,1.18147696e-07
C1I050,丹大,2025-11-22,23.753747,121.141147,9.611696e-09
C0I080,信義,2025-11-22,23.689694,120.851036,9.814196e-09
C2TB80,庄子底,2025-11-22,23.71794,121.49438,5.8328606e-06
C0D750,樂山林道6k,2025-11-22,24.49999,121.08773,8.149005e-09
C2M920,朴子農改,2025-11-22,23.469889,120.259383,0.0040917816
C2A880,福隆,2025-11-22,25.017842,121.942083,0.9711993
C0Z160,鳳林,2025-11-22,23.746114,121.453411,4.1049784e-06
C0UB80,翠峰林道6K,2025-11-22,24.49773,121.568625,1.9695682e-08
C0V210,復興,2025-11-22,23.222403,120.806089,6.3656934e-08
C0H990,昆陽,2025-11-22,24.121322,121.273642,2.0345361e-08
C0R741,獅子,2025-11-22,22.202308,120.705236,0.7517413
C0S710,鹿野,2025-11-22,22.917711,121.122994,1.1590137e-08
C0I530,小奇萊,2025-11-22,24.131764,121.295717,2.1208146e-08
C0FA70,大雪山埡口,2025-11-22,24.26867,121.03062,7.454294e-09
C2K630,荷苞,2025-11-22,23.657717,120.595144,0.00017016323
C0Z080,富源,2025-11-22,23.587642,121.378225,1.0439866e-06
C2M9E0,旺來山,2025-11-22,23.555153,120.486463,0.0070078224
C0SB10,美和,2025-11-22,22.682078,121.060236,0.0016264966
C2K620,馬光農場,2025-11-22,23.721453,120.378864,6.056881e-05
C1I140,卡奈托灣,2025-11-22,23.754364,121.087872,1.2279151e-09
C0I520,玉山風口,2025-11-22,23.470489,120.955994,1.3714834e-08
C1G691,下水埔,2025-11-22,23.816114,120.5676,0.000239537
C0X110,臺南市南區,2025-11-22,22.961189,120.188378,0.016993089
C0V680,仁武,2025-11-22,22.701083,120.347722,0.12942801
C2G840,北斗,2025-11-22,23.877586,120.514222,1.8837136e-05
C2TB90,長橋,2025-11-22,23.6874,121.46186,1.17114624e-07
C0R900,竹坑,2025-11-22,22.1385,120.7022,0.917987
C0K250,崙背,2025-11-22,23.75555,120.318925,0.86086315
C0G860,社頭,2025-11-22,23.897647,120.5862,0.00012188449
C0X150,安定,2025-11-22,23.102614,120.227839,5.3227222e-06
C0R590,里港,2025-11-22,22.77919,120.49459,8.093514e-05
C0E610,馬都安,2025-11-22,24.451272,120.930192,1.1530092e-09
C0E550,明德,2025-11-22,24.583486,120.885411,0.8272561
C0R150,三地門,2025-11-22,22.709889,120.639944,0.012335428
C0G910,花壇,2025-11-22,24.032076,120.549461,3.138551e-06
C1D400,鳥嘴山,2025-11-22,24.71909,121.28387,3.3433263e-08
C0K500,元長,2025-11-22,23.64981,120.315024,0.024457643
C0F0B0,石岡,2025-11-22,24.276061,120.777644,1.3197278e-08
C2V250,甲仙,2025-11-22,23.080106,120.591758,1.1356043e-07
C0SA20,金崙山,2025-11-22,22.567419,120.959667,2.1315085e-08
C0V350,溪埔,2025-11-22,22.738578,120.446797,2.9703946e-05
C0M660,溪口,2025-11-22,23.604131,120.403569,0.007987893
C1S880,壽卡,2025-11-22,22.238911,120.858903,0.99991935
72D680,桃改新埔分場,2025-11-22,24.834444,121.066111,0.566414
