站號,站名,日期,lat,lon,BLBTSLS
K2F750,種苗繁殖,2025-02-02,24.225972,120.800917,7.570277e-10
C0R170,屏東,2025-02-02,22.660269,120.494072,6.859739e-10
467990,馬祖,2025-02-02,26.169269,119.923419,8.411712e-08
C2E540,後龍,2025-02-02,24.606489,120.783933,1.6823233e-08
467300,東吉島,2025-02-02,23.25695,119.667467,0.98556066
G2F820,農業試驗所,2025-02-02,24.031261,120.688133,1.092993e-09
467410,臺南,2025-02-02,22.993239,120.204772,2.4439263e-08
C0V310,美濃,2025-02-02,22.898742,120.519153,4.194226e-10
E2S960,林試太麻里2,2025-02-02,22.598014,120.989761,7.968391e-09
72C440,桃園農改,2025-02-02,24.950944,121.030583,1.3991952e-08
C1H860,瑞岩,2025-02-02,24.123772,121.18345,1.03992255e-08
72G600,臺中農改,2025-02-02,24.003028,120.534389,7.043974e-09
72N100,臺南農改,2025-02-02,23.0605,120.342194,1.0856716e-08
72T250,花蓮農改,2025-02-02,23.975222,121.563889,2.5138265e-08
467620,蘭嶼,2025-02-02,22.036969,121.558339,0.96114826
K2E360,苗栗農改,2025-02-02,24.495722,120.829111,5.0711946e-09
467050,新屋,2025-02-02,25.006744,121.047486,1.3163114e-08
467550,玉山,2025-02-02,23.487614,120.959522,2.9819876e-08
466881,新北,2025-02-02,24.9593,121.52,1.7141425e-09
467540,大武,2025-02-02,22.355675,120.903789,6.0815026e-08
72Q010,高雄農改,2025-02-02,22.709333,120.525889,5.4267696e-10
U2H480,臺大溪頭,2025-02-02,23.670306,120.798194,4.6567417e-09
C0Z180,新城,2025-02-02,24.03946,121.60454,2.5968562e-08
B2N890,畜試所,2025-02-02,23.058972,120.336406,1.0856716e-08
467441,高雄,2025-02-02,22.7304,120.3125,7.349641e-08
