站號,站名,日期,lat,lon,BLBTSLS
K2F750,種苗繁殖,2025-01-08,24.225972,120.800917,2.6072375e-09
C0R170,屏東,2025-01-08,22.660269,120.494072,1.0823898e-09
467990,馬祖,2025-01-08,26.169269,119.923419,3.261334e-08
C2E540,後龍,2025-01-08,24.606489,120.783933,3.6091442e-05
467300,東吉島,2025-01-08,23.25695,119.667467,0.99897623
G2F820,農業試驗所,2025-01-08,24.031261,120.688133,6.3416083e-10
467410,臺南,2025-01-08,22.993239,120.204772,1.0452513e-09
C0V310,美濃,2025-01-08,22.898742,120.519153,1.125634e-09
E2S960,林試太麻里2,2025-01-08,22.598014,120.989761,3.67014e-08
72C440,桃園農改,2025-01-08,24.950944,121.030583,1.246533e-06
C1H860,瑞岩,2025-01-08,24.123772,121.18345,1.2567568e-08
72G600,臺中農改,2025-01-08,24.003028,120.534389,6.698699e-10
72N100,臺南農改,2025-01-08,23.0605,120.342194,6.2795485e-10
72T250,花蓮農改,2025-01-08,23.975222,121.563889,1.5036017e-08
467620,蘭嶼,2025-01-08,22.036969,121.558339,0.5397737
K2E360,苗栗農改,2025-01-08,24.495722,120.829111,4.9658104e-09
467050,新屋,2025-01-08,25.006744,121.047486,0.00010201297
467550,玉山,2025-01-08,23.487614,120.959522,3.2212917e-08
466881,新北,2025-01-08,24.9593,121.52,2.0761481e-08
467540,大武,2025-01-08,22.355675,120.903789,0.0002714412
72Q010,高雄農改,2025-01-08,22.709333,120.525889,1.1306951e-09
U2H480,臺大溪頭,2025-01-08,23.670306,120.798194,8.916739e-09
B2N890,畜試所,2025-01-08,23.058972,120.336406,6.2795485e-10
467441,高雄,2025-01-08,22.7304,120.3125,1.1914217e-09
