站號,站名,日期,lat,lon,BLBTSLS
C0R710,龍磐,2025-05-18,21.931672,120.838942,0.55849695
C1F9D1,白毛台,2025-05-18,24.158325,120.886933,5.3230167e-09
C0G940,竹塘,2025-05-18,23.848253,120.386764,7.037657e-06
467590,恆春,2025-05-18,22.003897,120.746339,0.13205074
C1O850,環湖,2025-05-18,23.148617,120.418633,6.1077844e-06
C0U710,太平山,2025-05-18,24.505486,121.525656,1.6523224e-08
C0E820,獅潭,2025-05-18,24.539133,120.920042,0.00039663343
C0V880,興達,2025-05-18,22.8778,120.2127,0.006037562
C0S890,關山,2025-05-18,23.0395,121.175017,0.5939534
C0SB30,新蘭,2025-05-18,22.869214,121.223228,0.9933455
C2R970,屏科大,2025-05-18,22.648275,120.619247,0.005960817
C1Z130,銅門,2025-05-18,23.965694,121.492842,0.9407025
C0AD40,土城,2025-05-18,24.973208,121.445169,0.9989405
CAN140,六官養殖協會,2025-05-18,23.22881,120.29962,0.013246641
C0X180,山上,2025-05-18,23.0757,120.363253,0.003973266
C0F9Z0,雪山東峰,2025-05-18,24.388792,121.268675,2.6565482e-08
C1M480,獨立山,2025-05-18,23.537022,120.607797,1.5766712e-09
C0X220,學甲,2025-05-18,23.230367,120.182187,0.008506254
467650,日月潭,2025-05-18,23.881325,120.90805,5.4936424e-09
C0K600,箔子寮,2025-05-18,23.6197,120.14,0.0023248773
C0G830,埤頭,2025-05-18,23.866003,120.452806,4.445893e-06
C0S950,七塊厝,2025-05-18,22.954453,121.229922,0.0006439685
467110,金門,2025-05-18,24.407306,118.289281,0.009180577
C0AH80,深坑,2025-05-18,25.002703,121.628328,0.9983823
C0A970,三貂角,2025-05-18,25.007606,122.002058,0.0007616873
C2D730,寶山農場,2025-05-18,24.732444,120.976153,3.454193e-06
C0K430,褒忠,2025-05-18,23.690938,120.303634,0.64119506
467480,嘉義,2025-05-18,23.495925,120.432906,0.00020149925
C0V400,阿公店,2025-05-18,22.804194,120.355528,0.99707675
467550,玉山,2025-05-18,23.48718,120.95943,2.5289175e-08
C0R440,大漢山,2025-05-18,22.405264,120.753181,1.4209067e-08
C0K280,四湖,2025-05-18,23.630414,120.227125,0.7286278
C1F9B1,桐林,2025-05-18,24.066172,120.735194,0.22623031
C2H9U0,鳳鵬,2025-05-18,23.763919,120.788061,9.43597e-09
C0K390,土庫,2025-05-18,23.679029,120.395574,5.2645655e-06
C1I450,望鄉山,2025-05-18,23.594153,120.944286,1.2929855e-08
C0E910,海埔,2025-05-18,24.648767,120.772435,0.018365614
B2E890,畜試北區分所,2025-05-18,24.527806,120.770972,0.0017463281
C0R750,四林格山,2025-05-18,22.076989,120.802439,0.9978847
C0F0C0,中坑,2025-05-18,24.248517,120.903319,3.803782e-09
C1I121,大鞍,2025-05-18,23.678381,120.760017,4.087414e-09
72U480,花改蘭陽分場,2025-05-18,24.686306,121.716583,0.0072354795
C0A770,科教館,2025-05-18,25.096356,121.516507,0.999304
C0AJ60,六塊厝,2025-05-18,25.24,121.4481,0.99899346
C0R620,墾雷,2025-05-18,21.900836,120.855269,0.72289735
467420,永康,2025-05-18,23.038386,120.2367,0.2262282
C0I410,名間,2025-05-18,23.837053,120.701447,5.4657914e-08
A2C560,農工中心,2025-05-18,24.985917,121.239833,2.5114048e-07
C0V740,旗山,2025-05-18,22.888614,120.483597,0.9978843
C0Z061,玉里,2025-05-18,23.3215,121.339656,0.98607063
C0S840,南田,2025-05-18,22.279725,120.889208,0.95963925
C1I470,杉林溪,2025-05-18,23.639517,120.786444,4.6996966e-09
C1X040,東原,2025-05-18,23.291597,120.463822,1.2569683e-07
C0R660,枋寮,2025-05-18,22.367722,120.590647,0.86906123
C1R120,上德文,2025-05-18,22.763272,120.704442,8.738159e-08
C0K450,大埤,2025-05-18,23.646074,120.431537,1.5107363e-05
C0UA00,土場,2025-05-18,24.576533,121.495333,1.0682957e-06
467080,宜蘭,2025-05-18,24.763975,121.756528,0.011843194
C0N030,四草,2025-05-18,23.0235,120.1116,0.005000308
467410,臺南,2025-05-18,22.99328,120.20492,0.027356252
C0V650,彌陀,2025-05-18,22.783806,120.246361,0.85939443
C0D660,新竹市東區,2025-05-18,24.798681,120.986942,3.678827e-05
82S580,茶改東部分場,2025-05-18,22.907694,121.130139,0.9169058
C0SB40,興隆,2025-05-18,22.913661,121.257469,0.9928537
467050,新屋,2025-05-18,25.006725,121.047492,1.3190229e-05
C0C710,大溪永福,2025-05-18,24.892936,121.324975,3.3877765e-07
C0FA20,溫寮,2025-05-18,24.372177,120.583125,0.7517789
C0V640,湖內,2025-05-18,22.887139,120.2445,0.0036103122
C0R910,下寮,2025-05-18,22.3929,120.5548,0.86665016
C0Z020,明里,2025-05-18,23.208717,121.262342,0.8774718
C0M770,嘉義梅山,2025-05-18,23.585398,120.555587,1.380611e-07
C0C660,楊梅,2025-05-18,24.912375,121.143047,6.0182906e-08
C1E511,新開,2025-05-18,24.347703,120.827019,1.977946e-06
G2F820,農試所(霧峰),2025-05-18,24.031261,120.688133,0.77430415
C1I070,和社,2025-05-18,23.591131,120.888861,2.163469e-08
C2F000,大肚,2025-05-18,24.15295,120.572117,2.2585473e-08
C1S850,豐南,2025-05-18,23.122139,121.262389,4.2018673e-05
C2A920,富貴角,2025-05-18,25.263783,121.565258,0.9622207
CAH030,茶改場竹圍站,2025-05-18,23.860083,120.637528,5.407306e-09
C0T960,光復,2025-05-18,23.660694,121.424964,0.99147314
C0F9M0,豐原,2025-05-18,24.254322,120.720692,0.00017703441
C0R720,旭海,2025-05-18,22.205403,120.887614,0.994778
C0V710,苓雅,2025-05-18,22.622742,120.330669,0.96835715
C0C740,觀音工業區,2025-05-18,25.064764,121.114856,0.0056833494
CAC040,拉拉山,2025-05-18,24.699317,121.427133,1.3317184e-08
C0V790,萬山,2025-05-18,22.905944,120.688056,1.3821003e-08
U2HA30,臺大和社,2025-05-18,23.590856,120.888864,2.163469e-08
C0AJ90,澳底,2025-05-18,25.0552,121.9253,0.12578548
C0Z100,東華,2025-05-18,23.89525,121.549833,0.9984955
C0G970,三豐,2025-05-18,23.882,120.2895,0.6338891
V2K610,大庄合作社,2025-05-18,23.8068,120.367939,0.6361326
C0V900,汕尾,2025-05-18,22.4782,120.4151,0.96352714
C1R630,龍泉,2025-05-18,22.66701,120.59091,0.1678796
C1AC50,關渡,2025-05-18,25.133486,121.469331,0.998662
C0F9I0,神岡,2025-05-18,24.272481,120.658314,3.3390552e-05
C0K460,斗南,2025-05-18,23.678734,120.478359,9.452838e-06
C2O810,曾文,2025-05-18,23.219681,120.497328,9.3565495e-07
467280,後龍,2025-05-18,24.648563,120.831834,0.0057534045
C1F9J1,清水林,2025-05-18,24.071242,120.820419,3.5393324e-09
C2A650,火燒寮,2025-05-18,25.002719,121.742892,3.884685e-06
466930,竹子湖,2025-05-18,25.162078,121.544547,1.553318e-08
C1I220,樟湖,2025-05-18,23.905333,120.846983,4.4015205e-09
C0I390,仁愛,2025-05-18,24.022122,121.132206,3.1561358e-09
C0Z300,東里,2025-05-18,23.26853,121.30547,0.9953955
C1V590,新發,2025-05-18,23.057019,120.646064,1.2562271e-08
C0K510,水林,2025-05-18,23.572924,120.24597,0.00058563176
72S590,東改賓朗果園,2025-05-18,22.813889,121.071278,0.19973113
82A750,茶改北部分場,2025-05-18,24.955778,121.631222,2.3007864e-07
C1A750,石碇服務區,2025-05-18,25.00872,121.646242,0.9994115
C0X300,鹿寮,2025-05-18,23.386047,120.477331,8.5442474e-07
G2AI50,關渡,2025-05-18,25.11575,121.492,0.99956775
C0K590,雲林東勢,2025-05-18,23.674192,120.255721,0.5176829
C0A570,桶後,2025-05-18,24.848222,121.597992,2.1087437e-06
C1S800,華源,2025-05-18,22.657883,121.02325,0.9963023
C0G720,溪州,2025-05-18,23.851589,120.499093,1.7682293e-06
C1V160,達卡努瓦,2025-05-18,23.279811,120.705319,4.1477684e-09
C2M410,馬頭山,2025-05-18,23.324361,120.582017,3.7002447e-08
C0V850,蚵仔寮,2025-05-18,22.7256,120.2527,0.9646409
C0S740,池上,2025-05-18,23.119628,121.209469,0.646133
C1V390,尖山,2025-05-18,22.813153,120.367789,0.9941551
C0AH70,松山,2025-05-18,25.04871,121.55042,0.99923694
C0N010,鯤鯓國小,2025-05-18,23.1879,120.0889,0.014571324
C0R550,新埤,2025-05-18,22.467947,120.582894,0.96062183
C0SA60,知本（水試所）,2025-05-18,22.702394,121.082761,0.9911751
C0T9I0,豐濱,2025-05-18,23.583897,121.514806,0.9938058
C0UB00,淡江大學蘭陽校園,2025-05-18,24.823239,121.730383,4.1862062e-08
C0W240,九宮,2025-05-18,24.423753,118.240186,0.0104794055
C0T9N0,富里,2025-05-18,23.171639,121.249378,0.99668795
U2HA50,臺大竹山,2025-05-18,23.756972,120.681556,6.6325185e-08
C0V840,鳳鼻頭,2025-05-18,22.5083,120.3591,0.9924631
C0X140,西港,2025-05-18,23.125608,120.203108,0.017990991
72D080,桃改五峰分場,2025-05-18,24.612194,121.157167,4.6954227e-09
C2H9P0,伊拿谷,2025-05-18,23.963211,121.088264,5.5573928e-09
C2H9F0,柑林,2025-05-18,24.018658,120.847072,5.0285855e-08
C0TA20,加灣,2025-05-18,24.082025,121.608944,0.9968092
C0V530,阿蓮,2025-05-18,22.883208,120.327508,0.012486631
C1O880,關山,2025-05-18,23.173397,120.594092,2.6644136e-08
C0E791,卓蘭,2025-05-18,24.3126,120.8244,5.2047926e-07
C1I030,武界,2025-05-18,23.913225,121.052483,5.340885e-09
C0R520,崁頂,2025-05-18,22.514781,120.506914,0.9986687
C0R341,牡丹,2025-05-18,22.130036,120.792639,0.98623204
C0R930,萬丹,2025-05-18,22.5885,120.4851,0.9991351
C0S760,紅石,2025-05-18,23.069131,121.126219,1.5240733e-08
C2C410,中央大學,2025-05-18,24.967652,121.185165,2.2148319e-07
C1M610,石磐龍,2025-05-18,23.496606,120.663506,2.3921205e-09
C0UA10,鴛鴦湖,2025-05-18,24.590269,121.412228,1.4437646e-08
V2C260,八德蔬果,2025-05-18,24.978508,121.281819,1.9739856e-07
C0R800,丹路,2025-05-18,22.204481,120.750989,0.9965967
C0G920,永靖,2025-05-18,23.924703,120.547533,0.011146431
C2M950,太和,2025-05-18,23.538372,120.702961,2.7449554e-09
C1A630,下盆,2025-05-18,24.771003,121.538622,9.901986e-09
B2N890,畜產試驗所,2025-05-18,23.058972,120.336406,0.042913206
C0UA30,白嶺,2025-05-18,24.527819,121.519031,1.2855101e-08
C1V580,溪南(特生中心),2025-05-18,23.084972,120.788475,6.3142975e-09
C1T970,大農,2025-05-18,23.615233,121.413331,0.89939106
C0R650,竹田,2025-05-18,22.58486,120.54344,0.99927884
C1H900,清流,2025-05-18,24.080775,120.962997,5.2298867e-09
C1C510,水尾,2025-05-18,24.940081,121.087161,6.7163154e-07
C0F9X0,大雅(中科園區),2025-05-18,24.21528,120.62445,0.014639582
C0SB60,白守蓮,2025-05-18,23.126769,121.401914,0.9937486
C0O970,虎頭埤,2025-05-18,23.021375,120.347878,0.0035993422
C0C730,中大臨海站,2025-05-18,24.966126,121.008581,2.0872989e-05
C0X250,新營,2025-05-18,23.310689,120.316681,0.008662974
C0V700,三民,2025-05-18,22.645017,120.311233,0.70622146
C0U870,大礁溪,2025-05-18,24.791042,121.675047,1.7606972e-08
C0E870,高鐵苗栗,2025-05-18,24.60725,120.826094,0.2163135
A2K570,古坑花卉中心,2025-05-18,23.63353,120.55239,9.206589e-07
C0TA30,鹽寮,2025-05-18,23.845606,121.592664,0.9983703
C0M860,新美,2025-05-18,23.338017,120.683169,3.338233e-09
C1E701,八卦,2025-05-18,24.491756,120.927619,3.9567642e-09
C0I420,國姓,2025-05-18,24.037803,120.855072,3.3124778e-08
C2D720,關西工作站,2025-05-18,24.757275,121.184792,1.9957292e-07
C0S960,香蘭,2025-05-18,22.587569,120.993375,0.9876278
467620,蘭嶼,2025-05-18,22.0369,121.55843,0.22701566
C0R260,春日,2025-05-18,22.370361,120.628306,0.8743115
72G600,臺中農改場,2025-05-18,24.003028,120.534389,0.031182015
C0Z210,瑞穗,2025-05-18,23.5239,121.39021,0.997834
C0M820,達邦,2025-05-18,23.453994,120.749517,2.7604967e-09
C0V860,南寮,2025-05-18,22.7616,120.2339,0.96444076
C0G740,大城,2025-05-18,23.852487,120.320935,0.58482516
C0R920,塭仔,2025-05-18,22.4169,120.5197,0.86447614
C0R470,高樹,2025-05-18,22.826389,120.600806,0.013197448
C0R680,佳樂水,2025-05-18,21.993578,120.861633,0.8641782
C1O870,大棟山,2025-05-18,23.31157,120.52226,4.3301167e-09
C0D360,梅花,2025-05-18,24.678347,121.208558,2.8379365e-08
C0Z190,富世,2025-05-18,24.14743,121.6297,0.11681566
C0AI10,屈尺,2025-05-18,24.92184,121.54475,0.9986478
B2U990,畜試東區分所,2025-05-18,24.669039,121.832561,0.0034774127
C0SB80,長濱漁港,2025-05-18,23.313644,121.459994,0.9987846
C0R240,來義,2025-05-18,22.527306,120.625111,0.9953039
C0V910,大樹,2025-05-18,22.684645,120.432803,0.13600796
C1R610,西大武山,2025-05-18,22.617719,120.7322,1.9138087e-08
C0G900,線西,2025-05-18,24.143358,120.443536,0.8953191
C0M700,竹崎,2025-05-18,23.526178,120.555508,1.462444e-07
C2E880,三義,2025-05-18,24.405478,120.749819,2.8974446e-08
C0C720,竹圍,2025-05-18,25.112692,121.239824,0.9995638
C0F9P0,清水,2025-05-18,24.312297,120.562242,0.8143089
C0Z150,吉安光華,2025-05-18,23.930925,121.595153,0.9979047
467300,東吉島,2025-05-18,23.25727,119.66762,0.9998032
C1D640,外坪(五指山),2025-05-18,24.644447,121.090961,1.0935316e-08
C0F9O0,潭子,2025-05-18,24.213106,120.703933,0.0008167408
C2H9R0,卓社,2025-05-18,23.887894,121.000086,4.3763233e-09
72T250,花蓮農改場,2025-05-18,23.975222,121.563889,0.9989874
C0E780,銅鑼,2025-05-18,24.489681,120.790853,0.00013152402
C1T950,太安,2025-05-18,23.666719,121.370128,1.2690221e-08
C0E830,苑裡,2025-05-18,24.439714,120.653053,0.7495443
467270,田中,2025-05-18,23.873803,120.581286,3.545423e-06
C0SA10,檳榔四格山,2025-05-18,22.810031,121.109308,0.01005431
C1T830,布洛灣,2025-05-18,24.17184,121.57127,9.745178e-05
C0F970,大坑,2025-05-18,24.173142,120.722289,0.0005059319
C1U920,思源,2025-05-18,24.393125,121.347214,8.979837e-09
C0A931,三和,2025-05-18,25.233153,121.595236,0.99699503
C0I010,廬山,2025-05-18,24.033311,121.181808,3.936447e-09
C2M940,日野賀,2025-05-18,23.434056,120.727169,2.6946423e-09
C0R860,鼻頭,2025-05-18,22.1043,120.8979,0.076702595
C0UB20,壯圍,2025-05-18,24.7359,121.8163,0.020420058
C0R790,九棚,2025-05-18,22.14195,120.889281,0.99206245
C0W110,東莒,2025-05-18,25.9652,119.98069,0.0057265717
C1U930,粉鳥林,2025-05-18,24.497088,121.842479,0.72185653
C1I211,蘆竹湳,2025-05-18,23.934019,120.811994,4.463992e-09
C0S830,長濱,2025-05-18,23.286817,121.411975,0.24201058
C1F9F1,伯公龍,2025-05-18,24.272392,120.849047,2.67744e-08
C0E810,西湖,2025-05-18,24.562947,120.7485,0.0691173
C1I440,新高口,2025-05-18,23.478744,120.878939,8.245362e-09
C0O840,王爺宮,2025-05-18,23.222064,120.40085,2.3881228e-06
C0T9G0,鳳林山,2025-05-18,23.735269,121.420131,6.095228e-08
C0X080,佳里,2025-05-18,23.173039,120.145086,0.015368761
C0FB70,大甲溪埔,2025-05-18,24.370625,120.620067,0.76884687
C0Z310,清水斷崖,2025-05-18,24.218294,121.689142,0.0002116574
C0M680,太保,2025-05-18,23.455062,120.331455,0.00065890147
C1S820,金峰,2025-05-18,22.590969,120.933236,0.99675643
C0AD10,八里,2025-05-18,25.150211,121.403947,0.999569
C2K240,草嶺,2025-05-18,23.59555,120.693461,2.2706836e-09
C1SA70,都蘭,2025-05-18,22.87794,121.226881,0.99286014
C0K440,二崙,2025-05-18,23.772797,120.408944,6.431937e-06
C1A760,坪林交控,2025-05-18,24.94284,121.713442,1.2708998e-05
C0F9N0,大里,2025-05-18,24.092464,120.701378,5.059102e-07
C0SA90,達仁林場,2025-05-18,22.264347,120.823972,0.0005489432
C1R290,石門山,2025-05-18,22.112611,120.756597,0.7514134
42HA10,萬大發電廠,2025-05-18,23.978875,121.139639,4.4235455e-09
C0R890,山海,2025-05-18,21.9878,120.7091,0.96267235
C0T9A0,月眉山,2025-05-18,23.809928,121.539828,4.908142e-07
C0AC70,信義,2025-05-18,25.037822,121.564597,0.9992391
C0K560,棋山,2025-05-18,23.68645,120.603417,5.144837e-07
C2FB50,出雲,2025-05-18,24.206469,120.902794,5.4280864e-09
C1Z240,中平林道,2025-05-18,23.42115,121.26763,7.3927438e-09
U2H480,溪頭,2025-05-18,23.670306,120.798194,5.031183e-09
C0M880,好美里,2025-05-18,23.3364,120.138,0.011098072
C0T9E0,大坑,2025-05-18,23.880628,121.581981,4.7694084e-06
C0K530,臺西,2025-05-18,23.701547,120.197559,0.87314266
C1E900,國一N128K,2025-05-18,24.560997,120.844186,0.003475386
C0AJ50,水湳洞,2025-05-18,25.123695,121.862238,0.9995654
C0AI20,白沙灣,2025-05-18,25.283128,121.519058,0.99881667
C2V310,美濃,2025-05-18,22.898792,120.51907,0.99837357
C0A860,大坪,2025-05-18,25.165914,121.632969,5.6495868e-08
C1U850,觀音海岸,2025-05-18,24.38319,121.77856,6.0231917e-09
C2K610,草嶺石壁,2025-05-18,23.602469,120.707731,2.2864555e-09
C0U950,鶯子嶺,2025-05-18,24.89754,121.79244,2.3560236e-08
C0O900,善化,2025-05-18,23.112883,120.297219,0.115817785
C0K550,蔦松,2025-05-18,23.514319,120.229736,0.00063608575
E2P980,林試六龜中心,2025-05-18,22.991703,120.645722,3.8653805e-08
C0E590,通霄,2025-05-18,24.471892,120.704622,0.012567913
C1I310,西巒,2025-05-18,23.754486,120.883956,3.817279e-09
C0A550,泰平,2025-05-18,24.971197,121.823711,1.005378e-07
C0I360,水里,2025-05-18,23.812553,120.849792,9.8547694e-09
C0R830,高士,2025-05-18,22.121825,120.836781,0.909266
C1I101,溪頭,2025-05-18,23.661789,120.807647,5.014762e-09
C0AJ20,野柳,2025-05-18,25.20703,121.690021,0.9995623
C0B060,暖暖,2025-05-18,25.0957,121.7403,0.9994491
C1H920,長豐,2025-05-18,24.102039,120.879897,3.0128353e-09
C0V360,內門,2025-05-18,22.975481,120.466769,0.0012699576
C0R850,林邊,2025-05-18,22.4634,120.5339,0.9627864
C0E930,龍鳳,2025-05-18,24.700034,120.859125,0.0482597
C0U910,冬山,2025-05-18,24.63373,121.7937,0.0034774127
C1E721,泰安,2025-05-18,24.489017,120.968036,4.909811e-09
82H320,茶改中部分場,2025-05-18,23.875611,120.913583,7.0476696e-09
C0M750,布袋,2025-05-18,23.380878,120.167789,0.0018855267
C1S860,利嘉,2025-05-18,22.809417,121.050528,0.0001551425
E2S980,林試太麻里1,2025-05-18,22.598922,120.980044,0.995764
C0X170,關廟,2025-05-18,22.963017,120.327797,0.025608812
C0V720,林園,2025-05-18,22.507747,120.394511,0.9819157
C1I510,線浸林道,2025-05-18,23.761508,120.832956,3.1502059e-09
C0D690,外湖,2025-05-18,24.917735,120.968711,3.632246e-06
C0C750,新興坑尾,2025-05-18,25.0061,121.0971,4.8836014e-06
B2Q810,畜試南區分所,2025-05-18,21.945583,120.802167,0.878922
C0S790,金崙,2025-05-18,22.538122,120.966875,0.99906003
C0AH90,福山植物園,2025-05-18,24.760717,121.58135,8.699109e-09
C0I540,奇萊稜線,2025-05-18,24.109231,121.326456,2.2388392e-08
C0M850,表湖,2025-05-18,23.24186,120.64166,2.024235e-09
C0S770,大溪山,2025-05-18,22.478475,120.943325,0.90483326
C0AG80,中和,2025-05-18,24.991622,121.491792,0.9989244
C0T790,大禹嶺,2025-05-18,24.186117,121.316086,1.4508563e-08
C0T9B0,水源,2025-05-18,23.991861,121.537169,1.3202067e-07
C0R840,牡丹池山,2025-05-18,22.168389,120.841225,0.0010712153
C1I131,桶頭,2025-05-18,23.641944,120.654117,1.5654082e-08
CAL110,布袋國中,2025-05-18,23.35893,120.18026,0.020511521
467571,新竹,2025-05-18,24.827853,121.014219,5.712465e-07
C0Z290,赤柯山,2025-05-18,23.36893,121.38293,5.0139036e-08
C0X280,將軍,2025-05-18,23.214999,120.13577,0.00939614
C0S690,太麻里,2025-05-18,22.60902,120.98533,0.11390973
C0U880,北關,2025-05-18,24.9072,121.8734,0.99957734
C0G810,埔心,2025-05-18,23.947633,120.525456,0.013084614
C0U970,大福,2025-05-18,24.80064,121.81389,0.016860653
C2H9N0,仁愛東眼,2025-05-18,24.026875,121.1205,3.6487309e-09
C1E670,南礦,2025-05-18,24.538278,121.002836,5.4426006e-09
C0M520,東後寮,2025-05-18,23.369908,120.248065,0.016824149
C1E461,松安,2025-05-18,24.397972,120.986022,5.008587e-09
C2N160,西拉雅風管處,2025-05-18,23.189481,120.335297,0.0031100153
C2M970,碧湖,2025-05-18,23.568632,120.624165,2.2966393e-09
C0A640,石碇,2025-05-18,24.993969,121.662917,2.3555403e-05
E2S960,林試太麻里2,2025-05-18,22.598,120.99775,0.986033
C0F9Y0,桃山,2025-05-18,24.432739,121.303808,2.9454931e-08
C1I020,萬大,2025-05-18,23.979817,121.132261,3.1556302e-09
C0U940,羅東,2025-05-18,24.68184,121.74934,0.01019663
C0M650,朴子,2025-05-18,23.43463,120.23902,0.0012029532
C1I500,大尖山,2025-05-18,23.858572,120.994889,7.593391e-09
C0G820,田尾,2025-05-18,23.901669,120.509389,0.0129345115
E2K600,四湖植物園,2025-05-18,23.676986,120.163433,0.7273292
C0S730,綠島,2025-05-18,22.6672,121.47533,0.99935836
12Q970,東港工作站,2025-05-18,22.479997,120.466058,0.96453196
C0E430,南庄,2025-05-18,24.601775,121.000214,0.00027302577
C1TA00,太魯閣,2025-05-18,24.15773,121.6236,0.017220119
466920,臺北,2025-05-18,25.037658,121.514853,0.99923694
C0R600,舊泰武,2025-05-18,22.588194,120.664944,1.2867366e-08
C1I260,北坑,2025-05-18,23.9246,121.006903,3.8764756e-09
466910,鞍部,2025-05-18,25.182586,121.529731,1.3068901e-08
C1I230,九份二山,2025-05-18,23.961944,120.845,6.574352e-09
C2A660,瑞芳,2025-05-18,25.113169,121.801147,0.9992201
C0R270,琉球嶼,2025-05-18,22.332244,120.362236,0.9270132
C1T990,高寮,2025-05-18,23.394239,121.356808,0.9981871
C0G620,芬園,2025-05-18,24.015678,120.6213,0.0005670905
C1Z140,荖溪,2025-05-18,23.890575,121.45964,3.648928e-08
C1I201,中心崙,2025-05-18,23.728722,120.712097,2.2649698e-09
C1I400,凌霄,2025-05-18,24.018778,121.004456,3.5851124e-09
C1M640,十字,2025-05-18,23.492153,120.753683,3.1139087e-09
G2P820,農試鳳山分所,2025-05-18,22.646611,120.356083,0.67711973
C0Z270,蕃薯寮,2025-05-18,23.73835,121.540108,0.00017653225
C0F9Q0,外埔,2025-05-18,24.347817,120.705686,8.569783e-05
C0K580,高鐵雲林,2025-05-18,23.737456,120.417944,6.534527e-06
C2I090,鳳凰,2025-05-18,23.728081,120.787347,4.9472617e-09
C0U990,員山,2025-05-18,24.74435,121.72247,0.013251285
C0V770,大社,2025-05-18,22.730306,120.346639,0.95173377
C0X120,麻豆,2025-05-18,23.183289,120.248611,0.008015846
C0C670,龍潭,2025-05-18,24.870056,121.221389,7.295673e-08
C0D680,香山濕地,2025-05-18,24.783581,120.914988,0.000113208036
C0S980,勝林山,2025-05-18,22.430439,120.8938,2.0707523e-07
C0V730,大寮,2025-05-18,22.605614,120.395717,0.95907074
C0R570,麟洛,2025-05-18,22.65078,120.52719,0.33287528
C2M930,石卓,2025-05-18,23.478744,120.702264,3.8349905e-09
C0G9B0,和美,2025-05-18,24.105169,120.492131,0.03522853
CAG100,王功漁港,2025-05-18,23.96824,120.32586,0.4443289
C0X290,北門,2025-05-18,23.267772,120.125481,0.009919128
C2F930,大甲,2025-05-18,24.347667,120.640403,0.47209373
C0D650,湖口,2025-05-18,24.904794,121.043628,7.852735e-07
C0E420,竹南,2025-05-18,24.708978,120.888897,0.008295139
C0U780,五結,2025-05-18,24.68637,121.79794,0.02052706
C1I250,鯉潭,2025-05-18,23.961922,120.991131,3.2486236e-09
C0R130,阿禮,2025-05-18,22.742908,120.743678,2.0535577e-08
C0X100,臺南市北區,2025-05-18,23.010394,120.194228,0.06195858
C0S920,金峰嘉蘭,2025-05-18,22.594789,120.960825,0.99575603
C0V490,新興,2025-05-18,22.627422,120.298803,0.9722937
C0F9K0,大安,2025-05-18,24.345061,120.588025,0.7658693
467290,古坑,2025-05-18,23.633639,120.551889,9.206589e-07
C2E970,八甲,2025-05-18,24.535811,120.795983,9.4224306e-05
C0V440,鳳山,2025-05-18,22.646653,120.356122,0.67711973
C1T940,大觀,2025-05-18,23.714206,121.373133,3.9036746e-07
C0E740,造橋,2025-05-18,24.637056,120.864778,0.008818271
C0R100,尾寮山,2025-05-18,22.833111,120.683889,2.0971862e-08
A2K630,臺大雲林校區,2025-05-18,23.730628,120.423903,6.2324675e-06
467990,馬祖,2025-05-18,26.169467,119.923158,4.5330985e-08
C0D580,寶山,2025-05-18,24.735006,121.025192,2.0562484e-06
E2P990,林試扇平站,2025-05-18,22.9677,120.6857,2.1061053e-08
C0AI30,三重,2025-05-18,25.057328,121.500629,0.999304
C0AH00,汐止,2025-05-18,25.066881,121.658778,0.99923694
C1Z040,立山,2025-05-18,23.443356,121.327375,3.5585188e-06
466881,新北,2025-05-18,24.959207,121.525196,0.998749
C0W130,花嶼,2025-05-18,23.40007,119.32276,0.99930745
C0A950,鼻頭角,2025-05-18,25.129036,121.923372,0.62858933
C0K470,林內,2025-05-18,23.748675,120.609642,7.851799e-07
C2F990,摩天嶺,2025-05-18,24.322458,120.936819,5.961223e-09
82C160,茶改場,2025-05-18,24.908472,121.185333,4.499795e-08
C0Z320,清水林道,2025-05-18,23.27125,121.188272,3.6321174e-07
C0R760,南仁湖,2025-05-18,22.084681,120.863353,0.7622321
C0M670,大林,2025-05-18,23.600616,120.45841,0.00020629105
C0M800,茶山,2025-05-18,23.299075,120.664767,6.9771033e-09
C0A9C0,天母,2025-05-18,25.117494,121.537169,0.9994855
72K220,南改斗南分場,2025-05-18,23.634556,120.477333,6.249955e-06
72AI40,桃改樹林分場,2025-05-18,24.944503,121.386972,0.036162153
C0S910,蘭嶼燈塔,2025-05-18,22.081197,121.503117,0.18163733
C0B050,八斗子,2025-05-18,25.144754,121.79167,0.999638
C0U900,內城,2025-05-18,24.71813,121.68766,0.0041534384
C0X320,柳營,2025-05-18,23.253328,120.375253,0.00030350304
C0M790,新港,2025-05-18,23.553269,120.345728,0.00020188521
C0F9T0,西屯,2025-05-18,24.179494,120.641275,0.6139389
C0SA30,都歷,2025-05-18,23.020333,121.323642,0.997994
C0C620,蘆竹,2025-05-18,25.084275,121.265767,0.9994744
C0R730,大坪頂,2025-05-18,22.024633,120.69355,0.15449166
C0AJ40,石門,2025-05-18,25.273672,121.601198,0.98866194
C0E750,苗栗,2025-05-18,24.564569,120.824575,0.00407111
C0T870,鯉魚潭,2025-05-18,23.935639,121.508944,0.9929166
C1V170,排雲,2025-05-18,23.463619,120.954147,2.1466983e-08
C2H950,中寮,2025-05-18,23.884447,120.766406,0.06556257
C0R350,貓鼻頭,2025-05-18,21.921774,120.7358,0.9047844
C0V660,岡山,2025-05-18,22.797078,120.294958,0.8593358
C1H941,雙冬,2025-05-18,23.967378,120.802189,3.778402e-09
C0AJ70,田寮,2025-05-18,25.2698,121.4886,0.99883443
C0AI00,五股,2025-05-18,25.07445,121.42728,2.0645186e-06
C0Z280,德武,2025-05-18,23.47426,121.41071,0.90221363
C0R700,枋山,2025-05-18,22.246844,120.661086,0.9451648
C0C460,復興,2025-05-18,24.820208,121.352281,3.5422453e-08
E2H360,蓮華池,2025-05-18,23.918333,120.885278,3.241512e-09
C0M640,中埔,2025-05-18,23.42538,120.5229,5.6512246e-08
C0W140,金沙,2025-05-18,24.488292,118.408778,0.46889114
C2A540,四堵,2025-05-18,24.8926,121.745736,1.3867007e-07
C0ACA0,新莊,2025-05-18,25.051478,121.446756,0.99820644
C0R220,潮州,2025-05-18,22.534361,120.54,0.9985154
U2HA40,臺大內茅埔,2025-05-18,23.689722,120.851117,9.329792e-09
467490,臺中,2025-05-18,24.145736,120.684075,0.6244112
C0U960,翠峰湖,2025-05-18,24.510856,121.608044,1.7612043e-08
E2HA20,林試畢祿溪站,2025-05-18,24.226944,121.308522,1.08806395e-08
C0V890,前鎮,2025-05-18,22.5718,120.3117,0.97483283
C1F941,雪嶺,2025-05-18,24.280586,121.026642,1.6522845e-08
C2H9E0,國姓南港,2025-05-18,23.911108,120.846556,4.4081743e-09
C0AC80,文山,2025-05-18,25.00235,121.575728,0.99839926
C0F9R0,龍井,2025-05-18,24.184536,120.528972,0.863603
C0M760,民雄,2025-05-18,23.551754,120.428457,0.00039967216
C0UA40,西德山,2025-05-18,24.560647,121.752608,1.3942374e-08
C1T920,中興,2025-05-18,23.769503,121.498653,0.9974464
C0D550,雪霸,2025-05-18,24.526972,121.11605,9.156897e-09
C2F860,梨山,2025-05-18,24.247522,121.243669,1.1205363e-08
C0R320,車城,2025-05-18,22.0744,120.716247,0.94880784
C1S870,南美山,2025-05-18,23.15025,121.382333,0.99754834
C0B020,基隆嶼,2025-05-18,25.19141,121.78391,0.9997152
C1U501,牛鬥,2025-05-18,24.637836,121.573656,1.39362855e-05
C0M730,嘉義市東區,2025-05-18,23.457673,120.460531,7.97202e-05
C0S700,知本,2025-05-18,22.684866,121.005642,0.0004066148
C1N001,沙崙,2025-05-18,22.935472,120.309406,0.03904741
C0V760,橋頭,2025-05-18,22.757806,120.30575,0.9596102
C0G960,福寶,2025-05-18,24.0443,120.3814,0.05795969
C0X210,白河,2025-05-18,23.347466,120.414427,8.0087164e-05
C0S810,東河,2025-05-18,22.972672,121.303986,0.9974199
C2R170,屏東,2025-05-18,22.66027,120.49403,0.33873695
C0R670,楓港,2025-05-18,22.190131,120.692156,0.9931725
C0FA50,霧峰,2025-05-18,24.0419,120.6995,0.7224356
C0UB10,蘇澳,2025-05-18,24.5969,121.8571,0.08846984
C0G950,防潮門,2025-05-18,24.1835,120.4871,0.85757875
C0M740,六腳,2025-05-18,23.492871,120.290625,0.0004461873
C1R250,力里,2025-05-18,22.428117,120.629228,0.96127445
C0K330,虎尾,2025-05-18,23.719183,120.442036,3.6240492e-06
C2FA00,烏石坑,2025-05-18,24.273503,120.947617,6.0142376e-09
C0V620,永安,2025-05-18,22.82315,120.236856,0.85939443
C1I330,楓樹林,2025-05-18,23.986803,121.076117,3.2282834e-09
C0W200,湖西,2025-05-18,23.596314,119.67275,0.9996928
72Q010,高雄農改場,2025-05-18,22.709333,120.525889,0.25378218
C0SA40,瑞和,2025-05-18,22.974361,121.156697,0.8093989
C0C680,龜山,2025-05-18,25.02846,121.38656,1.8365785e-06
C2V260,月眉,2025-05-18,22.971003,120.539853,0.0014245333
C0V450,鳳森,2025-05-18,22.545064,120.392592,0.96453536
C0U720,南山,2025-05-18,24.43742,121.38167,1.3377596e-08
A2N290,臺南蘭花園區,2025-05-18,23.340258,120.379661,0.0011642023
C0R560,新園,2025-05-18,22.5434,120.461558,0.9819157
C0U890,三星,2025-05-18,24.66812,121.65302,0.002149073
C1V300,御油山,2025-05-18,23.001983,120.715364,6.040921e-09
C0U600,礁溪,2025-05-18,24.817539,121.765608,0.0071504326
C1T980,龍澗,2025-05-18,24.023289,121.411328,2.6914334e-08
C0D670,海天一線,2025-05-18,24.831986,120.914438,0.0109917475
C0SA00,歷坵,2025-05-18,22.520969,120.89185,0.022452982
C0M710,東石,2025-05-18,23.458927,120.15385,0.0007808321
C0M780,鹿草,2025-05-18,23.41134,120.30835,0.0006276748
C0U520,雙連埤,2025-05-18,24.753033,121.641303,1.690861e-08
C0B010,七堵,2025-05-18,25.094819,121.71713,0.9996833
C0R480,長治,2025-05-18,22.693128,120.542622,0.0641428
C1V830,國三S383K,2025-05-18,22.781967,120.426475,0.0012900414
12Q980,恆春工作站,2025-05-18,22.079678,120.714425,0.9485365
C1O940,東山服務區,2025-05-18,23.286016,120.398472,0.000108023094
C1U840,東澳嶺,2025-05-18,24.5378,121.8485,9.1817665e-09
C1D630,飛鳳山,2025-05-18,24.766464,121.119178,3.3070865e-08
C0S940,石寧山,2025-05-18,23.223772,121.406639,0.9988149
C0K410,北港,2025-05-18,23.573957,120.292802,0.00047818103
C2M620,瑞里,2025-05-18,23.545133,120.675197,2.537304e-09
C0SB70,小港漁港,2025-05-18,23.158558,121.400431,0.99778026
C2O950,安南,2025-05-18,23.076694,120.144861,0.012126966
C0F0E0,南湖圈谷,2025-05-18,24.363714,121.444667,3.516228e-08
467610,成功,2025-05-18,23.097486,121.373428,0.99681604
C0G890,伸港,2025-05-18,24.148933,120.484403,0.89709926
C2E540,龍溪,2025-05-18,24.606489,120.783933,0.25827196
C1V200,梅山,2025-05-18,23.268447,120.823556,5.390634e-09
C0T9H0,加路蘭山,2025-05-18,23.682947,121.5274,3.6658932e-08
C2O930,玉井,2025-05-18,23.126042,120.46055,1.076796e-05
C1F911,新伯公,2025-05-18,24.221361,120.841069,1.0819119e-07
C0R490,九如,2025-05-18,22.7405,120.490503,0.2619084
C0X200,左鎮,2025-05-18,23.056758,120.408522,0.9744419
C0SB50,叭嗡嗡,2025-05-18,23.047062,121.343223,0.999212
C1F891,稍來,2025-05-18,24.265689,121.001142,1.09559215e-08
72N240,七股研究中心,2025-05-18,23.081672,120.062894,0.0019097823
C0C700,中壢,2025-05-18,24.977661,121.256375,1.5706486e-07
C0M690,水上,2025-05-18,23.419734,120.388909,0.00029879823
C0V690,鼓山,2025-05-18,22.623325,120.275575,0.97358656
C0O860,大內,2025-05-18,23.11885,120.36083,0.050410282
C0Z200,萬榮,2025-05-18,23.709219,121.420106,0.53919256
C0T9D0,和中,2025-05-18,24.26676,121.74103,0.9055815
C1O921,楠西,2025-05-18,23.183511,120.484083,2.5662332e-06
C0AJ30,淡水觀海,2025-05-18,25.184591,121.408616,0.99950737
C0V810,左營,2025-05-18,22.67491,120.28491,0.7074371
C0UA70,桃源谷,2025-05-18,24.962606,121.888875,3.1271355e-08
C0X130,官田,2025-05-18,23.193217,120.315422,0.004244392
C1H000,翠峰,2025-05-18,24.109397,121.205211,1.1538545e-08
C0UA90,石城,2025-05-18,24.980444,121.951214,0.007142021
C1E681,南勢山,2025-05-18,24.421669,120.923831,3.6043377e-09
C0A9F0,內湖,2025-05-18,25.079422,121.57545,0.99923694
C0K291,宜梧,2025-05-18,23.536281,120.169329,0.00071091764
C1K540,口湖,2025-05-18,23.585344,120.180517,0.0025523675
C0R780,滿州,2025-05-18,22.024403,120.839892,0.11480892
C0V870,文安,2025-05-18,22.8025,120.2164,0.8662707
C0U650,玉蘭,2025-05-18,24.675286,121.587061,2.2765262e-08
C0R640,東港,2025-05-18,22.46247,120.44074,0.9640788
C0AJ80,板橋,2025-05-18,25.0107,121.4489,0.9990717
C0S660,下馬,2025-05-18,23.150427,121.070312,9.93214e-08
C1H9B1,阿眉,2025-05-18,24.1263,120.994672,1.14505205e-08
C0UA20,多加屯,2025-05-18,24.368614,121.373189,1.4964977e-08
C0E730,頭份,2025-05-18,24.688247,120.912206,0.012097212
72V140,高改旗南分場,2025-05-18,22.857861,120.516667,0.060327236
C0K480,莿桐,2025-05-18,23.761192,120.502372,3.350171e-06
C0U980,坪林石牌,2025-05-18,24.86478,121.77396,1.7593006e-08
C0T900,西林,2025-05-18,23.8119,121.441458,0.26430735
C1I150,青雲,2025-05-18,23.793361,120.949378,5.2309344e-09
467350,澎湖,2025-05-18,23.565503,119.563094,0.99935937
C0G800,埔鹽,2025-05-18,24.000394,120.431683,0.022287542
C0H960,草屯,2025-05-18,23.973672,120.68085,0.4277115
C1V780,多納林道,2025-05-18,22.888028,120.737917,3.5425405e-09
C0E920,通霄漁港,2025-05-18,24.498589,120.673876,0.55879277
C0Z330,安通山,2025-05-18,23.290728,121.348528,4.0993797e-05
C0AH10,永和,2025-05-18,25.01125,121.508111,0.999068
C0AK10,太平里,2025-05-18,25.134937,121.364899,0.99955
C2G640,鹿港,2025-05-18,24.0753,120.430481,0.05735976
C1E890,國三N149K,2025-05-18,24.463414,120.680019,0.027308472
C1R110,口社,2025-05-18,22.770111,120.645222,0.0054229684
C1M870,國三N285K,2025-05-18,23.550319,120.505833,5.0739015e-07
C1E480,鳳美,2025-05-18,24.554803,121.034747,1.1141896e-08
C0M530,奮起湖,2025-05-18,23.493903,120.699253,2.7683056e-09
C0C590,觀音,2025-05-18,25.027072,121.153317,0.00035421984
C0T9M0,靜浦,2025-05-18,23.455167,121.495028,0.99874526
C2H9M0,發祥,2025-05-18,24.154094,121.164517,8.075278e-09
C0AI40,石牌,2025-05-18,25.115597,121.513139,0.9995101
C1F871,上谷關,2025-05-18,24.203483,121.018644,5.6536584e-09
C2H9G0,百勝,2025-05-18,24.051142,120.909361,1.907395e-08
C0G880,二水,2025-05-18,23.810742,120.6173,5.2677274e-07
C0R940,加祿堂,2025-05-18,22.3363,120.6217,0.9627062
C0W220,北竿,2025-05-18,26.220358,119.974881,1.4639664e-07
C0O960,崎頂,2025-05-18,22.959547,120.369317,0.0003863523
C0S750,向陽,2025-05-18,23.248397,120.986133,8.5194225e-09
C0T9F0,水璉,2025-05-18,23.797131,121.542514,0.0027832347
C1M600,頭凍,2025-05-18,23.406364,120.603339,2.737813e-09
467660,臺東,2025-05-18,22.752211,121.154586,0.92497456
C1D380,新埔,2025-05-18,24.84745,121.03834,1.29876e-07
C2G980,田頭村,2025-05-18,23.8263,120.444175,6.573548e-06
C0V750,路竹,2025-05-18,22.854997,120.259439,0.8257829
C0N050,蚵寮,2025-05-18,23.301,120.1104,0.011084191
72M700,南改鹿草分場,2025-05-18,23.416869,120.283061,0.0011563816
C1SA50,利嘉林道,2025-05-18,22.82325,121.009389,6.4836576e-09
C0A940,金山,2025-05-18,25.223628,121.643967,0.9994988
C1V340,大津,2025-05-18,22.888322,120.645986,0.00013612057
C0W180,七美,2025-05-18,23.219333,119.444892,0.99988955
C1F9C1,白冷,2025-05-18,24.182844,120.929889,7.896178e-09
K2E710,苗改生物防治研究中心,2025-05-18,24.422861,120.871833,1.1178646e-05
C0N040,蘆竹溝,2025-05-18,23.2344,120.0961,0.010488453
C2W230,畜試所澎湖,2025-05-18,23.628342,119.513206,0.99924296
C0R880,後壁湖,2025-05-18,21.9457,120.7457,0.964254
C1I280,埔中,2025-05-18,23.820778,120.642594,4.919522e-09
467790,墾丁雷達站,2025-05-18,21.948235,120.808028,0.77363646
C0W190,望安,2025-05-18,23.380564,119.494075,0.9997598
C0Z170,卓溪,2025-05-18,23.3443,121.3029,0.8406047
C0F850,東勢,2025-05-18,24.246428,120.833047,1.0268355e-07
466900,淡水,2025-05-18,25.164889,121.448906,0.99955016
C0I370,魚池,2025-05-18,23.895703,120.94135,3.1674976e-09
C0C630,大溪,2025-05-18,24.882853,121.265547,6.9419485e-07
C0A520,山佳,2025-05-18,24.974944,121.402008,0.9581576
C0I110,竹山,2025-05-18,23.761225,120.688156,4.644104e-08
82H840,茶改南部分場,2025-05-18,23.762528,120.7405,6.7811685e-09
C0G660,溪湖,2025-05-18,23.94835,120.479122,0.02197372
C1T800,洛韶,2025-05-18,24.204558,121.453956,1.61489e-08
C1T810,慈恩,2025-05-18,24.192044,121.388386,7.377939e-09
C1E451,象鼻,2025-05-18,24.368617,120.940228,2.8790819e-09
C0AC60,三峽,2025-05-18,24.939025,121.369728,2.0276427e-07
C0I490,萬大林道,2025-05-18,23.928228,121.091411,4.8972595e-09
C1I290,豐丘,2025-05-18,23.668178,120.887417,4.2187556e-09
C1I320,奧萬大,2025-05-18,23.952956,121.178556,3.851822e-09
C2M910,嘉義大學,2025-05-18,23.471325,120.485903,8.134851e-07
C0U770,南澳,2025-05-18,24.44935,121.81022,0.03757295
C0A980,社子,2025-05-18,25.109508,121.469681,0.99959064
C0V800,六龜,2025-05-18,22.997889,120.633583,4.489362e-08
C1G9D0,國一S218K,2025-05-18,23.890641,120.493253,0.01752015
C0E570,白沙屯,2025-05-18,24.549447,120.696803,0.8471317
C2F9A0,中竹林,2025-05-18,24.103556,120.751061,9.134272e-09
C0FA40,臺中電廠,2025-05-18,24.2146,120.4907,0.8627822
C2G9A0,畜試所彰化,2025-05-18,23.86045,120.557964,3.5766257e-06
C0H9C0,合歡山,2025-05-18,24.143442,121.272547,2.4096465e-08
C0X060,下營,2025-05-18,23.22695,120.256261,0.021183966
G2M350,農試溪口農場,2025-05-18,23.58565,120.408111,0.00096231117
C0U860,頭城,2025-05-18,24.85323,121.8308,0.012081488
C0R580,南州,2025-05-18,22.48591,120.50274,0.9640788
C0D430,峨眉,2025-05-18,24.6905,121.017189,3.519661e-06
C0G780,秀水,2025-05-18,24.03405,120.503869,0.031104151
72N100,臺南農改場,2025-05-18,23.0605,120.342194,0.03825511
C0S900,蘭嶼高中,2025-05-18,22.04909,121.51214,0.6328284
C1F9W0,德基,2025-05-18,24.254783,121.190261,7.949218e-09
C1Z120,壽豐,2025-05-18,23.870853,121.508081,0.9984955
C0W160,烏坵,2025-05-18,24.9944,119.44956,0.9779838
C1I240,外大坪,2025-05-18,23.958697,120.917931,3.1639955e-09
C1I550,國六W023K,2025-05-18,23.979067,120.867742,1.0755271e-08
C0R870,興海,2025-05-18,21.9752,120.8439,0.8789978
C0R140,瑪家,2025-05-18,22.682903,120.686639,2.4184732e-08
C0A530,坪林,2025-05-18,24.938183,121.70975,1.7688684e-06
C0X260,後壁,2025-05-18,23.366358,120.362326,0.0181906
C0Z230,和平,2025-05-18,24.30717,121.77007,0.94933707
C0G770,福興,2025-05-18,24.041289,120.437669,0.02362728
C0H9A0,神木村,2025-05-18,23.532742,120.843667,5.415966e-09
C0I460,南投,2025-05-18,23.911469,120.687331,0.49678063
C0I480,梅峰,2025-05-18,24.085272,121.173572,7.369585e-09
C1V570,吉東,2025-05-18,22.85422,120.5454,0.024780208
C2D740,屯原,2025-05-18,24.067969,121.209389,5.8874363e-09
C2A560,福山,2025-05-18,24.776203,121.502811,7.391069e-08
C0AH30,五分山,2025-05-18,25.07125,121.780794,1.3746863e-08
C0FA10,松柏,2025-05-18,24.429115,120.617482,0.7348661
72S200,東改班鳩分場,2025-05-18,22.829528,121.077694,0.6536294
72HA00,中改埔里分場,2025-05-18,23.903208,120.963364,3.48694e-09
C2H9W0,大坪頂農水,2025-05-18,24.043122,120.932781,2.97853e-09
C0C650,平鎮,2025-05-18,24.897503,121.214636,3.715939e-08
C0S930,延平,2025-05-18,22.902581,121.084058,0.50038046
C0UA60,樟樹山,2025-05-18,24.41393,121.78325,2.2105118e-08
C1S670,摩天,2025-05-18,23.199503,121.027,1.8162655e-08
C0V630,茄萣,2025-05-18,22.906642,120.182608,0.0059717135
466940,基隆,2025-05-18,25.133314,121.740475,0.999609
C0X050,東河,2025-05-18,23.296598,120.385608,0.0002445973
C0R770,保力,2025-05-18,22.071122,120.764111,0.26885942
G2L020,農試嘉義分所,2025-05-18,23.485028,120.473806,1.4781428e-06
C0X240,關子嶺,2025-05-18,23.331169,120.508025,8.8003755e-09
C0I380,集集,2025-05-18,23.828206,120.801467,1.1118416e-08
466990,花蓮,2025-05-18,23.975128,121.613275,0.9984406
C1V220,小關山,2025-05-18,23.154217,120.813603,7.805257e-09
C1F9G1,慶福山,2025-05-18,24.180853,120.848378,2.890411e-09
C0Z250,瑞穗林道,2025-05-18,23.49284,121.30688,9.712113e-09
C0D590,新豐,2025-05-18,24.87068,120.97721,6.9859e-06
C0A870,五指山,2025-05-18,25.132153,121.608692,1.3198436e-08
C0UA50,西帽山,2025-05-18,24.555361,121.802628,1.2758127e-08
C0X160,仁德,2025-05-18,22.968258,120.257689,0.01989671
C1H971,六分寮,2025-05-18,23.92507,120.6378,8.9348875e-09
C0W120,西嶼,2025-05-18,23.5626,119.468436,0.999012
C0G650,員林,2025-05-18,23.946503,120.585597,0.021205386
C0AD50,鶯歌,2025-05-18,24.951533,121.346294,1.3885389e-07
C2H9Q0,北東眼山,2025-05-18,24.120939,121.189303,7.459429e-09
C2H9T0,名間竹圍,2025-05-18,23.859914,120.637572,5.3867386e-09
C0S990,山豬窟,2025-05-18,22.318619,120.857372,0.11090361
C0X190,安平,2025-05-18,22.993161,120.152181,0.059285387
C0K400,斗六,2025-05-18,23.720583,120.541127,2.3011823e-06
12J990,口湖工作站,2025-05-18,23.589978,120.180394,0.0023248773
C0O830,北寮,2025-05-18,23.079561,120.495008,0.00021756226
C1D410,白蘭,2025-05-18,24.579364,121.079947,5.593667e-09
C0S970,加津林,2025-05-18,22.416211,120.926942,0.98803055
C0D700,關西,2025-05-18,24.7977,121.1732,1.0545494e-06
C0M810,里佳,2025-05-18,23.389125,120.716647,3.0925356e-09
C0U750,龜山島,2025-05-18,24.841667,121.953133,3.7524844e-06
C0R810,內獅,2025-05-18,22.305064,120.642986,0.963265
C1M390,龍美,2025-05-18,23.406728,120.654417,2.6756468e-09
C2FB60,頭櫃山,2025-05-18,24.129842,120.858925,5.2362847e-09
C1H840,國三N238K,2025-05-18,23.841008,120.707711,8.567069e-09
CAQ030,崎峰國小,2025-05-18,22.42565,120.49521,0.9640788
C2E520,大湖,2025-05-18,24.414939,120.870872,3.5155722e-06
467530,阿里山,2025-05-18,23.508208,120.813242,7.905853e-09
C1E691,南湖,2025-05-18,24.40135,120.837533,4.0044057e-09
C0FA30,梧棲,2025-05-18,24.256003,120.523381,0.813374
C1V231,高中,2025-05-18,23.134911,120.716711,1.7837559e-09
C0AK30,硬漢嶺,2025-05-18,25.136097,121.426372,1.6898131e-08
C0F9V0,新社,2025-05-18,24.200172,120.815806,1.6579417e-08
C0H890,埔里,2025-05-18,23.972169,120.952425,2.263157e-08
C0R690,墾丁,2025-05-18,21.966756,120.810269,0.0943753
C0F0D0,審馬陣,2025-05-18,24.381675,121.4203,2.571703e-08
C2W030,金門農試所,2025-05-18,24.448431,118.451786,0.03590508
C0R820,白鷺,2025-05-18,22.454275,120.666219,2.1059664e-06
C1V190,南天池,2025-05-18,23.27403,120.91176,8.968626e-09
K2E360,苗栗農改場,2025-05-18,24.495722,120.829111,0.0004961395
CAJ050,海口故事園區,2025-05-18,23.57543,120.14121,0.0024748424
C2H9D0,三隻寮,2025-05-18,24.093078,120.861578,2.9139644e-09
C0O990,媽廟,2025-05-18,22.99175,120.293525,0.13627699
C0D480,打鐵坑,2025-05-18,24.849664,121.150789,7.18865e-08
C0Z220,和平林道,2025-05-18,24.343922,121.656317,2.3558574e-08
C0TA10,花蓮漁港,2025-05-18,23.995322,121.638331,0.9979797
72C440,桃園農改場,2025-05-18,24.950944,121.030583,1.4221656e-06
C1E711,馬拉邦山,2025-05-18,24.367306,120.901656,3.98177e-09
C0SB20,富岡,2025-05-18,22.792467,121.192669,0.9845894
C0D560,竹東,2025-05-18,24.767147,121.057881,3.1073756e-07
C0F9U0,南屯,2025-05-18,24.137006,120.637969,0.007452965
C0M720,番路,2025-05-18,23.464657,120.554156,2.7027507e-08
C0F0A0,雪山圈谷,2025-05-18,24.388594,121.236339,3.2948847e-08
C1A9N0,四十份,2025-05-18,24.934158,121.593283,1.0617024e-07
C0U760,東澳,2025-05-18,24.52196,121.83318,0.45107448
C0X230,鹽水,2025-05-18,23.272621,120.247641,0.009328705
C2H9H0,苗改南投蜂場,2025-05-18,23.852589,120.693481,6.465174e-08
C0R950,萬隆國小,2025-05-18,22.507667,120.587817,0.99812764
467540,大武,2025-05-18,22.35572,120.90374,0.98412246
C0V370,古亭坑,2025-05-18,22.893178,120.401947,0.9834158
C1I340,新興橋,2025-05-18,23.563333,120.868728,1.6350878e-09
C0SA80,土坂,2025-05-18,22.453108,120.887572,0.99903977
C0R160,鹽埔,2025-05-18,22.739558,120.530778,0.18016522
C0AC40,大屯山,2025-05-18,25.175675,121.522408,1.2132675e-08
466850,五分山雷達站,2025-05-18,25.071182,121.781205,1.35820954e-08
C2H9L0,馬烈霸,2025-05-18,24.1512,121.201772,7.474084e-09
C1AI50,國三N016K,2025-05-18,25.034164,121.619664,0.99864376
C1V600,藤枝,2025-05-18,23.071961,120.757042,6.380326e-09
C1E601,南勢,2025-05-18,24.572486,120.734842,0.003828566
C0O980,新市,2025-05-18,23.061614,120.298197,0.10475235
C0K420,西螺,2025-05-18,23.800407,120.467394,3.437614e-06
C0Z050,佳心,2025-05-18,23.34567,121.21316,7.515456e-08
C0AD30,蘆洲,2025-05-18,25.086594,121.472331,0.9993165
C0V610,梓官,2025-05-18,22.760558,120.267211,0.96143603
K2F750,種苗改良場,2025-05-18,24.225972,120.800917,3.2253677e-08
C0UA80,大溪漁港,2025-05-18,24.941801,121.902955,0.010725941
C1AI60,國一39K邊坡,2025-05-18,25.064361,121.383836,3.247593e-06
C0W150,金寧,2025-05-18,24.457703,118.328989,0.029772662
C0R960,內埔,2025-05-18,22.608483,120.570714,0.99922514
V2C250,八德合作社,2025-05-18,24.93775,121.266389,5.8410212e-08
C2H9S0,龍南,2025-05-18,23.953536,120.833183,4.55704e-09
C0AH40,平等,2025-05-18,25.129142,121.577086,3.9676408e-08
C0R540,佳冬,2025-05-18,22.419456,120.552375,0.87091285
466950,彭佳嶼,2025-05-18,25.627975,122.079744,0.9999634
C0A890,雙溪,2025-05-18,25.036003,121.864242,0.9998118
C0C480,桃園,2025-05-18,24.992425,121.323172,2.2751377e-07
C0AH50,林口,2025-05-18,25.072181,121.38084,1.1724106e-06
A2K360,水試臺西試驗場,2025-05-18,23.717231,120.190522,0.8825979
C2M960,外寮,2025-05-18,23.562643,120.665688,2.275674e-09
C0F9S0,烏日,2025-05-18,24.107058,120.624103,0.00907728
C0C490,八德,2025-05-18,24.928708,121.283289,5.764345e-08
C0R190,赤山,2025-05-18,22.592333,120.614306,0.99923265
C0T820,天祥,2025-05-18,24.179597,121.495639,4.4737493e-07
C1F9E1,龍安,2025-05-18,24.1605,120.831961,1.0878273e-08
C0V820,小林,2025-05-18,23.148408,120.63325,4.597795e-09
C2G870,芳苑,2025-05-18,23.922303,120.320025,0.4030682
C0E850,大河,2025-05-18,24.618069,120.948578,0.0031630322
C1U670,寒溪,2025-05-18,24.634,121.71691,0.00033399538
C0N020,城西,2025-05-18,23.0568,120.0956,0.004269702
C1Z110,三棧,2025-05-18,24.11557,121.60501,2.313996e-07
C0R280,檳榔,2025-05-18,22.076078,120.836777,0.36239767
C2H9J0,中台,2025-05-18,23.9996,120.938739,3.9889234e-09
C0F9L0,后里,2025-05-18,24.310436,120.729725,3.2438145e-08
467441,高雄,2025-05-18,22.730432,120.312516,0.95209426
C0Z180,新城,2025-05-18,24.040486,121.604878,0.9987313
C0D540,橫山,2025-05-18,24.71116,121.11693,4.2893595e-07
C1D420,太閣南,2025-05-18,24.632808,121.160575,1.4469983e-08
C1E770,公館,2025-05-18,24.526914,120.830806,0.0017463281
CAN130,水試所海水繁養殖中心,2025-05-18,23.120802,120.07968,0.0018124009
C1I430,翠華,2025-05-18,24.191961,121.224339,9.865753e-09
C1M400,菜瓜坪,2025-05-18,23.251928,120.576103,6.4776007e-09
C0G730,二林,2025-05-18,23.903325,120.376081,0.041692693
72M360,南改義竹分場,2025-05-18,23.360694,120.279361,0.010765366
V2K620,麥寮合作社,2025-05-18,23.753836,120.294783,0.64280576
C0Z070,舞鶴,2025-05-18,23.46811,121.37407,0.2589236
C0B040,大武崙,2025-05-18,25.166676,121.706993,0.99952435
C1Z030,紅葉,2025-05-18,23.493119,121.338806,0.9196868
C1I050,丹大,2025-05-18,23.753747,121.141147,9.91045e-09
C0I080,信義,2025-05-18,23.689694,120.851036,9.329792e-09
C2M920,朴子農改,2025-05-18,23.469889,120.259383,0.0012444254
C2A880,福隆,2025-05-18,25.017842,121.942083,0.010188164
C0Z160,鳳林,2025-05-18,23.746114,121.453411,0.9417595
C0V210,復興,2025-05-18,23.222403,120.806089,2.163852e-09
C0H990,昆陽,2025-05-18,24.121322,121.273642,1.9196545e-08
C0R741,獅子,2025-05-18,22.202308,120.705236,0.9948493
C0S710,鹿野,2025-05-18,22.917711,121.122994,0.0021789488
C0I530,小奇萊,2025-05-18,24.131764,121.295717,2.0085292e-08
C2K630,荷苞,2025-05-18,23.657717,120.595144,1.0687546e-07
C0Z080,富源,2025-05-18,23.587642,121.378225,0.006195098
C0SB10,美和,2025-05-18,22.682078,121.060236,0.9913199
C2K620,馬光農場,2025-05-18,23.721453,120.378864,8.612333e-06
C1I140,卡奈托灣,2025-05-18,23.754364,121.087872,3.9891668e-09
C0I520,玉山風口,2025-05-18,23.470489,120.955994,2.7188982e-08
C1G691,下水埔,2025-05-18,23.816114,120.5676,1.7190404e-06
C0X110,臺南市南區,2025-05-18,22.961189,120.188378,0.023032954
C0V680,仁武,2025-05-18,22.701083,120.347722,0.70601916
C2G840,北斗,2025-05-18,23.877586,120.514222,0.014271096
C0R900,竹坑,2025-05-18,22.1385,120.7022,0.9925127
C0K250,崙背,2025-05-18,23.75555,120.318925,0.6393208
C0G860,社頭,2025-05-18,23.897647,120.5862,0.090367876
C0X150,安定,2025-05-18,23.102614,120.227839,0.4763503
C0R590,里港,2025-05-18,22.77919,120.49459,0.06960559
C0E610,馬都安,2025-05-18,24.451272,120.930192,3.8172643e-09
C0E550,明德,2025-05-18,24.583486,120.885411,0.002412313
C0R150,三地門,2025-05-18,22.709889,120.639944,0.006570073
C0G910,花壇,2025-05-18,24.032076,120.549461,0.015544677
C1D400,鳥嘴山,2025-05-18,24.71909,121.28387,5.2761453e-09
C0K500,元長,2025-05-18,23.64981,120.315024,0.5502284
C0F0B0,石岡,2025-05-18,24.276061,120.777644,1.6973752e-08
C2V250,甲仙,2025-05-18,23.080106,120.591758,3.5764476e-08
C0SA20,金崙山,2025-05-18,22.567419,120.959667,3.832788e-07
C0V350,溪埔,2025-05-18,22.738578,120.446797,0.20517255
C0M660,溪口,2025-05-18,23.604131,120.403569,0.00090532884
C1S880,壽卡,2025-05-18,22.238911,120.858903,0.00113549
72D680,桃改新埔分場,2025-05-18,24.834444,121.066111,1.4262714e-07
