站號,站名,日期,lat,lon,BlastGRU-TW
12J990,口湖工作站,2025-02-24,23.589978,120.180394,0.00027752382
12Q970,東港工作站,2025-02-24,22.479997,120.466058,0.007979607
12Q980,恆春工作站,2025-02-24,22.079678,120.714425,0.00072568766
466881,新北,2025-02-24,24.9593,121.52,0.014921076
466900,淡水,2025-02-24,25.164889,121.448906,0.006687917
466920,臺北,2025-02-24,25.037658,121.514853,0.013967547
466940,基隆,2025-02-24,25.133314,121.740475,0.027025266
466990,花蓮,2025-02-24,23.975128,121.613275,0.017617276
467050,新屋,2025-02-24,25.006744,121.047486,0.00031329668
467080,宜蘭,2025-02-24,24.763975,121.756528,0.010296773
467270,田中,2025-02-24,23.873803,120.581286,0.0069847065
467280,後龍,2025-02-24,24.648563,120.831834,0.0005032809
467290,古坑,2025-02-24,23.633639,120.551889,0.0074351686
467300,東吉島,2025-02-24,23.25695,119.667467,0.0004907128
467350,澎湖,2025-02-24,23.565503,119.563094,0.0004191424
467410,臺南,2025-02-24,22.993239,120.204772,0.00055091165
467420,永康,2025-02-24,23.038386,120.2367,0.0013554095
467441,高雄,2025-02-24,22.7304,120.3125,0.009117786
467480,嘉義,2025-02-24,23.495925,120.432906,0.002016931
467490,臺中,2025-02-24,24.145736,120.684075,0.009338856
467540,大武,2025-02-24,22.355675,120.903789,0.008037749
467571,新竹,2025-02-24,24.827853,121.014219,0.0005834928
467590,恆春,2025-02-24,22.003897,120.746339,0.0034632143
467610,成功,2025-02-24,23.097486,121.373428,0.005563352
467620,蘭嶼,2025-02-24,22.036969,121.558339,0.00084460335
467660,臺東,2025-02-24,22.752211,121.154586,0.0008234697
467790,墾丁雷達站,2025-02-24,21.948235,120.808028,0.0022884042
72AI40,桃改樹林分場,2025-02-24,24.944503,121.386972,0.0076870257
72C440,桃園農改,2025-02-24,24.950944,121.030583,0.00027779117
72C440,桃園農改場,2025-02-24,24.950944,121.030583,0.00027779117
72D680,桃改新埔分場,2025-02-24,24.834444,121.066111,0.0008953064
72G600,臺中農改,2025-02-24,24.003028,120.534389,0.0005061622
72G600,臺中農改場,2025-02-24,24.003028,120.534389,0.0005061622
72K220,南改斗南分場,2025-02-24,23.634556,120.477333,0.0059597804
72M360,南改義竹分場,2025-02-24,23.360694,120.279361,0.00047593736
72M700,南改鹿草分場,2025-02-24,23.416869,120.283061,0.00055047707
72N100,臺南農改,2025-02-24,23.0605,120.342194,0.0060779173
72N100,臺南農改場,2025-02-24,23.0605,120.342194,0.0060779173
72N240,七股研究中心,2025-02-24,23.081672,120.062894,0.0003517165
72Q010,高雄農改,2025-02-24,22.709333,120.525889,0.1322878
72Q010,高雄農改場,2025-02-24,22.709333,120.525889,0.1322878
72S200,東改班鳩分場,2025-02-24,22.829528,121.077694,0.0011603716
72S590,東改賓朗果園,2025-02-24,22.813889,121.071278,0.0010089432
72T250,花蓮農改,2025-02-24,23.975222,121.563889,0.015387721
72T250,花蓮農改場,2025-02-24,23.975222,121.563889,0.015387721
72U480,花改蘭陽分場,2025-02-24,24.686306,121.716583,0.024937745
72V140,高改旗南分場,2025-02-24,22.857861,120.516667,0.12026864
82A750,茶改北部分場,2025-02-24,24.955778,121.631222,0.010627259
82C160,茶改場,2025-02-24,24.908472,121.185333,0.0013751928
82H840,茶改南部分場,2025-02-24,23.762528,120.7405,0.019945096
82S580,茶改東部分場,2025-02-24,22.907694,121.130139,0.0007166998
A2C560,農工中心,2025-02-24,24.985917,121.239833,0.0013967608
A2K360,水試臺西試驗場,2025-02-24,23.717231,120.190522,0.00027712353
A2K570,古坑花卉中心,2025-02-24,23.63353,120.55239,0.0074351686
A2K630,臺大雲林校區,2025-02-24,23.730628,120.423903,0.0010849925
A2N290,臺南蘭花園區,2025-02-24,23.340258,120.379661,0.0013271708
B2E890,畜試北區分所,2025-02-24,24.527806,120.770972,0.00040080896
B2N890,畜產試驗所,2025-02-24,23.058972,120.336406,0.006309502
B2N890,畜試所,2025-02-24,23.058972,120.336406,0.006309502
B2Q810,畜試南區分所,2025-02-24,21.945583,120.802167,0.002322938
B2U990,畜試東區分所,2025-02-24,24.669039,121.832561,0.09877016
C0A520,山佳,2025-02-24,24.974944,121.402008,0.017065343
C0A530,坪林,2025-02-24,24.938183,121.70975,0.010259162
C0A550,泰平,2025-02-24,24.971197,121.823711,0.017318377
C0A570,桶後,2025-02-24,24.848222,121.597992,0.008467294
C0A640,石碇,2025-02-24,24.993969,121.662917,0.0066242986
C0A770,科教館,2025-02-24,25.096356,121.516507,0.012759807
C0A860,大坪,2025-02-24,25.165914,121.632969,0.005902795
C0A890,雙溪,2025-02-24,25.036003,121.864242,0.01861306
C0A931,三和,2025-02-24,25.233153,121.595236,0.0047237445
C0A940,金山,2025-02-24,25.223628,121.643967,0.032439012
C0A950,鼻頭角,2025-02-24,25.129036,121.923372,0.0056372453
C0A970,三貂角,2025-02-24,25.007606,122.002058,0.044717357
C0A980,社子,2025-02-24,25.109508,121.469681,0.0071518947
C0A9C0,天母,2025-02-24,25.117494,121.537169,0.013093434
C0A9F0,內湖,2025-02-24,25.079422,121.57545,0.013967547
C0AC60,三峽,2025-02-24,24.939025,121.369728,0.0073132594
C0AC70,信義,2025-02-24,25.037822,121.564597,0.013967547
C0AC80,文山,2025-02-24,25.00235,121.575728,0.013506858
C0ACA0,新莊,2025-02-24,25.051478,121.446756,0.011537049
C0AD10,八里,2025-02-24,25.150211,121.403947,0.002979891
C0AD30,蘆洲,2025-02-24,25.086594,121.472331,0.012431387
C0AD40,土城,2025-02-24,24.973208,121.445169,0.01578502
C0AD50,鶯歌,2025-02-24,24.951533,121.346294,0.006629889
C0AG80,中和,2025-02-24,24.991622,121.491792,0.01578502
C0AH00,汐止,2025-02-24,25.066881,121.658778,0.013967547
C0AH10,永和,2025-02-24,25.01125,121.508111,0.016333217
C0AH40,平等,2025-02-24,25.129142,121.577086,0.004891773
C0AH50,林口,2025-02-24,25.072181,121.38084,0.0008216771
C0AH70,松山,2025-02-24,25.04871,121.55042,0.013967547
C0AH80,深坑,2025-02-24,25.002703,121.628328,0.013803482
C0AI00,五股,2025-02-24,25.07445,121.42728,0.0015818796
C0AI10,屈尺,2025-02-24,24.92184,121.54475,0.03580072
C0AI20,白沙灣,2025-02-24,25.283128,121.519058,0.015466109
C0AI30,三重,2025-02-24,25.057328,121.500629,0.014447703
C0AI40,石牌,2025-02-24,25.115597,121.513139,0.013585216
C0AJ20,野柳,2025-02-24,25.20703,121.690021,0.033696696
C0AJ30,淡水觀海,2025-02-24,25.184591,121.408616,0.009936781
C0AJ40,石門,2025-02-24,25.273672,121.601198,0.0028175442
C0AJ50,水湳洞,2025-02-24,25.123695,121.862238,0.018214427
C0AJ60,六塊厝,2025-02-24,25.24,121.4481,0.017144194
C0AJ70,田寮,2025-02-24,25.2698,121.4886,0.015924048
C0AJ80,板橋,2025-02-24,25.0107,121.4489,0.016333217
C0AJ90,澳底,2025-02-24,25.0552,121.9253,0.022098921
C0AK10,太平里,2025-02-24,25.134937,121.364899,0.00294747
C0B010,七堵,2025-02-24,25.094819,121.71713,0.02123686
C0B020,基隆嶼,2025-02-24,25.19141,121.78391,0.0065482454
C0B040,大武崙,2025-02-24,25.166676,121.706993,0.024123231
C0B050,八斗子,2025-02-24,25.144754,121.79167,0.027817806
C0B060,暖暖,2025-02-24,25.0957,121.7403,0.017056672
C0C460,復興,2025-02-24,24.820208,121.352281,0.0042823465
C0C480,桃園,2025-02-24,24.992425,121.323172,0.004643717
C0C490,八德,2025-02-24,24.928708,121.283289,0.0033935907
C0C590,觀音,2025-02-24,25.027072,121.153317,0.00040453434
C0C620,蘆竹,2025-02-24,25.084275,121.265767,0.00060270383
C0C630,大溪,2025-02-24,24.882853,121.265547,0.0027242012
C0C650,平鎮,2025-02-24,24.897503,121.214636,0.002791054
C0C660,楊梅,2025-02-24,24.912375,121.143047,0.0016471572
C0C670,龍潭,2025-02-24,24.870056,121.221389,0.0023503832
C0C680,龜山,2025-02-24,25.02846,121.38656,0.0016218858
C0C700,中壢,2025-02-24,24.977661,121.256375,0.0022744613
C0C710,大溪永福,2025-02-24,24.892936,121.324975,0.010323441
C0C720,竹圍,2025-02-24,25.112692,121.239824,0.0008274391
C0C730,中大臨海站,2025-02-24,24.966126,121.008581,0.00032473786
C0C740,觀音工業區,2025-02-24,25.064764,121.114856,0.0003498346
C0C750,新興坑尾,2025-02-24,25.0061,121.0971,0.00038564153
C0D430,峨眉,2025-02-24,24.6905,121.017189,0.0005374723
C0D480,打鐵坑,2025-02-24,24.849664,121.150789,0.0023397729
C0D540,橫山,2025-02-24,24.71116,121.11693,0.0016086932
C0D560,竹東,2025-02-24,24.767147,121.057881,0.000693698
C0D580,寶山,2025-02-24,24.735006,121.025192,0.0006935555
C0D590,新豐,2025-02-24,24.87068,120.97721,0.0003574779
C0D650,湖口,2025-02-24,24.904794,121.043628,0.00049754605
C0D660,新竹市東區,2025-02-24,24.798681,120.986942,0.00040336695
C0D670,海天一線,2025-02-24,24.831986,120.914438,0.00029745692
C0D680,香山濕地,2025-02-24,24.783581,120.914988,0.00046003133
C0D690,外湖,2025-02-24,24.917735,120.968711,0.0006451495
C0D700,關西,2025-02-24,24.7977,121.1732,0.0019440223
C0E420,竹南,2025-02-24,24.708978,120.888897,0.0002928095
C0E430,南庄,2025-02-24,24.601775,121.000214,0.0015219918
C0E550,明德,2025-02-24,24.583486,120.885411,0.00056596333
C0E570,白沙屯,2025-02-24,24.549447,120.696803,0.0003439301
C0E590,通霄,2025-02-24,24.471892,120.704622,0.00039106794
C0E730,頭份,2025-02-24,24.688247,120.912206,0.00029763763
C0E740,造橋,2025-02-24,24.637056,120.864778,0.0005254228
C0E750,苗栗,2025-02-24,24.564569,120.824575,0.00059484405
C0E780,銅鑼,2025-02-24,24.489681,120.790853,0.00034988212
C0E791,卓蘭,2025-02-24,24.3126,120.8244,0.0014362651
C0E810,西湖,2025-02-24,24.562947,120.7485,0.00026009046
C0E820,獅潭,2025-02-24,24.539133,120.920042,0.0008894238
C0E830,苑裡,2025-02-24,24.439714,120.653053,0.00028508436
C0E850,大河,2025-02-24,24.618069,120.948578,0.00090887066
C0E870,高鐵苗栗,2025-02-24,24.60725,120.826094,0.00051501626
C0E910,海埔,2025-02-24,24.648767,120.772435,0.00024251916
C0E920,通霄漁港,2025-02-24,24.498589,120.673876,0.00032094508
C0E930,龍鳳,2025-02-24,24.700034,120.859125,0.0003130507
C0F0B0,石岡,2025-02-24,24.276061,120.777644,0.002462959
C0F850,東勢,2025-02-24,24.246428,120.833047,0.0013568166
C0F970,大坑,2025-02-24,24.173142,120.722289,0.027235413
C0F9I0,神岡,2025-02-24,24.272481,120.658314,0.00043467878
C0F9K0,大安,2025-02-24,24.345061,120.588025,0.0002487978
C0F9L0,后里,2025-02-24,24.310436,120.729725,0.0031701713
C0F9M0,豐原,2025-02-24,24.254322,120.720692,0.003707642
C0F9N0,大里,2025-02-24,24.092464,120.701378,0.012084834
C0F9O0,潭子,2025-02-24,24.213106,120.703933,0.005591969
C0F9P0,清水,2025-02-24,24.312297,120.562242,0.0002681091
C0F9Q0,外埔,2025-02-24,24.347817,120.705686,0.00047458638
C0F9R0,龍井,2025-02-24,24.184536,120.528972,0.00047064223
C0F9S0,烏日,2025-02-24,24.107058,120.624103,0.014853389
C0F9T0,西屯,2025-02-24,24.179494,120.641275,0.0013734867
C0F9U0,南屯,2025-02-24,24.137006,120.637969,0.001635663
C0F9X0,大雅(中科園區),2025-02-24,24.21528,120.62445,0.0004201725
C0FA10,松柏,2025-02-24,24.429115,120.617482,0.00026680634
C0FA20,溫寮,2025-02-24,24.372177,120.583125,0.00025515282
C0FA30,梧棲,2025-02-24,24.256003,120.523381,0.0002681091
C0FA40,臺中電廠,2025-02-24,24.2146,120.4907,0.0002535049
C0FA50,霧峰,2025-02-24,24.0419,120.6995,0.010332057
C0FB70,大甲溪埔,2025-02-24,24.370625,120.620067,0.00024690028
C0G620,芬園,2025-02-24,24.015678,120.6213,0.019027127
C0G650,員林,2025-02-24,23.946503,120.585597,0.003977783
C0G660,溪湖,2025-02-24,23.94835,120.479122,0.0005314484
C0G720,溪州,2025-02-24,23.851589,120.499093,0.0027722653
C0G730,二林,2025-02-24,23.903325,120.376081,0.00031769712
C0G740,大城,2025-02-24,23.852487,120.320935,0.00045369897
C0G770,福興,2025-02-24,24.041289,120.437669,0.00028751942
C0G780,秀水,2025-02-24,24.03405,120.503869,0.00051519304
C0G800,埔鹽,2025-02-24,24.000394,120.431683,0.0002856301
C0G810,埔心,2025-02-24,23.947633,120.525456,0.00051643595
C0G820,田尾,2025-02-24,23.901669,120.509389,0.0029505107
C0G830,埤頭,2025-02-24,23.866003,120.452806,0.0029708308
C0G860,社頭,2025-02-24,23.897647,120.5862,0.007379753
C0G880,二水,2025-02-24,23.810742,120.6173,0.0050938292
C0G890,伸港,2025-02-24,24.148933,120.484403,0.00043763593
C0G900,線西,2025-02-24,24.143358,120.443536,0.0004455553
C0G910,花壇,2025-02-24,24.032076,120.549461,0.0004888687
C0G920,永靖,2025-02-24,23.924703,120.547533,0.0029505107
C0G940,竹塘,2025-02-24,23.848253,120.386764,0.0003273848
C0G950,防潮門,2025-02-24,24.1835,120.4871,0.00047064223
C0G960,福寶,2025-02-24,24.0443,120.3814,0.00027079295
C0G970,三豐,2025-02-24,23.882,120.2895,0.00036371575
C0G9B0,和美,2025-02-24,24.105169,120.492131,0.00045401853
C0H890,埔里,2025-02-24,23.972169,120.952425,0.020475874
C0H960,草屯,2025-02-24,23.973672,120.68085,0.020053573
C0I110,竹山,2025-02-24,23.761225,120.688156,0.0031326567
C0I360,水里,2025-02-24,23.812553,120.849792,0.019809019
C0I380,集集,2025-02-24,23.828206,120.801467,0.020964801
C0I410,名間,2025-02-24,23.837053,120.701447,0.0070824446
C0I420,國姓,2025-02-24,24.037803,120.855072,0.02270246
C0I460,南投,2025-02-24,23.911469,120.687331,0.012030861
C0K250,崙背,2025-02-24,23.75555,120.318925,0.0006596404
C0K280,四湖,2025-02-24,23.630414,120.227125,0.0003964569
C0K291,宜梧,2025-02-24,23.536281,120.169329,0.00042506956
C0K330,虎尾,2025-02-24,23.719183,120.442036,0.0020416363
C0K390,土庫,2025-02-24,23.679029,120.395574,0.0009266268
C0K400,斗六,2025-02-24,23.720583,120.541127,0.0037910237
C0K410,北港,2025-02-24,23.573957,120.292802,0.00047835492
C0K420,西螺,2025-02-24,23.800407,120.467394,0.0021124966
C0K430,褒忠,2025-02-24,23.690938,120.303634,0.00027838186
C0K440,二崙,2025-02-24,23.772797,120.408944,0.0011216688
C0K450,大埤,2025-02-24,23.646074,120.431537,0.0013955017
C0K460,斗南,2025-02-24,23.678734,120.478359,0.0059597804
C0K470,林內,2025-02-24,23.748675,120.609642,0.0062714154
C0K480,莿桐,2025-02-24,23.761192,120.502372,0.0035532974
C0K500,元長,2025-02-24,23.64981,120.315024,0.00064125686
C0K510,水林,2025-02-24,23.572924,120.24597,0.00048069918
C0K530,臺西,2025-02-24,23.701547,120.197559,0.00027189893
C0K550,蔦松,2025-02-24,23.514319,120.229736,0.00042317642
C0K560,棋山,2025-02-24,23.68645,120.603417,0.006562222
C0K580,高鐵雲林,2025-02-24,23.737456,120.417944,0.0010849925
C0K590,雲林東勢,2025-02-24,23.674192,120.255721,0.00047762797
C0K600,箔子寮,2025-02-24,23.6197,120.14,0.00027752382
C0M520,東後寮,2025-02-24,23.369908,120.248065,0.00048428308
C0M640,中埔,2025-02-24,23.42538,120.5229,0.0015466852
C0M650,朴子,2025-02-24,23.43463,120.23902,0.0005607218
C0M660,溪口,2025-02-24,23.604131,120.403569,0.0010455034
C0M670,大林,2025-02-24,23.600616,120.45841,0.0039899372
C0M680,太保,2025-02-24,23.455062,120.331455,0.002277423
C0M690,水上,2025-02-24,23.419734,120.388909,0.001189714
C0M700,竹崎,2025-02-24,23.526178,120.555508,0.0030936336
C0M710,東石,2025-02-24,23.458927,120.15385,0.0003678165
C0M720,番路,2025-02-24,23.464657,120.554156,0.008362617
C0M730,嘉義市東區,2025-02-24,23.457673,120.460531,0.0063794167
C0M740,六腳,2025-02-24,23.492871,120.290625,0.00056555134
C0M750,布袋,2025-02-24,23.380878,120.167789,0.00048880465
C0M760,民雄,2025-02-24,23.551754,120.428457,0.0018580157
C0M770,嘉義梅山,2025-02-24,23.585398,120.555587,0.0059956675
C0M780,鹿草,2025-02-24,23.41134,120.30835,0.00053352653
C0M790,新港,2025-02-24,23.553269,120.345728,0.0015430019
C0M800,茶山,2025-02-24,23.299075,120.664767,0.04091537
C0M880,好美里,2025-02-24,23.3364,120.138,0.00045537253
C0N010,鯤鯓國小,2025-02-24,23.1879,120.0889,0.00038142662
C0N020,城西,2025-02-24,23.0568,120.0956,0.0005945788
C0N030,四草,2025-02-24,23.0235,120.1116,0.00060022366
C0N040,蘆竹溝,2025-02-24,23.2344,120.0961,0.00038050307
C0N050,蚵寮,2025-02-24,23.301,120.1104,0.00038510826
C0O830,北寮,2025-02-24,23.079561,120.495008,0.047076195
C0O840,王爺宮,2025-02-24,23.222064,120.40085,0.0013594745
C0O860,大內,2025-02-24,23.11885,120.36083,0.026308011
C0O900,善化,2025-02-24,23.112883,120.297219,0.0025405176
C0O960,崎頂,2025-02-24,22.959547,120.369317,0.003776935
C0O970,虎頭埤,2025-02-24,23.021375,120.347878,0.0071965572
C0O980,新市,2025-02-24,23.061614,120.298197,0.0015984839
C0O990,媽廟,2025-02-24,22.99175,120.293525,0.0012592376
C0R150,三地門,2025-02-24,22.709889,120.639944,0.064365946
C0R160,鹽埔,2025-02-24,22.739558,120.530778,0.1322878
C0R190,赤山,2025-02-24,22.592333,120.614306,0.09878106
C0R220,潮州,2025-02-24,22.534361,120.54,0.021498922
C0R240,來義,2025-02-24,22.527306,120.625111,0.013170878
C0R260,春日,2025-02-24,22.370361,120.628306,0.01099843
C0R270,琉球嶼,2025-02-24,22.332244,120.362236,0.009379866
C0R280,檳榔,2025-02-24,22.076078,120.836777,0.003088651
C0R320,車城,2025-02-24,22.0744,120.716247,0.00072568766
C0R341,牡丹,2025-02-24,22.130036,120.792639,0.0030808002
C0R350,貓鼻頭,2025-02-24,21.921774,120.7358,0.0005086935
C0R470,高樹,2025-02-24,22.826389,120.600806,0.0548913
C0R480,長治,2025-02-24,22.693128,120.542622,0.060941312
C0R490,九如,2025-02-24,22.7405,120.490503,0.14158751
C0R520,崁頂,2025-02-24,22.514781,120.506914,0.022332558
C0R540,佳冬,2025-02-24,22.419456,120.552375,0.015611463
C0R550,新埤,2025-02-24,22.467947,120.582894,0.0073035867
C0R560,新園,2025-02-24,22.5434,120.461558,0.015982563
C0R570,麟洛,2025-02-24,22.65078,120.52719,0.03982633
C0R580,南州,2025-02-24,22.48591,120.50274,0.007979607
C0R590,里港,2025-02-24,22.77919,120.49459,0.16752681
C0R620,墾雷,2025-02-24,21.900836,120.855269,0.002050608
C0R640,東港,2025-02-24,22.46247,120.44074,0.007979607
C0R650,竹田,2025-02-24,22.58486,120.54344,0.033121258
C0R660,枋寮,2025-02-24,22.367722,120.590647,0.015742423
C0R670,楓港,2025-02-24,22.190131,120.692156,0.0010897705
C0R680,佳樂水,2025-02-24,21.993578,120.861633,0.0023183378
C0R690,墾丁,2025-02-24,21.966756,120.810269,0.0021632328
C0R700,枋山,2025-02-24,22.246844,120.661086,0.0020056285
C0R710,龍磐,2025-02-24,21.931672,120.838942,0.0016433657
C0R720,旭海,2025-02-24,22.205403,120.887614,0.0007167161
C0R730,大坪頂,2025-02-24,22.024633,120.69355,0.001329774
C0R741,獅子,2025-02-24,22.202308,120.705236,0.0021275624
C0R760,南仁湖,2025-02-24,22.084681,120.863353,0.0011402984
C0R770,保力,2025-02-24,22.071122,120.764111,0.0013633423
C0R780,滿州,2025-02-24,22.024403,120.839892,0.0033332282
C0R790,九棚,2025-02-24,22.14195,120.889281,0.00086875877
C0R800,丹路,2025-02-24,22.204481,120.750989,0.0055784783
C0R810,內獅,2025-02-24,22.305064,120.642986,0.003566523
C0R830,高士,2025-02-24,22.121825,120.836781,0.0006744871
C0R850,林邊,2025-02-24,22.4634,120.5339,0.0076367045
C0R860,鼻頭,2025-02-24,22.1043,120.8979,0.0029692748
C0R870,興海,2025-02-24,21.9752,120.8439,0.002322938
C0R880,後壁湖,2025-02-24,21.9457,120.7457,0.000855149
C0R890,山海,2025-02-24,21.9878,120.7091,0.0008630118
C0R900,竹坑,2025-02-24,22.1385,120.7022,0.0007322616
C0R910,下寮,2025-02-24,22.3929,120.5548,0.015742423
C0R920,塭仔,2025-02-24,22.4169,120.5197,0.01642468
C0R930,萬丹,2025-02-24,22.5885,120.4851,0.03400709
C0R940,加祿堂,2025-02-24,22.3363,120.6217,0.0024047282
C0R950,萬隆國小,2025-02-24,22.507667,120.587817,0.018090997
C0R960,內埔,2025-02-24,22.608483,120.570714,0.030712383
C0S710,鹿野,2025-02-24,22.917711,121.122994,0.0011260258
C0S730,綠島,2025-02-24,22.6672,121.47533,0.001035396
C0S740,池上,2025-02-24,23.119628,121.209469,0.0020883011
C0S770,大溪山,2025-02-24,22.478475,120.943325,0.0020875065
C0S790,金崙,2025-02-24,22.538122,120.966875,0.007663071
C0S810,東河,2025-02-24,22.972672,121.303986,0.0035542212
C0S830,長濱,2025-02-24,23.286817,121.411975,0.007680155
C0S840,南田,2025-02-24,22.279725,120.889208,0.002437071
C0S890,關山,2025-02-24,23.0395,121.175017,0.004419295
C0S900,蘭嶼高中,2025-02-24,22.04909,121.51214,0.001160987
C0S910,蘭嶼燈塔,2025-02-24,22.081197,121.503117,0.001399661
C0S920,金峰嘉蘭,2025-02-24,22.594789,120.960825,0.011281743
C0S930,延平,2025-02-24,22.902581,121.084058,0.0006654546
C0S940,石寧山,2025-02-24,23.223772,121.406639,0.01575271
C0S950,七塊厝,2025-02-24,22.954453,121.229922,0.0022041583
C0S960,香蘭,2025-02-24,22.587569,120.993375,0.01730534
C0S970,加津林,2025-02-24,22.416211,120.926942,0.0064987754
C0S990,山豬窟,2025-02-24,22.318619,120.857372,0.00088568847
C0SA00,歷坵,2025-02-24,22.520969,120.89185,0.0028953776
C0SA10,檳榔四格山,2025-02-24,22.810031,121.109308,0.00080931163
C0SA30,都歷,2025-02-24,23.020333,121.323642,0.009621546
C0SA40,瑞和,2025-02-24,22.974361,121.156697,0.00502529
C0SA60,知本（水試所）,2025-02-24,22.702394,121.082761,0.024507072
C0SA80,土坂,2025-02-24,22.453108,120.887572,0.006143165
C0SA90,達仁林場,2025-02-24,22.264347,120.823972,0.000450077
C0SB10,美和,2025-02-24,22.682078,121.060236,0.024163367
C0SB20,富岡,2025-02-24,22.792467,121.192669,0.00088218006
C0SB30,新蘭,2025-02-24,22.869214,121.223228,0.0009886064
C0SB40,興隆,2025-02-24,22.913661,121.257469,0.00095144316
C0SB50,叭嗡嗡,2025-02-24,23.047062,121.343223,0.0148898335
C0SB60,白守蓮,2025-02-24,23.126769,121.401914,0.006358947
C0SB70,小港漁港,2025-02-24,23.158558,121.400431,0.017350048
C0SB80,長濱漁港,2025-02-24,23.313644,121.459994,0.025448108
C0T870,鯉魚潭,2025-02-24,23.935639,121.508944,0.008349132
C0T900,西林,2025-02-24,23.8119,121.441458,0.0040748892
C0T960,光復,2025-02-24,23.660694,121.424964,0.005589509
C0T9A0,月眉山,2025-02-24,23.809928,121.539828,0.0010523887
C0T9D0,和中,2025-02-24,24.26676,121.74103,0.0016131173
C0T9E0,大坑,2025-02-24,23.880628,121.581981,0.0016586328
C0T9F0,水璉,2025-02-24,23.797131,121.542514,0.002625642
C0T9I0,豐濱,2025-02-24,23.583897,121.514806,0.0061371326
C0T9M0,靜浦,2025-02-24,23.455167,121.495028,0.0091003245
C0T9N0,富里,2025-02-24,23.171639,121.249378,0.0055926107
C0TA10,花蓮漁港,2025-02-24,23.995322,121.638331,0.019271107
C0TA20,加灣,2025-02-24,24.082025,121.608944,0.003079403
C0U600,礁溪,2025-02-24,24.817539,121.765608,0.01761862
C0U650,玉蘭,2025-02-24,24.675286,121.587061,0.0067018094
C0U750,龜山島,2025-02-24,24.841667,121.953133,0.0015422317
C0U760,東澳,2025-02-24,24.52196,121.83318,0.06968883
C0U770,南澳,2025-02-24,24.44935,121.81022,0.012333655
C0U780,五結,2025-02-24,24.68637,121.79794,0.028094606
C0U860,頭城,2025-02-24,24.85323,121.8308,0.01856414
C0U870,大礁溪,2025-02-24,24.791042,121.675047,0.0036611229
C0U880,北關,2025-02-24,24.9072,121.8734,0.069400534
C0U890,三星,2025-02-24,24.66812,121.65302,0.06743204
C0U900,內城,2025-02-24,24.71813,121.68766,0.022625282
C0U910,冬山,2025-02-24,24.63373,121.7937,0.09877016
C0U940,羅東,2025-02-24,24.68184,121.74934,0.026208969
C0U970,大福,2025-02-24,24.80064,121.81389,0.010806979
C0U990,員山,2025-02-24,24.74435,121.72247,0.026669724
C0UA00,土場,2025-02-24,24.576533,121.495333,0.010550892
C0UA80,大溪漁港,2025-02-24,24.941801,121.902955,0.05866735
C0UA90,石城,2025-02-24,24.980444,121.951214,0.06762834
C0UB00,淡江大學蘭陽校園,2025-02-24,24.823239,121.730383,0.009952381
C0UB10,蘇澳,2025-02-24,24.5969,121.8571,0.24023677
C0UB20,壯圍,2025-02-24,24.7359,121.8163,0.028961273
C0V350,溪埔,2025-02-24,22.738578,120.446797,0.11646872
C0V360,內門,2025-02-24,22.975481,120.466769,0.03690182
C0V370,古亭坑,2025-02-24,22.893178,120.401947,0.0156672
C0V400,阿公店,2025-02-24,22.804194,120.355528,0.017295726
C0V440,鳳山,2025-02-24,22.646653,120.356122,0.0021543694
C0V450,鳳森,2025-02-24,22.545064,120.392592,0.011284732
C0V490,新興,2025-02-24,22.627422,120.298803,0.005774541
C0V530,阿蓮,2025-02-24,22.883208,120.327508,0.008550009
C0V610,梓官,2025-02-24,22.760558,120.267211,0.0059948834
C0V620,永安,2025-02-24,22.82315,120.236856,0.002374137
C0V630,茄萣,2025-02-24,22.906642,120.182608,0.00061308325
C0V640,湖內,2025-02-24,22.887139,120.2445,0.001631879
C0V650,彌陀,2025-02-24,22.783806,120.246361,0.0031238536
C0V660,岡山,2025-02-24,22.797078,120.294958,0.0031238536
C0V680,仁武,2025-02-24,22.701083,120.347722,0.0034677347
C0V690,鼓山,2025-02-24,22.623325,120.275575,0.005774541
C0V700,三民,2025-02-24,22.645017,120.311233,0.002425316
C0V710,苓雅,2025-02-24,22.622742,120.330669,0.00662379
C0V720,林園,2025-02-24,22.507747,120.394511,0.016711535
C0V730,大寮,2025-02-24,22.605614,120.395717,0.0061227554
C0V740,旗山,2025-02-24,22.888614,120.483597,0.1130859
C0V750,路竹,2025-02-24,22.854997,120.259439,0.0015732838
C0V760,橋頭,2025-02-24,22.757806,120.30575,0.0059948834
C0V770,大社,2025-02-24,22.730306,120.346639,0.009117786
C0V790,萬山,2025-02-24,22.905944,120.688056,0.0440572
C0V800,六龜,2025-02-24,22.997889,120.633583,0.07708318
C0V810,左營,2025-02-24,22.67491,120.28491,0.002425316
C0V820,小林,2025-02-24,23.148408,120.63325,0.009115464
C0V840,鳳鼻頭,2025-02-24,22.5083,120.3591,0.016698988
C0V850,蚵仔寮,2025-02-24,22.7256,120.2527,0.0063309134
C0V860,南寮,2025-02-24,22.7616,120.2339,0.0063309134
C0V870,文安,2025-02-24,22.8025,120.2164,0.003268473
C0V880,興達,2025-02-24,22.8778,120.2127,0.0016969726
C0V890,前鎮,2025-02-24,22.5718,120.3117,0.005924997
C0V900,汕尾,2025-02-24,22.4782,120.4151,0.007979607
C0V910,大樹,2025-02-24,22.684645,120.432803,0.01762131
C0W200,湖西,2025-02-24,23.596314,119.67275,0.00042904483
C0X050,東河,2025-02-24,23.296598,120.385608,0.0024047936
C0X060,下營,2025-02-24,23.22695,120.256261,0.00096076843
C0X080,佳里,2025-02-24,23.173039,120.145086,0.00038142662
C0X100,臺南市北區,2025-02-24,23.010394,120.194228,0.0005827797
C0X110,臺南市南區,2025-02-24,22.961189,120.188378,0.00079322257
C0X120,麻豆,2025-02-24,23.183289,120.248611,0.0014411679
C0X130,官田,2025-02-24,23.193217,120.315422,0.0024965638
C0X140,西港,2025-02-24,23.125608,120.203108,0.0012437245
C0X150,安定,2025-02-24,23.102614,120.227839,0.0012437245
C0X160,仁德,2025-02-24,22.968258,120.257689,0.00078454264
C0X170,關廟,2025-02-24,22.963017,120.327797,0.005952186
C0X180,山上,2025-02-24,23.0757,120.363253,0.03704721
C0X190,安平,2025-02-24,22.993161,120.152181,0.0005827797
C0X200,左鎮,2025-02-24,23.056758,120.408522,0.0076412335
C0X210,白河,2025-02-24,23.347466,120.414427,0.0022169994
C0X220,學甲,2025-02-24,23.230367,120.182187,0.00037922512
C0X230,鹽水,2025-02-24,23.272621,120.247641,0.0005042903
C0X240,關子嶺,2025-02-24,23.331169,120.508025,0.0083776135
C0X250,新營,2025-02-24,23.310689,120.316681,0.0014426811
C0X260,後壁,2025-02-24,23.366358,120.362326,0.0013271708
C0X280,將軍,2025-02-24,23.214999,120.13577,0.00038050307
C0X290,北門,2025-02-24,23.267772,120.125481,0.00038050307
C0X300,鹿寮,2025-02-24,23.386047,120.477331,0.0021201507
C0X320,柳營,2025-02-24,23.253328,120.375253,0.0030123708
C0Z020,明里,2025-02-24,23.208717,121.262342,0.009484159
C0Z061,玉里,2025-02-24,23.3215,121.339656,0.0122270025
C0Z070,舞鶴,2025-02-24,23.46811,121.37407,0.0031858378
C0Z080,富源,2025-02-24,23.587642,121.378225,0.015365176
C0Z100,東華,2025-02-24,23.89525,121.549833,0.013371344
C0Z150,吉安光華,2025-02-24,23.930925,121.595153,0.021556968
C0Z160,鳳林,2025-02-24,23.746114,121.453411,0.011132307
C0Z170,卓溪,2025-02-24,23.3443,121.3029,0.005734391
C0Z180,新城,2025-02-24,24.03946,121.60454,0.016781531
C0Z190,富世,2025-02-24,24.14743,121.6297,0.0056855083
C0Z200,萬榮,2025-02-24,23.709219,121.420106,0.008821434
C0Z210,瑞穗,2025-02-24,23.5239,121.39021,0.0062198984
C0Z230,和平,2025-02-24,24.30717,121.77007,0.001638042
C0Z270,蕃薯寮,2025-02-24,23.73835,121.540108,0.0033478723
C0Z280,德武,2025-02-24,23.47426,121.41071,0.0050195307
C0Z300,東里,2025-02-24,23.26853,121.30547,0.012918363
C0Z310,清水斷崖,2025-02-24,24.218294,121.689142,0.0006873063
C0Z330,安通山,2025-02-24,23.290728,121.348528,0.0038409347
C2A540,四堵,2025-02-24,24.8926,121.745736,0.007717468
C2A560,福山,2025-02-24,24.776203,121.502811,0.019437212
C2A650,火燒寮,2025-02-24,25.002719,121.742892,0.015991926
C2A660,瑞芳,2025-02-24,25.113169,121.801147,0.013826578
C2A880,福隆,2025-02-24,25.017842,121.942083,0.07145359
C2A920,富貴角,2025-02-24,25.263783,121.565258,0.0025176243
C2D720,關西工作站,2025-02-24,24.757275,121.184792,0.0018170928
C2D730,寶山農場,2025-02-24,24.732444,120.976153,0.000545194
C2E520,大湖,2025-02-24,24.414939,120.870872,0.004779768
C2E540,後龍,2025-02-24,24.606489,120.783933,0.0002397934
C2E540,龍溪,2025-02-24,24.606489,120.783933,0.0002397934
C2E970,八甲,2025-02-24,24.535811,120.795983,0.0003037575
C2F000,大肚,2025-02-24,24.15295,120.572117,0.0034874505
C2F930,大甲,2025-02-24,24.347667,120.640403,0.00023305076
C2F9A0,中竹林,2025-02-24,24.103556,120.751061,0.025932986
C2G640,鹿港,2025-02-24,24.0753,120.430481,0.00027079295
C2G840,北斗,2025-02-24,23.877586,120.514222,0.0028502673
C2G870,芳苑,2025-02-24,23.922303,120.320025,0.00046034632
C2G980,田頭村,2025-02-24,23.8263,120.444175,0.0032918996
C2G9A0,畜試所彰化,2025-02-24,23.86045,120.557964,0.0072325245
C2H950,中寮,2025-02-24,23.884447,120.766406,0.018013358
C2H9F0,柑林,2025-02-24,24.018658,120.847072,0.027303267
C2H9H0,苗改南投蜂場,2025-02-24,23.852589,120.693481,0.007532868
C2H9T0,名間竹圍,2025-02-24,23.859914,120.637572,0.018060965
C2H9U0,鳳鵬,2025-02-24,23.763919,120.788061,0.025688203
C2K620,馬光農場,2025-02-24,23.721453,120.378864,0.0011212636
C2K630,荷苞,2025-02-24,23.657717,120.595144,0.00479983
C2M410,馬頭山,2025-02-24,23.324361,120.582017,0.020262381
C2M910,嘉義大學,2025-02-24,23.471325,120.485903,0.0050964784
C2M920,朴子農改,2025-02-24,23.469889,120.259383,0.00054380833
C2N160,西拉雅風管處,2025-02-24,23.189481,120.335297,0.00243976
C2O810,曾文,2025-02-24,23.219681,120.497328,0.05312656
C2O930,玉井,2025-02-24,23.126042,120.46055,0.03704721
C2O950,安南,2025-02-24,23.076694,120.144861,0.00034611073
C2R170,屏東,2025-02-24,22.66027,120.49403,0.03982633
C2R970,屏科大,2025-02-24,22.648275,120.619247,0.06563655
C2V250,甲仙,2025-02-24,23.080106,120.591758,0.032271694
C2V260,月眉,2025-02-24,22.971003,120.539853,0.10115932
C2W230,畜試所澎湖,2025-02-24,23.628342,119.513206,0.00036203727
CAG100,王功漁港,2025-02-24,23.96824,120.32586,0.00045710983
CAH030,茶改場竹圍站,2025-02-24,23.860083,120.637528,0.018060965
CAJ050,海口故事園區,2025-02-24,23.57543,120.14121,0.00027946796
CAL110,布袋國中,2025-02-24,23.35893,120.18026,0.00048880465
CAN130,水試所海水繁養殖中心,2025-02-24,23.120802,120.07968,0.0003517165
CAN140,六官養殖協會,2025-02-24,23.22881,120.29962,0.00096076843
CAQ030,崎峰國小,2025-02-24,22.42565,120.49521,0.007979607
E2K600,四湖植物園,2025-02-24,23.676986,120.163433,0.0003964569
E2P980,林試六龜中心,2025-02-24,22.991703,120.645722,0.06879201
E2S960,林試太麻里2,2025-02-24,22.598014,120.989761,0.017143076
E2S960,林試太麻里2,2025-02-24,22.598,120.99775,0.018168585
E2S980,林試太麻里1,2025-02-24,22.598922,120.980044,0.011740162
G2AI50,關渡,2025-02-24,25.11575,121.492,0.006919643
G2F820,農業試驗所,2025-02-24,24.031261,120.688133,0.011106745
G2F820,農試所(霧峰),2025-02-24,24.031261,120.688133,0.011106745
G2L020,農試嘉義分所,2025-02-24,23.485028,120.473806,0.004981232
G2M350,農試溪口農場,2025-02-24,23.58565,120.408111,0.0010455034
G2P820,農試鳳山分所,2025-02-24,22.646611,120.356083,0.0021543694
K2E360,苗栗農改,2025-02-24,24.495722,120.829111,0.0005613896
K2E360,苗栗農改場,2025-02-24,24.495722,120.829111,0.0005613896
K2E710,苗改生物防治研究中心,2025-02-24,24.422861,120.871833,0.0053133843
K2F750,種苗改良場,2025-02-24,24.225972,120.800917,0.00076867745
K2F750,種苗繁殖,2025-02-24,24.225972,120.800917,0.00076867745
U2HA50,臺大竹山,2025-02-24,23.756972,120.681556,0.019022556
V2C250,八德合作社,2025-02-24,24.93775,121.266389,0.0027086227
V2C260,八德蔬果,2025-02-24,24.978508,121.281819,0.0024929685
V2K610,大庄合作社,2025-02-24,23.8068,120.367939,0.00057293987
V2K620,麥寮合作社,2025-02-24,23.753836,120.294783,0.0002825883
