站號,站名,日期,lat,lon,BLBTSLS
C0K280,四湖,2025-12-04,23.630414,120.227125,0.99974585
CAH030,茶改場竹圍站,2025-12-04,23.860083,120.637528,2.122226e-09
V2K610,大庄合作社,2025-12-04,23.8068,120.367939,0.9997836
G2AI50,關渡,2025-12-04,25.11575,121.492,0.9993762
V2C260,八德蔬果,2025-12-04,24.978508,121.281819,0.998583
A2K570,古坑花卉中心,2025-12-04,23.63353,120.55239,7.316852e-09
467571,新竹,2025-12-04,24.827853,121.014219,0.99942553
C0E430,南庄,2025-12-04,24.601775,121.000214,9.715448e-09
C0E420,竹南,2025-12-04,24.708978,120.888897,0.99852633
C0M530,奮起湖,2025-12-04,23.493903,120.699253,1.7665257e-09
C0C590,觀音,2025-12-04,25.027072,121.153317,0.99399215
C0X060,下營,2025-12-04,23.22695,120.256261,0.9999548
C2D740,屯原,2025-12-04,24.067969,121.209389,3.459305e-08
C0M810,里佳,2025-12-04,23.389125,120.716647,2.4930402e-09
V2C250,八德合作社,2025-12-04,24.93775,121.266389,0.99829096
C0K250,崙背,2025-12-04,23.75555,120.318925,0.99974865
