站號,站名,日期,lat,lon,BlastGRU-TW
K2F750,種苗繁殖,2025-03-01,24.225972,120.800917,0.001043809
467990,馬祖,2025-03-01,26.169269,119.923419,0.0002437264
C2E540,後龍,2025-03-01,24.606489,120.783933,0.00026952027
467300,東吉島,2025-03-01,23.25695,119.667467,0.00021223858
G2F820,農業試驗所,2025-03-01,24.031261,120.688133,0.011880098
467410,臺南,2025-03-01,22.993239,120.204772,0.0016245627
E2S960,林試太麻里2,2025-03-01,22.598014,120.989761,0.01656877
72C440,桃園農改,2025-03-01,24.950944,121.030583,0.0002220841
C1H860,瑞岩,2025-03-01,24.123772,121.18345,0.00047409514
72G600,臺中農改,2025-03-01,24.003028,120.534389,0.0025675467
72N100,臺南農改,2025-03-01,23.0605,120.342194,0.008452973
72T250,花蓮農改,2025-03-01,23.975222,121.563889,0.0015715574
467620,蘭嶼,2025-03-01,22.036969,121.558339,0.00075231364
K2E360,苗栗農改,2025-03-01,24.495722,120.829111,0.0003761707
467050,新屋,2025-03-01,25.006744,121.047486,0.0002662996
467550,玉山,2025-03-01,23.487614,120.959522,0.0008156205
466881,新北,2025-03-01,24.9593,121.52,0.0057893186
467540,大武,2025-03-01,22.355675,120.903789,0.00729841
72Q010,高雄農改,2025-03-01,22.709333,120.525889,0.09426369
U2H480,臺大溪頭,2025-03-01,23.670306,120.798194,0.004015345
C0Z180,新城,2025-03-01,24.03946,121.60454,0.0016961591
B2N890,畜試所,2025-03-01,23.058972,120.336406,0.008452982
467441,高雄,2025-03-01,22.7304,120.3125,0.009755293
