站號,站名,日期,lat,lon,BlastGRU-TW
C0R710,龍磐,2025-02-07,21.931672,120.838942,0.0012049893
C1F9D1,白毛台,2025-02-07,24.158325,120.886933,0.00064510986
C0G940,竹塘,2025-02-07,23.848253,120.386764,0.003080589
467590,恆春,2025-02-07,22.003897,120.746339,0.0013341492
C1O850,環湖,2025-02-07,23.148617,120.418633,0.0011243402
C0U710,太平山,2025-02-07,24.505486,121.525656,0.00030990093
C0E820,獅潭,2025-02-07,24.539133,120.920042,0.0008235439
C0V880,興達,2025-02-07,22.8778,120.2127,0.0061695008
C0S890,關山,2025-02-07,23.0395,121.175017,0.00049867446
K2F750,種苗繁殖,2025-02-07,24.225972,120.800917,0.0007141594
C1Z130,銅門,2025-02-07,23.965694,121.492842,0.00022455957
C0AD40,土城,2025-02-07,24.973208,121.445169,0.0008780383
CAN140,六官養殖協會,2025-02-07,23.22881,120.29962,0.0027218212
C0X180,山上,2025-02-07,23.0757,120.363253,0.00544218
C0F9Z0,雪山東峰,2025-02-07,24.388792,121.268675,0.00029888854
C1M480,獨立山,2025-02-07,23.537022,120.607797,0.0023593712
C0X220,學甲,2025-02-07,23.230367,120.182187,0.0019815897
C0R170,屏東,2025-02-07,22.660269,120.494072,0.026509691
467650,日月潭,2025-02-07,23.881325,120.90805,0.0012245046
C0K600,箔子寮,2025-02-07,23.6197,120.14,0.0010100559
C0G830,埤頭,2025-02-07,23.866003,120.452806,0.0046814536
C0S950,七塊厝,2025-02-07,22.954453,121.229922,0.00046928262
467110,金門,2025-02-07,24.407306,118.289281,0.0009404849
C0AH80,深坑,2025-02-07,25.002703,121.628328,0.0008690895
467990,馬祖,2025-02-07,26.169269,119.923419,0.00063612754
C0A970,三貂角,2025-02-07,25.007606,122.002058,0.00021193588
C0K430,褒忠,2025-02-07,23.690938,120.303634,0.0004883724
467480,嘉義,2025-02-07,23.495925,120.432906,0.0028140657
C2E540,後龍,2025-02-07,24.606489,120.783933,0.00014821971
C0V400,阿公店,2025-02-07,22.804194,120.355528,0.019721374
C0R440,大漢山,2025-02-07,22.405264,120.753181,0.00032716175
C0K280,四湖,2025-02-07,23.630414,120.227125,0.00043187395
C1F9B1,桐林,2025-02-07,24.066172,120.735194,0.0001668676
C0K390,土庫,2025-02-07,23.679029,120.395574,0.004363874
C1I450,望鄉山,2025-02-07,23.594153,120.944286,0.0003177892
C0E910,海埔,2025-02-07,24.648767,120.772435,0.00089141936
B2E890,畜試北區分所,2025-02-07,24.527806,120.770972,0.00034781534
C0R750,四林格山,2025-02-07,22.076989,120.802439,0.00035174596
C0F0C0,中坑,2025-02-07,24.248517,120.903319,0.0024427779
C1I121,大鞍,2025-02-07,23.678381,120.760017,0.00049122196
72U480,花改蘭陽分場,2025-02-07,24.686306,121.716583,0.00023882047
C0A770,科教館,2025-02-07,25.096356,121.516507,0.0014348761
C0AJ60,六塊厝,2025-02-07,25.24,121.4481,0.0002361212
C0R620,墾雷,2025-02-07,21.900836,120.855269,0.0009729508
467420,永康,2025-02-07,23.038386,120.2367,0.0224003
467300,東吉島,2025-02-07,23.25695,119.667467,0.0003274753
C0I410,名間,2025-02-07,23.837053,120.701447,0.004967979
A2C560,農工中心,2025-02-07,24.985917,121.239833,0.0002680542
C0V740,旗山,2025-02-07,22.888614,120.483597,0.029150425
C0Z061,玉里,2025-02-07,23.3215,121.339656,0.00072997273
C0S840,南田,2025-02-07,22.279725,120.889208,0.0037521129
C1I470,杉林溪,2025-02-07,23.639517,120.786444,0.0004562644
C1X040,東原,2025-02-07,23.291597,120.463822,0.032917257
C0R660,枋寮,2025-02-07,22.367722,120.590647,0.018682659
C1R120,上德文,2025-02-07,22.763272,120.704442,0.0006228312
C0K450,大埤,2025-02-07,23.646074,120.431537,0.0034378672
C0UA00,土場,2025-02-07,24.576533,121.495333,0.0016126713
467080,宜蘭,2025-02-07,24.763975,121.756528,0.00053148053
C0N030,四草,2025-02-07,23.0235,120.1116,0.0030846864
C0V650,彌陀,2025-02-07,22.783806,120.246361,0.0064888443
C0D660,新竹市東區,2025-02-07,24.798681,120.986942,0.0009505448
82S580,茶改東部分場,2025-02-07,22.907694,121.130139,0.00034447285
C0C710,大溪永福,2025-02-07,24.892936,121.324975,0.0004186915
C0FA20,溫寮,2025-02-07,24.372177,120.583125,0.00029738832
C0V640,湖內,2025-02-07,22.887139,120.2445,0.006071008
C0R910,下寮,2025-02-07,22.3929,120.5548,0.018705416
C0Z020,明里,2025-02-07,23.208717,121.262342,0.0007600363
C0M770,嘉義梅山,2025-02-07,23.585398,120.555587,0.0058675855
G2F820,農業試驗所,2025-02-07,24.031261,120.688133,0.00018359367
C0C660,楊梅,2025-02-07,24.912375,121.143047,0.00096880726
C1E511,新開,2025-02-07,24.347703,120.827019,0.0010879154
G2F820,農試所(霧峰),2025-02-07,24.031261,120.688133,0.00018359367
C1I070,和社,2025-02-07,23.591131,120.888861,0.0006036167
C2F000,大肚,2025-02-07,24.15295,120.572117,0.005057073
C1S850,豐南,2025-02-07,23.122139,121.262389,0.00038370583
C2A920,富貴角,2025-02-07,25.263783,121.565258,0.00012936658
CAH030,茶改場竹圍站,2025-02-07,23.860083,120.637528,0.009599269
C0T960,光復,2025-02-07,23.660694,121.424964,0.00036941067
C0F9M0,豐原,2025-02-07,24.254322,120.720692,0.00039614938
C0R720,旭海,2025-02-07,22.205403,120.887614,0.0033291057
C0V710,苓雅,2025-02-07,22.622742,120.330669,0.013623282
C0C740,觀音工業區,2025-02-07,25.064764,121.114856,0.00097012665
CAC040,拉拉山,2025-02-07,24.699317,121.427133,0.00053240056
C0V790,萬山,2025-02-07,22.905944,120.688056,0.014834443
U2HA30,臺大和社,2025-02-07,23.590856,120.888864,0.0006036167
C0AJ90,澳底,2025-02-07,25.0552,121.9253,0.00019722771
C0Z100,東華,2025-02-07,23.89525,121.549833,0.0003062942
C0G970,三豐,2025-02-07,23.882,120.2895,0.000493761
V2K610,大庄合作社,2025-02-07,23.8068,120.367939,0.00031025655
C0V900,汕尾,2025-02-07,22.4782,120.4151,0.00784954
C1R630,龍泉,2025-02-07,22.66701,120.59091,0.089879155
C1AC50,關渡,2025-02-07,25.133486,121.469331,0.00018599542
C0F9I0,神岡,2025-02-07,24.272481,120.658314,0.00072392455
C0K460,斗南,2025-02-07,23.678734,120.478359,0.0033587052
467410,臺南,2025-02-07,22.993239,120.204772,0.007480783
C2O810,曾文,2025-02-07,23.219681,120.497328,0.044101644
467280,後龍,2025-02-07,24.648563,120.831834,0.0008523096
C1F9J1,清水林,2025-02-07,24.071242,120.820419,0.0045035267
C2A650,火燒寮,2025-02-07,25.002719,121.742892,0.0001247134
466930,竹子湖,2025-02-07,25.162078,121.544547,0.00060736295
C1I220,樟湖,2025-02-07,23.905333,120.846983,0.00053128606
C0I390,仁愛,2025-02-07,24.022122,121.132206,0.0012368313
C0Z300,東里,2025-02-07,23.26853,121.30547,0.00065040693
C0V310,美濃,2025-02-07,22.898742,120.519153,0.02996315
C1V590,新發,2025-02-07,23.057019,120.646064,0.003747674
C0K510,水林,2025-02-07,23.572924,120.24597,0.0012184354
72S590,東改賓朗果園,2025-02-07,22.813889,121.071278,0.0003447894
82A750,茶改北部分場,2025-02-07,24.955778,121.631222,0.00021286482
C1A750,石碇服務區,2025-02-07,25.00872,121.646242,0.00014432879
C0X300,鹿寮,2025-02-07,23.386047,120.477331,0.00840357
G2AI50,關渡,2025-02-07,25.11575,121.492,0.00015375155
C0K590,雲林東勢,2025-02-07,23.674192,120.255721,0.00048817182
C0A570,桶後,2025-02-07,24.848222,121.597992,0.00035055573
C1S800,華源,2025-02-07,22.657883,121.02325,0.00033553145
C0G720,溪州,2025-02-07,23.851589,120.499093,0.0045516607
C1V160,達卡努瓦,2025-02-07,23.279811,120.705319,0.0015037761
C2M410,馬頭山,2025-02-07,23.324361,120.582017,0.01610199
C0V850,蚵仔寮,2025-02-07,22.7256,120.2527,0.0124695795
C0S740,池上,2025-02-07,23.119628,121.209469,0.00070132676
C1V390,尖山,2025-02-07,22.813153,120.367789,0.014122559
C0AH70,松山,2025-02-07,25.04871,121.55042,0.0014260882
C0N010,鯤鯓國小,2025-02-07,23.1879,120.0889,0.0023625798
C0R550,新埤,2025-02-07,22.467947,120.582894,0.006838552
C0SA60,知本（水試所）,2025-02-07,22.702394,121.082761,0.0004384717
C0T9I0,豐濱,2025-02-07,23.583897,121.514806,0.0003929836
C0UB00,淡江大學蘭陽校園,2025-02-07,24.823239,121.730383,0.0011288336
C0T9N0,富里,2025-02-07,23.171639,121.249378,0.00076533534
U2HA50,臺大竹山,2025-02-07,23.756972,120.681556,0.0038772854
C0V840,鳳鼻頭,2025-02-07,22.5083,120.3591,0.014076326
C0X140,西港,2025-02-07,23.125608,120.203108,0.002861775
72D080,桃改五峰分場,2025-02-07,24.612194,121.157167,0.00045464127
C0V530,阿蓮,2025-02-07,22.883208,120.327508,0.0096269045
C1O880,關山,2025-02-07,23.173397,120.594092,0.018397521
C0E791,卓蘭,2025-02-07,24.3126,120.8244,0.001081823
C1I030,武界,2025-02-07,23.913225,121.052483,0.00056992035
C0R520,崁頂,2025-02-07,22.514781,120.506914,0.027890405
C0R341,牡丹,2025-02-07,22.130036,120.792639,0.0021445153
C0R930,萬丹,2025-02-07,22.5885,120.4851,0.047941525
C0S760,紅石,2025-02-07,23.069131,121.126219,0.0003458127
C1M610,石磐龍,2025-02-07,23.496606,120.663506,0.001950553
C0UA10,鴛鴦湖,2025-02-07,24.590269,121.412228,0.00056016404
V2C260,八德蔬果,2025-02-07,24.978508,121.281819,0.00025736837
C0R800,丹路,2025-02-07,22.204481,120.750989,0.0030749168
C0G920,永靖,2025-02-07,23.924703,120.547533,0.0009367455
C1A630,下盆,2025-02-07,24.771003,121.538622,0.0004367832
B2N890,畜產試驗所,2025-02-07,23.058972,120.336406,0.007857182
C0UA30,白嶺,2025-02-07,24.527819,121.519031,0.00059750106
C1V580,溪南(特生中心),2025-02-07,23.084972,120.788475,0.0005274193
C1T970,大農,2025-02-07,23.615233,121.413331,0.00025667093
E2S960,林試太麻里2,2025-02-07,22.598014,120.989761,0.009222298
C0R650,竹田,2025-02-07,22.58486,120.54344,0.040581718
C1H900,清流,2025-02-07,24.080775,120.962997,0.0016833376
C1C510,水尾,2025-02-07,24.940081,121.087161,0.00029369272
C0F9X0,大雅(中科園區),2025-02-07,24.21528,120.62445,0.00022108012
C0O970,虎頭埤,2025-02-07,23.021375,120.347878,0.00981635
C0C730,中大臨海站,2025-02-07,24.966126,121.008581,0.0010679379
C0X250,新營,2025-02-07,23.310689,120.316681,0.0023278256
C0V700,三民,2025-02-07,22.645017,120.311233,0.008150082
C0U870,大礁溪,2025-02-07,24.791042,121.675047,0.001046138
C0E870,高鐵苗栗,2025-02-07,24.60725,120.826094,0.00032024088
A2K570,古坑花卉中心,2025-02-07,23.63353,120.55239,0.005534388
C0M860,新美,2025-02-07,23.338017,120.683169,0.013606805
C1E701,八卦,2025-02-07,24.491756,120.927619,0.00024675342
C0I420,國姓,2025-02-07,24.037803,120.855072,0.0077765356
C0S960,香蘭,2025-02-07,22.587569,120.993375,0.0071841604
C0R260,春日,2025-02-07,22.370361,120.628306,0.010065469
72G600,臺中農改場,2025-02-07,24.003028,120.534389,0.00059327966
C0Z210,瑞穗,2025-02-07,23.5239,121.39021,0.00031446855
C0M820,達邦,2025-02-07,23.453994,120.749517,0.0036402992
C0V860,南寮,2025-02-07,22.7616,120.2339,0.012367652
C0G740,大城,2025-02-07,23.852487,120.320935,0.0004892783
C0R920,塭仔,2025-02-07,22.4169,120.5197,0.019580262
C0R470,高樹,2025-02-07,22.826389,120.600806,0.028758725
C0R680,佳樂水,2025-02-07,21.993578,120.861633,0.0011339103
C1O870,大棟山,2025-02-07,23.31157,120.52226,0.0022417074
C0D360,梅花,2025-02-07,24.678347,121.208558,0.0003757768
C0Z190,富世,2025-02-07,24.14743,121.6297,0.00016521693
C0AI10,屈尺,2025-02-07,24.92184,121.54475,0.00036744418
B2U990,畜試東區分所,2025-02-07,24.669039,121.832561,0.00030813823
C0R240,來義,2025-02-07,22.527306,120.625111,0.013446162
C1R610,西大武山,2025-02-07,22.617719,120.7322,0.000238026
C0G900,線西,2025-02-07,24.143358,120.443536,0.0002834831
C0M700,竹崎,2025-02-07,23.526178,120.555508,0.0073178792
C2E880,三義,2025-02-07,24.405478,120.749819,0.00079531374
C0C720,竹圍,2025-02-07,25.112692,121.239824,0.00051919004
C0F9P0,清水,2025-02-07,24.312297,120.562242,0.0002912648
C0Z150,吉安光華,2025-02-07,23.930925,121.595153,0.00030244412
C1D640,外坪(五指山),2025-02-07,24.644447,121.090961,0.00023983387
C0F9O0,潭子,2025-02-07,24.213106,120.703933,0.0006920357
72T250,花蓮農改場,2025-02-07,23.975222,121.563889,0.00026113284
C0E780,銅鑼,2025-02-07,24.489681,120.790853,0.0007181985
C1T950,太安,2025-02-07,23.666719,121.370128,0.00072013773
C0E830,苑裡,2025-02-07,24.439714,120.653053,0.00034181232
467270,田中,2025-02-07,23.873803,120.581286,0.010542851
C0SA10,檳榔四格山,2025-02-07,22.810031,121.109308,0.0005136786
C1T830,布洛灣,2025-02-07,24.17184,121.57127,0.00041634345
C0F970,大坑,2025-02-07,24.173142,120.722289,0.0007062615
C1U920,思源,2025-02-07,24.393125,121.347214,0.00038591787
C0A931,三和,2025-02-07,25.233153,121.595236,0.00025014358
C0I010,廬山,2025-02-07,24.033311,121.181808,0.00064223516
C0R860,鼻頭,2025-02-07,22.1043,120.8979,0.00034390946
C0UB20,壯圍,2025-02-07,24.7359,121.8163,0.0015467635
C0R790,九棚,2025-02-07,22.14195,120.889281,0.0028927277
C0W110,東莒,2025-02-07,25.9652,119.98069,0.000349192
C1U930,粉鳥林,2025-02-07,24.497088,121.842479,0.0002937417
C1I211,蘆竹湳,2025-02-07,23.934019,120.811994,0.0049164533
C0S830,長濱,2025-02-07,23.286817,121.411975,0.0006168005
C1F9F1,伯公龍,2025-02-07,24.272392,120.849047,0.00063241954
C0E810,西湖,2025-02-07,24.562947,120.7485,0.00073296984
C1I440,新高口,2025-02-07,23.478744,120.878939,0.00032622425
C0O840,王爺宮,2025-02-07,23.222064,120.40085,0.01836206
C0T9G0,鳳林山,2025-02-07,23.735269,121.420131,0.00033602733
C0X080,佳里,2025-02-07,23.173039,120.145086,0.0022369632
C0Z310,清水斷崖,2025-02-07,24.218294,121.689142,0.00016092561
C0M680,太保,2025-02-07,23.455062,120.331455,0.0015841261
C1S820,金峰,2025-02-07,22.590969,120.933236,0.0067607574
C0AD10,八里,2025-02-07,25.150211,121.403947,0.0005189513
C2K240,草嶺,2025-02-07,23.59555,120.693461,0.0017675548
C1SA70,都蘭,2025-02-07,22.87794,121.226881,0.0003612283
C0K440,二崙,2025-02-07,23.772797,120.408944,0.004601126
C1A760,坪林交控,2025-02-07,24.94284,121.713442,0.00013805911
C0F9N0,大里,2025-02-07,24.092464,120.701378,0.0069591184
C0SA90,達仁林場,2025-02-07,22.264347,120.823972,0.0029957385
C1R290,石門山,2025-02-07,22.112611,120.756597,0.0004000028
42HA10,萬大發電廠,2025-02-07,23.978875,121.139639,0.00061843544
C0R890,山海,2025-02-07,21.9878,120.7091,0.00034543773
C0T9A0,月眉山,2025-02-07,23.809928,121.539828,0.00027173123
C0AC70,信義,2025-02-07,25.037822,121.564597,0.0014283321
C0K560,棋山,2025-02-07,23.68645,120.603417,0.0070535177
C1Z240,中平林道,2025-02-07,23.42115,121.26763,0.00058363745
U2H480,溪頭,2025-02-07,23.670306,120.798194,0.0010009955
C0M880,好美里,2025-02-07,23.3364,120.138,0.0021982433
C0T9E0,大坑,2025-02-07,23.880628,121.581981,0.00024251523
C0K530,臺西,2025-02-07,23.701547,120.197559,0.00043714038
C1E900,國一N128K,2025-02-07,24.560997,120.844186,0.00031901803
C0AJ50,水湳洞,2025-02-07,25.123695,121.862238,0.00026109547
C0AI20,白沙灣,2025-02-07,25.283128,121.519058,0.00023811497
C0A860,大坪,2025-02-07,25.165914,121.632969,0.0007856375
C1U850,觀音海岸,2025-02-07,24.38319,121.77856,0.0001592801
C0U950,鶯子嶺,2025-02-07,24.89754,121.79244,0.0005715491
C0O900,善化,2025-02-07,23.112883,120.297219,0.0111994175
C0K550,蔦松,2025-02-07,23.514319,120.229736,0.0011557472
E2P980,林試六龜中心,2025-02-07,22.991703,120.645722,0.030370723
C0E590,通霄,2025-02-07,24.471892,120.704622,0.00076000846
C1I310,西巒,2025-02-07,23.754486,120.883956,0.00049431453
C0A550,泰平,2025-02-07,24.971197,121.823711,0.00041977334
C0I360,水里,2025-02-07,23.812553,120.849792,0.010175524
C0R830,高士,2025-02-07,22.121825,120.836781,0.00039007422
C1I101,溪頭,2025-02-07,23.661789,120.807647,0.000349203
C0AJ20,野柳,2025-02-07,25.20703,121.690021,0.00024224508
C0B060,暖暖,2025-02-07,25.0957,121.7403,0.00081304077
C1H920,長豐,2025-02-07,24.102039,120.879897,0.004146783
C0V360,內門,2025-02-07,22.975481,120.466769,0.03454012
C0R850,林邊,2025-02-07,22.4634,120.5339,0.0074916203
C0E930,龍鳳,2025-02-07,24.700034,120.859125,0.0009354411
C0U910,冬山,2025-02-07,24.63373,121.7937,0.0016843347
C1E721,泰安,2025-02-07,24.489017,120.968036,0.00061137055
82H320,茶改中部分場,2025-02-07,23.875611,120.913583,0.00071035686
C0M750,布袋,2025-02-07,23.380878,120.167789,0.0013756669
C1S860,利嘉,2025-02-07,22.809417,121.050528,0.004169603
72C440,桃園農改,2025-02-07,24.950944,121.030583,0.00029984096
E2S980,林試太麻里1,2025-02-07,22.598922,120.980044,0.0077072466
C0X170,關廟,2025-02-07,22.963017,120.327797,0.0057106027
C0V720,林園,2025-02-07,22.507747,120.394511,0.021762196
C1I510,線浸林道,2025-02-07,23.761508,120.832956,0.0006286246
C0D690,外湖,2025-02-07,24.917735,120.968711,0.0011755925
C0C750,新興坑尾,2025-02-07,25.0061,121.0971,0.00096185924
B2Q810,畜試南區分所,2025-02-07,21.945583,120.802167,0.0012698172
C0S790,金崙,2025-02-07,22.538122,120.966875,0.0025556947
C0AH90,福山植物園,2025-02-07,24.760717,121.58135,0.00034588555
C0I540,奇萊稜線,2025-02-07,24.109231,121.326456,0.00037606046
C0M850,表湖,2025-02-07,23.24186,120.64166,0.0033701006
C0S770,大溪山,2025-02-07,22.478475,120.943325,0.0033892177
C0AG80,中和,2025-02-07,24.991622,121.491792,0.0008784324
C0T790,大禹嶺,2025-02-07,24.186117,121.316086,0.00042471456
C0T9B0,水源,2025-02-07,23.991861,121.537169,0.00018669693
C0R840,牡丹池山,2025-02-07,22.168389,120.841225,0.0023390173
C1I131,桶頭,2025-02-07,23.641944,120.654117,0.0063276924
CAL110,布袋國中,2025-02-07,23.35893,120.18026,0.002388478
467571,新竹,2025-02-07,24.827853,121.014219,0.00092351803
C0Z290,赤柯山,2025-02-07,23.36893,121.38293,0.00020671103
C0X280,將軍,2025-02-07,23.214999,120.13577,0.0020046665
C0S690,太麻里,2025-02-07,22.60902,120.98533,0.00027818503
C0U880,北關,2025-02-07,24.9072,121.8734,0.0011147271
C1H860,瑞岩,2025-02-07,24.123772,121.18345,0.00041071206
C0G810,埔心,2025-02-07,23.947633,120.525456,0.00094307365
C0U970,大福,2025-02-07,24.80064,121.81389,0.0014829111
C1E670,南礦,2025-02-07,24.538278,121.002836,0.000645893
C0M520,東後寮,2025-02-07,23.369908,120.248065,0.0022268987
C1E461,松安,2025-02-07,24.397972,120.986022,0.0006004944
72G600,臺中農改,2025-02-07,24.003028,120.534389,0.00059327966
C2N160,西拉雅風管處,2025-02-07,23.189481,120.335297,0.0032155856
C0A640,石碇,2025-02-07,24.993969,121.662917,0.00037390308
E2S960,林試太麻里2,2025-02-07,22.598,120.99775,0.009379028
C0F9Y0,桃山,2025-02-07,24.432739,121.303808,0.00026994204
C1I020,萬大,2025-02-07,23.979817,121.132261,0.0006789801
C0U940,羅東,2025-02-07,24.68184,121.74934,0.0015296218
C0M650,朴子,2025-02-07,23.43463,120.23902,0.0014630125
C1I500,大尖山,2025-02-07,23.858572,120.994889,0.00023688424
C0G820,田尾,2025-02-07,23.901669,120.509389,0.0009392318
E2K600,四湖植物園,2025-02-07,23.676986,120.163433,0.00033718275
C0S730,綠島,2025-02-07,22.6672,121.47533,0.0021768122
12Q970,東港工作站,2025-02-07,22.479997,120.466058,0.020901347
C0E430,南庄,2025-02-07,24.601775,121.000214,0.0008096638
C1TA00,太魯閣,2025-02-07,24.15773,121.6236,0.0001458413
466920,臺北,2025-02-07,25.037658,121.514853,0.0014260882
C0R600,舊泰武,2025-02-07,22.588194,120.664944,0.0037801492
C1I260,北坑,2025-02-07,23.9246,121.006903,0.004423794
466910,鞍部,2025-02-07,25.182586,121.529731,0.00021432871
C1I230,九份二山,2025-02-07,23.961944,120.845,0.0005797731
C2A660,瑞芳,2025-02-07,25.113169,121.801147,0.00014240523
C0R270,琉球嶼,2025-02-07,22.332244,120.362236,0.0106711015
C1T990,高寮,2025-02-07,23.394239,121.356808,0.00049764826
C0G620,芬園,2025-02-07,24.015678,120.6213,0.00084878574
C1Z140,荖溪,2025-02-07,23.890575,121.45964,0.00061848207
C1I201,中心崙,2025-02-07,23.728722,120.712097,0.003455157
C1I400,凌霄,2025-02-07,24.018778,121.004456,0.0005977884
C1M640,十字,2025-02-07,23.492153,120.753683,0.00043444845
G2P820,農試鳳山分所,2025-02-07,22.646611,120.356083,0.008244999
C0Z270,蕃薯寮,2025-02-07,23.73835,121.540108,0.00023159765
C0F9Q0,外埔,2025-02-07,24.347817,120.705686,0.0007298705
C0K580,高鐵雲林,2025-02-07,23.737456,120.417944,0.0044923835
C2I090,鳳凰,2025-02-07,23.728081,120.787347,0.0016157513
C0U990,員山,2025-02-07,24.74435,121.72247,0.0015397636
C0V770,大社,2025-02-07,22.730306,120.346639,0.012117338
C0X120,麻豆,2025-02-07,23.183289,120.248611,0.002760312
C0C670,龍潭,2025-02-07,24.870056,121.221389,0.00067059364
C0D680,香山濕地,2025-02-07,24.783581,120.914988,0.0010483
C0S980,勝林山,2025-02-07,22.430439,120.8938,0.0009615504
C0V730,大寮,2025-02-07,22.605614,120.395717,0.01658655
C0R570,麟洛,2025-02-07,22.65078,120.52719,0.026538493
CAG100,王功漁港,2025-02-07,23.96824,120.32586,0.00037766693
C0X290,北門,2025-02-07,23.267772,120.125481,0.0020124854
C2F930,大甲,2025-02-07,24.347667,120.640403,0.0001516051
C0D650,湖口,2025-02-07,24.904794,121.043628,0.000992642
C0E420,竹南,2025-02-07,24.708978,120.888897,0.0008777525
C0U780,五結,2025-02-07,24.68637,121.79794,0.0015504889
C1I250,鯉潭,2025-02-07,23.961922,120.991131,0.0015389821
C0R130,阿禮,2025-02-07,22.742908,120.743678,0.0007917971
C0X100,臺南市北區,2025-02-07,23.010394,120.194228,0.004269124
C0S920,金峰嘉蘭,2025-02-07,22.594789,120.960825,0.0037550232
C0V490,新興,2025-02-07,22.627422,120.298803,0.0135252895
C0F9K0,大安,2025-02-07,24.345061,120.588025,0.00029193814
72N100,臺南農改,2025-02-07,23.0605,120.342194,0.0077636144
467290,古坑,2025-02-07,23.633639,120.551889,0.014709729
C0V440,鳳山,2025-02-07,22.646653,120.356122,0.008072015
C1T940,大觀,2025-02-07,23.714206,121.373133,0.00019246373
72T250,花蓮農改,2025-02-07,23.975222,121.563889,0.00026113284
C0E740,造橋,2025-02-07,24.637056,120.864778,0.0008648806
C0R100,尾寮山,2025-02-07,22.833111,120.683889,0.00077599083
A2K630,臺大雲林校區,2025-02-07,23.730628,120.423903,0.0063954075
C0D580,寶山,2025-02-07,24.735006,121.025192,0.00080030435
E2P990,林試扇平站,2025-02-07,22.9677,120.6857,0.0063335453
C0AI30,三重,2025-02-07,25.057328,121.500629,0.0014348761
C0AH00,汐止,2025-02-07,25.066881,121.658778,0.0014260882
C1Z040,立山,2025-02-07,23.443356,121.327375,0.00028673076
C0W130,花嶼,2025-02-07,23.40007,119.32276,0.00025997992
C0A950,鼻頭角,2025-02-07,25.129036,121.923372,0.00016697265
C0K470,林內,2025-02-07,23.748675,120.609642,0.006688617
82C160,茶改場,2025-02-07,24.908472,121.185333,0.00025442164
C0Z320,清水林道,2025-02-07,23.27125,121.188272,0.00030113585
C0R760,南仁湖,2025-02-07,22.084681,120.863353,0.0004574282
C0M670,大林,2025-02-07,23.600616,120.45841,0.0009448045
C0M800,茶山,2025-02-07,23.299075,120.664767,0.026410365
C0A9C0,天母,2025-02-07,25.117494,121.537169,0.00093742093
72K220,南改斗南分場,2025-02-07,23.634556,120.477333,0.0058524683
72AI40,桃改樹林分場,2025-02-07,24.944503,121.386972,0.00014158175
C0S910,蘭嶼燈塔,2025-02-07,22.081197,121.503117,0.0002654967
C0B050,八斗子,2025-02-07,25.144754,121.79167,0.0002601634
C0U900,內城,2025-02-07,24.71813,121.68766,0.0014851537
C0X320,柳營,2025-02-07,23.253328,120.375253,0.0012338568
C0M790,新港,2025-02-07,23.553269,120.345728,0.0013918232
C0F9T0,西屯,2025-02-07,24.179494,120.641275,0.00024187122
C0SA30,都歷,2025-02-07,23.020333,121.323642,0.0004997201
C0C620,蘆竹,2025-02-07,25.084275,121.265767,0.00056576537
C0R730,大坪頂,2025-02-07,22.024633,120.69355,0.0013977515
C0AJ40,石門,2025-02-07,25.273672,121.601198,0.00024088599
C0E750,苗栗,2025-02-07,24.564569,120.824575,0.00080250687
C0T870,鯉魚潭,2025-02-07,23.935639,121.508944,0.00023240857
C1V170,排雲,2025-02-07,23.463619,120.954147,0.00029000075
C2H950,中寮,2025-02-07,23.884447,120.766406,0.0001787813
C0R350,貓鼻頭,2025-02-07,21.921774,120.7358,0.0002936496
C0V660,岡山,2025-02-07,22.797078,120.294958,0.006525736
C1H941,雙冬,2025-02-07,23.967378,120.802189,0.0042432365
C0AJ70,田寮,2025-02-07,25.2698,121.4886,0.00023877314
C0AI00,五股,2025-02-07,25.07445,121.42728,0.0009422223
C0Z280,德武,2025-02-07,23.47426,121.41071,0.00033299866
C0R700,枋山,2025-02-07,22.246844,120.661086,0.0016890212
C0C460,復興,2025-02-07,24.820208,121.352281,0.00029827422
E2H360,蓮華池,2025-02-07,23.918333,120.885278,0.0034543932
C0M640,中埔,2025-02-07,23.42538,120.5229,0.0081321215
C0W140,金沙,2025-02-07,24.488292,118.408778,0.0013323899
C2A540,四堵,2025-02-07,24.8926,121.745736,0.00020496879
C0ACA0,新莊,2025-02-07,25.051478,121.446756,0.0011228054
C0R220,潮州,2025-02-07,22.534361,120.54,0.026297202
U2HA40,臺大內茅埔,2025-02-07,23.689722,120.851117,0.009147394
467490,臺中,2025-02-07,24.145736,120.684075,0.00032023204
C0U960,翠峰湖,2025-02-07,24.510856,121.608044,0.00047782747
E2HA20,林試畢祿溪站,2025-02-07,24.226944,121.308522,0.00037217743
C0V890,前鎮,2025-02-07,22.5718,120.3117,0.013811592
467620,蘭嶼,2025-02-07,22.036969,121.558339,0.00012445016
C1F941,雪嶺,2025-02-07,24.280586,121.026642,0.00039416132
C0AC80,文山,2025-02-07,25.00235,121.575728,0.00086854526
C0F9R0,龍井,2025-02-07,24.184536,120.528972,0.00028967133
C0M760,民雄,2025-02-07,23.551754,120.428457,0.0009578486
C0UA40,西德山,2025-02-07,24.560647,121.752608,0.00064982544
C1T920,中興,2025-02-07,23.769503,121.498653,0.00039956396
C0D550,雪霸,2025-02-07,24.526972,121.11605,0.0006199569
C2F860,梨山,2025-02-07,24.247522,121.243669,0.0003716663
C0R320,車城,2025-02-07,22.0744,120.716247,0.0002606142
C1S870,南美山,2025-02-07,23.15025,121.382333,0.000641292
C0B020,基隆嶼,2025-02-07,25.19141,121.78391,0.00029387366
C1U501,牛鬥,2025-02-07,24.637836,121.573656,0.00023457088
C0M730,嘉義市東區,2025-02-07,23.457673,120.460531,0.002400301
C0S700,知本,2025-02-07,22.684866,121.005642,0.0009123807
C1N001,沙崙,2025-02-07,22.935472,120.309406,0.008140048
C0V760,橋頭,2025-02-07,22.757806,120.30575,0.01229309
C0G960,福寶,2025-02-07,24.0443,120.3814,0.0008418009
C0X210,白河,2025-02-07,23.347466,120.414427,0.001320628
C0S810,東河,2025-02-07,22.972672,121.303986,0.00077699724
C0R670,楓港,2025-02-07,22.190131,120.692156,0.0019113418
C0FA50,霧峰,2025-02-07,24.0419,120.6995,0.00025880392
C0UB10,蘇澳,2025-02-07,24.5969,121.8571,0.0013158419
C0G950,防潮門,2025-02-07,24.1835,120.4871,0.00029046228
C0M740,六腳,2025-02-07,23.492871,120.290625,0.001401018
C1R250,力里,2025-02-07,22.428117,120.629228,0.027820192
C0K330,虎尾,2025-02-07,23.719183,120.442036,0.0043737027
C2FA00,烏石坑,2025-02-07,24.273503,120.947617,0.00043677402
C0V620,永安,2025-02-07,22.82315,120.236856,0.0064888443
C1I330,楓樹林,2025-02-07,23.986803,121.076117,0.00049296697
C0W200,湖西,2025-02-07,23.596314,119.67275,0.00030432676
72Q010,高雄農改場,2025-02-07,22.709333,120.525889,0.057393365
C0SA40,瑞和,2025-02-07,22.974361,121.156697,0.00048302027
C0C680,龜山,2025-02-07,25.02846,121.38656,0.0004127678
C2V260,月眉,2025-02-07,22.971003,120.539853,0.08673677
C0V450,鳳森,2025-02-07,22.545064,120.392592,0.0143572735
C0U720,南山,2025-02-07,24.43742,121.38167,0.00067594013
A2N290,臺南蘭花園區,2025-02-07,23.340258,120.379661,0.0011070769
C0R560,新園,2025-02-07,22.5434,120.461558,0.021762196
C0U890,三星,2025-02-07,24.66812,121.65302,0.001810979
C1V300,御油山,2025-02-07,23.001983,120.715364,0.00039237252
C0U600,礁溪,2025-02-07,24.817539,121.765608,0.0013610298
C1T980,龍澗,2025-02-07,24.023289,121.411328,0.0005239944
C0D670,海天一線,2025-02-07,24.831986,120.914438,0.0007683574
C0SA00,歷坵,2025-02-07,22.520969,120.89185,0.0019987551
C0M710,東石,2025-02-07,23.458927,120.15385,0.0009925413
C0M780,鹿草,2025-02-07,23.41134,120.30835,0.0014358978
C0U520,雙連埤,2025-02-07,24.753033,121.641303,0.0010398424
C0B010,七堵,2025-02-07,25.094819,121.71713,0.0008598058
C0R480,長治,2025-02-07,22.693128,120.542622,0.046908714
C1V830,國三S383K,2025-02-07,22.781967,120.426475,0.11276244
12Q980,恆春工作站,2025-02-07,22.079678,120.714425,0.0005814504
C1O940,東山服務區,2025-02-07,23.286016,120.398472,0.0011531118
C1U840,東澳嶺,2025-02-07,24.5378,121.8485,0.00026630337
C1D630,飛鳳山,2025-02-07,24.766464,121.119178,0.00019441864
C0S940,石寧山,2025-02-07,23.223772,121.406639,0.0009361169
C0K410,北港,2025-02-07,23.573957,120.292802,0.0012053268
C2M620,瑞里,2025-02-07,23.545133,120.675197,0.0014389046
C2O950,安南,2025-02-07,23.076694,120.144861,0.0045675337
C0F0E0,南湖圈谷,2025-02-07,24.363714,121.444667,0.00029044953
467610,成功,2025-02-07,23.097486,121.373428,0.0004613648
C0G890,伸港,2025-02-07,24.148933,120.484403,0.0002828484
C2E540,龍溪,2025-02-07,24.606489,120.783933,0.00014821971
C1V200,梅山,2025-02-07,23.268447,120.823556,0.0021730277
C0T9H0,加路蘭山,2025-02-07,23.682947,121.5274,0.00029257205
C2O930,玉井,2025-02-07,23.126042,120.46055,0.0011028595
C1F911,新伯公,2025-02-07,24.221361,120.841069,0.00078791444
C0R490,九如,2025-02-07,22.7405,120.490503,0.01601131
C0X200,左鎮,2025-02-07,23.056758,120.408522,0.010516074
C1F891,稍來,2025-02-07,24.265689,121.001142,0.00034727
72N240,七股研究中心,2025-02-07,23.081672,120.062894,0.0022769538
C0C700,中壢,2025-02-07,24.977661,121.256375,0.0009535694
C0M690,水上,2025-02-07,23.419734,120.388909,0.0015491056
C0V690,鼓山,2025-02-07,22.623325,120.275575,0.013540936
C0O860,大內,2025-02-07,23.11885,120.36083,0.010461986
C0Z200,萬榮,2025-02-07,23.709219,121.420106,0.00035365127
C0T9D0,和中,2025-02-07,24.26676,121.74103,0.0004323872
C1O921,楠西,2025-02-07,23.183511,120.484083,0.0010542319
C0AJ30,淡水觀海,2025-02-07,25.184591,121.408616,0.00040094176
C0V810,左營,2025-02-07,22.67491,120.28491,0.008157456
C0UA70,桃源谷,2025-02-07,24.962606,121.888875,0.0007245603
C0X130,官田,2025-02-07,23.193217,120.315422,0.0032571186
C1H000,翠峰,2025-02-07,24.109397,121.205211,0.00038024306
C0UA90,石城,2025-02-07,24.980444,121.951214,0.0008028988
C1E681,南勢山,2025-02-07,24.421669,120.923831,0.000517077
C0A9F0,內湖,2025-02-07,25.079422,121.57545,0.0014260882
C0K291,宜梧,2025-02-07,23.536281,120.169329,0.001157209
C1K540,口湖,2025-02-07,23.585344,120.180517,0.001057338
C0R780,滿州,2025-02-07,22.024403,120.839892,0.0020621587
C0V870,文安,2025-02-07,22.8025,120.2164,0.00656447
C0U650,玉蘭,2025-02-07,24.675286,121.587061,0.0009942448
C0R640,東港,2025-02-07,22.46247,120.44074,0.007828145
K2E360,苗栗農改,2025-02-07,24.495722,120.829111,0.00033457796
C0AJ80,板橋,2025-02-07,25.0107,121.4489,0.0008866261
C0S660,下馬,2025-02-07,23.150427,121.070312,0.00028438264
C1H9B1,阿眉,2025-02-07,24.1263,120.994672,0.00029427797
C0UA20,多加屯,2025-02-07,24.368614,121.373189,0.00036902897
C0E730,頭份,2025-02-07,24.688247,120.912206,0.00088735676
72V140,高改旗南分場,2025-02-07,22.857861,120.516667,0.1420739
C0K480,莿桐,2025-02-07,23.761192,120.502372,0.0034335828
C0U980,坪林石牌,2025-02-07,24.86478,121.77396,0.000927601
C0T900,西林,2025-02-07,23.8119,121.441458,0.0003081127
C1I150,青雲,2025-02-07,23.793361,120.949378,0.009796038
467350,澎湖,2025-02-07,23.565503,119.563094,0.00026249772
C0G800,埔鹽,2025-02-07,24.000394,120.431683,0.00084541173
C0H960,草屯,2025-02-07,23.973672,120.68085,0.000252037
C1V780,多納林道,2025-02-07,22.888028,120.737917,0.0019609015
C0E920,通霄漁港,2025-02-07,24.498589,120.673876,0.0003490336
C0Z330,安通山,2025-02-07,23.290728,121.348528,0.0004481646
C0AH10,永和,2025-02-07,25.01125,121.508111,0.00088168756
C2G640,鹿港,2025-02-07,24.0753,120.430481,0.00058183784
C1E890,國三N149K,2025-02-07,24.463414,120.680019,0.0003577264
C1R110,口社,2025-02-07,22.770111,120.645222,0.07297805
C1M870,國三N285K,2025-02-07,23.550319,120.505833,0.005033254
467050,新屋,2025-02-07,25.006744,121.047486,0.0010351506
C1E480,鳳美,2025-02-07,24.554803,121.034747,0.00027019772
C0M530,奮起湖,2025-02-07,23.493903,120.699253,0.0012862931
C0C590,觀音,2025-02-07,25.027072,121.153317,0.0008634737
C0T9M0,靜浦,2025-02-07,23.455167,121.495028,0.0005157042
C0AI40,石牌,2025-02-07,25.115597,121.513139,0.0009602765
C1F871,上谷關,2025-02-07,24.203483,121.018644,0.0009853955
C0G880,二水,2025-02-07,23.810742,120.6173,0.006985745
C0R940,加祿堂,2025-02-07,22.3363,120.6217,0.0035130621
C0W220,北竿,2025-02-07,26.220358,119.974881,0.0010604013
C0O960,崎頂,2025-02-07,22.959547,120.369317,0.00790119
C0S750,向陽,2025-02-07,23.248397,120.986133,0.00053530326
C0T9F0,水璉,2025-02-07,23.797131,121.542514,0.0002883163
C1M600,頭凍,2025-02-07,23.406364,120.603339,0.0018258326
467660,臺東,2025-02-07,22.752211,121.154586,0.00035528347
C1D380,新埔,2025-02-07,24.84745,121.03834,0.00043713808
C0V750,路竹,2025-02-07,22.854997,120.259439,0.005990492
C0N050,蚵寮,2025-02-07,23.301,120.1104,0.0022229766
72M700,南改鹿草分場,2025-02-07,23.416869,120.283061,0.001028064
C1SA50,利嘉林道,2025-02-07,22.82325,121.009389,0.0013728451
467550,玉山,2025-02-07,23.487614,120.959522,0.0003140964
C0A940,金山,2025-02-07,25.223628,121.643967,0.0002443996
C1V340,大津,2025-02-07,22.888322,120.645986,0.06602919
C0W180,七美,2025-02-07,23.219333,119.444892,0.00029349257
C1F9C1,白冷,2025-02-07,24.182844,120.929889,0.0005678978
K2E710,苗改生物防治研究中心,2025-02-07,24.422861,120.871833,0.00037827372
C0N040,蘆竹溝,2025-02-07,23.2344,120.0961,0.0022863606
C2W230,畜試所澎湖,2025-02-07,23.628342,119.513206,0.00020257088
C0R880,後壁湖,2025-02-07,21.9457,120.7457,0.00033036812
C1I280,埔中,2025-02-07,23.820778,120.642594,0.0043106014
467790,墾丁雷達站,2025-02-07,21.948235,120.808028,0.0013461455
C0W190,望安,2025-02-07,23.380564,119.494075,0.00025361998
466881,新北,2025-02-07,24.9593,121.52,0.0008825538
C0Z170,卓溪,2025-02-07,23.3443,121.3029,0.0007428876
C0F850,東勢,2025-02-07,24.246428,120.833047,0.0015280428
466900,淡水,2025-02-07,25.164889,121.448906,0.0005159459
C0I370,魚池,2025-02-07,23.895703,120.94135,0.005339621
C0C630,大溪,2025-02-07,24.882853,121.265547,0.00065563945
C0A520,山佳,2025-02-07,24.974944,121.402008,0.00075365155
C0I110,竹山,2025-02-07,23.761225,120.688156,0.0053346185
82H840,茶改南部分場,2025-02-07,23.762528,120.7405,0.004701167
C0G660,溪湖,2025-02-07,23.94835,120.479122,0.00095730036
C1T800,洛韶,2025-02-07,24.204558,121.453956,0.00023428455
C1T810,慈恩,2025-02-07,24.192044,121.388386,0.00036333175
C1E451,象鼻,2025-02-07,24.368617,120.940228,0.00049918465
C0AC60,三峽,2025-02-07,24.939025,121.369728,0.00081868493
C0I490,萬大林道,2025-02-07,23.928228,121.091411,0.0004863393
C1I290,豐丘,2025-02-07,23.668178,120.887417,0.001665675
C1I320,奧萬大,2025-02-07,23.952956,121.178556,0.00040800174
C0U770,南澳,2025-02-07,24.44935,121.81022,0.00051884097
C0A980,社子,2025-02-07,25.109508,121.469681,0.000522542
C0V800,六龜,2025-02-07,22.997889,120.633583,0.025165873
C1G9D0,國一S218K,2025-02-07,23.890641,120.493253,0.00063831755
C2F9A0,中竹林,2025-02-07,24.103556,120.751061,0.004390327
C0FA40,臺中電廠,2025-02-07,24.2146,120.4907,0.00028951868
C0H9C0,合歡山,2025-02-07,24.143442,121.272547,0.000396241
C0X060,下營,2025-02-07,23.22695,120.256261,0.0026823527
G2M350,農試溪口農場,2025-02-07,23.58565,120.408111,0.0010005512
C0U860,頭城,2025-02-07,24.85323,121.8308,0.0013682942
C0R580,南州,2025-02-07,22.48591,120.50274,0.007828145
C0D430,峨眉,2025-02-07,24.6905,121.017189,0.001204459
C0G780,秀水,2025-02-07,24.03405,120.503869,0.0010182298
72N100,臺南農改場,2025-02-07,23.0605,120.342194,0.0077636144
C0S900,蘭嶼高中,2025-02-07,22.04909,121.51214,0.00022846072
467540,大武,2025-02-07,22.355675,120.903789,0.053716462
C1F9W0,德基,2025-02-07,24.254783,121.190261,0.00040946522
C1Z120,壽豐,2025-02-07,23.870853,121.508081,0.00032172626
C0W160,烏坵,2025-02-07,24.9944,119.44956,0.00021637503
C1I240,外大坪,2025-02-07,23.958697,120.917931,0.0014656977
C1I550,國六W023K,2025-02-07,23.979067,120.867742,0.006321289
C0R870,興海,2025-02-07,21.9752,120.8439,0.0011057294
C0R140,瑪家,2025-02-07,22.682903,120.686639,0.005549995
C0A530,坪林,2025-02-07,24.938183,121.70975,0.00033783625
C0X260,後壁,2025-02-07,23.366358,120.362326,0.0025534008
C0Z230,和平,2025-02-07,24.30717,121.77007,0.00020786407
C0G770,福興,2025-02-07,24.041289,120.437669,0.00084562803
C0H9A0,神木村,2025-02-07,23.532742,120.843667,0.0004277358
C0I460,南投,2025-02-07,23.911469,120.687331,0.0002758027
C0I480,梅峰,2025-02-07,24.085272,121.173572,0.00051953783
C1V570,吉東,2025-02-07,22.85422,120.5454,0.13118218
C2A560,福山,2025-02-07,24.776203,121.502811,0.00036647636
C0AH30,五分山,2025-02-07,25.07125,121.780794,0.00029071994
C0FA10,松柏,2025-02-07,24.429115,120.617482,0.00030228874
72S200,東改班鳩分場,2025-02-07,22.829528,121.077694,0.0003504929
72HA00,中改埔里分場,2025-02-07,23.903208,120.963364,0.0038631766
C0C650,平鎮,2025-02-07,24.897503,121.214636,0.0006931095
C0S930,延平,2025-02-07,22.902581,121.084058,0.00045051353
C0UA60,樟樹山,2025-02-07,24.41393,121.78325,0.0014613443
C1S670,摩天,2025-02-07,23.199503,121.027,0.0003592106
C0V630,茄萣,2025-02-07,22.906642,120.182608,0.0061660954
466940,基隆,2025-02-07,25.133314,121.740475,0.00025983914
C0X050,東河,2025-02-07,23.296598,120.385608,0.0015266155
C0R770,保力,2025-02-07,22.071122,120.764111,0.0008874963
G2L020,農試嘉義分所,2025-02-07,23.485028,120.473806,0.0070337453
C0X240,關子嶺,2025-02-07,23.331169,120.508025,0.015483493
C0I380,集集,2025-02-07,23.828206,120.801467,0.010467472
466990,花蓮,2025-02-07,23.975128,121.613275,0.00024168794
C1V220,小關山,2025-02-07,23.154217,120.813603,0.0004300501
C1F9G1,慶福山,2025-02-07,24.180853,120.848378,0.0007565591
C0Z250,瑞穗林道,2025-02-07,23.49284,121.30688,0.001170383
C0D590,新豐,2025-02-07,24.87068,120.97721,0.00081227574
C0A870,五指山,2025-02-07,25.132153,121.608692,0.0005695864
C0UA50,西帽山,2025-02-07,24.555361,121.802628,0.0011239398
C0X160,仁德,2025-02-07,22.968258,120.257689,0.004964551
C1H971,六分寮,2025-02-07,23.92507,120.6378,0.0054644346
C0W120,西嶼,2025-02-07,23.5626,119.468436,0.0002658516
C0G650,員林,2025-02-07,23.946503,120.585597,0.00088749203
C0AD50,鶯歌,2025-02-07,24.951533,121.346294,0.00080304
C0S990,山豬窟,2025-02-07,22.318619,120.857372,0.004544334
72Q010,高雄農改,2025-02-07,22.709333,120.525889,0.057393365
C0X190,安平,2025-02-07,22.993161,120.152181,0.004019984
C0K400,斗六,2025-02-07,23.720583,120.541127,0.0029801033
12J990,口湖工作站,2025-02-07,23.589978,120.180394,0.0010560347
C0O830,北寮,2025-02-07,23.079561,120.495008,0.034799673
C1D410,白蘭,2025-02-07,24.579364,121.079947,0.0006283689
C0S970,加津林,2025-02-07,22.416211,120.926942,0.01869936
C0D700,關西,2025-02-07,24.7977,121.1732,0.00085637136
C0M810,里佳,2025-02-07,23.389125,120.716647,0.0009876428
C0U750,龜山島,2025-02-07,24.841667,121.953133,0.00043257294
C0R810,內獅,2025-02-07,22.305064,120.642986,0.0035923172
C1M390,龍美,2025-02-07,23.406728,120.654417,0.0012818847
C1H840,國三N238K,2025-02-07,23.841008,120.707711,0.011694178
CAQ030,崎峰國小,2025-02-07,22.42565,120.49521,0.020924656
C2E520,大湖,2025-02-07,24.414939,120.870872,0.0011769292
467530,阿里山,2025-02-07,23.508208,120.813242,0.0004074189
C1E691,南湖,2025-02-07,24.40135,120.837533,0.00058530335
C0FA30,梧棲,2025-02-07,24.256003,120.523381,0.00029332697
C1V231,高中,2025-02-07,23.134911,120.716711,0.003076176
C0F9V0,新社,2025-02-07,24.200172,120.815806,0.0018335084
C0H890,埔里,2025-02-07,23.972169,120.952425,0.002387492
C0R690,墾丁,2025-02-07,21.966756,120.810269,0.0011531569
C0F0D0,審馬陣,2025-02-07,24.381675,121.4203,0.00024088622
C0R820,白鷺,2025-02-07,22.454275,120.666219,0.0077520404
U2H480,臺大溪頭,2025-02-07,23.670306,120.798194,0.0010009955
C1V190,南天池,2025-02-07,23.27403,120.91176,0.00042727243
K2E360,苗栗農改場,2025-02-07,24.495722,120.829111,0.00033457796
CAJ050,海口故事園區,2025-02-07,23.57543,120.14121,0.0010564679
C0O990,媽廟,2025-02-07,22.99175,120.293525,0.011909425
C0D480,打鐵坑,2025-02-07,24.849664,121.150789,0.0006668679
C0Z220,和平林道,2025-02-07,24.343922,121.656317,0.00014223235
72C440,桃園農改場,2025-02-07,24.950944,121.030583,0.00029984096
C1E711,馬拉邦山,2025-02-07,24.367306,120.901656,0.000487826
C0D560,竹東,2025-02-07,24.767147,121.057881,0.0010033394
C0F9U0,南屯,2025-02-07,24.137006,120.637969,0.00083313783
C0M720,番路,2025-02-07,23.464657,120.554156,0.012413241
C0F0A0,雪山圈谷,2025-02-07,24.388594,121.236339,0.0003312385
C1A9N0,四十份,2025-02-07,24.934158,121.593283,0.00013699912
C0U760,東澳,2025-02-07,24.52196,121.83318,0.0006997035
C0X230,鹽水,2025-02-07,23.272621,120.247641,0.0019884128
C0V370,古亭坑,2025-02-07,22.893178,120.401947,0.016596891
C1I340,新興橋,2025-02-07,23.563333,120.868728,0.0017834464
C0SA80,土坂,2025-02-07,22.453108,120.887572,0.0052388143
C0R160,鹽埔,2025-02-07,22.739558,120.530778,0.015752718
C0AC40,大屯山,2025-02-07,25.175675,121.522408,0.00019564429
466850,五分山雷達站,2025-02-07,25.071182,121.781205,0.00029015087
C1AI50,國三N016K,2025-02-07,25.034164,121.619664,0.00017611781
C1V600,藤枝,2025-02-07,23.071961,120.757042,0.00044481756
C1E601,南勢,2025-02-07,24.572486,120.734842,0.00033966868
C0Z180,新城,2025-02-07,24.03946,121.60454,0.0002517423
C0O980,新市,2025-02-07,23.061614,120.298197,0.011193589
C0K420,西螺,2025-02-07,23.800407,120.467394,0.004484462
C0Z050,佳心,2025-02-07,23.34567,121.21316,0.00022947806
C0AD30,蘆洲,2025-02-07,25.086594,121.472331,0.0014401617
C0V610,梓官,2025-02-07,22.760558,120.267211,0.012308116
K2F750,種苗改良場,2025-02-07,24.225972,120.800917,0.0007141594
C0UA80,大溪漁港,2025-02-07,24.941801,121.902955,0.0011177576
C1AI60,國一39K邊坡,2025-02-07,25.064361,121.383836,0.00011988117
C0W150,金寧,2025-02-07,24.457703,118.328989,0.0011939263
V2C250,八德合作社,2025-02-07,24.93775,121.266389,0.00022468786
C0AH40,平等,2025-02-07,25.129142,121.577086,0.000743632
C0R540,佳冬,2025-02-07,22.419456,120.552375,0.018430956
466950,彭佳嶼,2025-02-07,25.627975,122.079744,0.00012927101
C0A890,雙溪,2025-02-07,25.036003,121.864242,0.0003874983
C0C480,桃園,2025-02-07,24.992425,121.323172,0.0009942619
C0AH50,林口,2025-02-07,25.072181,121.38084,0.00041533398
A2K360,水試臺西試驗場,2025-02-07,23.717231,120.190522,0.00033737952
B2N890,畜試所,2025-02-07,23.058972,120.336406,0.007857182
C0F9S0,烏日,2025-02-07,24.107058,120.624103,0.0009773133
C0C490,八德,2025-02-07,24.928708,121.283289,0.00073681644
C0R190,赤山,2025-02-07,22.592333,120.614306,0.035406023
C0T820,天祥,2025-02-07,24.179597,121.495639,0.0004082083
C1F9E1,龍安,2025-02-07,24.1605,120.831961,0.0006822662
C0V820,小林,2025-02-07,23.148408,120.63325,0.015781324
C2G870,芳苑,2025-02-07,23.922303,120.320025,0.00037686774
C0E850,大河,2025-02-07,24.618069,120.948578,0.0007335323
C1U670,寒溪,2025-02-07,24.634,121.71691,0.00025239214
C0N020,城西,2025-02-07,23.0568,120.0956,0.0030258636
C1Z110,三棧,2025-02-07,24.11557,121.60501,0.0006977299
C0R280,檳榔,2025-02-07,22.076078,120.836777,0.0011297943
C0F9L0,后里,2025-02-07,24.310436,120.729725,0.0023103226
C0D540,橫山,2025-02-07,24.71116,121.11693,0.00070660014
C1D420,太閣南,2025-02-07,24.632808,121.160575,0.00019973086
C1E770,公館,2025-02-07,24.526914,120.830806,0.00034781534
CAN130,水試所海水繁養殖中心,2025-02-07,23.120802,120.07968,0.0022682683
C1I430,翠華,2025-02-07,24.191961,121.224339,0.0003633418
C1M400,菜瓜坪,2025-02-07,23.251928,120.576103,0.01607524
C0G730,二林,2025-02-07,23.903325,120.376081,0.00082336646
72M360,南改義竹分場,2025-02-07,23.360694,120.279361,0.0023198836
V2K620,麥寮合作社,2025-02-07,23.753836,120.294783,0.0003149645
C0Z070,舞鶴,2025-02-07,23.46811,121.37407,0.00030312623
C0B040,大武崙,2025-02-07,25.166676,121.706993,0.00026302857
C1Z030,紅葉,2025-02-07,23.493119,121.338806,0.00026329432
C1I050,丹大,2025-02-07,23.753747,121.141147,0.00044766843
C0I080,信義,2025-02-07,23.689694,120.851036,0.015490078
C2A880,福隆,2025-02-07,25.017842,121.942083,0.00016455156
C0Z160,鳳林,2025-02-07,23.746114,121.453411,0.00039244173
C0V210,復興,2025-02-07,23.222403,120.806089,0.003792564
C0H990,昆陽,2025-02-07,24.121322,121.273642,0.00042574372
C0R741,獅子,2025-02-07,22.202308,120.705236,0.0050147055
C0S710,鹿野,2025-02-07,22.917711,121.122994,0.00047279542
C0I530,小奇萊,2025-02-07,24.131764,121.295717,0.00042238485
C0Z080,富源,2025-02-07,23.587642,121.378225,0.00027452348
467441,高雄,2025-02-07,22.7304,120.3125,0.018640682
C1I140,卡奈托灣,2025-02-07,23.754364,121.087872,0.00038170308
C0I520,玉山風口,2025-02-07,23.470489,120.955994,0.00031615436
C1G691,下水埔,2025-02-07,23.816114,120.5676,0.0057165567
C0X110,臺南市南區,2025-02-07,22.961189,120.188378,0.0052672843
C0V680,仁武,2025-02-07,22.701083,120.347722,0.008159899
C2G840,北斗,2025-02-07,23.877586,120.514222,0.00063277554
C0R900,竹坑,2025-02-07,22.1385,120.7022,0.0012061336
C0K250,崙背,2025-02-07,23.75555,120.318925,0.00048805412
C0G860,社頭,2025-02-07,23.897647,120.5862,0.000902102
C0X150,安定,2025-02-07,23.102614,120.227839,0.00519037
C0R590,里港,2025-02-07,22.77919,120.49459,0.07908441
C0E610,馬都安,2025-02-07,24.451272,120.930192,0.0012886653
C0E550,明德,2025-02-07,24.583486,120.885411,0.0007804244
C0R150,三地門,2025-02-07,22.709889,120.639944,0.030925883
C0G910,花壇,2025-02-07,24.032076,120.549461,0.0009890302
C1D400,鳥嘴山,2025-02-07,24.71909,121.28387,0.0004914545
C0K500,元長,2025-02-07,23.64981,120.315024,0.00049074204
C0F0B0,石岡,2025-02-07,24.276061,120.777644,0.0020812864
C2V250,甲仙,2025-02-07,23.080106,120.591758,0.031644125
C0SA20,金崙山,2025-02-07,22.567419,120.959667,0.0003115789
C0V350,溪埔,2025-02-07,22.738578,120.446797,0.045741793
C0M660,溪口,2025-02-07,23.604131,120.403569,0.000977756
C1S880,壽卡,2025-02-07,22.238911,120.858903,0.004559705
72D680,桃改新埔分場,2025-02-07,24.834444,121.066111,0.0004431519
