站號,站名,日期,lat,lon,BLBTSLS
C0R710,龍磐,2025-12-23,21.931672,120.838942,0.11178214
C1F9D1,白毛台,2025-12-23,24.158325,120.886933,4.9863846e-10
C0G940,竹塘,2025-12-23,23.848253,120.386764,2.9083743e-08
467590,恆春,2025-12-23,22.003897,120.746339,0.09470828
C1O850,環湖,2025-12-23,23.148617,120.418633,2.8628075e-09
C0U710,太平山,2025-12-23,24.505486,121.525656,1.9060675e-08
C0E820,獅潭,2025-12-23,24.539133,120.920042,4.4042558e-10
C2SD70,二層坪,2025-12-23,22.94105,121.16838,5.921614e-10
C0V880,興達,2025-12-23,22.8778,120.2127,3.4403808e-08
C0S890,關山,2025-12-23,23.0395,121.175017,3.4503064e-10
C0SB30,新蘭,2025-12-23,22.869214,121.223228,2.7713904e-07
C2R970,屏科大,2025-12-23,22.648275,120.619247,0.00030238042
C1Z130,銅門,2025-12-23,23.965694,121.492842,6.6659336e-09
C0AD40,土城,2025-12-23,24.973208,121.445169,2.1116948e-07
CAN140,六官養殖協會,2025-12-23,23.22881,120.29962,1.4411806e-06
C0X180,山上,2025-12-23,23.0757,120.363253,3.842021e-08
C0F9Z0,雪山東峰,2025-12-23,24.388792,121.268675,1.723707e-08
C1M480,獨立山,2025-12-23,23.537022,120.607797,1.0337341e-09
C0X220,學甲,2025-12-23,23.230367,120.182187,1.5145962e-09
467650,日月潭,2025-12-23,23.881325,120.90805,8.599823e-10
A2K570,古坑(花卉中心),2025-12-23,23.633531,120.552392,0.0007178132
C0K600,箔子寮,2025-12-23,23.6197,120.14,0.15172516
C0G830,埤頭,2025-12-23,23.866003,120.452806,1.0039041e-08
C0S950,七塊厝,2025-12-23,22.954453,121.229922,5.465046e-10
467110,金門,2025-12-23,24.407306,118.289281,0.5602329
C0AH80,深坑,2025-12-23,25.002703,121.628328,9.035541e-08
C0A970,三貂角,2025-12-23,25.007606,122.002058,1.4380289e-08
C2D730,寶山農場,2025-12-23,24.732444,120.976153,1.0723558e-09
C0K430,褒忠,2025-12-23,23.690938,120.303634,1.475006e-08
467480,嘉義,2025-12-23,23.495925,120.432906,8.9895184e-05
C0V400,阿公店,2025-12-23,22.804194,120.355528,1.2409613e-09
C0E960,觀霧分站,2025-12-23,24.505781,121.113921,4.0857926e-09
467550,玉山,2025-12-23,23.48718,120.95943,2.2751674e-08
C0R440,大漢山,2025-12-23,22.405264,120.753181,2.5180782e-08
C0SD30,東清國小,2025-12-23,22.057128,121.564922,0.9935724
C1F9B1,桐林,2025-12-23,24.066172,120.735194,2.6286225e-05
C2H9U0,鳳鵬,2025-12-23,23.763919,120.788061,2.6167182e-09
C0K390,土庫,2025-12-23,23.679029,120.395574,4.118814e-08
C1I450,望鄉山,2025-12-23,23.594153,120.944286,8.265217e-09
C0E910,海埔,2025-12-23,24.648767,120.772435,9.1779526e-08
B2E890,畜試北區分所,2025-12-23,24.527806,120.770972,7.623048e-10
C0R750,四林格山,2025-12-23,22.076989,120.802439,0.22024707
C0F0C0,中坑,2025-12-23,24.248517,120.903319,9.19722e-10
C1I121,大鞍,2025-12-23,23.678381,120.760017,2.1549595e-09
C2G9E0,移民庄,2025-12-23,23.9784,120.40283,5.1598967e-08
72U480,花改蘭陽分場,2025-12-23,24.686306,121.716583,4.221887e-09
C0A770,科教館,2025-12-23,25.096356,121.516507,5.7601575e-08
C0AJ60,六塊厝,2025-12-23,25.24,121.4481,1.5969446e-06
C0R620,墾雷,2025-12-23,21.900836,120.855269,0.117444135
467420,永康,2025-12-23,23.038386,120.2367,1.0489535e-06
C2M530,奮起湖,2025-12-23,23.493903,120.699253,1.1804782e-09
C0I410,名間,2025-12-23,23.837053,120.701447,6.432431e-08
A2C560,農工中心,2025-12-23,24.985917,121.239833,1.9266628e-07
C0V740,旗山,2025-12-23,22.888614,120.483597,1.8941526e-05
C0Z061,玉里,2025-12-23,23.3215,121.339656,8.470857e-10
C0S840,南田,2025-12-23,22.279725,120.889208,0.9128925
C1I470,杉林溪,2025-12-23,23.639517,120.786444,1.8258823e-09
C1X040,東原,2025-12-23,23.291597,120.463822,7.3379103e-10
C0R660,枋寮,2025-12-23,22.367722,120.590647,1.8436931e-07
C1R120,上德文,2025-12-23,22.763272,120.704442,5.77897e-10
C0K450,大埤,2025-12-23,23.646074,120.431537,0.001720055
C0UA00,土場,2025-12-23,24.576533,121.495333,2.5983129e-08
467080,宜蘭,2025-12-23,24.763975,121.756528,3.7949195e-09
C0N030,四草,2025-12-23,23.0235,120.1116,1.6510834e-09
467410,臺南,2025-12-23,22.99328,120.20492,2.8702598e-09
C0V650,彌陀,2025-12-23,22.783806,120.246361,6.576274e-08
C0D660,新竹市東區,2025-12-23,24.798681,120.986942,7.823911e-07
82S580,茶改東部分場,2025-12-23,22.907694,121.130139,4.1485677e-09
C0SB40,興隆,2025-12-23,22.913661,121.257469,0.9698528
467050,新屋,2025-12-23,25.006725,121.047492,0.03589886
C0C710,大溪永福,2025-12-23,24.892936,121.324975,1.5327519e-08
C0FA20,溫寮,2025-12-23,24.372177,120.583125,3.3025927e-07
C0V640,湖內,2025-12-23,22.887139,120.2445,3.4403808e-08
C0R910,下寮,2025-12-23,22.3929,120.5548,0.023127358
C0Z020,明里,2025-12-23,23.208717,121.262342,5.281761e-10
C0M770,嘉義梅山,2025-12-23,23.585398,120.555587,0.0027771061
C0C660,楊梅,2025-12-23,24.912375,121.143047,1.5731656e-07
C0SD40,牛頭山,2025-12-23,22.676661,121.506944,0.6489252
C1E511,新開,2025-12-23,24.347703,120.827019,4.4118814e-10
G2F820,農試所(霧峰),2025-12-23,24.031261,120.688133,8.676259e-05
C2M990,大巃頂,2025-12-23,23.5547,120.61439,6.8427897e-10
C1I070,和社,2025-12-23,23.591131,120.888861,6.0423355e-10
C2E990,新坪頂,2025-12-23,24.30201,120.8574,8.3792134e-10
C0TA80,立霧山,2025-12-23,24.183258,121.641899,2.036112e-08
C2F000,大肚,2025-12-23,24.15295,120.572117,1.036999e-08
C1S850,豐南,2025-12-23,23.122139,121.262389,4.5267173e-10
C2M9B0,西興,2025-12-23,23.2428,120.57617,7.3827217e-10
C2A920,富貴角,2025-12-23,25.263783,121.565258,1.3507067e-05
CAH030,茶改場竹圍站,2025-12-23,23.860083,120.637528,2.50076e-09
C0T960,光復,2025-12-23,23.660694,121.424964,1.2610039e-09
C0F9M0,豐原,2025-12-23,24.254322,120.720692,1.4661453e-08
C0R720,旭海,2025-12-23,22.205403,120.887614,0.9991339
C0V710,苓雅,2025-12-23,22.622742,120.330669,0.0051610065
C0C740,觀音工業區,2025-12-23,25.064764,121.114856,0.9934664
CAC040,拉拉山,2025-12-23,24.699317,121.427133,5.0225083e-08
C0V790,萬山,2025-12-23,22.905944,120.688056,4.698899e-09
U2HA30,臺大和社,2025-12-23,23.590856,120.888864,6.0423355e-10
C2H9K0,屯原,2025-12-23,24.067969,121.209389,3.3014378e-09
C0AJ90,澳底,2025-12-23,25.0552,121.9253,1.7057875e-08
C0Z100,東華,2025-12-23,23.89525,121.549833,3.1853886e-09
C0G970,三豐,2025-12-23,23.882,120.2895,0.26746497
V2K610,大庄合作社,2025-12-23,23.8068,120.367939,1.5678644e-08
C0V900,汕尾,2025-12-23,22.4782,120.4151,2.2000584e-09
C1R630,龍泉,2025-12-23,22.66701,120.59091,0.00030238042
C1AC50,關渡,2025-12-23,25.133486,121.469331,2.130472e-08
C0C800,四稜,2025-12-23,24.64733,121.4293,3.948684e-08
C0F9I0,神岡,2025-12-23,24.272481,120.658314,9.794948e-10
C0K460,斗南,2025-12-23,23.678734,120.478359,0.001720055
C2O810,曾文,2025-12-23,23.219681,120.497328,9.2661734e-10
467280,後龍,2025-12-23,24.648563,120.831834,3.8661618e-08
C1F9J1,清水林,2025-12-23,24.071242,120.820419,5.2332666e-10
C2A650,火燒寮,2025-12-23,25.002719,121.742892,2.950655e-08
466930,竹子湖,2025-12-23,25.162078,121.544547,1.2230026e-08
C1I220,樟湖,2025-12-23,23.905333,120.846983,1.0505059e-09
C0I390,仁愛,2025-12-23,24.022122,121.132206,1.2307312e-09
C0Z300,東里,2025-12-23,23.26853,121.30547,8.6497504e-10
C1V590,新發,2025-12-23,23.057019,120.646064,6.324311e-10
C0K510,水林,2025-12-23,23.572924,120.24597,1.2138976e-07
72S590,東改賓朗果園,2025-12-23,22.813889,121.071278,5.1552513e-09
82A750,茶改北部分場,2025-12-23,24.955778,121.631222,5.8373907e-08
C1A750,石碇服務區,2025-12-23,25.00872,121.646242,5.142516e-08
C0X300,鹿寮,2025-12-23,23.386047,120.477331,2.1603955e-07
G2AI50,關渡,2025-12-23,25.11575,121.492,8.86164e-08
C0K590,雲林東勢,2025-12-23,23.674192,120.255721,3.1115e-08
C2K310,港尾布雞,2025-12-23,23.74834,120.38439,9.009518e-09
C0A570,桶後,2025-12-23,24.848222,121.597992,7.793938e-08
C1S800,華源,2025-12-23,22.657883,121.02325,0.008894508
C0G720,溪州,2025-12-23,23.851589,120.499093,1.0039041e-08
C1V160,達卡努瓦,2025-12-23,23.279811,120.705319,8.552827e-10
C2M410,馬頭山,2025-12-23,23.324361,120.582017,9.1826896e-10
C0V850,蚵仔寮,2025-12-23,22.7256,120.2527,9.557933e-08
C0S740,池上,2025-12-23,23.119628,121.209469,4.017148e-10
C1V390,尖山,2025-12-23,22.813153,120.367789,1.2409613e-09
C0AH70,松山,2025-12-23,25.04871,121.55042,5.7601575e-08
C0N010,鯤鯓國小,2025-12-23,23.1879,120.0889,1.9314907e-09
C0R550,新埤,2025-12-23,22.467947,120.582894,1.046479e-07
C0SA60,知本（水試所）,2025-12-23,22.702394,121.082761,0.5548841
C0T9I0,豐濱,2025-12-23,23.583897,121.514806,1.4797478e-09
C0UB00,淡江大學蘭陽校園,2025-12-23,24.823239,121.730383,2.4729232e-08
C0W240,九宮,2025-12-23,24.423753,118.240186,0.12726273
C0T9N0,富里,2025-12-23,23.171639,121.249378,5.5090543e-10
U2HA50,臺大竹山,2025-12-23,23.756972,120.681556,2.9161398e-05
C0V840,鳳鼻頭,2025-12-23,22.5083,120.3591,1.9631612e-09
C0X140,西港,2025-12-23,23.125608,120.203108,9.802843e-08
72D080,桃改五峰分場,2025-12-23,24.612194,121.157167,1.888962e-09
C2H9P0,伊拿谷,2025-12-23,23.963211,121.088264,1.3704864e-09
C2K250,崙背,2025-12-23,23.75553,120.31893,1.475006e-08
C2H9F0,柑林,2025-12-23,24.018658,120.847072,5.6235316e-10
C0TA20,加灣,2025-12-23,24.082025,121.608944,3.038866e-08
C0V530,阿蓮,2025-12-23,22.883208,120.327508,3.8041597e-09
C0FB30,八仙山苗圃,2025-12-23,24.192719,121.001366,8.7108765e-10
C1O880,關山,2025-12-23,23.173397,120.594092,5.293864e-10
C0E791,卓蘭,2025-12-23,24.3126,120.8244,4.2937465e-10
C1I030,武界,2025-12-23,23.913225,121.052483,1.1981055e-09
C0R520,崁頂,2025-12-23,22.514781,120.506914,0.002123813
C0R341,牡丹,2025-12-23,22.130036,120.792639,0.9942291
C0R930,萬丹,2025-12-23,22.5885,120.4851,0.00020941933
C0S760,紅石,2025-12-23,23.069131,121.126219,1.0642769e-08
C2C410,中央大學,2025-12-23,24.967652,121.185165,1.9266628e-07
C1M610,石磐龍,2025-12-23,23.496606,120.663506,8.483889e-10
C0C790,東眼山,2025-12-23,24.8284,121.40888,3.8899575e-08
C0UA10,鴛鴦湖,2025-12-23,24.590269,121.412228,2.7226294e-08
V2C260,八德蔬果,2025-12-23,24.978508,121.281819,4.5060474e-08
C0R800,丹路,2025-12-23,22.204481,120.750989,0.9950315
C0G920,永靖,2025-12-23,23.924703,120.547533,3.784107e-09
C2M950,太和,2025-12-23,23.538372,120.702961,1.1612326e-09
C1A630,下盆,2025-12-23,24.771003,121.538622,5.130906e-08
B2N890,畜產試驗所,2025-12-23,23.058972,120.336406,1.0504392e-06
C0UA30,白嶺,2025-12-23,24.527819,121.519031,2.0614653e-08
467571,新竹,2025-12-23,24.828575,121.01455,0.00019051286
C1V580,溪南(特生中心),2025-12-23,23.084972,120.788475,2.0614643e-09
C1T970,大農,2025-12-23,23.615233,121.413331,1.3584525e-09
C0R650,竹田,2025-12-23,22.58486,120.54344,0.009375436
C1H900,清流,2025-12-23,24.080775,120.962997,5.556055e-10
C1C510,水尾,2025-12-23,24.940081,121.087161,0.00018802621
C2N170,茅港尾,2025-12-23,23.2061,120.2624,1.4411806e-06
C0F9X0,大雅(中科園區),2025-12-23,24.21528,120.62445,1.1513989e-08
C0SB60,白守蓮,2025-12-23,23.126769,121.401914,9.797662e-09
C0O970,虎頭埤,2025-12-23,23.021375,120.347878,1.3514959e-08
C0C730,中大臨海站,2025-12-23,24.966126,121.008581,0.010625504
C0X250,新營,2025-12-23,23.310689,120.316681,2.813383e-07
C0V700,三民,2025-12-23,22.645017,120.311233,0.0013946813
C0U870,大礁溪,2025-12-23,24.791042,121.675047,1.860607e-08
C0E870,高鐵苗栗,2025-12-23,24.60725,120.826094,3.8661618e-08
A2K570,古坑花卉中心,2025-12-23,23.63353,120.55239,0.09136443
C0TA30,鹽寮,2025-12-23,23.845606,121.592664,3.2758083e-09
C0M860,新美,2025-12-23,23.338017,120.683169,7.372379e-10
C1E701,八卦,2025-12-23,24.491756,120.927619,1.6973354e-09
C2TA90,加納納,2025-12-23,23.466421,121.359867,1.3826033e-09
C0I420,國姓,2025-12-23,24.037803,120.855072,5.4202937e-10
C2D720,關西工作站,2025-12-23,24.757275,121.184792,8.996038e-09
C0S960,香蘭,2025-12-23,22.587569,120.993375,2.6484168e-09
467620,蘭嶼,2025-12-23,22.0369,121.55843,0.9191338
C0R260,春日,2025-12-23,22.370361,120.628306,3.8951992e-08
72G600,臺中農改場,2025-12-23,24.003028,120.534389,5.535452e-09
C0Z210,瑞穗,2025-12-23,23.5239,121.39021,1.4740715e-09
C0M820,達邦,2025-12-23,23.453994,120.749517,6.246888e-10
C0V860,南寮,2025-12-23,22.7616,120.2339,9.557933e-08
C0G740,大城,2025-12-23,23.852487,120.320935,0.26746497
C0R920,塭仔,2025-12-23,22.4169,120.5197,0.022820648
C0R470,高樹,2025-12-23,22.826389,120.600806,0.0007745694
C0R680,佳樂水,2025-12-23,21.993578,120.861633,0.11178214
C1O870,大棟山,2025-12-23,23.31157,120.52226,1.334072e-09
C0D360,梅花,2025-12-23,24.678347,121.208558,1.3027681e-09
C0Z190,富世,2025-12-23,24.14743,121.6297,1.05105386e-07
C0AI10,屈尺,2025-12-23,24.92184,121.54475,1.6672735e-07
B2U990,畜試東區分所,2025-12-23,24.669039,121.832561,6.0175993e-09
C0SB80,長濱漁港,2025-12-23,23.313644,121.459994,8.263715e-10
C0TA50,和仁,2025-12-23,24.241394,121.712472,1.4863847e-08
C0V910,大樹,2025-12-23,22.684645,120.432803,0.00066198
C1R610,西大武山,2025-12-23,22.617719,120.7322,6.578805e-09
C0G900,線西,2025-12-23,24.143358,120.443536,0.056209195
C0M700,竹崎,2025-12-23,23.526178,120.555508,0.00042040827
C2E880,三義,2025-12-23,24.405478,120.749819,7.4726253e-10
C0C720,竹圍,2025-12-23,25.112692,121.239824,0.0001457458
C0F9P0,清水,2025-12-23,24.312297,120.562242,2.0440369e-07
C0Z150,吉安光華,2025-12-23,23.930925,121.595153,1.16474235e-08
C0FA80,小雪山天池,2025-12-23,24.28025,121.02627,8.519877e-09
467300,東吉島,2025-12-23,23.25727,119.66762,0.9851611
C1D640,外坪(五指山),2025-12-23,24.644447,121.090961,1.12272e-09
C2R9A0,高士國小,2025-12-23,22.12553,120.84653,0.9942291
C0F9O0,潭子,2025-12-23,24.213106,120.703933,1.4661453e-08
C2H9R0,卓社,2025-12-23,23.887894,121.000086,1.2802975e-09
72T250,花蓮農改場,2025-12-23,23.975222,121.563889,1.0568793e-08
C0E780,銅鑼,2025-12-23,24.489681,120.790853,7.623048e-10
C1T950,太安,2025-12-23,23.666719,121.370128,1.00753725e-08
C0E830,苑裡,2025-12-23,24.439714,120.653053,5.204822e-05
467270,田中,2025-12-23,23.873803,120.581286,1.2462572e-06
C0SA10,檳榔四格山,2025-12-23,22.810031,121.109308,3.1131189e-09
C1T830,布洛灣,2025-12-23,24.17184,121.57127,3.6248156e-08
C0F970,大坑,2025-12-23,24.173142,120.722289,9.510962e-06
C1U920,思源,2025-12-23,24.393125,121.347214,1.083421e-08
C2H9Y0,松茗,2025-12-23,23.8167,120.650765,1.8486919e-09
C0A931,三和,2025-12-23,25.233153,121.595236,4.8284964e-08
C0I010,廬山,2025-12-23,24.033311,121.181808,1.3764881e-09
C2M940,日野賀,2025-12-23,23.434056,120.727169,1.0057569e-09
C0R860,鼻頭,2025-12-23,22.1043,120.8979,0.24803327
C0UB20,壯圍,2025-12-23,24.7359,121.8163,3.958319e-09
C0R790,九棚,2025-12-23,22.14195,120.889281,0.9982612
C0W110,東莒,2025-12-23,25.9652,119.98069,0.026549755
C1U930,粉鳥林,2025-12-23,24.497088,121.842479,9.252897e-09
C1I211,蘆竹湳,2025-12-23,23.934019,120.811994,5.303152e-10
C0S830,長濱,2025-12-23,23.286817,121.411975,9.917556e-10
C1F9F1,伯公龍,2025-12-23,24.272392,120.849047,8.907759e-10
C0UB90,太平山莊,2025-12-23,24.494171,121.536209,1.927109e-08
C0E810,西湖,2025-12-23,24.562947,120.7485,0.8081065
C1I440,新高口,2025-12-23,23.478744,120.878939,4.473146e-09
C0O840,王爺宮,2025-12-23,23.222064,120.40085,6.712238e-06
C0T9G0,鳳林山,2025-12-23,23.735269,121.420131,9.5139505e-09
C0X080,佳里,2025-12-23,23.173039,120.145086,1.6644329e-09
C0FB70,大甲溪埔,2025-12-23,24.370625,120.620067,3.3025927e-07
C0Z310,清水斷崖,2025-12-23,24.218294,121.689142,1.0017599e-08
C0M680,太保,2025-12-23,23.455062,120.331455,3.179491e-07
C1S820,金峰,2025-12-23,22.590969,120.933236,1.923931e-09
C0AD10,八里,2025-12-23,25.150211,121.403947,0.0012861983
C2K240,草嶺,2025-12-23,23.59555,120.693461,8.415796e-10
C1SA70,都蘭,2025-12-23,22.87794,121.226881,1.1616079e-07
C0K440,二崙,2025-12-23,23.772797,120.408944,6.387693e-09
C1A760,坪林交控,2025-12-23,24.94284,121.713442,8.5667615e-08
C0F9N0,大里,2025-12-23,24.092464,120.701378,2.2506454e-05
C0SA90,達仁林場,2025-12-23,22.264347,120.823972,3.7041432e-06
C1R290,石門山,2025-12-23,22.112611,120.756597,0.9868152
42HA10,萬大發電廠,2025-12-23,23.978875,121.139639,1.097474e-09
C0R890,山海,2025-12-23,21.9878,120.7091,0.09470828
C0T9A0,月眉山,2025-12-23,23.809928,121.539828,2.441768e-09
C0AC70,信義,2025-12-23,25.037822,121.564597,7.914984e-08
C0K560,棋山,2025-12-23,23.68645,120.603417,0.00091130903
C2FB50,出雲,2025-12-23,24.206469,120.902794,1.1763066e-09
C1Z240,中平林道,2025-12-23,23.42115,121.26763,1.7941982e-08
U2H480,溪頭,2025-12-23,23.670306,120.798194,8.8687674e-10
C0M880,好美里,2025-12-23,23.3364,120.138,1.2807054e-09
C0T9E0,大坑,2025-12-23,23.880628,121.581981,5.894077e-09
C0K530,臺西,2025-12-23,23.701547,120.197559,2.8294753e-05
C1E900,國一N128K,2025-12-23,24.560997,120.844186,1.1261558e-09
C0AJ50,水湳洞,2025-12-23,25.123695,121.862238,1.6975306e-08
C0AI20,白沙灣,2025-12-23,25.283128,121.519058,0.0005045677
C2V310,美濃,2025-12-23,22.898792,120.51907,1.8941526e-05
C0A860,大坪,2025-12-23,25.165914,121.632969,1.6568636e-08
C1U850,觀音海岸,2025-12-23,24.38319,121.77856,4.7611213e-09
C2K610,草嶺石壁,2025-12-23,23.602469,120.707731,8.791949e-10
C0U950,鶯子嶺,2025-12-23,24.89754,121.79244,4.0113562e-08
C0O900,善化,2025-12-23,23.112883,120.297219,1.0504392e-06
C0K550,蔦松,2025-12-23,23.514319,120.229736,1.9482715e-07
E2P980,林試六龜中心,2025-12-23,22.991703,120.645722,3.7295862e-08
C0E590,通霄,2025-12-23,24.471892,120.704622,0.5675543
C1I310,西巒,2025-12-23,23.754486,120.883956,9.938594e-10
C0A550,泰平,2025-12-23,24.971197,121.823711,5.4254603e-08
C0I360,水里,2025-12-23,23.812553,120.849792,5.4128757e-10
C0R830,高士,2025-12-23,22.121825,120.836781,0.96776265
C1I101,溪頭,2025-12-23,23.661789,120.807647,2.251003e-09
C0AJ20,野柳,2025-12-23,25.20703,121.690021,6.063978e-08
C0B060,暖暖,2025-12-23,25.0957,121.7403,2.8543907e-08
C1H920,長豐,2025-12-23,24.102039,120.879897,5.499994e-10
C2S9B0,利吉,2025-12-23,22.86246,121.15486,4.1485677e-09
C0V360,內門,2025-12-23,22.975481,120.466769,4.5366253e-09
C0R850,林邊,2025-12-23,22.4634,120.5339,0.39614293
C0E930,龍鳳,2025-12-23,24.700034,120.859125,0.00019310765
C0U910,冬山,2025-12-23,24.63373,121.7937,6.0175993e-09
C1E721,泰安,2025-12-23,24.489017,120.968036,1.8768307e-09
82H320,茶改中部分場,2025-12-23,23.875611,120.913583,6.9185e-10
C0M750,布袋,2025-12-23,23.380878,120.167789,4.296315e-08
C1S860,利嘉,2025-12-23,22.809417,121.050528,2.227814e-09
E2S980,林試太麻里1,2025-12-23,22.598922,120.980044,2.1887365e-09
C0X170,關廟,2025-12-23,22.963017,120.327797,8.570812e-09
C0V720,林園,2025-12-23,22.507747,120.394511,2.6452665e-09
C1I510,線浸林道,2025-12-23,23.761508,120.832956,1.2901298e-09
C0D690,外湖,2025-12-23,24.917735,120.968711,0.9995084
C0C750,新興坑尾,2025-12-23,25.0061,121.0971,0.0017089573
B2Q810,畜試南區分所,2025-12-23,21.945583,120.802167,0.11178214
C0S790,金崙,2025-12-23,22.538122,120.966875,3.8671852e-09
C0AH90,福山植物園,2025-12-23,24.760717,121.58135,4.8566026e-08
C0I540,奇萊稜線,2025-12-23,24.109231,121.326456,2.045142e-08
C0M850,表湖,2025-12-23,23.24186,120.64166,4.77364e-10
C0S770,大溪山,2025-12-23,22.478475,120.943325,3.1467349e-09
C0AG80,中和,2025-12-23,24.991622,121.491792,2.1116948e-07
C0T790,大禹嶺,2025-12-23,24.186117,121.316086,8.611827e-09
C0T9B0,水源,2025-12-23,23.991861,121.537169,9.37376e-09
C0R840,牡丹池山,2025-12-23,22.168389,120.841225,0.11323796
C1I131,桶頭,2025-12-23,23.641944,120.654117,1.7601431e-08
CAL110,布袋國中,2025-12-23,23.35893,120.18026,1.2807054e-09
C2M9D0,何竹子腳,2025-12-23,23.53641,120.38203,8.9895184e-05
467571,新竹,2025-12-23,24.827853,121.014219,0.00019051286
C0Z290,赤柯山,2025-12-23,23.36893,121.38293,5.7396026e-09
C0X280,將軍,2025-12-23,23.214999,120.13577,1.5313278e-09
C0S690,太麻里,2025-12-23,22.60902,120.98533,2.3218594e-09
C0U880,北關,2025-12-23,24.9072,121.8734,1.7736157e-07
CAW010,東引,2025-12-23,26.3588,120.4836,0.020081367
C0G810,埔心,2025-12-23,23.947633,120.525456,3.784107e-09
C0U970,大福,2025-12-23,24.80064,121.81389,3.7949195e-09
C2H9N0,仁愛東眼,2025-12-23,24.026875,121.1205,1.6936099e-09
C1E670,南礦,2025-12-23,24.538278,121.002836,1.8201e-09
C0M520,東後寮,2025-12-23,23.369908,120.248065,1.9169093e-09
C1E461,松安,2025-12-23,24.397972,120.986022,1.608624e-09
C2N160,西拉雅風管處,2025-12-23,23.189481,120.335297,3.5511077e-06
C2M970,碧湖,2025-12-23,23.568632,120.624165,6.764088e-10
C0A640,石碇,2025-12-23,24.993969,121.662917,8.5667615e-08
E2S960,林試太麻里2,2025-12-23,22.598,120.99775,2.7479519e-09
C0F9Y0,桃山,2025-12-23,24.432739,121.303808,2.2071077e-08
C1I020,萬大,2025-12-23,23.979817,121.132261,1.240462e-09
C2UC20,長嶺,2025-12-23,24.70894,121.61162,1.4367486e-08
C0U940,羅東,2025-12-23,24.68184,121.74934,4.221887e-09
C0M650,朴子,2025-12-23,23.43463,120.23902,1.180114e-08
C1I500,大尖山,2025-12-23,23.858572,120.994889,2.4265767e-09
C0FB40,中橫21.6k,2025-12-23,24.2499,121.1455,1.0718527e-09
C0G820,田尾,2025-12-23,23.901669,120.509389,3.784107e-09
E2K600,四湖植物園,2025-12-23,23.676986,120.163433,0.00019680374
C0S730,綠島,2025-12-23,22.6672,121.47533,0.88348573
12Q970,東港工作站,2025-12-23,22.479997,120.466058,0.39614293
C0E430,南庄,2025-12-23,24.601775,121.000214,6.638252e-08
C1TA00,太魯閣,2025-12-23,24.15773,121.6236,8.4818424e-08
466920,臺北,2025-12-23,25.037658,121.514853,5.7601575e-08
C0R600,舊泰武,2025-12-23,22.588194,120.664944,4.672906e-10
C1I260,北坑,2025-12-23,23.9246,121.006903,1.2371587e-09
466910,鞍部,2025-12-23,25.182586,121.529731,3.8265316e-08
C1I230,九份二山,2025-12-23,23.961944,120.845,7.34543e-10
C2M810,里佳,2025-12-23,23.389125,120.716647,1.5441686e-09
C2A660,瑞芳,2025-12-23,25.113169,121.801147,3.4171837e-08
C0R270,琉球嶼,2025-12-23,22.332244,120.362236,5.689964e-09
C2V580,瑞山,2025-12-23,22.90304,120.43424,1.5265075e-09
C1T990,高寮,2025-12-23,23.394239,121.356808,8.767884e-10
C0G620,芬園,2025-12-23,24.015678,120.6213,4.4269324e-08
C1Z140,荖溪,2025-12-23,23.890575,121.45964,1.5693963e-08
C1I201,中心崙,2025-12-23,23.728722,120.712097,1.337134e-09
C1I400,凌霄,2025-12-23,24.018778,121.004456,1.7733416e-09
C1M640,十字,2025-12-23,23.492153,120.753683,1.7446767e-09
G2P820,農試鳳山分所,2025-12-23,22.646611,120.356083,0.005161014
C0Z270,蕃薯寮,2025-12-23,23.73835,121.540108,1.4536089e-09
C2E420,竹南,2025-12-23,24.70898,120.88897,0.00019310765
C0FB10,出雲山苗圃,2025-12-23,24.23105,120.90475,9.19722e-10
C0F9Q0,外埔,2025-12-23,24.347817,120.705686,7.5686746e-10
C0K580,高鐵雲林,2025-12-23,23.737456,120.417944,9.009518e-09
C2I090,鳳凰,2025-12-23,23.728081,120.787347,6.114925e-10
C0U990,員山,2025-12-23,24.74435,121.72247,4.221887e-09
C0V770,大社,2025-12-23,22.730306,120.346639,2.5463476e-07
C0X120,麻豆,2025-12-23,23.183289,120.248611,5.96354e-07
C0C670,龍潭,2025-12-23,24.870056,121.221389,5.0120487e-08
C0D680,香山濕地,2025-12-23,24.783581,120.914988,0.99950755
C0S980,勝林山,2025-12-23,22.430439,120.8938,1.0783227e-08
C0V730,大寮,2025-12-23,22.605614,120.395717,0.005161014
C0R570,麟洛,2025-12-23,22.65078,120.52719,0.8756903
C2M930,石卓,2025-12-23,23.478744,120.702264,1.692357e-09
C0G9B0,和美,2025-12-23,24.105169,120.492131,2.40554e-05
CAG100,王功漁港,2025-12-23,23.96824,120.32586,0.356387
C0X290,北門,2025-12-23,23.267772,120.125481,1.5313278e-09
C2F930,大甲,2025-12-23,24.347667,120.640403,3.3025927e-07
C0D650,湖口,2025-12-23,24.904794,121.043628,0.00018802621
C0E420,竹南,2025-12-23,24.708978,120.888897,0.63941175
C0U780,五結,2025-12-23,24.68637,121.79794,6.0175993e-09
C1I250,鯉潭,2025-12-23,23.961922,120.991131,1.1297293e-09
C0R130,阿禮,2025-12-23,22.742908,120.743678,6.829712e-10
C0X100,臺南市北區,2025-12-23,23.010394,120.194228,2.8702598e-09
C0S920,金峰嘉蘭,2025-12-23,22.594789,120.960825,2.1866002e-09
C0V490,新興,2025-12-23,22.627422,120.298803,0.019355107
C0F9K0,大安,2025-12-23,24.345061,120.588025,3.3025958e-07
467290,古坑,2025-12-23,23.633639,120.551889,0.0007178132
C2E970,八甲,2025-12-23,24.535811,120.795983,1.1261558e-09
C0V440,鳳山,2025-12-23,22.646653,120.356122,0.005161014
C1T940,大觀,2025-12-23,23.714206,121.373133,2.129886e-09
C0E740,造橋,2025-12-23,24.637056,120.864778,3.8661618e-08
C0R100,尾寮山,2025-12-23,22.833111,120.683889,7.219105e-10
A2K630,臺大雲林校區,2025-12-23,23.730628,120.423903,9.009518e-09
467990,馬祖,2025-12-23,26.169467,119.923158,1.0521717e-06
C0D580,寶山,2025-12-23,24.735006,121.025192,6.3931016e-10
E2P990,林試扇平站,2025-12-23,22.9677,120.6857,6.0901095e-10
C0AI30,三重,2025-12-23,25.057328,121.500629,5.7601575e-08
C0AH00,汐止,2025-12-23,25.066881,121.658778,7.224181e-08
C1Z040,立山,2025-12-23,23.443356,121.327375,4.484679e-09
466881,新北,2025-12-23,24.959207,121.525196,2.2135437e-07
C0W130,花嶼,2025-12-23,23.40007,119.32276,0.93277454
C0A950,鼻頭角,2025-12-23,25.129036,121.923372,1.7113862e-08
C0K470,林內,2025-12-23,23.748675,120.609642,0.00091130903
C2F990,摩天嶺,2025-12-23,24.322458,120.936819,9.720243e-10
C2E430,南庄,2025-12-23,24.601775,121.000214,3.4760414e-10
82C160,茶改場,2025-12-23,24.908472,121.185333,1.5731672e-07
C2TB60,南安,2025-12-23,23.29818,121.26157,9.2128993e-10
C0Z320,清水林道,2025-12-23,23.27125,121.188272,3.047995e-09
C0R760,南仁湖,2025-12-23,22.084681,120.863353,0.9868152
C0M670,大林,2025-12-23,23.600616,120.45841,0.00047146395
C0M800,茶山,2025-12-23,23.299075,120.664767,7.953855e-10
C0A9C0,天母,2025-12-23,25.117494,121.537169,7.8168355e-08
72K220,南改斗南分場,2025-12-23,23.634556,120.477333,0.001720055
72AI40,桃改樹林分場,2025-12-23,24.944503,121.386972,3.4604994e-08
C0S910,蘭嶼燈塔,2025-12-23,22.081197,121.503117,0.9836716
C0B050,八斗子,2025-12-23,25.144754,121.79167,6.688071e-08
C0U900,內城,2025-12-23,24.71813,121.68766,4.189727e-09
C0X320,柳營,2025-12-23,23.253328,120.375253,6.712238e-06
C0M790,新港,2025-12-23,23.553269,120.345728,1.6000988e-07
C0F9T0,西屯,2025-12-23,24.179494,120.641275,1.1513989e-08
C0E950,松安,2025-12-23,24.39792,120.98599,1.608624e-09
C0SA30,都歷,2025-12-23,23.020333,121.323642,0.93667305
C0C620,蘆竹,2025-12-23,25.084275,121.265767,7.661568e-06
C0R730,大坪頂,2025-12-23,22.024633,120.69355,0.9969889
C0AJ40,石門,2025-12-23,25.273672,121.601198,2.5433617e-05
C0E750,苗栗,2025-12-23,24.564569,120.824575,1.1261558e-09
C0T870,鯉魚潭,2025-12-23,23.935639,121.508944,7.0896533e-09
C1V170,排雲,2025-12-23,23.463619,120.954147,1.8945054e-08
C2H950,中寮,2025-12-23,23.884447,120.766406,6.449342e-10
C0R350,貓鼻頭,2025-12-23,21.921774,120.7358,0.1123333
C0V660,岡山,2025-12-23,22.797078,120.294958,6.400599e-08
C1H941,雙冬,2025-12-23,23.967378,120.802189,6.2562844e-10
C0AJ70,田寮,2025-12-23,25.2698,121.4886,0.00070793374
C0AI00,五股,2025-12-23,25.07445,121.42728,2.0491482e-08
C0Z280,德武,2025-12-23,23.47426,121.41071,1.3307986e-09
C2RA10,大新,2025-12-23,22.67558,120.57788,0.00030238042
C0R700,枋山,2025-12-23,22.246844,120.661086,0.99731123
C0C460,復興,2025-12-23,24.820208,121.352281,2.6848294e-08
C2K300,鹿南,2025-12-23,23.63855,120.3636,4.118814e-08
E2H360,蓮華池,2025-12-23,23.918333,120.885278,6.2582295e-10
C0M640,中埔,2025-12-23,23.42538,120.5229,7.337066e-06
C0W140,金沙,2025-12-23,24.488292,118.408778,0.4167354
C2A540,四堵,2025-12-23,24.8926,121.745736,6.737107e-08
C0ACA0,新莊,2025-12-23,25.051478,121.446756,3.8827228e-08
C0R220,潮州,2025-12-23,22.534361,120.54,0.002123813
U2HA40,臺大內茅埔,2025-12-23,23.689722,120.851117,4.864534e-10
467490,臺中,2025-12-23,24.145736,120.684075,9.510962e-06
C0UB60,明池,2025-12-23,24.650688,121.475277,5.3175498e-08
C0U960,翠峰湖,2025-12-23,24.510856,121.608044,1.8599257e-08
E2HA20,林試畢祿溪站,2025-12-23,24.226944,121.308522,3.8833283e-09
C2M9A0,大華,2025-12-23,23.4824,120.67491,7.225731e-10
C0V890,前鎮,2025-12-23,22.5718,120.3117,0.08249202
C1F941,雪嶺,2025-12-23,24.280586,121.026642,8.519877e-09
C2H9E0,國姓南港,2025-12-23,23.911108,120.846556,1.1101481e-09
C0AC80,文山,2025-12-23,25.00235,121.575728,9.035541e-08
C0F9R0,龍井,2025-12-23,24.184536,120.528972,5.8880514e-06
C0M760,民雄,2025-12-23,23.551754,120.428457,0.00047146395
C0UA40,西德山,2025-12-23,24.560647,121.752608,2.7702242e-08
C2TA70,赤科坪,2025-12-23,23.39885,121.39168,6.7626336e-09
C1T920,中興,2025-12-23,23.769503,121.498653,1.5804981e-09
C0D550,雪霸,2025-12-23,24.526972,121.11605,2.8347378e-09
C2F860,梨山,2025-12-23,24.247522,121.243669,4.66315e-09
C0R320,車城,2025-12-23,22.0744,120.716247,0.19082315
C1S870,南美山,2025-12-23,23.15025,121.382333,3.8457215e-09
C0B020,基隆嶼,2025-12-23,25.19141,121.78391,5.3528606e-08
C1U501,牛鬥,2025-12-23,24.637836,121.573656,2.9880056e-08
C0M730,嘉義市東區,2025-12-23,23.457673,120.460531,5.6400342e-05
C2R990,泰武,2025-12-23,22.60686,120.69765,1.6809976e-09
C0S700,知本,2025-12-23,22.684866,121.005642,2.0079995e-09
C1N001,沙崙,2025-12-23,22.935472,120.309406,8.570812e-09
C0V760,橋頭,2025-12-23,22.757806,120.30575,2.5463476e-07
C0G960,福寶,2025-12-23,24.0443,120.3814,3.3118877e-07
C0X210,白河,2025-12-23,23.347466,120.414427,2.1603955e-07
C0S810,東河,2025-12-23,22.972672,121.303986,0.14623567
C2R170,屏東,2025-12-23,22.66027,120.49403,0.8756903
C0R670,楓港,2025-12-23,22.190131,120.692156,0.223183
C0FA50,霧峰,2025-12-23,24.0419,120.6995,2.2506454e-05
C0UB10,蘇澳,2025-12-23,24.5969,121.8571,6.0059606e-09
C0G950,防潮門,2025-12-23,24.1835,120.4871,0.039005544
C0M740,六腳,2025-12-23,23.492871,120.290625,5.9203547e-08
C1R250,力里,2025-12-23,22.428117,120.629228,1.9629937e-08
C0K330,虎尾,2025-12-23,23.719183,120.442036,9.009518e-09
C2FA00,烏石坑,2025-12-23,24.273503,120.947617,9.573926e-10
C0V620,永安,2025-12-23,22.82315,120.236856,6.400599e-08
C1I330,楓樹林,2025-12-23,23.986803,121.076117,1.6754184e-09
C0W200,湖西,2025-12-23,23.596314,119.67275,0.5027542
72Q010,高雄農改場,2025-12-23,22.709333,120.525889,0.34571633
C0SA40,瑞和,2025-12-23,22.974361,121.156697,5.921614e-10
C0C680,龜山,2025-12-23,25.02846,121.38656,1.3078302e-08
C2V260,月眉,2025-12-23,22.971003,120.539853,2.2861418e-06
C0V450,鳳森,2025-12-23,22.545064,120.392592,2.6452665e-09
C0FA90,小雪山林道,2025-12-23,24.29515,121.03651,1.2087679e-08
C0U720,南山,2025-12-23,24.43742,121.38167,1.1618512e-08
A2N290,臺南蘭花園區,2025-12-23,23.340258,120.379661,6.605258e-06
C0R560,新園,2025-12-23,22.5434,120.461558,2.6452665e-09
C0U890,三星,2025-12-23,24.66812,121.65302,4.215216e-09
C1V300,御油山,2025-12-23,23.001983,120.715364,1.9563917e-09
C0U600,礁溪,2025-12-23,24.817539,121.765608,3.7949195e-09
C1T980,龍澗,2025-12-23,24.023289,121.411328,1.5410624e-08
C0D670,海天一線,2025-12-23,24.831986,120.914438,0.999676
C0SA00,歷坵,2025-12-23,22.520969,120.89185,3.1374456e-09
C0M710,東石,2025-12-23,23.458927,120.15385,3.5910684e-08
C0M780,鹿草,2025-12-23,23.41134,120.30835,1.180114e-08
C0U520,雙連埤,2025-12-23,24.753033,121.641303,1.4704582e-08
C0B010,七堵,2025-12-23,25.094819,121.71713,5.065358e-08
C0R480,長治,2025-12-23,22.693128,120.542622,0.0013473
C1V830,國三S383K,2025-12-23,22.781967,120.426475,1.5376587e-05
12Q980,恆春工作站,2025-12-23,22.079678,120.714425,0.19082308
C1O940,東山服務區,2025-12-23,23.286016,120.398472,6.605258e-06
C1U840,東澳嶺,2025-12-23,24.5378,121.8485,2.0014506e-08
C1D630,飛鳳山,2025-12-23,24.766464,121.119178,1.3606254e-09
C0S940,石寧山,2025-12-23,23.223772,121.406639,5.128262e-09
C0K410,北港,2025-12-23,23.573957,120.292802,1.2138976e-07
C2M620,瑞里,2025-12-23,23.545133,120.675197,8.483889e-10
C0SB70,小港漁港,2025-12-23,23.158558,121.400431,9.0809245e-09
C2O950,安南,2025-12-23,23.076694,120.144861,1.2698835e-09
C0F0E0,南湖圈谷,2025-12-23,24.363714,121.444667,2.585129e-08
467610,成功,2025-12-23,23.097486,121.373428,1.332595e-08
C0G890,伸港,2025-12-23,24.148933,120.484403,0.039005596
C2E540,龍溪,2025-12-23,24.606489,120.783933,1.1261558e-09
C1V200,梅山,2025-12-23,23.268447,120.823556,5.6833016e-10
C0T9H0,加路蘭山,2025-12-23,23.682947,121.5274,3.0511884e-09
C2O930,玉井,2025-12-23,23.126042,120.46055,2.8628075e-09
C1F911,新伯公,2025-12-23,24.221361,120.841069,1.0024475e-09
C0R490,九如,2025-12-23,22.7405,120.490503,0.34571633
C0X200,左鎮,2025-12-23,23.056758,120.408522,3.842021e-08
C2TB50,麻汝,2025-12-23,23.42554,121.39358,1.3307986e-09
C0FA60,鞍馬山工作站,2025-12-23,24.267064,121.000793,5.478888e-09
C0SB50,叭嗡嗡,2025-12-23,23.047062,121.343223,1.933578e-08
C1F891,稍來,2025-12-23,24.265689,121.001142,5.150445e-09
C2M9C0,紫雲,2025-12-23,23.494914,120.540253,0.0023671351
72N240,七股研究中心,2025-12-23,23.081672,120.062894,1.6510834e-09
C0C700,中壢,2025-12-23,24.977661,121.256375,4.5060474e-08
C0M690,水上,2025-12-23,23.419734,120.388909,3.1794968e-07
C0V690,鼓山,2025-12-23,22.623325,120.275575,0.019355107
C0O860,大內,2025-12-23,23.11885,120.36083,3.5511077e-06
C0Z200,萬榮,2025-12-23,23.709219,121.420106,1.2504892e-09
C0T9D0,和中,2025-12-23,24.26676,121.74103,1.4875986e-08
C2S9A0,北份子寮,2025-12-23,22.78561,121.07813,0.027190927
C1O921,楠西,2025-12-23,23.183511,120.484083,2.8628075e-09
C0AJ30,淡水觀海,2025-12-23,25.184591,121.408616,0.0012842616
C0V810,左營,2025-12-23,22.67491,120.28491,0.0013946813
C0UA70,桃源谷,2025-12-23,24.962606,121.888875,2.4904036e-08
C0X130,官田,2025-12-23,23.193217,120.315422,3.5511077e-06
C1H000,翠峰,2025-12-23,24.109397,121.205211,5.37097e-09
C0UA90,石城,2025-12-23,24.980444,121.951214,1.6355411e-08
C1E681,南勢山,2025-12-23,24.421669,120.923831,1.5393664e-09
C0A9F0,內湖,2025-12-23,25.079422,121.57545,7.914984e-08
C0K291,宜梧,2025-12-23,23.536281,120.169329,0.13716115
C1K540,口湖,2025-12-23,23.585344,120.180517,0.15172516
C0R780,滿州,2025-12-23,22.024403,120.839892,0.33879983
C0V870,文安,2025-12-23,22.8025,120.2164,9.557933e-08
C0U650,玉蘭,2025-12-23,24.675286,121.587061,1.4369514e-08
C0R640,東港,2025-12-23,22.46247,120.44074,1.9631612e-09
C0AJ80,板橋,2025-12-23,25.0107,121.4489,2.1116948e-07
C0S660,下馬,2025-12-23,23.150427,121.070312,2.1879019e-09
C2N190,烏樹,2025-12-23,23.32393,120.36989,6.605258e-06
C1H9B1,阿眉,2025-12-23,24.1263,120.994672,2.0580269e-09
C0UA20,多加屯,2025-12-23,24.368614,121.373189,1.1236139e-08
C0E730,頭份,2025-12-23,24.688247,120.912206,0.00019310765
72V140,高改旗南分場,2025-12-23,22.857861,120.516667,1.8941526e-05
C0K480,莿桐,2025-12-23,23.761192,120.502372,4.7485442e-05
C0U980,坪林石牌,2025-12-23,24.86478,121.77396,4.815161e-08
C0T900,西林,2025-12-23,23.8119,121.441458,1.7321002e-09
C1I150,青雲,2025-12-23,23.793361,120.949378,4.5742626e-10
C2E980,和興,2025-12-23,24.505319,120.923016,1.6781528e-09
467350,澎湖,2025-12-23,23.565503,119.563094,0.5204214
C0G800,埔鹽,2025-12-23,24.000394,120.431683,2.2803879e-07
C0H960,草屯,2025-12-23,23.973672,120.68085,2.3972726e-09
C1V780,多納林道,2025-12-23,22.888028,120.737917,9.235736e-10
C0E920,通霄漁港,2025-12-23,24.498589,120.673876,0.5675544
C0Z330,安通山,2025-12-23,23.290728,121.348528,1.3954579e-09
C0AH10,永和,2025-12-23,25.01125,121.508111,2.1116948e-07
C0AK10,太平里,2025-12-23,25.134937,121.364899,2.3746397e-05
C2G640,鹿港,2025-12-23,24.0753,120.430481,2.40554e-05
C1E890,國三N149K,2025-12-23,24.463414,120.680019,0.5675544
C1R110,口社,2025-12-23,22.770111,120.645222,1.2489148e-05
C1M870,國三N285K,2025-12-23,23.550319,120.505833,0.0023671351
C1E480,鳳美,2025-12-23,24.554803,121.034747,1.6759873e-09
C0M530,奮起湖,2025-12-23,23.493903,120.699253,4.7810595e-09
C0C590,觀音,2025-12-23,25.027072,121.153317,0.017073112
C0T9M0,靜浦,2025-12-23,23.455167,121.495028,1.6152466e-09
C2H9M0,發祥,2025-12-23,24.154094,121.164517,1.0559439e-09
C2G9C0,埔南,2025-12-23,23.99124,120.46969,2.2803879e-07
C0AI40,石牌,2025-12-23,25.115597,121.513139,7.914984e-08
C1F871,上谷關,2025-12-23,24.203483,121.018644,9.569582e-10
C2H9G0,百勝,2025-12-23,24.051142,120.909361,4.2554352e-10
C0G880,二水,2025-12-23,23.810742,120.6173,0.00019975846
C0R940,加祿堂,2025-12-23,22.3363,120.6217,0.9973105
C0W220,北竿,2025-12-23,26.220358,119.974881,0.004453941
C0O960,崎頂,2025-12-23,22.959547,120.369317,8.570812e-09
C0TA40,秀林,2025-12-23,24.302864,121.731144,2.1610028e-08
C0S750,向陽,2025-12-23,23.248397,120.986133,5.4132188e-09
C0T9F0,水璉,2025-12-23,23.797131,121.542514,1.8488471e-09
C1M600,頭凍,2025-12-23,23.406364,120.603339,6.346557e-10
467660,臺東,2025-12-23,22.752211,121.154586,0.4941816
C1D380,新埔,2025-12-23,24.84745,121.03834,0.00019051286
C2G980,田頭村,2025-12-23,23.8263,120.444175,6.387693e-09
C0V750,路竹,2025-12-23,22.854997,120.259439,6.400599e-08
C0N050,蚵寮,2025-12-23,23.301,120.1104,1.5313278e-09
C2X060,下營,2025-12-23,23.226806,120.256291,1.4411806e-06
72M700,南改鹿草分場,2025-12-23,23.416869,120.283061,1.180114e-08
C1SA50,利嘉林道,2025-12-23,22.82325,121.009389,1.544688e-08
C0UB70,太平山中間站,2025-12-23,24.542003,121.513453,2.1946486e-08
C0A940,金山,2025-12-23,25.223628,121.643967,1.2751333e-07
C1V340,大津,2025-12-23,22.888322,120.645986,2.988946e-06
C0W180,七美,2025-12-23,23.219333,119.444892,0.87006396
C1F9C1,白冷,2025-12-23,24.182844,120.929889,4.908394e-10
K2E710,苗改生物防治研究中心,2025-12-23,24.422861,120.871833,4.2266704e-10
C0N040,蘆竹溝,2025-12-23,23.2344,120.0961,1.5313278e-09
C0TB40,崇德,2025-12-23,24.166144,121.657414,1.3795213e-07
C0D760,大坪苗圃,2025-12-23,24.5362,121.1108,2.3549487e-09
C2W230,畜試所澎湖,2025-12-23,23.628342,119.513206,0.4211194
C0R880,後壁湖,2025-12-23,21.9457,120.7457,0.09470828
C1I280,埔中,2025-12-23,23.820778,120.642594,1.8018415e-09
467790,墾丁雷達站,2025-12-23,21.948235,120.808028,0.11178214
C0W190,望安,2025-12-23,23.380564,119.494075,0.47506294
C0Z170,卓溪,2025-12-23,23.3443,121.3029,9.628168e-10
C0F850,東勢,2025-12-23,24.246428,120.833047,1.1269531e-09
466900,淡水,2025-12-23,25.164889,121.448906,4.4958316e-08
C0I370,魚池,2025-12-23,23.895703,120.94135,6.37716e-10
C0C630,大溪,2025-12-23,24.882853,121.265547,3.2109124e-08
C0A520,山佳,2025-12-23,24.974944,121.402008,3.7264435e-08
C0I110,竹山,2025-12-23,23.761225,120.688156,3.2575557e-05
82H840,茶改南部分場,2025-12-23,23.762528,120.7405,2.6531288e-09
C2SD80,再來山,2025-12-23,23.34371,121.44122,1.0248232e-09
C0G660,溪湖,2025-12-23,23.94835,120.479122,3.784107e-09
C1T800,洛韶,2025-12-23,24.204558,121.453956,2.1156673e-08
C1T810,慈恩,2025-12-23,24.192044,121.388386,7.45337e-09
C1E451,象鼻,2025-12-23,24.368617,120.940228,1.5393664e-09
C0AC60,三峽,2025-12-23,24.939025,121.369728,3.2959846e-08
C0I490,萬大林道,2025-12-23,23.928228,121.091411,2.8146527e-09
C1I290,豐丘,2025-12-23,23.668178,120.887417,1.3508844e-09
C1I320,奧萬大,2025-12-23,23.952956,121.178556,1.6886813e-09
C2M910,嘉義大學,2025-12-23,23.471325,120.485903,5.6400288e-05
C0U770,南澳,2025-12-23,24.44935,121.81022,9.252015e-09
C2TB30,吉安,2025-12-23,23.94538,121.54803,9.247622e-09
C0A980,社子,2025-12-23,25.109508,121.469681,4.946198e-08
C0V800,六龜,2025-12-23,22.997889,120.633583,3.9304698e-08
C1G9D0,國一S218K,2025-12-23,23.890641,120.493253,1.0039041e-08
C0E570,白沙屯,2025-12-23,24.549447,120.696803,0.8081065
C2F9A0,中竹林,2025-12-23,24.103556,120.751061,7.332957e-10
C0FA40,臺中電廠,2025-12-23,24.2146,120.4907,8.5674874e-05
C2G9A0,畜試所彰化,2025-12-23,23.86045,120.557964,1.2462572e-06
C0H9C0,合歡山,2025-12-23,24.143442,121.272547,1.5184124e-08
G2M350,農試溪口農場,2025-12-23,23.58565,120.408111,0.00047146395
C0U860,頭城,2025-12-23,24.85323,121.8308,2.6898116e-08
C0R580,南州,2025-12-23,22.48591,120.50274,0.39614293
C0D430,峨眉,2025-12-23,24.6905,121.017189,8.167923e-10
C0G780,秀水,2025-12-23,24.03405,120.503869,5.5354628e-09
72N100,臺南農改場,2025-12-23,23.0605,120.342194,1.0504392e-06
C0S900,蘭嶼高中,2025-12-23,22.04909,121.51214,0.99172693
C2TA60,六十石,2025-12-23,23.22477,121.31861,3.7791876e-09
C1F9W0,德基,2025-12-23,24.254783,121.190261,3.8303196e-09
C2M980,安和,2025-12-23,23.51377,120.31593,5.9203547e-08
C1Z120,壽豐,2025-12-23,23.870853,121.508081,3.1853886e-09
C0W160,烏坵,2025-12-23,24.9944,119.44956,0.901752
C1I240,外大坪,2025-12-23,23.958697,120.917931,6.7342487e-10
C1I550,國六W023K,2025-12-23,23.979067,120.867742,5.119366e-10
C0R870,興海,2025-12-23,21.9752,120.8439,0.11178214
C0R140,瑪家,2025-12-23,22.682903,120.686639,4.003861e-10
C0A530,坪林,2025-12-23,24.938183,121.70975,6.352291e-08
C0X260,後壁,2025-12-23,23.366358,120.362326,2.4155352e-07
C0Z230,和平,2025-12-23,24.30717,121.77007,4.8309814e-09
C0G770,福興,2025-12-23,24.041289,120.437669,2.2803879e-07
C0H9A0,神木村,2025-12-23,23.532742,120.843667,1.5280776e-09
C0I460,南投,2025-12-23,23.911469,120.687331,2.3972726e-09
C0I480,梅峰,2025-12-23,24.085272,121.173572,3.3315606e-09
C1V570,吉東,2025-12-23,22.85422,120.5454,0.0007745694
C2A560,福山,2025-12-23,24.776203,121.502811,1.4264217e-08
C0AH30,五分山,2025-12-23,25.07125,121.780794,4.032475e-08
C0FA10,松柏,2025-12-23,24.429115,120.617482,5.204822e-05
72S200,東改班鳩分場,2025-12-23,22.829528,121.077694,8.455994e-09
72HA00,中改埔里分場,2025-12-23,23.903208,120.963364,6.317065e-10
C2H9W0,大坪頂農水,2025-12-23,24.043122,120.932781,6.392175e-10
C0C650,平鎮,2025-12-23,24.897503,121.214636,5.0120487e-08
C0S930,延平,2025-12-23,22.902581,121.084058,2.8321059e-09
C0UA60,樟樹山,2025-12-23,24.41393,121.78325,4.268607e-09
C2UC10,出水溪,2025-12-23,24.615822,121.652253,2.3591939e-08
C1S670,摩天,2025-12-23,23.199503,121.027,1.2201157e-08
C2C590,觀音,2025-12-23,25.027072,121.153317,0.9934664
C0V630,茄萣,2025-12-23,22.906642,120.182608,3.4403808e-08
466940,基隆,2025-12-23,25.133314,121.740475,6.42668e-08
C0X050,東河,2025-12-23,23.296598,120.385608,6.605258e-06
C0R770,保力,2025-12-23,22.071122,120.764111,0.99553657
G2L020,農試嘉義分所,2025-12-23,23.485028,120.473806,5.6400342e-05
C0X240,關子嶺,2025-12-23,23.331169,120.508025,7.3379103e-10
C0I380,集集,2025-12-23,23.828206,120.801467,5.553597e-10
466990,花蓮,2025-12-23,23.975128,121.613275,3.0448415e-08
C1V220,小關山,2025-12-23,23.154217,120.813603,2.762377e-09
C1F9G1,慶福山,2025-12-23,24.180853,120.848378,5.880072e-10
C0FB20,雪山橋,2025-12-23,24.23192,120.9786,4.236366e-09
C0Z250,瑞穗林道,2025-12-23,23.49284,121.30688,1.9220176e-08
C0D590,新豐,2025-12-23,24.87068,120.97721,0.999676
C0A870,五指山,2025-12-23,25.132153,121.608692,1.5455779e-08
C0UA50,西帽山,2025-12-23,24.555361,121.802628,2.0088281e-08
C2R980,竹田國中,2025-12-23,22.61532,120.52412,0.009375436
C0X160,仁德,2025-12-23,22.968258,120.257689,3.8278858e-07
C1H971,六分寮,2025-12-23,23.92507,120.6378,8.374899e-10
C0W120,西嶼,2025-12-23,23.5626,119.468436,0.6939407
C0G650,員林,2025-12-23,23.946503,120.585597,3.3648085e-08
C0AD50,鶯歌,2025-12-23,24.951533,121.346294,2.2375671e-08
C2H9Q0,北東眼山,2025-12-23,24.120939,121.189303,3.0776424e-09
C2H9T0,名間竹圍,2025-12-23,23.859914,120.637572,2.50076e-09
C0S990,山豬窟,2025-12-23,22.318619,120.857372,2.3625415e-05
C0X190,安平,2025-12-23,22.993161,120.152181,3.1255476e-09
C0K400,斗六,2025-12-23,23.720583,120.541127,4.7485442e-05
12J990,口湖工作站,2025-12-23,23.589978,120.180394,0.15172516
C0O830,北寮,2025-12-23,23.079561,120.495008,1.0786328e-09
C1D410,白蘭,2025-12-23,24.579364,121.079947,1.7935198e-09
C0S970,加津林,2025-12-23,22.416211,120.926942,4.985292e-07
C0D700,關西,2025-12-23,24.7977,121.1732,1.0271662e-08
C0M810,里佳,2025-12-23,23.389125,120.716647,4.7848454e-09
C0U750,龜山島,2025-12-23,24.841667,121.953133,5.0309072e-08
C0R810,內獅,2025-12-23,22.305064,120.642986,0.99731123
C1M390,龍美,2025-12-23,23.406728,120.654417,9.928685e-10
C2K290,崙內,2025-12-23,23.69525,120.35601,4.118814e-08
C2FB60,頭櫃山,2025-12-23,24.129842,120.858925,1.1535481e-09
C1H840,國三N238K,2025-12-23,23.841008,120.707711,5.524293e-09
CAQ030,崎峰國小,2025-12-23,22.42565,120.49521,0.39614293
C2E520,大湖,2025-12-23,24.414939,120.870872,4.2266704e-10
467530,阿里山,2025-12-23,23.508208,120.813242,6.8105797e-09
C1E691,南湖,2025-12-23,24.40135,120.837533,1.1290012e-09
C0FA30,梧棲,2025-12-23,24.256003,120.523381,5.8880514e-06
C1V231,高中,2025-12-23,23.134911,120.716711,6.265838e-10
C0AK30,硬漢嶺,2025-12-23,25.136097,121.426372,1.2375605e-08
C0F9V0,新社,2025-12-23,24.200172,120.815806,8.051036e-10
C0H890,埔里,2025-12-23,23.972169,120.952425,6.492912e-10
C0R690,墾丁,2025-12-23,21.966756,120.810269,0.15534227
C0SD20,富山,2025-12-23,22.822383,121.190825,0.00030801987
C0F0D0,審馬陣,2025-12-23,24.381675,121.4203,1.7672715e-08
C2W030,金門農試所,2025-12-23,24.448431,118.451786,0.2992662
C0R820,白鷺,2025-12-23,22.454275,120.666219,9.1415525e-10
C0FB00,大雪山,2025-12-23,24.254668,121.007374,5.5276237e-09
C1V190,南天池,2025-12-23,23.27403,120.91176,4.860604e-09
C0E940,雪見,2025-12-23,24.42595,121.01347,3.7648844e-09
K2E360,苗栗農改場,2025-12-23,24.495722,120.829111,9.1571534e-10
CAJ050,海口故事園區,2025-12-23,23.57543,120.14121,0.15172516
C2K280,四湖,2025-12-23,23.6304,120.22717,0.00019680393
C2H9D0,三隻寮,2025-12-23,24.093078,120.861578,5.488037e-10
C0O990,媽廟,2025-12-23,22.99175,120.293525,1.0489535e-06
C0D480,打鐵坑,2025-12-23,24.849664,121.150789,1.2293516e-07
C0Z220,和平林道,2025-12-23,24.343922,121.656317,5.523629e-09
C0TA10,花蓮漁港,2025-12-23,23.995322,121.638331,3.4053095e-08
72C440,桃園農改場,2025-12-23,24.950944,121.030583,0.00018802621
C1E711,馬拉邦山,2025-12-23,24.367306,120.901656,1.4828613e-09
C0SB20,富岡,2025-12-23,22.792467,121.192669,0.00014493035
C0D560,竹東,2025-12-23,24.767147,121.057881,4.619313e-09
C0F9U0,南屯,2025-12-23,24.137006,120.637969,3.3709064e-06
C2SD60,明峰,2025-12-23,22.8671,121.11825,4.1485677e-09
C0M720,番路,2025-12-23,23.464657,120.554156,4.4891033e-09
C0F0A0,雪山圈谷,2025-12-23,24.388594,121.236339,2.4196222e-08
C1A9N0,四十份,2025-12-23,24.934158,121.593283,3.8203037e-08
C0U760,東澳,2025-12-23,24.52196,121.83318,9.120328e-09
C0X230,鹽水,2025-12-23,23.272621,120.247641,1.1968881e-09
C2H9H0,苗改南投蜂場,2025-12-23,23.852589,120.693481,6.432431e-08
C2TB70,達谷寮,2025-12-23,23.38,121.35968,1.0146317e-09
C0R950,萬隆國小,2025-12-23,22.507667,120.587817,5.8649675e-08
467540,大武,2025-12-23,22.35572,120.90374,0.8897773
C0V370,古亭坑,2025-12-23,22.893178,120.401947,1.5265075e-09
C1I340,新興橋,2025-12-23,23.563333,120.868728,6.1828065e-10
C0SA80,土坂,2025-12-23,22.453108,120.887572,1.2411495e-07
C0R160,鹽埔,2025-12-23,22.739558,120.530778,0.34571633
C0AC40,大屯山,2025-12-23,25.175675,121.522408,3.6227146e-08
466850,五分山雷達站,2025-12-23,25.071182,121.781205,4.0556927e-08
C2H9L0,馬烈霸,2025-12-23,24.1512,121.201772,3.0776424e-09
C1AI50,國三N016K,2025-12-23,25.034164,121.619664,5.8574994e-08
C2V920,匏子寮,2025-12-23,23.04905,120.55319,2.8542422e-09
C1V600,藤枝,2025-12-23,23.071961,120.757042,1.654081e-09
C1E601,南勢,2025-12-23,24.572486,120.734842,0.8081065
C0O980,新市,2025-12-23,23.061614,120.298197,1.0504392e-06
C0K420,西螺,2025-12-23,23.800407,120.467394,6.387693e-09
C0Z050,佳心,2025-12-23,23.34567,121.21316,3.8973154e-09
C0AD30,蘆洲,2025-12-23,25.086594,121.472331,4.6177473e-08
C0V610,梓官,2025-12-23,22.760558,120.267211,6.5972294e-08
K2F750,種苗改良場,2025-12-23,24.225972,120.800917,8.0510515e-10
C0UA80,大溪漁港,2025-12-23,24.941801,121.902955,6.765875e-08
C1AI60,國一39K邊坡,2025-12-23,25.064361,121.383836,1.8714733e-08
C0W150,金寧,2025-12-23,24.457703,118.328989,0.5602329
C0R960,內埔,2025-12-23,22.608483,120.570714,0.009375436
V2C250,八德合作社,2025-12-23,24.93775,121.266389,3.2109124e-08
C2H9S0,龍南,2025-12-23,23.953536,120.833183,9.383523e-10
C0AH40,平等,2025-12-23,25.129142,121.577086,1.2621088e-08
C0R540,佳冬,2025-12-23,22.419456,120.552375,0.013478937
466950,彭佳嶼,2025-12-23,25.627975,122.079744,0.9999617
C0A890,雙溪,2025-12-23,25.036003,121.864242,1.5528322e-08
C0C480,桃園,2025-12-23,24.992425,121.323172,4.5060474e-08
C0AH50,林口,2025-12-23,25.072181,121.38084,1.44935175e-08
A2K360,水試臺西試驗場,2025-12-23,23.717231,120.190522,2.8294726e-05
C2M960,外寮,2025-12-23,23.562643,120.665688,7.203796e-10
C0F9S0,烏日,2025-12-23,24.107058,120.624103,3.3709064e-06
C2N180,鹿陶洋,2025-12-23,23.14325,120.48352,2.8628075e-09
C0C490,八德,2025-12-23,24.928708,121.283289,3.2109124e-08
C0R190,赤山,2025-12-23,22.592333,120.614306,0.0022085959
C0T820,天祥,2025-12-23,24.179597,121.495639,2.6845838e-08
C1F9E1,龍安,2025-12-23,24.1605,120.831961,7.968432e-10
C2SD50,順那,2025-12-23,23.04166,121.29332,0.06444398
C0V820,小林,2025-12-23,23.148408,120.63325,4.8227483e-10
C2G870,芳苑,2025-12-23,23.922303,120.320025,0.356387
C0E850,大河,2025-12-23,24.618069,120.948578,3.6678477e-10
C1U670,寒溪,2025-12-23,24.634,121.71691,4.2234087e-09
C0N020,城西,2025-12-23,23.0568,120.0956,1.5289581e-09
C1Z110,三棧,2025-12-23,24.11557,121.60501,2.2039947e-08
C0R280,檳榔,2025-12-23,22.076078,120.836777,0.9942291
C2H9J0,中台,2025-12-23,23.9996,120.938739,6.392175e-10
C0F9L0,后里,2025-12-23,24.310436,120.729725,4.6510315e-10
467441,高雄,2025-12-23,22.730432,120.312516,2.5463476e-07
C0Z180,新城,2025-12-23,24.040486,121.604878,3.08999e-08
C0D540,橫山,2025-12-23,24.71116,121.11693,6.2521327e-10
C1D420,太閣南,2025-12-23,24.632808,121.160575,2.6860267e-09
C1E770,公館,2025-12-23,24.526914,120.830806,1.4170628e-09
CAN130,水試所海水繁養殖中心,2025-12-23,23.120802,120.07968,1.6510834e-09
C1I430,翠華,2025-12-23,24.191961,121.224339,6.1619594e-09
C1M400,菜瓜坪,2025-12-23,23.251928,120.576103,7.3827217e-10
C0G730,二林,2025-12-23,23.903325,120.376081,2.9083743e-08
72M360,南改義竹分場,2025-12-23,23.360694,120.279361,1.9169093e-09
V2K620,麥寮合作社,2025-12-23,23.753836,120.294783,1.475006e-08
C0Z070,舞鶴,2025-12-23,23.46811,121.37407,1.3998431e-09
C0B040,大武崙,2025-12-23,25.166676,121.706993,4.684592e-08
C1Z030,紅葉,2025-12-23,23.493119,121.338806,1.3597771e-09
C1I050,丹大,2025-12-23,23.753747,121.141147,6.710147e-09
C0I080,信義,2025-12-23,23.689694,120.851036,4.864534e-10
C2TB80,庄子底,2025-12-23,23.71794,121.49438,1.0765323e-09
C0D750,樂山林道6k,2025-12-23,24.49999,121.08773,5.345563e-09
C2M920,朴子農改,2025-12-23,23.469889,120.259383,1.180114e-08
C2A880,福隆,2025-12-23,25.017842,121.942083,1.7057875e-08
C0Z160,鳳林,2025-12-23,23.746114,121.453411,1.0923054e-09
C0UB80,翠峰林道6K,2025-12-23,24.49773,121.568625,2.0243364e-08
C0V210,復興,2025-12-23,23.222403,120.806089,4.0733872e-10
C0H990,昆陽,2025-12-23,24.121322,121.273642,1.1331568e-08
C0R741,獅子,2025-12-23,22.202308,120.705236,0.9976998
C0S710,鹿野,2025-12-23,22.917711,121.122994,1.5704524e-09
C0I530,小奇萊,2025-12-23,24.131764,121.295717,1.2099536e-08
C0FA70,大雪山埡口,2025-12-23,24.26867,121.03062,8.3685485e-09
C2K630,荷苞,2025-12-23,23.657717,120.595144,0.0007178132
C0Z080,富源,2025-12-23,23.587642,121.378225,2.448012e-09
C2M9E0,旺來山,2025-12-23,23.555153,120.486463,0.0023671351
C0SB10,美和,2025-12-23,22.682078,121.060236,0.4928907
C2K620,馬光農場,2025-12-23,23.721453,120.378864,9.009518e-09
C1I140,卡奈托灣,2025-12-23,23.754364,121.087872,1.8750488e-09
C0I520,玉山風口,2025-12-23,23.470489,120.955994,2.2912237e-08
C1G691,下水埔,2025-12-23,23.816114,120.5676,3.7408681e-06
C0X110,臺南市南區,2025-12-23,22.961189,120.188378,3.3666805e-07
C0V680,仁武,2025-12-23,22.701083,120.347722,2.5463476e-07
C2G840,北斗,2025-12-23,23.877586,120.514222,1.0039041e-08
C2TB90,長橋,2025-12-23,23.6874,121.46186,1.092272e-09
C0R900,竹坑,2025-12-23,22.1385,120.7022,0.223183
C0G860,社頭,2025-12-23,23.897647,120.5862,1.2462572e-06
C0X150,安定,2025-12-23,23.102614,120.227839,9.802843e-08
C0R590,里港,2025-12-23,22.77919,120.49459,1.4782099e-05
C0E610,馬都安,2025-12-23,24.451272,120.930192,1.2535961e-09
C0E550,明德,2025-12-23,24.583486,120.885411,4.998783e-10
C0R150,三地門,2025-12-23,22.709889,120.639944,0.00016568879
C0G910,花壇,2025-12-23,24.032076,120.549461,5.535452e-09
C1D400,鳥嘴山,2025-12-23,24.71909,121.28387,3.1996008e-09
C0K500,元長,2025-12-23,23.64981,120.315024,3.1115e-08
C0F0B0,石岡,2025-12-23,24.276061,120.777644,4.6510315e-10
C2V250,甲仙,2025-12-23,23.080106,120.591758,1.0640674e-09
C0SA20,金崙山,2025-12-23,22.567419,120.959667,3.3827279e-09
C0V350,溪埔,2025-12-23,22.738578,120.446797,1.5376587e-05
C0M660,溪口,2025-12-23,23.604131,120.403569,0.00047146395
C1S880,壽卡,2025-12-23,22.238911,120.858903,0.012424791
72D680,桃改新埔分場,2025-12-23,24.834444,121.066111,0.00019051286
