站號,站名,日期,lat,lon,BLBTSLS
C0K280,四湖,2025-10-08,23.630414,120.227125,0.814429
A2K570,古坑花卉中心,2025-10-08,23.63353,120.55239,0.5709306
C0E430,南庄,2025-10-08,24.601775,121.000214,0.985718
C0E420,竹南,2025-10-08,24.708978,120.888897,0.949377
C0M530,奮起湖,2025-10-08,23.493903,120.699253,1.6656683e-09
C0C590,觀音,2025-10-08,25.027072,121.153317,0.70661426
C0X060,下營,2025-10-08,23.22695,120.256261,0.5993892
C2D740,屯原,2025-10-08,24.067969,121.209389,1.2297667e-09
C0M810,里佳,2025-10-08,23.389125,120.716647,1.5869139e-09
C0K250,崙背,2025-10-08,23.75555,120.318925,0.9834897
