站號,站名,日期,lat,lon,BLBTSLS
C0R710,龍磐,2025-04-20,21.931672,120.838942,0.46232417
C1F9D1,白毛台,2025-04-20,24.158325,120.886933,2.4312001e-09
C0G940,竹塘,2025-04-20,23.848253,120.386764,4.7209917e-07
467590,恆春,2025-04-20,22.003897,120.746339,0.9643985
C1O850,環湖,2025-04-20,23.148617,120.418633,6.9996564e-09
C0U710,太平山,2025-04-20,24.505486,121.525656,1.5631764e-08
C0E820,獅潭,2025-04-20,24.539133,120.920042,8.8222745e-09
C0V880,興達,2025-04-20,22.8778,120.2127,0.00013480766
C0S890,關山,2025-04-20,23.0395,121.175017,0.9925212
C0SB30,新蘭,2025-04-20,22.869214,121.223228,0.99986565
C2R970,屏科大,2025-04-20,22.648275,120.619247,0.0066651795
C1Z130,銅門,2025-04-20,23.965694,121.492842,0.9927232
C0AD40,土城,2025-04-20,24.973208,121.445169,2.0017179e-08
CAN140,六官養殖協會,2025-04-20,23.22881,120.29962,9.201928e-07
C0X180,山上,2025-04-20,23.0757,120.363253,6.1293804e-06
C0F9Z0,雪山東峰,2025-04-20,24.388792,121.268675,3.752591e-08
C1M480,獨立山,2025-04-20,23.537022,120.607797,2.0462219e-09
C0X220,學甲,2025-04-20,23.230367,120.182187,9.291752e-07
467650,日月潭,2025-04-20,23.881325,120.90805,2.6341849e-09
C0K600,箔子寮,2025-04-20,23.6197,120.14,3.2242852e-08
C0G830,埤頭,2025-04-20,23.866003,120.452806,3.49313e-07
C0S950,七塊厝,2025-04-20,22.954453,121.229922,0.0116308555
467110,金門,2025-04-20,24.407306,118.289281,9.70261e-10
C0AH80,深坑,2025-04-20,25.002703,121.628328,1.3806775e-08
C0A970,三貂角,2025-04-20,25.007606,122.002058,1.5329614e-07
C2D730,寶山農場,2025-04-20,24.732444,120.976153,3.4575372e-08
C0K430,褒忠,2025-04-20,23.690938,120.303634,2.2317277e-08
467480,嘉義,2025-04-20,23.495925,120.432906,1.4620515e-08
C0V400,阿公店,2025-04-20,22.804194,120.355528,0.026116895
467550,玉山,2025-04-20,23.48718,120.95943,4.1967112e-08
C0R440,大漢山,2025-04-20,22.405264,120.753181,1.0172171e-08
C0K280,四湖,2025-04-20,23.630414,120.227125,2.4336323e-08
C1F9B1,桐林,2025-04-20,24.066172,120.735194,1.0287508e-07
C2H9U0,鳳鵬,2025-04-20,23.763919,120.788061,4.0556363e-09
C0K390,土庫,2025-04-20,23.679029,120.395574,3.5824968e-07
C1I450,望鄉山,2025-04-20,23.594153,120.944286,2.1506942e-08
C0E910,海埔,2025-04-20,24.648767,120.772435,1.6670825e-06
B2E890,畜試北區分所,2025-04-20,24.527806,120.770972,2.1480628e-07
C0R750,四林格山,2025-04-20,22.076989,120.802439,3.4039107e-07
C0F0C0,中坑,2025-04-20,24.248517,120.903319,3.4031131e-09
C1I121,大鞍,2025-04-20,23.678381,120.760017,4.1957007e-09
72U480,花改蘭陽分場,2025-04-20,24.686306,121.716583,5.801688e-07
C0A770,科教館,2025-04-20,25.096356,121.516507,2.347183e-08
C0AJ60,六塊厝,2025-04-20,25.24,121.4481,2.606672e-08
C0R620,墾雷,2025-04-20,21.900836,120.855269,0.9540685
467420,永康,2025-04-20,23.038386,120.2367,0.00010520883
C0I410,名間,2025-04-20,23.837053,120.701447,8.2468405e-09
A2C560,農工中心,2025-04-20,24.985917,121.239833,1.9697596e-08
C0V740,旗山,2025-04-20,22.888614,120.483597,0.013514287
C0Z061,玉里,2025-04-20,23.3215,121.339656,0.9992457
C0S840,南田,2025-04-20,22.279725,120.889208,0.9964026
C1I470,杉林溪,2025-04-20,23.639517,120.786444,5.096435e-09
C1X040,東原,2025-04-20,23.291597,120.463822,8.665727e-06
C0R660,枋寮,2025-04-20,22.367722,120.590647,0.9770911
C1R120,上德文,2025-04-20,22.763272,120.704442,3.7748524e-08
C0K450,大埤,2025-04-20,23.646074,120.431537,3.3796059e-07
C0UA00,土場,2025-04-20,24.576533,121.495333,2.3203824e-05
467080,宜蘭,2025-04-20,24.763975,121.756528,9.635678e-07
C0N030,四草,2025-04-20,23.0235,120.1116,1.3069633e-06
467410,臺南,2025-04-20,22.99328,120.20492,5.446713e-05
C0V650,彌陀,2025-04-20,22.783806,120.246361,0.11918746
C0D660,新竹市東區,2025-04-20,24.798681,120.986942,4.4593946e-07
82S580,茶改東部分場,2025-04-20,22.907694,121.130139,0.99730486
C0SB40,興隆,2025-04-20,22.913661,121.257469,0.9998448
467050,新屋,2025-04-20,25.006725,121.047492,1.7506134e-07
C0C710,大溪永福,2025-04-20,24.892936,121.324975,1.676762e-08
C0FA20,溫寮,2025-04-20,24.372177,120.583125,3.5040177e-06
C0V640,湖內,2025-04-20,22.887139,120.2445,9.824245e-05
C0R910,下寮,2025-04-20,22.3929,120.5548,0.9772745
C0Z020,明里,2025-04-20,23.208717,121.262342,0.9924444
C0M770,嘉義梅山,2025-04-20,23.585398,120.555587,9.250374e-09
C0C660,楊梅,2025-04-20,24.912375,121.143047,1.3103021e-08
C1E511,新開,2025-04-20,24.347703,120.827019,1.1143341e-08
G2F820,農試所(霧峰),2025-04-20,24.031261,120.688133,3.2799306e-07
C1I070,和社,2025-04-20,23.591131,120.888861,1.1950722e-07
C2F000,大肚,2025-04-20,24.15295,120.572117,8.600648e-09
C1S850,豐南,2025-04-20,23.122139,121.262389,0.000656937
C2A920,富貴角,2025-04-20,25.263783,121.565258,5.7916623e-09
CAH030,茶改場竹圍站,2025-04-20,23.860083,120.637528,3.3941479e-09
C0T960,光復,2025-04-20,23.660694,121.424964,0.99958926
C0F9M0,豐原,2025-04-20,24.254322,120.720692,1.3859967e-08
C0R720,旭海,2025-04-20,22.205403,120.887614,0.48259804
C0V710,苓雅,2025-04-20,22.622742,120.330669,0.078763515
C0C740,觀音工業區,2025-04-20,25.064764,121.114856,2.3969292e-07
CAC040,拉拉山,2025-04-20,24.699317,121.427133,6.910564e-09
C0V790,萬山,2025-04-20,22.905944,120.688056,4.471525e-09
U2HA30,臺大和社,2025-04-20,23.590856,120.888864,1.1950722e-07
C0AJ90,澳底,2025-04-20,25.0552,121.9253,8.9025593e-07
C0Z100,東華,2025-04-20,23.89525,121.549833,0.9999399
C0G970,三豐,2025-04-20,23.882,120.2895,3.350527e-08
V2K610,大庄合作社,2025-04-20,23.8068,120.367939,2.0536675e-08
C0V900,汕尾,2025-04-20,22.4782,120.4151,0.97865117
C1R630,龍泉,2025-04-20,22.66701,120.59091,0.5820354
C1AC50,關渡,2025-04-20,25.133486,121.469331,8.9442995e-09
C0F9I0,神岡,2025-04-20,24.272481,120.658314,2.2366368e-08
C0K460,斗南,2025-04-20,23.678734,120.478359,2.793084e-07
C2O810,曾文,2025-04-20,23.219681,120.497328,0.0002642686
467280,後龍,2025-04-20,24.648563,120.831834,5.761987e-07
C1F9J1,清水林,2025-04-20,24.071242,120.820419,2.4693636e-09
C2A650,火燒寮,2025-04-20,25.002719,121.742892,8.321403e-09
466930,竹子湖,2025-04-20,25.162078,121.544547,1.7794404e-09
C1I220,樟湖,2025-04-20,23.905333,120.846983,2.6956086e-09
C0I390,仁愛,2025-04-20,24.022122,121.132206,2.7481406e-09
C0Z300,東里,2025-04-20,23.26853,121.30547,0.9989083
C1V590,新發,2025-04-20,23.057019,120.646064,2.1551938e-09
C0K510,水林,2025-04-20,23.572924,120.24597,2.5440846e-08
72S590,東改賓朗果園,2025-04-20,22.813889,121.071278,0.67414534
82A750,茶改北部分場,2025-04-20,24.955778,121.631222,2.051294e-09
C1A750,石碇服務區,2025-04-20,25.00872,121.646242,1.1832333e-08
C0X300,鹿寮,2025-04-20,23.386047,120.477331,1.0451964e-07
G2AI50,關渡,2025-04-20,25.11575,121.492,2.5571858e-08
C0K590,雲林東勢,2025-04-20,23.674192,120.255721,2.2041796e-08
C0A570,桶後,2025-04-20,24.848222,121.597992,0.00041965648
C1S800,華源,2025-04-20,22.657883,121.02325,0.99960715
C0G720,溪州,2025-04-20,23.851589,120.499093,2.7195267e-07
C1V160,達卡努瓦,2025-04-20,23.279811,120.705319,2.2322888e-09
C2M410,馬頭山,2025-04-20,23.324361,120.582017,3.582025e-08
C0V850,蚵仔寮,2025-04-20,22.7256,120.2527,0.14956456
C0S740,池上,2025-04-20,23.119628,121.209469,0.7555476
C1V390,尖山,2025-04-20,22.813153,120.367789,0.01138531
C0AH70,松山,2025-04-20,25.04871,121.55042,2.1009177e-08
C0N010,鯤鯓國小,2025-04-20,23.1879,120.0889,1.2531051e-06
C0R550,新埤,2025-04-20,22.467947,120.582894,0.9438834
C0SA60,知本（水試所）,2025-04-20,22.702394,121.082761,0.9998869
C0T9I0,豐濱,2025-04-20,23.583897,121.514806,0.9991834
C0UB00,淡江大學蘭陽校園,2025-04-20,24.823239,121.730383,1.2044666e-08
C0W240,九宮,2025-04-20,24.423753,118.240186,9.809569e-10
C0T9N0,富里,2025-04-20,23.171639,121.249378,0.95375013
U2HA50,臺大竹山,2025-04-20,23.756972,120.681556,8.681324e-09
C0V840,鳳鼻頭,2025-04-20,22.5083,120.3591,0.14956456
C0X140,西港,2025-04-20,23.125608,120.203108,8.689956e-07
72D080,桃改五峰分場,2025-04-20,24.612194,121.157167,3.5135244e-09
C2H9P0,伊拿谷,2025-04-20,23.963211,121.088264,2.7686697e-09
C2H9F0,柑林,2025-04-20,24.018658,120.847072,1.1255079e-08
C0TA20,加灣,2025-04-20,24.082025,121.608944,0.99994564
C0V530,阿蓮,2025-04-20,22.883208,120.327508,3.893876e-05
C1O880,關山,2025-04-20,23.173397,120.594092,2.5582395e-08
C0E791,卓蘭,2025-04-20,24.3126,120.8244,9.543975e-09
C1I030,武界,2025-04-20,23.913225,121.052483,2.7017444e-09
C0R520,崁頂,2025-04-20,22.514781,120.506914,0.96791524
C0R341,牡丹,2025-04-20,22.130036,120.792639,0.00040163606
C0R930,萬丹,2025-04-20,22.5885,120.4851,0.95763797
C0S760,紅石,2025-04-20,23.069131,121.126219,5.4619536e-09
C2C410,中央大學,2025-04-20,24.967652,121.185165,1.7810033e-08
C1M610,石磐龍,2025-04-20,23.496606,120.663506,2.0682975e-09
C0UA10,鴛鴦湖,2025-04-20,24.590269,121.412228,7.367266e-09
V2C260,八德蔬果,2025-04-20,24.978508,121.281819,2.2597796e-08
C0R800,丹路,2025-04-20,22.204481,120.750989,0.08724241
C0G920,永靖,2025-04-20,23.924703,120.547533,4.276432e-08
C2M950,太和,2025-04-20,23.538372,120.702961,2.5132596e-09
C1A630,下盆,2025-04-20,24.771003,121.538622,3.4158265e-09
B2N890,畜產試驗所,2025-04-20,23.058972,120.336406,3.577089e-05
C0UA30,白嶺,2025-04-20,24.527819,121.519031,6.438345e-09
C1V580,溪南(特生中心),2025-04-20,23.084972,120.788475,6.1303314e-09
C1T970,大農,2025-04-20,23.615233,121.413331,0.9901441
C0R650,竹田,2025-04-20,22.58486,120.54344,0.9616439
C1H900,清流,2025-04-20,24.080775,120.962997,2.7591807e-09
C1C510,水尾,2025-04-20,24.940081,121.087161,2.9089179e-08
C0F9X0,大雅(中科園區),2025-04-20,24.21528,120.62445,3.0588176e-08
C0SB60,白守蓮,2025-04-20,23.126769,121.401914,0.9998888
C0O970,虎頭埤,2025-04-20,23.021375,120.347878,5.5898104e-06
C0C730,中大臨海站,2025-04-20,24.966126,121.008581,2.9782004e-07
C0X250,新營,2025-04-20,23.310689,120.316681,6.4599845e-07
C0V700,三民,2025-04-20,22.645017,120.311233,0.078763515
C0U870,大礁溪,2025-04-20,24.791042,121.675047,6.4771313e-09
C0E870,高鐵苗栗,2025-04-20,24.60725,120.826094,1.9663103e-06
A2K570,古坑花卉中心,2025-04-20,23.63353,120.55239,5.344322e-08
C0TA30,鹽寮,2025-04-20,23.845606,121.592664,0.99994564
C0M860,新美,2025-04-20,23.338017,120.683169,1.4714563e-09
C1E701,八卦,2025-04-20,24.491756,120.927619,2.839554e-09
C0I420,國姓,2025-04-20,24.037803,120.855072,6.8313826e-09
C2D720,關西工作站,2025-04-20,24.757275,121.184792,1.2094691e-08
C0S960,香蘭,2025-04-20,22.587569,120.993375,0.9959299
467620,蘭嶼,2025-04-20,22.0369,121.55843,0.0002245418
C0R260,春日,2025-04-20,22.370361,120.628306,0.8149886
72G600,臺中農改場,2025-04-20,24.003028,120.534389,6.751077e-08
C0Z210,瑞穗,2025-04-20,23.5239,121.39021,0.99967223
C0M820,達邦,2025-04-20,23.453994,120.749517,2.0427395e-09
C0V860,南寮,2025-04-20,22.7616,120.2339,0.16088386
C0G740,大城,2025-04-20,23.852487,120.320935,2.2193413e-08
C0R920,塭仔,2025-04-20,22.4169,120.5197,0.97865117
C0R470,高樹,2025-04-20,22.826389,120.600806,0.08515989
C0R680,佳樂水,2025-04-20,21.993578,120.861633,0.9670925
C1O870,大棟山,2025-04-20,23.31157,120.52226,2.3242965e-09
C0D360,梅花,2025-04-20,24.678347,121.208558,1.8191559e-09
C0Z190,富世,2025-04-20,24.14743,121.6297,0.95834064
C0AI10,屈尺,2025-04-20,24.92184,121.54475,1.3428264e-08
B2U990,畜試東區分所,2025-04-20,24.669039,121.832561,1.0294226e-06
C0SB80,長濱漁港,2025-04-20,23.313644,121.459994,0.99988914
C0R240,來義,2025-04-20,22.527306,120.625111,0.40031442
C0V910,大樹,2025-04-20,22.684645,120.432803,0.8884712
C1R610,西大武山,2025-04-20,22.617719,120.7322,1.0563311e-08
C0G900,線西,2025-04-20,24.143358,120.443536,3.492731e-06
C0M700,竹崎,2025-04-20,23.526178,120.555508,1.8547713e-08
C2E880,三義,2025-04-20,24.405478,120.749819,3.127969e-09
C0C720,竹圍,2025-04-20,25.112692,121.239824,2.3405711e-08
C0F9P0,清水,2025-04-20,24.312297,120.562242,2.4457297e-06
C0Z150,吉安光華,2025-04-20,23.930925,121.595153,0.99994725
467300,東吉島,2025-04-20,23.25727,119.66762,0.034381676
C1D640,外坪(五指山),2025-04-20,24.644447,121.090961,2.9558864e-09
C0F9O0,潭子,2025-04-20,24.213106,120.703933,2.534838e-08
C2H9R0,卓社,2025-04-20,23.887894,121.000086,3.834413e-09
72T250,花蓮農改場,2025-04-20,23.975222,121.563889,0.9999384
C0E780,銅鑼,2025-04-20,24.489681,120.790853,3.9106983e-08
C1T950,太安,2025-04-20,23.666719,121.370128,2.6226543e-09
C0E830,苑裡,2025-04-20,24.439714,120.653053,1.9797408e-06
467270,田中,2025-04-20,23.873803,120.581286,2.006265e-07
C0SA10,檳榔四格山,2025-04-20,22.810031,121.109308,0.06629875
C1T830,布洛灣,2025-04-20,24.17184,121.57127,0.00014565757
C0F970,大坑,2025-04-20,24.173142,120.722289,5.962465e-08
C1U920,思源,2025-04-20,24.393125,121.347214,9.7493995e-09
C0A931,三和,2025-04-20,25.233153,121.595236,5.126101e-09
C0I010,廬山,2025-04-20,24.033311,121.181808,4.375038e-09
C2M940,日野賀,2025-04-20,23.434056,120.727169,2.1079287e-09
C0R860,鼻頭,2025-04-20,22.1043,120.8979,0.08933767
C0UB20,壯圍,2025-04-20,24.7359,121.8163,1.2624889e-06
C0R790,九棚,2025-04-20,22.14195,120.889281,0.81719077
C0W110,東莒,2025-04-20,25.9652,119.98069,1.3702649e-08
C1U930,粉鳥林,2025-04-20,24.497088,121.842479,0.9966965
C1I211,蘆竹湳,2025-04-20,23.934019,120.811994,4.715365e-09
C0S830,長濱,2025-04-20,23.286817,121.411975,0.9499951
C1F9F1,伯公龍,2025-04-20,24.272392,120.849047,3.5791001e-09
C0E810,西湖,2025-04-20,24.562947,120.7485,5.2949304e-07
C1I440,新高口,2025-04-20,23.478744,120.878939,1.2617141e-08
C0O840,王爺宮,2025-04-20,23.222064,120.40085,0.00027624084
C0T9G0,鳳林山,2025-04-20,23.735269,121.420131,3.8051778e-07
C0X080,佳里,2025-04-20,23.173039,120.145086,1.2744285e-06
C0FB70,大甲溪埔,2025-04-20,24.370625,120.620067,1.2849839e-06
C0Z310,清水斷崖,2025-04-20,24.218294,121.689142,0.66738075
C0M680,太保,2025-04-20,23.455062,120.331455,2.0900144e-08
C1S820,金峰,2025-04-20,22.590969,120.933236,0.69805855
C0AD10,八里,2025-04-20,25.150211,121.403947,2.2867269e-08
C2K240,草嶺,2025-04-20,23.59555,120.693461,2.0851476e-09
C1SA70,都蘭,2025-04-20,22.87794,121.226881,0.9998446
C0K440,二崙,2025-04-20,23.772797,120.408944,3.520037e-07
C1A760,坪林交控,2025-04-20,24.94284,121.713442,1.2176305e-08
C0F9N0,大里,2025-04-20,24.092464,120.701378,1.2050933e-07
C0SA90,達仁林場,2025-04-20,22.264347,120.823972,2.3993582e-07
C1R290,石門山,2025-04-20,22.112611,120.756597,6.64216e-05
42HA10,萬大發電廠,2025-04-20,23.978875,121.139639,2.6226543e-09
C0R890,山海,2025-04-20,21.9878,120.7091,0.9722886
C0T9A0,月眉山,2025-04-20,23.809928,121.539828,6.4688156e-06
C0AC70,信義,2025-04-20,25.037822,121.564597,2.0446466e-08
C0K560,棋山,2025-04-20,23.68645,120.603417,3.3989764e-08
C2FB50,出雲,2025-04-20,24.206469,120.902794,2.6347475e-09
C1Z240,中平林道,2025-04-20,23.42115,121.26763,3.5199437e-09
U2H480,溪頭,2025-04-20,23.670306,120.798194,2.8047598e-09
C0M880,好美里,2025-04-20,23.3364,120.138,1.2744285e-06
C0T9E0,大坑,2025-04-20,23.880628,121.581981,0.00017965675
C0K530,臺西,2025-04-20,23.701547,120.197559,2.981749e-08
C1E900,國一N128K,2025-04-20,24.560997,120.844186,3.008516e-07
C0AJ50,水湳洞,2025-04-20,25.123695,121.862238,2.0122602e-08
C0AI20,白沙灣,2025-04-20,25.283128,121.519058,2.0122602e-08
C2V310,美濃,2025-04-20,22.898792,120.51907,0.023488604
C0A860,大坪,2025-04-20,25.165914,121.632969,2.228137e-09
C1U850,觀音海岸,2025-04-20,24.38319,121.77856,2.658681e-09
C2K610,草嶺石壁,2025-04-20,23.602469,120.707731,2.1363795e-09
C0U950,鶯子嶺,2025-04-20,24.89754,121.79244,2.6484268e-09
C0O900,善化,2025-04-20,23.112883,120.297219,0.00012761245
C0K550,蔦松,2025-04-20,23.514319,120.229736,3.198547e-08
E2P980,林試六龜中心,2025-04-20,22.991703,120.645722,3.440772e-07
C0E590,通霄,2025-04-20,24.471892,120.704622,4.4593946e-07
C1I310,西巒,2025-04-20,23.754486,120.883956,2.6296167e-09
C0A550,泰平,2025-04-20,24.971197,121.823711,2.061201e-09
C0I360,水里,2025-04-20,23.812553,120.849792,5.464934e-09
C0R830,高士,2025-04-20,22.121825,120.836781,1.1145031e-05
C1I101,溪頭,2025-04-20,23.661789,120.807647,5.883137e-09
C0AJ20,野柳,2025-04-20,25.20703,121.690021,2.1009177e-08
C0B060,暖暖,2025-04-20,25.0957,121.7403,1.1863948e-08
C1H920,長豐,2025-04-20,24.102039,120.879897,2.3077664e-09
C0V360,內門,2025-04-20,22.975481,120.466769,0.13301423
C0R850,林邊,2025-04-20,22.4634,120.5339,0.9665968
C0E930,龍鳳,2025-04-20,24.700034,120.859125,1.862226e-06
C0U910,冬山,2025-04-20,24.63373,121.7937,1.0294226e-06
C1E721,泰安,2025-04-20,24.489017,120.968036,4.296698e-09
82H320,茶改中部分場,2025-04-20,23.875611,120.913583,2.894267e-09
C0M750,布袋,2025-04-20,23.380878,120.167789,3.4292498e-08
C1S860,利嘉,2025-04-20,22.809417,121.050528,1.9846583e-07
E2S980,林試太麻里1,2025-04-20,22.598922,120.980044,0.98403585
C0X170,關廟,2025-04-20,22.963017,120.327797,1.7243705e-05
C0V720,林園,2025-04-20,22.507747,120.394511,0.96657395
C1I510,線浸林道,2025-04-20,23.761508,120.832956,2.2444007e-09
C0D690,外湖,2025-04-20,24.917735,120.968711,3.17398e-07
C0C750,新興坑尾,2025-04-20,25.0061,121.0971,5.5825318e-08
B2Q810,畜試南區分所,2025-04-20,21.945583,120.802167,0.9679137
C0S790,金崙,2025-04-20,22.538122,120.966875,0.38487607
C0AH90,福山植物園,2025-04-20,24.760717,121.58135,3.0018623e-09
C0I540,奇萊稜線,2025-04-20,24.109231,121.326456,2.891052e-08
C0M850,表湖,2025-04-20,23.24186,120.64166,1.0818635e-09
C0S770,大溪山,2025-04-20,22.478475,120.943325,3.84688e-05
C0AG80,中和,2025-04-20,24.991622,121.491792,1.9592493e-08
C0T790,大禹嶺,2025-04-20,24.186117,121.316086,2.2544457e-08
C0T9B0,水源,2025-04-20,23.991861,121.537169,7.7368173e-07
C0R840,牡丹池山,2025-04-20,22.168389,120.841225,3.1058943e-07
C1I131,桶頭,2025-04-20,23.641944,120.654117,3.3827796e-09
CAL110,布袋國中,2025-04-20,23.35893,120.18026,1.2774962e-06
467571,新竹,2025-04-20,24.827853,121.014219,6.8732277e-07
C0Z290,赤柯山,2025-04-20,23.36893,121.38293,4.6205663e-08
C0X280,將軍,2025-04-20,23.214999,120.13577,1.2531051e-06
C0S690,太麻里,2025-04-20,22.60902,120.98533,3.095515e-07
C0U880,北關,2025-04-20,24.9072,121.8734,2.347183e-08
C0G810,埔心,2025-04-20,23.947633,120.525456,5.474138e-08
C0U970,大福,2025-04-20,24.80064,121.81389,1.4115827e-06
C2H9N0,仁愛東眼,2025-04-20,24.026875,121.1205,3.9200687e-09
C1E670,南礦,2025-04-20,24.538278,121.002836,3.688243e-09
C0M520,東後寮,2025-04-20,23.369908,120.248065,9.291752e-07
C1E461,松安,2025-04-20,24.397972,120.986022,3.964469e-09
C2N160,西拉雅風管處,2025-04-20,23.189481,120.335297,4.5230152e-07
C2M970,碧湖,2025-04-20,23.568632,120.624165,2.0124895e-09
C0A640,石碇,2025-04-20,24.993969,121.662917,1.2118105e-08
E2S960,林試太麻里2,2025-04-20,22.598,120.99775,0.99637914
C0F9Y0,桃山,2025-04-20,24.432739,121.303808,4.080997e-08
C1I020,萬大,2025-04-20,23.979817,121.132261,2.771322e-09
C0U940,羅東,2025-04-20,24.68184,121.74934,8.0001746e-07
C0M650,朴子,2025-04-20,23.43463,120.23902,2.5440846e-08
C1I500,大尖山,2025-04-20,23.858572,120.994889,8.418899e-09
C0G820,田尾,2025-04-20,23.901669,120.509389,5.408897e-08
E2K600,四湖植物園,2025-04-20,23.676986,120.163433,2.2642494e-08
C0S730,綠島,2025-04-20,22.6672,121.47533,0.9997013
12Q970,東港工作站,2025-04-20,22.479997,120.466058,0.9770911
C0E430,南庄,2025-04-20,24.601775,121.000214,8.0809945e-09
C1TA00,太魯閣,2025-04-20,24.15773,121.6236,0.7205991
466920,臺北,2025-04-20,25.037658,121.514853,2.1009177e-08
C0R600,舊泰武,2025-04-20,22.588194,120.664944,1.9791246e-09
C1I260,北坑,2025-04-20,23.9246,121.006903,3.7074628e-09
466910,鞍部,2025-04-20,25.182586,121.529731,1.9020316e-09
C1I230,九份二山,2025-04-20,23.961944,120.845,2.9928124e-09
C2A660,瑞芳,2025-04-20,25.113169,121.801147,9.69368e-09
C0R270,琉球嶼,2025-04-20,22.332244,120.362236,0.748267
C1T990,高寮,2025-04-20,23.394239,121.356808,0.9998533
C0G620,芬園,2025-04-20,24.015678,120.6213,7.051851e-09
C1Z140,荖溪,2025-04-20,23.890575,121.45964,2.8398425e-08
C1I201,中心崙,2025-04-20,23.728722,120.712097,2.9329172e-09
C1I400,凌霄,2025-04-20,24.018778,121.004456,3.833638e-09
C1M640,十字,2025-04-20,23.492153,120.753683,4.4510857e-09
G2P820,農試鳳山分所,2025-04-20,22.646611,120.356083,0.031970076
C0Z270,蕃薯寮,2025-04-20,23.73835,121.540108,0.011724936
C0F9Q0,外埔,2025-04-20,24.347817,120.705686,5.0864344e-08
C0K580,高鐵雲林,2025-04-20,23.737456,120.417944,3.520037e-07
C2I090,鳳凰,2025-04-20,23.728081,120.787347,2.7581915e-09
C0U990,員山,2025-04-20,24.74435,121.72247,8.6325656e-07
C0V770,大社,2025-04-20,22.730306,120.346639,0.07015221
C0X120,麻豆,2025-04-20,23.183289,120.248611,8.689956e-07
C0C670,龍潭,2025-04-20,24.870056,121.221389,7.2352506e-09
C0D680,香山濕地,2025-04-20,24.783581,120.914988,1.7387547e-06
C0S980,勝林山,2025-04-20,22.430439,120.8938,3.1552407e-08
C0V730,大寮,2025-04-20,22.605614,120.395717,0.9438834
C0R570,麟洛,2025-04-20,22.65078,120.52719,0.8865849
C2M930,石卓,2025-04-20,23.478744,120.702264,4.4281463e-09
C0G9B0,和美,2025-04-20,24.105169,120.492131,8.310336e-08
CAG100,王功漁港,2025-04-20,23.96824,120.32586,2.981749e-08
C0X290,北門,2025-04-20,23.267772,120.125481,1.2774962e-06
C2F930,大甲,2025-04-20,24.347667,120.640403,1.8576058e-07
C0D650,湖口,2025-04-20,24.904794,121.043628,3.6251198e-08
C0E420,竹南,2025-04-20,24.708978,120.888897,7.088906e-07
C0U780,五結,2025-04-20,24.68637,121.79794,1.0294226e-06
C1I250,鯉潭,2025-04-20,23.961922,120.991131,2.3077664e-09
C0R130,阿禮,2025-04-20,22.742908,120.743678,1.3974855e-08
C0X100,臺南市北區,2025-04-20,23.010394,120.194228,0.00013480766
C0S920,金峰嘉蘭,2025-04-20,22.594789,120.960825,0.9836736
C0V490,新興,2025-04-20,22.627422,120.298803,0.11082808
C0F9K0,大安,2025-04-20,24.345061,120.588025,1.9305912e-06
467290,古坑,2025-04-20,23.633639,120.551889,5.3443117e-08
C2E970,八甲,2025-04-20,24.535811,120.795983,2.5946333e-08
C0V440,鳳山,2025-04-20,22.646653,120.356122,0.031970076
C1T940,大觀,2025-04-20,23.714206,121.373133,4.655315e-06
C0E740,造橋,2025-04-20,24.637056,120.864778,8.667427e-07
C0R100,尾寮山,2025-04-20,22.833111,120.683889,1.3964517e-08
A2K630,臺大雲林校區,2025-04-20,23.730628,120.423903,3.4699315e-07
467990,馬祖,2025-04-20,26.169467,119.923158,1.5556149e-09
C0D580,寶山,2025-04-20,24.735006,121.025192,1.7326299e-08
E2P990,林試扇平站,2025-04-20,22.9677,120.6857,2.8297518e-09
C0AI30,三重,2025-04-20,25.057328,121.500629,2.347183e-08
C0AH00,汐止,2025-04-20,25.066881,121.658778,2.1009177e-08
C1Z040,立山,2025-04-20,23.443356,121.327375,1.7686625e-05
466881,新北,2025-04-20,24.959207,121.525196,1.6449139e-08
C0W130,花嶼,2025-04-20,23.40007,119.32276,1.2109197e-05
C0A950,鼻頭角,2025-04-20,25.129036,121.923372,9.949098e-07
C0K470,林內,2025-04-20,23.748675,120.609642,5.964274e-08
C2F990,摩天嶺,2025-04-20,24.322458,120.936819,2.638635e-09
82C160,茶改場,2025-04-20,24.908472,121.185333,8.999916e-09
C0Z320,清水林道,2025-04-20,23.27125,121.188272,1.1779314e-06
C0R760,南仁湖,2025-04-20,22.084681,120.863353,5.8943544e-05
C0M670,大林,2025-04-20,23.600616,120.45841,1.2171336e-08
C0M800,茶山,2025-04-20,23.299075,120.664767,3.1264242e-09
C0A9C0,天母,2025-04-20,25.117494,121.537169,1.9592493e-08
72K220,南改斗南分場,2025-04-20,23.634556,120.477333,2.0894069e-07
72AI40,桃改樹林分場,2025-04-20,24.944503,121.386972,1.6845773e-08
C0S910,蘭嶼燈塔,2025-04-20,22.081197,121.503117,0.0053126463
C0B050,八斗子,2025-04-20,25.144754,121.79167,2.606672e-08
C0U900,內城,2025-04-20,24.71813,121.68766,4.215946e-07
C0X320,柳營,2025-04-20,23.253328,120.375253,1.4620515e-08
C0M790,新港,2025-04-20,23.553269,120.345728,2.3756211e-08
C0F9T0,西屯,2025-04-20,24.179494,120.641275,1.8576058e-07
C0SA30,都歷,2025-04-20,23.020333,121.323642,0.9997993
C0C620,蘆竹,2025-04-20,25.084275,121.265767,1.8781101e-08
C0R730,大坪頂,2025-04-20,22.024633,120.69355,0.058700856
C0AJ40,石門,2025-04-20,25.273672,121.601198,7.3346396e-09
C0E750,苗栗,2025-04-20,24.564569,120.824575,3.3752642e-07
C0T870,鯉魚潭,2025-04-20,23.935639,121.508944,0.99877566
C1V170,排雲,2025-04-20,23.463619,120.954147,3.6216644e-08
C2H950,中寮,2025-04-20,23.884447,120.766406,1.639195e-08
C0R350,貓鼻頭,2025-04-20,21.921774,120.7358,0.95835686
C0V660,岡山,2025-04-20,22.797078,120.294958,0.1113074
C1H941,雙冬,2025-04-20,23.967378,120.802189,3.4393488e-09
C0AJ70,田寮,2025-04-20,25.2698,121.4886,2.1135943e-08
C0AI00,五股,2025-04-20,25.07445,121.42728,1.11982486e-08
C0Z280,德武,2025-04-20,23.47426,121.41071,0.9858801
C0R700,枋山,2025-04-20,22.246844,120.661086,0.96657395
C0C460,復興,2025-04-20,24.820208,121.352281,1.969969e-09
E2H360,蓮華池,2025-04-20,23.918333,120.885278,2.6272404e-09
C0M640,中埔,2025-04-20,23.42538,120.5229,1.8143128e-08
C0W140,金沙,2025-04-20,24.488292,118.408778,1.2174256e-09
C2A540,四堵,2025-04-20,24.8926,121.745736,2.314546e-09
C0ACA0,新莊,2025-04-20,25.051478,121.446756,2.239437e-08
C0R220,潮州,2025-04-20,22.534361,120.54,0.9590526
U2HA40,臺大內茅埔,2025-04-20,23.689722,120.851117,5.664625e-09
467490,臺中,2025-04-20,24.145736,120.684075,2.0568648e-07
C0U960,翠峰湖,2025-04-20,24.510856,121.608044,1.5129947e-08
E2HA20,林試畢祿溪站,2025-04-20,24.226944,121.308522,1.1074542e-08
C0V890,前鎮,2025-04-20,22.5718,120.3117,0.11918746
C1F941,雪嶺,2025-04-20,24.280586,121.026642,1.8106725e-08
C2H9E0,國姓南港,2025-04-20,23.911108,120.846556,2.7472233e-09
C0AC80,文山,2025-04-20,25.00235,121.575728,1.3491522e-08
C0F9R0,龍井,2025-04-20,24.184536,120.528972,3.0940441e-06
C0M760,民雄,2025-04-20,23.551754,120.428457,1.3089257e-08
C0UA40,西德山,2025-04-20,24.560647,121.752608,5.8286207e-09
C1T920,中興,2025-04-20,23.769503,121.498653,0.99991584
C0D550,雪霸,2025-04-20,24.526972,121.11605,9.294943e-09
C2F860,梨山,2025-04-20,24.247522,121.243669,1.14812035e-08
C0R320,車城,2025-04-20,22.0744,120.716247,0.97163194
C1S870,南美山,2025-04-20,23.15025,121.382333,0.97253877
C0B020,基隆嶼,2025-04-20,25.19141,121.78391,2.0035934e-08
C1U501,牛鬥,2025-04-20,24.637836,121.573656,9.044348e-09
C0M730,嘉義市東區,2025-04-20,23.457673,120.460531,1.225639e-08
C0S700,知本,2025-04-20,22.684866,121.005642,2.3993582e-07
C1N001,沙崙,2025-04-20,22.935472,120.309406,3.8715192e-05
C0V760,橋頭,2025-04-20,22.757806,120.30575,0.11082808
C0G960,福寶,2025-04-20,24.0443,120.3814,9.483444e-08
C0X210,白河,2025-04-20,23.347466,120.414427,9.88193e-09
C0S810,東河,2025-04-20,22.972672,121.303986,0.9998742
C2R170,屏東,2025-04-20,22.66027,120.49403,0.8876597
C0R670,楓港,2025-04-20,22.190131,120.692156,0.96631384
C0FA50,霧峰,2025-04-20,24.0419,120.6995,2.795568e-07
C0UB10,蘇澳,2025-04-20,24.5969,121.8571,0.9966821
C0G950,防潮門,2025-04-20,24.1835,120.4871,3.5753606e-06
C0M740,六腳,2025-04-20,23.492871,120.290625,2.4644713e-08
C1R250,力里,2025-04-20,22.428117,120.629228,0.42388174
C0K330,虎尾,2025-04-20,23.719183,120.442036,2.8887132e-07
C2FA00,烏石坑,2025-04-20,24.273503,120.947617,2.6334515e-09
C0V620,永安,2025-04-20,22.82315,120.236856,0.11918746
C1I330,楓樹林,2025-04-20,23.986803,121.076117,3.697301e-09
C0W200,湖西,2025-04-20,23.596314,119.67275,0.002474867
72Q010,高雄農改場,2025-04-20,22.709333,120.525889,0.8024705
C0SA40,瑞和,2025-04-20,22.974361,121.156697,0.9971312
C0C680,龜山,2025-04-20,25.02846,121.38656,1.03737685e-08
C2V260,月眉,2025-04-20,22.971003,120.539853,0.0066651856
C0V450,鳳森,2025-04-20,22.545064,120.392592,0.8225734
C0U720,南山,2025-04-20,24.43742,121.38167,5.838434e-09
A2N290,臺南蘭花園區,2025-04-20,23.340258,120.379661,1.4823021e-08
C0R560,新園,2025-04-20,22.5434,120.461558,0.96657395
C0U890,三星,2025-04-20,24.66812,121.65302,1.2426678e-07
C1V300,御油山,2025-04-20,23.001983,120.715364,5.9128134e-09
C0U600,礁溪,2025-04-20,24.817539,121.765608,7.304507e-07
C1T980,龍澗,2025-04-20,24.023289,121.411328,1.7229116e-08
C0D670,海天一線,2025-04-20,24.831986,120.914438,1.862226e-06
C0SA00,歷坵,2025-04-20,22.520969,120.89185,1.4149482e-06
C0M710,東石,2025-04-20,23.458927,120.15385,3.2581507e-08
C0M780,鹿草,2025-04-20,23.41134,120.30835,2.0824897e-08
C0U520,雙連埤,2025-04-20,24.753033,121.641303,6.3523977e-09
C0B010,七堵,2025-04-20,25.094819,121.71713,1.8170624e-08
C0R480,長治,2025-04-20,22.693128,120.542622,0.7095079
C1V830,國三S383K,2025-04-20,22.781967,120.426475,0.012363309
12Q980,恆春工作站,2025-04-20,22.079678,120.714425,0.9711252
C1O940,東山服務區,2025-04-20,23.286016,120.398472,9.8667305e-09
C1U840,東澳嶺,2025-04-20,24.5378,121.8485,2.5221147e-09
C1D630,飛鳳山,2025-04-20,24.766464,121.119178,4.4950665e-09
C0S940,石寧山,2025-04-20,23.223772,121.406639,0.9995334
C0K410,北港,2025-04-20,23.573957,120.292802,2.3951667e-08
C2M620,瑞里,2025-04-20,23.545133,120.675197,2.27256e-09
C0SB70,小港漁港,2025-04-20,23.158558,121.400431,0.99989164
C2O950,安南,2025-04-20,23.076694,120.144861,0.00016892378
C0F0E0,南湖圈谷,2025-04-20,24.363714,121.444667,5.639875e-08
467610,成功,2025-04-20,23.097486,121.373428,0.9998877
C0G890,伸港,2025-04-20,24.148933,120.484403,3.0383671e-06
C2E540,龍溪,2025-04-20,24.606489,120.783933,2.1410838e-06
C1V200,梅山,2025-04-20,23.268447,120.823556,2.6571296e-09
C0T9H0,加路蘭山,2025-04-20,23.682947,121.5274,8.690208e-08
C2O930,玉井,2025-04-20,23.126042,120.46055,7.032375e-09
C1F911,新伯公,2025-04-20,24.221361,120.841069,5.1093796e-09
C0R490,九如,2025-04-20,22.7405,120.490503,0.81052446
C0X200,左鎮,2025-04-20,23.056758,120.408522,0.017056873
C0SB50,叭嗡嗡,2025-04-20,23.047062,121.343223,0.99988985
C1F891,稍來,2025-04-20,24.265689,121.001142,1.1165532e-08
72N240,七股研究中心,2025-04-20,23.081672,120.062894,1.462415e-06
C0C700,中壢,2025-04-20,24.977661,121.256375,1.776264e-08
C0M690,水上,2025-04-20,23.419734,120.388909,1.4753971e-08
C0V690,鼓山,2025-04-20,22.623325,120.275575,0.11220883
C0O860,大內,2025-04-20,23.11885,120.36083,4.0523217e-05
C0Z200,萬榮,2025-04-20,23.709219,121.420106,0.998779
C0T9D0,和中,2025-04-20,24.26676,121.74103,0.99505514
C1O921,楠西,2025-04-20,23.183511,120.484083,5.3267644e-09
C0AJ30,淡水觀海,2025-04-20,25.184591,121.408616,2.5571858e-08
C0V810,左營,2025-04-20,22.67491,120.28491,0.07578683
C0UA70,桃源谷,2025-04-20,24.962606,121.888875,5.5687677e-09
C0X130,官田,2025-04-20,23.193217,120.315422,6.3894686e-07
C1H000,翠峰,2025-04-20,24.109397,121.205211,1.5288247e-08
C0UA90,石城,2025-04-20,24.980444,121.951214,6.34807e-07
C1E681,南勢山,2025-04-20,24.421669,120.923831,3.364749e-09
C0A9F0,內湖,2025-04-20,25.079422,121.57545,2.1009177e-08
C0K291,宜梧,2025-04-20,23.536281,120.169329,3.4292498e-08
C1K540,口湖,2025-04-20,23.585344,120.180517,3.408591e-08
C0R780,滿州,2025-04-20,22.024403,120.839892,0.950131
C0V870,文安,2025-04-20,22.8025,120.2164,0.14956456
C0U650,玉蘭,2025-04-20,24.675286,121.587061,8.022177e-09
C0R640,東港,2025-04-20,22.46247,120.44074,0.9772745
C0AJ80,板橋,2025-04-20,25.0107,121.4489,2.0446466e-08
C0S660,下馬,2025-04-20,23.150427,121.070312,1.7764934e-07
C1H9B1,阿眉,2025-04-20,24.1263,120.994672,6.709354e-09
C0UA20,多加屯,2025-04-20,24.368614,121.373189,2.0129935e-08
C0E730,頭份,2025-04-20,24.688247,120.912206,7.4480073e-07
72V140,高改旗南分場,2025-04-20,22.857861,120.516667,0.7178699
C0K480,莿桐,2025-04-20,23.761192,120.502372,2.0756556e-07
C0U980,坪林石牌,2025-04-20,24.86478,121.77396,4.9964406e-09
C0T900,西林,2025-04-20,23.8119,121.441458,0.987638
C1I150,青雲,2025-04-20,23.793361,120.949378,1.2835109e-08
467350,澎湖,2025-04-20,23.565503,119.563094,0.0005913746
C0G800,埔鹽,2025-04-20,24.000394,120.431683,8.354151e-08
C0H960,草屯,2025-04-20,23.973672,120.68085,1.6125715e-07
C1V780,多納林道,2025-04-20,22.888028,120.737917,2.231582e-09
C0E920,通霄漁港,2025-04-20,24.498589,120.673876,3.492731e-06
C0Z330,安通山,2025-04-20,23.290728,121.348528,0.00067427533
C0AH10,永和,2025-04-20,25.01125,121.508111,2.1172902e-08
C0AK10,太平里,2025-04-20,25.134937,121.364899,2.1135943e-08
C2G640,鹿港,2025-04-20,24.0753,120.430481,9.425199e-08
C1E890,國三N149K,2025-04-20,24.463414,120.680019,2.81643e-07
C1R110,口社,2025-04-20,22.770111,120.645222,0.0066651795
C1M870,國三N285K,2025-04-20,23.550319,120.505833,2.4599627e-08
C1E480,鳳美,2025-04-20,24.554803,121.034747,3.353978e-09
C0M530,奮起湖,2025-04-20,23.493903,120.699253,2.5289597e-09
C0C590,觀音,2025-04-20,25.027072,121.153317,4.1309143e-08
C0T9M0,靜浦,2025-04-20,23.455167,121.495028,0.99991375
C2H9M0,發祥,2025-04-20,24.154094,121.164517,3.6947418e-09
C0AI40,石牌,2025-04-20,25.115597,121.513139,2.1009177e-08
C1F871,上谷關,2025-04-20,24.203483,121.018644,2.649018e-09
C2H9G0,百勝,2025-04-20,24.051142,120.909361,3.7179007e-09
C0G880,二水,2025-04-20,23.810742,120.6173,6.064151e-08
C0R940,加祿堂,2025-04-20,22.3363,120.6217,0.96631384
C0W220,北竿,2025-04-20,26.220358,119.974881,1.9251902e-09
C0O960,崎頂,2025-04-20,22.959547,120.369317,8.9548746e-07
C0S750,向陽,2025-04-20,23.248397,120.986133,1.0097362e-08
C0T9F0,水璉,2025-04-20,23.797131,121.542514,0.13440397
C1M600,頭凍,2025-04-20,23.406364,120.603339,2.0459994e-09
467660,臺東,2025-04-20,22.752211,121.154586,0.99988985
C1D380,新埔,2025-04-20,24.84745,121.03834,3.3663813e-08
C2G980,田頭村,2025-04-20,23.8263,120.444175,3.5265654e-07
C0V750,路竹,2025-04-20,22.854997,120.259439,0.054659314
C0N050,蚵寮,2025-04-20,23.301,120.1104,1.2774962e-06
72M700,南改鹿草分場,2025-04-20,23.416869,120.283061,2.409017e-08
C1SA50,利嘉林道,2025-04-20,22.82325,121.009389,2.4273266e-09
C0A940,金山,2025-04-20,25.223628,121.643967,1.66073e-08
C1V340,大津,2025-04-20,22.888322,120.645986,0.0007996914
C0W180,七美,2025-04-20,23.219333,119.444892,0.0042078425
C1F9C1,白冷,2025-04-20,24.182844,120.929889,2.4445825e-09
K2E710,苗改生物防治研究中心,2025-04-20,24.422861,120.871833,5.338573e-09
C0N040,蘆竹溝,2025-04-20,23.2344,120.0961,1.2812712e-06
C2W230,畜試所澎湖,2025-04-20,23.628342,119.513206,2.2306645e-05
C0R880,後壁湖,2025-04-20,21.9457,120.7457,0.973218
C1I280,埔中,2025-04-20,23.820778,120.642594,1.5892835e-08
467790,墾丁雷達站,2025-04-20,21.948235,120.808028,0.925444
C0W190,望安,2025-04-20,23.380564,119.494075,0.0002452766
C0Z170,卓溪,2025-04-20,23.3443,121.3029,0.99818355
C0F850,東勢,2025-04-20,24.246428,120.833047,6.4336065e-09
466900,淡水,2025-04-20,25.164889,121.448906,2.1009177e-08
C0I370,魚池,2025-04-20,23.895703,120.94135,2.78245e-09
C0C630,大溪,2025-04-20,24.882853,121.265547,9.5866675e-09
C0A520,山佳,2025-04-20,24.974944,121.402008,1.7233685e-08
C0I110,竹山,2025-04-20,23.761225,120.688156,9.145202e-09
82H840,茶改南部分場,2025-04-20,23.762528,120.7405,2.972174e-09
C0G660,溪湖,2025-04-20,23.94835,120.479122,6.1876605e-08
C1T800,洛韶,2025-04-20,24.204558,121.453956,5.8658034e-09
C1T810,慈恩,2025-04-20,24.192044,121.388386,9.759484e-09
C1E451,象鼻,2025-04-20,24.368617,120.940228,3.3649092e-09
C0AC60,三峽,2025-04-20,24.939025,121.369728,7.849091e-08
C0I490,萬大林道,2025-04-20,23.928228,121.091411,4.6021293e-09
C1I290,豐丘,2025-04-20,23.668178,120.887417,2.2433948e-09
C1I320,奧萬大,2025-04-20,23.952956,121.178556,3.729122e-09
C2M910,嘉義大學,2025-04-20,23.471325,120.485903,1.2016665e-07
C0U770,南澳,2025-04-20,24.44935,121.81022,0.9963648
C0A980,社子,2025-04-20,25.109508,121.469681,2.606672e-08
C0V800,六龜,2025-04-20,22.997889,120.633583,6.5706627e-07
C1G9D0,國一S218K,2025-04-20,23.890641,120.493253,5.4677308e-08
C0E570,白沙屯,2025-04-20,24.549447,120.696803,3.5753606e-06
C2F9A0,中竹林,2025-04-20,24.103556,120.751061,2.8451814e-09
C0FA40,臺中電廠,2025-04-20,24.2146,120.4907,3.0383671e-06
C2G9A0,畜試所彰化,2025-04-20,23.86045,120.557964,2.0715602e-07
C0H9C0,合歡山,2025-04-20,24.143442,121.272547,3.7911885e-08
C0X060,下營,2025-04-20,23.22695,120.256261,1.2531051e-06
G2M350,農試溪口農場,2025-04-20,23.58565,120.408111,2.0824897e-08
C0U860,頭城,2025-04-20,24.85323,121.8308,9.949079e-07
C0R580,南州,2025-04-20,22.48591,120.50274,0.9772745
C0D430,峨眉,2025-04-20,24.6905,121.017189,3.2212856e-08
C0G780,秀水,2025-04-20,24.03405,120.503869,7.77928e-08
72N100,臺南農改場,2025-04-20,23.0605,120.342194,2.5156882e-05
C0S900,蘭嶼高中,2025-04-20,22.04909,121.51214,0.02216403
C1F9W0,德基,2025-04-20,24.254783,121.190261,6.310866e-09
C1Z120,壽豐,2025-04-20,23.870853,121.508081,0.9999399
C0W160,烏坵,2025-04-20,24.9944,119.44956,3.1008593e-08
C1I240,外大坪,2025-04-20,23.958697,120.917931,2.2929934e-09
C1I550,國六W023K,2025-04-20,23.979067,120.867742,3.6207437e-09
C0R870,興海,2025-04-20,21.9752,120.8439,0.96791947
C0R140,瑪家,2025-04-20,22.682903,120.686639,2.7626246e-09
C0A530,坪林,2025-04-20,24.938183,121.70975,6.654374e-09
C0X260,後壁,2025-04-20,23.366358,120.362326,4.7064717e-07
C0Z230,和平,2025-04-20,24.30717,121.77007,0.99606776
C0G770,福興,2025-04-20,24.041289,120.437669,8.874597e-08
C0H9A0,神木村,2025-04-20,23.532742,120.843667,5.6277942e-09
C0I460,南投,2025-04-20,23.911469,120.687331,1.8576058e-07
C0I480,梅峰,2025-04-20,24.085272,121.173572,1.0656114e-08
C1V570,吉東,2025-04-20,22.85422,120.5454,0.39196098
C2D740,屯原,2025-04-20,24.067969,121.209389,9.16913e-09
C2A560,福山,2025-04-20,24.776203,121.502811,2.066531e-09
C0AH30,五分山,2025-04-20,25.07125,121.780794,2.5621596e-09
C0FA10,松柏,2025-04-20,24.429115,120.617482,3.492731e-06
72S200,東改班鳩分場,2025-04-20,22.829528,121.077694,0.9499951
72HA00,中改埔里分場,2025-04-20,23.903208,120.963364,3.0338139e-09
C2H9W0,大坪頂農水,2025-04-20,24.043122,120.932781,2.2985236e-09
C0C650,平鎮,2025-04-20,24.897503,121.214636,8.965838e-09
C0S930,延平,2025-04-20,22.902581,121.084058,0.9754344
C0UA60,樟樹山,2025-04-20,24.41393,121.78325,5.0778244e-09
C1S670,摩天,2025-04-20,23.199503,121.027,5.226606e-09
C0V630,茄萣,2025-04-20,22.906642,120.182608,0.00013337765
466940,基隆,2025-04-20,25.133314,121.740475,2.4055458e-08
C0X050,東河,2025-04-20,23.296598,120.385608,1.4620515e-08
C0R770,保力,2025-04-20,22.071122,120.764111,0.85160094
G2L020,農試嘉義分所,2025-04-20,23.485028,120.473806,1.0381828e-07
C0X240,關子嶺,2025-04-20,23.331169,120.508025,4.3176143e-09
C0I380,集集,2025-04-20,23.828206,120.801467,6.7469927e-09
466990,花蓮,2025-04-20,23.975128,121.613275,0.999947
C1V220,小關山,2025-04-20,23.154217,120.813603,7.0867334e-09
C1F9G1,慶福山,2025-04-20,24.180853,120.848378,3.251841e-09
C0Z250,瑞穗林道,2025-04-20,23.49284,121.30688,3.5164207e-09
C0D590,新豐,2025-04-20,24.87068,120.97721,1.7326299e-08
C0A870,五指山,2025-04-20,25.132153,121.608692,1.7846408e-09
C0UA50,西帽山,2025-04-20,24.555361,121.802628,2.5351221e-09
C0X160,仁德,2025-04-20,22.968258,120.257689,0.00010520883
C1H971,六分寮,2025-04-20,23.92507,120.6378,2.4912197e-09
C0W120,西嶼,2025-04-20,23.5626,119.468436,0.00053548295
C0G650,員林,2025-04-20,23.946503,120.585597,5.2295498e-08
C0AD50,鶯歌,2025-04-20,24.951533,121.346294,4.2456136e-08
C2H9Q0,北東眼山,2025-04-20,24.120939,121.189303,8.915209e-09
C2H9T0,名間竹圍,2025-04-20,23.859914,120.637572,3.390699e-09
C0S990,山豬窟,2025-04-20,22.318619,120.857372,2.0976995e-05
C0X190,安平,2025-04-20,22.993161,120.152181,0.0001329178
C0K400,斗六,2025-04-20,23.720583,120.541127,1.7950596e-07
12J990,口湖工作站,2025-04-20,23.589978,120.180394,3.2242852e-08
C0O830,北寮,2025-04-20,23.079561,120.495008,0.0063154213
C1D410,白蘭,2025-04-20,24.579364,121.079947,3.960494e-09
C0S970,加津林,2025-04-20,22.416211,120.926942,0.9959299
C0D700,關西,2025-04-20,24.7977,121.1732,1.3918567e-08
C0M810,里佳,2025-04-20,23.389125,120.716647,2.5317446e-09
C0U750,龜山島,2025-04-20,24.841667,121.953133,8.375832e-05
C0R810,內獅,2025-04-20,22.305064,120.642986,0.96657395
C1M390,龍美,2025-04-20,23.406728,120.654417,2.0962134e-09
C2FB60,頭櫃山,2025-04-20,24.129842,120.858925,2.6781435e-09
C1H840,國三N238K,2025-04-20,23.841008,120.707711,5.7988028e-09
CAQ030,崎峰國小,2025-04-20,22.42565,120.49521,0.9772745
C2E520,大湖,2025-04-20,24.414939,120.870872,1.2060459e-08
467530,阿里山,2025-04-20,23.508208,120.813242,1.1324395e-08
C1E691,南湖,2025-04-20,24.40135,120.837533,3.21107e-09
C0FA30,梧棲,2025-04-20,24.256003,120.523381,2.9632488e-06
C1V231,高中,2025-04-20,23.134911,120.716711,1.0721819e-09
C0F9V0,新社,2025-04-20,24.200172,120.815806,3.006303e-09
C0H890,埔里,2025-04-20,23.972169,120.952425,4.5235784e-09
C0R690,墾丁,2025-04-20,21.966756,120.810269,0.0013468721
C0F0D0,審馬陣,2025-04-20,24.381675,121.4203,3.949603e-08
C2W030,金門農試所,2025-04-20,24.448431,118.451786,1.130391e-09
C0R820,白鷺,2025-04-20,22.454275,120.666219,5.210563e-08
C1V190,南天池,2025-04-20,23.27403,120.91176,1.2161544e-08
K2E360,苗栗農改場,2025-04-20,24.495722,120.829111,8.928247e-08
CAJ050,海口故事園區,2025-04-20,23.57543,120.14121,3.2581507e-08
C2H9D0,三隻寮,2025-04-20,24.093078,120.861578,2.2467006e-09
C0O990,媽廟,2025-04-20,22.99175,120.293525,4.788666e-05
C0D480,打鐵坑,2025-04-20,24.849664,121.150789,7.2253763e-09
C0Z220,和平林道,2025-04-20,24.343922,121.656317,1.0055851e-07
C0TA10,花蓮漁港,2025-04-20,23.995322,121.638331,0.9999491
72C440,桃園農改場,2025-04-20,24.950944,121.030583,1.0025803e-07
C1E711,馬拉邦山,2025-04-20,24.367306,120.901656,2.6204792e-09
C0SB20,富岡,2025-04-20,22.792467,121.192669,0.99989104
C0D560,竹東,2025-04-20,24.767147,121.057881,1.9117984e-08
C0F9U0,南屯,2025-04-20,24.137006,120.637969,2.3474337e-08
C0M720,番路,2025-04-20,23.464657,120.554156,1.8025782e-08
C0F0A0,雪山圈谷,2025-04-20,24.388594,121.236339,5.1322665e-08
C1A9N0,四十份,2025-04-20,24.934158,121.593283,2.0249764e-09
C0U760,東澳,2025-04-20,24.52196,121.83318,0.9934123
C0X230,鹽水,2025-04-20,23.272621,120.247641,9.291752e-07
C2H9H0,苗改南投蜂場,2025-04-20,23.852589,120.693481,9.250374e-09
C0R950,萬隆國小,2025-04-20,22.507667,120.587817,0.910706
467540,大武,2025-04-20,22.35572,120.90374,0.99656725
C0V370,古亭坑,2025-04-20,22.893178,120.401947,0.010567691
C1I340,新興橋,2025-04-20,23.563333,120.868728,1.8676674e-09
C0SA80,土坂,2025-04-20,22.453108,120.887572,0.9503649
C0R160,鹽埔,2025-04-20,22.739558,120.530778,0.7335902
C0AC40,大屯山,2025-04-20,25.175675,121.522408,2.373573e-09
466850,五分山雷達站,2025-04-20,25.071182,121.781205,2.5585507e-09
C2H9L0,馬烈霸,2025-04-20,24.1512,121.201772,6.578717e-09
C1AI50,國三N016K,2025-04-20,25.034164,121.619664,1.5181604e-08
C1V600,藤枝,2025-04-20,23.071961,120.757042,5.129485e-09
C1E601,南勢,2025-04-20,24.572486,120.734842,8.9188696e-08
C0Z180,新城,2025-04-20,24.03946,121.60454,0.99994355
C0O980,新市,2025-04-20,23.061614,120.298197,0.00010520883
C0K420,西螺,2025-04-20,23.800407,120.467394,2.8460062e-07
C0Z050,佳心,2025-04-20,23.34567,121.21316,9.1067896e-08
C0AD30,蘆洲,2025-04-20,25.086594,121.472331,2.2500425e-08
C0V610,梓官,2025-04-20,22.760558,120.267211,0.11220883
K2F750,種苗改良場,2025-04-20,24.225972,120.800917,3.7170356e-09
C0UA80,大溪漁港,2025-04-20,24.941801,121.902955,8.6325656e-07
C1AI60,國一39K邊坡,2025-04-20,25.064361,121.383836,1.4002043e-08
C0W150,金寧,2025-04-20,24.457703,118.328989,1.0919096e-09
C0R960,內埔,2025-04-20,22.608483,120.570714,0.94324285
V2C250,八德合作社,2025-04-20,24.93775,121.266389,1.410188e-08
C2H9S0,龍南,2025-04-20,23.953536,120.833183,2.6390026e-09
C0AH40,平等,2025-04-20,25.129142,121.577086,2.035556e-09
C0R540,佳冬,2025-04-20,22.419456,120.552375,0.96796143
466950,彭佳嶼,2025-04-20,25.627975,122.079744,4.0723276e-07
C0A890,雙溪,2025-04-20,25.036003,121.864242,1.482896e-08
C0C480,桃園,2025-04-20,24.992425,121.323172,2.4236915e-08
C0AH50,林口,2025-04-20,25.072181,121.38084,8.7933625e-09
A2K360,水試臺西試驗場,2025-04-20,23.717231,120.190522,3.3424847e-08
C2M960,外寮,2025-04-20,23.562643,120.665688,2.0476938e-09
C0F9S0,烏日,2025-04-20,24.107058,120.624103,4.276432e-08
C0C490,八德,2025-04-20,24.928708,121.283289,1.3902356e-08
C0R190,赤山,2025-04-20,22.592333,120.614306,0.9265152
C0T820,天祥,2025-04-20,24.179597,121.495639,2.7530615e-07
C1F9E1,龍安,2025-04-20,24.1605,120.831961,2.8253564e-09
C0V820,小林,2025-04-20,23.148408,120.63325,2.7799143e-09
C2G870,芳苑,2025-04-20,23.922303,120.320025,2.4916627e-08
C0E850,大河,2025-04-20,24.618069,120.948578,1.6350661e-07
C1U670,寒溪,2025-04-20,24.634,121.71691,1.3116141e-07
C0N020,城西,2025-04-20,23.0568,120.0956,1.2531051e-06
C1Z110,三棧,2025-04-20,24.11557,121.60501,1.2152239e-07
C0R280,檳榔,2025-04-20,22.076078,120.836777,0.002580633
C2H9J0,中台,2025-04-20,23.9996,120.938739,5.4747824e-09
C0F9L0,后里,2025-04-20,24.310436,120.729725,1.7032225e-08
467441,高雄,2025-04-20,22.730432,120.312516,0.07578683
C0D540,橫山,2025-04-20,24.71116,121.11693,8.493528e-09
C1D420,太閣南,2025-04-20,24.632808,121.160575,5.777826e-09
C1E770,公館,2025-04-20,24.526914,120.830806,2.1480628e-07
CAN130,水試所海水繁養殖中心,2025-04-20,23.120802,120.07968,1.3069633e-06
C1I430,翠華,2025-04-20,24.191961,121.224339,1.4653066e-08
C1M400,菜瓜坪,2025-04-20,23.251928,120.576103,3.1490044e-09
C0G730,二林,2025-04-20,23.903325,120.376081,7.77928e-08
72M360,南改義竹分場,2025-04-20,23.360694,120.279361,8.314733e-07
V2K620,麥寮合作社,2025-04-20,23.753836,120.294783,2.3734833e-08
C0Z070,舞鶴,2025-04-20,23.46811,121.37407,0.59872967
C0B040,大武崙,2025-04-20,25.166676,121.706993,1.66073e-08
C1Z030,紅葉,2025-04-20,23.493119,121.338806,0.9679577
C1I050,丹大,2025-04-20,23.753747,121.141147,1.2939576e-08
C0I080,信義,2025-04-20,23.689694,120.851036,5.664625e-09
C2M920,朴子農改,2025-04-20,23.469889,120.259383,3.161168e-08
C2A880,福隆,2025-04-20,25.017842,121.942083,8.6325656e-07
C0Z160,鳳林,2025-04-20,23.746114,121.453411,0.9997807
C0V210,復興,2025-04-20,23.222403,120.806089,1.0543098e-09
C0H990,昆陽,2025-04-20,24.121322,121.273642,2.9393421e-08
C0R741,獅子,2025-04-20,22.202308,120.705236,0.81412095
C0S710,鹿野,2025-04-20,22.917711,121.122994,0.04812669
C0I530,小奇萊,2025-04-20,24.131764,121.295717,3.1135183e-08
C2K630,荷苞,2025-04-20,23.657717,120.595144,9.145202e-09
C0Z080,富源,2025-04-20,23.587642,121.378225,0.021567449
C0SB10,美和,2025-04-20,22.682078,121.060236,0.99988866
C2K620,馬光農場,2025-04-20,23.721453,120.378864,4.7209917e-07
C1I140,卡奈托灣,2025-04-20,23.754364,121.087872,4.7391775e-09
C0I520,玉山風口,2025-04-20,23.470489,120.955994,4.2294324e-08
C1G691,下水埔,2025-04-20,23.816114,120.5676,1.5334236e-07
C0X110,臺南市南區,2025-04-20,22.961189,120.188378,0.00012911025
C0V680,仁武,2025-04-20,22.701083,120.347722,0.07015221
C2G840,北斗,2025-04-20,23.877586,120.514222,4.532493e-08
C0R900,竹坑,2025-04-20,22.1385,120.7022,0.96631384
C0K250,崙背,2025-04-20,23.75555,120.318925,2.2193413e-08
C0G860,社頭,2025-04-20,23.897647,120.5862,3.920332e-08
C0X150,安定,2025-04-20,23.102614,120.227839,0.00013337765
C0R590,里港,2025-04-20,22.77919,120.49459,0.7350932
C0E610,馬都安,2025-04-20,24.451272,120.930192,3.2135148e-09
C0E550,明德,2025-04-20,24.583486,120.885411,2.6339936e-07
C0R150,三地門,2025-04-20,22.709889,120.639944,0.012363309
C0G910,花壇,2025-04-20,24.032076,120.549461,5.474138e-08
C1D400,鳥嘴山,2025-04-20,24.71909,121.28387,3.2239698e-09
C0K500,元長,2025-04-20,23.64981,120.315024,2.2317277e-08
C0F0B0,石岡,2025-04-20,24.276061,120.777644,6.8313826e-09
C2V250,甲仙,2025-04-20,23.080106,120.591758,2.3362676e-07
C0SA20,金崙山,2025-04-20,22.567419,120.959667,3.2653237e-08
C0V350,溪埔,2025-04-20,22.738578,120.446797,0.8865851
C0M660,溪口,2025-04-20,23.604131,120.403569,1.977288e-08
C1S880,壽卡,2025-04-20,22.238911,120.858903,3.7227673e-07
72D680,桃改新埔分場,2025-04-20,24.834444,121.066111,4.4898073e-08
