站號,站名,日期,lat,lon,BLBTSLS
K2F750,種苗繁殖,2025-01-09,24.225972,120.800917,1.3155478e-09
C0R170,屏東,2025-01-09,22.660269,120.494072,6.402962e-10
467990,馬祖,2025-01-09,26.169269,119.923419,2.6869658e-08
C2E540,後龍,2025-01-09,24.606489,120.783933,1.6610585e-09
467300,東吉島,2025-01-09,23.25695,119.667467,0.99733615
G2F820,農業試驗所,2025-01-09,24.031261,120.688133,5.063286e-10
467410,臺南,2025-01-09,22.993239,120.204772,5.621044e-10
C0V310,美濃,2025-01-09,22.898742,120.519153,6.853684e-10
E2S960,林試太麻里2,2025-01-09,22.598014,120.989761,4.387464e-09
72C440,桃園農改,2025-01-09,24.950944,121.030583,0.4046819
C1H860,瑞岩,2025-01-09,24.123772,121.18345,6.6547163e-09
72G600,臺中農改,2025-01-09,24.003028,120.534389,4.559872e-10
72N100,臺南農改,2025-01-09,23.0605,120.342194,4.5894513e-10
72T250,花蓮農改,2025-01-09,23.975222,121.563889,1.517541e-08
467620,蘭嶼,2025-01-09,22.036969,121.558339,0.27992424
K2E360,苗栗農改,2025-01-09,24.495722,120.829111,6.076963e-10
467050,新屋,2025-01-09,25.006744,121.047486,0.96249455
467550,玉山,2025-01-09,23.487614,120.959522,2.6013277e-08
466881,新北,2025-01-09,24.9593,121.52,4.797262e-07
467540,大武,2025-01-09,22.355675,120.903789,0.079123035
72Q010,高雄農改,2025-01-09,22.709333,120.525889,6.527108e-10
U2H480,臺大溪頭,2025-01-09,23.670306,120.798194,4.2535793e-09
B2N890,畜試所,2025-01-09,23.058972,120.336406,4.5894513e-10
467441,高雄,2025-01-09,22.7304,120.3125,5.621312e-10
