站號,站名,日期,lat,lon,BLBTSLS
C0R710,龍磐,2025-12-01,21.931672,120.838942,0.9977157
C1F9D1,白毛台,2025-12-01,24.158325,120.886933,6.619623e-05
C0G940,竹塘,2025-12-01,23.848253,120.386764,0.9998377
467590,恆春,2025-12-01,22.003897,120.746339,0.9967861
C1O850,環湖,2025-12-01,23.148617,120.418633,0.99853426
C0U710,太平山,2025-12-01,24.505486,121.525656,2.8733451e-08
C0E820,獅潭,2025-12-01,24.539133,120.920042,0.99989706
C0V880,興達,2025-12-01,22.8778,120.2127,0.9998518
C0S890,關山,2025-12-01,23.0395,121.175017,0.00061460194
C0SB30,新蘭,2025-12-01,22.869214,121.223228,0.99218863
C2R970,屏科大,2025-12-01,22.648275,120.619247,0.4452619
C1Z130,銅門,2025-12-01,23.965694,121.492842,8.362776e-08
C0AD40,土城,2025-12-01,24.973208,121.445169,0.9792418
CAN140,六官養殖協會,2025-12-01,23.22881,120.29962,0.9998358
C0X180,山上,2025-12-01,23.0757,120.363253,0.99985003
C0F9Z0,雪山東峰,2025-12-01,24.388792,121.268675,2.8950636e-08
C1M480,獨立山,2025-12-01,23.537022,120.607797,1.3521147e-08
C0X220,學甲,2025-12-01,23.230367,120.182187,0.9998028
467650,日月潭,2025-12-01,23.881325,120.90805,9.047061e-08
C0K600,箔子寮,2025-12-01,23.6197,120.14,0.96384466
C0G830,埤頭,2025-12-01,23.866003,120.452806,0.9993039
C0S950,七塊厝,2025-12-01,22.954453,121.229922,1.1901993e-05
467110,金門,2025-12-01,24.407306,118.289281,0.99911
C0AH80,深坑,2025-12-01,25.002703,121.628328,0.99154395
C0A970,三貂角,2025-12-01,25.007606,122.002058,0.99710625
C2D730,寶山農場,2025-12-01,24.732444,120.976153,0.56406045
C0K430,褒忠,2025-12-01,23.690938,120.303634,0.9995782
467480,嘉義,2025-12-01,23.495925,120.432906,0.99977523
C0V400,阿公店,2025-12-01,22.804194,120.355528,0.9998996
C0E960,觀霧分站,2025-12-01,24.505781,121.113921,1.2130454e-08
467550,玉山,2025-12-01,23.48718,120.95943,3.8770985e-08
C0R440,大漢山,2025-12-01,22.405264,120.753181,3.010861e-08
C0SD30,東清國小,2025-12-01,22.057128,121.564922,0.9997779
C0K280,四湖,2025-12-01,23.630414,120.227125,0.9999707
C1F9B1,桐林,2025-12-01,24.066172,120.735194,0.99905986
C2H9U0,鳳鵬,2025-12-01,23.763919,120.788061,0.006405044
C0K390,土庫,2025-12-01,23.679029,120.395574,0.99967456
C1I450,望鄉山,2025-12-01,23.594153,120.944286,2.1500256e-08
C0E910,海埔,2025-12-01,24.648767,120.772435,0.59378225
B2E890,畜試北區分所,2025-12-01,24.527806,120.770972,0.9999317
C0R750,四林格山,2025-12-01,22.076989,120.802439,0.9796676
C0F0C0,中坑,2025-12-01,24.248517,120.903319,7.721406e-08
C1I121,大鞍,2025-12-01,23.678381,120.760017,7.719857e-09
72U480,花改蘭陽分場,2025-12-01,24.686306,121.716583,0.005806453
C0A770,科教館,2025-12-01,25.096356,121.516507,0.98002464
C0AJ60,六塊厝,2025-12-01,25.24,121.4481,0.53576696
C0R620,墾雷,2025-12-01,21.900836,120.855269,0.99957967
467420,永康,2025-12-01,23.038386,120.2367,0.999891
C0I410,名間,2025-12-01,23.837053,120.701447,0.0007887055
A2C560,農工中心,2025-12-01,24.985917,121.239833,0.9706167
C0V740,旗山,2025-12-01,22.888614,120.483597,0.9999028
C0Z061,玉里,2025-12-01,23.3215,121.339656,0.0061471513
C0S840,南田,2025-12-01,22.279725,120.889208,0.8814304
C1I470,杉林溪,2025-12-01,23.639517,120.786444,7.7349345e-09
C1X040,東原,2025-12-01,23.291597,120.463822,0.016193593
C0R660,枋寮,2025-12-01,22.367722,120.590647,0.9998434
C1R120,上德文,2025-12-01,22.763272,120.704442,8.016901e-07
C0K450,大埤,2025-12-01,23.646074,120.431537,0.9993686
C0UA00,土場,2025-12-01,24.576533,121.495333,2.763891e-08
467080,宜蘭,2025-12-01,24.763975,121.756528,0.83406234
C0N030,四草,2025-12-01,23.0235,120.1116,0.9998564
467410,臺南,2025-12-01,22.99328,120.20492,0.99989474
C0V650,彌陀,2025-12-01,22.783806,120.246361,0.99977344
C0D660,新竹市東區,2025-12-01,24.798681,120.986942,0.5280965
82S580,茶改東部分場,2025-12-01,22.907694,121.130139,0.13355161
C0SB40,興隆,2025-12-01,22.913661,121.257469,0.9878331
467050,新屋,2025-12-01,25.006725,121.047492,0.1648218
C0C710,大溪永福,2025-12-01,24.892936,121.324975,0.9980488
C0FA20,溫寮,2025-12-01,24.372177,120.583125,0.830726
C0V640,湖內,2025-12-01,22.887139,120.2445,0.99985033
C0R910,下寮,2025-12-01,22.3929,120.5548,0.9998433
C0Z020,明里,2025-12-01,23.208717,121.262342,0.00050815166
C0M770,嘉義梅山,2025-12-01,23.585398,120.555587,0.23992746
C0C660,楊梅,2025-12-01,24.912375,121.143047,0.98725903
C0SD40,牛頭山,2025-12-01,22.676661,121.506944,0.99534154
C1E511,新開,2025-12-01,24.347703,120.827019,0.9670956
G2F820,農試所(霧峰),2025-12-01,24.031261,120.688133,0.9990222
C2M990,大巃頂,2025-12-01,23.5547,120.61439,1.34640405e-08
C1I070,和社,2025-12-01,23.591131,120.888861,9.110626e-09
C2E990,新坪頂,2025-12-01,24.30201,120.8574,0.015621879
C0TA80,立霧山,2025-12-01,24.183258,121.641899,2.991564e-08
C2F000,大肚,2025-12-01,24.15295,120.572117,0.07824372
C1S850,豐南,2025-12-01,23.122139,121.262389,1.8791975e-06
C2A920,富貴角,2025-12-01,25.263783,121.565258,0.99282044
CAH030,茶改場竹圍站,2025-12-01,23.860083,120.637528,1.1390931e-06
C0T960,光復,2025-12-01,23.660694,121.424964,1.4367917e-07
C0F9M0,豐原,2025-12-01,24.254322,120.720692,0.996794
C0R720,旭海,2025-12-01,22.205403,120.887614,0.9996845
C0V710,苓雅,2025-12-01,22.622742,120.330669,0.999819
C0C740,觀音工業區,2025-12-01,25.064764,121.114856,0.54867566
CAC040,拉拉山,2025-12-01,24.699317,121.427133,1.1738999e-08
C0V790,萬山,2025-12-01,22.905944,120.688056,1.2470665e-07
U2HA30,臺大和社,2025-12-01,23.590856,120.888864,9.110626e-09
C2H9K0,屯原,2025-12-01,24.067969,121.209389,7.813404e-09
C0AJ90,澳底,2025-12-01,25.0552,121.9253,0.9973847
C0Z100,東華,2025-12-01,23.89525,121.549833,4.6564463e-07
C0G970,三豐,2025-12-01,23.882,120.2895,0.9897135
V2K610,大庄合作社,2025-12-01,23.8068,120.367939,0.99952304
C0V900,汕尾,2025-12-01,22.4782,120.4151,0.99978465
C1R630,龍泉,2025-12-01,22.66701,120.59091,0.878733
C1AC50,關渡,2025-12-01,25.133486,121.469331,0.99600536
C0C800,四稜,2025-12-01,24.64733,121.4293,3.4115768e-08
C0F9I0,神岡,2025-12-01,24.272481,120.658314,0.99991494
C0K460,斗南,2025-12-01,23.678734,120.478359,0.9992262
C2O810,曾文,2025-12-01,23.219681,120.497328,0.20691645
467280,後龍,2025-12-01,24.648563,120.831834,0.5926487
C1F9J1,清水林,2025-12-01,24.071242,120.820419,2.7494618e-09
C2A650,火燒寮,2025-12-01,25.002719,121.742892,0.6258591
466930,竹子湖,2025-12-01,25.162078,121.544547,4.5908768e-05
C1I220,樟湖,2025-12-01,23.905333,120.846983,3.6191576e-08
C0I390,仁愛,2025-12-01,24.022122,121.132206,3.9619163e-08
C0Z300,東里,2025-12-01,23.26853,121.30547,0.008527604
C1V590,新發,2025-12-01,23.057019,120.646064,1.2939033e-08
C0K510,水林,2025-12-01,23.572924,120.24597,0.9997326
72S590,東改賓朗果園,2025-12-01,22.813889,121.071278,0.001686183
82A750,茶改北部分場,2025-12-01,24.955778,121.631222,6.145944e-06
C1A750,石碇服務區,2025-12-01,25.00872,121.646242,0.9959812
C0X300,鹿寮,2025-12-01,23.386047,120.477331,0.9987318
G2AI50,關渡,2025-12-01,25.11575,121.492,0.46207744
C0K590,雲林東勢,2025-12-01,23.674192,120.255721,0.99958533
C0A570,桶後,2025-12-01,24.848222,121.597992,1.508675e-08
C1S800,華源,2025-12-01,22.657883,121.02325,0.09513779
C0G720,溪州,2025-12-01,23.851589,120.499093,0.9991596
C1V160,達卡努瓦,2025-12-01,23.279811,120.705319,4.1022066e-09
C2M410,馬頭山,2025-12-01,23.324361,120.582017,0.0010250323
C0V850,蚵仔寮,2025-12-01,22.7256,120.2527,0.99987125
C0S740,池上,2025-12-01,23.119628,121.209469,0.001829354
C1V390,尖山,2025-12-01,22.813153,120.367789,0.9998748
C0AH70,松山,2025-12-01,25.04871,121.55042,0.9830282
C0N010,鯤鯓國小,2025-12-01,23.1879,120.0889,0.9998122
C0R550,新埤,2025-12-01,22.467947,120.582894,0.9997806
C0SA60,知本（水試所）,2025-12-01,22.702394,121.082761,0.97118187
C0T9I0,豐濱,2025-12-01,23.583897,121.514806,1.01211015e-07
C0UB00,淡江大學蘭陽校園,2025-12-01,24.823239,121.730383,2.2298726e-08
C0W240,九宮,2025-12-01,24.423753,118.240186,0.99908364
C0T9N0,富里,2025-12-01,23.171639,121.249378,0.0088194385
U2HA50,臺大竹山,2025-12-01,23.756972,120.681556,0.03380414
C0V840,鳳鼻頭,2025-12-01,22.5083,120.3591,0.9996758
C0X140,西港,2025-12-01,23.125608,120.203108,0.99983954
72D080,桃改五峰分場,2025-12-01,24.612194,121.157167,2.7871292e-07
C2H9P0,伊拿谷,2025-12-01,23.963211,121.088264,2.6747407e-06
C2K250,崙背,2025-12-01,23.75553,120.31893,0.99957854
C2H9F0,柑林,2025-12-01,24.018658,120.847072,0.002161709
C0TA20,加灣,2025-12-01,24.082025,121.608944,4.2728757e-06
C0V530,阿蓮,2025-12-01,22.883208,120.327508,0.9998347
C0FB30,八仙山苗圃,2025-12-01,24.192719,121.001366,1.18827266e-07
C1O880,關山,2025-12-01,23.173397,120.594092,0.0003421305
C0E791,卓蘭,2025-12-01,24.3126,120.8244,0.8349968
C1I030,武界,2025-12-01,23.913225,121.052483,1.1053871e-06
C0R520,崁頂,2025-12-01,22.514781,120.506914,0.99972653
C0R341,牡丹,2025-12-01,22.130036,120.792639,0.99849784
C0R930,萬丹,2025-12-01,22.5885,120.4851,0.999766
C0S760,紅石,2025-12-01,23.069131,121.126219,1.4941845e-08
C2C410,中央大學,2025-12-01,24.967652,121.185165,0.98300004
C1M610,石磐龍,2025-12-01,23.496606,120.663506,1.1866709e-08
C0C790,東眼山,2025-12-01,24.8284,121.40888,3.8938026e-08
C0UA10,鴛鴦湖,2025-12-01,24.590269,121.412228,1.2536684e-08
V2C260,八德蔬果,2025-12-01,24.978508,121.281819,0.9947048
C0R800,丹路,2025-12-01,22.204481,120.750989,0.96274185
C0G920,永靖,2025-12-01,23.924703,120.547533,0.999789
C2M950,太和,2025-12-01,23.538372,120.702961,6.0611995e-09
C1A630,下盆,2025-12-01,24.771003,121.538622,5.2284803e-09
B2N890,畜產試驗所,2025-12-01,23.058972,120.336406,0.9998839
C0UA30,白嶺,2025-12-01,24.527819,121.519031,2.7449463e-08
C1V580,溪南(特生中心),2025-12-01,23.084972,120.788475,7.6357995e-09
C1T970,大農,2025-12-01,23.615233,121.413331,6.619337e-08
C0R650,竹田,2025-12-01,22.58486,120.54344,0.9997276
C1H900,清流,2025-12-01,24.080775,120.962997,2.4991115e-08
C1C510,水尾,2025-12-01,24.940081,121.087161,0.16847365
C2N170,茅港尾,2025-12-01,23.2061,120.2624,0.99983597
C0F9X0,大雅(中科園區),2025-12-01,24.21528,120.62445,0.9997648
C0SB60,白守蓮,2025-12-01,23.126769,121.401914,0.99982715
C0O970,虎頭埤,2025-12-01,23.021375,120.347878,0.99983454
C0C730,中大臨海站,2025-12-01,24.966126,121.008581,0.17424688
C0X250,新營,2025-12-01,23.310689,120.316681,0.9998494
C0V700,三民,2025-12-01,22.645017,120.311233,0.9996357
C0U870,大礁溪,2025-12-01,24.791042,121.675047,1.4213811e-08
C0E870,高鐵苗栗,2025-12-01,24.60725,120.826094,0.34119728
A2K570,古坑花卉中心,2025-12-01,23.63353,120.55239,0.3780171
C0TA30,鹽寮,2025-12-01,23.845606,121.592664,6.3952905e-07
C0M860,新美,2025-12-01,23.338017,120.683169,5.8863474e-09
C1E701,八卦,2025-12-01,24.491756,120.927619,1.2779651e-07
C2TA90,加納納,2025-12-01,23.466421,121.359867,3.8156212e-08
C0I420,國姓,2025-12-01,24.037803,120.855072,0.0012921958
C2D720,關西工作站,2025-12-01,24.757275,121.184792,0.97868186
C0S960,香蘭,2025-12-01,22.587569,120.993375,0.9993365
467620,蘭嶼,2025-12-01,22.0369,121.55843,0.99967194
C0R260,春日,2025-12-01,22.370361,120.628306,0.9998183
72G600,臺中農改場,2025-12-01,24.003028,120.534389,0.9997584
C0Z210,瑞穗,2025-12-01,23.5239,121.39021,1.6091305e-07
C0M820,達邦,2025-12-01,23.453994,120.749517,1.2812924e-08
C0V860,南寮,2025-12-01,22.7616,120.2339,0.9998712
C0G740,大城,2025-12-01,23.852487,120.320935,0.9909206
C0R920,塭仔,2025-12-01,22.4169,120.5197,0.99984497
C0R470,高樹,2025-12-01,22.826389,120.600806,0.93061656
C0R680,佳樂水,2025-12-01,21.993578,120.861633,0.9985225
C1O870,大棟山,2025-12-01,23.31157,120.52226,4.053471e-09
C0D360,梅花,2025-12-01,24.678347,121.208558,0.00066796003
C0Z190,富世,2025-12-01,24.14743,121.6297,1.8698141e-06
C0AI10,屈尺,2025-12-01,24.92184,121.54475,0.9995866
B2U990,畜試東區分所,2025-12-01,24.669039,121.832561,1.0244006e-06
C0SB80,長濱漁港,2025-12-01,23.313644,121.459994,0.65434617
C0TA50,和仁,2025-12-01,24.241394,121.712472,1.2456412e-07
C0V910,大樹,2025-12-01,22.684645,120.432803,0.9990239
C1R610,西大武山,2025-12-01,22.617719,120.7322,2.494906e-08
C0G900,線西,2025-12-01,24.143358,120.443536,0.9962472
C0M700,竹崎,2025-12-01,23.526178,120.555508,0.62304246
C2E880,三義,2025-12-01,24.405478,120.749819,0.34152162
C0C720,竹圍,2025-12-01,25.112692,121.239824,0.46148926
C0F9P0,清水,2025-12-01,24.312297,120.562242,0.98040617
C0Z150,吉安光華,2025-12-01,23.930925,121.595153,7.6484895e-07
C0FA80,小雪山天池,2025-12-01,24.28025,121.02627,2.0696955e-08
467300,東吉島,2025-12-01,23.25727,119.66762,0.9995334
C1D640,外坪(五指山),2025-12-01,24.644447,121.090961,3.0012657e-06
C0F9O0,潭子,2025-12-01,24.213106,120.703933,0.99918896
C2H9R0,卓社,2025-12-01,23.887894,121.000086,7.7940875e-08
72T250,花蓮農改場,2025-12-01,23.975222,121.563889,1.4655885e-06
C0E780,銅鑼,2025-12-01,24.489681,120.790853,0.9999624
C1T950,太安,2025-12-01,23.666719,121.370128,1.3907547e-09
C0E830,苑裡,2025-12-01,24.439714,120.653053,0.4413191
467270,田中,2025-12-01,23.873803,120.581286,0.3172592
C0SA10,檳榔四格山,2025-12-01,22.810031,121.109308,0.00017729489
C1T830,布洛灣,2025-12-01,24.17184,121.57127,2.9937162e-08
C0F970,大坑,2025-12-01,24.173142,120.722289,0.9996785
C1U920,思源,2025-12-01,24.393125,121.347214,1.5544353e-08
C2H9Y0,松茗,2025-12-01,23.8167,120.650765,0.00089471665
C0A931,三和,2025-12-01,25.233153,121.595236,0.9998278
C0I010,廬山,2025-12-01,24.033311,121.181808,7.7009155e-09
C2M940,日野賀,2025-12-01,23.434056,120.727169,5.7309824e-09
C0R860,鼻頭,2025-12-01,22.1043,120.8979,0.91484374
C0UB20,壯圍,2025-12-01,24.7359,121.8163,0.008145424
C0R790,九棚,2025-12-01,22.14195,120.889281,0.999793
C0W110,東莒,2025-12-01,25.9652,119.98069,0.9998915
C1U930,粉鳥林,2025-12-01,24.497088,121.842479,3.8636852e-08
C1I211,蘆竹湳,2025-12-01,23.934019,120.811994,8.301432e-08
C0S830,長濱,2025-12-01,23.286817,121.411975,9.494107e-05
C1F9F1,伯公龍,2025-12-01,24.272392,120.849047,0.057832483
C0UB90,太平山莊,2025-12-01,24.494171,121.536209,2.910644e-08
C0E810,西湖,2025-12-01,24.562947,120.7485,0.9309342
C1I440,新高口,2025-12-01,23.478744,120.878939,1.35529055e-08
C0O840,王爺宮,2025-12-01,23.222064,120.40085,0.9964752
C0T9G0,鳳林山,2025-12-01,23.735269,121.420131,2.4774177e-08
C0X080,佳里,2025-12-01,23.173039,120.145086,0.99981195
C0FB70,大甲溪埔,2025-12-01,24.370625,120.620067,0.8960471
C0Z310,清水斷崖,2025-12-01,24.218294,121.689142,4.289527e-08
C0M680,太保,2025-12-01,23.455062,120.331455,0.9997723
C1S820,金峰,2025-12-01,22.590969,120.933236,0.98643124
C0AD10,八里,2025-12-01,25.150211,121.403947,0.46411583
C2K240,草嶺,2025-12-01,23.59555,120.693461,8.610415e-09
C1SA70,都蘭,2025-12-01,22.87794,121.226881,0.9869387
C0K440,二崙,2025-12-01,23.772797,120.408944,0.99907815
C1A760,坪林交控,2025-12-01,24.94284,121.713442,0.15234841
C0F9N0,大里,2025-12-01,24.092464,120.701378,0.020282587
C0SA90,達仁林場,2025-12-01,22.264347,120.823972,0.99961066
C1R290,石門山,2025-12-01,22.112611,120.756597,0.28521255
42HA10,萬大發電廠,2025-12-01,23.978875,121.139639,1.3077397e-07
C0R890,山海,2025-12-01,21.9878,120.7091,0.9960743
C0T9A0,月眉山,2025-12-01,23.809928,121.539828,2.1017593e-08
C0AC70,信義,2025-12-01,25.037822,121.564597,0.9845295
C0K560,棋山,2025-12-01,23.68645,120.603417,0.24276306
C2FB50,出雲,2025-12-01,24.206469,120.902794,4.8083946e-09
C1Z240,中平林道,2025-12-01,23.42115,121.26763,1.964933e-09
U2H480,溪頭,2025-12-01,23.670306,120.798194,1.4874653e-08
C0M880,好美里,2025-12-01,23.3364,120.138,0.99980056
C0T9E0,大坑,2025-12-01,23.880628,121.581981,2.3773344e-08
C0K530,臺西,2025-12-01,23.701547,120.197559,0.9740906
C1E900,國一N128K,2025-12-01,24.560997,120.844186,0.992151
C0AJ50,水湳洞,2025-12-01,25.123695,121.862238,0.65580195
C0AI20,白沙灣,2025-12-01,25.283128,121.519058,0.550048
C2V310,美濃,2025-12-01,22.898792,120.51907,0.9999084
C0A860,大坪,2025-12-01,25.165914,121.632969,0.7173367
C1U850,觀音海岸,2025-12-01,24.38319,121.77856,2.7205115e-08
C2K610,草嶺石壁,2025-12-01,23.602469,120.707731,7.657531e-09
C0U950,鶯子嶺,2025-12-01,24.89754,121.79244,2.4441874e-08
C0O900,善化,2025-12-01,23.112883,120.297219,0.9998913
C0K550,蔦松,2025-12-01,23.514319,120.229736,0.9996609
E2P980,林試六龜中心,2025-12-01,22.991703,120.645722,0.00039588643
C0E590,通霄,2025-12-01,24.471892,120.704622,0.9535224
C1I310,西巒,2025-12-01,23.754486,120.883956,5.8668135e-08
C0A550,泰平,2025-12-01,24.971197,121.823711,0.0009977544
C0I360,水里,2025-12-01,23.812553,120.849792,0.0013093662
C0R830,高士,2025-12-01,22.121825,120.836781,0.41903684
C1I101,溪頭,2025-12-01,23.661789,120.807647,9.591441e-09
C0AJ20,野柳,2025-12-01,25.20703,121.690021,0.8337578
C0B060,暖暖,2025-12-01,25.0957,121.7403,0.9955639
C1H920,長豐,2025-12-01,24.102039,120.879897,3.3777314e-09
C0V360,內門,2025-12-01,22.975481,120.466769,0.98480177
C0R850,林邊,2025-12-01,22.4634,120.5339,0.99978346
C0E930,龍鳳,2025-12-01,24.700034,120.859125,0.79244393
C0U910,冬山,2025-12-01,24.63373,121.7937,1.0244006e-06
C1E721,泰安,2025-12-01,24.489017,120.968036,2.1890214e-08
82H320,茶改中部分場,2025-12-01,23.875611,120.913583,4.0340205e-06
C0M750,布袋,2025-12-01,23.380878,120.167789,0.99965346
C1S860,利嘉,2025-12-01,22.809417,121.050528,0.00017602749
E2S980,林試太麻里1,2025-12-01,22.598922,120.980044,0.9987628
C0X170,關廟,2025-12-01,22.963017,120.327797,0.99978894
C0V720,林園,2025-12-01,22.507747,120.394511,0.99982464
C1I510,線浸林道,2025-12-01,23.761508,120.832956,8.755238e-09
C0D690,外湖,2025-12-01,24.917735,120.968711,0.14890066
C0C750,新興坑尾,2025-12-01,25.0061,121.0971,0.1729616
B2Q810,畜試南區分所,2025-12-01,21.945583,120.802167,0.99865496
C0S790,金崙,2025-12-01,22.538122,120.966875,0.99782753
C0AH90,福山植物園,2025-12-01,24.760717,121.58135,7.2994837e-09
C0I540,奇萊稜線,2025-12-01,24.109231,121.326456,2.5371259e-08
C0M850,表湖,2025-12-01,23.24186,120.64166,1.981096e-09
C0S770,大溪山,2025-12-01,22.478475,120.943325,0.9747934
C0AG80,中和,2025-12-01,24.991622,121.491792,0.97938
C0T790,大禹嶺,2025-12-01,24.186117,121.316086,2.1228058e-08
C0T9B0,水源,2025-12-01,23.991861,121.537169,3.7774885e-08
C0R840,牡丹池山,2025-12-01,22.168389,120.841225,0.9996971
C1I131,桶頭,2025-12-01,23.641944,120.654117,0.0152589865
CAL110,布袋國中,2025-12-01,23.35893,120.18026,0.99981314
467571,新竹,2025-12-01,24.827853,121.014219,0.41598338
C0Z290,赤柯山,2025-12-01,23.36893,121.38293,2.0988349e-08
C0X280,將軍,2025-12-01,23.214999,120.13577,0.9998009
C0S690,太麻里,2025-12-01,22.60902,120.98533,0.011265351
C0U880,北關,2025-12-01,24.9072,121.8734,0.99989855
CAW010,東引,2025-12-01,26.3588,120.4836,0.99986583
C0G810,埔心,2025-12-01,23.947633,120.525456,0.99979854
C0U970,大福,2025-12-01,24.80064,121.81389,0.8416771
C2H9N0,仁愛東眼,2025-12-01,24.026875,121.1205,8.192361e-09
C1E670,南礦,2025-12-01,24.538278,121.002836,2.7457528e-08
C0M520,東後寮,2025-12-01,23.369908,120.248065,0.999815
C1E461,松安,2025-12-01,24.397972,120.986022,3.550423e-08
C2N160,西拉雅風管處,2025-12-01,23.189481,120.335297,0.9998561
C2M970,碧湖,2025-12-01,23.568632,120.624165,1.4266367e-08
C0A640,石碇,2025-12-01,24.993969,121.662917,0.9963909
E2S960,林試太麻里2,2025-12-01,22.598,120.99775,0.99937004
C0F9Y0,桃山,2025-12-01,24.432739,121.303808,3.037637e-08
C1I020,萬大,2025-12-01,23.979817,121.132261,3.73655e-08
C2UC20,長嶺,2025-12-01,24.70894,121.61162,1.570049e-08
C0U940,羅東,2025-12-01,24.68184,121.74934,0.00576415
C0M650,朴子,2025-12-01,23.43463,120.23902,0.99968785
C1I500,大尖山,2025-12-01,23.858572,120.994889,7.6493265e-09
C0FB40,中橫21.6k,2025-12-01,24.2499,121.1455,9.797158e-09
C0G820,田尾,2025-12-01,23.901669,120.509389,0.9997983
E2K600,四湖植物園,2025-12-01,23.676986,120.163433,0.98875505
C0S730,綠島,2025-12-01,22.6672,121.47533,0.9986443
12Q970,東港工作站,2025-12-01,22.479997,120.466058,0.9997848
C0E430,南庄,2025-12-01,24.601775,121.000214,0.9998868
C1TA00,太魯閣,2025-12-01,24.15773,121.6236,8.327764e-07
466920,臺北,2025-12-01,25.037658,121.514853,0.9830282
C0R600,舊泰武,2025-12-01,22.588194,120.664944,1.6463012e-08
C1I260,北坑,2025-12-01,23.9246,121.006903,3.466035e-08
466910,鞍部,2025-12-01,25.182586,121.529731,3.7148482e-06
C1I230,九份二山,2025-12-01,23.961944,120.845,6.45171e-05
C2A660,瑞芳,2025-12-01,25.113169,121.801147,0.9600404
C0R270,琉球嶼,2025-12-01,22.332244,120.362236,0.9999394
C1T990,高寮,2025-12-01,23.394239,121.356808,9.574245e-08
C0G620,芬園,2025-12-01,24.015678,120.6213,0.7469913
C1Z140,荖溪,2025-12-01,23.890575,121.45964,2.8771291e-08
C1I201,中心崙,2025-12-01,23.728722,120.712097,1.4958248e-06
C1I400,凌霄,2025-12-01,24.018778,121.004456,8.3686125e-09
C1M640,十字,2025-12-01,23.492153,120.753683,8.3272464e-09
G2P820,農試鳳山分所,2025-12-01,22.646611,120.356083,0.9996517
C0Z270,蕃薯寮,2025-12-01,23.73835,121.540108,2.6325738e-08
C0FB10,出雲山苗圃,2025-12-01,24.23105,120.90475,7.702916e-08
C0F9Q0,外埔,2025-12-01,24.347817,120.705686,0.9999613
C0K580,高鐵雲林,2025-12-01,23.737456,120.417944,0.9993724
C2I090,鳳凰,2025-12-01,23.728081,120.787347,2.7935158e-07
C0U990,員山,2025-12-01,24.74435,121.72247,0.0078109126
C0V770,大社,2025-12-01,22.730306,120.346639,0.99986744
C0X120,麻豆,2025-12-01,23.183289,120.248611,0.99984276
C0C670,龍潭,2025-12-01,24.870056,121.221389,0.9998636
C0D680,香山濕地,2025-12-01,24.783581,120.914988,0.54643106
C0S980,勝林山,2025-12-01,22.430439,120.8938,1.8883183e-06
C0V730,大寮,2025-12-01,22.605614,120.395717,0.9998457
C0R570,麟洛,2025-12-01,22.65078,120.52719,0.9225258
C2M930,石卓,2025-12-01,23.478744,120.702264,7.2974236e-09
C0G9B0,和美,2025-12-01,24.105169,120.492131,0.99951756
CAG100,王功漁港,2025-12-01,23.96824,120.32586,0.996711
C0X290,北門,2025-12-01,23.267772,120.125481,0.99980044
C2F930,大甲,2025-12-01,24.347667,120.640403,0.9777927
C0D650,湖口,2025-12-01,24.904794,121.043628,0.15286808
C0E420,竹南,2025-12-01,24.708978,120.888897,0.75026643
C0U780,五結,2025-12-01,24.68637,121.79794,0.008182819
C1I250,鯉潭,2025-12-01,23.961922,120.991131,9.098461e-06
C0R130,阿禮,2025-12-01,22.742908,120.743678,9.201756e-08
C0X100,臺南市北區,2025-12-01,23.010394,120.194228,0.99989593
C0S920,金峰嘉蘭,2025-12-01,22.594789,120.960825,0.99866736
C0V490,新興,2025-12-01,22.627422,120.298803,0.9998209
C0F9K0,大安,2025-12-01,24.345061,120.588025,0.8879071
467290,古坑,2025-12-01,23.633639,120.551889,0.3780174
C2E970,八甲,2025-12-01,24.535811,120.795983,0.9998444
C0V440,鳳山,2025-12-01,22.646653,120.356122,0.9996517
C1T940,大觀,2025-12-01,23.714206,121.373133,1.6679488e-08
C0E740,造橋,2025-12-01,24.637056,120.864778,0.5907349
C0R100,尾寮山,2025-12-01,22.833111,120.683889,8.8295e-08
A2K630,臺大雲林校區,2025-12-01,23.730628,120.423903,0.99937034
467990,馬祖,2025-12-01,26.169467,119.923158,0.8411027
C0D580,寶山,2025-12-01,24.735006,121.025192,0.99949694
E2P990,林試扇平站,2025-12-01,22.9677,120.6857,3.842263e-08
C0AI30,三重,2025-12-01,25.057328,121.500629,0.98002464
C0AH00,汐止,2025-12-01,25.066881,121.658778,0.9830282
C1Z040,立山,2025-12-01,23.443356,121.327375,2.2186725e-08
466881,新北,2025-12-01,24.959207,121.525196,0.9850356
C0W130,花嶼,2025-12-01,23.40007,119.32276,0.9992259
C0A950,鼻頭角,2025-12-01,25.129036,121.923372,0.9777776
C0K470,林內,2025-12-01,23.748675,120.609642,0.1970791
C2F990,摩天嶺,2025-12-01,24.322458,120.936819,2.1466779e-08
82C160,茶改場,2025-12-01,24.908472,121.185333,0.9987698
C0Z320,清水林道,2025-12-01,23.27125,121.188272,2.902168e-08
C0R760,南仁湖,2025-12-01,22.084681,120.863353,0.2868269
C0M670,大林,2025-12-01,23.600616,120.45841,0.9997575
C0M800,茶山,2025-12-01,23.299075,120.664767,3.0246207e-07
C0A9C0,天母,2025-12-01,25.117494,121.537169,0.937712
72K220,南改斗南分場,2025-12-01,23.634556,120.477333,0.99922293
72AI40,桃改樹林分場,2025-12-01,24.944503,121.386972,0.90010923
C0S910,蘭嶼燈塔,2025-12-01,22.081197,121.503117,0.9997587
C0B050,八斗子,2025-12-01,25.144754,121.79167,0.57286245
C0U900,內城,2025-12-01,24.71813,121.68766,0.0041667745
C0X320,柳營,2025-12-01,23.253328,120.375253,0.9998044
C0M790,新港,2025-12-01,23.553269,120.345728,0.9997384
C0F9T0,西屯,2025-12-01,24.179494,120.641275,0.99973935
C0E950,松安,2025-12-01,24.39792,120.98599,3.550423e-08
C0SA30,都歷,2025-12-01,23.020333,121.323642,0.44341508
C0C620,蘆竹,2025-12-01,25.084275,121.265767,0.56360006
C0R730,大坪頂,2025-12-01,22.024633,120.69355,0.9177814
C0AJ40,石門,2025-12-01,25.273672,121.601198,0.9645854
C0E750,苗栗,2025-12-01,24.564569,120.824575,0.9899199
C0T870,鯉魚潭,2025-12-01,23.935639,121.508944,1.1545451e-07
C1V170,排雲,2025-12-01,23.463619,120.954147,3.220499e-08
C2H950,中寮,2025-12-01,23.884447,120.766406,0.97641134
C0R350,貓鼻頭,2025-12-01,21.921774,120.7358,0.99733496
C0V660,岡山,2025-12-01,22.797078,120.294958,0.99977463
C1H941,雙冬,2025-12-01,23.967378,120.802189,2.3743164e-08
C0AJ70,田寮,2025-12-01,25.2698,121.4886,0.5418978
C0AI00,五股,2025-12-01,25.07445,121.42728,0.99259144
C0Z280,德武,2025-12-01,23.47426,121.41071,4.8750994e-08
C2RA10,大新,2025-12-01,22.67558,120.57788,0.8796095
C0R700,枋山,2025-12-01,22.246844,120.661086,0.9958045
C0C460,復興,2025-12-01,24.820208,121.352281,0.508757
C2K300,鹿南,2025-12-01,23.63855,120.3636,0.9995448
E2H360,蓮華池,2025-12-01,23.918333,120.885278,6.990997e-09
C0M640,中埔,2025-12-01,23.42538,120.5229,0.74888945
C0W140,金沙,2025-12-01,24.488292,118.408778,0.99970233
C2A540,四堵,2025-12-01,24.8926,121.745736,0.0022636477
C0ACA0,新莊,2025-12-01,25.051478,121.446756,0.9746686
C0R220,潮州,2025-12-01,22.534361,120.54,0.9997122
U2HA40,臺大內茅埔,2025-12-01,23.689722,120.851117,0.00016365576
467490,臺中,2025-12-01,24.145736,120.684075,0.99967784
C0UB60,明池,2025-12-01,24.650688,121.475277,3.3951856e-08
C0U960,翠峰湖,2025-12-01,24.510856,121.608044,2.8595291e-08
E2HA20,林試畢祿溪站,2025-12-01,24.226944,121.308522,1.4466506e-08
C0V890,前鎮,2025-12-01,22.5718,120.3117,0.99982446
C1F941,雪嶺,2025-12-01,24.280586,121.026642,2.0696955e-08
C2H9E0,國姓南港,2025-12-01,23.911108,120.846556,2.9881768e-08
C0AC80,文山,2025-12-01,25.00235,121.575728,0.9925405
C0F9R0,龍井,2025-12-01,24.184536,120.528972,0.9951122
C0M760,民雄,2025-12-01,23.551754,120.428457,0.99976516
C0UA40,西德山,2025-12-01,24.560647,121.752608,1.946347e-08
C2TA70,赤科坪,2025-12-01,23.39885,121.39168,2.145012e-08
C1T920,中興,2025-12-01,23.769503,121.498653,2.7185308e-07
C0D550,雪霸,2025-12-01,24.526972,121.11605,1.0352697e-08
C2F860,梨山,2025-12-01,24.247522,121.243669,1.4800646e-08
C0R320,車城,2025-12-01,22.0744,120.716247,0.98292696
C1S870,南美山,2025-12-01,23.15025,121.382333,0.012722325
C0B020,基隆嶼,2025-12-01,25.19141,121.78391,0.73654944
C1U501,牛鬥,2025-12-01,24.637836,121.573656,2.6106608e-07
C0M730,嘉義市東區,2025-12-01,23.457673,120.460531,0.9996718
C2R990,泰武,2025-12-01,22.60686,120.69765,1.4009943e-07
C0S700,知本,2025-12-01,22.684866,121.005642,1.9385561e-05
C1N001,沙崙,2025-12-01,22.935472,120.309406,0.9998139
C0V760,橋頭,2025-12-01,22.757806,120.30575,0.99987054
C0G960,福寶,2025-12-01,24.0443,120.3814,0.99945515
C0X210,白河,2025-12-01,23.347466,120.414427,0.9997517
C0S810,東河,2025-12-01,22.972672,121.303986,0.9997825
C2R170,屏東,2025-12-01,22.66027,120.49403,0.9228864
C0R670,楓港,2025-12-01,22.190131,120.692156,0.8616732
C0FA50,霧峰,2025-12-01,24.0419,120.6995,0.99882406
C0UB10,蘇澳,2025-12-01,24.5969,121.8571,1.0159684e-08
C0G950,防潮門,2025-12-01,24.1835,120.4871,0.99490196
C0M740,六腳,2025-12-01,23.492871,120.290625,0.999725
C1R250,力里,2025-12-01,22.428117,120.629228,0.9996059
C0K330,虎尾,2025-12-01,23.719183,120.442036,0.99922895
C2FA00,烏石坑,2025-12-01,24.273503,120.947617,2.499407e-08
C0V620,永安,2025-12-01,22.82315,120.236856,0.99977344
C1I330,楓樹林,2025-12-01,23.986803,121.076117,1.0028538e-07
C0W200,湖西,2025-12-01,23.596314,119.67275,0.9994306
72Q010,高雄農改場,2025-12-01,22.709333,120.525889,0.94131076
C0SA40,瑞和,2025-12-01,22.974361,121.156697,0.022842327
C0C680,龜山,2025-12-01,25.02846,121.38656,0.99645084
C2V260,月眉,2025-12-01,22.971003,120.539853,0.7711529
C0V450,鳳森,2025-12-01,22.545064,120.392592,0.99979126
C0FA90,小雪山林道,2025-12-01,24.29515,121.03651,2.6286601e-08
C0U720,南山,2025-12-01,24.43742,121.38167,2.6562796e-08
A2N290,臺南蘭花園區,2025-12-01,23.340258,120.379661,0.99975365
C0R560,新園,2025-12-01,22.5434,120.461558,0.99982464
C0U890,三星,2025-12-01,24.66812,121.65302,4.029276e-06
C1V300,御油山,2025-12-01,23.001983,120.715364,7.861029e-09
C0U600,礁溪,2025-12-01,24.817539,121.765608,0.931888
C1T980,龍澗,2025-12-01,24.023289,121.411328,3.2196702e-08
C0D670,海天一線,2025-12-01,24.831986,120.914438,0.99957645
C0SA00,歷坵,2025-12-01,22.520969,120.89185,0.06728084
C0M710,東石,2025-12-01,23.458927,120.15385,0.99949414
C0M780,鹿草,2025-12-01,23.41134,120.30835,0.9996921
C0U520,雙連埤,2025-12-01,24.753033,121.641303,1.413414e-08
C0B010,七堵,2025-12-01,25.094819,121.71713,0.97752917
C0R480,長治,2025-12-01,22.693128,120.542622,0.99853486
C1V830,國三S383K,2025-12-01,22.781967,120.426475,0.98202956
12Q980,恆春工作站,2025-12-01,22.079678,120.714425,0.98293984
C1O940,東山服務區,2025-12-01,23.286016,120.398472,0.9997892
C1U840,東澳嶺,2025-12-01,24.5378,121.8485,1.5360852e-08
C1D630,飛鳳山,2025-12-01,24.766464,121.119178,0.9996436
C0S940,石寧山,2025-12-01,23.223772,121.406639,0.061933517
C0K410,北港,2025-12-01,23.573957,120.292802,0.9997357
C2M620,瑞里,2025-12-01,23.545133,120.675197,7.179808e-09
C0SB70,小港漁港,2025-12-01,23.158558,121.400431,0.99975014
C2O950,安南,2025-12-01,23.076694,120.144861,0.99981934
C0F0E0,南湖圈谷,2025-12-01,24.363714,121.444667,4.9684083e-08
467610,成功,2025-12-01,23.097486,121.373428,0.999744
C0G890,伸港,2025-12-01,24.148933,120.484403,0.99640113
C2E540,龍溪,2025-12-01,24.606489,120.783933,0.34351778
C1V200,梅山,2025-12-01,23.268447,120.823556,7.200365e-09
C0T9H0,加路蘭山,2025-12-01,23.682947,121.5274,2.4274806e-08
C2O930,玉井,2025-12-01,23.126042,120.46055,0.9994421
C1F911,新伯公,2025-12-01,24.221361,120.841069,0.016787078
C0R490,九如,2025-12-01,22.7405,120.490503,0.9505991
C0X200,左鎮,2025-12-01,23.056758,120.408522,0.99989754
C0FA60,鞍馬山工作站,2025-12-01,24.267064,121.000793,1.4497361e-08
C0SB50,叭嗡嗡,2025-12-01,23.047062,121.343223,0.94217134
C1F891,稍來,2025-12-01,24.265689,121.001142,1.4085214e-08
72N240,七股研究中心,2025-12-01,23.081672,120.062894,0.9997819
C0C700,中壢,2025-12-01,24.977661,121.256375,0.997916
C0M690,水上,2025-12-01,23.419734,120.388909,0.9997699
C0V690,鼓山,2025-12-01,22.623325,120.275575,0.9998206
C0O860,大內,2025-12-01,23.11885,120.36083,0.99988556
C0Z200,萬榮,2025-12-01,23.709219,121.420106,8.024276e-08
C0T9D0,和中,2025-12-01,24.26676,121.74103,5.1688266e-07
C1O921,楠西,2025-12-01,23.183511,120.484083,0.9972625
C0AJ30,淡水觀海,2025-12-01,25.184591,121.408616,0.7089771
C0V810,左營,2025-12-01,22.67491,120.28491,0.99963576
C0UA70,桃源谷,2025-12-01,24.962606,121.888875,2.5492431e-08
C0X130,官田,2025-12-01,23.193217,120.315422,0.9998582
C1H000,翠峰,2025-12-01,24.109397,121.205211,1.6051708e-08
C0UA90,石城,2025-12-01,24.980444,121.951214,0.9986238
C1E681,南勢山,2025-12-01,24.421669,120.923831,1.9979784e-07
C0A9F0,內湖,2025-12-01,25.079422,121.57545,0.9830282
C0K291,宜梧,2025-12-01,23.536281,120.169329,0.99965906
C1K540,口湖,2025-12-01,23.585344,120.180517,0.9636558
C0R780,滿州,2025-12-01,22.024403,120.839892,0.9961488
C0V870,文安,2025-12-01,22.8025,120.2164,0.99977696
C0U650,玉蘭,2025-12-01,24.675286,121.587061,1.557409e-08
C0R640,東港,2025-12-01,22.46247,120.44074,0.9997847
C0AJ80,板橋,2025-12-01,25.0107,121.4489,0.9768955
C0S660,下馬,2025-12-01,23.150427,121.070312,2.3695616e-08
C1H9B1,阿眉,2025-12-01,24.1263,120.994672,9.224034e-09
C0UA20,多加屯,2025-12-01,24.368614,121.373189,1.9100852e-08
C0E730,頭份,2025-12-01,24.688247,120.912206,0.7609411
72V140,高改旗南分場,2025-12-01,22.857861,120.516667,0.9989329
C0K480,莿桐,2025-12-01,23.761192,120.502372,0.8088226
C0U980,坪林石牌,2025-12-01,24.86478,121.77396,1.6850786e-08
C0T900,西林,2025-12-01,23.8119,121.441458,7.686522e-08
C1I150,青雲,2025-12-01,23.793361,120.949378,0.0005562317
C2E980,和興,2025-12-01,24.505319,120.923016,1.4773276e-05
467350,澎湖,2025-12-01,23.565503,119.563094,0.9991483
C0G800,埔鹽,2025-12-01,24.000394,120.431683,0.9997527
C0H960,草屯,2025-12-01,23.973672,120.68085,0.99840426
C1V780,多納林道,2025-12-01,22.888028,120.737917,4.3852473e-09
C0E920,通霄漁港,2025-12-01,24.498589,120.673876,0.9044456
C0Z330,安通山,2025-12-01,23.290728,121.348528,1.4698325e-06
C0AH10,永和,2025-12-01,25.01125,121.508111,0.9734354
C0AK10,太平里,2025-12-01,25.134937,121.364899,0.47461265
C2G640,鹿港,2025-12-01,24.0753,120.430481,0.9994577
C1E890,國三N149K,2025-12-01,24.463414,120.680019,0.6527302
C1R110,口社,2025-12-01,22.770111,120.645222,0.14912273
C1M870,國三N285K,2025-12-01,23.550319,120.505833,0.5678057
C1E480,鳳美,2025-12-01,24.554803,121.034747,0.00042759438
C0M530,奮起湖,2025-12-01,23.493903,120.699253,6.0323777e-09
C0C590,觀音,2025-12-01,25.027072,121.153317,0.44226435
C0T9M0,靜浦,2025-12-01,23.455167,121.495028,1.614997e-07
C2H9M0,發祥,2025-12-01,24.154094,121.164517,7.640683e-08
C0AI40,石牌,2025-12-01,25.115597,121.513139,0.9266434
C1F871,上谷關,2025-12-01,24.203483,121.018644,5.524609e-09
C2H9G0,百勝,2025-12-01,24.051142,120.909361,0.016694024
C0G880,二水,2025-12-01,23.810742,120.6173,0.072356425
C0R940,加祿堂,2025-12-01,22.3363,120.6217,0.9995043
C0W220,北竿,2025-12-01,26.220358,119.974881,0.9991788
C0O960,崎頂,2025-12-01,22.959547,120.369317,0.9994959
C0TA40,秀林,2025-12-01,24.302864,121.731144,3.2616825e-08
C0S750,向陽,2025-12-01,23.248397,120.986133,1.1388858e-08
C0T9F0,水璉,2025-12-01,23.797131,121.542514,4.205076e-08
C1M600,頭凍,2025-12-01,23.406364,120.603339,5.8462152e-08
467660,臺東,2025-12-01,22.752211,121.154586,0.9992364
C1D380,新埔,2025-12-01,24.84745,121.03834,0.33089504
C2G980,田頭村,2025-12-01,23.8263,120.444175,0.9990809
C0V750,路竹,2025-12-01,22.854997,120.259439,0.9998493
C0N050,蚵寮,2025-12-01,23.301,120.1104,0.99980026
C2X060,下營,2025-12-01,23.226806,120.256291,0.9998359
72M700,南改鹿草分場,2025-12-01,23.416869,120.283061,0.9996891
C1SA50,利嘉林道,2025-12-01,22.82325,121.009389,4.943404e-09
C0UB70,太平山中間站,2025-12-01,24.542003,121.513453,3.498854e-08
C0A940,金山,2025-12-01,25.223628,121.643967,0.8985847
C1V340,大津,2025-12-01,22.888322,120.645986,0.04572187
C0W180,七美,2025-12-01,23.219333,119.444892,0.99787813
C1F9C1,白冷,2025-12-01,24.182844,120.929889,1.1759215e-05
K2E710,苗改生物防治研究中心,2025-12-01,24.422861,120.871833,0.99937403
C0N040,蘆竹溝,2025-12-01,23.2344,120.0961,0.9998002
C0TB40,崇德,2025-12-01,24.166144,121.657414,6.263457e-06
C0D760,大坪苗圃,2025-12-01,24.5362,121.1108,1.9348507e-08
C2W230,畜試所澎湖,2025-12-01,23.628342,119.513206,0.9986946
C0R880,後壁湖,2025-12-01,21.9457,120.7457,0.9965499
C1I280,埔中,2025-12-01,23.820778,120.642594,0.0007793027
467790,墾丁雷達站,2025-12-01,21.948235,120.808028,0.99816227
C0W190,望安,2025-12-01,23.380564,119.494075,0.9983285
C0Z170,卓溪,2025-12-01,23.3443,121.3029,0.0016913402
C0F850,東勢,2025-12-01,24.246428,120.833047,0.52510893
466900,淡水,2025-12-01,25.164889,121.448906,0.4754652
C0I370,魚池,2025-12-01,23.895703,120.94135,9.6535885e-08
C0C630,大溪,2025-12-01,24.882853,121.265547,0.99868715
C0A520,山佳,2025-12-01,24.974944,121.402008,0.954885
C0I110,竹山,2025-12-01,23.761225,120.688156,0.010928923
82H840,茶改南部分場,2025-12-01,23.762528,120.7405,0.0026898433
C0G660,溪湖,2025-12-01,23.94835,120.479122,0.99981815
C1T800,洛韶,2025-12-01,24.204558,121.453956,2.117686e-08
C1T810,慈恩,2025-12-01,24.192044,121.388386,1.2781119e-08
C1E451,象鼻,2025-12-01,24.368617,120.940228,4.6019952e-07
C0AC60,三峽,2025-12-01,24.939025,121.369728,0.48834032
C0I490,萬大林道,2025-12-01,23.928228,121.091411,7.465464e-09
C1I290,豐丘,2025-12-01,23.668178,120.887417,7.0477904e-09
C1I320,奧萬大,2025-12-01,23.952956,121.178556,9.531881e-08
C2M910,嘉義大學,2025-12-01,23.471325,120.485903,0.9956981
C0U770,南澳,2025-12-01,24.44935,121.81022,4.9385903e-08
C2TB30,吉安,2025-12-01,23.94538,121.54803,2.583671e-07
C0A980,社子,2025-12-01,25.109508,121.469681,0.4588625
C0V800,六龜,2025-12-01,22.997889,120.633583,0.0006106697
C1G9D0,國一S218K,2025-12-01,23.890641,120.493253,0.9998398
C0E570,白沙屯,2025-12-01,24.549447,120.696803,0.82362103
C2F9A0,中竹林,2025-12-01,24.103556,120.751061,0.0003392562
C0FA40,臺中電廠,2025-12-01,24.2146,120.4907,0.9951276
C2G9A0,畜試所彰化,2025-12-01,23.86045,120.557964,0.318853
C0H9C0,合歡山,2025-12-01,24.143442,121.272547,3.1169826e-08
C0X060,下營,2025-12-01,23.22695,120.256261,0.99998724
G2M350,農試溪口農場,2025-12-01,23.58565,120.408111,0.99977356
C0U860,頭城,2025-12-01,24.85323,121.8308,0.9472931
C0R580,南州,2025-12-01,22.48591,120.50274,0.9997847
C0D430,峨眉,2025-12-01,24.6905,121.017189,0.59062886
C0G780,秀水,2025-12-01,24.03405,120.503869,0.99975866
72N100,臺南農改場,2025-12-01,23.0605,120.342194,0.999883
C0S900,蘭嶼高中,2025-12-01,22.04909,121.51214,0.99976724
C2TA60,六十石,2025-12-01,23.22477,121.31861,2.1966923e-08
C1F9W0,德基,2025-12-01,24.254783,121.190261,7.386739e-09
C2M980,安和,2025-12-01,23.51377,120.31593,0.9997276
C1Z120,壽豐,2025-12-01,23.870853,121.508081,4.6564463e-07
C0W160,烏坵,2025-12-01,24.9944,119.44956,0.9613271
C1I240,外大坪,2025-12-01,23.958697,120.917931,6.111146e-06
C1I550,國六W023K,2025-12-01,23.979067,120.867742,1.0895446e-06
C0R870,興海,2025-12-01,21.9752,120.8439,0.99860847
C0R140,瑪家,2025-12-01,22.682903,120.686639,5.0748156e-08
C0A530,坪林,2025-12-01,24.938183,121.70975,0.014187903
C0X260,後壁,2025-12-01,23.366358,120.362326,0.99985814
C0Z230,和平,2025-12-01,24.30717,121.77007,5.872237e-07
C0G770,福興,2025-12-01,24.041289,120.437669,0.99974847
C0H9A0,神木村,2025-12-01,23.532742,120.843667,6.4081696e-09
C0I460,南投,2025-12-01,23.911469,120.687331,0.9967611
C0I480,梅峰,2025-12-01,24.085272,121.173572,1.1786607e-08
C1V570,吉東,2025-12-01,22.85422,120.5454,0.9981039
C2D740,屯原,2025-12-01,24.067969,121.209389,2.675301e-08
C2A560,福山,2025-12-01,24.776203,121.502811,1.9115892e-07
C0AH30,五分山,2025-12-01,25.07125,121.780794,6.651547e-08
C0FA10,松柏,2025-12-01,24.429115,120.617482,0.44083735
72S200,東改班鳩分場,2025-12-01,22.829528,121.077694,0.0143263955
72HA00,中改埔里分場,2025-12-01,23.903208,120.963364,1.1632837e-08
C2H9W0,大坪頂農水,2025-12-01,24.043122,120.932781,3.3556096e-09
C0C650,平鎮,2025-12-01,24.897503,121.214636,0.9995445
C0S930,延平,2025-12-01,22.902581,121.084058,0.0047558253
C0UA60,樟樹山,2025-12-01,24.41393,121.78325,1.9806475e-08
C2UC10,出水溪,2025-12-01,24.615822,121.652253,2.0171097e-08
C1S670,摩天,2025-12-01,23.199503,121.027,1.6381573e-08
C0V630,茄萣,2025-12-01,22.906642,120.182608,0.9998519
466940,基隆,2025-12-01,25.133314,121.740475,0.59798163
C0X050,東河,2025-12-01,23.296598,120.385608,0.9997978
C0R770,保力,2025-12-01,22.071122,120.764111,0.9666435
G2L020,農試嘉義分所,2025-12-01,23.485028,120.473806,0.9767775
C0X240,關子嶺,2025-12-01,23.331169,120.508025,2.9707231e-05
C0I380,集集,2025-12-01,23.828206,120.801467,0.0017815119
466990,花蓮,2025-12-01,23.975128,121.613275,2.558824e-06
C1V220,小關山,2025-12-01,23.154217,120.813603,8.491859e-09
C1F9G1,慶福山,2025-12-01,24.180853,120.848378,3.6358513e-05
C0FB20,雪山橋,2025-12-01,24.23192,120.9786,1.3983254e-08
C0Z250,瑞穗林道,2025-12-01,23.49284,121.30688,1.9279462e-09
C0D590,新豐,2025-12-01,24.87068,120.97721,0.99864155
C0A870,五指山,2025-12-01,25.132153,121.608692,1.3198131e-05
C0UA50,西帽山,2025-12-01,24.555361,121.802628,2.3923999e-08
C2R980,竹田國中,2025-12-01,22.61532,120.52412,0.99972755
C0X160,仁德,2025-12-01,22.968258,120.257689,0.9998866
C1H971,六分寮,2025-12-01,23.92507,120.6378,8.546296e-05
C0W120,西嶼,2025-12-01,23.5626,119.468436,0.99890846
C0G650,員林,2025-12-01,23.946503,120.585597,0.9942115
C0AD50,鶯歌,2025-12-01,24.951533,121.346294,0.69725376
C2H9Q0,北東眼山,2025-12-01,24.120939,121.189303,8.959992e-09
C2H9T0,名間竹圍,2025-12-01,23.859914,120.637572,1.1376578e-06
C0S990,山豬窟,2025-12-01,22.318619,120.857372,0.9999476
C0X190,安平,2025-12-01,22.993161,120.152181,0.9998961
C0K400,斗六,2025-12-01,23.720583,120.541127,0.9867213
12J990,口湖工作站,2025-12-01,23.589978,120.180394,0.96384466
C0O830,北寮,2025-12-01,23.079561,120.495008,0.08133082
C1D410,白蘭,2025-12-01,24.579364,121.079947,2.1547017e-08
C0S970,加津林,2025-12-01,22.416211,120.926942,0.99982864
C0D700,關西,2025-12-01,24.7977,121.1732,0.2690733
C0M810,里佳,2025-12-01,23.389125,120.716647,6.974801e-09
C0U750,龜山島,2025-12-01,24.841667,121.953133,1.7477038e-06
C0R810,內獅,2025-12-01,22.305064,120.642986,0.99944806
C1M390,龍美,2025-12-01,23.406728,120.654417,1.4353626e-08
C2K290,崙內,2025-12-01,23.69525,120.35601,0.9995775
C2FB60,頭櫃山,2025-12-01,24.129842,120.858925,8.007395e-09
C1H840,國三N238K,2025-12-01,23.841008,120.707711,1.6986785e-05
CAQ030,崎峰國小,2025-12-01,22.42565,120.49521,0.9997847
C2E520,大湖,2025-12-01,24.414939,120.870872,0.99626017
467530,阿里山,2025-12-01,23.508208,120.813242,1.4648651e-08
C1E691,南湖,2025-12-01,24.40135,120.837533,0.0001220486
C0FA30,梧棲,2025-12-01,24.256003,120.523381,0.980374
C1V231,高中,2025-12-01,23.134911,120.716711,1.0266369e-09
C0AK30,硬漢嶺,2025-12-01,25.136097,121.426372,0.00014306781
C0F9V0,新社,2025-12-01,24.200172,120.815806,0.0014753612
C0H890,埔里,2025-12-01,23.972169,120.952425,0.024071917
C0R690,墾丁,2025-12-01,21.966756,120.810269,0.98920834
C0SD20,富山,2025-12-01,22.822383,121.190825,0.9985079
C0F0D0,審馬陣,2025-12-01,24.381675,121.4203,3.0169197e-08
C2W030,金門農試所,2025-12-01,24.448431,118.451786,0.9989979
C0R820,白鷺,2025-12-01,22.454275,120.666219,0.0012148538
C0FB00,大雪山,2025-12-01,24.254668,121.007374,1.5856138e-08
C1V190,南天池,2025-12-01,23.27403,120.91176,1.228075e-08
C0E940,雪見,2025-12-01,24.42595,121.01347,1.0507849e-08
K2E360,苗栗農改場,2025-12-01,24.495722,120.829111,0.9999501
CAJ050,海口故事園區,2025-12-01,23.57543,120.14121,0.9638192
C2K280,四湖,2025-12-01,23.6304,120.22717,0.98848
C2H9D0,三隻寮,2025-12-01,24.093078,120.861578,3.063399e-09
C0O990,媽廟,2025-12-01,22.99175,120.293525,0.999888
C0D480,打鐵坑,2025-12-01,24.849664,121.150789,0.9998805
C0Z220,和平林道,2025-12-01,24.343922,121.656317,1.3730093e-08
C0TA10,花蓮漁港,2025-12-01,23.995322,121.638331,3.190269e-06
72C440,桃園農改場,2025-12-01,24.950944,121.030583,0.13312232
C1E711,馬拉邦山,2025-12-01,24.367306,120.901656,1.97549e-08
C0SB20,富岡,2025-12-01,22.792467,121.192669,0.998161
C0D560,竹東,2025-12-01,24.767147,121.057881,0.84447426
C0F9U0,南屯,2025-12-01,24.137006,120.637969,0.99976397
C0M720,番路,2025-12-01,23.464657,120.554156,0.41281277
C0F0A0,雪山圈谷,2025-12-01,24.388594,121.236339,3.7238998e-08
C1A9N0,四十份,2025-12-01,24.934158,121.593283,0.0038767147
C0U760,東澳,2025-12-01,24.52196,121.83318,3.3595565e-08
C0X230,鹽水,2025-12-01,23.272621,120.247641,0.99979997
C2H9H0,苗改南投蜂場,2025-12-01,23.852589,120.693481,0.0010845285
C0R950,萬隆國小,2025-12-01,22.507667,120.587817,0.9996665
467540,大武,2025-12-01,22.35572,120.90374,0.99970394
C0V370,古亭坑,2025-12-01,22.893178,120.401947,0.9998504
C1I340,新興橋,2025-12-01,23.563333,120.868728,7.0807746e-09
C0SA80,土坂,2025-12-01,22.453108,120.887572,0.99990135
C0R160,鹽埔,2025-12-01,22.739558,120.530778,0.93670547
C0AC40,大屯山,2025-12-01,25.175675,121.522408,4.0062872e-07
466850,五分山雷達站,2025-12-01,25.071182,121.781205,6.424756e-08
C2H9L0,馬烈霸,2025-12-01,24.1512,121.201772,7.590422e-09
C1AI50,國三N016K,2025-12-01,25.034164,121.619664,0.991184
C1V600,藤枝,2025-12-01,23.071961,120.757042,9.301381e-09
C1E601,南勢,2025-12-01,24.572486,120.734842,0.8866442
C0O980,新市,2025-12-01,23.061614,120.298197,0.99988997
C0K420,西螺,2025-12-01,23.800407,120.467394,0.99904794
C0Z050,佳心,2025-12-01,23.34567,121.21316,2.230247e-08
C0AD30,蘆洲,2025-12-01,25.086594,121.472331,0.98129845
C0V610,梓官,2025-12-01,22.760558,120.267211,0.9998703
K2F750,種苗改良場,2025-12-01,24.225972,120.800917,0.005224069
C0UA80,大溪漁港,2025-12-01,24.941801,121.902955,0.99674666
C1AI60,國一39K邊坡,2025-12-01,25.064361,121.383836,0.9974859
C0W150,金寧,2025-12-01,24.457703,118.328989,0.9990337
C0R960,內埔,2025-12-01,22.608483,120.570714,0.9997116
V2C250,八德合作社,2025-12-01,24.93775,121.266389,0.9955782
C2H9S0,龍南,2025-12-01,23.953536,120.833183,1.3872266e-08
C0AH40,平等,2025-12-01,25.129142,121.577086,0.2642224
C0R540,佳冬,2025-12-01,22.419456,120.552375,0.9998426
466950,彭佳嶼,2025-12-01,25.627975,122.079744,0.999876
C0A890,雙溪,2025-12-01,25.036003,121.864242,0.6958989
C0C480,桃園,2025-12-01,24.992425,121.323172,0.992996
C0AH50,林口,2025-12-01,25.072181,121.38084,0.9955075
A2K360,水試臺西試驗場,2025-12-01,23.717231,120.190522,0.966952
C2M960,外寮,2025-12-01,23.562643,120.665688,1.0864733e-08
C0F9S0,烏日,2025-12-01,24.107058,120.624103,0.9986648
C0C490,八德,2025-12-01,24.928708,121.283289,0.99612266
C0R190,赤山,2025-12-01,22.592333,120.614306,0.9997019
C0T820,天祥,2025-12-01,24.179597,121.495639,2.0788704e-08
C1F9E1,龍安,2025-12-01,24.1605,120.831961,0.008056723
C0V820,小林,2025-12-01,23.148408,120.63325,9.22161e-08
C2G870,芳苑,2025-12-01,23.922303,120.320025,0.99668914
C0E850,大河,2025-12-01,24.618069,120.948578,0.99987155
C1U670,寒溪,2025-12-01,24.634,121.71691,2.8056155e-07
C0N020,城西,2025-12-01,23.0568,120.0956,0.99985355
C1Z110,三棧,2025-12-01,24.11557,121.60501,4.1869647e-08
C0R280,檳榔,2025-12-01,22.076078,120.836777,0.2701567
C2H9J0,中台,2025-12-01,23.9996,120.938739,1.0534901e-08
C0F9L0,后里,2025-12-01,24.310436,120.729725,0.02190062
467441,高雄,2025-12-01,22.730432,120.312516,0.99986744
C0Z180,新城,2025-12-01,24.040486,121.604878,1.9289973e-06
C0D540,橫山,2025-12-01,24.71116,121.11693,0.9998507
C1D420,太閣南,2025-12-01,24.632808,121.160575,1.3610596e-08
C1E770,公館,2025-12-01,24.526914,120.830806,0.9999317
CAN130,水試所海水繁養殖中心,2025-12-01,23.120802,120.07968,0.99978256
C1I430,翠華,2025-12-01,24.191961,121.224339,1.5628455e-08
C1M400,菜瓜坪,2025-12-01,23.251928,120.576103,1.904162e-07
C0G730,二林,2025-12-01,23.903325,120.376081,0.9998117
72M360,南改義竹分場,2025-12-01,23.360694,120.279361,0.9998157
V2K620,麥寮合作社,2025-12-01,23.753836,120.294783,0.9995779
C0Z070,舞鶴,2025-12-01,23.46811,121.37407,3.488219e-08
C0B040,大武崙,2025-12-01,25.166676,121.706993,0.7141928
C1Z030,紅葉,2025-12-01,23.493119,121.338806,6.8896284e-08
C1I050,丹大,2025-12-01,23.753747,121.141147,1.3639026e-08
C0I080,信義,2025-12-01,23.689694,120.851036,0.00016365576
C0D750,樂山林道6k,2025-12-01,24.49999,121.08773,1.5025124e-08
C2M920,朴子農改,2025-12-01,23.469889,120.259383,0.9996899
C2A880,福隆,2025-12-01,25.017842,121.942083,0.99873424
C0Z160,鳳林,2025-12-01,23.746114,121.453411,1.14969744e-07
C0UB80,翠峰林道6K,2025-12-01,24.49773,121.568625,1.4080647e-08
C0V210,復興,2025-12-01,23.222403,120.806089,5.9322653e-09
C0H990,昆陽,2025-12-01,24.121322,121.273642,2.636272e-08
C0R741,獅子,2025-12-01,22.202308,120.705236,0.8945833
C0S710,鹿野,2025-12-01,22.917711,121.122994,2.2490127e-05
C0I530,小奇萊,2025-12-01,24.131764,121.295717,2.7641967e-08
C0FA70,大雪山埡口,2025-12-01,24.26867,121.03062,2.0457975e-08
C2K630,荷苞,2025-12-01,23.657717,120.595144,0.06925174
C0Z080,富源,2025-12-01,23.587642,121.378225,3.14894e-08
C0SB10,美和,2025-12-01,22.682078,121.060236,0.9709305
C2K620,馬光農場,2025-12-01,23.721453,120.378864,0.9994488
C1I140,卡奈托灣,2025-12-01,23.754364,121.087872,4.247539e-09
C0I520,玉山風口,2025-12-01,23.470489,120.955994,3.917365e-08
C1G691,下水埔,2025-12-01,23.816114,120.5676,0.5739601
C0X110,臺南市南區,2025-12-01,22.961189,120.188378,0.999888
C0V680,仁武,2025-12-01,22.701083,120.347722,0.99963814
C2G840,北斗,2025-12-01,23.877586,120.514222,0.9998378
C0R900,竹坑,2025-12-01,22.1385,120.7022,0.8651191
C0K250,崙背,2025-12-01,23.75555,120.318925,0.99997205
C0G860,社頭,2025-12-01,23.897647,120.5862,0.999132
C0X150,安定,2025-12-01,23.102614,120.227839,0.9998854
C0R590,里港,2025-12-01,22.77919,120.49459,0.99840814
C0E610,馬都安,2025-12-01,24.451272,120.930192,1.21832845e-05
C0E550,明德,2025-12-01,24.583486,120.885411,0.9935442
C0R150,三地門,2025-12-01,22.709889,120.639944,0.17298298
C0G910,花壇,2025-12-01,24.032076,120.549461,0.9997225
C1D400,鳥嘴山,2025-12-01,24.71909,121.28387,4.567203e-06
C0K500,元長,2025-12-01,23.64981,120.315024,0.9995842
C0F0B0,石岡,2025-12-01,24.276061,120.777644,0.008533459
C2V250,甲仙,2025-12-01,23.080106,120.591758,0.0032580222
C0SA20,金崙山,2025-12-01,22.567419,120.959667,4.808003e-07
C0V350,溪埔,2025-12-01,22.738578,120.446797,0.9967088
C0M660,溪口,2025-12-01,23.604131,120.403569,0.9997736
C1S880,壽卡,2025-12-01,22.238911,120.858903,0.9997228
72D680,桃改新埔分場,2025-12-01,24.834444,121.066111,0.32570657
