站號,站名,日期,lat,lon,BLBTSLS
C0K280,四湖,2025-10-25,23.630414,120.227125,0.31793657
A2K570,古坑花卉中心,2025-10-25,23.63353,120.55239,0.7602598
467571,新竹,2025-10-25,24.827853,121.014219,0.011048664
C0E430,南庄,2025-10-25,24.601775,121.000214,1.4137681e-05
C0E420,竹南,2025-10-25,24.708978,120.888897,0.99583626
C0M530,奮起湖,2025-10-25,23.493903,120.699253,4.105964e-09
C0C590,觀音,2025-10-25,25.027072,121.153317,0.971397
C0X060,下營,2025-10-25,23.22695,120.256261,0.3880351
C2D740,屯原,2025-10-25,24.067969,121.209389,7.4192155e-09
C0M810,里佳,2025-10-25,23.389125,120.716647,3.4446666e-09
C0K250,崙背,2025-10-25,23.75555,120.318925,0.758927
