站號,站名,日期,lat,lon,BlastGRU-TW
C0G940,竹塘,2025-09-28,23.848253,120.386764,0.99964124
467590,恆春,2025-09-28,22.003897,120.746339,0.9898803
C0E820,獅潭,2025-09-28,24.539133,120.920042,0.99986017
C0AD40,土城,2025-09-28,24.973208,121.445169,0.9974185
C0F9Z0,雪山東峰,2025-09-28,24.388792,121.268675,0.34102142
467650,日月潭,2025-09-28,23.881325,120.90805,0.99933213
C0G830,埤頭,2025-09-28,23.866003,120.452806,0.9996187
467110,金門,2025-09-28,24.407306,118.289281,0.9592383
C0AH80,深坑,2025-09-28,25.002703,121.628328,0.9983708
C0A970,三貂角,2025-09-28,25.007606,122.002058,0.9978745
C0K430,褒忠,2025-09-28,23.690938,120.303634,0.9995585
467480,嘉義,2025-09-28,23.495925,120.432906,0.99832237
C0E960,觀霧分站,2025-09-28,24.505781,121.113921,0.9945998
467550,玉山,2025-09-28,23.48718,120.95943,0.15632954
C0K280,四湖,2025-09-28,23.630414,120.227125,0.999602
C0K390,土庫,2025-09-28,23.679029,120.395574,0.9996884
C0E910,海埔,2025-09-28,24.648767,120.772435,0.99937916
C0F0C0,中坑,2025-09-28,24.248517,120.903319,0.99971354
C0A770,科教館,2025-09-28,25.096356,121.516507,0.9967479
C0AJ60,六塊厝,2025-09-28,25.24,121.4481,0.99781424
467420,永康,2025-09-28,23.038386,120.2367,0.7876322
C0I410,名間,2025-09-28,23.837053,120.701447,0.99976
C0K450,大埤,2025-09-28,23.646074,120.431537,0.999645
467080,宜蘭,2025-09-28,24.763975,121.756528,0.99317497
467410,臺南,2025-09-28,22.99328,120.20492,0.8282156
C0D660,新竹市東區,2025-09-28,24.798681,120.986942,0.9994026
467050,新屋,2025-09-28,25.006725,121.047492,0.99971414
C0C710,大溪永福,2025-09-28,24.892936,121.324975,0.9997288
C0FA20,溫寮,2025-09-28,24.372177,120.583125,0.9998334
C0C660,楊梅,2025-09-28,24.912375,121.143047,0.99973
C0F9M0,豐原,2025-09-28,24.254322,120.720692,0.9998276
C0C740,觀音工業區,2025-09-28,25.064764,121.114856,0.9996874
C0AJ90,澳底,2025-09-28,25.0552,121.9253,0.99347824
C0G970,三豐,2025-09-28,23.882,120.2895,0.9996009
C0C800,四稜,2025-09-28,24.64733,121.4293,0.9921009
C0F9I0,神岡,2025-09-28,24.272481,120.658314,0.9997793
C0K460,斗南,2025-09-28,23.678734,120.478359,0.99966353
467280,後龍,2025-09-28,24.648563,120.831834,0.9995134
466930,竹子湖,2025-09-28,25.162078,121.544547,0.9987666
C0I390,仁愛,2025-09-28,24.022122,121.132206,0.9996776
C0K510,水林,2025-09-28,23.572924,120.24597,0.99733967
C0A570,桶後,2025-09-28,24.848222,121.597992,0.99627566
C0G720,溪州,2025-09-28,23.851589,120.499093,0.9996512
C0AH70,松山,2025-09-28,25.04871,121.55042,0.99711823
C0FB30,八仙山苗圃,2025-09-28,24.192719,121.001366,0.9997356
C0E791,卓蘭,2025-09-28,24.3126,120.8244,0.999307
C0C790,東眼山,2025-09-28,24.8284,121.40888,0.99703777
C0G920,永靖,2025-09-28,23.924703,120.547533,0.9998138
C0F9X0,大雅(中科園區),2025-09-28,24.21528,120.62445,0.99970216
C0C730,中大臨海站,2025-09-28,24.966126,121.008581,0.9996803
C0E870,高鐵苗栗,2025-09-28,24.60725,120.826094,0.9998262
C0I420,國姓,2025-09-28,24.037803,120.855072,0.9995529
467620,蘭嶼,2025-09-28,22.0369,121.55843,0.9992977
C0G740,大城,2025-09-28,23.852487,120.320935,0.9996336
C0D360,梅花,2025-09-28,24.678347,121.208558,0.99952585
C0AI10,屈尺,2025-09-28,24.92184,121.54475,0.9988334
C0G900,線西,2025-09-28,24.143358,120.443536,0.999812
C0C720,竹圍,2025-09-28,25.112692,121.239824,0.99784577
C0F9P0,清水,2025-09-28,24.312297,120.562242,0.9998321
C0FA80,小雪山天池,2025-09-28,24.28025,121.02627,0.969358
467300,東吉島,2025-09-28,23.25727,119.66762,0.9798359
C0F9O0,潭子,2025-09-28,24.213106,120.703933,0.99978995
C0E780,銅鑼,2025-09-28,24.489681,120.790853,0.9997928
C0E830,苑裡,2025-09-28,24.439714,120.653053,0.9998268
467270,田中,2025-09-28,23.873803,120.581286,0.99949723
C0F970,大坑,2025-09-28,24.173142,120.722289,0.99969804
C0A931,三和,2025-09-28,25.233153,121.595236,0.9996121
C0I010,廬山,2025-09-28,24.033311,121.181808,0.99941957
C0E810,西湖,2025-09-28,24.562947,120.7485,0.99951464
C0FB70,大甲溪埔,2025-09-28,24.370625,120.620067,0.9998244
C0AD10,八里,2025-09-28,25.150211,121.403947,0.99790615
C0K440,二崙,2025-09-28,23.772797,120.408944,0.999638
C0F9N0,大里,2025-09-28,24.092464,120.701378,0.99963313
C0AC70,信義,2025-09-28,25.037822,121.564597,0.99718124
C0AJ50,水湳洞,2025-09-28,25.123695,121.862238,0.9981858
C0AI20,白沙灣,2025-09-28,25.283128,121.519058,0.9982566
C0A860,大坪,2025-09-28,25.165914,121.632969,0.999578
C0E590,通霄,2025-09-28,24.471892,120.704622,0.999611
C0A550,泰平,2025-09-28,24.971197,121.823711,0.9995386
C0I360,水里,2025-09-28,23.812553,120.849792,0.99917006
C0AJ20,野柳,2025-09-28,25.20703,121.690021,0.99755996
C0B060,暖暖,2025-09-28,25.0957,121.7403,0.9987881
C0E930,龍鳳,2025-09-28,24.700034,120.859125,0.99923015
C0D690,外湖,2025-09-28,24.917735,120.968711,0.9996905
C0C750,新興坑尾,2025-09-28,25.0061,121.0971,0.99975926
C0AH90,福山植物園,2025-09-28,24.760717,121.58135,0.99934477
C0I540,奇萊稜線,2025-09-28,24.109231,121.326456,0.43915173
C0AG80,中和,2025-09-28,24.991622,121.491792,0.99744034
467571,新竹,2025-09-28,24.827853,121.014219,0.9993066
C0G810,埔心,2025-09-28,23.947633,120.525456,0.9998096
C0A640,石碇,2025-09-28,24.993969,121.662917,0.9992999
C0F9Y0,桃山,2025-09-28,24.432739,121.303808,0.22222337
C0FB40,中橫21.6k,2025-09-28,24.2499,121.1455,0.9983651
C0G820,田尾,2025-09-28,23.901669,120.509389,0.999811
C0E430,南庄,2025-09-28,24.601775,121.000214,0.9998603
466920,臺北,2025-09-28,25.037658,121.514853,0.9971182
466910,鞍部,2025-09-28,25.182586,121.529731,0.99683374
C0G620,芬園,2025-09-28,24.015678,120.6213,0.99978644
C0FB10,出雲山苗圃,2025-09-28,24.23105,120.90475,0.9997125
C0F9Q0,外埔,2025-09-28,24.347817,120.705686,0.99979573
C0C670,龍潭,2025-09-28,24.870056,121.221389,0.9997274
C0D680,香山濕地,2025-09-28,24.783581,120.914988,0.9991139
C0G9B0,和美,2025-09-28,24.105169,120.492131,0.9997586
C0D650,湖口,2025-09-28,24.904794,121.043628,0.99977523
C0E420,竹南,2025-09-28,24.708978,120.888897,0.9994154
C0F9K0,大安,2025-09-28,24.345061,120.588025,0.999827
467290,古坑,2025-09-28,23.633639,120.551889,0.99977237
C0E740,造橋,2025-09-28,24.637056,120.864778,0.99946374
467990,馬祖,2025-09-28,26.169467,119.923158,0.99958163
C0D580,寶山,2025-09-28,24.735006,121.025192,0.9997282
C0AI30,三重,2025-09-28,25.057328,121.500629,0.9967479
C0AH00,汐止,2025-09-28,25.066881,121.658778,0.99711823
466881,新北,2025-09-28,24.959207,121.525196,0.9979472
C0A950,鼻頭角,2025-09-28,25.129036,121.923372,0.99226373
C0K470,林內,2025-09-28,23.748675,120.609642,0.9997126
C0A9C0,天母,2025-09-28,25.117494,121.537169,0.9980486
C0B050,八斗子,2025-09-28,25.144754,121.79167,0.99771607
C0F9T0,西屯,2025-09-28,24.179494,120.641275,0.99971646
C0E950,松安,2025-09-28,24.39792,120.98599,0.99969745
C0C620,蘆竹,2025-09-28,25.084275,121.265767,0.99825495
C0AJ40,石門,2025-09-28,25.273672,121.601198,0.99953604
C0E750,苗栗,2025-09-28,24.564569,120.824575,0.9995709
C0AJ70,田寮,2025-09-28,25.2698,121.4886,0.9981537
C0AI00,五股,2025-09-28,25.07445,121.42728,0.9997065
C0C460,復興,2025-09-28,24.820208,121.352281,0.99956584
C0ACA0,新莊,2025-09-28,25.051478,121.446756,0.99719924
467490,臺中,2025-09-28,24.145736,120.684075,0.9997633
C0AC80,文山,2025-09-28,25.00235,121.575728,0.99843264
C0F9R0,龍井,2025-09-28,24.184536,120.528972,0.9998133
C0D550,雪霸,2025-09-28,24.526972,121.11605,0.99638164
C0B020,基隆嶼,2025-09-28,25.19141,121.78391,0.997345
C0G960,福寶,2025-09-28,24.0443,120.3814,0.9997473
C0FA50,霧峰,2025-09-28,24.0419,120.6995,0.9997647
C0G950,防潮門,2025-09-28,24.1835,120.4871,0.9998143
C0K330,虎尾,2025-09-28,23.719183,120.442036,0.9996941
C0C680,龜山,2025-09-28,25.02846,121.38656,0.9995114
C0FA90,小雪山林道,2025-09-28,24.29515,121.03651,0.8285086
C0D670,海天一線,2025-09-28,24.831986,120.914438,0.9992335
C0B010,七堵,2025-09-28,25.094819,121.71713,0.997898
C0K410,北港,2025-09-28,23.573957,120.292802,0.9974767
C0F0E0,南湖圈谷,2025-09-28,24.363714,121.444667,0.9071926
467610,成功,2025-09-28,23.097486,121.373428,0.7894363
C0G890,伸港,2025-09-28,24.148933,120.484403,0.9998113
C0FA60,鞍馬山工作站,2025-09-28,24.267064,121.000793,0.995071
C0C700,中壢,2025-09-28,24.977661,121.256375,0.99973726
C0AJ30,淡水觀海,2025-09-28,25.184591,121.408616,0.99771506
C0A9F0,內湖,2025-09-28,25.079422,121.57545,0.99711823
C0K291,宜梧,2025-09-28,23.536281,120.169329,0.99684924
C0AJ80,板橋,2025-09-28,25.0107,121.4489,0.99729955
C0E730,頭份,2025-09-28,24.688247,120.912206,0.99940085
C0K480,莿桐,2025-09-28,23.761192,120.502372,0.99957466
467350,澎湖,2025-09-28,23.565503,119.563094,0.9987447
C0G800,埔鹽,2025-09-28,24.000394,120.431683,0.9997754
C0H960,草屯,2025-09-28,23.973672,120.68085,0.9997556
C0E920,通霄漁港,2025-09-28,24.498589,120.673876,0.99985623
C0AH10,永和,2025-09-28,25.01125,121.508111,0.99716806
C0AK10,太平里,2025-09-28,25.134937,121.364899,0.99804187
C0C590,觀音,2025-09-28,25.027072,121.153317,0.9997689
C0AI40,石牌,2025-09-28,25.115597,121.513139,0.9979042
C0G880,二水,2025-09-28,23.810742,120.6173,0.9996029
467660,臺東,2025-09-28,22.752211,121.154586,0.73839223
C0A940,金山,2025-09-28,25.223628,121.643967,0.9980927
C0D760,大坪苗圃,2025-09-28,24.5362,121.1108,0.9990951
467790,墾丁雷達站,2025-09-28,21.948235,120.808028,0.99389243
C0F850,東勢,2025-09-28,24.246428,120.833047,0.9994517
466900,淡水,2025-09-28,25.164889,121.448906,0.9980622
C0I370,魚池,2025-09-28,23.895703,120.94135,0.99971235
C0C630,大溪,2025-09-28,24.882853,121.265547,0.9996968
C0A520,山佳,2025-09-28,24.974944,121.402008,0.997894
C0I110,竹山,2025-09-28,23.761225,120.688156,0.99973774
C0G660,溪湖,2025-09-28,23.94835,120.479122,0.999805
C0AC60,三峽,2025-09-28,24.939025,121.369728,0.9996946
C0I490,萬大林道,2025-09-28,23.928228,121.091411,0.9994959
C0A980,社子,2025-09-28,25.109508,121.469681,0.9976701
C0E570,白沙屯,2025-09-28,24.549447,120.696803,0.9998456
C0FA40,臺中電廠,2025-09-28,24.2146,120.4907,0.9998132
C0H9C0,合歡山,2025-09-28,24.143442,121.272547,0.334254
C0D430,峨眉,2025-09-28,24.6905,121.017189,0.99966556
C0G780,秀水,2025-09-28,24.03405,120.503869,0.9998003
C0A530,坪林,2025-09-28,24.938183,121.70975,0.9996613
C0G770,福興,2025-09-28,24.041289,120.437669,0.9997726
C0H9A0,神木村,2025-09-28,23.532742,120.843667,0.99949867
C0I460,南投,2025-09-28,23.911469,120.687331,0.9996737
C0I480,梅峰,2025-09-28,24.085272,121.173572,0.9893902
C0AH30,五分山,2025-09-28,25.07125,121.780794,0.99742794
C0FA10,松柏,2025-09-28,24.429115,120.617482,0.9998318
C0C650,平鎮,2025-09-28,24.897503,121.214636,0.99969506
466940,基隆,2025-09-28,25.133314,121.740475,0.99781805
C0I380,集集,2025-09-28,23.828206,120.801467,0.9990256
466990,花蓮,2025-09-28,23.975128,121.613275,0.9881459
C0FB20,雪山橋,2025-09-28,24.23192,120.9786,0.9943962
C0D590,新豐,2025-09-28,24.87068,120.97721,0.9996944
C0A870,五指山,2025-09-28,25.132153,121.608692,0.99837285
C0G650,員林,2025-09-28,23.946503,120.585597,0.9997462
C0AD50,鶯歌,2025-09-28,24.951533,121.346294,0.9997178
C0K400,斗六,2025-09-28,23.720583,120.541127,0.99962807
C0D700,關西,2025-09-28,24.7977,121.1732,0.999742
467530,阿里山,2025-09-28,23.508208,120.813242,0.9931329
C0FA30,梧棲,2025-09-28,24.256003,120.523381,0.9998323
C0AK30,硬漢嶺,2025-09-28,25.136097,121.426372,0.9989712
C0F9V0,新社,2025-09-28,24.200172,120.815806,0.999799
C0H890,埔里,2025-09-28,23.972169,120.952425,0.9994605
C0F0D0,審馬陣,2025-09-28,24.381675,121.4203,0.88572806
C0FB00,大雪山,2025-09-28,24.254668,121.007374,0.9917053
C0E940,雪見,2025-09-28,24.42595,121.01347,0.9967023
C0D480,打鐵坑,2025-09-28,24.849664,121.150789,0.9997286
C0D560,竹東,2025-09-28,24.767147,121.057881,0.9996195
C0F9U0,南屯,2025-09-28,24.137006,120.637969,0.99979085
C0F0A0,雪山圈谷,2025-09-28,24.388594,121.236339,0.08032914
467540,大武,2025-09-28,22.35572,120.90374,0.17931293
C0AC40,大屯山,2025-09-28,25.175675,121.522408,0.9910768
466850,五分山雷達站,2025-09-28,25.071182,121.781205,0.9974401
C0K420,西螺,2025-09-28,23.800407,120.467394,0.9996657
C0AD30,蘆洲,2025-09-28,25.086594,121.472331,0.9969005
C0AH40,平等,2025-09-28,25.129142,121.577086,0.9994993
466950,彭佳嶼,2025-09-28,25.627975,122.079744,0.99939597
C0A890,雙溪,2025-09-28,25.036003,121.864242,0.9987341
C0C480,桃園,2025-09-28,24.992425,121.323172,0.99973345
C0AH50,林口,2025-09-28,25.072181,121.38084,0.9995771
C0F9S0,烏日,2025-09-28,24.107058,120.624103,0.9997664
C0C490,八德,2025-09-28,24.928708,121.283289,0.9997321
C0E850,大河,2025-09-28,24.618069,120.948578,0.999808
C0F9L0,后里,2025-09-28,24.310436,120.729725,0.9996041
467441,高雄,2025-09-28,22.730432,120.312516,0.3386626
C0D540,橫山,2025-09-28,24.71116,121.11693,0.9997836
C0G730,二林,2025-09-28,23.903325,120.376081,0.9998324
C0B040,大武崙,2025-09-28,25.166676,121.706993,0.9985032
C0I080,信義,2025-09-28,23.689694,120.851036,0.9998428
C0D750,樂山林道6k,2025-09-28,24.49999,121.08773,0.991638
C0H990,昆陽,2025-09-28,24.121322,121.273642,0.6633545
C0I530,小奇萊,2025-09-28,24.131764,121.295717,0.5959374
C0FA70,大雪山埡口,2025-09-28,24.26867,121.03062,0.971426
C0I520,玉山風口,2025-09-28,23.470489,120.955994,0.15286352
C0K250,崙背,2025-09-28,23.75555,120.318925,0.99956083
C0G860,社頭,2025-09-28,23.897647,120.5862,0.9997515
C0E610,馬都安,2025-09-28,24.451272,120.930192,0.9998313
C0E550,明德,2025-09-28,24.583486,120.885411,0.9996175
C0G910,花壇,2025-09-28,24.032076,120.549461,0.99980754
C0K500,元長,2025-09-28,23.64981,120.315024,0.999595
C0F0B0,石岡,2025-09-28,24.276061,120.777644,0.999746
