站號,站名,日期,lat,lon,BlastGRU-TW
C0R710,龍磐,2025-07-23,21.931672,120.838942,0.9766606
C1F9D1,白毛台,2025-07-23,24.158325,120.886933,0.9608144
C0G940,竹塘,2025-07-23,23.848253,120.386764,0.028295858
467590,恆春,2025-07-23,22.003897,120.746339,0.9975586
C1O850,環湖,2025-07-23,23.148617,120.418633,0.06746965
C0U710,太平山,2025-07-23,24.505486,121.525656,0.76562536
C0E820,獅潭,2025-07-23,24.539133,120.920042,0.31750098
C0V880,興達,2025-07-23,22.8778,120.2127,0.031571954
C0S890,關山,2025-07-23,23.0395,121.175017,0.9993359
C0SB30,新蘭,2025-07-23,22.869214,121.223228,0.99935436
C2R970,屏科大,2025-07-23,22.648275,120.619247,0.19578151
C1Z130,銅門,2025-07-23,23.965694,121.492842,0.99804604
C0AD40,土城,2025-07-23,24.973208,121.445169,0.10945005
CAN140,六官養殖協會,2025-07-23,23.22881,120.29962,0.044507183
C0X180,山上,2025-07-23,23.0757,120.363253,0.09802411
C0F9Z0,雪山東峰,2025-07-23,24.388792,121.268675,0.0042831698
C1M480,獨立山,2025-07-23,23.537022,120.607797,0.9750235
C0X220,學甲,2025-07-23,23.230367,120.182187,0.08765107
467650,日月潭,2025-07-23,23.881325,120.90805,0.6129584
C0K600,箔子寮,2025-07-23,23.6197,120.14,0.04594778
C0G830,埤頭,2025-07-23,23.866003,120.452806,0.023614677
C0S950,七塊厝,2025-07-23,22.954453,121.229922,0.99921834
467110,金門,2025-07-23,24.407306,118.289281,0.058530614
C0AH80,深坑,2025-07-23,25.002703,121.628328,0.117193736
C0A970,三貂角,2025-07-23,25.007606,122.002058,0.27879974
C2D730,寶山農場,2025-07-23,24.732444,120.976153,0.23035826
C0K430,褒忠,2025-07-23,23.690938,120.303634,0.4016252
467480,嘉義,2025-07-23,23.495925,120.432906,0.04549924
C0V400,阿公店,2025-07-23,22.804194,120.355528,0.13245437
C0E960,觀霧分站,2025-07-23,24.505781,121.113921,0.4564416
467550,玉山,2025-07-23,23.48718,120.95943,0.004339643
C0R440,大漢山,2025-07-23,22.405264,120.753181,0.95830935
C0K280,四湖,2025-07-23,23.630414,120.227125,0.09229017
C1F9B1,桐林,2025-07-23,24.066172,120.735194,0.033830248
C2H9U0,鳳鵬,2025-07-23,23.763919,120.788061,0.93495363
C0K390,土庫,2025-07-23,23.679029,120.395574,0.45820525
C1I450,望鄉山,2025-07-23,23.594153,120.944286,0.010896247
C0E910,海埔,2025-07-23,24.648767,120.772435,0.34904033
B2E890,畜試北區分所,2025-07-23,24.527806,120.770972,0.17999816
C0R750,四林格山,2025-07-23,22.076989,120.802439,0.90462023
C0F0C0,中坑,2025-07-23,24.248517,120.903319,0.8953169
C1I121,大鞍,2025-07-23,23.678381,120.760017,0.8294479
72U480,花改蘭陽分場,2025-07-23,24.686306,121.716583,0.38936985
C0A770,科教館,2025-07-23,25.096356,121.516507,0.09242646
C0AJ60,六塊厝,2025-07-23,25.24,121.4481,0.124890424
C0R620,墾雷,2025-07-23,21.900836,120.855269,0.9859138
467420,永康,2025-07-23,23.038386,120.2367,0.031197743
C0I410,名間,2025-07-23,23.837053,120.701447,0.34540734
A2C560,農工中心,2025-07-23,24.985917,121.239833,0.2773308
C0V740,旗山,2025-07-23,22.888614,120.483597,0.059783075
C0Z061,玉里,2025-07-23,23.3215,121.339656,0.9987563
C0S840,南田,2025-07-23,22.279725,120.889208,0.99819934
C1I470,杉林溪,2025-07-23,23.639517,120.786444,0.85141295
C1X040,東原,2025-07-23,23.291597,120.463822,0.0510393
C0R660,枋寮,2025-07-23,22.367722,120.590647,0.5734913
C1R120,上德文,2025-07-23,22.763272,120.704442,0.9868007
C0K450,大埤,2025-07-23,23.646074,120.431537,0.574946
C0UA00,土場,2025-07-23,24.576533,121.495333,0.97423446
467080,宜蘭,2025-07-23,24.763975,121.756528,0.25614437
C0N030,四草,2025-07-23,23.0235,120.1116,0.04984062
467410,臺南,2025-07-23,22.99328,120.20492,0.050096046
C0V650,彌陀,2025-07-23,22.783806,120.246361,0.059082847
C0D660,新竹市東區,2025-07-23,24.798681,120.986942,0.21656288
82S580,茶改東部分場,2025-07-23,22.907694,121.130139,0.99901175
C0SB40,興隆,2025-07-23,22.913661,121.257469,0.9993145
467050,新屋,2025-07-23,25.006725,121.047492,0.3335982
C0C710,大溪永福,2025-07-23,24.892936,121.324975,0.10324425
C0FA20,溫寮,2025-07-23,24.372177,120.583125,0.13852379
C0V640,湖內,2025-07-23,22.887139,120.2445,0.032456458
C0R910,下寮,2025-07-23,22.3929,120.5548,0.57369435
C0Z020,明里,2025-07-23,23.208717,121.262342,0.9990316
C0M770,嘉義梅山,2025-07-23,23.585398,120.555587,0.9401508
C0C660,楊梅,2025-07-23,24.912375,121.143047,0.3341262
C1E511,新開,2025-07-23,24.347703,120.827019,0.06028531
G2F820,農試所(霧峰),2025-07-23,24.031261,120.688133,0.04397206
C1I070,和社,2025-07-23,23.591131,120.888861,0.9475338
C0TA80,立霧山,2025-07-23,24.183258,121.641899,0.9881379
C2F000,大肚,2025-07-23,24.15295,120.572117,0.033101875
C1S850,豐南,2025-07-23,23.122139,121.262389,0.9990874
C2A920,富貴角,2025-07-23,25.263783,121.565258,0.42524472
CAH030,茶改場竹圍站,2025-07-23,23.860083,120.637528,0.9695137
C0T960,光復,2025-07-23,23.660694,121.424964,0.99700207
C0F9M0,豐原,2025-07-23,24.254322,120.720692,0.053722013
C0R720,旭海,2025-07-23,22.205403,120.887614,0.9780754
C0V710,苓雅,2025-07-23,22.622742,120.330669,0.29055163
C0C740,觀音工業區,2025-07-23,25.064764,121.114856,0.28909785
CAC040,拉拉山,2025-07-23,24.699317,121.427133,0.33312225
C0V790,萬山,2025-07-23,22.905944,120.688056,0.044814497
U2HA30,臺大和社,2025-07-23,23.590856,120.888864,0.9475338
C0AJ90,澳底,2025-07-23,25.0552,121.9253,0.42007148
C0Z100,東華,2025-07-23,23.89525,121.549833,0.99811214
C0G970,三豐,2025-07-23,23.882,120.2895,0.1547499
V2K610,大庄合作社,2025-07-23,23.8068,120.367939,0.15961382
C0V900,汕尾,2025-07-23,22.4782,120.4151,0.08509647
C1R630,龍泉,2025-07-23,22.66701,120.59091,0.15804909
C1AC50,關渡,2025-07-23,25.133486,121.469331,0.07806525
C0C800,四稜,2025-07-23,24.64733,121.4293,0.7526618
C0F9I0,神岡,2025-07-23,24.272481,120.658314,0.0763355
C0K460,斗南,2025-07-23,23.678734,120.478359,0.5978108
C2O810,曾文,2025-07-23,23.219681,120.497328,0.016984044
467280,後龍,2025-07-23,24.648563,120.831834,0.4625439
C1F9J1,清水林,2025-07-23,24.071242,120.820419,0.8785577
C2A650,火燒寮,2025-07-23,25.002719,121.742892,0.48980036
466930,竹子湖,2025-07-23,25.162078,121.544547,0.96214795
C1I220,樟湖,2025-07-23,23.905333,120.846983,0.5265936
C0I390,仁愛,2025-07-23,24.022122,121.132206,0.8228297
C0Z300,東里,2025-07-23,23.26853,121.30547,0.99918
C1V590,新發,2025-07-23,23.057019,120.646064,0.51080805
C0K510,水林,2025-07-23,23.572924,120.24597,0.28820503
72S590,東改賓朗果園,2025-07-23,22.813889,121.071278,0.99813396
82A750,茶改北部分場,2025-07-23,24.955778,121.631222,0.17129442
C1A750,石碇服務區,2025-07-23,25.00872,121.646242,0.15999411
C0X300,鹿寮,2025-07-23,23.386047,120.477331,0.024709051
G2AI50,關渡,2025-07-23,25.11575,121.492,0.21113959
C0K590,雲林東勢,2025-07-23,23.674192,120.255721,0.67170435
C0A570,桶後,2025-07-23,24.848222,121.597992,0.9858806
C1S800,華源,2025-07-23,22.657883,121.02325,0.8924633
C0G720,溪州,2025-07-23,23.851589,120.499093,0.024183108
C1V160,達卡努瓦,2025-07-23,23.279811,120.705319,0.7007488
C2M410,馬頭山,2025-07-23,23.324361,120.582017,0.10154526
C0V850,蚵仔寮,2025-07-23,22.7256,120.2527,0.14502639
C0S740,池上,2025-07-23,23.119628,121.209469,0.9974048
C1V390,尖山,2025-07-23,22.813153,120.367789,0.14870796
C0AH70,松山,2025-07-23,25.04871,121.55042,0.09374437
C0N010,鯤鯓國小,2025-07-23,23.1879,120.0889,0.1176754
C0R550,新埤,2025-07-23,22.467947,120.582894,0.09417461
C0SA60,知本（水試所）,2025-07-23,22.702394,121.082761,0.8427273
C0T9I0,豐濱,2025-07-23,23.583897,121.514806,0.9978227
C0UB00,淡江大學蘭陽校園,2025-07-23,24.823239,121.730383,0.997034
C0W240,九宮,2025-07-23,24.423753,118.240186,0.057185255
C0T9N0,富里,2025-07-23,23.171639,121.249378,0.99862486
U2HA50,臺大竹山,2025-07-23,23.756972,120.681556,0.66339
C0V840,鳳鼻頭,2025-07-23,22.5083,120.3591,0.037212323
C0X140,西港,2025-07-23,23.125608,120.203108,0.05066478
72D080,桃改五峰分場,2025-07-23,24.612194,121.157167,0.9445587
C2H9P0,伊拿谷,2025-07-23,23.963211,121.088264,0.6220002
C2H9F0,柑林,2025-07-23,24.018658,120.847072,0.030731054
C0TA20,加灣,2025-07-23,24.082025,121.608944,0.99840623
C0V530,阿蓮,2025-07-23,22.883208,120.327508,0.049048617
C0FB30,八仙山苗圃,2025-07-23,24.192719,121.001366,0.9125024
C1O880,關山,2025-07-23,23.173397,120.594092,0.062013093
C0E791,卓蘭,2025-07-23,24.3126,120.8244,0.04264508
C1I030,武界,2025-07-23,23.913225,121.052483,0.60040164
C0R520,崁頂,2025-07-23,22.514781,120.506914,0.110838465
C0R341,牡丹,2025-07-23,22.130036,120.792639,0.97639143
C0R930,萬丹,2025-07-23,22.5885,120.4851,0.023414062
C0S760,紅石,2025-07-23,23.069131,121.126219,0.92621905
C2C410,中央大學,2025-07-23,24.967652,121.185165,0.30468348
C1M610,石磐龍,2025-07-23,23.496606,120.663506,0.7102254
C0C790,東眼山,2025-07-23,24.8284,121.40888,0.95229894
C0UA10,鴛鴦湖,2025-07-23,24.590269,121.412228,0.6575479
V2C260,八德蔬果,2025-07-23,24.978508,121.281819,0.15035349
C0R800,丹路,2025-07-23,22.204481,120.750989,0.99680007
C0G920,永靖,2025-07-23,23.924703,120.547533,0.039910868
C2M950,太和,2025-07-23,23.538372,120.702961,0.68469864
C1A630,下盆,2025-07-23,24.771003,121.538622,0.3864852
B2N890,畜產試驗所,2025-07-23,23.058972,120.336406,0.034546863
C0UA30,白嶺,2025-07-23,24.527819,121.519031,0.8238237
C1V580,溪南(特生中心),2025-07-23,23.084972,120.788475,0.93729806
C1T970,大農,2025-07-23,23.615233,121.413331,0.99778026
C0R650,竹田,2025-07-23,22.58486,120.54344,0.20599969
C1H900,清流,2025-07-23,24.080775,120.962997,0.62622833
C1C510,水尾,2025-07-23,24.940081,121.087161,0.6308052
C0F9X0,大雅(中科園區),2025-07-23,24.21528,120.62445,0.07855165
C0SB60,白守蓮,2025-07-23,23.126769,121.401914,0.9986224
C0O970,虎頭埤,2025-07-23,23.021375,120.347878,0.09357278
C0C730,中大臨海站,2025-07-23,24.966126,121.008581,0.27976742
C0X250,新營,2025-07-23,23.310689,120.316681,0.03358894
C0V700,三民,2025-07-23,22.645017,120.311233,0.28538615
C0U870,大礁溪,2025-07-23,24.791042,121.675047,0.97459674
C0E870,高鐵苗栗,2025-07-23,24.60725,120.826094,0.60048974
A2K570,古坑花卉中心,2025-07-23,23.63353,120.55239,0.57320476
C0TA30,鹽寮,2025-07-23,23.845606,121.592664,0.9981415
C0M860,新美,2025-07-23,23.338017,120.683169,0.13128172
C1E701,八卦,2025-07-23,24.491756,120.927619,0.9631763
C0I420,國姓,2025-07-23,24.037803,120.855072,0.03551642
C2D720,關西工作站,2025-07-23,24.757275,121.184792,0.1600839
C0S960,香蘭,2025-07-23,22.587569,120.993375,0.74036324
467620,蘭嶼,2025-07-23,22.0369,121.55843,0.99877906
C0R260,春日,2025-07-23,22.370361,120.628306,0.68188715
72G600,臺中農改場,2025-07-23,24.003028,120.534389,0.03574253
C0Z210,瑞穗,2025-07-23,23.5239,121.39021,0.99827385
C0M820,達邦,2025-07-23,23.453994,120.749517,0.78678054
C0V860,南寮,2025-07-23,22.7616,120.2339,0.14484781
C0G740,大城,2025-07-23,23.852487,120.320935,0.16143964
C0R920,塭仔,2025-07-23,22.4169,120.5197,0.56311065
C0R470,高樹,2025-07-23,22.826389,120.600806,0.018289154
C0R680,佳樂水,2025-07-23,21.993578,120.861633,0.97613114
C1O870,大棟山,2025-07-23,23.31157,120.52226,0.56899434
C0D360,梅花,2025-07-23,24.678347,121.208558,0.94218266
C0Z190,富世,2025-07-23,24.14743,121.6297,0.9997763
C0AI10,屈尺,2025-07-23,24.92184,121.54475,0.10848134
B2U990,畜試東區分所,2025-07-23,24.669039,121.832561,0.30056253
C0SB80,長濱漁港,2025-07-23,23.313644,121.459994,0.99930567
C0TA50,和仁,2025-07-23,24.241394,121.712472,0.9995907
C0R240,來義,2025-07-23,22.527306,120.625111,0.16946414
C0V910,大樹,2025-07-23,22.684645,120.432803,0.014232056
C1R610,西大武山,2025-07-23,22.617719,120.7322,0.9442492
C0G900,線西,2025-07-23,24.143358,120.443536,0.09280038
C0M700,竹崎,2025-07-23,23.526178,120.555508,0.70408255
C2E880,三義,2025-07-23,24.405478,120.749819,0.61142355
C0C720,竹圍,2025-07-23,25.112692,121.239824,0.21097532
C0F9P0,清水,2025-07-23,24.312297,120.562242,0.11969268
C0Z150,吉安光華,2025-07-23,23.930925,121.595153,0.9984314
C0FA80,小雪山天池,2025-07-23,24.28025,121.02627,0.032277025
467300,東吉島,2025-07-23,23.25727,119.66762,0.8793543
C1D640,外坪(五指山),2025-07-23,24.644447,121.090961,0.9758172
C0F9O0,潭子,2025-07-23,24.213106,120.703933,0.08336264
C2H9R0,卓社,2025-07-23,23.887894,121.000086,0.8460618
72T250,花蓮農改場,2025-07-23,23.975222,121.563889,0.9980858
C0E780,銅鑼,2025-07-23,24.489681,120.790853,0.3503102
C1T950,太安,2025-07-23,23.666719,121.370128,0.8982067
C0E830,苑裡,2025-07-23,24.439714,120.653053,0.30540198
467270,田中,2025-07-23,23.873803,120.581286,0.01926121
C0SA10,檳榔四格山,2025-07-23,22.810031,121.109308,0.99819624
C1T830,布洛灣,2025-07-23,24.17184,121.57127,0.9982604
C0F970,大坑,2025-07-23,24.173142,120.722289,0.04980466
C1U920,思源,2025-07-23,24.393125,121.347214,0.615524
C0A931,三和,2025-07-23,25.233153,121.595236,0.21802233
C0I010,廬山,2025-07-23,24.033311,121.181808,0.87375534
C2M940,日野賀,2025-07-23,23.434056,120.727169,0.65559465
C0R860,鼻頭,2025-07-23,22.1043,120.8979,0.9690895
C0UB20,壯圍,2025-07-23,24.7359,121.8163,0.33073217
C0R790,九棚,2025-07-23,22.14195,120.889281,0.9343138
C0W110,東莒,2025-07-23,25.9652,119.98069,0.11940121
C1U930,粉鳥林,2025-07-23,24.497088,121.842479,0.9993932
C1I211,蘆竹湳,2025-07-23,23.934019,120.811994,0.33089566
C0S830,長濱,2025-07-23,23.286817,121.411975,0.9983334
C1F9F1,伯公龍,2025-07-23,24.272392,120.849047,0.4227028
C0UB90,太平山莊,2025-07-23,24.494171,121.536209,0.748061
C0E810,西湖,2025-07-23,24.562947,120.7485,0.44776726
C1I440,新高口,2025-07-23,23.478744,120.878939,0.1707043
C0O840,王爺宮,2025-07-23,23.222064,120.40085,0.011218067
C0T9G0,鳳林山,2025-07-23,23.735269,121.420131,0.9951561
C0X080,佳里,2025-07-23,23.173039,120.145086,0.11761429
C0FB70,大甲溪埔,2025-07-23,24.370625,120.620067,0.17474009
C0Z310,清水斷崖,2025-07-23,24.218294,121.689142,0.9992124
C0M680,太保,2025-07-23,23.455062,120.331455,0.02540825
C1S820,金峰,2025-07-23,22.590969,120.933236,0.74751574
C0AD10,八里,2025-07-23,25.150211,121.403947,0.21098657
C2K240,草嶺,2025-07-23,23.59555,120.693461,0.78274906
C1SA70,都蘭,2025-07-23,22.87794,121.226881,0.99931276
C0K440,二崙,2025-07-23,23.772797,120.408944,0.042614136
C1A760,坪林交控,2025-07-23,24.94284,121.713442,0.23794636
C0F9N0,大里,2025-07-23,24.092464,120.701378,0.013751559
C0SA90,達仁林場,2025-07-23,22.264347,120.823972,0.95152426
C1R290,石門山,2025-07-23,22.112611,120.756597,0.92725265
42HA10,萬大發電廠,2025-07-23,23.978875,121.139639,0.49615443
C0R890,山海,2025-07-23,21.9878,120.7091,0.90052557
C0T9A0,月眉山,2025-07-23,23.809928,121.539828,0.99509066
C0AC70,信義,2025-07-23,25.037822,121.564597,0.09361076
C0K560,棋山,2025-07-23,23.68645,120.603417,0.6007922
C2FB50,出雲,2025-07-23,24.206469,120.902794,0.8226881
C1Z240,中平林道,2025-07-23,23.42115,121.26763,0.94278026
U2H480,溪頭,2025-07-23,23.670306,120.798194,0.82588786
C0M880,好美里,2025-07-23,23.3364,120.138,0.10086984
C0T9E0,大坑,2025-07-23,23.880628,121.581981,0.99724334
C0K530,臺西,2025-07-23,23.701547,120.197559,0.08510249
C1E900,國一N128K,2025-07-23,24.560997,120.844186,0.32521406
C0AJ50,水湳洞,2025-07-23,25.123695,121.862238,0.1336797
C0AI20,白沙灣,2025-07-23,25.283128,121.519058,0.13299404
C2V310,美濃,2025-07-23,22.898792,120.51907,0.058624305
C0A860,大坪,2025-07-23,25.165914,121.632969,0.49673545
C1U850,觀音海岸,2025-07-23,24.38319,121.77856,0.9960526
C2K610,草嶺石壁,2025-07-23,23.602469,120.707731,0.7842975
C0U950,鶯子嶺,2025-07-23,24.89754,121.79244,0.81725717
C0O900,善化,2025-07-23,23.112883,120.297219,0.030239774
C0K550,蔦松,2025-07-23,23.514319,120.229736,0.40635744
E2P980,林試六龜中心,2025-07-23,22.991703,120.645722,0.0167565
C0E590,通霄,2025-07-23,24.471892,120.704622,0.24255782
C1I310,西巒,2025-07-23,23.754486,120.883956,0.58157295
C0A550,泰平,2025-07-23,24.971197,121.823711,0.21342357
C0I360,水里,2025-07-23,23.812553,120.849792,0.9725411
C0R830,高士,2025-07-23,22.121825,120.836781,0.9190836
C1I101,溪頭,2025-07-23,23.661789,120.807647,0.8687978
C0AJ20,野柳,2025-07-23,25.20703,121.690021,0.07670386
C0B060,暖暖,2025-07-23,25.0957,121.7403,0.121574685
C1H920,長豐,2025-07-23,24.102039,120.879897,0.724591
C0V360,內門,2025-07-23,22.975481,120.466769,0.04103257
C0R850,林邊,2025-07-23,22.4634,120.5339,0.08829668
C0E930,龍鳳,2025-07-23,24.700034,120.859125,0.5468653
C0U910,冬山,2025-07-23,24.63373,121.7937,0.3005627
C1E721,泰安,2025-07-23,24.489017,120.968036,0.86513966
82H320,茶改中部分場,2025-07-23,23.875611,120.913583,0.53069395
C0M750,布袋,2025-07-23,23.380878,120.167789,0.32439706
C1S860,利嘉,2025-07-23,22.809417,121.050528,0.9708969
E2S980,林試太麻里1,2025-07-23,22.598922,120.980044,0.7416492
C0X170,關廟,2025-07-23,22.963017,120.327797,0.058419302
C0V720,林園,2025-07-23,22.507747,120.394511,0.02545279
C1I510,線浸林道,2025-07-23,23.761508,120.832956,0.58629286
C0D690,外湖,2025-07-23,24.917735,120.968711,0.31004164
C0C750,新興坑尾,2025-07-23,25.0061,121.0971,0.48404637
B2Q810,畜試南區分所,2025-07-23,21.945583,120.802167,0.97629535
C0S790,金崙,2025-07-23,22.538122,120.966875,0.8368679
C0AH90,福山植物園,2025-07-23,24.760717,121.58135,0.057081416
C0I540,奇萊稜線,2025-07-23,24.109231,121.326456,0.007411204
C0M850,表湖,2025-07-23,23.24186,120.64166,0.16174862
C0S770,大溪山,2025-07-23,22.478475,120.943325,0.97466946
C0AG80,中和,2025-07-23,24.991622,121.491792,0.109414496
C0T790,大禹嶺,2025-07-23,24.186117,121.316086,0.02005224
C0T9B0,水源,2025-07-23,23.991861,121.537169,0.9971287
C0R840,牡丹池山,2025-07-23,22.168389,120.841225,0.8678982
C1I131,桶頭,2025-07-23,23.641944,120.654117,0.9163008
CAL110,布袋國中,2025-07-23,23.35893,120.18026,0.27059165
467571,新竹,2025-07-23,24.827853,121.014219,0.32506353
C0Z290,赤柯山,2025-07-23,23.36893,121.38293,0.99713445
C0X280,將軍,2025-07-23,23.214999,120.13577,0.08447728
C0S690,太麻里,2025-07-23,22.60902,120.98533,0.8710058
C0U880,北關,2025-07-23,24.9072,121.8734,0.068724625
C0G810,埔心,2025-07-23,23.947633,120.525456,0.039343808
C0U970,大福,2025-07-23,24.80064,121.81389,0.24379802
C2H9N0,仁愛東眼,2025-07-23,24.026875,121.1205,0.89575154
C1E670,南礦,2025-07-23,24.538278,121.002836,0.9202208
C0M520,東後寮,2025-07-23,23.369908,120.248065,0.2774556
C1E461,松安,2025-07-23,24.397972,120.986022,0.8892245
C2N160,西拉雅風管處,2025-07-23,23.189481,120.335297,0.02358721
C2M970,碧湖,2025-07-23,23.568632,120.624165,0.7809063
C0A640,石碇,2025-07-23,24.993969,121.662917,0.83823556
E2S960,林試太麻里2,2025-07-23,22.598,120.99775,0.7386072
C0F9Y0,桃山,2025-07-23,24.432739,121.303808,0.004142656
C1I020,萬大,2025-07-23,23.979817,121.132261,0.8191135
C0U940,羅東,2025-07-23,24.68184,121.74934,0.3674747
C0M650,朴子,2025-07-23,23.43463,120.23902,0.23128797
C1I500,大尖山,2025-07-23,23.858572,120.994889,0.8729879
C0FB40,中橫21.6k,2025-07-23,24.2499,121.1455,0.79322976
C0G820,田尾,2025-07-23,23.901669,120.509389,0.039630175
E2K600,四湖植物園,2025-07-23,23.676986,120.163433,0.092560604
C0S730,綠島,2025-07-23,22.6672,121.47533,0.9916483
12Q970,東港工作站,2025-07-23,22.479997,120.466058,0.085438736
C0E430,南庄,2025-07-23,24.601775,121.000214,0.3304038
C1TA00,太魯閣,2025-07-23,24.15773,121.6236,0.99971396
466920,臺北,2025-07-23,25.037658,121.514853,0.09374437
C0R600,舊泰武,2025-07-23,22.588194,120.664944,0.97403055
C1I260,北坑,2025-07-23,23.9246,121.006903,0.41808355
466910,鞍部,2025-07-23,25.182586,121.529731,0.961502
C1I230,九份二山,2025-07-23,23.961944,120.845,0.6568264
C2A660,瑞芳,2025-07-23,25.113169,121.801147,0.15867104
C0R270,琉球嶼,2025-07-23,22.332244,120.362236,0.48232496
C1T990,高寮,2025-07-23,23.394239,121.356808,0.9981339
C0G620,芬園,2025-07-23,24.015678,120.6213,0.030855577
C1Z140,荖溪,2025-07-23,23.890575,121.45964,0.938442
C1I201,中心崙,2025-07-23,23.728722,120.712097,0.9894722
C1I400,凌霄,2025-07-23,24.018778,121.004456,0.89562744
C1M640,十字,2025-07-23,23.492153,120.753683,0.8540228
G2P820,農試鳳山分所,2025-07-23,22.646611,120.356083,0.3071927
C0Z270,蕃薯寮,2025-07-23,23.73835,121.540108,0.99579513
C0FB10,出雲山苗圃,2025-07-23,24.23105,120.90475,0.89503497
C0F9Q0,外埔,2025-07-23,24.347817,120.705686,0.06687736
C0K580,高鐵雲林,2025-07-23,23.737456,120.417944,0.39863753
C2I090,鳳凰,2025-07-23,23.728081,120.787347,0.69049126
C0U990,員山,2025-07-23,24.74435,121.72247,0.35024202
C0V770,大社,2025-07-23,22.730306,120.346639,0.15504754
C0X120,麻豆,2025-07-23,23.183289,120.248611,0.036631916
C0C670,龍潭,2025-07-23,24.870056,121.221389,0.32436273
C0D680,香山濕地,2025-07-23,24.783581,120.914988,0.14393786
C0S980,勝林山,2025-07-23,22.430439,120.8938,0.9823874
C0V730,大寮,2025-07-23,22.605614,120.395717,0.22919519
C0R570,麟洛,2025-07-23,22.65078,120.52719,0.010511362
C2M930,石卓,2025-07-23,23.478744,120.702264,0.85735506
C0G9B0,和美,2025-07-23,24.105169,120.492131,0.049403433
CAG100,王功漁港,2025-07-23,23.96824,120.32586,0.07072982
C0X290,北門,2025-07-23,23.267772,120.125481,0.08428026
C2F930,大甲,2025-07-23,24.347667,120.640403,0.29380974
C0D650,湖口,2025-07-23,24.904794,121.043628,0.6062808
C0E420,竹南,2025-07-23,24.708978,120.888897,0.65662664
C0U780,五結,2025-07-23,24.68637,121.79794,0.33208966
C1I250,鯉潭,2025-07-23,23.961922,120.991131,0.66424286
C0R130,阿禮,2025-07-23,22.742908,120.743678,0.9874297
C0X100,臺南市北區,2025-07-23,23.010394,120.194228,0.0463645
C0S920,金峰嘉蘭,2025-07-23,22.594789,120.960825,0.7440614
C0V490,新興,2025-07-23,22.627422,120.298803,0.28907418
C0F9K0,大安,2025-07-23,24.345061,120.588025,0.16529521
467290,古坑,2025-07-23,23.633639,120.551889,0.57320476
C2E970,八甲,2025-07-23,24.535811,120.795983,0.5542041
C0V440,鳳山,2025-07-23,22.646653,120.356122,0.3071927
C1T940,大觀,2025-07-23,23.714206,121.373133,0.99540967
C0E740,造橋,2025-07-23,24.637056,120.864778,0.41681293
C0R100,尾寮山,2025-07-23,22.833111,120.683889,0.9863671
A2K630,臺大雲林校區,2025-07-23,23.730628,120.423903,0.40014055
467990,馬祖,2025-07-23,26.169467,119.923158,0.27399725
C0D580,寶山,2025-07-23,24.735006,121.025192,0.086697906
E2P990,林試扇平站,2025-07-23,22.9677,120.6857,0.9540677
C0AI30,三重,2025-07-23,25.057328,121.500629,0.09242646
C0AH00,汐止,2025-07-23,25.066881,121.658778,0.09374437
C1Z040,立山,2025-07-23,23.443356,121.327375,0.99857694
466881,新北,2025-07-23,24.959207,121.525196,0.11292507
C0W130,花嶼,2025-07-23,23.40007,119.32276,0.8645517
C0A950,鼻頭角,2025-07-23,25.129036,121.923372,0.67054945
C0K470,林內,2025-07-23,23.748675,120.609642,0.617095
C2F990,摩天嶺,2025-07-23,24.322458,120.936819,0.90676725
82C160,茶改場,2025-07-23,24.908472,121.185333,0.5840241
C0Z320,清水林道,2025-07-23,23.27125,121.188272,0.99835145
C0R760,南仁湖,2025-07-23,22.084681,120.863353,0.92676544
C0M670,大林,2025-07-23,23.600616,120.45841,0.21076469
C0M800,茶山,2025-07-23,23.299075,120.664767,0.05353599
C0A9C0,天母,2025-07-23,25.117494,121.537169,0.07094084
72K220,南改斗南分場,2025-07-23,23.634556,120.477333,0.6058381
72AI40,桃改樹林分場,2025-07-23,24.944503,121.386972,0.120365776
C0S910,蘭嶼燈塔,2025-07-23,22.081197,121.503117,0.999594
C0B050,八斗子,2025-07-23,25.144754,121.79167,0.12750863
C0U900,內城,2025-07-23,24.71813,121.68766,0.4318009
C0X320,柳營,2025-07-23,23.253328,120.375253,0.024635334
C0M790,新港,2025-07-23,23.553269,120.345728,0.23445466
C0F9T0,西屯,2025-07-23,24.179494,120.641275,0.04271484
C0E950,松安,2025-07-23,24.39792,120.98599,0.8892245
C0SA30,都歷,2025-07-23,23.020333,121.323642,0.9996159
C0C620,蘆竹,2025-07-23,25.084275,121.265767,0.24385603
C0R730,大坪頂,2025-07-23,22.024633,120.69355,0.8946497
C0AJ40,石門,2025-07-23,25.273672,121.601198,0.3013606
C0E750,苗栗,2025-07-23,24.564569,120.824575,0.30678067
C0T870,鯉魚潭,2025-07-23,23.935639,121.508944,0.99810135
C1V170,排雲,2025-07-23,23.463619,120.954147,0.0071472544
C2H950,中寮,2025-07-23,23.884447,120.766406,0.58249557
C0R350,貓鼻頭,2025-07-23,21.921774,120.7358,0.96767426
C0V660,岡山,2025-07-23,22.797078,120.294958,0.059339594
C1H941,雙冬,2025-07-23,23.967378,120.802189,0.44674054
C0AJ70,田寮,2025-07-23,25.2698,121.4886,0.12885532
C0AI00,五股,2025-07-23,25.07445,121.42728,0.30629933
C0Z280,德武,2025-07-23,23.47426,121.41071,0.99857914
C0R700,枋山,2025-07-23,22.246844,120.661086,0.8726346
C0C460,復興,2025-07-23,24.820208,121.352281,0.67568094
E2H360,蓮華池,2025-07-23,23.918333,120.885278,0.51652366
C0M640,中埔,2025-07-23,23.42538,120.5229,0.21081547
C0W140,金沙,2025-07-23,24.488292,118.408778,0.06016106
C2A540,四堵,2025-07-23,24.8926,121.745736,0.096427985
C0ACA0,新莊,2025-07-23,25.051478,121.446756,0.100357555
C0R220,潮州,2025-07-23,22.534361,120.54,0.11492649
U2HA40,臺大內茅埔,2025-07-23,23.689722,120.851117,0.32565078
467490,臺中,2025-07-23,24.145736,120.684075,0.058720127
C0UB60,明池,2025-07-23,24.650688,121.475277,0.751222
C0U960,翠峰湖,2025-07-23,24.510856,121.608044,0.6922312
E2HA20,林試畢祿溪站,2025-07-23,24.226944,121.308522,0.24095972
C0V890,前鎮,2025-07-23,22.5718,120.3117,0.27935475
C1F941,雪嶺,2025-07-23,24.280586,121.026642,0.032277025
C2H9E0,國姓南港,2025-07-23,23.911108,120.846556,0.5347436
C0AC80,文山,2025-07-23,25.00235,121.575728,0.11678872
C0F9R0,龍井,2025-07-23,24.184536,120.528972,0.11589572
C0M760,民雄,2025-07-23,23.551754,120.428457,0.2048793
C0UA40,西德山,2025-07-23,24.560647,121.752608,0.80990666
C1T920,中興,2025-07-23,23.769503,121.498653,0.99644476
C0D550,雪霸,2025-07-23,24.526972,121.11605,0.4966344
C2F860,梨山,2025-07-23,24.247522,121.243669,0.20174307
C0R320,車城,2025-07-23,22.0744,120.716247,0.68391895
C1S870,南美山,2025-07-23,23.15025,121.382333,0.99867564
C0B020,基隆嶼,2025-07-23,25.19141,121.78391,0.2074097
C1U501,牛鬥,2025-07-23,24.637836,121.573656,0.8344996
C0M730,嘉義市東區,2025-07-23,23.457673,120.460531,0.13936713
C0S700,知本,2025-07-23,22.684866,121.005642,0.84535694
C1N001,沙崙,2025-07-23,22.935472,120.309406,0.055517726
C0V760,橋頭,2025-07-23,22.757806,120.30575,0.15029514
C0G960,福寶,2025-07-23,24.0443,120.3814,0.04710519
C0X210,白河,2025-07-23,23.347466,120.414427,0.045303833
C0S810,東河,2025-07-23,22.972672,121.303986,0.9992526
C2R170,屏東,2025-07-23,22.66027,120.49403,0.010503835
C0R670,楓港,2025-07-23,22.190131,120.692156,0.66694313
C0FA50,霧峰,2025-07-23,24.0419,120.6995,0.045080964
C0UB10,蘇澳,2025-07-23,24.5969,121.8571,0.99691063
C0G950,防潮門,2025-07-23,24.1835,120.4871,0.11500071
C0M740,六腳,2025-07-23,23.492871,120.290625,0.12472212
C1R250,力里,2025-07-23,22.428117,120.629228,0.94735056
C0K330,虎尾,2025-07-23,23.719183,120.442036,0.41795653
C2FA00,烏石坑,2025-07-23,24.273503,120.947617,0.9133668
C0V620,永安,2025-07-23,22.82315,120.236856,0.059082847
C1I330,楓樹林,2025-07-23,23.986803,121.076117,0.84413373
C0W200,湖西,2025-07-23,23.596314,119.67275,0.6969903
72Q010,高雄農改場,2025-07-23,22.709333,120.525889,0.013112044
C0SA40,瑞和,2025-07-23,22.974361,121.156697,0.99947846
C0C680,龜山,2025-07-23,25.02846,121.38656,0.8727674
C2V260,月眉,2025-07-23,22.971003,120.539853,0.016939837
C0V450,鳳森,2025-07-23,22.545064,120.392592,0.031620976
C0FA90,小雪山林道,2025-07-23,24.29515,121.03651,0.012232635
C0U720,南山,2025-07-23,24.43742,121.38167,0.88601106
A2N290,臺南蘭花園區,2025-07-23,23.340258,120.379661,0.057414383
C0R560,新園,2025-07-23,22.5434,120.461558,0.02545279
C0U890,三星,2025-07-23,24.66812,121.65302,0.36833644
C1V300,御油山,2025-07-23,23.001983,120.715364,0.95572066
C0U600,礁溪,2025-07-23,24.817539,121.765608,0.11246262
C1T980,龍澗,2025-07-23,24.023289,121.411328,0.9736927
C0D670,海天一線,2025-07-23,24.831986,120.914438,0.6840014
C0SA00,歷坵,2025-07-23,22.520969,120.89185,0.8563351
C0M710,東石,2025-07-23,23.458927,120.15385,0.4331623
C0M780,鹿草,2025-07-23,23.41134,120.30835,0.24583195
C0U520,雙連埤,2025-07-23,24.753033,121.641303,0.9725809
C0B010,七堵,2025-07-23,25.094819,121.71713,0.11224836
C0R480,長治,2025-07-23,22.693128,120.542622,0.014879954
C1V830,國三S383K,2025-07-23,22.781967,120.426475,0.018234957
12Q980,恆春工作站,2025-07-23,22.079678,120.714425,0.6833303
C1O940,東山服務區,2025-07-23,23.286016,120.398472,0.030457577
C1U840,東澳嶺,2025-07-23,24.5378,121.8485,0.92999
C1D630,飛鳳山,2025-07-23,24.766464,121.119178,0.45396346
C0S940,石寧山,2025-07-23,23.223772,121.406639,0.99929
C0K410,北港,2025-07-23,23.573957,120.292802,0.29630083
C2M620,瑞里,2025-07-23,23.545133,120.675197,0.6928023
C0SB70,小港漁港,2025-07-23,23.158558,121.400431,0.9993955
C2O950,安南,2025-07-23,23.076694,120.144861,0.06950798
C0F0E0,南湖圈谷,2025-07-23,24.363714,121.444667,0.011889366
467610,成功,2025-07-23,23.097486,121.373428,0.9985068
C0G890,伸港,2025-07-23,24.148933,120.484403,0.09340826
C2E540,龍溪,2025-07-23,24.606489,120.783933,0.5822139
C1V200,梅山,2025-07-23,23.268447,120.823556,0.8435507
C0T9H0,加路蘭山,2025-07-23,23.682947,121.5274,0.992876
C2O930,玉井,2025-07-23,23.126042,120.46055,0.113710694
C1F911,新伯公,2025-07-23,24.221361,120.841069,0.26545876
C0R490,九如,2025-07-23,22.7405,120.490503,0.012944243
C0X200,左鎮,2025-07-23,23.056758,120.408522,0.1384364
C0FA60,鞍馬山工作站,2025-07-23,24.267064,121.000793,0.14880225
C0SB50,叭嗡嗡,2025-07-23,23.047062,121.343223,0.9997462
C1F891,稍來,2025-07-23,24.265689,121.001142,0.18759947
72N240,七股研究中心,2025-07-23,23.081672,120.062894,0.076936156
C0C700,中壢,2025-07-23,24.977661,121.256375,0.16125242
C0M690,水上,2025-07-23,23.419734,120.388909,0.025953174
C0V690,鼓山,2025-07-23,22.623325,120.275575,0.2884854
C0O860,大內,2025-07-23,23.11885,120.36083,0.03333402
C0Z200,萬榮,2025-07-23,23.709219,121.420106,0.99634266
C0T9D0,和中,2025-07-23,24.26676,121.74103,0.99946505
C1O921,楠西,2025-07-23,23.183511,120.484083,0.07622453
C0AJ30,淡水觀海,2025-07-23,25.184591,121.408616,0.07399958
C0V810,左營,2025-07-23,22.67491,120.28491,0.28528234
C0UA70,桃源谷,2025-07-23,24.962606,121.888875,0.98865294
C0X130,官田,2025-07-23,23.193217,120.315422,0.02295134
C1H000,翠峰,2025-07-23,24.109397,121.205211,0.12203155
C0UA90,石城,2025-07-23,24.980444,121.951214,0.22362593
C1E681,南勢山,2025-07-23,24.421669,120.923831,0.9171718
C0A9F0,內湖,2025-07-23,25.079422,121.57545,0.09374437
C0K291,宜梧,2025-07-23,23.536281,120.169329,0.40550447
C1K540,口湖,2025-07-23,23.585344,120.180517,0.04584379
C0R780,滿州,2025-07-23,22.024403,120.839892,0.99730664
C0V870,文安,2025-07-23,22.8025,120.2164,0.05747947
C0U650,玉蘭,2025-07-23,24.675286,121.587061,0.9856682
C0R640,東港,2025-07-23,22.46247,120.44074,0.08529079
C0AJ80,板橋,2025-07-23,25.0107,121.4489,0.10715282
C0S660,下馬,2025-07-23,23.150427,121.070312,0.9986914
C1H9B1,阿眉,2025-07-23,24.1263,120.994672,0.48501053
C0UA20,多加屯,2025-07-23,24.368614,121.373189,0.029952355
C0E730,頭份,2025-07-23,24.688247,120.912206,0.63850254
72V140,高改旗南分場,2025-07-23,22.857861,120.516667,0.014911582
C0K480,莿桐,2025-07-23,23.761192,120.502372,0.06481127
C0U980,坪林石牌,2025-07-23,24.86478,121.77396,0.97544646
C0T900,西林,2025-07-23,23.8119,121.441458,0.9961276
C1I150,青雲,2025-07-23,23.793361,120.949378,0.165238
467350,澎湖,2025-07-23,23.565503,119.563094,0.48600474
C0G800,埔鹽,2025-07-23,24.000394,120.431683,0.03932808
C0H960,草屯,2025-07-23,23.973672,120.68085,0.048926692
C1V780,多納林道,2025-07-23,22.888028,120.737917,0.965189
C0E920,通霄漁港,2025-07-23,24.498589,120.673876,0.30611914
C0Z330,安通山,2025-07-23,23.290728,121.348528,0.99807185
C0AH10,永和,2025-07-23,25.01125,121.508111,0.10751919
C0AK10,太平里,2025-07-23,25.134937,121.364899,0.21766159
C2G640,鹿港,2025-07-23,24.0753,120.430481,0.047340427
C1E890,國三N149K,2025-07-23,24.463414,120.680019,0.21760528
C1R110,口社,2025-07-23,22.770111,120.645222,0.3762266
C1M870,國三N285K,2025-07-23,23.550319,120.505833,0.89887077
C1E480,鳳美,2025-07-23,24.554803,121.034747,0.88819927
C0M530,奮起湖,2025-07-23,23.493903,120.699253,0.68451047
C0C590,觀音,2025-07-23,25.027072,121.153317,0.49354294
C0T9M0,靜浦,2025-07-23,23.455167,121.495028,0.99861586
C2H9M0,發祥,2025-07-23,24.154094,121.164517,0.61241186
C0AI40,石牌,2025-07-23,25.115597,121.513139,0.07018244
C1F871,上谷關,2025-07-23,24.203483,121.018644,0.8696614
C2H9G0,百勝,2025-07-23,24.051142,120.909361,0.8431938
C0G880,二水,2025-07-23,23.810742,120.6173,0.7768812
C0R940,加祿堂,2025-07-23,22.3363,120.6217,0.7093342
C0W220,北竿,2025-07-23,26.220358,119.974881,0.20933075
C0O960,崎頂,2025-07-23,22.959547,120.369317,0.07826616
C0TA40,秀林,2025-07-23,24.302864,121.731144,0.98010784
C0S750,向陽,2025-07-23,23.248397,120.986133,0.2543273
C0T9F0,水璉,2025-07-23,23.797131,121.542514,0.99575204
C1M600,頭凍,2025-07-23,23.406364,120.603339,0.7074182
467660,臺東,2025-07-23,22.752211,121.154586,0.99700165
C1D380,新埔,2025-07-23,24.84745,121.03834,0.55684274
C2G980,田頭村,2025-07-23,23.8263,120.444175,0.042541772
C0V750,路竹,2025-07-23,22.854997,120.259439,0.05253044
C0N050,蚵寮,2025-07-23,23.301,120.1104,0.10073074
72M700,南改鹿草分場,2025-07-23,23.416869,120.283061,0.23699951
C1SA50,利嘉林道,2025-07-23,22.82325,121.009389,0.9361919
C0UB70,太平山中間站,2025-07-23,24.542003,121.513453,0.9311943
C0A940,金山,2025-07-23,25.223628,121.643967,0.0785643
C1V340,大津,2025-07-23,22.888322,120.645986,0.022773933
C0W180,七美,2025-07-23,23.219333,119.444892,0.9880364
C1F9C1,白冷,2025-07-23,24.182844,120.929889,0.8556494
K2E710,苗改生物防治研究中心,2025-07-23,24.422861,120.871833,0.2555419
C0N040,蘆竹溝,2025-07-23,23.2344,120.0961,0.08415158
C0D760,大坪苗圃,2025-07-23,24.5362,121.1108,0.8660912
C2W230,畜試所澎湖,2025-07-23,23.628342,119.513206,0.3076205
C0R880,後壁湖,2025-07-23,21.9457,120.7457,0.9010318
C1I280,埔中,2025-07-23,23.820778,120.642594,0.9875403
467790,墾丁雷達站,2025-07-23,21.948235,120.808028,0.9747627
C0W190,望安,2025-07-23,23.380564,119.494075,0.9279002
C0Z170,卓溪,2025-07-23,23.3443,121.3029,0.9983789
C0F850,東勢,2025-07-23,24.246428,120.833047,0.119973354
466900,淡水,2025-07-23,25.164889,121.448906,0.21766464
C0I370,魚池,2025-07-23,23.895703,120.94135,0.30962855
C0C630,大溪,2025-07-23,24.882853,121.265547,0.15386441
C0A520,山佳,2025-07-23,24.974944,121.402008,0.10493637
C0I110,竹山,2025-07-23,23.761225,120.688156,0.8193159
82H840,茶改南部分場,2025-07-23,23.762528,120.7405,0.96510655
C0G660,溪湖,2025-07-23,23.94835,120.479122,0.037688427
C1T800,洛韶,2025-07-23,24.204558,121.453956,0.94410574
C1T810,慈恩,2025-07-23,24.192044,121.388386,0.7661017
C1E451,象鼻,2025-07-23,24.368617,120.940228,0.9121702
C0AC60,三峽,2025-07-23,24.939025,121.369728,0.13884112
C0I490,萬大林道,2025-07-23,23.928228,121.091411,0.8454476
C1I290,豐丘,2025-07-23,23.668178,120.887417,0.83545804
C1I320,奧萬大,2025-07-23,23.952956,121.178556,0.7043101
C2M910,嘉義大學,2025-07-23,23.471325,120.485903,0.11963893
C0U770,南澳,2025-07-23,24.44935,121.81022,0.99922645
C0A980,社子,2025-07-23,25.109508,121.469681,0.20491447
C0V800,六龜,2025-07-23,22.997889,120.633583,0.015912917
C1G9D0,國一S218K,2025-07-23,23.890641,120.493253,0.047536906
C0E570,白沙屯,2025-07-23,24.549447,120.696803,0.5714547
C2F9A0,中竹林,2025-07-23,24.103556,120.751061,0.19536233
C0FA40,臺中電廠,2025-07-23,24.2146,120.4907,0.116014995
C2G9A0,畜試所彰化,2025-07-23,23.86045,120.557964,0.019202024
C0H9C0,合歡山,2025-07-23,24.143442,121.272547,0.00581386
C0X060,下營,2025-07-23,23.22695,120.256261,0.044063415
G2M350,農試溪口農場,2025-07-23,23.58565,120.408111,0.19904314
C0U860,頭城,2025-07-23,24.85323,121.8308,0.10799259
C0R580,南州,2025-07-23,22.48591,120.50274,0.08529079
C0D430,峨眉,2025-07-23,24.6905,121.017189,0.23677815
C0G780,秀水,2025-07-23,24.03405,120.503869,0.0356968
72N100,臺南農改場,2025-07-23,23.0605,120.342194,0.03477944
C0S900,蘭嶼高中,2025-07-23,22.04909,121.51214,0.99966544
C1F9W0,德基,2025-07-23,24.254783,121.190261,0.500908
C1Z120,壽豐,2025-07-23,23.870853,121.508081,0.99811214
C0W160,烏坵,2025-07-23,24.9944,119.44956,0.36408016
C1I240,外大坪,2025-07-23,23.958697,120.917931,0.6670609
C1I550,國六W023K,2025-07-23,23.979067,120.867742,0.18774202
C0R870,興海,2025-07-23,21.9752,120.8439,0.9762175
C0R140,瑪家,2025-07-23,22.682903,120.686639,0.96670085
C0A530,坪林,2025-07-23,24.938183,121.70975,0.2732046
C0X260,後壁,2025-07-23,23.366358,120.362326,0.049594283
C0Z230,和平,2025-07-23,24.30717,121.77007,0.99945796
C0G770,福興,2025-07-23,24.041289,120.437669,0.03919033
C0H9A0,神木村,2025-07-23,23.532742,120.843667,0.8983484
C0I460,南投,2025-07-23,23.911469,120.687331,0.0635387
C0I480,梅峰,2025-07-23,24.085272,121.173572,0.43094143
C1V570,吉東,2025-07-23,22.85422,120.5454,0.015684668
C2D740,屯原,2025-07-23,24.067969,121.209389,0.80709344
C2A560,福山,2025-07-23,24.776203,121.502811,0.019677045
C0AH30,五分山,2025-07-23,25.07125,121.780794,0.9859104
C0FA10,松柏,2025-07-23,24.429115,120.617482,0.27160352
72S200,東改班鳩分場,2025-07-23,22.829528,121.077694,0.99812037
72HA00,中改埔里分場,2025-07-23,23.903208,120.963364,0.4900891
C2H9W0,大坪頂農水,2025-07-23,24.043122,120.932781,0.71885365
C0C650,平鎮,2025-07-23,24.897503,121.214636,0.4270682
C0S930,延平,2025-07-23,22.902581,121.084058,0.99892217
C0UA60,樟樹山,2025-07-23,24.41393,121.78325,0.9659794
C1S670,摩天,2025-07-23,23.199503,121.027,0.9189679
C0V630,茄萣,2025-07-23,22.906642,120.182608,0.031586714
466940,基隆,2025-07-23,25.133314,121.740475,0.12978008
C0X050,東河,2025-07-23,23.296598,120.385608,0.029002879
C0R770,保力,2025-07-23,22.071122,120.764111,0.9056602
G2L020,農試嘉義分所,2025-07-23,23.485028,120.473806,0.57100904
C0X240,關子嶺,2025-07-23,23.331169,120.508025,0.19543615
C0I380,集集,2025-07-23,23.828206,120.801467,0.97562486
466990,花蓮,2025-07-23,23.975128,121.613275,0.9982011
C1V220,小關山,2025-07-23,23.154217,120.813603,0.9105082
C1F9G1,慶福山,2025-07-23,24.180853,120.848378,0.95487165
C0FB20,雪山橋,2025-07-23,24.23192,120.9786,0.35084236
C0Z250,瑞穗林道,2025-07-23,23.49284,121.30688,0.95377314
C0D590,新豐,2025-07-23,24.87068,120.97721,0.9033036
C0A870,五指山,2025-07-23,25.132153,121.608692,0.97122246
C0UA50,西帽山,2025-07-23,24.555361,121.802628,0.8392171
C0X160,仁德,2025-07-23,22.968258,120.257689,0.033641145
C1H971,六分寮,2025-07-23,23.92507,120.6378,0.08951946
C0W120,西嶼,2025-07-23,23.5626,119.468436,0.51874506
C0G650,員林,2025-07-23,23.946503,120.585597,0.018814502
C0AD50,鶯歌,2025-07-23,24.951533,121.346294,0.14888243
C2H9Q0,北東眼山,2025-07-23,24.120939,121.189303,0.67143536
C2H9T0,名間竹圍,2025-07-23,23.859914,120.637572,0.9695473
C0S990,山豬窟,2025-07-23,22.318619,120.857372,0.9724872
C0X190,安平,2025-07-23,22.993161,120.152181,0.046509176
C0K400,斗六,2025-07-23,23.720583,120.541127,0.10466835
12J990,口湖工作站,2025-07-23,23.589978,120.180394,0.04594778
C0O830,北寮,2025-07-23,23.079561,120.495008,0.023546765
C1D410,白蘭,2025-07-23,24.579364,121.079947,0.8940366
C0S970,加津林,2025-07-23,22.416211,120.926942,0.9847528
C0D700,關西,2025-07-23,24.7977,121.1732,0.13969377
C0M810,里佳,2025-07-23,23.389125,120.716647,0.63809437
C0U750,龜山島,2025-07-23,24.841667,121.953133,0.9991399
C0R810,內獅,2025-07-23,22.305064,120.642986,0.7040508
C1M390,龍美,2025-07-23,23.406728,120.654417,0.64560634
C2FB60,頭櫃山,2025-07-23,24.129842,120.858925,0.6215145
C1H840,國三N238K,2025-07-23,23.841008,120.707711,0.9666775
CAQ030,崎峰國小,2025-07-23,22.42565,120.49521,0.08529079
C2E520,大湖,2025-07-23,24.414939,120.870872,0.15628964
467530,阿里山,2025-07-23,23.508208,120.813242,0.31687206
C1E691,南湖,2025-07-23,24.40135,120.837533,0.957456
C0FA30,梧棲,2025-07-23,24.256003,120.523381,0.11937992
C1V231,高中,2025-07-23,23.134911,120.716711,0.25721782
C0AK30,硬漢嶺,2025-07-23,25.136097,121.426372,0.9510456
C0F9V0,新社,2025-07-23,24.200172,120.815806,0.59186536
C0H890,埔里,2025-07-23,23.972169,120.952425,0.5527901
C0R690,墾丁,2025-07-23,21.966756,120.810269,0.97009784
C0F0D0,審馬陣,2025-07-23,24.381675,121.4203,0.0066871224
C2W030,金門農試所,2025-07-23,24.448431,118.451786,0.053272173
C0R820,白鷺,2025-07-23,22.454275,120.666219,0.91231287
C0FB00,大雪山,2025-07-23,24.254668,121.007374,0.22510855
C1V190,南天池,2025-07-23,23.27403,120.91176,0.097289994
C0E940,雪見,2025-07-23,24.42595,121.01347,0.48453894
K2E360,苗栗農改場,2025-07-23,24.495722,120.829111,0.2457184
CAJ050,海口故事園區,2025-07-23,23.57543,120.14121,0.04587845
C2H9D0,三隻寮,2025-07-23,24.093078,120.861578,0.7064661
C0O990,媽廟,2025-07-23,22.99175,120.293525,0.033562
C0D480,打鐵坑,2025-07-23,24.849664,121.150789,0.33569545
C0Z220,和平林道,2025-07-23,24.343922,121.656317,0.9840518
C0TA10,花蓮漁港,2025-07-23,23.995322,121.638331,0.9982683
72C440,桃園農改場,2025-07-23,24.950944,121.030583,0.46401742
C1E711,馬拉邦山,2025-07-23,24.367306,120.901656,0.8828597
C0SB20,富岡,2025-07-23,22.792467,121.192669,0.99861485
C0D560,竹東,2025-07-23,24.767147,121.057881,0.115877986
C0F9U0,南屯,2025-07-23,24.137006,120.637969,0.02241429
C0M720,番路,2025-07-23,23.464657,120.554156,0.2662216
C0F0A0,雪山圈谷,2025-07-23,24.388594,121.236339,0.0022646466
C1A9N0,四十份,2025-07-23,24.934158,121.593283,0.34708622
C0U760,東澳,2025-07-23,24.52196,121.83318,0.9994153
C0X230,鹽水,2025-07-23,23.272621,120.247641,0.104169525
C2H9H0,苗改南投蜂場,2025-07-23,23.852589,120.693481,0.32911658
C0R950,萬隆國小,2025-07-23,22.507667,120.587817,0.13446665
467540,大武,2025-07-23,22.35572,120.90374,0.98547715
C0V370,古亭坑,2025-07-23,22.893178,120.401947,0.16251473
C1I340,新興橋,2025-07-23,23.563333,120.868728,0.7765213
C0SA80,土坂,2025-07-23,22.453108,120.887572,0.9723105
C0R160,鹽埔,2025-07-23,22.739558,120.530778,0.013152132
C0AC40,大屯山,2025-07-23,25.175675,121.522408,0.8541939
466850,五分山雷達站,2025-07-23,25.071182,121.781205,0.9849752
C2H9L0,馬烈霸,2025-07-23,24.1512,121.201772,0.45664537
C1AI50,國三N016K,2025-07-23,25.034164,121.619664,0.100278646
C1V600,藤枝,2025-07-23,23.071961,120.757042,0.95911527
C1E601,南勢,2025-07-23,24.572486,120.734842,0.7408713
C0O980,新市,2025-07-23,23.061614,120.298197,0.03044905
C0K420,西螺,2025-07-23,23.800407,120.467394,0.0445899
C0Z050,佳心,2025-07-23,23.34567,121.21316,0.9974817
C0AD30,蘆洲,2025-07-23,25.086594,121.472331,0.09221042
C0V610,梓官,2025-07-23,22.760558,120.267211,0.15007637
K2F750,種苗改良場,2025-07-23,24.225972,120.800917,0.40844524
C0UA80,大溪漁港,2025-07-23,24.941801,121.902955,0.13586049
C1AI60,國一39K邊坡,2025-07-23,25.064361,121.383836,0.8011566
C0W150,金寧,2025-07-23,24.457703,118.328989,0.05495248
C0R960,內埔,2025-07-23,22.608483,120.570714,0.21631189
V2C250,八德合作社,2025-07-23,24.93775,121.266389,0.23449919
C2H9S0,龍南,2025-07-23,23.953536,120.833183,0.43491152
C0AH40,平等,2025-07-23,25.129142,121.577086,0.6686781
C0R540,佳冬,2025-07-23,22.419456,120.552375,0.572396
466950,彭佳嶼,2025-07-23,25.627975,122.079744,0.9849611
C0A890,雙溪,2025-07-23,25.036003,121.864242,0.20771354
C0C480,桃園,2025-07-23,24.992425,121.323172,0.14718546
C0AH50,林口,2025-07-23,25.072181,121.38084,0.90659064
A2K360,水試臺西試驗場,2025-07-23,23.717231,120.190522,0.083068624
C2M960,外寮,2025-07-23,23.562643,120.665688,0.7797719
C0F9S0,烏日,2025-07-23,24.107058,120.624103,0.017273273
C0C490,八德,2025-07-23,24.928708,121.283289,0.24267565
C0R190,赤山,2025-07-23,22.592333,120.614306,0.22581014
C0T820,天祥,2025-07-23,24.179597,121.495639,0.99509066
C1F9E1,龍安,2025-07-23,24.1605,120.831961,0.33529484
C0V820,小林,2025-07-23,23.148408,120.63325,0.16796522
C2G870,芳苑,2025-07-23,23.922303,120.320025,0.07290398
C0E850,大河,2025-07-23,24.618069,120.948578,0.17882319
C1U670,寒溪,2025-07-23,24.634,121.71691,0.4528754
C0N020,城西,2025-07-23,23.0568,120.0956,0.051611695
C1Z110,三棧,2025-07-23,24.11557,121.60501,0.9930217
C0R280,檳榔,2025-07-23,22.076078,120.836777,0.94040924
C2H9J0,中台,2025-07-23,23.9996,120.938739,0.41925684
C0F9L0,后里,2025-07-23,24.310436,120.729725,0.018116994
467441,高雄,2025-07-23,22.730432,120.312516,0.1545627
C0Z180,新城,2025-07-23,24.040486,121.604878,0.99815845
C0D540,橫山,2025-07-23,24.71116,121.11693,0.15236443
C1D420,太閣南,2025-07-23,24.632808,121.160575,0.81250256
C1E770,公館,2025-07-23,24.526914,120.830806,0.17999816
CAN130,水試所海水繁養殖中心,2025-07-23,23.120802,120.07968,0.07718737
C1I430,翠華,2025-07-23,24.191961,121.224339,0.11009729
C1M400,菜瓜坪,2025-07-23,23.251928,120.576103,0.040752403
C0G730,二林,2025-07-23,23.903325,120.376081,0.05433179
72M360,南改義竹分場,2025-07-23,23.360694,120.279361,0.27741277
V2K620,麥寮合作社,2025-07-23,23.753836,120.294783,0.402528
C0Z070,舞鶴,2025-07-23,23.46811,121.37407,0.9985398
C0B040,大武崙,2025-07-23,25.166676,121.706993,0.13773689
C1Z030,紅葉,2025-07-23,23.493119,121.338806,0.99823207
C1I050,丹大,2025-07-23,23.753747,121.141147,0.17736115
C0I080,信義,2025-07-23,23.689694,120.851036,0.325651
C0D750,樂山林道6k,2025-07-23,24.49999,121.08773,0.18188864
C2M920,朴子農改,2025-07-23,23.469889,120.259383,0.23081096
C2A880,福隆,2025-07-23,25.017842,121.942083,0.21575384
C0Z160,鳳林,2025-07-23,23.746114,121.453411,0.996366
C0UB80,翠峰林道6K,2025-07-23,24.49773,121.568625,0.3749762
C0V210,復興,2025-07-23,23.222403,120.806089,0.8960824
C0H990,昆陽,2025-07-23,24.121322,121.273642,0.015311681
C0R741,獅子,2025-07-23,22.202308,120.705236,0.9979196
C0S710,鹿野,2025-07-23,22.917711,121.122994,0.99923307
C0I530,小奇萊,2025-07-23,24.131764,121.295717,0.013375792
C0FA70,大雪山埡口,2025-07-23,24.26867,121.03062,0.034102783
C2K630,荷苞,2025-07-23,23.657717,120.595144,0.71656966
C0Z080,富源,2025-07-23,23.587642,121.378225,0.9957359
C0SB10,美和,2025-07-23,22.682078,121.060236,0.8428717
C2K620,馬光農場,2025-07-23,23.721453,120.378864,0.3813716
C1I140,卡奈托灣,2025-07-23,23.754364,121.087872,0.92601985
C0I520,玉山風口,2025-07-23,23.470489,120.955994,0.0054655257
C1G691,下水埔,2025-07-23,23.816114,120.5676,0.072658375
C0X110,臺南市南區,2025-07-23,22.961189,120.188378,0.033468634
C0V680,仁武,2025-07-23,22.701083,120.347722,0.28629157
C2G840,北斗,2025-07-23,23.877586,120.514222,0.04928887
C0R900,竹坑,2025-07-23,22.1385,120.7022,0.0856337
C0K250,崙背,2025-07-23,23.75555,120.318925,0.4012637
C0G860,社頭,2025-07-23,23.897647,120.5862,0.0358147
C0X150,安定,2025-07-23,23.102614,120.227839,0.04439394
C0R590,里港,2025-07-23,22.77919,120.49459,0.014489683
C0E610,馬都安,2025-07-23,24.451272,120.930192,0.9542249
C0E550,明德,2025-07-23,24.583486,120.885411,0.34418046
C0R150,三地門,2025-07-23,22.709889,120.639944,0.3705694
C0G910,花壇,2025-07-23,24.032076,120.549461,0.037578408
C1D400,鳥嘴山,2025-07-23,24.71909,121.28387,0.97777754
C0K500,元長,2025-07-23,23.64981,120.315024,0.6608322
C0F0B0,石岡,2025-07-23,24.276061,120.777644,0.022627024
C2V250,甲仙,2025-07-23,23.080106,120.591758,0.041425873
C0SA20,金崙山,2025-07-23,22.567419,120.959667,0.9518592
C0V350,溪埔,2025-07-23,22.738578,120.446797,0.015515764
C0M660,溪口,2025-07-23,23.604131,120.403569,0.1991477
C1S880,壽卡,2025-07-23,22.238911,120.858903,0.9509086
72D680,桃改新埔分場,2025-07-23,24.834444,121.066111,0.5241049
