站號,站名,日期,lat,lon,BLBTSLS
K2F750,種苗繁殖,2025-03-18,24.225972,120.800917,8.292689e-10
467990,馬祖,2025-03-18,26.169269,119.923419,3.3245293e-08
C2E540,後龍,2025-03-18,24.606489,120.783933,1.6852843e-08
467300,東吉島,2025-03-18,23.25695,119.667467,0.9918927
G2F820,農業試驗所,2025-03-18,24.031261,120.688133,2.4651141e-09
467410,臺南,2025-03-18,22.993239,120.204772,5.497657e-09
E2S960,林試太麻里2,2025-03-18,22.598014,120.989761,0.00060541666
72C440,桃園農改,2025-03-18,24.950944,121.030583,2.8395174e-08
C1H860,瑞岩,2025-03-18,24.123772,121.18345,3.6518082e-09
72G600,臺中農改,2025-03-18,24.003028,120.534389,5.522344e-09
72N100,臺南農改,2025-03-18,23.0605,120.342194,3.6089216e-07
72T250,花蓮農改,2025-03-18,23.975222,121.563889,1.0514211e-05
467620,蘭嶼,2025-03-18,22.036969,121.558339,0.9999301
K2E360,苗栗農改,2025-03-18,24.495722,120.829111,5.083755e-09
467050,新屋,2025-03-18,25.006744,121.047486,2.797271e-08
467550,玉山,2025-03-18,23.487614,120.959522,3.2444024e-08
466881,新北,2025-03-18,24.9593,121.52,1.3758746e-08
467540,大武,2025-03-18,22.355675,120.903789,0.3325034
72Q010,高雄農改,2025-03-18,22.709333,120.525889,0.0009168784
U2H480,臺大溪頭,2025-03-18,23.670306,120.798194,1.1270261e-09
C0Z180,新城,2025-03-18,24.03946,121.60454,2.0990335e-07
B2N890,畜試所,2025-03-18,23.058972,120.336406,4.7024562e-07
467441,高雄,2025-03-18,22.7304,120.3125,2.3313532e-07
