站號,站名,日期,lat,lon,BLBTSLS
C0R710,龍磐,2025-05-20,21.931672,120.838942,0.8007279
C1F9D1,白毛台,2025-05-20,24.158325,120.886933,9.735291e-10
C0G940,竹塘,2025-05-20,23.848253,120.386764,1.3944076e-08
467590,恆春,2025-05-20,22.003897,120.746339,0.6373297
C1O850,環湖,2025-05-20,23.148617,120.418633,2.0561405e-08
C0U710,太平山,2025-05-20,24.505486,121.525656,9.344038e-09
C0E820,獅潭,2025-05-20,24.539133,120.920042,7.273658e-10
C0V880,興達,2025-05-20,22.8778,120.2127,2.9531943e-08
C0S890,關山,2025-05-20,23.0395,121.175017,0.00051994453
C0SB30,新蘭,2025-05-20,22.869214,121.223228,0.0028156948
C2R970,屏科大,2025-05-20,22.648275,120.619247,1.0015852e-06
C1Z130,銅門,2025-05-20,23.965694,121.492842,3.030369e-08
C0AD40,土城,2025-05-20,24.973208,121.445169,1.1534585e-08
CAN140,六官養殖協會,2025-05-20,23.22881,120.29962,1.6656652e-09
C0X180,山上,2025-05-20,23.0757,120.363253,1.21850405e-08
C0F9Z0,雪山東峰,2025-05-20,24.388792,121.268675,1.6507599e-08
C1M480,獨立山,2025-05-20,23.537022,120.607797,8.42193e-10
C0X220,學甲,2025-05-20,23.230367,120.182187,3.3512921e-09
467650,日月潭,2025-05-20,23.881325,120.90805,1.0913599e-09
C0K600,箔子寮,2025-05-20,23.6197,120.14,1.540639e-08
C0G830,埤頭,2025-05-20,23.866003,120.452806,1.665357e-09
C0S950,七塊厝,2025-05-20,22.954453,121.229922,2.5906267e-05
467110,金門,2025-05-20,24.407306,118.289281,1.2517927e-08
C0AH80,深坑,2025-05-20,25.002703,121.628328,9.092225e-09
C0A970,三貂角,2025-05-20,25.007606,122.002058,1.0642911e-08
C2D730,寶山農場,2025-05-20,24.732444,120.976153,6.3784983e-10
C0K430,褒忠,2025-05-20,23.690938,120.303634,2.6392843e-09
467480,嘉義,2025-05-20,23.495925,120.432906,9.846347e-10
C0V400,阿公店,2025-05-20,22.804194,120.355528,2.349799e-08
467550,玉山,2025-05-20,23.48718,120.95943,1.8438685e-08
C0R440,大漢山,2025-05-20,22.405264,120.753181,1.249424e-08
C0K280,四湖,2025-05-20,23.630414,120.227125,1.2040324e-08
C1F9B1,桐林,2025-05-20,24.066172,120.735194,3.6732404e-09
C2H9U0,鳳鵬,2025-05-20,23.763919,120.788061,7.920277e-10
C0K390,土庫,2025-05-20,23.679029,120.395574,1.9903224e-09
C1I450,望鄉山,2025-05-20,23.594153,120.944286,8.343431e-09
C0E910,海埔,2025-05-20,24.648767,120.772435,2.3782178e-09
B2E890,畜試北區分所,2025-05-20,24.527806,120.770972,8.6066165e-10
C0R750,四林格山,2025-05-20,22.076989,120.802439,0.17106873
C0F0C0,中坑,2025-05-20,24.248517,120.903319,1.1519233e-09
C1I121,大鞍,2025-05-20,23.678381,120.760017,2.4218234e-09
72U480,花改蘭陽分場,2025-05-20,24.686306,121.716583,1.1106675e-08
C0A770,科教館,2025-05-20,25.096356,121.516507,6.8753034e-09
C0AJ60,六塊厝,2025-05-20,25.24,121.4481,6.960524e-07
C0R620,墾雷,2025-05-20,21.900836,120.855269,0.05917837
467420,永康,2025-05-20,23.038386,120.2367,9.471962e-09
C0I410,名間,2025-05-20,23.837053,120.701447,1.4367725e-09
A2C560,農工中心,2025-05-20,24.985917,121.239833,8.257606e-06
C0V740,旗山,2025-05-20,22.888614,120.483597,2.3591433e-09
C0Z061,玉里,2025-05-20,23.3215,121.339656,7.1533333e-07
C0S840,南田,2025-05-20,22.279725,120.889208,0.9944031
C1I470,杉林溪,2025-05-20,23.639517,120.786444,3.020805e-09
C1X040,東原,2025-05-20,23.291597,120.463822,2.3991618e-09
C0R660,枋寮,2025-05-20,22.367722,120.590647,0.20160145
C1R120,上德文,2025-05-20,22.763272,120.704442,8.496897e-09
C0K450,大埤,2025-05-20,23.646074,120.431537,2.4973472e-09
C0UA00,土場,2025-05-20,24.576533,121.495333,2.9728033e-09
467080,宜蘭,2025-05-20,24.763975,121.756528,1.9497456e-07
C0N030,四草,2025-05-20,23.0235,120.1116,7.067983e-09
467410,臺南,2025-05-20,22.99328,120.20492,7.204143e-09
C0V650,彌陀,2025-05-20,22.783806,120.246361,1.3267821e-08
C0D660,新竹市東區,2025-05-20,24.798681,120.986942,1.335765e-09
82S580,茶改東部分場,2025-05-20,22.907694,121.130139,0.0002345664
C0SB40,興隆,2025-05-20,22.913661,121.257469,0.0021047916
467050,新屋,2025-05-20,25.006725,121.047492,0.001310046
C0C710,大溪永福,2025-05-20,24.892936,121.324975,1.8680995e-08
C0FA20,溫寮,2025-05-20,24.372177,120.583125,4.794742e-08
C0V640,湖內,2025-05-20,22.887139,120.2445,2.6685028e-08
C0R910,下寮,2025-05-20,22.3929,120.5548,0.2001095
C0Z020,明里,2025-05-20,23.208717,121.262342,4.1315727e-07
C0M770,嘉義梅山,2025-05-20,23.585398,120.555587,5.2974625e-09
C0C660,楊梅,2025-05-20,24.912375,121.143047,4.240337e-08
C1E511,新開,2025-05-20,24.347703,120.827019,7.990242e-10
G2F820,農試所(霧峰),2025-05-20,24.031261,120.688133,2.7142335e-09
C1I070,和社,2025-05-20,23.591131,120.888861,4.7032924e-09
C2F000,大肚,2025-05-20,24.15295,120.572117,2.99951e-09
C1S850,豐南,2025-05-20,23.122139,121.262389,3.071774e-07
C2A920,富貴角,2025-05-20,25.263783,121.565258,2.3607152e-08
CAH030,茶改場竹圍站,2025-05-20,23.860083,120.637528,8.6959856e-10
C0T960,光復,2025-05-20,23.660694,121.424964,6.9795606e-06
C0F9M0,豐原,2025-05-20,24.254322,120.720692,1.7920153e-09
C0R720,旭海,2025-05-20,22.205403,120.887614,0.94713134
C0V710,苓雅,2025-05-20,22.622742,120.330669,3.8630954e-08
C0C740,觀音工業區,2025-05-20,25.064764,121.114856,0.00045244762
CAC040,拉拉山,2025-05-20,24.699317,121.427133,5.8546705e-09
C0V790,萬山,2025-05-20,22.905944,120.688056,3.7822017e-09
U2HA30,臺大和社,2025-05-20,23.590856,120.888864,4.7032924e-09
C0AJ90,澳底,2025-05-20,25.0552,121.9253,1.1750002e-07
C0Z100,東華,2025-05-20,23.89525,121.549833,4.702779e-07
C0G970,三豐,2025-05-20,23.882,120.2895,4.0716557e-07
V2K610,大庄合作社,2025-05-20,23.8068,120.367939,5.7072786e-09
C0V900,汕尾,2025-05-20,22.4782,120.4151,0.07716281
C1R630,龍泉,2025-05-20,22.66701,120.59091,7.5517255e-06
C1AC50,關渡,2025-05-20,25.133486,121.469331,1.2166532e-08
C0F9I0,神岡,2025-05-20,24.272481,120.658314,1.466609e-09
C0K460,斗南,2025-05-20,23.678734,120.478359,2.4005855e-09
C2O810,曾文,2025-05-20,23.219681,120.497328,6.0479652e-09
467280,後龍,2025-05-20,24.648563,120.831834,2.125122e-09
C1F9J1,清水林,2025-05-20,24.071242,120.820419,1.1212713e-09
C2A650,火燒寮,2025-05-20,25.002719,121.742892,3.895985e-09
466930,竹子湖,2025-05-20,25.162078,121.544547,5.844693e-10
C1I220,樟湖,2025-05-20,23.905333,120.846983,8.261304e-10
C0I390,仁愛,2025-05-20,24.022122,121.132206,7.410726e-10
C0Z300,東里,2025-05-20,23.26853,121.30547,2.412099e-06
C1V590,新發,2025-05-20,23.057019,120.646064,1.4193459e-09
C0K510,水林,2025-05-20,23.572924,120.24597,3.042251e-09
72S590,東改賓朗果園,2025-05-20,22.813889,121.071278,0.00045560463
82A750,茶改北部分場,2025-05-20,24.955778,121.631222,1.1581757e-09
C1A750,石碇服務區,2025-05-20,25.00872,121.646242,3.1522813e-08
C0X300,鹿寮,2025-05-20,23.386047,120.477331,2.7700695e-09
G2AI50,關渡,2025-05-20,25.11575,121.492,6.6578373e-06
C0K590,雲林東勢,2025-05-20,23.674192,120.255721,2.9564897e-09
C0A570,桶後,2025-05-20,24.848222,121.597992,4.572032e-09
C1S800,華源,2025-05-20,22.657883,121.02325,0.0019756698
C0G720,溪州,2025-05-20,23.851589,120.499093,1.5626569e-09
C1V160,達卡努瓦,2025-05-20,23.279811,120.705319,2.4113098e-09
C2M410,馬頭山,2025-05-20,23.324361,120.582017,1.3278904e-09
C0V850,蚵仔寮,2025-05-20,22.7256,120.2527,3.762532e-08
C0S740,池上,2025-05-20,23.119628,121.209469,0.012687138
C1V390,尖山,2025-05-20,22.813153,120.367789,1.7788102e-08
C0AH70,松山,2025-05-20,25.04871,121.55042,6.41218e-09
C0N010,鯤鯓國小,2025-05-20,23.1879,120.0889,5.776328e-09
C0R550,新埤,2025-05-20,22.467947,120.582894,0.029076032
C0SA60,知本（水試所）,2025-05-20,22.702394,121.082761,0.025566088
C0T9I0,豐濱,2025-05-20,23.583897,121.514806,5.4284722e-08
C0UB00,淡江大學蘭陽校園,2025-05-20,24.823239,121.730383,9.078501e-09
C0W240,九宮,2025-05-20,24.423753,118.240186,1.347825e-08
C0T9N0,富里,2025-05-20,23.171639,121.249378,0.0006913053
U2HA50,臺大竹山,2025-05-20,23.756972,120.681556,2.3575555e-09
C0V840,鳳鼻頭,2025-05-20,22.5083,120.3591,2.1324071e-08
C0X140,西港,2025-05-20,23.125608,120.203108,2.247515e-09
72D080,桃改五峰分場,2025-05-20,24.612194,121.157167,9.1627267e-10
C2H9P0,伊拿谷,2025-05-20,23.963211,121.088264,7.051175e-10
C2H9F0,柑林,2025-05-20,24.018658,120.847072,1.1498927e-09
C0TA20,加灣,2025-05-20,24.082025,121.608944,2.1061605e-05
C0V530,阿蓮,2025-05-20,22.883208,120.327508,1.266836e-08
C1O880,關山,2025-05-20,23.173397,120.594092,2.1809354e-09
C0E791,卓蘭,2025-05-20,24.3126,120.8244,1.1375978e-09
C1I030,武界,2025-05-20,23.913225,121.052483,7.117778e-10
C0R520,崁頂,2025-05-20,22.514781,120.506914,0.00012043413
C0R341,牡丹,2025-05-20,22.130036,120.792639,2.0807293e-07
C0R930,萬丹,2025-05-20,22.5885,120.4851,2.731503e-08
C0S760,紅石,2025-05-20,23.069131,121.126219,1.0224028e-08
C2C410,中央大學,2025-05-20,24.967652,121.185165,4.7776302e-06
C1M610,石磐龍,2025-05-20,23.496606,120.663506,1.2060407e-09
C0UA10,鴛鴦湖,2025-05-20,24.590269,121.412228,6.2229164e-09
V2C260,八德蔬果,2025-05-20,24.978508,121.281819,1.0455051e-08
C0R800,丹路,2025-05-20,22.204481,120.750989,0.01489294
C0G920,永靖,2025-05-20,23.924703,120.547533,1.0586966e-09
C2M950,太和,2025-05-20,23.538372,120.702961,1.48285e-09
C1A630,下盆,2025-05-20,24.771003,121.538622,8.1533386e-10
B2N890,畜產試驗所,2025-05-20,23.058972,120.336406,2.6113933e-09
C0UA30,白嶺,2025-05-20,24.527819,121.519031,4.3140744e-09
C1V580,溪南(特生中心),2025-05-20,23.084972,120.788475,3.1255953e-09
C1T970,大農,2025-05-20,23.615233,121.413331,3.4449048e-08
C0R650,竹田,2025-05-20,22.58486,120.54344,2.3338323e-06
C1H900,清流,2025-05-20,24.080775,120.962997,1.0939504e-09
C1C510,水尾,2025-05-20,24.940081,121.087161,5.0025275e-05
C0F9X0,大雅(中科園區),2025-05-20,24.21528,120.62445,2.8956917e-09
C0SB60,白守蓮,2025-05-20,23.126769,121.401914,0.9966846
C0O970,虎頭埤,2025-05-20,23.021375,120.347878,9.899531e-09
C0C730,中大臨海站,2025-05-20,24.966126,121.008581,0.0016390216
C0X250,新營,2025-05-20,23.310689,120.316681,1.6958598e-09
C0V700,三民,2025-05-20,22.645017,120.311233,2.3638197e-08
C0U870,大礁溪,2025-05-20,24.791042,121.675047,2.4804474e-09
C0E870,高鐵苗栗,2025-05-20,24.60725,120.826094,3.3274836e-09
A2K570,古坑花卉中心,2025-05-20,23.63353,120.55239,6.4183836e-09
C0TA30,鹽寮,2025-05-20,23.845606,121.592664,9.162365e-07
C0M860,新美,2025-05-20,23.338017,120.683169,1.7675975e-09
C1E701,八卦,2025-05-20,24.491756,120.927619,9.025009e-10
C0I420,國姓,2025-05-20,24.037803,120.855072,1.055823e-09
C2D720,關西工作站,2025-05-20,24.757275,121.184792,8.1894813e-10
C0S960,香蘭,2025-05-20,22.587569,120.993375,3.292039e-05
467620,蘭嶼,2025-05-20,22.0369,121.55843,0.25928563
C0R260,春日,2025-05-20,22.370361,120.628306,0.04999791
72G600,臺中農改場,2025-05-20,24.003028,120.534389,1.8010307e-09
C0Z210,瑞穗,2025-05-20,23.5239,121.39021,1.2422744e-07
C0M820,達邦,2025-05-20,23.453994,120.749517,1.3301946e-09
C0V860,南寮,2025-05-20,22.7616,120.2339,3.7630343e-08
C0G740,大城,2025-05-20,23.852487,120.320935,3.869663e-07
C0R920,塭仔,2025-05-20,22.4169,120.5197,0.1844413
C0R470,高樹,2025-05-20,22.826389,120.600806,1.4286735e-08
C0R680,佳樂水,2025-05-20,21.993578,120.861633,0.7274758
C1O870,大棟山,2025-05-20,23.31157,120.52226,3.2702272e-09
C0D360,梅花,2025-05-20,24.678347,121.208558,7.0555745e-10
C0Z190,富世,2025-05-20,24.14743,121.6297,7.499376e-08
C0AI10,屈尺,2025-05-20,24.92184,121.54475,1.6688007e-07
B2U990,畜試東區分所,2025-05-20,24.669039,121.832561,1.3118474e-08
C0SB80,長濱漁港,2025-05-20,23.313644,121.459994,1.7843437e-05
C0R240,來義,2025-05-20,22.527306,120.625111,7.2039857e-06
C0V910,大樹,2025-05-20,22.684645,120.432803,2.5806656e-08
C1R610,西大武山,2025-05-20,22.617719,120.7322,1.14590195e-08
C0G900,線西,2025-05-20,24.143358,120.443536,2.1567696e-06
C0M700,竹崎,2025-05-20,23.526178,120.555508,2.986608e-09
C2E880,三義,2025-05-20,24.405478,120.749819,6.5631484e-10
C0C720,竹圍,2025-05-20,25.112692,121.239824,6.7167584e-06
C0F9P0,清水,2025-05-20,24.312297,120.562242,3.1112273e-07
C0Z150,吉安光華,2025-05-20,23.930925,121.595153,7.527556e-07
467300,東吉島,2025-05-20,23.25727,119.66762,0.12999184
C1D640,外坪(五指山),2025-05-20,24.644447,121.090961,1.2417924e-09
C0F9O0,潭子,2025-05-20,24.213106,120.703933,4.6018482e-09
C2H9R0,卓社,2025-05-20,23.887894,121.000086,7.630976e-10
72T250,花蓮農改場,2025-05-20,23.975222,121.563889,3.8040453e-06
C0E780,銅鑼,2025-05-20,24.489681,120.790853,6.9532663e-10
C1T950,太安,2025-05-20,23.666719,121.370128,1.6768315e-09
C0E830,苑裡,2025-05-20,24.439714,120.653053,1.5767473e-08
467270,田中,2025-05-20,23.873803,120.581286,1.8675677e-09
C0SA10,檳榔四格山,2025-05-20,22.810031,121.109308,9.5010524e-05
C1T830,布洛灣,2025-05-20,24.17184,121.57127,1.9926098e-08
C0F970,大坑,2025-05-20,24.173142,120.722289,1.1660315e-08
C1U920,思源,2025-05-20,24.393125,121.347214,2.2434377e-09
C0A931,三和,2025-05-20,25.233153,121.595236,2.8490696e-09
C0I010,廬山,2025-05-20,24.033311,121.181808,2.3110258e-09
C2M940,日野賀,2025-05-20,23.434056,120.727169,1.516053e-09
C0R860,鼻頭,2025-05-20,22.1043,120.8979,0.95905095
C0UB20,壯圍,2025-05-20,24.7359,121.8163,1.353428e-08
C0R790,九棚,2025-05-20,22.14195,120.889281,0.009773349
C0W110,東莒,2025-05-20,25.9652,119.98069,1.3608724e-06
C1U930,粉鳥林,2025-05-20,24.497088,121.842479,7.66813e-08
C1I211,蘆竹湳,2025-05-20,23.934019,120.811994,1.0757358e-09
C0S830,長濱,2025-05-20,23.286817,121.411975,7.673222e-08
C1F9F1,伯公龍,2025-05-20,24.272392,120.849047,1.0889936e-09
C0E810,西湖,2025-05-20,24.562947,120.7485,3.4394274e-09
C1I440,新高口,2025-05-20,23.478744,120.878939,4.9883466e-09
C0O840,王爺宮,2025-05-20,23.222064,120.40085,3.5078127e-09
C0T9G0,鳳林山,2025-05-20,23.735269,121.420131,4.2571607e-08
C0X080,佳里,2025-05-20,23.173039,120.145086,5.7759313e-09
C0FB70,大甲溪埔,2025-05-20,24.370625,120.620067,3.608219e-08
C0Z310,清水斷崖,2025-05-20,24.218294,121.689142,2.5734193e-09
C0M680,太保,2025-05-20,23.455062,120.331455,1.0677187e-09
C1S820,金峰,2025-05-20,22.590969,120.933236,7.0274234e-07
C0AD10,八里,2025-05-20,25.150211,121.403947,6.732342e-06
C2K240,草嶺,2025-05-20,23.59555,120.693461,7.715363e-10
C1SA70,都蘭,2025-05-20,22.87794,121.226881,0.0021110505
C0K440,二崙,2025-05-20,23.772797,120.408944,1.516212e-09
C1A760,坪林交控,2025-05-20,24.94284,121.713442,6.779009e-09
C0F9N0,大里,2025-05-20,24.092464,120.701378,5.0951616e-09
C0SA90,達仁林場,2025-05-20,22.264347,120.823972,0.00042394557
C1R290,石門山,2025-05-20,22.112611,120.756597,0.4238233
42HA10,萬大發電廠,2025-05-20,23.978875,121.139639,8.901475e-10
C0R890,山海,2025-05-20,21.9878,120.7091,0.19371107
C0T9A0,月眉山,2025-05-20,23.809928,121.539828,2.9136198e-09
C0AC70,信義,2025-05-20,25.037822,121.564597,6.3943975e-09
C0K560,棋山,2025-05-20,23.68645,120.603417,5.669197e-09
C2FB50,出雲,2025-05-20,24.206469,120.902794,1.1564252e-09
C1Z240,中平林道,2025-05-20,23.42115,121.26763,4.1860604e-09
U2H480,溪頭,2025-05-20,23.670306,120.798194,8.683075e-10
C0M880,好美里,2025-05-20,23.3364,120.138,3.9521555e-09
C0T9E0,大坑,2025-05-20,23.880628,121.581981,3.7875147e-09
C0K530,臺西,2025-05-20,23.701547,120.197559,1.7399355e-08
C1E900,國一N128K,2025-05-20,24.560997,120.844186,1.0822659e-09
C0AJ50,水湳洞,2025-05-20,25.123695,121.862238,1.0313379e-08
C0AI20,白沙灣,2025-05-20,25.283128,121.519058,4.7297613e-07
C2V310,美濃,2025-05-20,22.898792,120.51907,2.4194873e-09
C0A860,大坪,2025-05-20,25.165914,121.632969,8.499989e-10
C1U850,觀音海岸,2025-05-20,24.38319,121.77856,8.498206e-10
C2K610,草嶺石壁,2025-05-20,23.602469,120.707731,7.8798496e-10
C0U950,鶯子嶺,2025-05-20,24.89754,121.79244,1.8454964e-09
C0O900,善化,2025-05-20,23.112883,120.297219,2.8289475e-09
C0K550,蔦松,2025-05-20,23.514319,120.229736,5.8589937e-09
E2P980,林試六龜中心,2025-05-20,22.991703,120.645722,3.093863e-09
C0E590,通霄,2025-05-20,24.471892,120.704622,3.7936605e-09
C1I310,西巒,2025-05-20,23.754486,120.883956,1.1649529e-09
C0A550,泰平,2025-05-20,24.971197,121.823711,1.0904527e-09
C0I360,水里,2025-05-20,23.812553,120.849792,9.146785e-10
C0R830,高士,2025-05-20,22.121825,120.836781,0.28116035
C1I101,溪頭,2025-05-20,23.661789,120.807647,2.6969305e-09
C0AJ20,野柳,2025-05-20,25.20703,121.690021,1.3533119e-08
C0B060,暖暖,2025-05-20,25.0957,121.7403,6.3661765e-09
C1H920,長豐,2025-05-20,24.102039,120.879897,1.3059774e-09
C0V360,內門,2025-05-20,22.975481,120.466769,6.283134e-09
C0R850,林邊,2025-05-20,22.4634,120.5339,0.06635012
C0E930,龍鳳,2025-05-20,24.700034,120.859125,5.2136424e-09
C0U910,冬山,2025-05-20,24.63373,121.7937,1.3118474e-08
C1E721,泰安,2025-05-20,24.489017,120.968036,1.0700857e-09
82H320,茶改中部分場,2025-05-20,23.875611,120.913583,1.0046219e-09
C0M750,布袋,2025-05-20,23.380878,120.167789,2.9854292e-09
C1S860,利嘉,2025-05-20,22.809417,121.050528,7.2957813e-09
E2S980,林試太麻里1,2025-05-20,22.598922,120.980044,5.446624e-06
C0X170,關廟,2025-05-20,22.963017,120.327797,6.935587e-09
C0V720,林園,2025-05-20,22.507747,120.394511,2.4772287e-08
C1I510,線浸林道,2025-05-20,23.761508,120.832956,1.7087173e-09
C0D690,外湖,2025-05-20,24.917735,120.968711,0.00018556639
C0C750,新興坑尾,2025-05-20,25.0061,121.0971,0.0005351709
B2Q810,畜試南區分所,2025-05-20,21.945583,120.802167,0.71120644
C0S790,金崙,2025-05-20,22.538122,120.966875,4.3452303e-07
C0AH90,福山植物園,2025-05-20,24.760717,121.58135,1.3471946e-09
C0I540,奇萊稜線,2025-05-20,24.109231,121.326456,1.0917726e-08
C0M850,表湖,2025-05-20,23.24186,120.64166,1.2870551e-09
C0S770,大溪山,2025-05-20,22.478475,120.943325,8.4488555e-08
C0AG80,中和,2025-05-20,24.991622,121.491792,1.1534871e-08
C0T790,大禹嶺,2025-05-20,24.186117,121.316086,5.7517124e-09
C0T9B0,水源,2025-05-20,23.991861,121.537169,4.871047e-08
C0R840,牡丹池山,2025-05-20,22.168389,120.841225,0.0055607967
C1I131,桶頭,2025-05-20,23.641944,120.654117,1.1904018e-09
CAL110,布袋國中,2025-05-20,23.35893,120.18026,2.640518e-09
467571,新竹,2025-05-20,24.827853,121.014219,3.4864698e-08
C0Z290,赤柯山,2025-05-20,23.36893,121.38293,1.334355e-08
C0X280,將軍,2025-05-20,23.214999,120.13577,3.6716783e-09
C0S690,太麻里,2025-05-20,22.60902,120.98533,6.817581e-07
C0U880,北關,2025-05-20,24.9072,121.8734,8.595696e-09
C0G810,埔心,2025-05-20,23.947633,120.525456,1.0670733e-09
C0U970,大福,2025-05-20,24.80064,121.81389,1.9904756e-07
C2H9N0,仁愛東眼,2025-05-20,24.026875,121.1205,2.035847e-09
C1E670,南礦,2025-05-20,24.538278,121.002836,9.039239e-10
C0M520,東後寮,2025-05-20,23.369908,120.248065,2.3384905e-09
C1E461,松安,2025-05-20,24.397972,120.986022,1.2662411e-09
C2N160,西拉雅風管處,2025-05-20,23.189481,120.335297,2.6196045e-09
C2M970,碧湖,2025-05-20,23.568632,120.624165,7.270107e-10
C0A640,石碇,2025-05-20,24.993969,121.662917,1.2726137e-07
E2S960,林試太麻里2,2025-05-20,22.598,120.99775,4.7220234e-05
C0F9Y0,桃山,2025-05-20,24.432739,121.303808,1.5598287e-08
C1I020,萬大,2025-05-20,23.979817,121.132261,7.44842e-10
C0U940,羅東,2025-05-20,24.68184,121.74934,1.1562361e-08
C0M650,朴子,2025-05-20,23.43463,120.23902,1.4812218e-09
C1I500,大尖山,2025-05-20,23.858572,120.994889,4.296731e-09
C0G820,田尾,2025-05-20,23.901669,120.509389,1.0666928e-09
E2K600,四湖植物園,2025-05-20,23.676986,120.163433,1.206345e-08
C0S730,綠島,2025-05-20,22.6672,121.47533,0.046424422
12Q970,東港工作站,2025-05-20,22.479997,120.466058,0.07925687
C0E430,南庄,2025-05-20,24.601775,121.000214,7.218871e-10
C1TA00,太魯閣,2025-05-20,24.15773,121.6236,4.4611852e-08
466920,臺北,2025-05-20,25.037658,121.514853,6.4121677e-09
C0R600,舊泰武,2025-05-20,22.588194,120.664944,9.693805e-10
C1I260,北坑,2025-05-20,23.9246,121.006903,1.0427742e-09
466910,鞍部,2025-05-20,25.182586,121.529731,6.4378136e-10
C1I230,九份二山,2025-05-20,23.961944,120.845,7.022841e-10
C2A660,瑞芳,2025-05-20,25.113169,121.801147,6.120202e-09
C0R270,琉球嶼,2025-05-20,22.332244,120.362236,1.3095486e-05
C1T990,高寮,2025-05-20,23.394239,121.356808,1.7501678e-07
C0G620,芬園,2025-05-20,24.015678,120.6213,1.311464e-09
C1Z140,荖溪,2025-05-20,23.890575,121.45964,4.2186688e-08
C1I201,中心崙,2025-05-20,23.728722,120.712097,6.9481754e-10
C1I400,凌霄,2025-05-20,24.018778,121.004456,1.9853705e-09
C1M640,十字,2025-05-20,23.492153,120.753683,2.506089e-09
G2P820,農試鳳山分所,2025-05-20,22.646611,120.356083,2.0519916e-08
C0Z270,蕃薯寮,2025-05-20,23.73835,121.540108,2.1107057e-08
C0F9Q0,外埔,2025-05-20,24.347817,120.705686,1.559944e-09
C0K580,高鐵雲林,2025-05-20,23.737456,120.417944,1.546444e-09
C2I090,鳳凰,2025-05-20,23.728081,120.787347,9.68486e-10
C0U990,員山,2025-05-20,24.74435,121.72247,1.2847135e-08
C0V770,大社,2025-05-20,22.730306,120.346639,3.2469345e-08
C0X120,麻豆,2025-05-20,23.183289,120.248611,1.4383409e-09
C0C670,龍潭,2025-05-20,24.870056,121.221389,1.7928871e-09
C0D680,香山濕地,2025-05-20,24.783581,120.914988,1.8558637e-09
C0S980,勝林山,2025-05-20,22.430439,120.8938,1.8460437e-07
C0V730,大寮,2025-05-20,22.605614,120.395717,4.481218e-08
C0R570,麟洛,2025-05-20,22.65078,120.52719,9.131471e-08
C2M930,石卓,2025-05-20,23.478744,120.702264,3.8911057e-09
C0G9B0,和美,2025-05-20,24.105169,120.492131,2.7125942e-08
CAG100,王功漁港,2025-05-20,23.96824,120.32586,9.076743e-07
C0X290,北門,2025-05-20,23.267772,120.125481,3.7034484e-09
C2F930,大甲,2025-05-20,24.347667,120.640403,1.9759007e-08
C0D650,湖口,2025-05-20,24.904794,121.043628,5.343765e-05
C0E420,竹南,2025-05-20,24.708978,120.888897,4.0722474e-09
C0U780,五結,2025-05-20,24.68637,121.79794,1.3520941e-08
C1I250,鯉潭,2025-05-20,23.961922,120.991131,8.504254e-10
C0R130,阿禮,2025-05-20,22.742908,120.743678,4.578708e-09
C0X100,臺南市北區,2025-05-20,23.010394,120.194228,8.145711e-09
C0S920,金峰嘉蘭,2025-05-20,22.594789,120.960825,4.735877e-06
C0V490,新興,2025-05-20,22.627422,120.298803,3.8999794e-08
C0F9K0,大安,2025-05-20,24.345061,120.588025,4.064738e-08
467290,古坑,2025-05-20,23.633639,120.551889,6.4183836e-09
C2E970,八甲,2025-05-20,24.535811,120.795983,6.626898e-10
C0V440,鳳山,2025-05-20,22.646653,120.356122,2.0519916e-08
C1T940,大觀,2025-05-20,23.714206,121.373133,4.7812967e-09
C0E740,造橋,2025-05-20,24.637056,120.864778,2.2205258e-09
C0R100,尾寮山,2025-05-20,22.833111,120.683889,6.3191288e-09
A2K630,臺大雲林校區,2025-05-20,23.730628,120.423903,1.5462729e-09
467990,馬祖,2025-05-20,26.169467,119.923158,7.963605e-09
C0D580,寶山,2025-05-20,24.735006,121.025192,8.223479e-10
E2P990,林試扇平站,2025-05-20,22.9677,120.6857,1.0116833e-08
C0AI30,三重,2025-05-20,25.057328,121.500629,6.8753034e-09
C0AH00,汐止,2025-05-20,25.066881,121.658778,6.41218e-09
C1Z040,立山,2025-05-20,23.443356,121.327375,1.1075704e-08
466881,新北,2025-05-20,24.959207,121.525196,1.0263907e-08
C0W130,花嶼,2025-05-20,23.40007,119.32276,0.008281875
C0A950,鼻頭角,2025-05-20,25.129036,121.923372,0.9903524
C0K470,林內,2025-05-20,23.748675,120.609642,3.566602e-09
C2F990,摩天嶺,2025-05-20,24.322458,120.936819,1.3402465e-09
82C160,茶改場,2025-05-20,24.908472,121.185333,2.273827e-08
C0Z320,清水林道,2025-05-20,23.27125,121.188272,1.440071e-08
C0R760,南仁湖,2025-05-20,22.084681,120.863353,0.4247434
C0M670,大林,2025-05-20,23.600616,120.45841,1.2618772e-09
C0M800,茶山,2025-05-20,23.299075,120.664767,2.2215172e-09
C0A9C0,天母,2025-05-20,25.117494,121.537169,3.045992e-08
72K220,南改斗南分場,2025-05-20,23.634556,120.477333,2.3683813e-09
72AI40,桃改樹林分場,2025-05-20,24.944503,121.386972,7.4606696e-08
C0S910,蘭嶼燈塔,2025-05-20,22.081197,121.503117,0.0959953
C0B050,八斗子,2025-05-20,25.144754,121.79167,1.2099582e-08
C0U900,內城,2025-05-20,24.71813,121.68766,9.44301e-09
C0X320,柳營,2025-05-20,23.253328,120.375253,4.9080784e-09
C0M790,新港,2025-05-20,23.553269,120.345728,1.1592652e-09
C0F9T0,西屯,2025-05-20,24.179494,120.641275,8.410024e-09
C0SA30,都歷,2025-05-20,23.020333,121.323642,0.015072728
C0C620,蘆竹,2025-05-20,25.084275,121.265767,0.00010538897
C0R730,大坪頂,2025-05-20,22.024633,120.69355,0.89194065
C0AJ40,石門,2025-05-20,25.273672,121.601198,4.2144304e-08
C0E750,苗栗,2025-05-20,24.564569,120.824575,1.1065415e-09
C0T870,鯉魚潭,2025-05-20,23.935639,121.508944,5.1765856e-08
C1V170,排雲,2025-05-20,23.463619,120.954147,1.5224142e-08
C2H950,中寮,2025-05-20,23.884447,120.766406,1.7992383e-09
C0R350,貓鼻頭,2025-05-20,21.921774,120.7358,0.25669986
C0V660,岡山,2025-05-20,22.797078,120.294958,1.3282456e-08
C1H941,雙冬,2025-05-20,23.967378,120.802189,1.0342607e-09
C0AJ70,田寮,2025-05-20,25.2698,121.4886,5.2391e-07
C0AI00,五股,2025-05-20,25.07445,121.42728,9.968424e-09
C0Z280,德武,2025-05-20,23.47426,121.41071,1.0953268e-08
C0R700,枋山,2025-05-20,22.246844,120.661086,0.25083777
C0C460,復興,2025-05-20,24.820208,121.352281,1.0543358e-09
E2H360,蓮華池,2025-05-20,23.918333,120.885278,1.0122232e-09
C0M640,中埔,2025-05-20,23.42538,120.5229,1.3300804e-09
C0W140,金沙,2025-05-20,24.488292,118.408778,3.3667217e-08
C2A540,四堵,2025-05-20,24.8926,121.745736,9.377475e-10
C0ACA0,新莊,2025-05-20,25.051478,121.446756,1.8747636e-08
C0R220,潮州,2025-05-20,22.534361,120.54,0.00010432519
U2HA40,臺大內茅埔,2025-05-20,23.689722,120.851117,1.1633475e-09
467490,臺中,2025-05-20,24.145736,120.684075,2.2454678e-08
C0U960,翠峰湖,2025-05-20,24.510856,121.608044,8.836791e-09
E2HA20,林試畢祿溪站,2025-05-20,24.226944,121.308522,4.3706923e-09
C0V890,前鎮,2025-05-20,22.5718,120.3117,4.1461647e-08
C1F941,雪嶺,2025-05-20,24.280586,121.026642,8.559343e-09
C2H9E0,國姓南港,2025-05-20,23.911108,120.846556,8.512401e-10
C0AC80,文山,2025-05-20,25.00235,121.575728,9.0905425e-09
C0F9R0,龍井,2025-05-20,24.184536,120.528972,4.906499e-06
C0M760,民雄,2025-05-20,23.551754,120.428457,1.3243038e-09
C0UA40,西德山,2025-05-20,24.560647,121.752608,4.153397e-09
C1T920,中興,2025-05-20,23.769503,121.498653,2.767455e-07
C0D550,雪霸,2025-05-20,24.526972,121.11605,4.589778e-09
C2F860,梨山,2025-05-20,24.247522,121.243669,4.545512e-09
C0R320,車城,2025-05-20,22.0744,120.716247,0.8107312
C1S870,南美山,2025-05-20,23.15025,121.382333,0.0007588151
C0B020,基隆嶼,2025-05-20,25.19141,121.78391,0.657029
C1U501,牛鬥,2025-05-20,24.637836,121.573656,3.4148884e-09
C0M730,嘉義市東區,2025-05-20,23.457673,120.460531,1.617997e-09
C0S700,知本,2025-05-20,22.684866,121.005642,1.409177e-08
C1N001,沙崙,2025-05-20,22.935472,120.309406,7.6372855e-09
C0V760,橋頭,2025-05-20,22.757806,120.30575,3.3701973e-08
C0G960,福寶,2025-05-20,24.0443,120.3814,3.0858732e-08
C0X210,白河,2025-05-20,23.347466,120.414427,2.2935969e-09
C0S810,東河,2025-05-20,22.972672,121.303986,0.21688621
C2R170,屏東,2025-05-20,22.66027,120.49403,9.1242455e-08
C0R670,楓港,2025-05-20,22.190131,120.692156,0.0815212
C0FA50,霧峰,2025-05-20,24.0419,120.6995,2.5866767e-09
C0UB10,蘇澳,2025-05-20,24.5969,121.8571,5.840127e-09
C0G950,防潮門,2025-05-20,24.1835,120.4871,4.764035e-06
C0M740,六腳,2025-05-20,23.492871,120.290625,1.0089233e-09
C1R250,力里,2025-05-20,22.428117,120.629228,0.005918622
C0K330,虎尾,2025-05-20,23.719183,120.442036,1.446214e-09
C2FA00,烏石坑,2025-05-20,24.273503,120.947617,1.3350213e-09
C0V620,永安,2025-05-20,22.82315,120.236856,1.3267821e-08
C1I330,楓樹林,2025-05-20,23.986803,121.076117,8.575761e-10
C0W200,湖西,2025-05-20,23.596314,119.67275,0.6685623
72Q010,高雄農改場,2025-05-20,22.709333,120.525889,3.0736548e-08
C0SA40,瑞和,2025-05-20,22.974361,121.156697,0.0011676886
C0C680,龜山,2025-05-20,25.02846,121.38656,1.6701107e-06
C2V260,月眉,2025-05-20,22.971003,120.539853,1.5863156e-08
C0V450,鳳森,2025-05-20,22.545064,120.392592,1.5685584e-08
C0U720,南山,2025-05-20,24.43742,121.38167,3.7144134e-09
A2N290,臺南蘭花園區,2025-05-20,23.340258,120.379661,1.4820272e-09
C0R560,新園,2025-05-20,22.5434,120.461558,2.4772287e-08
C0U890,三星,2025-05-20,24.66812,121.65302,6.0367515e-09
C1V300,御油山,2025-05-20,23.001983,120.715364,2.7040592e-09
C0U600,礁溪,2025-05-20,24.817539,121.765608,8.038444e-07
C1T980,龍澗,2025-05-20,24.023289,121.411328,2.2408e-08
C0D670,海天一線,2025-05-20,24.831986,120.914438,6.1695115e-05
C0SA00,歷坵,2025-05-20,22.520969,120.89185,1.2433406e-08
C0M710,東石,2025-05-20,23.458927,120.15385,2.4242462e-08
C0M780,鹿草,2025-05-20,23.41134,120.30835,1.4145379e-09
C0U520,雙連埤,2025-05-20,24.753033,121.641303,2.4870275e-09
C0B010,七堵,2025-05-20,25.094819,121.71713,9.157683e-09
C0R480,長治,2025-05-20,22.693128,120.542622,2.2255302e-08
C1V830,國三S383K,2025-05-20,22.781967,120.426475,1.7908135e-08
12Q980,恆春工作站,2025-05-20,22.079678,120.714425,0.8109852
C1O940,東山服務區,2025-05-20,23.286016,120.398472,3.9722656e-09
C1U840,東澳嶺,2025-05-20,24.5378,121.8485,1.4416505e-09
C1D630,飛鳳山,2025-05-20,24.766464,121.119178,8.377935e-10
C0S940,石寧山,2025-05-20,23.223772,121.406639,1.0398588e-05
C0K410,北港,2025-05-20,23.573957,120.292802,2.9416176e-09
C2M620,瑞里,2025-05-20,23.545133,120.675197,1.3490872e-09
C0SB70,小港漁港,2025-05-20,23.158558,121.400431,0.49367958
C2O950,安南,2025-05-20,23.076694,120.144861,1.2983285e-08
C0F0E0,南湖圈谷,2025-05-20,24.363714,121.444667,2.2846429e-08
467610,成功,2025-05-20,23.097486,121.373428,0.9943492
C0G890,伸港,2025-05-20,24.148933,120.484403,2.208619e-06
C2E540,龍溪,2025-05-20,24.606489,120.783933,3.410332e-09
C1V200,梅山,2025-05-20,23.268447,120.823556,2.443888e-09
C0T9H0,加路蘭山,2025-05-20,23.682947,121.5274,4.7973217e-08
C2O930,玉井,2025-05-20,23.126042,120.46055,1.1532473e-08
C1F911,新伯公,2025-05-20,24.221361,120.841069,1.843122e-09
C0R490,九如,2025-05-20,22.7405,120.490503,3.3911668e-08
C0X200,左鎮,2025-05-20,23.056758,120.408522,8.3399785e-09
C0SB50,叭嗡嗡,2025-05-20,23.047062,121.343223,0.18143524
C1F891,稍來,2025-05-20,24.265689,121.001142,6.282954e-09
72N240,七股研究中心,2025-05-20,23.081672,120.062894,1.0800538e-08
C0C700,中壢,2025-05-20,24.977661,121.256375,8.770164e-09
C0M690,水上,2025-05-20,23.419734,120.388909,1.0044552e-09
C0V690,鼓山,2025-05-20,22.623325,120.275575,3.8947384e-08
C0O860,大內,2025-05-20,23.11885,120.36083,2.6391787e-09
C0Z200,萬榮,2025-05-20,23.709219,121.420106,1.4906426e-07
C0T9D0,和中,2025-05-20,24.26676,121.74103,1.327445e-06
C1O921,楠西,2025-05-20,23.183511,120.484083,1.7005865e-08
C0AJ30,淡水觀海,2025-05-20,25.184591,121.408616,8.450774e-08
C0V810,左營,2025-05-20,22.67491,120.28491,2.363973e-08
C0UA70,桃源谷,2025-05-20,24.962606,121.888875,2.9500007e-09
C0X130,官田,2025-05-20,23.193217,120.315422,2.711191e-09
C1H000,翠峰,2025-05-20,24.109397,121.205211,3.437473e-09
C0UA90,石城,2025-05-20,24.980444,121.951214,1.7313415e-08
C1E681,南勢山,2025-05-20,24.421669,120.923831,6.84732e-10
C0A9F0,內湖,2025-05-20,25.079422,121.57545,6.41218e-09
C0K291,宜梧,2025-05-20,23.536281,120.169329,5.8549277e-09
C1K540,口湖,2025-05-20,23.585344,120.180517,1.5403188e-08
C0R780,滿州,2025-05-20,22.024403,120.839892,0.67247665
C0V870,文安,2025-05-20,22.8025,120.2164,1.35801015e-08
C0U650,玉蘭,2025-05-20,24.675286,121.587061,2.4975377e-09
C0R640,東港,2025-05-20,22.46247,120.44074,0.078642465
C0AJ80,板橋,2025-05-20,25.0107,121.4489,1.2075697e-08
C0S660,下馬,2025-05-20,23.150427,121.070312,1.8051173e-08
C1H9B1,阿眉,2025-05-20,24.1263,120.994672,5.819467e-09
C0UA20,多加屯,2025-05-20,24.368614,121.373189,5.5385043e-09
C0E730,頭份,2025-05-20,24.688247,120.912206,4.2280353e-09
72V140,高改旗南分場,2025-05-20,22.857861,120.516667,5.850284e-09
C0K480,莿桐,2025-05-20,23.761192,120.502372,2.012455e-09
C0U980,坪林石牌,2025-05-20,24.86478,121.77396,4.5559974e-09
C0T900,西林,2025-05-20,23.8119,121.441458,4.963445e-08
C1I150,青雲,2025-05-20,23.793361,120.949378,1.0395254e-09
467350,澎湖,2025-05-20,23.565503,119.563094,0.027737007
C0G800,埔鹽,2025-05-20,24.000394,120.431683,1.9143746e-08
C0H960,草屯,2025-05-20,23.973672,120.68085,2.3493454e-09
C1V780,多納林道,2025-05-20,22.888028,120.737917,1.0485561e-09
C0E920,通霄漁港,2025-05-20,24.498589,120.673876,7.2292226e-09
C0Z330,安通山,2025-05-20,23.290728,121.348528,1.04932685e-08
C0AH10,永和,2025-05-20,25.01125,121.508111,1.2076871e-08
C0AK10,太平里,2025-05-20,25.134937,121.364899,4.2636925e-06
C2G640,鹿港,2025-05-20,24.0753,120.430481,3.086438e-08
C1E890,國三N149K,2025-05-20,24.463414,120.680019,6.083959e-09
C1R110,口社,2025-05-20,22.770111,120.645222,2.4785556e-06
C1M870,國三N285K,2025-05-20,23.550319,120.505833,7.305278e-09
C1E480,鳳美,2025-05-20,24.554803,121.034747,8.2360996e-10
C0M530,奮起湖,2025-05-20,23.493903,120.699253,1.4940356e-09
C0C590,觀音,2025-05-20,25.027072,121.153317,0.00022521612
C0T9M0,靜浦,2025-05-20,23.455167,121.495028,5.8439298e-08
C2H9M0,發祥,2025-05-20,24.154094,121.164517,1.6746133e-09
C0AI40,石牌,2025-05-20,25.115597,121.513139,3.2494746e-08
C1F871,上谷關,2025-05-20,24.203483,121.018644,1.1293415e-09
C2H9G0,百勝,2025-05-20,24.051142,120.909361,1.4142546e-09
C0G880,二水,2025-05-20,23.810742,120.6173,1.6538444e-09
C0R940,加祿堂,2025-05-20,22.3363,120.6217,0.04207657
C0W220,北竿,2025-05-20,26.220358,119.974881,1.2279602e-08
C0O960,崎頂,2025-05-20,22.959547,120.369317,4.108455e-09
C0S750,向陽,2025-05-20,23.248397,120.986133,4.481079e-09
C0T9F0,水璉,2025-05-20,23.797131,121.542514,1.4074633e-08
C1M600,頭凍,2025-05-20,23.406364,120.603339,1.5126966e-09
467660,臺東,2025-05-20,22.752211,121.154586,0.112318896
C1D380,新埔,2025-05-20,24.84745,121.03834,1.26626345e-08
C2G980,田頭村,2025-05-20,23.8263,120.444175,1.5161686e-09
C0V750,路竹,2025-05-20,22.854997,120.259439,2.227798e-08
C0N050,蚵寮,2025-05-20,23.301,120.1104,3.9824157e-09
72M700,南改鹿草分場,2025-05-20,23.416869,120.283061,1.4806371e-09
C1SA50,利嘉林道,2025-05-20,22.82325,121.009389,1.4433481e-09
C0A940,金山,2025-05-20,25.223628,121.643967,1.1757867e-08
C1V340,大津,2025-05-20,22.888322,120.645986,8.665314e-08
C0W180,七美,2025-05-20,23.219333,119.444892,0.014472153
C1F9C1,白冷,2025-05-20,24.182844,120.929889,1.1721095e-09
K2E710,苗改生物防治研究中心,2025-05-20,24.422861,120.871833,8.085122e-10
C0N040,蘆竹溝,2025-05-20,23.2344,120.0961,3.7033354e-09
C2W230,畜試所澎湖,2025-05-20,23.628342,119.513206,0.01135128
C0R880,後壁湖,2025-05-20,21.9457,120.7457,0.18642776
C1I280,埔中,2025-05-20,23.820778,120.642594,8.287186e-10
467790,墾丁雷達站,2025-05-20,21.948235,120.808028,0.80068165
C0W190,望安,2025-05-20,23.380564,119.494075,0.024427725
C0Z170,卓溪,2025-05-20,23.3443,121.3029,1.401366e-06
C0F850,東勢,2025-05-20,24.246428,120.833047,1.6282566e-09
466900,淡水,2025-05-20,25.164889,121.448906,4.2699266e-06
C0I370,魚池,2025-05-20,23.895703,120.94135,1.1117266e-09
C0C630,大溪,2025-05-20,24.882853,121.265547,3.026878e-09
C0A520,山佳,2025-05-20,24.974944,121.402008,1.1575439e-07
C0I110,竹山,2025-05-20,23.761225,120.688156,1.269639e-09
82H840,茶改南部分場,2025-05-20,23.762528,120.7405,7.5117945e-10
C0G660,溪湖,2025-05-20,23.94835,120.479122,1.1382164e-09
C1T800,洛韶,2025-05-20,24.204558,121.453956,5.9011636e-09
C1T810,慈恩,2025-05-20,24.192044,121.388386,2.0537487e-09
C1E451,象鼻,2025-05-20,24.368617,120.940228,7.025735e-10
C0AC60,三峽,2025-05-20,24.939025,121.369728,1.8529008e-08
C0I490,萬大林道,2025-05-20,23.928228,121.091411,2.3558024e-09
C1I290,豐丘,2025-05-20,23.668178,120.887417,1.0424461e-09
C1I320,奧萬大,2025-05-20,23.952956,121.178556,8.2697066e-10
C2M910,嘉義大學,2025-05-20,23.471325,120.485903,2.104454e-09
C0U770,南澳,2025-05-20,24.44935,121.81022,4.0850603e-09
C0A980,社子,2025-05-20,25.109508,121.469681,7.6239426e-06
C0V800,六龜,2025-05-20,22.997889,120.633583,3.377203e-09
C1G9D0,國一S218K,2025-05-20,23.890641,120.493253,1.0001958e-09
C0E570,白沙屯,2025-05-20,24.549447,120.696803,8.324959e-09
C2F9A0,中竹林,2025-05-20,24.103556,120.751061,1.0294173e-09
C0FA40,臺中電廠,2025-05-20,24.2146,120.4907,4.943298e-06
C2G9A0,畜試所彰化,2025-05-20,23.86045,120.557964,1.867639e-09
C0H9C0,合歡山,2025-05-20,24.143442,121.272547,1.1271299e-08
C0X060,下營,2025-05-20,23.22695,120.256261,1.6682437e-09
G2M350,農試溪口農場,2025-05-20,23.58565,120.408111,1.3803372e-09
C0U860,頭城,2025-05-20,24.85323,121.8308,1.0297407e-06
C0R580,南州,2025-05-20,22.48591,120.50274,0.078642465
C0D430,峨眉,2025-05-20,24.6905,121.017189,6.3746913e-10
C0G780,秀水,2025-05-20,24.03405,120.503869,1.800148e-09
72N100,臺南農改場,2025-05-20,23.0605,120.342194,2.6055524e-09
C0S900,蘭嶼高中,2025-05-20,22.04909,121.51214,0.07547742
C1F9W0,德基,2025-05-20,24.254783,121.190261,6.100273e-09
C1Z120,壽豐,2025-05-20,23.870853,121.508081,4.702779e-07
C0W160,烏坵,2025-05-20,24.9944,119.44956,0.00094131194
C1I240,外大坪,2025-05-20,23.958697,120.917931,8.4429674e-10
C1I550,國六W023K,2025-05-20,23.979067,120.867742,1.2736191e-09
C0R870,興海,2025-05-20,21.9752,120.8439,0.7112324
C0R140,瑪家,2025-05-20,22.682903,120.686639,1.2306866e-09
C0A530,坪林,2025-05-20,24.938183,121.70975,4.5089603e-09
C0X260,後壁,2025-05-20,23.366358,120.362326,1.3620484e-09
C0Z230,和平,2025-05-20,24.30717,121.77007,1.7628042e-06
C0G770,福興,2025-05-20,24.041289,120.437669,1.9127869e-08
C0H9A0,神木村,2025-05-20,23.532742,120.843667,3.2728356e-09
C0I460,南投,2025-05-20,23.911469,120.687331,5.1996794e-09
C0I480,梅峰,2025-05-20,24.085272,121.173572,2.7589018e-09
C1V570,吉東,2025-05-20,22.85422,120.5454,5.0891784e-09
C2D740,屯原,2025-05-20,24.067969,121.209389,4.1234496e-09
C2A560,福山,2025-05-20,24.776203,121.502811,1.2141096e-09
C0AH30,五分山,2025-05-20,25.07125,121.780794,9.482514e-10
C0FA10,松柏,2025-05-20,24.429115,120.617482,1.8030905e-08
72S200,東改班鳩分場,2025-05-20,22.829528,121.077694,0.0011979481
72HA00,中改埔里分場,2025-05-20,23.903208,120.963364,1.0230187e-09
C2H9W0,大坪頂農水,2025-05-20,24.043122,120.932781,1.3002385e-09
C0C650,平鎮,2025-05-20,24.897503,121.214636,4.9475544e-09
C0S930,延平,2025-05-20,22.902581,121.084058,7.834236e-05
C0UA60,樟樹山,2025-05-20,24.41393,121.78325,5.559439e-09
C1S670,摩天,2025-05-20,23.199503,121.027,1.0262145e-08
C0V630,茄萣,2025-05-20,22.906642,120.182608,2.9546253e-08
466940,基隆,2025-05-20,25.133314,121.740475,1.15946035e-08
C0X050,東河,2025-05-20,23.296598,120.385608,4.533001e-09
C0R770,保力,2025-05-20,22.071122,120.764111,0.93841255
G2L020,農試嘉義分所,2025-05-20,23.485028,120.473806,5.040183e-09
C0X240,關子嶺,2025-05-20,23.331169,120.508025,1.0463365e-09
C0I380,集集,2025-05-20,23.828206,120.801467,9.366642e-10
466990,花蓮,2025-05-20,23.975128,121.613275,1.0302427e-05
C1V220,小關山,2025-05-20,23.154217,120.813603,3.823684e-09
C1F9G1,慶福山,2025-05-20,24.180853,120.848378,8.412089e-10
C0Z250,瑞穗林道,2025-05-20,23.49284,121.30688,4.176395e-09
C0D590,新豐,2025-05-20,24.87068,120.97721,3.4482819e-06
C0A870,五指山,2025-05-20,25.132153,121.608692,5.753004e-10
C0UA50,西帽山,2025-05-20,24.555361,121.802628,1.4856754e-09
C0X160,仁德,2025-05-20,22.968258,120.257689,1.4176258e-08
C1H971,六分寮,2025-05-20,23.92507,120.6378,9.2034674e-10
C0W120,西嶼,2025-05-20,23.5626,119.468436,0.0122367265
C0G650,員林,2025-05-20,23.946503,120.585597,1.2571446e-09
C0AD50,鶯歌,2025-05-20,24.951533,121.346294,1.33258995e-08
C2H9Q0,北東眼山,2025-05-20,24.120939,121.189303,5.980515e-09
C2H9T0,名間竹圍,2025-05-20,23.859914,120.637572,8.6958696e-10
C0S990,山豬窟,2025-05-20,22.318619,120.857372,0.0004900565
C0X190,安平,2025-05-20,22.993161,120.152181,8.15042e-09
C0K400,斗六,2025-05-20,23.720583,120.541127,1.991811e-09
12J990,口湖工作站,2025-05-20,23.589978,120.180394,1.540639e-08
C0O830,北寮,2025-05-20,23.079561,120.495008,1.2075812e-08
C1D410,白蘭,2025-05-20,24.579364,121.079947,1.0026387e-09
C0S970,加津林,2025-05-20,22.416211,120.926942,0.031533454
C0D700,關西,2025-05-20,24.7977,121.1732,9.399913e-10
C0M810,里佳,2025-05-20,23.389125,120.716647,1.9276043e-09
C0U750,龜山島,2025-05-20,24.841667,121.953133,2.9050564e-06
C0R810,內獅,2025-05-20,22.305064,120.642986,0.051636104
C1M390,龍美,2025-05-20,23.406728,120.654417,1.6028692e-09
C2FB60,頭櫃山,2025-05-20,24.129842,120.858925,1.5591378e-09
C1H840,國三N238K,2025-05-20,23.841008,120.707711,9.687668e-10
CAQ030,崎峰國小,2025-05-20,22.42565,120.49521,0.078642465
C2E520,大湖,2025-05-20,24.414939,120.870872,7.2521855e-10
467530,阿里山,2025-05-20,23.508208,120.813242,5.2709654e-09
C1E691,南湖,2025-05-20,24.40135,120.837533,5.960504e-10
C0FA30,梧棲,2025-05-20,24.256003,120.523381,3.106786e-07
C1V231,高中,2025-05-20,23.134911,120.716711,8.472634e-10
C0AK30,硬漢嶺,2025-05-20,25.136097,121.426372,5.906848e-10
C0F9V0,新社,2025-05-20,24.200172,120.815806,1.3734827e-09
C0H890,埔里,2025-05-20,23.972169,120.952425,1.2209324e-09
C0R690,墾丁,2025-05-20,21.966756,120.810269,0.9542551
C0F0D0,審馬陣,2025-05-20,24.381675,121.4203,1.4109817e-08
C2W030,金門農試所,2025-05-20,24.448431,118.451786,1.5835315e-08
C0R820,白鷺,2025-05-20,22.454275,120.666219,5.616248e-08
C1V190,南天池,2025-05-20,23.27403,120.91176,4.9142796e-09
K2E360,苗栗農改場,2025-05-20,24.495722,120.829111,7.881698e-10
CAJ050,海口故事園區,2025-05-20,23.57543,120.14121,1.5395376e-08
C2H9D0,三隻寮,2025-05-20,24.093078,120.861578,1.2901815e-09
C0O990,媽廟,2025-05-20,22.99175,120.293525,8.015661e-09
C0D480,打鐵坑,2025-05-20,24.849664,121.150789,1.7696485e-09
C0Z220,和平林道,2025-05-20,24.343922,121.656317,2.5289355e-09
C0TA10,花蓮漁港,2025-05-20,23.995322,121.638331,2.1342754e-05
72C440,桃園農改場,2025-05-20,24.950944,121.030583,0.00012365349
C1E711,馬拉邦山,2025-05-20,24.367306,120.901656,6.883829e-10
C0SB20,富岡,2025-05-20,22.792467,121.192669,0.019393047
C0D560,竹東,2025-05-20,24.767147,121.057881,8.764473e-10
C0F9U0,南屯,2025-05-20,24.137006,120.637969,4.1645505e-09
C0M720,番路,2025-05-20,23.464657,120.554156,7.509517e-10
C0F0A0,雪山圈谷,2025-05-20,24.388594,121.236339,1.8284762e-08
C1A9N0,四十份,2025-05-20,24.934158,121.593283,1.8158592e-09
C0U760,東澳,2025-05-20,24.52196,121.83318,5.861668e-08
C0X230,鹽水,2025-05-20,23.272621,120.247641,3.8294647e-09
C2H9H0,苗改南投蜂場,2025-05-20,23.852589,120.693481,1.5242934e-09
C0R950,萬隆國小,2025-05-20,22.507667,120.587817,1.9676774e-05
467540,大武,2025-05-20,22.35572,120.90374,0.08370816
C0V370,古亭坑,2025-05-20,22.893178,120.401947,1.0575992e-08
C1I340,新興橋,2025-05-20,23.563333,120.868728,7.5923434e-10
C0SA80,土坂,2025-05-20,22.453108,120.887572,2.6192864e-05
C0R160,鹽埔,2025-05-20,22.739558,120.530778,3.054783e-08
C0AC40,大屯山,2025-05-20,25.175675,121.522408,8.218869e-10
466850,五分山雷達站,2025-05-20,25.071182,121.781205,9.593724e-10
C2H9L0,馬烈霸,2025-05-20,24.1512,121.201772,4.1062536e-09
C1AI50,國三N016K,2025-05-20,25.034164,121.619664,4.884321e-09
C1V600,藤枝,2025-05-20,23.071961,120.757042,4.907002e-09
C1E601,南勢,2025-05-20,24.572486,120.734842,2.3486733e-09
C0O980,新市,2025-05-20,23.061614,120.298197,2.8219365e-09
C0K420,西螺,2025-05-20,23.800407,120.467394,1.4767365e-09
C0Z050,佳心,2025-05-20,23.34567,121.21316,1.5515502e-08
C0AD30,蘆洲,2025-05-20,25.086594,121.472331,6.8774018e-09
C0V610,梓官,2025-05-20,22.760558,120.267211,3.3663813e-08
K2F750,種苗改良場,2025-05-20,24.225972,120.800917,1.5619029e-09
C0UA80,大溪漁港,2025-05-20,24.941801,121.902955,2.9771854e-08
C1AI60,國一39K邊坡,2025-05-20,25.064361,121.383836,4.387974e-06
C0W150,金寧,2025-05-20,24.457703,118.328989,1.4575464e-08
C0R960,內埔,2025-05-20,22.608483,120.570714,1.9563258e-06
V2C250,八德合作社,2025-05-20,24.93775,121.266389,7.806537e-09
C2H9S0,龍南,2025-05-20,23.953536,120.833183,1.026678e-09
C0AH40,平等,2025-05-20,25.129142,121.577086,7.3953776e-10
C0R540,佳冬,2025-05-20,22.419456,120.552375,0.19952548
466950,彭佳嶼,2025-05-20,25.627975,122.079744,0.9992199
C0A890,雙溪,2025-05-20,25.036003,121.864242,1.1143044e-08
C0C480,桃園,2025-05-20,24.992425,121.323172,1.1449712e-08
C0AH50,林口,2025-05-20,25.072181,121.38084,1.0373668e-06
A2K360,水試臺西試驗場,2025-05-20,23.717231,120.190522,1.8084359e-08
C2M960,外寮,2025-05-20,23.562643,120.665688,7.450225e-10
C0F9S0,烏日,2025-05-20,24.107058,120.624103,3.3334802e-09
C0C490,八德,2025-05-20,24.928708,121.283289,7.744161e-09
C0R190,赤山,2025-05-20,22.592333,120.614306,1.4262009e-06
C0T820,天祥,2025-05-20,24.179597,121.495639,5.9261698e-09
C1F9E1,龍安,2025-05-20,24.1605,120.831961,1.2199034e-09
C0V820,小林,2025-05-20,23.148408,120.63325,1.2421288e-09
C2G870,芳苑,2025-05-20,23.922303,120.320025,7.418985e-07
C0E850,大河,2025-05-20,24.618069,120.948578,7.888722e-10
C1U670,寒溪,2025-05-20,24.634,121.71691,6.585836e-09
C0N020,城西,2025-05-20,23.0568,120.0956,6.4937566e-09
C1Z110,三棧,2025-05-20,24.11557,121.60501,4.021246e-08
C0R280,檳榔,2025-05-20,22.076078,120.836777,0.75918454
C2H9J0,中台,2025-05-20,23.9996,120.938739,1.6544911e-09
C0F9L0,后里,2025-05-20,24.310436,120.729725,1.3545662e-09
467441,高雄,2025-05-20,22.730432,120.312516,3.2394e-08
C0Z180,新城,2025-05-20,24.040486,121.604878,6.809862e-06
C0D540,橫山,2025-05-20,24.71116,121.11693,7.038826e-10
C1D420,太閣南,2025-05-20,24.632808,121.160575,8.124515e-09
C1E770,公館,2025-05-20,24.526914,120.830806,8.6066165e-10
CAN130,水試所海水繁養殖中心,2025-05-20,23.120802,120.07968,1.0719165e-08
C1I430,翠華,2025-05-20,24.191961,121.224339,3.4741143e-09
C1M400,菜瓜坪,2025-05-20,23.251928,120.576103,1.7069062e-09
C0G730,二林,2025-05-20,23.903325,120.376081,1.1033155e-08
72M360,南改義竹分場,2025-05-20,23.360694,120.279361,2.3315028e-09
V2K620,麥寮合作社,2025-05-20,23.753836,120.294783,2.6403015e-09
C0Z070,舞鶴,2025-05-20,23.46811,121.37407,6.9909034e-09
C0B040,大武崙,2025-05-20,25.166676,121.706993,9.225336e-09
C1Z030,紅葉,2025-05-20,23.493119,121.338806,4.5691223e-08
C1I050,丹大,2025-05-20,23.753747,121.141147,5.5553686e-09
C0I080,信義,2025-05-20,23.689694,120.851036,1.1633475e-09
C2M920,朴子農改,2025-05-20,23.469889,120.259383,1.4911886e-09
C2A880,福隆,2025-05-20,25.017842,121.942083,1.890257e-08
C0Z160,鳳林,2025-05-20,23.746114,121.453411,2.6684424e-07
C0V210,復興,2025-05-20,23.222403,120.806089,1.8017384e-09
C0H990,昆陽,2025-05-20,24.121322,121.273642,7.50086e-09
C0R741,獅子,2025-05-20,22.202308,120.705236,0.073284015
C0S710,鹿野,2025-05-20,22.917711,121.122994,5.7740843e-05
C0I530,小奇萊,2025-05-20,24.131764,121.295717,8.04464e-09
C2K630,荷苞,2025-05-20,23.657717,120.595144,4.156797e-09
C0Z080,富源,2025-05-20,23.587642,121.378225,3.685383e-08
C0SB10,美和,2025-05-20,22.682078,121.060236,0.025779096
C2K620,馬光農場,2025-05-20,23.721453,120.378864,1.5958104e-09
C1I140,卡奈托灣,2025-05-20,23.754364,121.087872,1.7361919e-09
C0I520,玉山風口,2025-05-20,23.470489,120.955994,2.0149603e-08
C1G691,下水埔,2025-05-20,23.816114,120.5676,1.8125995e-09
C0X110,臺南市南區,2025-05-20,22.961189,120.188378,1.4275077e-08
C0V680,仁武,2025-05-20,22.701083,120.347722,2.3742576e-08
C2G840,北斗,2025-05-20,23.877586,120.514222,9.581069e-10
C0R900,竹坑,2025-05-20,22.1385,120.7022,0.0045965267
C0K250,崙背,2025-05-20,23.75555,120.318925,2.6391282e-09
C0G860,社頭,2025-05-20,23.897647,120.5862,1.3250188e-09
C0X150,安定,2025-05-20,23.102614,120.227839,2.8662168e-09
C0R590,里港,2025-05-20,22.77919,120.49459,3.2992364e-08
C0E610,馬都安,2025-05-20,24.451272,120.930192,6.156588e-10
C0E550,明德,2025-05-20,24.583486,120.885411,1.0132605e-09
C0R150,三地門,2025-05-20,22.709889,120.639944,2.784836e-06
C0G910,花壇,2025-05-20,24.032076,120.549461,1.6164794e-09
C1D400,鳥嘴山,2025-05-20,24.71909,121.28387,1.0377068e-09
C0K500,元長,2025-05-20,23.64981,120.315024,3.073577e-09
C0F0B0,石岡,2025-05-20,24.276061,120.777644,1.1622674e-09
C2V250,甲仙,2025-05-20,23.080106,120.591758,2.8148888e-09
C0SA20,金崙山,2025-05-20,22.567419,120.959667,1.4869376e-08
C0V350,溪埔,2025-05-20,22.738578,120.446797,4.0121446e-08
C0M660,溪口,2025-05-20,23.604131,120.403569,1.3803187e-09
C1S880,壽卡,2025-05-20,22.238911,120.858903,0.0009997311
72D680,桃改新埔分場,2025-05-20,24.834444,121.066111,1.3231077e-08
