站號,站名,日期,lat,lon,BLBTSLS
C0R710,龍磐,2025-05-30,21.931672,120.838942,0.24418652
C1F9D1,白毛台,2025-05-30,24.158325,120.886933,0.9959339
C0G940,竹塘,2025-05-30,23.848253,120.386764,0.5063531
467590,恆春,2025-05-30,22.003897,120.746339,0.039064318
C1O850,環湖,2025-05-30,23.148617,120.418633,0.4570912
C0U710,太平山,2025-05-30,24.505486,121.525656,1.8855758e-08
C0E820,獅潭,2025-05-30,24.539133,120.920042,0.95706636
C0V880,興達,2025-05-30,22.8778,120.2127,0.21295698
C0S890,關山,2025-05-30,23.0395,121.175017,0.5714924
C0SB30,新蘭,2025-05-30,22.869214,121.223228,0.20944327
C2R970,屏科大,2025-05-30,22.648275,120.619247,0.41825885
C1Z130,銅門,2025-05-30,23.965694,121.492842,0.12302875
C0AD40,土城,2025-05-30,24.973208,121.445169,0.011278148
CAN140,六官養殖協會,2025-05-30,23.22881,120.29962,0.19420557
C0X180,山上,2025-05-30,23.0757,120.363253,0.28691313
C0F9Z0,雪山東峰,2025-05-30,24.388792,121.268675,1.5084103e-08
C1M480,獨立山,2025-05-30,23.537022,120.607797,0.992725
C0X220,學甲,2025-05-30,23.230367,120.182187,0.19379729
467650,日月潭,2025-05-30,23.881325,120.90805,0.9869301
C0K600,箔子寮,2025-05-30,23.6197,120.14,0.29400095
C0G830,埤頭,2025-05-30,23.866003,120.452806,0.5296992
C0S950,七塊厝,2025-05-30,22.954453,121.229922,0.9928853
467110,金門,2025-05-30,24.407306,118.289281,0.081404455
C0AH80,深坑,2025-05-30,25.002703,121.628328,0.014474745
C0A970,三貂角,2025-05-30,25.007606,122.002058,0.8703818
C2D730,寶山農場,2025-05-30,24.732444,120.976153,0.9565385
C0K430,褒忠,2025-05-30,23.690938,120.303634,0.715986
467480,嘉義,2025-05-30,23.495925,120.432906,0.3774099
C0V400,阿公店,2025-05-30,22.804194,120.355528,0.1834898
467550,玉山,2025-05-30,23.48718,120.95943,1.956206e-08
C0R440,大漢山,2025-05-30,22.405264,120.753181,6.42778e-09
C0K280,四湖,2025-05-30,23.630414,120.227125,0.70846605
C1F9B1,桐林,2025-05-30,24.066172,120.735194,0.041607995
C2H9U0,鳳鵬,2025-05-30,23.763919,120.788061,0.99432784
C0K390,土庫,2025-05-30,23.679029,120.395574,0.52656096
C1I450,望鄉山,2025-05-30,23.594153,120.944286,8.936132e-09
C0E910,海埔,2025-05-30,24.648767,120.772435,0.5627325
B2E890,畜試北區分所,2025-05-30,24.527806,120.770972,0.82259405
C0R750,四林格山,2025-05-30,22.076989,120.802439,0.376451
C0F0C0,中坑,2025-05-30,24.248517,120.903319,0.00013734798
C1I121,大鞍,2025-05-30,23.678381,120.760017,3.2577907e-07
72U480,花改蘭陽分場,2025-05-30,24.686306,121.716583,0.4430892
C0A770,科教館,2025-05-30,25.096356,121.516507,0.010474438
C0AJ60,六塊厝,2025-05-30,25.24,121.4481,0.010546274
C0R620,墾雷,2025-05-30,21.900836,120.855269,0.048709553
467420,永康,2025-05-30,23.038386,120.2367,0.22133832
C0I410,名間,2025-05-30,23.837053,120.701447,0.9704307
A2C560,農工中心,2025-05-30,24.985917,121.239833,0.06158452
C0V740,旗山,2025-05-30,22.888614,120.483597,0.1913759
C0Z061,玉里,2025-05-30,23.3215,121.339656,0.3296756
C0S840,南田,2025-05-30,22.279725,120.889208,0.13076529
C1I470,杉林溪,2025-05-30,23.639517,120.786444,2.0938808e-08
C1X040,東原,2025-05-30,23.291597,120.463822,0.5648207
C0R660,枋寮,2025-05-30,22.367722,120.590647,0.293591
C1R120,上德文,2025-05-30,22.763272,120.704442,0.9770068
C0K450,大埤,2025-05-30,23.646074,120.431537,0.5486147
C0UA00,土場,2025-05-30,24.576533,121.495333,0.9974254
467080,宜蘭,2025-05-30,24.763975,121.756528,0.34786305
C0N030,四草,2025-05-30,23.0235,120.1116,0.18526378
467410,臺南,2025-05-30,22.99328,120.20492,0.23084207
C0V650,彌陀,2025-05-30,22.783806,120.246361,0.1675896
C0D660,新竹市東區,2025-05-30,24.798681,120.986942,0.7266142
82S580,茶改東部分場,2025-05-30,22.907694,121.130139,0.44351846
C0SB40,興隆,2025-05-30,22.913661,121.257469,0.20773405
467050,新屋,2025-05-30,25.006725,121.047492,0.021012818
C0C710,大溪永福,2025-05-30,24.892936,121.324975,0.06651198
C0FA20,溫寮,2025-05-30,24.372177,120.583125,0.0231814
C0V640,湖內,2025-05-30,22.887139,120.2445,0.22516868
C0R910,下寮,2025-05-30,22.3929,120.5548,0.29320085
C0Z020,明里,2025-05-30,23.208717,121.262342,0.5772578
C0M770,嘉義梅山,2025-05-30,23.585398,120.555587,0.9624276
C0C660,楊梅,2025-05-30,24.912375,121.143047,0.069453016
C1E511,新開,2025-05-30,24.347703,120.827019,0.9746086
G2F820,農試所(霧峰),2025-05-30,24.031261,120.688133,0.031378828
C1I070,和社,2025-05-30,23.591131,120.888861,0.99923664
C2F000,大肚,2025-05-30,24.15295,120.572117,0.9670978
C1S850,豐南,2025-05-30,23.122139,121.262389,0.997572
C2A920,富貴角,2025-05-30,25.263783,121.565258,0.060629997
CAH030,茶改場竹圍站,2025-05-30,23.860083,120.637528,0.97686136
C0T960,光復,2025-05-30,23.660694,121.424964,0.11181299
C0F9M0,豐原,2025-05-30,24.254322,120.720692,0.9724247
C0R720,旭海,2025-05-30,22.205403,120.887614,0.21326919
C0V710,苓雅,2025-05-30,22.622742,120.330669,0.17276114
C0C740,觀音工業區,2025-05-30,25.064764,121.114856,0.01710143
CAC040,拉拉山,2025-05-30,24.699317,121.427133,1.307481e-08
C0V790,萬山,2025-05-30,22.905944,120.688056,0.97587556
U2HA30,臺大和社,2025-05-30,23.590856,120.888864,0.99923664
C0AJ90,澳底,2025-05-30,25.0552,121.9253,0.35268003
C0Z100,東華,2025-05-30,23.89525,121.549833,0.11811001
C0G970,三豐,2025-05-30,23.882,120.2895,0.68559825
V2K610,大庄合作社,2025-05-30,23.8068,120.367939,0.72047
C0V900,汕尾,2025-05-30,22.4782,120.4151,0.29213533
C1R630,龍泉,2025-05-30,22.66701,120.59091,0.32899317
C1AC50,關渡,2025-05-30,25.133486,121.469331,0.030449305
C0F9I0,神岡,2025-05-30,24.272481,120.658314,0.95721966
C0K460,斗南,2025-05-30,23.678734,120.478359,0.56209147
C2O810,曾文,2025-05-30,23.219681,120.497328,0.42205164
467280,後龍,2025-05-30,24.648563,120.831834,0.6678536
C1F9J1,清水林,2025-05-30,24.071242,120.820419,0.9944216
C2A650,火燒寮,2025-05-30,25.002719,121.742892,0.99608433
466930,竹子湖,2025-05-30,25.162078,121.544547,2.4447656e-08
C1I220,樟湖,2025-05-30,23.905333,120.846983,0.78035104
C0I390,仁愛,2025-05-30,24.022122,121.132206,0.6022029
C0Z300,東里,2025-05-30,23.26853,121.30547,0.37553862
C1V590,新發,2025-05-30,23.057019,120.646064,0.99180573
C0K510,水林,2025-05-30,23.572924,120.24597,0.305448
72S590,東改賓朗果園,2025-05-30,22.813889,121.071278,0.89782333
82A750,茶改北部分場,2025-05-30,24.955778,121.631222,7.584912e-05
C1A750,石碇服務區,2025-05-30,25.00872,121.646242,0.018402068
C0X300,鹿寮,2025-05-30,23.386047,120.477331,0.7117565
G2AI50,關渡,2025-05-30,25.11575,121.492,0.010515538
C0K590,雲林東勢,2025-05-30,23.674192,120.255721,0.7178503
C0A570,桶後,2025-05-30,24.848222,121.597992,0.98427504
C1S800,華源,2025-05-30,22.657883,121.02325,0.2728247
C0G720,溪州,2025-05-30,23.851589,120.499093,0.5723233
C1V160,達卡努瓦,2025-05-30,23.279811,120.705319,0.9615242
C2M410,馬頭山,2025-05-30,23.324361,120.582017,0.6760528
C0V850,蚵仔寮,2025-05-30,22.7256,120.2527,0.16933341
C0S740,池上,2025-05-30,23.119628,121.209469,0.863594
C1V390,尖山,2025-05-30,22.813153,120.367789,0.1944976
C0AH70,松山,2025-05-30,25.04871,121.55042,0.01104683
C0N010,鯤鯓國小,2025-05-30,23.1879,120.0889,0.18703926
C0R550,新埤,2025-05-30,22.467947,120.582894,0.28880492
C0SA60,知本（水試所）,2025-05-30,22.702394,121.082761,0.19375046
C0T9I0,豐濱,2025-05-30,23.583897,121.514806,0.11576831
C0UB00,淡江大學蘭陽校園,2025-05-30,24.823239,121.730383,0.99830425
C0W240,九宮,2025-05-30,24.423753,118.240186,0.07969843
C0T9N0,富里,2025-05-30,23.171639,121.249378,0.6968256
U2HA50,臺大竹山,2025-05-30,23.756972,120.681556,0.96941596
C0V840,鳳鼻頭,2025-05-30,22.5083,120.3591,0.16933334
C0X140,西港,2025-05-30,23.125608,120.203108,0.1946589
72D080,桃改五峰分場,2025-05-30,24.612194,121.157167,3.1740483e-06
C2H9P0,伊拿谷,2025-05-30,23.963211,121.088264,0.99530286
C2H9F0,柑林,2025-05-30,24.018658,120.847072,0.9466352
C0TA20,加灣,2025-05-30,24.082025,121.608944,0.12182847
C0V530,阿蓮,2025-05-30,22.883208,120.327508,0.24212842
C1O880,關山,2025-05-30,23.173397,120.594092,0.6888351
C0E791,卓蘭,2025-05-30,24.3126,120.8244,0.97982436
C1I030,武界,2025-05-30,23.913225,121.052483,0.9945087
C0R520,崁頂,2025-05-30,22.514781,120.506914,0.2893586
C0R341,牡丹,2025-05-30,22.130036,120.792639,0.72637963
C0R930,萬丹,2025-05-30,22.5885,120.4851,0.29204202
C0S760,紅石,2025-05-30,23.069131,121.126219,6.938091e-08
C2C410,中央大學,2025-05-30,24.967652,121.185165,0.06384511
C1M610,石磐龍,2025-05-30,23.496606,120.663506,0.59443957
C0UA10,鴛鴦湖,2025-05-30,24.590269,121.412228,1.0666079e-08
V2C260,八德蔬果,2025-05-30,24.978508,121.281819,0.05743261
C0R800,丹路,2025-05-30,22.204481,120.750989,0.40457624
C0G920,永靖,2025-05-30,23.924703,120.547533,0.10610204
C2M950,太和,2025-05-30,23.538372,120.702961,5.701363e-06
C1A630,下盆,2025-05-30,24.771003,121.538622,0.98650694
B2N890,畜產試驗所,2025-05-30,23.058972,120.336406,0.24598573
C0UA30,白嶺,2025-05-30,24.527819,121.519031,3.0723834e-07
C1V580,溪南(特生中心),2025-05-30,23.084972,120.788475,1.1524605e-07
C1T970,大農,2025-05-30,23.615233,121.413331,0.12437599
C0R650,竹田,2025-05-30,22.58486,120.54344,0.28829446
C1H900,清流,2025-05-30,24.080775,120.962997,0.99530905
C1C510,水尾,2025-05-30,24.940081,121.087161,0.04972302
C0F9X0,大雅(中科園區),2025-05-30,24.21528,120.62445,0.06224018
C0SB60,白守蓮,2025-05-30,23.126769,121.401914,0.19589707
C0O970,虎頭埤,2025-05-30,23.021375,120.347878,0.2891195
C0C730,中大臨海站,2025-05-30,24.966126,121.008581,0.016281407
C0X250,新營,2025-05-30,23.310689,120.316681,0.2029604
C0V700,三民,2025-05-30,22.645017,120.311233,0.17276114
C0U870,大礁溪,2025-05-30,24.791042,121.675047,0.9990603
C0E870,高鐵苗栗,2025-05-30,24.60725,120.826094,0.024518909
A2K570,古坑花卉中心,2025-05-30,23.63353,120.55239,0.7964397
C0TA30,鹽寮,2025-05-30,23.845606,121.592664,0.12182847
C0M860,新美,2025-05-30,23.338017,120.683169,0.99059725
C1E701,八卦,2025-05-30,24.491756,120.927619,0.0030409838
C0I420,國姓,2025-05-30,24.037803,120.855072,0.980282
C2D720,關西工作站,2025-05-30,24.757275,121.184792,0.9670815
C0S960,香蘭,2025-05-30,22.587569,120.993375,0.12742518
467620,蘭嶼,2025-05-30,22.0369,121.55843,0.08378394
C0R260,春日,2025-05-30,22.370361,120.628306,0.3017278
72G600,臺中農改場,2025-05-30,24.003028,120.534389,0.10626222
C0Z210,瑞穗,2025-05-30,23.5239,121.39021,0.11202735
C0M820,達邦,2025-05-30,23.453994,120.749517,0.97777396
C0V860,南寮,2025-05-30,22.7616,120.2339,0.16840407
C0G740,大城,2025-05-30,23.852487,120.320935,0.7166903
C0R920,塭仔,2025-05-30,22.4169,120.5197,0.29213533
C0R470,高樹,2025-05-30,22.826389,120.600806,0.3770405
C0R680,佳樂水,2025-05-30,21.993578,120.861633,0.03821599
C1O870,大棟山,2025-05-30,23.31157,120.52226,0.36874968
C0D360,梅花,2025-05-30,24.678347,121.208558,9.400853e-08
C0Z190,富世,2025-05-30,24.14743,121.6297,0.0780161
C0AI10,屈尺,2025-05-30,24.92184,121.54475,0.01503169
B2U990,畜試東區分所,2025-05-30,24.669039,121.832561,0.3113708
C0SB80,長濱漁港,2025-05-30,23.313644,121.459994,0.19701612
C0R240,來義,2025-05-30,22.527306,120.625111,0.33042207
C0V910,大樹,2025-05-30,22.684645,120.432803,0.3076454
C1R610,西大武山,2025-05-30,22.617719,120.7322,6.0591767e-09
C0G900,線西,2025-05-30,24.143358,120.443536,0.02322442
C0M700,竹崎,2025-05-30,23.526178,120.555508,0.92475975
C2E880,三義,2025-05-30,24.405478,120.749819,0.99492997
C0C720,竹圍,2025-05-30,25.112692,121.239824,0.010466202
C0F9P0,清水,2025-05-30,24.312297,120.562242,0.023526616
C0Z150,吉安光華,2025-05-30,23.930925,121.595153,0.124119915
467300,東吉島,2025-05-30,23.25727,119.66762,0.14179958
C1D640,外坪(五指山),2025-05-30,24.644447,121.090961,0.49855077
C0F9O0,潭子,2025-05-30,24.213106,120.703933,0.9532883
C2H9R0,卓社,2025-05-30,23.887894,121.000086,1.3732035e-05
72T250,花蓮農改場,2025-05-30,23.975222,121.563889,0.11816182
C0E780,銅鑼,2025-05-30,24.489681,120.790853,0.94422936
C1T950,太安,2025-05-30,23.666719,121.370128,0.97405064
C0E830,苑裡,2025-05-30,24.439714,120.653053,0.024274353
467270,田中,2025-05-30,23.873803,120.581286,0.59804386
C0SA10,檳榔四格山,2025-05-30,22.810031,121.109308,0.98517686
C1T830,布洛灣,2025-05-30,24.17184,121.57127,0.99221015
C0F970,大坑,2025-05-30,24.173142,120.722289,0.92746395
C1U920,思源,2025-05-30,24.393125,121.347214,5.7127787e-09
C0A931,三和,2025-05-30,25.233153,121.595236,0.047557656
C0I010,廬山,2025-05-30,24.033311,121.181808,1.3409266e-07
C2M940,日野賀,2025-05-30,23.434056,120.727169,0.39165366
C0R860,鼻頭,2025-05-30,22.1043,120.8979,0.1230943
C0UB20,壯圍,2025-05-30,24.7359,121.8163,0.26209426
C0R790,九棚,2025-05-30,22.14195,120.889281,0.15718134
C0W110,東莒,2025-05-30,25.9652,119.98069,0.3125881
C1U930,粉鳥林,2025-05-30,24.497088,121.842479,0.052480817
C1I211,蘆竹湳,2025-05-30,23.934019,120.811994,0.9945859
C0S830,長濱,2025-05-30,23.286817,121.411975,0.70560277
C1F9F1,伯公龍,2025-05-30,24.272392,120.849047,0.9938458
C0E810,西湖,2025-05-30,24.562947,120.7485,0.6953297
C1I440,新高口,2025-05-30,23.478744,120.878939,5.4760254e-09
C0O840,王爺宮,2025-05-30,23.222064,120.40085,0.4203762
C0T9G0,鳳林山,2025-05-30,23.735269,121.420131,0.99629307
C0X080,佳里,2025-05-30,23.173039,120.145086,0.1864654
C0FB70,大甲溪埔,2025-05-30,24.370625,120.620067,0.025442079
C0Z310,清水斷崖,2025-05-30,24.218294,121.689142,0.12137277
C0M680,太保,2025-05-30,23.455062,120.331455,0.33354372
C1S820,金峰,2025-05-30,22.590969,120.933236,0.17094383
C0AD10,八里,2025-05-30,25.150211,121.403947,0.010507176
C2K240,草嶺,2025-05-30,23.59555,120.693461,0.5077338
C1SA70,都蘭,2025-05-30,22.87794,121.226881,0.21084057
C0K440,二崙,2025-05-30,23.772797,120.408944,0.52907795
C1A760,坪林交控,2025-05-30,24.94284,121.713442,0.9939327
C0F9N0,大里,2025-05-30,24.092464,120.701378,0.677307
C0SA90,達仁林場,2025-05-30,22.264347,120.823972,0.9621605
C1R290,石門山,2025-05-30,22.112611,120.756597,0.7883548
42HA10,萬大發電廠,2025-05-30,23.978875,121.139639,0.97405064
C0R890,山海,2025-05-30,21.9878,120.7091,0.030992933
C0T9A0,月眉山,2025-05-30,23.809928,121.539828,0.99073327
C0AC70,信義,2025-05-30,25.037822,121.564597,0.011243432
C0K560,棋山,2025-05-30,23.68645,120.603417,0.8578338
C2FB50,出雲,2025-05-30,24.206469,120.902794,0.94172263
C1Z240,中平林道,2025-05-30,23.42115,121.26763,0.9438401
U2H480,溪頭,2025-05-30,23.670306,120.798194,0.2859115
C0M880,好美里,2025-05-30,23.3364,120.138,0.1864654
C0T9E0,大坑,2025-05-30,23.880628,121.581981,0.9332964
C0K530,臺西,2025-05-30,23.701547,120.197559,0.69525015
C1E900,國一N128K,2025-05-30,24.560997,120.844186,0.78323174
C0AJ50,水湳洞,2025-05-30,25.123695,121.862238,0.011254018
C0AI20,白沙灣,2025-05-30,25.283128,121.519058,0.011254018
C2V310,美濃,2025-05-30,22.898792,120.51907,0.18722647
C0A860,大坪,2025-05-30,25.165914,121.632969,0.0015697852
C1U850,觀音海岸,2025-05-30,24.38319,121.77856,0.24195682
C2K610,草嶺石壁,2025-05-30,23.602469,120.707731,0.29658908
C0U950,鶯子嶺,2025-05-30,24.89754,121.79244,1.2317057e-07
C0O900,善化,2025-05-30,23.112883,120.297219,0.21825515
C0K550,蔦松,2025-05-30,23.514319,120.229736,0.2996968
E2P980,林試六龜中心,2025-05-30,22.991703,120.645722,0.75653225
C0E590,通霄,2025-05-30,24.471892,120.704622,0.7266142
C1I310,西巒,2025-05-30,23.754486,120.883956,0.9647524
C0A550,泰平,2025-05-30,24.971197,121.823711,8.050962e-05
C0I360,水里,2025-05-30,23.812553,120.849792,0.9493115
C0R830,高士,2025-05-30,22.121825,120.836781,0.6913372
C1I101,溪頭,2025-05-30,23.661789,120.807647,9.7663735e-09
C0AJ20,野柳,2025-05-30,25.20703,121.690021,0.01104683
C0B060,暖暖,2025-05-30,25.0957,121.7403,0.018332534
C1H920,長豐,2025-05-30,24.102039,120.879897,0.99434596
C0V360,內門,2025-05-30,22.975481,120.466769,0.3605504
C0R850,林邊,2025-05-30,22.4634,120.5339,0.28968355
C0E930,龍鳳,2025-05-30,24.700034,120.859125,0.5374158
C0U910,冬山,2025-05-30,24.63373,121.7937,0.3113708
C1E721,泰安,2025-05-30,24.489017,120.968036,1.4028608e-07
82H320,茶改中部分場,2025-05-30,23.875611,120.913583,0.99622416
C0M750,布袋,2025-05-30,23.380878,120.167789,0.2915873
C1S860,利嘉,2025-05-30,22.809417,121.050528,0.9660953
E2S980,林試太麻里1,2025-05-30,22.598922,120.980044,0.11699827
C0X170,關廟,2025-05-30,22.963017,120.327797,0.26370654
C0V720,林園,2025-05-30,22.507747,120.394511,0.28968328
C1I510,線浸林道,2025-05-30,23.761508,120.832956,0.020279285
C0D690,外湖,2025-05-30,24.917735,120.968711,0.015922304
C0C750,新興坑尾,2025-05-30,25.0061,121.0971,0.035208005
B2Q810,畜試南區分所,2025-05-30,21.945583,120.802167,0.034333073
C0S790,金崙,2025-05-30,22.538122,120.966875,0.23310307
C0AH90,福山植物園,2025-05-30,24.760717,121.58135,0.7972608
C0I540,奇萊稜線,2025-05-30,24.109231,121.326456,1.0251757e-08
C0M850,表湖,2025-05-30,23.24186,120.64166,0.99168146
C0S770,大溪山,2025-05-30,22.478475,120.943325,0.7226973
C0AG80,中和,2025-05-30,24.991622,121.491792,0.011317024
C0T790,大禹嶺,2025-05-30,24.186117,121.316086,9.488254e-09
C0T9B0,水源,2025-05-30,23.991861,121.537169,0.9907783
C0R840,牡丹池山,2025-05-30,22.168389,120.841225,0.95814306
C1I131,桶頭,2025-05-30,23.641944,120.654117,0.978804
CAL110,布袋國中,2025-05-30,23.35893,120.18026,0.18598683
467571,新竹,2025-05-30,24.827853,121.014219,0.6662938
C0Z290,赤柯山,2025-05-30,23.36893,121.38293,0.9987576
C0X280,將軍,2025-05-30,23.214999,120.13577,0.18703926
C0S690,太麻里,2025-05-30,22.60902,120.98533,0.8828302
C0U880,北關,2025-05-30,24.9072,121.8734,0.010474438
C0G810,埔心,2025-05-30,23.947633,120.525456,0.108155325
C0U970,大福,2025-05-30,24.80064,121.81389,0.25284716
C2H9N0,仁愛東眼,2025-05-30,24.026875,121.1205,7.55465e-06
C1E670,南礦,2025-05-30,24.538278,121.002836,0.00042748122
C0M520,東後寮,2025-05-30,23.369908,120.248065,0.19379729
C1E461,松安,2025-05-30,24.397972,120.986022,9.904036e-07
C2N160,西拉雅風管處,2025-05-30,23.189481,120.335297,0.21489
C2M970,碧湖,2025-05-30,23.568632,120.624165,0.9290763
C0A640,石碇,2025-05-30,24.993969,121.662917,0.99422497
E2S960,林試太麻里2,2025-05-30,22.598,120.99775,0.13099496
C0F9Y0,桃山,2025-05-30,24.432739,121.303808,1.6569016e-08
C1I020,萬大,2025-05-30,23.979817,121.132261,0.51472455
C0U940,羅東,2025-05-30,24.68184,121.74934,0.36499888
C0M650,朴子,2025-05-30,23.43463,120.23902,0.305448
C1I500,大尖山,2025-05-30,23.858572,120.994889,9.595577e-09
C0G820,田尾,2025-05-30,23.901669,120.509389,0.11162504
E2K600,四湖植物園,2025-05-30,23.676986,120.163433,0.7151384
C0S730,綠島,2025-05-30,22.6672,121.47533,0.24959494
12Q970,東港工作站,2025-05-30,22.479997,120.466058,0.293591
C0E430,南庄,2025-05-30,24.601775,121.000214,0.9565124
C1TA00,太魯閣,2025-05-30,24.15773,121.6236,0.113280974
466920,臺北,2025-05-30,25.037658,121.514853,0.01104683
C0R600,舊泰武,2025-05-30,22.588194,120.664944,0.99006
C1I260,北坑,2025-05-30,23.9246,121.006903,0.9945585
466910,鞍部,2025-05-30,25.182586,121.529731,4.3665347e-09
C1I230,九份二山,2025-05-30,23.961944,120.845,0.9966385
C2A660,瑞芳,2025-05-30,25.113169,121.801147,0.027011788
C0R270,琉球嶼,2025-05-30,22.332244,120.362236,0.30981517
C1T990,高寮,2025-05-30,23.394239,121.356808,0.11226302
C0G620,芬園,2025-05-30,24.015678,120.6213,0.18573031
C1Z140,荖溪,2025-05-30,23.890575,121.45964,0.9988321
C1I201,中心崙,2025-05-30,23.728722,120.712097,0.99435437
C1I400,凌霄,2025-05-30,24.018778,121.004456,3.6724894e-05
C1M640,十字,2025-05-30,23.492153,120.753683,8.038753e-08
G2P820,農試鳳山分所,2025-05-30,22.646611,120.356083,0.17591475
C0Z270,蕃薯寮,2025-05-30,23.73835,121.540108,0.45767254
C0F9Q0,外埔,2025-05-30,24.347817,120.705686,0.9349759
C0K580,高鐵雲林,2025-05-30,23.737456,120.417944,0.52907795
C2I090,鳳凰,2025-05-30,23.728081,120.787347,0.9953063
C0U990,員山,2025-05-30,24.74435,121.72247,0.35348046
C0V770,大社,2025-05-30,22.730306,120.346639,0.17562614
C0X120,麻豆,2025-05-30,23.183289,120.248611,0.1946589
C0C670,龍潭,2025-05-30,24.870056,121.221389,0.94968057
C0D680,香山濕地,2025-05-30,24.783581,120.914988,0.5583863
C0S980,勝林山,2025-05-30,22.430439,120.8938,0.96544516
C0V730,大寮,2025-05-30,22.605614,120.395717,0.28880492
C0R570,麟洛,2025-05-30,22.65078,120.52719,0.3099739
C2M930,石卓,2025-05-30,23.478744,120.702264,1.2038447e-07
C0G9B0,和美,2025-05-30,24.105169,120.492131,0.10273416
CAG100,王功漁港,2025-05-30,23.96824,120.32586,0.69525015
C0X290,北門,2025-05-30,23.267772,120.125481,0.18598683
C2F930,大甲,2025-05-30,24.347667,120.640403,0.03562838
C0D650,湖口,2025-05-30,24.904794,121.043628,0.04500714
C0E420,竹南,2025-05-30,24.708978,120.888897,0.6594565
C0U780,五結,2025-05-30,24.68637,121.79794,0.3113708
C1I250,鯉潭,2025-05-30,23.961922,120.991131,0.99434596
C0R130,阿禮,2025-05-30,22.742908,120.743678,0.10195632
C0X100,臺南市北區,2025-05-30,23.010394,120.194228,0.21295698
C0S920,金峰嘉蘭,2025-05-30,22.594789,120.960825,0.11717988
C0V490,新興,2025-05-30,22.627422,120.298803,0.16894594
C0F9K0,大安,2025-05-30,24.345061,120.588025,0.024623318
467290,古坑,2025-05-30,23.633639,120.551889,0.7964397
C2E970,八甲,2025-05-30,24.535811,120.795983,0.9516807
C0V440,鳳山,2025-05-30,22.646653,120.356122,0.17591469
C1T940,大觀,2025-05-30,23.714206,121.373133,0.99386454
C0E740,造橋,2025-05-30,24.637056,120.864778,0.62861526
C0R100,尾寮山,2025-05-30,22.833111,120.683889,0.10115036
A2K630,臺大雲林校區,2025-05-30,23.730628,120.423903,0.54464364
467990,馬祖,2025-05-30,26.169467,119.923158,0.99980974
C0D580,寶山,2025-05-30,24.735006,121.025192,0.965409
E2P990,林試扇平站,2025-05-30,22.9677,120.6857,0.9967012
C0AI30,三重,2025-05-30,25.057328,121.500629,0.010474438
C0AH00,汐止,2025-05-30,25.066881,121.658778,0.01104683
C1Z040,立山,2025-05-30,23.443356,121.327375,0.9826504
466881,新北,2025-05-30,24.959207,121.525196,0.01189158
C0W130,花嶼,2025-05-30,23.40007,119.32276,0.11559353
C0A950,鼻頭角,2025-05-30,25.129036,121.923372,0.3223624
C0K470,林內,2025-05-30,23.748675,120.609642,0.78720456
C2F990,摩天嶺,2025-05-30,24.322458,120.936819,0.98308545
82C160,茶改場,2025-05-30,24.908472,121.185333,0.0572448
C0Z320,清水林道,2025-05-30,23.27125,121.188272,0.99908954
C0R760,南仁湖,2025-05-30,22.084681,120.863353,0.78765726
C0M670,大林,2025-05-30,23.600616,120.45841,0.38777596
C0M800,茶山,2025-05-30,23.299075,120.664767,0.9862639
C0A9C0,天母,2025-05-30,25.117494,121.537169,0.011317024
72K220,南改斗南分場,2025-05-30,23.634556,120.477333,0.57963014
72AI40,桃改樹林分場,2025-05-30,24.944503,121.386972,0.011737944
C0S910,蘭嶼燈塔,2025-05-30,22.081197,121.503117,0.55107814
C0B050,八斗子,2025-05-30,25.144754,121.79167,0.010546274
C0U900,內城,2025-05-30,24.71813,121.68766,0.56103414
C0X320,柳營,2025-05-30,23.253328,120.375253,0.3774099
C0M790,新港,2025-05-30,23.553269,120.345728,0.31967166
C0F9T0,西屯,2025-05-30,24.179494,120.641275,0.03562838
C0SA30,都歷,2025-05-30,23.020333,121.323642,0.22259426
C0C620,蘆竹,2025-05-30,25.084275,121.265767,0.011523797
C0R730,大坪頂,2025-05-30,22.024633,120.69355,0.65644747
C0AJ40,石門,2025-05-30,25.273672,121.601198,0.050613254
C0E750,苗栗,2025-05-30,24.564569,120.824575,0.750814
C0T870,鯉魚潭,2025-05-30,23.935639,121.508944,0.11538314
C1V170,排雲,2025-05-30,23.463619,120.954147,1.6337452e-08
C2H950,中寮,2025-05-30,23.884447,120.766406,0.08752444
C0R350,貓鼻頭,2025-05-30,21.921774,120.7358,0.04311018
C0V660,岡山,2025-05-30,22.797078,120.294958,0.16871037
C1H941,雙冬,2025-05-30,23.967378,120.802189,0.99451274
C0AJ70,田寮,2025-05-30,25.2698,121.4886,0.010969319
C0AI00,五股,2025-05-30,25.07445,121.42728,0.06368003
C0Z280,德武,2025-05-30,23.47426,121.41071,0.12602998
C0R700,枋山,2025-05-30,22.246844,120.661086,0.28968328
C0C460,復興,2025-05-30,24.820208,121.352281,4.0074096e-06
E2H360,蓮華池,2025-05-30,23.918333,120.885278,0.99444854
C0M640,中埔,2025-05-30,23.42538,120.5229,0.93362296
C0W140,金沙,2025-05-30,24.488292,118.408778,0.034788024
C2A540,四堵,2025-05-30,24.8926,121.745736,0.0075466484
C0ACA0,新莊,2025-05-30,25.051478,121.446756,0.010561496
C0R220,潮州,2025-05-30,22.534361,120.54,0.28867033
U2HA40,臺大內茅埔,2025-05-30,23.689722,120.851117,0.99483377
467490,臺中,2025-05-30,24.145736,120.684075,0.034156594
C0U960,翠峰湖,2025-05-30,24.510856,121.608044,2.1355739e-08
E2HA20,林試畢祿溪站,2025-05-30,24.226944,121.308522,5.86133e-09
C0V890,前鎮,2025-05-30,22.5718,120.3117,0.1675896
C1F941,雪嶺,2025-05-30,24.280586,121.026642,7.789819e-09
C2H9E0,國姓南港,2025-05-30,23.911108,120.846556,0.6030228
C0AC80,文山,2025-05-30,25.00235,121.575728,0.014940284
C0F9R0,龍井,2025-05-30,24.184536,120.528972,0.023147952
C0M760,民雄,2025-05-30,23.551754,120.428457,0.3841243
C0UA40,西德山,2025-05-30,24.560647,121.752608,0.0050248536
C1T920,中興,2025-05-30,23.769503,121.498653,0.113864586
C0D550,雪霸,2025-05-30,24.526972,121.11605,7.3360806e-09
C2F860,梨山,2025-05-30,24.247522,121.243669,5.8765317e-09
C0R320,車城,2025-05-30,22.0744,120.716247,0.031043077
C1S870,南美山,2025-05-30,23.15025,121.382333,0.6676996
C0B020,基隆嶼,2025-05-30,25.19141,121.78391,0.011254442
C1U501,牛鬥,2025-05-30,24.637836,121.573656,0.9959754
C0M730,嘉義市東區,2025-05-30,23.457673,120.460531,0.38636538
C0S700,知本,2025-05-30,22.684866,121.005642,0.9621605
C1N001,沙崙,2025-05-30,22.935472,120.309406,0.24306208
C0V760,橋頭,2025-05-30,22.757806,120.30575,0.16894594
C0G960,福寶,2025-05-30,24.0443,120.3814,0.10282228
C0X210,白河,2025-05-30,23.347466,120.414427,0.401247
C0S810,東河,2025-05-30,22.972672,121.303986,0.20730262
C2R170,屏東,2025-05-30,22.66027,120.49403,0.30832526
C0R670,楓港,2025-05-30,22.190131,120.692156,0.2900491
C0FA50,霧峰,2025-05-30,24.0419,120.6995,0.033344943
C0UB10,蘇澳,2025-05-30,24.5969,121.8571,0.052547205
C0G950,防潮門,2025-05-30,24.1835,120.4871,0.023126977
C0M740,六腳,2025-05-30,23.492871,120.290625,0.31267232
C1R250,力里,2025-05-30,22.428117,120.629228,0.32815453
C0K330,虎尾,2025-05-30,23.719183,120.442036,0.55544734
C2FA00,烏石坑,2025-05-30,24.273503,120.947617,0.9854384
C0V620,永安,2025-05-30,22.82315,120.236856,0.1675896
C1I330,楓樹林,2025-05-30,23.986803,121.076117,0.0001468365
C0W200,湖西,2025-05-30,23.596314,119.67275,0.029134229
72Q010,高雄農改場,2025-05-30,22.709333,120.525889,0.31338426
C0SA40,瑞和,2025-05-30,22.974361,121.156697,0.45427147
C0C680,龜山,2025-05-30,25.02846,121.38656,0.99528384
C2V260,月眉,2025-05-30,22.971003,120.539853,0.41825885
C0V450,鳳森,2025-05-30,22.545064,120.392592,0.3008245
C0U720,南山,2025-05-30,24.43742,121.38167,0.0012454535
A2N290,臺南蘭花園區,2025-05-30,23.340258,120.379661,0.3655124
C0R560,新園,2025-05-30,22.5434,120.461558,0.28968328
C0U890,三星,2025-05-30,24.66812,121.65302,0.89256656
C1V300,御油山,2025-05-30,23.001983,120.715364,2.0288091e-07
C0U600,礁溪,2025-05-30,24.817539,121.765608,0.37897965
C1T980,龍澗,2025-05-30,24.023289,121.411328,6.636688e-05
C0D670,海天一線,2025-05-30,24.831986,120.914438,0.5374158
C0SA00,歷坵,2025-05-30,22.520969,120.89185,0.9256453
C0M710,東石,2025-05-30,23.458927,120.15385,0.29326573
C0M780,鹿草,2025-05-30,23.41134,120.30835,0.3345698
C0U520,雙連埤,2025-05-30,24.753033,121.641303,0.9990441
C0B010,七堵,2025-05-30,25.094819,121.71713,0.011426119
C0R480,長治,2025-05-30,22.693128,120.542622,0.32539672
C1V830,國三S383K,2025-05-30,22.781967,120.426475,0.41139072
12Q980,恆春工作站,2025-05-30,22.079678,120.714425,0.031218281
C1O940,東山服務區,2025-05-30,23.286016,120.398472,0.4053906
C1U840,東澳嶺,2025-05-30,24.5378,121.8485,2.9071269e-05
C1D630,飛鳳山,2025-05-30,24.766464,121.119178,0.9951234
C0S940,石寧山,2025-05-30,23.223772,121.406639,0.28772846
C0K410,北港,2025-05-30,23.573957,120.292802,0.31526077
C2M620,瑞里,2025-05-30,23.545133,120.675197,0.0057053715
C0SB70,小港漁港,2025-05-30,23.158558,121.400431,0.190941
C2O950,安南,2025-05-30,23.076694,120.144861,0.21115975
C0F0E0,南湖圈谷,2025-05-30,24.363714,121.444667,2.3641352e-08
467610,成功,2025-05-30,23.097486,121.373428,0.2003556
C0G890,伸港,2025-05-30,24.148933,120.484403,0.023216646
C2E540,龍溪,2025-05-30,24.606489,120.783933,0.023539767
C1V200,梅山,2025-05-30,23.268447,120.823556,0.9968582
C0T9H0,加路蘭山,2025-05-30,23.682947,121.5274,0.9995392
C2O930,玉井,2025-05-30,23.126042,120.46055,0.45191035
C1F911,新伯公,2025-05-30,24.221361,120.841069,0.99054426
C0R490,九如,2025-05-30,22.7405,120.490503,0.31205127
C0X200,左鎮,2025-05-30,23.056758,120.408522,0.18862167
C0SB50,叭嗡嗡,2025-05-30,23.047062,121.343223,0.19764881
C1F891,稍來,2025-05-30,24.265689,121.001142,5.8623026e-09
72N240,七股研究中心,2025-05-30,23.081672,120.062894,0.18467873
C0C700,中壢,2025-05-30,24.977661,121.256375,0.06383628
C0M690,水上,2025-05-30,23.419734,120.388909,0.3723275
C0V690,鼓山,2025-05-30,22.623325,120.275575,0.16842036
C0O860,大內,2025-05-30,23.11885,120.36083,0.23834792
C0Z200,萬榮,2025-05-30,23.709219,121.420106,0.1151997
C0T9D0,和中,2025-05-30,24.26676,121.74103,0.056372274
C1O921,楠西,2025-05-30,23.183511,120.484083,0.55472904
C0AJ30,淡水觀海,2025-05-30,25.184591,121.408616,0.010515538
C0V810,左營,2025-05-30,22.67491,120.28491,0.17287529
C0UA70,桃源谷,2025-05-30,24.962606,121.888875,0.99873954
C0X130,官田,2025-05-30,23.193217,120.315422,0.2041462
C1H000,翠峰,2025-05-30,24.109397,121.205211,6.8726025e-09
C0UA90,石城,2025-05-30,24.980444,121.951214,0.40479568
C1E681,南勢山,2025-05-30,24.421669,120.923831,0.00035295458
C0A9F0,內湖,2025-05-30,25.079422,121.57545,0.01104683
C0K291,宜梧,2025-05-30,23.536281,120.169329,0.2915873
C1K540,口湖,2025-05-30,23.585344,120.180517,0.29214904
C0R780,滿州,2025-05-30,22.024403,120.839892,0.04937387
C0V870,文安,2025-05-30,22.8025,120.2164,0.16933341
C0U650,玉蘭,2025-05-30,24.675286,121.587061,0.9991834
C0R640,東港,2025-05-30,22.46247,120.44074,0.29320085
C0AJ80,板橋,2025-05-30,25.0107,121.4489,0.011243432
C0S660,下馬,2025-05-30,23.150427,121.070312,0.99927944
C1H9B1,阿眉,2025-05-30,24.1263,120.994672,1.4139074e-08
C0UA20,多加屯,2025-05-30,24.368614,121.373189,8.570174e-09
C0E730,頭份,2025-05-30,24.688247,120.912206,0.6571871
72V140,高改旗南分場,2025-05-30,22.857861,120.516667,0.3221505
C0K480,莿桐,2025-05-30,23.761192,120.502372,0.5949042
C0U980,坪林石牌,2025-05-30,24.86478,121.77396,0.99815124
C0T900,西林,2025-05-30,23.8119,121.441458,0.12472042
C1I150,青雲,2025-05-30,23.793361,120.949378,0.994279
467350,澎湖,2025-05-30,23.565503,119.563094,0.06539544
C0G800,埔鹽,2025-05-30,24.000394,120.431683,0.10250815
C0H960,草屯,2025-05-30,23.973672,120.68085,0.038096108
C1V780,多納林道,2025-05-30,22.888028,120.737917,0.9155186
C0E920,通霄漁港,2025-05-30,24.498589,120.673876,0.023224412
C0Z330,安通山,2025-05-30,23.290728,121.348528,0.997417
C0AH10,永和,2025-05-30,25.01125,121.508111,0.010443091
C0AK10,太平里,2025-05-30,25.134937,121.364899,0.010969319
C2G640,鹿港,2025-05-30,24.0753,120.430481,0.10589375
C1E890,國三N149K,2025-05-30,24.463414,120.680019,0.7961936
C1R110,口社,2025-05-30,22.770111,120.645222,0.41825885
C1M870,國三N285K,2025-05-30,23.550319,120.505833,0.89610666
C1E480,鳳美,2025-05-30,24.554803,121.034747,0.98548055
C0M530,奮起湖,2025-05-30,23.493903,120.699253,3.5004039e-06
C0C590,觀音,2025-05-30,25.027072,121.153317,0.040034316
C0T9M0,靜浦,2025-05-30,23.455167,121.495028,0.11566226
C2H9M0,發祥,2025-05-30,24.154094,121.164517,0.00017583508
C0AI40,石牌,2025-05-30,25.115597,121.513139,0.01104683
C1F871,上谷關,2025-05-30,24.203483,121.018644,0.9842563
C2H9G0,百勝,2025-05-30,24.051142,120.909361,0.9933216
C0G880,二水,2025-05-30,23.810742,120.6173,0.78031075
C0R940,加祿堂,2025-05-30,22.3363,120.6217,0.29004893
C0W220,北竿,2025-05-30,26.220358,119.974881,0.99962443
C0O960,崎頂,2025-05-30,22.959547,120.369317,0.3942095
C0S750,向陽,2025-05-30,23.248397,120.986133,4.924554e-09
C0T9F0,水璉,2025-05-30,23.797131,121.542514,0.23776127
C1M600,頭凍,2025-05-30,23.406364,120.603339,0.9756245
467660,臺東,2025-05-30,22.752211,121.154586,0.19764881
C1D380,新埔,2025-05-30,24.84745,121.03834,0.95710844
C2G980,田頭村,2025-05-30,23.8263,120.444175,0.5271818
C0V750,路竹,2025-05-30,22.854997,120.259439,0.17134461
C0N050,蚵寮,2025-05-30,23.301,120.1104,0.18598683
72M700,南改鹿草分場,2025-05-30,23.416869,120.283061,0.31458494
C1SA50,利嘉林道,2025-05-30,22.82325,121.009389,0.031894196
C0A940,金山,2025-05-30,25.223628,121.643967,0.011777915
C1V340,大津,2025-05-30,22.888322,120.645986,0.48814273
C0W180,七美,2025-05-30,23.219333,119.444892,0.25505343
C1F9C1,白冷,2025-05-30,24.182844,120.929889,0.9958373
K2E710,苗改生物防治研究中心,2025-05-30,24.422861,120.871833,0.87222534
C0N040,蘆竹溝,2025-05-30,23.2344,120.0961,0.1857201
C2W230,畜試所澎湖,2025-05-30,23.628342,119.513206,0.025285855
C0R880,後壁湖,2025-05-30,21.9457,120.7457,0.028376063
C1I280,埔中,2025-05-30,23.820778,120.642594,0.9935912
467790,墾丁雷達站,2025-05-30,21.948235,120.808028,0.06560298
C0W190,望安,2025-05-30,23.380564,119.494075,0.08921342
C0Z170,卓溪,2025-05-30,23.3443,121.3029,0.4000291
C0F850,東勢,2025-05-30,24.246428,120.833047,0.9878891
466900,淡水,2025-05-30,25.164889,121.448906,0.01104683
C0I370,魚池,2025-05-30,23.895703,120.94135,0.99444413
C0C630,大溪,2025-05-30,24.882853,121.265547,0.05716877
C0A520,山佳,2025-05-30,24.974944,121.402008,0.011595656
C0I110,竹山,2025-05-30,23.761225,120.688156,0.9666763
82H840,茶改南部分場,2025-05-30,23.762528,120.7405,0.9962109
C0G660,溪湖,2025-05-30,23.94835,120.479122,0.10512763
C1T800,洛韶,2025-05-30,24.204558,121.453956,1.768315e-05
C1T810,慈恩,2025-05-30,24.192044,121.388386,5.711896e-09
C1E451,象鼻,2025-05-30,24.368617,120.940228,0.00017904982
C0AC60,三峽,2025-05-30,24.939025,121.369728,0.030526634
C0I490,萬大林道,2025-05-30,23.928228,121.091411,5.4180248e-08
C1I290,豐丘,2025-05-30,23.668178,120.887417,0.019206647
C1I320,奧萬大,2025-05-30,23.952956,121.178556,0.00011379237
C2M910,嘉義大學,2025-05-30,23.471325,120.485903,0.6778601
C0U770,南澳,2025-05-30,24.44935,121.81022,0.052794658
C0A980,社子,2025-05-30,25.109508,121.469681,0.010546274
C0V800,六龜,2025-05-30,22.997889,120.633583,0.73343647
C1G9D0,國一S218K,2025-05-30,23.890641,120.493253,0.10839816
C0E570,白沙屯,2025-05-30,24.549447,120.696803,0.023126977
C2F9A0,中竹林,2025-05-30,24.103556,120.751061,0.99625546
C0FA40,臺中電廠,2025-05-30,24.2146,120.4907,0.023216646
C2G9A0,畜試所彰化,2025-05-30,23.86045,120.557964,0.5964549
C0H9C0,合歡山,2025-05-30,24.143442,121.272547,1.6348174e-08
C0X060,下營,2025-05-30,23.22695,120.256261,0.18703926
G2M350,農試溪口農場,2025-05-30,23.58565,120.408111,0.33456972
C0U860,頭城,2025-05-30,24.85323,121.8308,0.3223624
C0R580,南州,2025-05-30,22.48591,120.50274,0.29320085
C0D430,峨眉,2025-05-30,24.6905,121.017189,0.9580251
C0G780,秀水,2025-05-30,24.03405,120.503869,0.10576823
72N100,臺南農改場,2025-05-30,23.0605,120.342194,0.24947742
C0S900,蘭嶼高中,2025-05-30,22.04909,121.51214,0.6997962
C1F9W0,德基,2025-05-30,24.254783,121.190261,2.582191e-09
C1Z120,壽豐,2025-05-30,23.870853,121.508081,0.11811001
C0W160,烏坵,2025-05-30,24.9944,119.44956,0.2200126
C1I240,外大坪,2025-05-30,23.958697,120.917931,0.99418646
C1I550,國六W023K,2025-05-30,23.979067,120.867742,0.99510175
C0R870,興海,2025-05-30,21.9752,120.8439,0.034469903
C0R140,瑪家,2025-05-30,22.682903,120.686639,0.9965097
C0A530,坪林,2025-05-30,24.938183,121.70975,0.9963412
C0X260,後壁,2025-05-30,23.366358,120.362326,0.21012558
C0Z230,和平,2025-05-30,24.30717,121.77007,0.05378262
C0G770,福興,2025-05-30,24.041289,120.437669,0.10654501
C0H9A0,神木村,2025-05-30,23.532742,120.843667,1.585359e-06
C0I460,南投,2025-05-30,23.911469,120.687331,0.03562838
C0I480,梅峰,2025-05-30,24.085272,121.173572,5.7997873e-09
C1V570,吉東,2025-05-30,22.85422,120.5454,0.33643743
C2D740,屯原,2025-05-30,24.067969,121.209389,7.510853e-09
C2A560,福山,2025-05-30,24.776203,121.502811,9.289933e-05
C0AH30,五分山,2025-05-30,25.07125,121.780794,0.0018536586
C0FA10,松柏,2025-05-30,24.429115,120.617482,0.023224412
72S200,東改班鳩分場,2025-05-30,22.829528,121.077694,0.70560277
72HA00,中改埔里分場,2025-05-30,23.903208,120.963364,0.99432874
C2H9W0,大坪頂農水,2025-05-30,24.043122,120.932781,0.99436545
C0C650,平鎮,2025-05-30,24.897503,121.214636,0.057063356
C0S930,延平,2025-05-30,22.902581,121.084058,0.6493707
C0UA60,樟樹山,2025-05-30,24.41393,121.78325,0.99827945
C1S670,摩天,2025-05-30,23.199503,121.027,1.782168e-07
C0V630,茄萣,2025-05-30,22.906642,120.182608,0.21329457
466940,基隆,2025-05-30,25.133314,121.740475,0.010367291
C0X050,東河,2025-05-30,23.296598,120.385608,0.3774099
C0R770,保力,2025-05-30,22.071122,120.764111,0.122571684
G2L020,農試嘉義分所,2025-05-30,23.485028,120.473806,0.71301186
C0X240,關子嶺,2025-05-30,23.331169,120.508025,0.9771666
C0I380,集集,2025-05-30,23.828206,120.801467,0.92148614
466990,花蓮,2025-05-30,23.975128,121.613275,0.12316946
C1V220,小關山,2025-05-30,23.154217,120.813603,1.9465626e-08
C1F9G1,慶福山,2025-05-30,24.180853,120.848378,0.91954076
C0Z250,瑞穗林道,2025-05-30,23.49284,121.30688,0.96541744
C0D590,新豐,2025-05-30,24.87068,120.97721,0.965409
C0A870,五指山,2025-05-30,25.132153,121.608692,1.1883153e-08
C0UA50,西帽山,2025-05-30,24.555361,121.802628,5.788197e-05
C0X160,仁德,2025-05-30,22.968258,120.257689,0.22133829
C1H971,六分寮,2025-05-30,23.92507,120.6378,0.996483
C0W120,西嶼,2025-05-30,23.5626,119.468436,0.06616151
C0G650,員林,2025-05-30,23.946503,120.585597,0.111627296
C0AD50,鶯歌,2025-05-30,24.951533,121.346294,0.039800774
C2H9Q0,北東眼山,2025-05-30,24.120939,121.189303,8.0206775e-09
C2H9T0,名間竹圍,2025-05-30,23.859914,120.637572,0.9778398
C0S990,山豬窟,2025-05-30,22.318619,120.857372,0.7738881
C0X190,安平,2025-05-30,22.993161,120.152181,0.21348979
C0K400,斗六,2025-05-30,23.720583,120.541127,0.63071036
12J990,口湖工作站,2025-05-30,23.589978,120.180394,0.29400095
C0O830,北寮,2025-05-30,23.079561,120.495008,0.42598072
C1D410,白蘭,2025-05-30,24.579364,121.079947,1.5017123e-06
C0S970,加津林,2025-05-30,22.416211,120.926942,0.12742518
C0D700,關西,2025-05-30,24.7977,121.1732,0.07075439
C0M810,里佳,2025-05-30,23.389125,120.716647,3.420465e-06
C0U750,龜山島,2025-05-30,24.841667,121.953133,0.99441034
C0R810,內獅,2025-05-30,22.305064,120.642986,0.28968328
C1M390,龍美,2025-05-30,23.406728,120.654417,0.46069545
C2FB60,頭櫃山,2025-05-30,24.129842,120.858925,0.87712884
C1H840,國三N238K,2025-05-30,23.841008,120.707711,0.93028796
CAQ030,崎峰國小,2025-05-30,22.42565,120.49521,0.29320085
C2E520,大湖,2025-05-30,24.414939,120.870872,0.9707495
467530,阿里山,2025-05-30,23.508208,120.813242,5.1722506e-09
C1E691,南湖,2025-05-30,24.40135,120.837533,0.8247047
C0FA30,梧棲,2025-05-30,24.256003,120.523381,0.02348542
C1V231,高中,2025-05-30,23.134911,120.716711,0.9915408
C0AK30,硬漢嶺,2025-05-30,25.136097,121.426372,4.7063278e-08
C0F9V0,新社,2025-05-30,24.200172,120.815806,0.99509776
C0H890,埔里,2025-05-30,23.972169,120.952425,0.99198437
C0R690,墾丁,2025-05-30,21.966756,120.810269,0.8978932
C0F0D0,審馬陣,2025-05-30,24.381675,121.4203,1.9305892e-08
C2W030,金門農試所,2025-05-30,24.448431,118.451786,0.045475923
C0R820,白鷺,2025-05-30,22.454275,120.666219,0.97711045
C1V190,南天池,2025-05-30,23.27403,120.91176,5.3699356e-09
K2E360,苗栗農改場,2025-05-30,24.495722,120.829111,0.8939039
CAJ050,海口故事園區,2025-05-30,23.57543,120.14121,0.29326573
C2H9D0,三隻寮,2025-05-30,24.093078,120.861578,0.99417245
C0O990,媽廟,2025-05-30,22.99175,120.293525,0.23473877
C0D480,打鐵坑,2025-05-30,24.849664,121.150789,0.94891614
C0Z220,和平林道,2025-05-30,24.343922,121.656317,0.9997534
C0TA10,花蓮漁港,2025-05-30,23.995322,121.638331,0.12591897
72C440,桃園農改場,2025-05-30,24.950944,121.030583,0.026830198
C1E711,馬拉邦山,2025-05-30,24.367306,120.901656,0.9877448
C0SB20,富岡,2025-05-30,22.792467,121.192669,0.19166462
C0D560,竹東,2025-05-30,24.767147,121.057881,0.96505237
C0F9U0,南屯,2025-05-30,24.137006,120.637969,0.1173859
C0M720,番路,2025-05-30,23.464657,120.554156,0.70317245
C0F0A0,雪山圈谷,2025-05-30,24.388594,121.236339,2.1483942e-08
C1A9N0,四十份,2025-05-30,24.934158,121.593283,2.0900736e-05
C0U760,東澳,2025-05-30,24.52196,121.83318,0.059132405
C0X230,鹽水,2025-05-30,23.272621,120.247641,0.19379729
C2H9H0,苗改南投蜂場,2025-05-30,23.852589,120.693481,0.9624276
C0R950,萬隆國小,2025-05-30,22.507667,120.587817,0.3024625
467540,大武,2025-05-30,22.35572,120.90374,0.13343738
C0V370,古亭坑,2025-05-30,22.893178,120.401947,0.19489673
C1I340,新興橋,2025-05-30,23.563333,120.868728,0.9731898
C0SA80,土坂,2025-05-30,22.453108,120.887572,0.12777878
C0R160,鹽埔,2025-05-30,22.739558,120.530778,0.3192351
C0AC40,大屯山,2025-05-30,25.175675,121.522408,2.5116973e-09
466850,五分山雷達站,2025-05-30,25.071182,121.781205,0.0006153085
C2H9L0,馬烈霸,2025-05-30,24.1512,121.201772,2.5843292e-09
C1AI50,國三N016K,2025-05-30,25.034164,121.619664,0.01315033
C1V600,藤枝,2025-05-30,23.071961,120.757042,3.9032352e-07
C1E601,南勢,2025-05-30,24.572486,120.734842,0.89434093
C0O980,新市,2025-05-30,23.061614,120.298197,0.22133832
C0K420,西螺,2025-05-30,23.800407,120.467394,0.5567263
C0Z050,佳心,2025-05-30,23.34567,121.21316,0.99917716
C0AD30,蘆洲,2025-05-30,25.086594,121.472331,0.010533131
C0V610,梓官,2025-05-30,22.760558,120.267211,0.16842036
K2F750,種苗改良場,2025-05-30,24.225972,120.800917,0.9933071
C0UA80,大溪漁港,2025-05-30,24.941801,121.902955,0.35348046
C1AI60,國一39K邊坡,2025-05-30,25.064361,121.383836,0.9927818
C0W150,金寧,2025-05-30,24.457703,118.328989,0.05728038
C0R960,內埔,2025-05-30,22.608483,120.570714,0.28934115
V2C250,八德合作社,2025-05-30,24.93775,121.266389,0.0710845
C2H9S0,龍南,2025-05-30,23.953536,120.833183,0.98329383
C0AH40,平等,2025-05-30,25.129142,121.577086,4.3986794e-05
C0R540,佳冬,2025-05-30,22.419456,120.552375,0.28847796
466950,彭佳嶼,2025-05-30,25.627975,122.079744,0.76014054
C0A890,雙溪,2025-05-30,25.036003,121.864242,0.013441375
C0C480,桃園,2025-05-30,24.992425,121.323172,0.055304088
C0AH50,林口,2025-05-30,25.072181,121.38084,0.9959981
A2K360,水試臺西試驗場,2025-05-30,23.717231,120.190522,0.69427484
C2M960,外寮,2025-05-30,23.562643,120.665688,0.85740083
C0F9S0,烏日,2025-05-30,24.107058,120.624103,0.10610204
C0C490,八德,2025-05-30,24.928708,121.283289,0.070453435
C0R190,赤山,2025-05-30,22.592333,120.614306,0.29517615
C0T820,天祥,2025-05-30,24.179597,121.495639,0.9997237
C1F9E1,龍安,2025-05-30,24.1605,120.831961,0.99544877
C0V820,小林,2025-05-30,23.148408,120.63325,0.987263
C2G870,芳苑,2025-05-30,23.922303,120.320025,0.7028222
C0E850,大河,2025-05-30,24.618069,120.948578,0.84042174
C1U670,寒溪,2025-05-30,24.634,121.71691,0.888862
C0N020,城西,2025-05-30,23.0568,120.0956,0.18703926
C1Z110,三棧,2025-05-30,24.11557,121.60501,0.9992929
C0R280,檳榔,2025-05-30,22.076078,120.836777,0.8954705
C2H9J0,中台,2025-05-30,23.9996,120.938739,0.99475276
C0F9L0,后里,2025-05-30,24.310436,120.729725,0.8882845
467441,高雄,2025-05-30,22.730432,120.312516,0.17287529
C0Z180,新城,2025-05-30,24.040486,121.604878,0.12040634
C0D540,橫山,2025-05-30,24.71116,121.11693,0.95688456
C1D420,太閣南,2025-05-30,24.632808,121.160575,0.00038863684
C1E770,公館,2025-05-30,24.526914,120.830806,0.82259405
CAN130,水試所海水繁養殖中心,2025-05-30,23.120802,120.07968,0.18526378
C1I430,翠華,2025-05-30,24.191961,121.224339,6.694781e-09
C1M400,菜瓜坪,2025-05-30,23.251928,120.576103,0.98612076
C0G730,二林,2025-05-30,23.903325,120.376081,0.10576823
72M360,南改義竹分場,2025-05-30,23.360694,120.279361,0.1984204
V2K620,麥寮合作社,2025-05-30,23.753836,120.294783,0.7094918
C0Z070,舞鶴,2025-05-30,23.46811,121.37407,0.17212783
C0B040,大武崙,2025-05-30,25.166676,121.706993,0.011777915
C1Z030,紅葉,2025-05-30,23.493119,121.338806,0.13150384
C1I050,丹大,2025-05-30,23.753747,121.141147,5.5645843e-09
C0I080,信義,2025-05-30,23.689694,120.851036,0.99483377
C2M920,朴子農改,2025-05-30,23.469889,120.259383,0.30119812
C2A880,福隆,2025-05-30,25.017842,121.942083,0.35348046
C0Z160,鳳林,2025-05-30,23.746114,121.453411,0.111664884
C0V210,復興,2025-05-30,23.222403,120.806089,0.9913097
C0H990,昆陽,2025-05-30,24.121322,121.273642,1.2419682e-08
C0R741,獅子,2025-05-30,22.202308,120.705236,0.30184773
C0S710,鹿野,2025-05-30,22.917711,121.122994,0.9878542
C0I530,小奇萊,2025-05-30,24.131764,121.295717,1.3157039e-08
C2K630,荷苞,2025-05-30,23.657717,120.595144,0.9666763
C0Z080,富源,2025-05-30,23.587642,121.378225,0.38936418
C0SB10,美和,2025-05-30,22.682078,121.060236,0.19691554
C2K620,馬光農場,2025-05-30,23.721453,120.378864,0.5063531
C1I140,卡奈托灣,2025-05-30,23.754364,121.087872,3.732474e-09
C0I520,玉山風口,2025-05-30,23.470489,120.955994,1.9787707e-08
C1G691,下水埔,2025-05-30,23.816114,120.5676,0.6490131
C0X110,臺南市南區,2025-05-30,22.961189,120.188378,0.2147807
C0V680,仁武,2025-05-30,22.701083,120.347722,0.17562614
C2G840,北斗,2025-05-30,23.877586,120.514222,0.11190937
C0R900,竹坑,2025-05-30,22.1385,120.7022,0.29004893
C0K250,崙背,2025-05-30,23.75555,120.318925,0.7166903
C0G860,社頭,2025-05-30,23.897647,120.5862,0.10819217
C0X150,安定,2025-05-30,23.102614,120.227839,0.21329457
C0R590,里港,2025-05-30,22.77919,120.49459,0.31874713
C0E610,馬都安,2025-05-30,24.451272,120.930192,0.41887754
C0E550,明德,2025-05-30,24.583486,120.885411,0.800251
C0R150,三地門,2025-05-30,22.709889,120.639944,0.41139072
C0G910,花壇,2025-05-30,24.032076,120.549461,0.108155325
C1D400,鳥嘴山,2025-05-30,24.71909,121.28387,0.2410349
C0K500,元長,2025-05-30,23.64981,120.315024,0.715986
C0F0B0,石岡,2025-05-30,24.276061,120.777644,0.980282
C2V250,甲仙,2025-05-30,23.080106,120.591758,0.7897854
C0SA20,金崙山,2025-05-30,22.567419,120.959667,0.97053564
C0V350,溪埔,2025-05-30,22.738578,120.446797,0.3099739
C0M660,溪口,2025-05-30,23.604131,120.403569,0.33560288
C1S880,壽卡,2025-05-30,22.238911,120.858903,0.9571622
72D680,桃改新埔分場,2025-05-30,24.834444,121.066111,0.9530207
