站號,站名,日期,lat,lon,BLBTSLS
C0R710,龍磐,2025-06-06,21.931672,120.838942,0.06388647
C1F9D1,白毛台,2025-06-06,24.158325,120.886933,1.7877172e-09
C0G940,竹塘,2025-06-06,23.848253,120.386764,5.853423e-08
467590,恆春,2025-06-06,22.003897,120.746339,0.03157676
C1O850,環湖,2025-06-06,23.148617,120.418633,1.1821103e-05
C0U710,太平山,2025-06-06,24.505486,121.525656,1.2468125e-08
C0E820,獅潭,2025-06-06,24.539133,120.920042,1.0023079e-09
C0V880,興達,2025-06-06,22.8778,120.2127,0.00018756013
C0S890,關山,2025-06-06,23.0395,121.175017,3.0891832e-07
C0SB30,新蘭,2025-06-06,22.869214,121.223228,0.03288373
C2R970,屏科大,2025-06-06,22.648275,120.619247,0.8923423
C1Z130,銅門,2025-06-06,23.965694,121.492842,8.310592e-06
C0AD40,土城,2025-06-06,24.973208,121.445169,3.8294283e-09
CAN140,六官養殖協會,2025-06-06,23.22881,120.29962,4.4345784e-06
C0X180,山上,2025-06-06,23.0757,120.363253,0.00028790758
C0F9Z0,雪山東峰,2025-06-06,24.388792,121.268675,1.5013464e-08
C1M480,獨立山,2025-06-06,23.537022,120.607797,8.418702e-10
C0X220,學甲,2025-06-06,23.230367,120.182187,1.707636e-05
467650,日月潭,2025-06-06,23.881325,120.90805,3.854872e-09
C0K600,箔子寮,2025-06-06,23.6197,120.14,3.443366e-05
C0G830,埤頭,2025-06-06,23.866003,120.452806,1.733268e-08
C0S950,七塊厝,2025-06-06,22.954453,121.229922,1.5197278e-08
467110,金門,2025-06-06,24.407306,118.289281,0.16010262
C0AH80,深坑,2025-06-06,25.002703,121.628328,3.1997167e-09
C0A970,三貂角,2025-06-06,25.007606,122.002058,7.5370865e-09
C2D730,寶山農場,2025-06-06,24.732444,120.976153,1.0405192e-09
C0K430,褒忠,2025-06-06,23.690938,120.303634,3.7593688e-07
467480,嘉義,2025-06-06,23.495925,120.432906,1.5541498e-07
C0V400,阿公店,2025-06-06,22.804194,120.355528,0.08879639
C0E960,觀霧分站,2025-06-06,24.505781,121.113921,5.6108385e-09
467550,玉山,2025-06-06,23.48718,120.95943,1.549613e-08
C0R440,大漢山,2025-06-06,22.405264,120.753181,2.9386582e-08
C0K280,四湖,2025-06-06,23.630414,120.227125,1.8693416e-05
C1F9B1,桐林,2025-06-06,24.066172,120.735194,1.0981943e-09
C2H9U0,鳳鵬,2025-06-06,23.763919,120.788061,3.949021e-09
C0K390,土庫,2025-06-06,23.679029,120.395574,1.2285147e-07
C1I450,望鄉山,2025-06-06,23.594153,120.944286,8.016762e-09
C0E910,海埔,2025-06-06,24.648767,120.772435,2.4370872e-09
B2E890,畜試北區分所,2025-06-06,24.527806,120.770972,1.0332315e-09
C0R750,四林格山,2025-06-06,22.076989,120.802439,0.521312
C0F0C0,中坑,2025-06-06,24.248517,120.903319,1.7220532e-09
C1I121,大鞍,2025-06-06,23.678381,120.760017,5.5769522e-09
72U480,花改蘭陽分場,2025-06-06,24.686306,121.716583,3.523329e-09
C0A770,科教館,2025-06-06,25.096356,121.516507,4.7806767e-09
C0AJ60,六塊厝,2025-06-06,25.24,121.4481,2.498986e-07
C0R620,墾雷,2025-06-06,21.900836,120.855269,0.0153023945
467420,永康,2025-06-06,23.038386,120.2367,0.00029257566
C0I410,名間,2025-06-06,23.837053,120.701447,7.411606e-09
A2C560,農工中心,2025-06-06,24.985917,121.239833,4.7126854e-09
C0V740,旗山,2025-06-06,22.888614,120.483597,0.05941597
C0Z061,玉里,2025-06-06,23.3215,121.339656,2.0573832e-09
C0S840,南田,2025-06-06,22.279725,120.889208,0.012245964
C1I470,杉林溪,2025-06-06,23.639517,120.786444,6.0389858e-09
C1X040,東原,2025-06-06,23.291597,120.463822,2.731253e-08
C0R660,枋寮,2025-06-06,22.367722,120.590647,0.31695318
C1R120,上德文,2025-06-06,22.763272,120.704442,6.8698767e-09
C0K450,大埤,2025-06-06,23.646074,120.431537,1.1063996e-06
C0UA00,土場,2025-06-06,24.576533,121.495333,1.1573304e-08
467080,宜蘭,2025-06-06,24.763975,121.756528,1.23756525e-08
C0N030,四草,2025-06-06,23.0235,120.1116,0.00013436709
467410,臺南,2025-06-06,22.99328,120.20492,8.730988e-05
C0V650,彌陀,2025-06-06,22.783806,120.246361,0.00034909017
C0D660,新竹市東區,2025-06-06,24.798681,120.986942,2.3859552e-09
82S580,茶改東部分場,2025-06-06,22.907694,121.130139,0.00011975869
C0SB40,興隆,2025-06-06,22.913661,121.257469,0.018990044
467050,新屋,2025-06-06,25.006725,121.047492,3.1728422e-07
C0C710,大溪永福,2025-06-06,24.892936,121.324975,1.8478106e-09
C0FA20,溫寮,2025-06-06,24.372177,120.583125,3.4456146e-08
C0V640,湖內,2025-06-06,22.887139,120.2445,0.00017542714
C0R910,下寮,2025-06-06,22.3929,120.5548,0.31693155
C0Z020,明里,2025-06-06,23.208717,121.262342,4.139715e-09
C0M770,嘉義梅山,2025-06-06,23.585398,120.555587,6.109195e-08
C0C660,楊梅,2025-06-06,24.912375,121.143047,2.7466838e-09
C1E511,新開,2025-06-06,24.347703,120.827019,1.2103408e-09
G2F820,農試所(霧峰),2025-06-06,24.031261,120.688133,2.0296476e-09
C1I070,和社,2025-06-06,23.591131,120.888861,9.754384e-09
C2F000,大肚,2025-06-06,24.15295,120.572117,7.1925105e-10
C1S850,豐南,2025-06-06,23.122139,121.262389,1.8974047e-09
C2A920,富貴角,2025-06-06,25.263783,121.565258,2.8259667e-08
CAH030,茶改場竹圍站,2025-06-06,23.860083,120.637528,3.6600714e-09
C0T960,光復,2025-06-06,23.660694,121.424964,8.591549e-09
C0F9M0,豐原,2025-06-06,24.254322,120.720692,1.6542829e-09
C0R720,旭海,2025-06-06,22.205403,120.887614,0.4050128
C0V710,苓雅,2025-06-06,22.622742,120.330669,0.0010009683
C0C740,觀音工業區,2025-06-06,25.064764,121.114856,4.1789453e-06
CAC040,拉拉山,2025-06-06,24.699317,121.427133,8.283035e-09
C0V790,萬山,2025-06-06,22.905944,120.688056,0.00069184275
U2HA30,臺大和社,2025-06-06,23.590856,120.888864,9.754384e-09
C0AJ90,澳底,2025-06-06,25.0552,121.9253,2.270321e-08
C0Z100,東華,2025-06-06,23.89525,121.549833,7.372318e-06
C0G970,三豐,2025-06-06,23.882,120.2895,0.022024248
V2K610,大庄合作社,2025-06-06,23.8068,120.367939,1.6164964e-07
C0V900,汕尾,2025-06-06,22.4782,120.4151,0.00031690637
C1R630,龍泉,2025-06-06,22.66701,120.59091,0.9449454
C1AC50,關渡,2025-06-06,25.133486,121.469331,4.123308e-09
C0C800,四稜,2025-06-06,24.64733,121.4293,5.3787304e-09
C0F9I0,神岡,2025-06-06,24.272481,120.658314,8.636891e-10
C0K460,斗南,2025-06-06,23.678734,120.478359,7.824225e-07
C2O810,曾文,2025-06-06,23.219681,120.497328,2.3182348e-07
467280,後龍,2025-06-06,24.648563,120.831834,2.104221e-09
C1F9J1,清水林,2025-06-06,24.071242,120.820419,1.9231385e-09
C2A650,火燒寮,2025-06-06,25.002719,121.742892,4.845405e-09
466930,竹子湖,2025-06-06,25.162078,121.544547,1.5163595e-09
C1I220,樟湖,2025-06-06,23.905333,120.846983,3.1812113e-09
C0I390,仁愛,2025-06-06,24.022122,121.132206,2.9483695e-09
C0Z300,東里,2025-06-06,23.26853,121.30547,5.7532485e-09
C1V590,新發,2025-06-06,23.057019,120.646064,1.8620485e-08
C0K510,水林,2025-06-06,23.572924,120.24597,4.555656e-07
72S590,東改賓朗果園,2025-06-06,22.813889,121.071278,0.0002783007
82A750,茶改北部分場,2025-06-06,24.955778,121.631222,4.190534e-09
C1A750,石碇服務區,2025-06-06,25.00872,121.646242,3.7942898e-09
C0X300,鹿寮,2025-06-06,23.386047,120.477331,4.1502318e-08
G2AI50,關渡,2025-06-06,25.11575,121.492,4.6335398e-08
C0K590,雲林東勢,2025-06-06,23.674192,120.255721,1.5805418e-07
C0A570,桶後,2025-06-06,24.848222,121.597992,3.743603e-09
C1S800,華源,2025-06-06,22.657883,121.02325,0.10923885
C0G720,溪州,2025-06-06,23.851589,120.499093,1.539699e-08
C1V160,達卡努瓦,2025-06-06,23.279811,120.705319,3.6172922e-09
C2M410,馬頭山,2025-06-06,23.324361,120.582017,8.598647e-09
C0V850,蚵仔寮,2025-06-06,22.7256,120.2527,0.003011775
C0S740,池上,2025-06-06,23.119628,121.209469,4.1787553e-07
C1V390,尖山,2025-06-06,22.813153,120.367789,0.100845695
C0AH70,松山,2025-06-06,25.04871,121.55042,4.5155613e-09
C0N010,鯤鯓國小,2025-06-06,23.1879,120.0889,8.1759965e-05
C0R550,新埤,2025-06-06,22.467947,120.582894,0.0002801642
C0SA60,知本（水試所）,2025-06-06,22.702394,121.082761,0.5155571
C0T9I0,豐濱,2025-06-06,23.583897,121.514806,9.979743e-09
C0UB00,淡江大學蘭陽校園,2025-06-06,24.823239,121.730383,3.3356236e-09
C0W240,九宮,2025-06-06,24.423753,118.240186,0.14592777
C0T9N0,富里,2025-06-06,23.171639,121.249378,1.4959754e-08
U2HA50,臺大竹山,2025-06-06,23.756972,120.681556,2.2898256e-08
C0V840,鳳鼻頭,2025-06-06,22.5083,120.3591,0.0007779986
C0X140,西港,2025-06-06,23.125608,120.203108,3.9790993e-05
72D080,桃改五峰分場,2025-06-06,24.612194,121.157167,1.9082929e-09
C2H9P0,伊拿谷,2025-06-06,23.963211,121.088264,4.1442654e-09
C2H9F0,柑林,2025-06-06,24.018658,120.847072,3.0953269e-09
C0TA20,加灣,2025-06-06,24.082025,121.608944,6.070163e-07
C0V530,阿蓮,2025-06-06,22.883208,120.327508,0.006388584
C0FB30,八仙山苗圃,2025-06-06,24.192719,121.001366,1.709004e-09
C1O880,關山,2025-06-06,23.173397,120.594092,1.0094284e-07
C0E791,卓蘭,2025-06-06,24.3126,120.8244,1.3049217e-09
C1I030,武界,2025-06-06,23.913225,121.052483,3.9386103e-09
C0R520,崁頂,2025-06-06,22.514781,120.506914,0.04334513
C0R341,牡丹,2025-06-06,22.130036,120.792639,0.7812033
C0R930,萬丹,2025-06-06,22.5885,120.4851,0.18242744
C0S760,紅石,2025-06-06,23.069131,121.126219,4.6975032e-08
C2C410,中央大學,2025-06-06,24.967652,121.185165,4.4981285e-09
C1M610,石磐龍,2025-06-06,23.496606,120.663506,5.2424904e-09
C0C790,東眼山,2025-06-06,24.8284,121.40888,3.1282315e-09
C0UA10,鴛鴦湖,2025-06-06,24.590269,121.412228,1.3526048e-08
V2C260,八德蔬果,2025-06-06,24.978508,121.281819,3.0613432e-09
C0R800,丹路,2025-06-06,22.204481,120.750989,0.2887049
C0G920,永靖,2025-06-06,23.924703,120.547533,5.0153264e-09
C2M950,太和,2025-06-06,23.538372,120.702961,5.1185194e-09
C1A630,下盆,2025-06-06,24.771003,121.538622,2.8716507e-09
B2N890,畜產試驗所,2025-06-06,23.058972,120.336406,1.9146912e-05
C0UA30,白嶺,2025-06-06,24.527819,121.519031,4.45078e-09
C1V580,溪南(特生中心),2025-06-06,23.084972,120.788475,2.2989357e-09
C1T970,大農,2025-06-06,23.615233,121.413331,5.532539e-09
C0R650,竹田,2025-06-06,22.58486,120.54344,0.68096584
C1H900,清流,2025-06-06,24.080775,120.962997,3.494377e-09
C1C510,水尾,2025-06-06,24.940081,121.087161,1.4735382e-08
C0F9X0,大雅(中科園區),2025-06-06,24.21528,120.62445,7.811582e-10
C0SB60,白守蓮,2025-06-06,23.126769,121.401914,0.15925893
C0O970,虎頭埤,2025-06-06,23.021375,120.347878,0.0007073996
C0C730,中大臨海站,2025-06-06,24.966126,121.008581,4.701501e-07
C0X250,新營,2025-06-06,23.310689,120.316681,2.6964776e-07
C0V700,三民,2025-06-06,22.645017,120.311233,8.522866e-05
C0U870,大礁溪,2025-06-06,24.791042,121.675047,2.9444018e-09
C0E870,高鐵苗栗,2025-06-06,24.60725,120.826094,2.19192e-09
A2K570,古坑花卉中心,2025-06-06,23.63353,120.55239,2.202974e-07
C0TA30,鹽寮,2025-06-06,23.845606,121.592664,1.3123316e-05
C0M860,新美,2025-06-06,23.338017,120.683169,6.039308e-09
C1E701,八卦,2025-06-06,24.491756,120.927619,1.5170654e-09
C0I420,國姓,2025-06-06,24.037803,120.855072,2.6752436e-09
C2D720,關西工作站,2025-06-06,24.757275,121.184792,1.1980301e-09
C0S960,香蘭,2025-06-06,22.587569,120.993375,0.20303826
467620,蘭嶼,2025-06-06,22.0369,121.55843,0.10800904
C0R260,春日,2025-06-06,22.370361,120.628306,0.3099277
72G600,臺中農改場,2025-06-06,24.003028,120.534389,1.3669125e-09
C0Z210,瑞穗,2025-06-06,23.5239,121.39021,1.2149626e-08
C0M820,達邦,2025-06-06,23.453994,120.749517,4.5618234e-09
C0V860,南寮,2025-06-06,22.7616,120.2339,0.003011775
C0G740,大城,2025-06-06,23.852487,120.320935,0.02189297
C0R920,塭仔,2025-06-06,22.4169,120.5197,0.31848982
C0R470,高樹,2025-06-06,22.826389,120.600806,0.8466946
C0R680,佳樂水,2025-06-06,21.993578,120.861633,0.031673025
C1O870,大棟山,2025-06-06,23.31157,120.52226,3.219748e-09
C0D360,梅花,2025-06-06,24.678347,121.208558,8.790138e-10
C0Z190,富世,2025-06-06,24.14743,121.6297,1.1896692e-08
C0AI10,屈尺,2025-06-06,24.92184,121.54475,3.0320784e-09
B2U990,畜試東區分所,2025-06-06,24.669039,121.832561,4.612692e-09
C0SB80,長濱漁港,2025-06-06,23.313644,121.459994,4.6710906e-09
C0TA50,和仁,2025-06-06,24.241394,121.712472,1.8977087e-09
C0R240,來義,2025-06-06,22.527306,120.625111,0.02030586
C0V910,大樹,2025-06-06,22.684645,120.432803,0.038766034
C1R610,西大武山,2025-06-06,22.617719,120.7322,1.2630962e-08
C0G900,線西,2025-06-06,24.143358,120.443536,6.330807e-09
C0M700,竹崎,2025-06-06,23.526178,120.555508,2.2337549e-08
C2E880,三義,2025-06-06,24.405478,120.749819,9.214428e-10
C0C720,竹圍,2025-06-06,25.112692,121.239824,4.6335398e-08
C0F9P0,清水,2025-06-06,24.312297,120.562242,1.5740909e-08
C0Z150,吉安光華,2025-06-06,23.930925,121.595153,0.0004263088
C0FA80,小雪山天池,2025-06-06,24.28025,121.02627,1.4391649e-08
467300,東吉島,2025-06-06,23.25727,119.66762,0.032745697
C1D640,外坪(五指山),2025-06-06,24.644447,121.090961,1.8398555e-09
C0F9O0,潭子,2025-06-06,24.213106,120.703933,1.6538286e-09
C2H9R0,卓社,2025-06-06,23.887894,121.000086,2.5247522e-09
72T250,花蓮農改場,2025-06-06,23.975222,121.563889,0.00032064965
C0E780,銅鑼,2025-06-06,24.489681,120.790853,8.38844e-10
C1T950,太安,2025-06-06,23.666719,121.370128,1.0164823e-07
C0E830,苑裡,2025-06-06,24.439714,120.653053,3.2310695e-08
467270,田中,2025-06-06,23.873803,120.581286,1.1030651e-08
C0SA10,檳榔四格山,2025-06-06,22.810031,121.109308,2.1874268e-05
C1T830,布洛灣,2025-06-06,24.17184,121.57127,7.873247e-05
C0F970,大坑,2025-06-06,24.173142,120.722289,1.1407484e-09
C1U920,思源,2025-06-06,24.393125,121.347214,5.4042952e-09
C0A931,三和,2025-06-06,25.233153,121.595236,3.8835206e-09
C0I010,廬山,2025-06-06,24.033311,121.181808,3.3433882e-09
C2M940,日野賀,2025-06-06,23.434056,120.727169,4.3175814e-09
C0R860,鼻頭,2025-06-06,22.1043,120.8979,0.16906999
C0UB20,壯圍,2025-06-06,24.7359,121.8163,4.434325e-09
C0R790,九棚,2025-06-06,22.14195,120.889281,0.5009829
C0W110,東莒,2025-06-06,25.9652,119.98069,0.04469665
C1U930,粉鳥林,2025-06-06,24.497088,121.842479,3.7123826e-08
C1I211,蘆竹湳,2025-06-06,23.934019,120.811994,3.2429344e-09
C0S830,長濱,2025-06-06,23.286817,121.411975,1.4144165e-09
C1F9F1,伯公龍,2025-06-06,24.272392,120.849047,1.4187396e-09
C0UB90,太平山莊,2025-06-06,24.494171,121.536209,1.2298142e-08
C0E810,西湖,2025-06-06,24.562947,120.7485,1.7070788e-07
C1I440,新高口,2025-06-06,23.478744,120.878939,4.32977e-09
C0O840,王爺宮,2025-06-06,23.222064,120.40085,1.2547784e-08
C0T9G0,鳳林山,2025-06-06,23.735269,121.420131,2.078679e-09
C0X080,佳里,2025-06-06,23.173039,120.145086,8.1759965e-05
C0FB70,大甲溪埔,2025-06-06,24.370625,120.620067,2.1710958e-08
C0Z310,清水斷崖,2025-06-06,24.218294,121.689142,1.6053658e-09
C0M680,太保,2025-06-06,23.455062,120.331455,9.151662e-08
C1S820,金峰,2025-06-06,22.590969,120.933236,0.007485627
C0AD10,八里,2025-06-06,25.150211,121.403947,4.633531e-08
C2K240,草嶺,2025-06-06,23.59555,120.693461,4.1332293e-09
C1SA70,都蘭,2025-06-06,22.87794,121.226881,0.018990044
C0K440,二崙,2025-06-06,23.772797,120.408944,3.413132e-08
C1A760,坪林交控,2025-06-06,24.94284,121.713442,5.9935443e-09
C0F9N0,大里,2025-06-06,24.092464,120.701378,1.4292751e-09
C0SA90,達仁林場,2025-06-06,22.264347,120.823972,0.0565173
C1R290,石門山,2025-06-06,22.112611,120.756597,0.92839944
42HA10,萬大發電廠,2025-06-06,23.978875,121.139639,2.6310465e-09
C0R890,山海,2025-06-06,21.9878,120.7091,0.122729205
C0T9A0,月眉山,2025-06-06,23.809928,121.539828,2.2473263e-09
C0AC70,信義,2025-06-06,25.037822,121.564597,4.5045763e-09
C0K560,棋山,2025-06-06,23.68645,120.603417,1.5031722e-07
C2FB50,出雲,2025-06-06,24.206469,120.902794,1.8008657e-09
C1Z240,中平林道,2025-06-06,23.42115,121.26763,4.171521e-07
U2H480,溪頭,2025-06-06,23.670306,120.798194,4.2063495e-09
C0M880,好美里,2025-06-06,23.3364,120.138,8.0342825e-06
C0T9E0,大坑,2025-06-06,23.880628,121.581981,4.558883e-09
C0K530,臺西,2025-06-06,23.701547,120.197559,1.28978245e-05
C1E900,國一N128K,2025-06-06,24.560997,120.844186,1.2224702e-09
C0AJ50,水湳洞,2025-06-06,25.123695,121.862238,2.1256824e-08
C0AI20,白沙灣,2025-06-06,25.283128,121.519058,1.9572907e-07
C2V310,美濃,2025-06-06,22.898792,120.51907,0.07457295
C0A860,大坪,2025-06-06,25.165914,121.632969,1.7186734e-09
C1U850,觀音海岸,2025-06-06,24.38319,121.77856,1.4740772e-09
C2K610,草嶺石壁,2025-06-06,23.602469,120.707731,4.068552e-09
C0U950,鶯子嶺,2025-06-06,24.89754,121.79244,4.0672488e-09
C0O900,善化,2025-06-06,23.112883,120.297219,2.8765324e-05
C0K550,蔦松,2025-06-06,23.514319,120.229736,8.429256e-07
E2P980,林試六龜中心,2025-06-06,22.991703,120.645722,3.8781003e-05
C0E590,通霄,2025-06-06,24.471892,120.704622,1.710759e-05
C1I310,西巒,2025-06-06,23.754486,120.883956,5.0020854e-09
C0A550,泰平,2025-06-06,24.971197,121.823711,4.931811e-09
C0I360,水里,2025-06-06,23.812553,120.849792,8.146861e-09
C0R830,高士,2025-06-06,22.121825,120.836781,0.9030903
C1I101,溪頭,2025-06-06,23.661789,120.807647,4.92961e-09
C0AJ20,野柳,2025-06-06,25.20703,121.690021,1.13200755e-08
C0B060,暖暖,2025-06-06,25.0957,121.7403,3.6862458e-09
C1H920,長豐,2025-06-06,24.102039,120.879897,3.9418944e-09
C0V360,內門,2025-06-06,22.975481,120.466769,0.013744259
C0R850,林邊,2025-06-06,22.4634,120.5339,0.0003088338
C0E930,龍鳳,2025-06-06,24.700034,120.859125,1.406693e-08
C0U910,冬山,2025-06-06,24.63373,121.7937,4.612692e-09
C1E721,泰安,2025-06-06,24.489017,120.968036,2.7453952e-09
82H320,茶改中部分場,2025-06-06,23.875611,120.913583,5.19962e-09
C0M750,布袋,2025-06-06,23.380878,120.167789,1.5935975e-06
C1S860,利嘉,2025-06-06,22.809417,121.050528,6.0438396e-08
E2S980,林試太麻里1,2025-06-06,22.598922,120.980044,0.101880945
C0X170,關廟,2025-06-06,22.963017,120.327797,0.005968889
C0V720,林園,2025-06-06,22.507747,120.394511,0.00074144657
C1I510,線浸林道,2025-06-06,23.761508,120.832956,3.7348165e-09
C0D690,外湖,2025-06-06,24.917735,120.968711,4.0597712e-08
C0C750,新興坑尾,2025-06-06,25.0061,121.0971,1.5236058e-07
B2Q810,畜試南區分所,2025-06-06,21.945583,120.802167,0.03055742
C0S790,金崙,2025-06-06,22.538122,120.966875,0.0115529485
C0AH90,福山植物園,2025-06-06,24.760717,121.58135,5.0506914e-09
C0I540,奇萊稜線,2025-06-06,24.109231,121.326456,1.1292515e-08
C0M850,表湖,2025-06-06,23.24186,120.64166,4.0967487e-09
C0S770,大溪山,2025-06-06,22.478475,120.943325,9.43892e-06
C0AG80,中和,2025-06-06,24.991622,121.491792,3.8294283e-09
C0T790,大禹嶺,2025-06-06,24.186117,121.316086,5.6775837e-09
C0T9B0,水源,2025-06-06,23.991861,121.537169,1.0871243e-08
C0R840,牡丹池山,2025-06-06,22.168389,120.841225,0.39428627
C1I131,桶頭,2025-06-06,23.641944,120.654117,8.492264e-09
CAL110,布袋國中,2025-06-06,23.35893,120.18026,1.5935975e-06
467571,新竹,2025-06-06,24.827853,121.014219,5.6498854e-09
C0Z290,赤柯山,2025-06-06,23.36893,121.38293,1.496215e-08
C0X280,將軍,2025-06-06,23.214999,120.13577,1.8444896e-05
C0S690,太麻里,2025-06-06,22.60902,120.98533,3.3134068e-08
C0U880,北關,2025-06-06,24.9072,121.8734,1.513647e-08
C0G810,埔心,2025-06-06,23.947633,120.525456,5.0153264e-09
C0U970,大福,2025-06-06,24.80064,121.81389,1.4014013e-08
C2H9N0,仁愛東眼,2025-06-06,24.026875,121.1205,3.1190266e-09
C1E670,南礦,2025-06-06,24.538278,121.002836,2.8469023e-09
C0M520,東後寮,2025-06-06,23.369908,120.248065,1.341912e-06
C1E461,松安,2025-06-06,24.397972,120.986022,3.0257985e-09
C2N160,西拉雅風管處,2025-06-06,23.189481,120.335297,5.2289124e-07
C2M970,碧湖,2025-06-06,23.568632,120.624165,4.469112e-09
C0A640,石碇,2025-06-06,24.993969,121.662917,2.4241065e-09
E2S960,林試太麻里2,2025-06-06,22.598,120.99775,0.19483699
C0F9Y0,桃山,2025-06-06,24.432739,121.303808,1.3306622e-08
C1I020,萬大,2025-06-06,23.979817,121.132261,2.9348532e-09
C0U940,羅東,2025-06-06,24.68184,121.74934,3.77095e-09
C0M650,朴子,2025-06-06,23.43463,120.23902,2.3976222e-07
C1I500,大尖山,2025-06-06,23.858572,120.994889,4.3093706e-09
C0FB40,中橫21.6k,2025-06-06,24.2499,121.1455,6.193113e-09
C0G820,田尾,2025-06-06,23.901669,120.509389,5.0153264e-09
E2K600,四湖植物園,2025-06-06,23.676986,120.163433,1.8693416e-05
C0S730,綠島,2025-06-06,22.6672,121.47533,0.026408846
12Q970,東港工作站,2025-06-06,22.479997,120.466058,0.00031690637
C0E430,南庄,2025-06-06,24.601775,121.000214,9.80205e-10
C1TA00,太魯閣,2025-06-06,24.15773,121.6236,7.174319e-09
466920,臺北,2025-06-06,25.037658,121.514853,4.5155613e-09
C0R600,舊泰武,2025-06-06,22.588194,120.664944,1.4375298e-08
C1I260,北坑,2025-06-06,23.9246,121.006903,2.9575162e-09
466910,鞍部,2025-06-06,25.182586,121.529731,2.356027e-09
C1I230,九份二山,2025-06-06,23.961944,120.845,4.9592983e-09
C2A660,瑞芳,2025-06-06,25.113169,121.801147,1.1711714e-08
C0R270,琉球嶼,2025-06-06,22.332244,120.362236,0.00024672848
C1T990,高寮,2025-06-06,23.394239,121.356808,2.512186e-09
C0G620,芬園,2025-06-06,24.015678,120.6213,1.5682883e-09
C1Z140,荖溪,2025-06-06,23.890575,121.45964,4.221623e-08
C1I201,中心崙,2025-06-06,23.728722,120.712097,1.6407268e-09
C1I400,凌霄,2025-06-06,24.018778,121.004456,3.0647376e-09
C1M640,十字,2025-06-06,23.492153,120.753683,6.6529395e-09
G2P820,農試鳳山分所,2025-06-06,22.646611,120.356083,7.404906e-05
C0Z270,蕃薯寮,2025-06-06,23.73835,121.540108,3.3949379e-09
C0FB10,出雲山苗圃,2025-06-06,24.23105,120.90475,1.7220532e-09
C0F9Q0,外埔,2025-06-06,24.347817,120.705686,1.1002531e-09
C0K580,高鐵雲林,2025-06-06,23.737456,120.417944,1.386012e-07
C2I090,鳳凰,2025-06-06,23.728081,120.787347,3.851675e-09
C0U990,員山,2025-06-06,24.74435,121.72247,4.111928e-09
C0V770,大社,2025-06-06,22.730306,120.346639,0.003130324
C0X120,麻豆,2025-06-06,23.183289,120.248611,1.0908559e-05
C0C670,龍潭,2025-06-06,24.870056,121.221389,1.4429462e-09
C0D680,香山濕地,2025-06-06,24.783581,120.914988,3.158352e-09
C0S980,勝林山,2025-06-06,22.430439,120.8938,9.0729867e-07
C0V730,大寮,2025-06-06,22.605614,120.395717,0.0008888812
C0R570,麟洛,2025-06-06,22.65078,120.52719,0.008171086
C2M930,石卓,2025-06-06,23.478744,120.702264,7.893347e-09
C0G9B0,和美,2025-06-06,24.105169,120.492131,3.7542933e-09
CAG100,王功漁港,2025-06-06,23.96824,120.32586,0.018663766
C0X290,北門,2025-06-06,23.267772,120.125481,1.8444896e-05
C2F930,大甲,2025-06-06,24.347667,120.640403,9.086036e-09
C0D650,湖口,2025-06-06,24.904794,121.043628,1.5313375e-08
C0E420,竹南,2025-06-06,24.708978,120.888897,9.041123e-09
C0U780,五結,2025-06-06,24.68637,121.79794,4.434325e-09
C1I250,鯉潭,2025-06-06,23.961922,120.991131,7.307661e-09
C0R130,阿禮,2025-06-06,22.742908,120.743678,2.8054767e-09
C0X100,臺南市北區,2025-06-06,23.010394,120.194228,0.00011739682
C0S920,金峰嘉蘭,2025-06-06,22.594789,120.960825,0.08147632
C0V490,新興,2025-06-06,22.627422,120.298803,0.0010009683
C0F9K0,大安,2025-06-06,24.345061,120.588025,2.5678016e-08
467290,古坑,2025-06-06,23.633639,120.551889,2.202974e-07
C2E970,八甲,2025-06-06,24.535811,120.795983,9.037084e-10
C0V440,鳳山,2025-06-06,22.646653,120.356122,7.404906e-05
C1T940,大觀,2025-06-06,23.714206,121.373133,2.2444777e-09
C0E740,造橋,2025-06-06,24.637056,120.864778,2.1993198e-09
C0R100,尾寮山,2025-06-06,22.833111,120.683889,5.036243e-09
A2K630,臺大雲林校區,2025-06-06,23.730628,120.423903,1.386012e-07
467990,馬祖,2025-06-06,26.169467,119.923158,0.65449435
C0D580,寶山,2025-06-06,24.735006,121.025192,1.0257835e-09
E2P990,林試扇平站,2025-06-06,22.9677,120.6857,1.4211324e-07
C0AI30,三重,2025-06-06,25.057328,121.500629,4.7806767e-09
C0AH00,汐止,2025-06-06,25.066881,121.658778,4.5155613e-09
C1Z040,立山,2025-06-06,23.443356,121.327375,5.6831986e-08
466881,新北,2025-06-06,24.959207,121.525196,3.4888892e-09
C0W130,花嶼,2025-06-06,23.40007,119.32276,0.037658174
C0A950,鼻頭角,2025-06-06,25.129036,121.923372,0.026002046
C0K470,林內,2025-06-06,23.748675,120.609642,6.676473e-08
C2F990,摩天嶺,2025-06-06,24.322458,120.936819,2.2387443e-09
82C160,茶改場,2025-06-06,24.908472,121.185333,2.461088e-09
C0Z320,清水林道,2025-06-06,23.27125,121.188272,2.3241645e-08
C0R760,南仁湖,2025-06-06,22.084681,120.863353,0.928335
C0M670,大林,2025-06-06,23.600616,120.45841,3.3153765e-07
C0M800,茶山,2025-06-06,23.299075,120.664767,1.2496195e-08
C0A9C0,天母,2025-06-06,25.117494,121.537169,6.866942e-09
72K220,南改斗南分場,2025-06-06,23.634556,120.477333,7.8217477e-07
72AI40,桃改樹林分場,2025-06-06,24.944503,121.386972,2.908434e-09
C0S910,蘭嶼燈塔,2025-06-06,22.081197,121.503117,0.11363904
C0B050,八斗子,2025-06-06,25.144754,121.79167,2.4928273e-08
C0U900,內城,2025-06-06,24.71813,121.68766,3.067024e-09
C0X320,柳營,2025-06-06,23.253328,120.375253,1.5924095e-07
C0M790,新港,2025-06-06,23.553269,120.345728,6.450836e-08
C0F9T0,西屯,2025-06-06,24.179494,120.641275,6.6844297e-10
C0E950,松安,2025-06-06,24.39792,120.98599,3.0257985e-09
C0SA30,都歷,2025-06-06,23.020333,121.323642,0.00035961918
C0C620,蘆竹,2025-06-06,25.084275,121.265767,8.089881e-08
C0R730,大坪頂,2025-06-06,22.024633,120.69355,0.35021123
C0AJ40,石門,2025-06-06,25.273672,121.601198,4.481671e-08
C0E750,苗栗,2025-06-06,24.564569,120.824575,1.2644262e-09
C0T870,鯉魚潭,2025-06-06,23.935639,121.508944,1.6206133e-05
C1V170,排雲,2025-06-06,23.463619,120.954147,9.305711e-09
C2H950,中寮,2025-06-06,23.884447,120.766406,5.7970557e-09
C0R350,貓鼻頭,2025-06-06,21.921774,120.7358,0.26091337
C0V660,岡山,2025-06-06,22.797078,120.294958,0.0003495852
C1H941,雙冬,2025-06-06,23.967378,120.802189,2.8604714e-09
C0AJ70,田寮,2025-06-06,25.2698,121.4886,2.0741656e-07
C0AI00,五股,2025-06-06,25.07445,121.42728,3.667332e-09
C0Z280,德武,2025-06-06,23.47426,121.41071,2.6070088e-09
C0R700,枋山,2025-06-06,22.246844,120.661086,0.16413075
C0C460,復興,2025-06-06,24.820208,121.352281,1.4477761e-09
E2H360,蓮華池,2025-06-06,23.918333,120.885278,2.5103228e-09
C0M640,中埔,2025-06-06,23.42538,120.5229,1.4769288e-08
C0W140,金沙,2025-06-06,24.488292,118.408778,0.60375726
C2A540,四堵,2025-06-06,24.8926,121.745736,4.343335e-09
C0ACA0,新莊,2025-06-06,25.051478,121.446756,6.1794845e-09
C0R220,潮州,2025-06-06,22.534361,120.54,0.03781001
U2HA40,臺大內茅埔,2025-06-06,23.689722,120.851117,6.15711e-08
467490,臺中,2025-06-06,24.145736,120.684075,1.4433481e-09
C0UB60,明池,2025-06-06,24.650688,121.475277,5.3507754e-09
C0U960,翠峰湖,2025-06-06,24.510856,121.608044,6.848251e-09
E2HA20,林試畢祿溪站,2025-06-06,24.226944,121.308522,7.971538e-09
C0V890,前鎮,2025-06-06,22.5718,120.3117,0.0011852359
C1F941,雪嶺,2025-06-06,24.280586,121.026642,1.4391649e-08
C2H9E0,國姓南港,2025-06-06,23.911108,120.846556,3.1685974e-09
C0AC80,文山,2025-06-06,25.00235,121.575728,3.1999121e-09
C0F9R0,龍井,2025-06-06,24.184536,120.528972,1.3646937e-08
C0M760,民雄,2025-06-06,23.551754,120.428457,3.7026598e-07
C0UA40,西德山,2025-06-06,24.560647,121.752608,3.5351022e-09
C1T920,中興,2025-06-06,23.769503,121.498653,1.9707372e-07
C0D550,雪霸,2025-06-06,24.526972,121.11605,4.6085415e-09
C2F860,梨山,2025-06-06,24.247522,121.243669,8.225899e-09
C0R320,車城,2025-06-06,22.0744,120.716247,0.47803897
C1S870,南美山,2025-06-06,23.15025,121.382333,1.7780199e-08
C0B020,基隆嶼,2025-06-06,25.19141,121.78391,0.02623573
C1U501,牛鬥,2025-06-06,24.637836,121.573656,4.0093195e-09
C0M730,嘉義市東區,2025-06-06,23.457673,120.460531,1.006583e-07
C0S700,知本,2025-06-06,22.684866,121.005642,9.4804236e-08
C1N001,沙崙,2025-06-06,22.935472,120.309406,0.00604079
C0V760,橋頭,2025-06-06,22.757806,120.30575,0.0030711726
C0G960,福寶,2025-06-06,24.0443,120.3814,4.4596176e-09
C0X210,白河,2025-06-06,23.347466,120.414427,8.223487e-08
C0S810,東河,2025-06-06,22.972672,121.303986,0.007031251
C2R170,屏東,2025-06-06,22.66027,120.49403,0.008174352
C0R670,楓港,2025-06-06,22.190131,120.692156,0.7326127
C0FA50,霧峰,2025-06-06,24.0419,120.6995,1.8571562e-09
C0UB10,蘇澳,2025-06-06,24.5969,121.8571,1.0903575e-08
C0G950,防潮門,2025-06-06,24.1835,120.4871,1.3710413e-08
C0M740,六腳,2025-06-06,23.492871,120.290625,1.363153e-07
C1R250,力里,2025-06-06,22.428117,120.629228,0.005114256
C0K330,虎尾,2025-06-06,23.719183,120.442036,1.2658269e-07
C2FA00,烏石坑,2025-06-06,24.273503,120.947617,2.2426463e-09
C0V620,永安,2025-06-06,22.82315,120.236856,0.00034909017
C1I330,楓樹林,2025-06-06,23.986803,121.076117,2.8701832e-09
C0W200,湖西,2025-06-06,23.596314,119.67275,0.014911938
72Q010,高雄農改場,2025-06-06,22.709333,120.525889,0.032583226
C0SA40,瑞和,2025-06-06,22.974361,121.156697,1.3719049e-05
C0C680,龜山,2025-06-06,25.02846,121.38656,3.0790985e-09
C2V260,月眉,2025-06-06,22.971003,120.539853,0.07318179
C0V450,鳳森,2025-06-06,22.545064,120.392592,0.0005048354
C0FA90,小雪山林道,2025-06-06,24.29515,121.03651,1.8307166e-08
C0U720,南山,2025-06-06,24.43742,121.38167,1.2281827e-08
A2N290,臺南蘭花園區,2025-06-06,23.340258,120.379661,2.9727085e-08
C0R560,新園,2025-06-06,22.5434,120.461558,0.00074144657
C0U890,三星,2025-06-06,24.66812,121.65302,9.172804e-09
C1V300,御油山,2025-06-06,23.001983,120.715364,2.1442013e-09
C0U600,礁溪,2025-06-06,24.817539,121.765608,3.180139e-08
C1T980,龍澗,2025-06-06,24.023289,121.411328,3.6758706e-08
C0D670,海天一線,2025-06-06,24.831986,120.914438,0.36470804
C0SA00,歷坵,2025-06-06,22.520969,120.89185,9.0454904e-08
C0M710,東石,2025-06-06,23.458927,120.15385,1.4599207e-06
C0M780,鹿草,2025-06-06,23.41134,120.30835,1.8213743e-07
C0U520,雙連埤,2025-06-06,24.753033,121.641303,2.9705078e-09
C0B010,七堵,2025-06-06,25.094819,121.71713,4.568066e-09
C0R480,長治,2025-06-06,22.693128,120.542622,0.036999013
C1V830,國三S383K,2025-06-06,22.781967,120.426475,0.08014387
12Q980,恆春工作站,2025-06-06,22.079678,120.714425,0.47803897
C1O940,東山服務區,2025-06-06,23.286016,120.398472,5.8688393e-08
C1U840,東澳嶺,2025-06-06,24.5378,121.8485,1.9729962e-09
C1D630,飛鳳山,2025-06-06,24.766464,121.119178,9.958442e-10
C0S940,石寧山,2025-06-06,23.223772,121.406639,7.97318e-09
C0K410,北港,2025-06-06,23.573957,120.292802,3.3805503e-07
C2M620,瑞里,2025-06-06,23.545133,120.675197,5.0284967e-09
C0SB70,小港漁港,2025-06-06,23.158558,121.400431,5.8263977e-05
C2O950,安南,2025-06-06,23.076694,120.144861,7.059853e-05
C0F0E0,南湖圈谷,2025-06-06,24.363714,121.444667,2.1724297e-08
467610,成功,2025-06-06,23.097486,121.373428,0.06089223
C0G890,伸港,2025-06-06,24.148933,120.484403,6.325086e-09
C2E540,龍溪,2025-06-06,24.606489,120.783933,2.3294713e-09
C1V200,梅山,2025-06-06,23.268447,120.823556,1.32319595e-08
C0T9H0,加路蘭山,2025-06-06,23.682947,121.5274,2.7870177e-09
C2O930,玉井,2025-06-06,23.126042,120.46055,0.00028790784
C1F911,新伯公,2025-06-06,24.221361,120.841069,1.499431e-09
C0R490,九如,2025-06-06,22.7405,120.490503,0.04032951
C0X200,左鎮,2025-06-06,23.056758,120.408522,0.000751384
C0FA60,鞍馬山工作站,2025-06-06,24.267064,121.000793,1.08315446e-08
C0SB50,叭嗡嗡,2025-06-06,23.047062,121.343223,0.078740664
C1F891,稍來,2025-06-06,24.265689,121.001142,1.0508311e-08
72N240,七股研究中心,2025-06-06,23.081672,120.062894,7.853796e-05
C0C700,中壢,2025-06-06,24.977661,121.256375,2.8479503e-09
C0M690,水上,2025-06-06,23.419734,120.388909,7.810025e-08
C0V690,鼓山,2025-06-06,22.623325,120.275575,0.0010009683
C0O860,大內,2025-06-06,23.11885,120.36083,2.0670424e-05
C0Z200,萬榮,2025-06-06,23.709219,121.420106,1.0063676e-08
C0T9D0,和中,2025-06-06,24.26676,121.74103,2.6063623e-07
C1O921,楠西,2025-06-06,23.183511,120.484083,5.1467196e-06
C0AJ30,淡水觀海,2025-06-06,25.184591,121.408616,1.7069071e-08
C0V810,左營,2025-06-06,22.67491,120.28491,8.520411e-05
C0UA70,桃源谷,2025-06-06,24.962606,121.888875,4.5107837e-09
C0X130,官田,2025-06-06,23.193217,120.315422,5.774045e-07
C1H000,翠峰,2025-06-06,24.109397,121.205211,4.4598387e-09
C0UA90,石城,2025-06-06,24.980444,121.951214,9.6600505e-09
C1E681,南勢山,2025-06-06,24.421669,120.923831,1.2150594e-09
C0A9F0,內湖,2025-06-06,25.079422,121.57545,4.5155613e-09
C0K291,宜梧,2025-06-06,23.536281,120.169329,8.426041e-07
C1K540,口湖,2025-06-06,23.585344,120.180517,3.443366e-05
C0R780,滿州,2025-06-06,22.024403,120.839892,0.045083832
C0V870,文安,2025-06-06,22.8025,120.2164,0.0003534723
C0U650,玉蘭,2025-06-06,24.675286,121.587061,3.445212e-09
C0R640,東港,2025-06-06,22.46247,120.44074,0.00031690637
C0AJ80,板橋,2025-06-06,25.0107,121.4489,3.9390984e-09
C0S660,下馬,2025-06-06,23.150427,121.070312,1.9779518e-08
C1H9B1,阿眉,2025-06-06,24.1263,120.994672,8.299925e-09
C0UA20,多加屯,2025-06-06,24.368614,121.373189,5.4634643e-09
C0E730,頭份,2025-06-06,24.688247,120.912206,1.0022816e-08
72V140,高改旗南分場,2025-06-06,22.857861,120.516667,0.07457295
C0K480,莿桐,2025-06-06,23.761192,120.502372,1.9979073e-08
C0U980,坪林石牌,2025-06-06,24.86478,121.77396,3.0890397e-09
C0T900,西林,2025-06-06,23.8119,121.441458,1.3905193e-08
C1I150,青雲,2025-06-06,23.793361,120.949378,5.5780904e-09
467350,澎湖,2025-06-06,23.565503,119.563094,0.02115396
C0G800,埔鹽,2025-06-06,24.000394,120.431683,1.5219207e-08
C0H960,草屯,2025-06-06,23.973672,120.68085,1.6507149e-09
C1V780,多納林道,2025-06-06,22.888028,120.737917,5.4504854e-09
C0E920,通霄漁港,2025-06-06,24.498589,120.673876,0.0008847913
C0Z330,安通山,2025-06-06,23.290728,121.348528,9.317748e-10
C0AH10,永和,2025-06-06,25.01125,121.508111,3.9390984e-09
C0AK10,太平里,2025-06-06,25.134937,121.364899,4.3048622e-08
C2G640,鹿港,2025-06-06,24.0753,120.430481,4.4596176e-09
C1E890,國三N149K,2025-06-06,24.463414,120.680019,1.6599097e-08
C1R110,口社,2025-06-06,22.770111,120.645222,0.9974188
C1M870,國三N285K,2025-06-06,23.550319,120.505833,1.5537793e-07
C1E480,鳳美,2025-06-06,24.554803,121.034747,1.5391463e-09
C0M530,奮起湖,2025-06-06,23.493903,120.699253,5.165744e-09
C0C590,觀音,2025-06-06,25.027072,121.153317,6.785563e-07
C0T9M0,靜浦,2025-06-06,23.455167,121.495028,1.14023555e-08
C2H9M0,發祥,2025-06-06,24.154094,121.164517,7.2174426e-09
C0AI40,石牌,2025-06-06,25.115597,121.513139,7.0987327e-09
C1F871,上谷關,2025-06-06,24.203483,121.018644,1.7407711e-09
C2H9G0,百勝,2025-06-06,24.051142,120.909361,2.572173e-09
C0G880,二水,2025-06-06,23.810742,120.6173,3.2238734e-08
C0R940,加祿堂,2025-06-06,22.3363,120.6217,0.29024938
C0W220,北竿,2025-06-06,26.220358,119.974881,0.13451922
C0O960,崎頂,2025-06-06,22.959547,120.369317,0.0053322357
C0TA40,秀林,2025-06-06,24.302864,121.731144,2.964193e-08
C0S750,向陽,2025-06-06,23.248397,120.986133,2.5922477e-09
C0T9F0,水璉,2025-06-06,23.797131,121.542514,5.58647e-09
C1M600,頭凍,2025-06-06,23.406364,120.603339,7.151121e-09
467660,臺東,2025-06-06,22.752211,121.154586,0.025285067
C1D380,新埔,2025-06-06,24.84745,121.03834,3.826143e-09
C2G980,田頭村,2025-06-06,23.8263,120.444175,3.410074e-08
C0V750,路竹,2025-06-06,22.854997,120.259439,0.0001530242
C0N050,蚵寮,2025-06-06,23.301,120.1104,8.042784e-06
72M700,南改鹿草分場,2025-06-06,23.416869,120.283061,2.3976222e-07
C1SA50,利嘉林道,2025-06-06,22.82325,121.009389,1.3439435e-08
C0UB70,太平山中間站,2025-06-06,24.542003,121.513453,3.1753675e-09
C0A940,金山,2025-06-06,25.223628,121.643967,1.0059569e-08
C1V340,大津,2025-06-06,22.888322,120.645986,0.9736424
C0W180,七美,2025-06-06,23.219333,119.444892,0.09465487
C1F9C1,白冷,2025-06-06,24.182844,120.929889,1.0732929e-09
K2E710,苗改生物防治研究中心,2025-06-06,24.422861,120.871833,1.0680079e-09
C0N040,蘆竹溝,2025-06-06,23.2344,120.0961,1.8444896e-05
C0D760,大坪苗圃,2025-06-06,24.5362,121.1108,3.2574903e-09
C2W230,畜試所澎湖,2025-06-06,23.628342,119.513206,0.02618592
C0R880,後壁湖,2025-06-06,21.9457,120.7457,0.12345523
C1I280,埔中,2025-06-06,23.820778,120.642594,2.496471e-09
467790,墾丁雷達站,2025-06-06,21.948235,120.808028,0.03614196
C0W190,望安,2025-06-06,23.380564,119.494075,0.018597787
C0Z170,卓溪,2025-06-06,23.3443,121.3029,1.3978687e-09
C0F850,東勢,2025-06-06,24.246428,120.833047,1.044042e-09
466900,淡水,2025-06-06,25.164889,121.448906,4.289257e-08
C0I370,魚池,2025-06-06,23.895703,120.94135,2.469359e-09
C0C630,大溪,2025-06-06,24.882853,121.265547,1.5625853e-09
C0A520,山佳,2025-06-06,24.974944,121.402008,2.3793156e-09
C0I110,竹山,2025-06-06,23.761225,120.688156,1.2684946e-08
82H840,茶改南部分場,2025-06-06,23.762528,120.7405,2.9420835e-09
C0G660,溪湖,2025-06-06,23.94835,120.479122,5.5561102e-09
C1T800,洛韶,2025-06-06,24.204558,121.453956,2.4355177e-08
C1T810,慈恩,2025-06-06,24.192044,121.388386,3.222261e-09
C1E451,象鼻,2025-06-06,24.368617,120.940228,1.2280978e-09
C0AC60,三峽,2025-06-06,24.939025,121.369728,2.7457618e-09
C0I490,萬大林道,2025-06-06,23.928228,121.091411,2.9194998e-09
C1I290,豐丘,2025-06-06,23.668178,120.887417,4.184847e-09
C1I320,奧萬大,2025-06-06,23.952956,121.178556,2.5213451e-09
C2M910,嘉義大學,2025-06-06,23.471325,120.485903,4.9348994e-08
C0U770,南澳,2025-06-06,24.44935,121.81022,3.941022e-09
C0A980,社子,2025-06-06,25.109508,121.469681,4.9980347e-08
C0V800,六龜,2025-06-06,22.997889,120.633583,0.00010894501
C1G9D0,國一S218K,2025-06-06,23.890641,120.493253,1.733268e-08
C0E570,白沙屯,2025-06-06,24.549447,120.696803,5.4399095e-07
C2F9A0,中竹林,2025-06-06,24.103556,120.751061,1.5242672e-09
C0FA40,臺中電廠,2025-06-06,24.2146,120.4907,1.3646937e-08
C2G9A0,畜試所彰化,2025-06-06,23.86045,120.557964,1.1030651e-08
C0H9C0,合歡山,2025-06-06,24.143442,121.272547,1.287424e-08
C0X060,下營,2025-06-06,23.22695,120.256261,4.4345784e-06
G2M350,農試溪口農場,2025-06-06,23.58565,120.408111,5.4694254e-07
C0U860,頭城,2025-06-06,24.85323,121.8308,3.465797e-08
C0R580,南州,2025-06-06,22.48591,120.50274,0.00031690637
C0D430,峨眉,2025-06-06,24.6905,121.017189,1.0413551e-09
C0G780,秀水,2025-06-06,24.03405,120.503869,1.3669125e-09
72N100,臺南農改場,2025-06-06,23.0605,120.342194,1.9146912e-05
C0S900,蘭嶼高中,2025-06-06,22.04909,121.51214,0.28176084
C1F9W0,德基,2025-06-06,24.254783,121.190261,8.702993e-09
C1Z120,壽豐,2025-06-06,23.870853,121.508081,7.372318e-06
C0W160,烏坵,2025-06-06,24.9944,119.44956,0.2744885
C1I240,外大坪,2025-06-06,23.958697,120.917931,6.7847137e-09
C1I550,國六W023K,2025-06-06,23.979067,120.867742,2.4653728e-09
C0R870,興海,2025-06-06,21.9752,120.8439,0.03055742
C0R140,瑪家,2025-06-06,22.682903,120.686639,4.2891998e-08
C0A530,坪林,2025-06-06,24.938183,121.70975,4.8340967e-09
C0X260,後壁,2025-06-06,23.366358,120.362326,2.9725836e-08
C0Z230,和平,2025-06-06,24.30717,121.77007,3.4309548e-07
C0G770,福興,2025-06-06,24.041289,120.437669,1.5219207e-08
C0H9A0,神木村,2025-06-06,23.532742,120.843667,6.7258954e-09
C0I460,南投,2025-06-06,23.911469,120.687331,1.5537298e-08
C0I480,梅峰,2025-06-06,24.085272,121.173572,4.185781e-09
C1V570,吉東,2025-06-06,22.85422,120.5454,0.050913233
C2D740,屯原,2025-06-06,24.067969,121.209389,3.6871248e-09
C2A560,福山,2025-06-06,24.776203,121.502811,6.111978e-09
C0AH30,五分山,2025-06-06,25.07125,121.780794,2.43326e-09
C0FA10,松柏,2025-06-06,24.429115,120.617482,4.4778087e-08
72S200,東改班鳩分場,2025-06-06,22.829528,121.077694,0.0026488951
72HA00,中改埔里分場,2025-06-06,23.903208,120.963364,2.686544e-09
C2H9W0,大坪頂農水,2025-06-06,24.043122,120.932781,3.9415786e-09
C0C650,平鎮,2025-06-06,24.897503,121.214636,1.8408735e-09
C0S930,延平,2025-06-06,22.902581,121.084058,1.15720295e-05
C0UA60,樟樹山,2025-06-06,24.41393,121.78325,8.2075315e-09
C1S670,摩天,2025-06-06,23.199503,121.027,4.3717115e-08
C0V630,茄萣,2025-06-06,22.906642,120.182608,0.00018756013
466940,基隆,2025-06-06,25.133314,121.740475,2.4145049e-08
C0X050,東河,2025-06-06,23.296598,120.385608,8.715987e-08
C0R770,保力,2025-06-06,22.071122,120.764111,0.1553036
G2L020,農試嘉義分所,2025-06-06,23.485028,120.473806,7.911331e-08
C0X240,關子嶺,2025-06-06,23.331169,120.508025,3.714555e-09
C0I380,集集,2025-06-06,23.828206,120.801467,9.021021e-09
466990,花蓮,2025-06-06,23.975128,121.613275,0.0005974282
C1V220,小關山,2025-06-06,23.154217,120.813603,2.3827036e-09
C1F9G1,慶福山,2025-06-06,24.180853,120.848378,1.6568217e-09
C0FB20,雪山橋,2025-06-06,24.23192,120.9786,1.3080971e-08
C0Z250,瑞穗林道,2025-06-06,23.49284,121.30688,8.1022705e-07
C0D590,新豐,2025-06-06,24.87068,120.97721,0.018480636
C0A870,五指山,2025-06-06,25.132153,121.608692,1.5371542e-09
C0UA50,西帽山,2025-06-06,24.555361,121.802628,3.0604907e-09
C0X160,仁德,2025-06-06,22.968258,120.257689,0.0009479979
C1H971,六分寮,2025-06-06,23.92507,120.6378,2.0345932e-09
C0W120,西嶼,2025-06-06,23.5626,119.468436,0.037120488
C0G650,員林,2025-06-06,23.946503,120.585597,3.1774334e-09
C0AD50,鶯歌,2025-06-06,24.951533,121.346294,2.5491398e-09
C2H9Q0,北東眼山,2025-06-06,24.120939,121.189303,8.0075475e-09
C2H9T0,名間竹圍,2025-06-06,23.859914,120.637572,3.6600714e-09
C0S990,山豬窟,2025-06-06,22.318619,120.857372,0.31549215
C0X190,安平,2025-06-06,22.993161,120.152181,0.00011739682
C0K400,斗六,2025-06-06,23.720583,120.541127,7.209177e-08
12J990,口湖工作站,2025-06-06,23.589978,120.180394,3.443366e-05
C0O830,北寮,2025-06-06,23.079561,120.495008,0.020311937
C1D410,白蘭,2025-06-06,24.579364,121.079947,3.0384526e-09
C0S970,加津林,2025-06-06,22.416211,120.926942,0.30825502
C0D700,關西,2025-06-06,24.7977,121.1732,1.2391141e-09
C0M810,里佳,2025-06-06,23.389125,120.716647,5.732579e-09
C0U750,龜山島,2025-06-06,24.841667,121.953133,2.7383402e-07
C0R810,內獅,2025-06-06,22.305064,120.642986,0.29529324
C1M390,龍美,2025-06-06,23.406728,120.654417,5.9078866e-09
C2FB60,頭櫃山,2025-06-06,24.129842,120.858925,5.329813e-09
C1H840,國三N238K,2025-06-06,23.841008,120.707711,5.3297113e-09
CAQ030,崎峰國小,2025-06-06,22.42565,120.49521,0.00031690637
C2E520,大湖,2025-06-06,24.414939,120.870872,1.0280183e-09
467530,阿里山,2025-06-06,23.508208,120.813242,7.694455e-09
C1E691,南湖,2025-06-06,24.40135,120.837533,1.1362945e-09
C0FA30,梧棲,2025-06-06,24.256003,120.523381,1.5740909e-08
C1V231,高中,2025-06-06,23.134911,120.716711,2.7557936e-09
C0AK30,硬漢嶺,2025-06-06,25.136097,121.426372,1.5167472e-09
C0F9V0,新社,2025-06-06,24.200172,120.815806,1.197347e-09
C0H890,埔里,2025-06-06,23.972169,120.952425,1.9382589e-09
C0R690,墾丁,2025-06-06,21.966756,120.810269,0.1863322
C0F0D0,審馬陣,2025-06-06,24.381675,121.4203,8.766986e-09
C2W030,金門農試所,2025-06-06,24.448431,118.451786,0.1224061
C0R820,白鷺,2025-06-06,22.454275,120.666219,0.0015337939
C0FB00,大雪山,2025-06-06,24.254668,121.007374,1.0832102e-08
C1V190,南天池,2025-06-06,23.27403,120.91176,2.8946756e-09
C0E940,雪見,2025-06-06,24.42595,121.01347,5.351143e-09
K2E360,苗栗農改場,2025-06-06,24.495722,120.829111,9.45555e-10
CAJ050,海口故事園區,2025-06-06,23.57543,120.14121,3.443366e-05
C2H9D0,三隻寮,2025-06-06,24.093078,120.861578,3.8694874e-09
C0O990,媽廟,2025-06-06,22.99175,120.293525,0.00019911496
C0D480,打鐵坑,2025-06-06,24.849664,121.150789,1.4188126e-09
C0Z220,和平林道,2025-06-06,24.343922,121.656317,1.7501628e-09
C0TA10,花蓮漁港,2025-06-06,23.995322,121.638331,0.00095707196
72C440,桃園農改場,2025-06-06,24.950944,121.030583,2.560495e-08
C1E711,馬拉邦山,2025-06-06,24.367306,120.901656,1.2439971e-09
C0SB20,富岡,2025-06-06,22.792467,121.192669,0.16358666
C0D560,竹東,2025-06-06,24.767147,121.057881,1.2861398e-09
C0F9U0,南屯,2025-06-06,24.137006,120.637969,7.563941e-10
C0M720,番路,2025-06-06,23.464657,120.554156,4.901539e-09
C0F0A0,雪山圈谷,2025-06-06,24.388594,121.236339,1.3979601e-08
C1A9N0,四十份,2025-06-06,24.934158,121.593283,1.997529e-09
C0U760,東澳,2025-06-06,24.52196,121.83318,2.8863907e-08
C0X230,鹽水,2025-06-06,23.272621,120.247641,7.334799e-06
C2H9H0,苗改南投蜂場,2025-06-06,23.852589,120.693481,8.979632e-09
C0R950,萬隆國小,2025-06-06,22.507667,120.587817,0.029597754
467540,大武,2025-06-06,22.35572,120.90374,0.2681332
C0V370,古亭坑,2025-06-06,22.893178,120.401947,0.06652669
C1I340,新興橋,2025-06-06,23.563333,120.868728,5.5157647e-09
C0SA80,土坂,2025-06-06,22.453108,120.887572,0.7729573
C0R160,鹽埔,2025-06-06,22.739558,120.530778,0.032525953
C0AC40,大屯山,2025-06-06,25.175675,121.522408,2.7943527e-09
466850,五分山雷達站,2025-06-06,25.071182,121.781205,2.4413582e-09
C2H9L0,馬烈霸,2025-06-06,24.1512,121.201772,7.896675e-09
C1AI50,國三N016K,2025-06-06,25.034164,121.619664,3.8454284e-09
C1V600,藤枝,2025-06-06,23.071961,120.757042,2.1195277e-09
C1E601,南勢,2025-06-06,24.572486,120.734842,2.3697243e-08
C0O980,新市,2025-06-06,23.061614,120.298197,2.8765324e-05
C0K420,西螺,2025-06-06,23.800407,120.467394,2.8774858e-08
C0Z050,佳心,2025-06-06,23.34567,121.21316,1.781275e-08
C0AD30,蘆洲,2025-06-06,25.086594,121.472331,4.7806767e-09
C0V610,梓官,2025-06-06,22.760558,120.267211,0.003071917
K2F750,種苗改良場,2025-06-06,24.225972,120.800917,1.3284274e-09
C0UA80,大溪漁港,2025-06-06,24.941801,121.902955,1.4391292e-08
C1AI60,國一39K邊坡,2025-06-06,25.064361,121.383836,3.339163e-09
C0W150,金寧,2025-06-06,24.457703,118.328989,0.13915244
C0R960,內埔,2025-06-06,22.608483,120.570714,0.6558363
V2C250,八德合作社,2025-06-06,24.93775,121.266389,2.055716e-09
C2H9S0,龍南,2025-06-06,23.953536,120.833183,2.0703894e-09
C0AH40,平等,2025-06-06,25.129142,121.577086,1.6490314e-09
C0R540,佳冬,2025-06-06,22.419456,120.552375,0.31695318
466950,彭佳嶼,2025-06-06,25.627975,122.079744,0.99662554
C0A890,雙溪,2025-06-06,25.036003,121.864242,1.7232797e-08
C0C480,桃園,2025-06-06,24.992425,121.323172,3.1476233e-09
C0AH50,林口,2025-06-06,25.072181,121.38084,2.8798672e-09
A2K360,水試臺西試驗場,2025-06-06,23.717231,120.190522,1.51196855e-05
C2M960,外寮,2025-06-06,23.562643,120.665688,4.2549586e-09
C0F9S0,烏日,2025-06-06,24.107058,120.624103,1.7474275e-09
C0C490,八德,2025-06-06,24.928708,121.283289,2.0106825e-09
C0R190,赤山,2025-06-06,22.592333,120.614306,0.6775781
C0T820,天祥,2025-06-06,24.179597,121.495639,9.3845654e-07
C1F9E1,龍安,2025-06-06,24.1605,120.831961,1.1094982e-09
C0V820,小林,2025-06-06,23.148408,120.63325,8.7392555e-09
C2G870,芳苑,2025-06-06,23.922303,120.320025,0.019467464
C0E850,大河,2025-06-06,24.618069,120.948578,1.1476687e-09
C1U670,寒溪,2025-06-06,24.634,121.71691,2.3568765e-09
C0N020,城西,2025-06-06,23.0568,120.0956,0.00011739682
C1Z110,三棧,2025-06-06,24.11557,121.60501,1.5216818e-07
C0R280,檳榔,2025-06-06,22.076078,120.836777,0.8188344
C2H9J0,中台,2025-06-06,23.9996,120.938739,3.5279555e-09
C0F9L0,后里,2025-06-06,24.310436,120.729725,1.5641151e-09
467441,高雄,2025-06-06,22.730432,120.312516,0.003117897
C0Z180,新城,2025-06-06,24.040486,121.604878,0.0004878727
C0D540,橫山,2025-06-06,24.71116,121.11693,8.447107e-10
C1D420,太閣南,2025-06-06,24.632808,121.160575,4.190694e-09
C1E770,公館,2025-06-06,24.526914,120.830806,1.0332295e-09
CAN130,水試所海水繁養殖中心,2025-06-06,23.120802,120.07968,7.853796e-05
C1I430,翠華,2025-06-06,24.191961,121.224339,3.5328847e-09
C1M400,菜瓜坪,2025-06-06,23.251928,120.576103,1.16978285e-08
C0G730,二林,2025-06-06,23.903325,120.376081,8.8987676e-08
72M360,南改義竹分場,2025-06-06,23.360694,120.279361,1.3408822e-06
V2K620,麥寮合作社,2025-06-06,23.753836,120.294783,3.7593688e-07
C0Z070,舞鶴,2025-06-06,23.46811,121.37407,1.861813e-09
C0B040,大武崙,2025-06-06,25.166676,121.706993,1.8782462e-08
C1Z030,紅葉,2025-06-06,23.493119,121.338806,2.8923963e-09
C1I050,丹大,2025-06-06,23.753747,121.141147,4.1862123e-09
C0I080,信義,2025-06-06,23.689694,120.851036,6.15711e-08
C0D750,樂山林道6k,2025-06-06,24.49999,121.08773,7.3513764e-09
C2M920,朴子農改,2025-06-06,23.469889,120.259383,2.3976222e-07
C2A880,福隆,2025-06-06,25.017842,121.942083,9.803064e-09
C0Z160,鳳林,2025-06-06,23.746114,121.453411,1.5837761e-08
C0UB80,翠峰林道6K,2025-06-06,24.49773,121.568625,1.2841916e-08
C0V210,復興,2025-06-06,23.222403,120.806089,5.084291e-08
C0H990,昆陽,2025-06-06,24.121322,121.273642,9.224368e-09
C0R741,獅子,2025-06-06,22.202308,120.705236,0.17420815
C0S710,鹿野,2025-06-06,22.917711,121.122994,2.8490655e-08
C0I530,小奇萊,2025-06-06,24.131764,121.295717,9.82133e-09
C0FA70,大雪山埡口,2025-06-06,24.26867,121.03062,1.4218909e-08
C2K630,荷苞,2025-06-06,23.657717,120.595144,5.8797745e-08
C0Z080,富源,2025-06-06,23.587642,121.378225,3.9183064e-08
C0SB10,美和,2025-06-06,22.682078,121.060236,0.5155571
C2K620,馬光農場,2025-06-06,23.721453,120.378864,1.8280043e-07
C1I140,卡奈托灣,2025-06-06,23.754364,121.087872,2.0636635e-09
C0I520,玉山風口,2025-06-06,23.470489,120.955994,1.7626595e-08
C1G691,下水埔,2025-06-06,23.816114,120.5676,1.3307967e-08
C0X110,臺南市南區,2025-06-06,22.961189,120.188378,0.0009482843
C0V680,仁武,2025-06-06,22.701083,120.347722,8.520403e-05
C2G840,北斗,2025-06-06,23.877586,120.514222,1.539699e-08
C0R900,竹坑,2025-06-06,22.1385,120.7022,0.49770358
C0K250,崙背,2025-06-06,23.75555,120.318925,3.7593688e-07
C0G860,社頭,2025-06-06,23.897647,120.5862,1.3458906e-08
C0X150,安定,2025-06-06,23.102614,120.227839,3.9790993e-05
C0R590,里港,2025-06-06,22.77919,120.49459,0.15125823
C0E610,馬都安,2025-06-06,24.451272,120.930192,1.1422877e-09
C0E550,明德,2025-06-06,24.583486,120.885411,1.196605e-09
C0R150,三地門,2025-06-06,22.709889,120.639944,0.9974838
C0G910,花壇,2025-06-06,24.032076,120.549461,1.1825018e-09
C1D400,鳥嘴山,2025-06-06,24.71909,121.28387,1.8887172e-09
C0K500,元長,2025-06-06,23.64981,120.315024,2.0135066e-07
C0F0B0,石岡,2025-06-06,24.276061,120.777644,1.4160549e-09
C2V250,甲仙,2025-06-06,23.080106,120.591758,3.8478924e-05
C0SA20,金崙山,2025-06-06,22.567419,120.959667,3.818102e-09
C0V350,溪埔,2025-06-06,22.738578,120.446797,0.11323317
C0M660,溪口,2025-06-06,23.604131,120.403569,5.4694254e-07
C1S880,壽卡,2025-06-06,22.238911,120.858903,0.07530927
72D680,桃改新埔分場,2025-06-06,24.834444,121.066111,4.0115076e-09
