站號,站名,日期,lat,lon,BLBTSLS
C0R710,龍磐,2025-04-12,21.931672,120.838942,0.2946698
C1F9D1,白毛台,2025-04-12,24.158325,120.886933,1.2046337e-09
C0G940,竹塘,2025-04-12,23.848253,120.386764,9.408936e-10
467590,恆春,2025-04-12,22.003897,120.746339,0.6228863
C1O850,環湖,2025-04-12,23.148617,120.418633,2.8541713e-09
C0U710,太平山,2025-04-12,24.505486,121.525656,2.7480423e-08
C0E820,獅潭,2025-04-12,24.539133,120.920042,8.074735e-10
C0V880,興達,2025-04-12,22.8778,120.2127,0.88952106
C0S890,關山,2025-04-12,23.0395,121.175017,2.7499496e-09
C0SB30,新蘭,2025-04-12,22.869214,121.223228,2.1891724e-07
C2R970,屏科大,2025-04-12,22.648275,120.619247,4.18018e-09
C1Z130,銅門,2025-04-12,23.965694,121.492842,1.6536172e-09
C0AD40,土城,2025-04-12,24.973208,121.445169,1.14236386e-07
CAN140,六官養殖協會,2025-04-12,23.22881,120.29962,2.2399744e-09
C0X180,山上,2025-04-12,23.0757,120.363253,3.759942e-08
C0F9Z0,雪山東峰,2025-04-12,24.388792,121.268675,3.7972818e-08
C1M480,獨立山,2025-04-12,23.537022,120.607797,7.9538853e-10
C0X220,學甲,2025-04-12,23.230367,120.182187,4.47523e-08
467650,日月潭,2025-04-12,23.881325,120.90805,4.101643e-09
C0K600,箔子寮,2025-04-12,23.6197,120.14,6.1596005e-08
C0G830,埤頭,2025-04-12,23.866003,120.452806,4.6355506e-10
C0S950,七塊厝,2025-04-12,22.954453,121.229922,2.3991389e-09
467110,金門,2025-04-12,24.407306,118.289281,3.6160575e-09
C0AH80,深坑,2025-04-12,25.002703,121.628328,1.02606606e-07
C0A970,三貂角,2025-04-12,25.007606,122.002058,2.7347389e-09
C2D730,寶山農場,2025-04-12,24.732444,120.976153,8.129285e-10
C0K430,褒忠,2025-04-12,23.690938,120.303634,6.223448e-10
467480,嘉義,2025-04-12,23.495925,120.432906,5.794886e-10
C0V400,阿公店,2025-04-12,22.804194,120.355528,5.3328666e-08
467550,玉山,2025-04-12,23.48718,120.95943,3.3740502e-08
C0R440,大漢山,2025-04-12,22.405264,120.753181,1.0017599e-08
C0K280,四湖,2025-04-12,23.630414,120.227125,3.5711032e-08
C1F9B1,桐林,2025-04-12,24.066172,120.735194,8.983156e-10
C2H9U0,鳳鵬,2025-04-12,23.763919,120.788061,4.226896e-10
C0K390,土庫,2025-04-12,23.679029,120.395574,5.8444816e-10
C1I450,望鄉山,2025-04-12,23.594153,120.944286,2.0971742e-08
C0E910,海埔,2025-04-12,24.648767,120.772435,1.2033294e-09
B2E890,畜試北區分所,2025-04-12,24.527806,120.770972,5.870625e-10
C0R750,四林格山,2025-04-12,22.076989,120.802439,0.7390744
C0F0C0,中坑,2025-04-12,24.248517,120.903319,2.1622677e-09
C1I121,大鞍,2025-04-12,23.678381,120.760017,1.140079e-08
72U480,花改蘭陽分場,2025-04-12,24.686306,121.716583,5.5981153e-10
C0A770,科教館,2025-04-12,25.096356,121.516507,3.5057792e-09
C0AJ60,六塊厝,2025-04-12,25.24,121.4481,0.0010200838
C0R620,墾雷,2025-04-12,21.900836,120.855269,0.42570752
467420,永康,2025-04-12,23.038386,120.2367,1.6826747e-05
C0I410,名間,2025-04-12,23.837053,120.701447,4.1727696e-10
A2C560,農工中心,2025-04-12,24.985917,121.239833,4.7698743e-09
C0V740,旗山,2025-04-12,22.888614,120.483597,9.797191e-10
C0Z061,玉里,2025-04-12,23.3215,121.339656,1.4753824e-09
C0S840,南田,2025-04-12,22.279725,120.889208,0.9935345
C1I470,杉林溪,2025-04-12,23.639517,120.786444,1.295002e-08
C1X040,東原,2025-04-12,23.291597,120.463822,3.3500763e-10
C0R660,枋寮,2025-04-12,22.367722,120.590647,3.0312997e-08
C1R120,上德文,2025-04-12,22.763272,120.704442,9.1844937e-10
C0K450,大埤,2025-04-12,23.646074,120.431537,4.425535e-10
C0UA00,土場,2025-04-12,24.576533,121.495333,4.221476e-09
467080,宜蘭,2025-04-12,24.763975,121.756528,8.5185403e-10
C0N030,四草,2025-04-12,23.0235,120.1116,5.4138077e-06
467410,臺南,2025-04-12,22.99328,120.20492,2.6118264e-06
C0V650,彌陀,2025-04-12,22.783806,120.246361,0.9815855
C0D660,新竹市東區,2025-04-12,24.798681,120.986942,1.1831786e-09
82S580,茶改東部分場,2025-04-12,22.907694,121.130139,8.295351e-09
C0SB40,興隆,2025-04-12,22.913661,121.257469,1.2064133e-07
467050,新屋,2025-04-12,25.006725,121.047492,9.3571856e-08
C0C710,大溪永福,2025-04-12,24.892936,121.324975,2.9567493e-09
C0FA20,溫寮,2025-04-12,24.372177,120.583125,3.1280525e-09
C0V640,湖內,2025-04-12,22.887139,120.2445,0.8581638
C0R910,下寮,2025-04-12,22.3929,120.5548,3.031155e-08
C0Z020,明里,2025-04-12,23.208717,121.262342,2.0968651e-09
C0M770,嘉義梅山,2025-04-12,23.585398,120.555587,4.5588286e-10
C0C660,楊梅,2025-04-12,24.912375,121.143047,3.097193e-09
C1E511,新開,2025-04-12,24.347703,120.827019,5.2654664e-10
G2F820,農試所(霧峰),2025-04-12,24.031261,120.688133,8.6821805e-10
C1I070,和社,2025-04-12,23.591131,120.888861,1.0426275e-08
C2F000,大肚,2025-04-12,24.15295,120.572117,4.0902973e-10
C1S850,豐南,2025-04-12,23.122139,121.262389,2.3678528e-09
C2A920,富貴角,2025-04-12,25.263783,121.565258,3.096362e-05
CAH030,茶改場竹圍站,2025-04-12,23.860083,120.637528,3.953352e-10
C0T960,光復,2025-04-12,23.660694,121.424964,6.1166167e-10
C0F9M0,豐原,2025-04-12,24.254322,120.720692,5.1680765e-10
C0R720,旭海,2025-04-12,22.205403,120.887614,0.49789628
C0V710,苓雅,2025-04-12,22.622742,120.330669,0.20224926
C0C740,觀音工業區,2025-04-12,25.064764,121.114856,2.6725274e-06
CAC040,拉拉山,2025-04-12,24.699317,121.427133,2.370104e-08
C0V790,萬山,2025-04-12,22.905944,120.688056,2.8616817e-10
U2HA30,臺大和社,2025-04-12,23.590856,120.888864,1.0426275e-08
C0AJ90,澳底,2025-04-12,25.0552,121.9253,2.2069141e-08
C0Z100,東華,2025-04-12,23.89525,121.549833,1.5321634e-09
C0G970,三豐,2025-04-12,23.882,120.2895,1.1518245e-05
V2K610,大庄合作社,2025-04-12,23.8068,120.367939,7.501157e-10
C0V900,汕尾,2025-04-12,22.4782,120.4151,0.97618836
C1R630,龍泉,2025-04-12,22.66701,120.59091,8.369634e-09
C1AC50,關渡,2025-04-12,25.133486,121.469331,4.467561e-09
C0F9I0,神岡,2025-04-12,24.272481,120.658314,3.4561423e-10
C0K460,斗南,2025-04-12,23.678734,120.478359,4.3648585e-10
C2O810,曾文,2025-04-12,23.219681,120.497328,4.7256715e-10
467280,後龍,2025-04-12,24.648563,120.831834,1.1499914e-09
C1F9J1,清水林,2025-04-12,24.071242,120.820419,1.2706346e-09
C2A650,火燒寮,2025-04-12,25.002719,121.742892,3.169637e-09
466930,竹子湖,2025-04-12,25.162078,121.544547,3.6121972e-09
C1I220,樟湖,2025-04-12,23.905333,120.846983,4.5062345e-09
C0I390,仁愛,2025-04-12,24.022122,121.132206,6.832868e-09
C0Z300,東里,2025-04-12,23.26853,121.30547,2.0054238e-09
C1V590,新發,2025-04-12,23.057019,120.646064,1.3239855e-09
C0K510,水林,2025-04-12,23.572924,120.24597,8.3069995e-10
72S590,東改賓朗果園,2025-04-12,22.813889,121.071278,5.4124962e-09
82A750,茶改北部分場,2025-04-12,24.955778,121.631222,8.782635e-09
C1A750,石碇服務區,2025-04-12,25.00872,121.646242,1.5219584e-08
C0X300,鹿寮,2025-04-12,23.386047,120.477331,6.890279e-10
G2AI50,關渡,2025-04-12,25.11575,121.492,2.0040818e-05
C0K590,雲林東勢,2025-04-12,23.674192,120.255721,6.166754e-10
C0A570,桶後,2025-04-12,24.848222,121.597992,4.486621e-09
C1S800,華源,2025-04-12,22.657883,121.02325,1.3123655e-08
C0G720,溪州,2025-04-12,23.851589,120.499093,4.5860035e-10
C1V160,達卡努瓦,2025-04-12,23.279811,120.705319,2.5896039e-09
C2M410,馬頭山,2025-04-12,23.324361,120.582017,2.9335256e-10
C0V850,蚵仔寮,2025-04-12,22.7256,120.2527,0.8704403
C0S740,池上,2025-04-12,23.119628,121.209469,9.827851e-09
C1V390,尖山,2025-04-12,22.813153,120.367789,2.6151477e-08
C0AH70,松山,2025-04-12,25.04871,121.55042,3.46444e-09
C0N010,鯤鯓國小,2025-04-12,23.1879,120.0889,1.8591667e-08
C0R550,新埤,2025-04-12,22.467947,120.582894,0.9642811
C0SA60,知本（水試所）,2025-04-12,22.702394,121.082761,1.9729708e-08
C0T9I0,豐濱,2025-04-12,23.583897,121.514806,6.679039e-10
C0UB00,淡江大學蘭陽校園,2025-04-12,24.823239,121.730383,4.2073527e-09
C0W240,九宮,2025-04-12,24.423753,118.240186,3.6572592e-09
C0T9N0,富里,2025-04-12,23.171639,121.249378,2.7369098e-09
U2HA50,臺大竹山,2025-04-12,23.756972,120.681556,6.598582e-10
C0V840,鳳鼻頭,2025-04-12,22.5083,120.3591,8.880334e-07
C0X140,西港,2025-04-12,23.125608,120.203108,1.57178e-06
72D080,桃改五峰分場,2025-04-12,24.612194,121.157167,3.1586411e-09
C2H9P0,伊拿谷,2025-04-12,23.963211,121.088264,3.512104e-09
C2H9F0,柑林,2025-04-12,24.018658,120.847072,5.1716265e-10
C0TA20,加灣,2025-04-12,24.082025,121.608944,1.8680593e-09
C0V530,阿蓮,2025-04-12,22.883208,120.327508,0.0059105675
C1O880,關山,2025-04-12,23.173397,120.594092,3.0187702e-10
C0E791,卓蘭,2025-04-12,24.3126,120.8244,5.3557253e-10
C1I030,武界,2025-04-12,23.913225,121.052483,3.6051078e-09
C0R520,崁頂,2025-04-12,22.514781,120.506914,0.84861296
C0R341,牡丹,2025-04-12,22.130036,120.792639,0.0036806941
C0R930,萬丹,2025-04-12,22.5885,120.4851,1.7348853e-08
C0S760,紅石,2025-04-12,23.069131,121.126219,3.7139834e-08
C2C410,中央大學,2025-04-12,24.967652,121.185165,4.6353144e-09
C1M610,石磐龍,2025-04-12,23.496606,120.663506,2.3981965e-09
C0UA10,鴛鴦湖,2025-04-12,24.590269,121.412228,2.4565026e-08
V2C260,八德蔬果,2025-04-12,24.978508,121.281819,2.9761449e-09
C0R800,丹路,2025-04-12,22.204481,120.750989,0.43049112
C0G920,永靖,2025-04-12,23.924703,120.547533,5.8083643e-10
C2M950,太和,2025-04-12,23.538372,120.702961,3.2509357e-09
C1A630,下盆,2025-04-12,24.771003,121.538622,2.8542586e-09
B2N890,畜產試驗所,2025-04-12,23.058972,120.336406,9.041833e-08
C0UA30,白嶺,2025-04-12,24.527819,121.519031,1.8824316e-08
C1V580,溪南(特生中心),2025-04-12,23.084972,120.788475,6.1997554e-09
C1T970,大農,2025-04-12,23.615233,121.413331,6.9845557e-10
C0R650,竹田,2025-04-12,22.58486,120.54344,4.7558504e-07
C1H900,清流,2025-04-12,24.080775,120.962997,2.8170695e-09
C1C510,水尾,2025-04-12,24.940081,121.087161,1.453338e-08
C0F9X0,大雅(中科園區),2025-04-12,24.21528,120.62445,3.6665887e-10
C0SB60,白守蓮,2025-04-12,23.126769,121.401914,5.2670955e-05
C0O970,虎頭埤,2025-04-12,23.021375,120.347878,1.4346373e-08
C0C730,中大臨海站,2025-04-12,24.966126,121.008581,1.05998055e-07
C0X250,新營,2025-04-12,23.310689,120.316681,1.2502746e-09
C0V700,三民,2025-04-12,22.645017,120.311233,0.9910936
C0U870,大礁溪,2025-04-12,24.791042,121.675047,3.650158e-09
C0E870,高鐵苗栗,2025-04-12,24.60725,120.826094,1.4186963e-09
A2K570,古坑花卉中心,2025-04-12,23.63353,120.55239,8.633103e-10
C0TA30,鹽寮,2025-04-12,23.845606,121.592664,1.5074315e-09
C0M860,新美,2025-04-12,23.338017,120.683169,6.18467e-10
C1E701,八卦,2025-04-12,24.491756,120.927619,2.4413862e-09
C0I420,國姓,2025-04-12,24.037803,120.855072,5.2698673e-10
C2D720,關西工作站,2025-04-12,24.757275,121.184792,1.0487661e-09
C0S960,香蘭,2025-04-12,22.587569,120.993375,6.326585e-08
467620,蘭嶼,2025-04-12,22.0369,121.55843,0.9969145
C0R260,春日,2025-04-12,22.370361,120.628306,1.11299805e-08
72G600,臺中農改場,2025-04-12,24.003028,120.534389,4.80085e-10
C0Z210,瑞穗,2025-04-12,23.5239,121.39021,6.860419e-10
C0M820,達邦,2025-04-12,23.453994,120.749517,1.8721578e-09
C0V860,南寮,2025-04-12,22.7616,120.2339,0.872332
C0G740,大城,2025-04-12,23.852487,120.320935,9.016119e-06
C0R920,塭仔,2025-04-12,22.4169,120.5197,3.2968963e-08
C0R470,高樹,2025-04-12,22.826389,120.600806,2.9303157e-10
C0R680,佳樂水,2025-04-12,21.993578,120.861633,0.06158158
C1O870,大棟山,2025-04-12,23.31157,120.52226,1.8401503e-09
C0D360,梅花,2025-04-12,24.678347,121.208558,2.1344937e-09
C0Z190,富世,2025-04-12,24.14743,121.6297,4.2508947e-09
C0AI10,屈尺,2025-04-12,24.92184,121.54475,2.8915538e-08
B2U990,畜試東區分所,2025-04-12,24.669039,121.832561,5.72318e-10
C0SB80,長濱漁港,2025-04-12,23.313644,121.459994,1.3407783e-09
C0R240,來義,2025-04-12,22.527306,120.625111,0.18134311
C0V910,大樹,2025-04-12,22.684645,120.432803,0.00019471398
C1R610,西大武山,2025-04-12,22.617719,120.7322,1.9065983e-08
C0G900,線西,2025-04-12,24.143358,120.443536,2.9228204e-09
C0M700,竹崎,2025-04-12,23.526178,120.555508,4.36784e-10
C2E880,三義,2025-04-12,24.405478,120.749819,7.79689e-10
C0C720,竹圍,2025-04-12,25.112692,121.239824,2.0391186e-05
C0F9P0,清水,2025-04-12,24.312297,120.562242,2.4951572e-09
C0Z150,吉安光華,2025-04-12,23.930925,121.595153,1.5595691e-09
467300,東吉島,2025-04-12,23.25727,119.66762,0.9934194
C1D640,外坪(五指山),2025-04-12,24.644447,121.090961,2.64509e-09
C0F9O0,潭子,2025-04-12,24.213106,120.703933,5.7646365e-10
C2H9R0,卓社,2025-04-12,23.887894,121.000086,7.4435382e-09
72T250,花蓮農改場,2025-04-12,23.975222,121.563889,2.4780025e-09
C0E780,銅鑼,2025-04-12,24.489681,120.790853,5.836795e-10
C1T950,太安,2025-04-12,23.666719,121.370128,1.9426494e-08
C0E830,苑裡,2025-04-12,24.439714,120.653053,7.3996e-09
467270,田中,2025-04-12,23.873803,120.581286,5.9653604e-10
C0SA10,檳榔四格山,2025-04-12,22.810031,121.109308,4.930541e-09
C1T830,布洛灣,2025-04-12,24.17184,121.57127,9.954405e-08
C0F970,大坑,2025-04-12,24.173142,120.722289,5.079546e-10
C1U920,思源,2025-04-12,24.393125,121.347214,1.6641513e-08
C0A931,三和,2025-04-12,25.233153,121.595236,6.8710166e-09
C0I010,廬山,2025-04-12,24.033311,121.181808,1.3581267e-08
C2M940,日野賀,2025-04-12,23.434056,120.727169,2.398384e-09
C0R860,鼻頭,2025-04-12,22.1043,120.8979,0.9750137
C0UB20,壯圍,2025-04-12,24.7359,121.8163,5.4971305e-10
C0R790,九棚,2025-04-12,22.14195,120.889281,0.9457453
C0W110,東莒,2025-04-12,25.9652,119.98069,4.8157855e-08
C1U930,粉鳥林,2025-04-12,24.497088,121.842479,3.9324397e-09
C1I211,蘆竹湳,2025-04-12,23.934019,120.811994,9.143767e-10
C0S830,長濱,2025-04-12,23.286817,121.411975,1.6453178e-09
C1F9F1,伯公龍,2025-04-12,24.272392,120.849047,9.396328e-10
C0E810,西湖,2025-04-12,24.562947,120.7485,3.404414e-07
C1I440,新高口,2025-04-12,23.478744,120.878939,1.5074612e-08
C0O840,王爺宮,2025-04-12,23.222064,120.40085,7.732659e-10
C0T9G0,鳳林山,2025-04-12,23.735269,121.420131,4.9060476e-09
C0X080,佳里,2025-04-12,23.173039,120.145086,1.8598122e-08
C0FB70,大甲溪埔,2025-04-12,24.370625,120.620067,2.602205e-09
C0Z310,清水斷崖,2025-04-12,24.218294,121.689142,3.61732e-09
C0M680,太保,2025-04-12,23.455062,120.331455,7.197629e-10
C1S820,金峰,2025-04-12,22.590969,120.933236,2.6446928e-08
C0AD10,八里,2025-04-12,25.150211,121.403947,2.150998e-05
C2K240,草嶺,2025-04-12,23.59555,120.693461,2.8856681e-09
C1SA70,都蘭,2025-04-12,22.87794,121.226881,1.2071062e-07
C0K440,二崙,2025-04-12,23.772797,120.408944,5.167633e-10
C1A760,坪林交控,2025-04-12,24.94284,121.713442,2.50531e-09
C0F9N0,大里,2025-04-12,24.092464,120.701378,3.9958659e-10
C0SA90,達仁林場,2025-04-12,22.264347,120.823972,4.0109203e-08
C1R290,石門山,2025-04-12,22.112611,120.756597,0.9937454
42HA10,萬大發電廠,2025-04-12,23.978875,121.139639,4.452648e-09
C0R890,山海,2025-04-12,21.9878,120.7091,0.13750727
C0T9A0,月眉山,2025-04-12,23.809928,121.539828,2.370329e-09
C0AC70,信義,2025-04-12,25.037822,121.564597,3.46444e-09
C0K560,棋山,2025-04-12,23.68645,120.603417,7.6809753e-10
C2FB50,出雲,2025-04-12,24.206469,120.902794,2.7943046e-09
C1Z240,中平林道,2025-04-12,23.42115,121.26763,5.7633116e-08
U2H480,溪頭,2025-04-12,23.670306,120.798194,3.954787e-09
C0M880,好美里,2025-04-12,23.3364,120.138,1.105131e-08
C0T9E0,大坑,2025-04-12,23.880628,121.581981,2.3465956e-09
C0K530,臺西,2025-04-12,23.701547,120.197559,4.48003e-08
C1E900,國一N128K,2025-04-12,24.560997,120.844186,6.6706746e-10
C0AJ50,水湳洞,2025-04-12,25.123695,121.862238,6.6207737e-09
C0AI20,白沙灣,2025-04-12,25.283128,121.519058,0.0007006214
C2V310,美濃,2025-04-12,22.898792,120.51907,1.0255663e-09
C0A860,大坪,2025-04-12,25.165914,121.632969,2.4832165e-09
C1U850,觀音海岸,2025-04-12,24.38319,121.77856,3.2010659e-09
C2K610,草嶺石壁,2025-04-12,23.602469,120.707731,2.9718565e-09
C0U950,鶯子嶺,2025-04-12,24.89754,121.79244,1.4024441e-08
C0O900,善化,2025-04-12,23.112883,120.297219,1.9540418e-07
C0K550,蔦松,2025-04-12,23.514319,120.229736,1.7177886e-09
E2P980,林試六龜中心,2025-04-12,22.991703,120.645722,2.9630481e-10
C0E590,通霄,2025-04-12,24.471892,120.704622,1.4747675e-07
C1I310,西巒,2025-04-12,23.754486,120.883956,7.649911e-09
C0A550,泰平,2025-04-12,24.971197,121.823711,5.2612528e-09
C0I360,水里,2025-04-12,23.812553,120.849792,3.7315107e-10
C0R830,高士,2025-04-12,22.121825,120.836781,0.9850739
C1I101,溪頭,2025-04-12,23.661789,120.807647,1.657205e-08
C0AJ20,野柳,2025-04-12,25.20703,121.690021,6.2391985e-09
C0B060,暖暖,2025-04-12,25.0957,121.7403,3.567568e-09
C1H920,長豐,2025-04-12,24.102039,120.879897,2.1040365e-09
C0V360,內門,2025-04-12,22.975481,120.466769,2.0322042e-09
C0R850,林邊,2025-04-12,22.4634,120.5339,0.9715366
C0E930,龍鳳,2025-04-12,24.700034,120.859125,4.434274e-09
C0U910,冬山,2025-04-12,24.63373,121.7937,5.72318e-10
C1E721,泰安,2025-04-12,24.489017,120.968036,7.9285645e-09
82H320,茶改中部分場,2025-04-12,23.875611,120.913583,3.6066827e-09
C0M750,布袋,2025-04-12,23.380878,120.167789,2.2845024e-09
C1S860,利嘉,2025-04-12,22.809417,121.050528,1.2286818e-08
E2S980,林試太麻里1,2025-04-12,22.598922,120.980044,4.260597e-08
C0X170,關廟,2025-04-12,22.963017,120.327797,1.4828225e-08
C0V720,林園,2025-04-12,22.507747,120.394511,3.078428e-07
C1I510,線浸林道,2025-04-12,23.761508,120.832956,6.220816e-09
C0D690,外湖,2025-04-12,24.917735,120.968711,1.9608494e-08
C0C750,新興坑尾,2025-04-12,25.0061,121.0971,6.569053e-08
B2Q810,畜試南區分所,2025-04-12,21.945583,120.802167,0.060146257
C0S790,金崙,2025-04-12,22.538122,120.966875,3.5649037e-08
C0AH90,福山植物園,2025-04-12,24.760717,121.58135,6.391739e-09
C0I540,奇萊稜線,2025-04-12,24.109231,121.326456,3.6251958e-08
C0M850,表湖,2025-04-12,23.24186,120.64166,9.137787e-10
C0S770,大溪山,2025-04-12,22.478475,120.943325,2.471009e-08
C0AG80,中和,2025-04-12,24.991622,121.491792,1.14236386e-07
C0T790,大禹嶺,2025-04-12,24.186117,121.316086,2.1058602e-08
C0T9B0,水源,2025-04-12,23.991861,121.537169,6.659351e-09
C0R840,牡丹池山,2025-04-12,22.168389,120.841225,8.481165e-06
C1I131,桶頭,2025-04-12,23.641944,120.654117,4.1350248e-10
CAL110,布袋國中,2025-04-12,23.35893,120.18026,1.8520483e-09
467571,新竹,2025-04-12,24.827853,121.014219,2.0126354e-09
C0Z290,赤柯山,2025-04-12,23.36893,121.38293,1.4378753e-08
C0X280,將軍,2025-04-12,23.214999,120.13577,5.370061e-08
C0S690,太麻里,2025-04-12,22.60902,120.98533,2.6471858e-08
C0U880,北關,2025-04-12,24.9072,121.8734,4.221814e-09
C0G810,埔心,2025-04-12,23.947633,120.525456,5.8068245e-10
C0U970,大福,2025-04-12,24.80064,121.81389,8.442758e-10
C2H9N0,仁愛東眼,2025-04-12,24.026875,121.1205,1.2729567e-08
C1E670,南礦,2025-04-12,24.538278,121.002836,5.46136e-09
C0M520,東後寮,2025-04-12,23.369908,120.248065,1.6926993e-09
C1E461,松安,2025-04-12,24.397972,120.986022,6.721445e-09
C2N160,西拉雅風管處,2025-04-12,23.189481,120.335297,1.0553302e-08
C2M970,碧湖,2025-04-12,23.568632,120.624165,2.5540308e-09
C0A640,石碇,2025-04-12,24.993969,121.662917,5.1039737e-09
E2S960,林試太麻里2,2025-04-12,22.598,120.99775,6.725308e-08
C0F9Y0,桃山,2025-04-12,24.432739,121.303808,3.384298e-08
C1I020,萬大,2025-04-12,23.979817,121.132261,6.8967907e-09
C0U940,羅東,2025-04-12,24.68184,121.74934,5.5659405e-10
C0M650,朴子,2025-04-12,23.43463,120.23902,1.0139642e-09
C1I500,大尖山,2025-04-12,23.858572,120.994889,1.7399554e-08
C0G820,田尾,2025-04-12,23.901669,120.509389,5.8071237e-10
E2K600,四湖植物園,2025-04-12,23.676986,120.163433,4.30671e-08
C0S730,綠島,2025-04-12,22.6672,121.47533,0.88680995
12Q970,東港工作站,2025-04-12,22.479997,120.466058,0.9761499
C0E430,南庄,2025-04-12,24.601775,121.000214,8.0841966e-10
C1TA00,太魯閣,2025-04-12,24.15773,121.6236,4.286916e-09
466920,臺北,2025-04-12,25.037658,121.514853,3.46444e-09
C0R600,舊泰武,2025-04-12,22.588194,120.664944,8.7277396e-10
C1I260,北坑,2025-04-12,23.9246,121.006903,9.578548e-10
466910,鞍部,2025-04-12,25.182586,121.529731,8.382894e-09
C1I230,九份二山,2025-04-12,23.961944,120.845,3.2911016e-09
C2A660,瑞芳,2025-04-12,25.113169,121.801147,6.206582e-09
C0R270,琉球嶼,2025-04-12,22.332244,120.362236,7.6607186e-08
C1T990,高寮,2025-04-12,23.394239,121.356808,9.339295e-10
C0G620,芬園,2025-04-12,24.015678,120.6213,6.111113e-10
C1Z140,荖溪,2025-04-12,23.890575,121.45964,3.3442255e-08
C1I201,中心崙,2025-04-12,23.728722,120.712097,6.623044e-10
C1I400,凌霄,2025-04-12,24.018778,121.004456,1.2582486e-08
C1M640,十字,2025-04-12,23.492153,120.753683,9.9984145e-09
G2P820,農試鳳山分所,2025-04-12,22.646611,120.356083,0.9858798
C0Z270,蕃薯寮,2025-04-12,23.73835,121.540108,1.7140706e-09
C0F9Q0,外埔,2025-04-12,24.347817,120.705686,4.5934273e-10
C0K580,高鐵雲林,2025-04-12,23.737456,120.417944,5.659806e-10
C2I090,鳳凰,2025-04-12,23.728081,120.787347,2.1495654e-09
C0U990,員山,2025-04-12,24.74435,121.72247,5.5471816e-10
C0V770,大社,2025-04-12,22.730306,120.346639,0.78436303
C0X120,麻豆,2025-04-12,23.183289,120.248611,5.525115e-09
C0C670,龍潭,2025-04-12,24.870056,121.221389,1.2586802e-09
C0D680,香山濕地,2025-04-12,24.783581,120.914988,1.2668498e-09
C0S980,勝林山,2025-04-12,22.430439,120.8938,1.3519548e-08
C0V730,大寮,2025-04-12,22.605614,120.395717,0.04156442
C0R570,麟洛,2025-04-12,22.65078,120.52719,5.9860816e-10
C2M930,石卓,2025-04-12,23.478744,120.702264,1.040486e-08
C0G9B0,和美,2025-04-12,24.105169,120.492131,1.7034034e-09
CAG100,王功漁港,2025-04-12,23.96824,120.32586,0.0028926975
C0X290,北門,2025-04-12,23.267772,120.125481,5.3713723e-08
C2F930,大甲,2025-04-12,24.347667,120.640403,1.6391659e-09
C0D650,湖口,2025-04-12,24.904794,121.043628,1.5354907e-08
C0E420,竹南,2025-04-12,24.708978,120.888897,3.721874e-09
C0U780,五結,2025-04-12,24.68637,121.79794,5.497927e-10
C1I250,鯉潭,2025-04-12,23.961922,120.991131,2.6603195e-09
C0R130,阿禮,2025-04-12,22.742908,120.743678,1.2263189e-09
C0X100,臺南市北區,2025-04-12,23.010394,120.194228,6.0675516e-06
C0S920,金峰嘉蘭,2025-04-12,22.594789,120.960825,4.0778147e-08
C0V490,新興,2025-04-12,22.627422,120.298803,0.23783237
C0F9K0,大安,2025-04-12,24.345061,120.588025,2.6747282e-09
467290,古坑,2025-04-12,23.633639,120.551889,8.633103e-10
C2E970,八甲,2025-04-12,24.535811,120.795983,6.675651e-10
C0V440,鳳山,2025-04-12,22.646653,120.356122,0.9858798
C1T940,大觀,2025-04-12,23.714206,121.373133,2.230497e-09
C0E740,造橋,2025-04-12,24.637056,120.864778,1.1601368e-09
C0R100,尾寮山,2025-04-12,22.833111,120.683889,1.6790301e-09
A2K630,臺大雲林校區,2025-04-12,23.730628,120.423903,5.6600646e-10
467990,馬祖,2025-04-12,26.169467,119.923158,3.2555025e-09
C0D580,寶山,2025-04-12,24.735006,121.025192,9.0205515e-10
E2P990,林試扇平站,2025-04-12,22.9677,120.6857,1.5856432e-09
C0AI30,三重,2025-04-12,25.057328,121.500629,3.5057792e-09
C0AH00,汐止,2025-04-12,25.066881,121.658778,3.46444e-09
C1Z040,立山,2025-04-12,23.443356,121.327375,6.6801378e-09
466881,新北,2025-04-12,24.959207,121.525196,1.065114e-07
C0W130,花嶼,2025-04-12,23.40007,119.32276,0.9948921
C0A950,鼻頭角,2025-04-12,25.129036,121.923372,1.9482733e-05
C0K470,林內,2025-04-12,23.748675,120.609642,1.2194661e-09
C2F990,摩天嶺,2025-04-12,24.322458,120.936819,2.8471845e-09
82C160,茶改場,2025-04-12,24.908472,121.185333,2.98976e-09
C0Z320,清水林道,2025-04-12,23.27125,121.188272,1.5287197e-08
C0R760,南仁湖,2025-04-12,22.084681,120.863353,0.993759
C0M670,大林,2025-04-12,23.600616,120.45841,4.6320683e-10
C0M800,茶山,2025-04-12,23.299075,120.664767,5.6761085e-10
C0A9C0,天母,2025-04-12,25.117494,121.537169,4.423149e-09
72K220,南改斗南分場,2025-04-12,23.634556,120.477333,4.3654746e-10
72AI40,桃改樹林分場,2025-04-12,24.944503,121.386972,1.1032271e-08
C0S910,蘭嶼燈塔,2025-04-12,22.081197,121.503117,0.98466694
C0B050,八斗子,2025-04-12,25.144754,121.79167,6.784377e-09
C0U900,內城,2025-04-12,24.71813,121.68766,5.6590826e-10
C0X320,柳營,2025-04-12,23.253328,120.375253,1.810402e-09
C0M790,新港,2025-04-12,23.553269,120.345728,8.4340507e-10
C0F9T0,西屯,2025-04-12,24.179494,120.641275,4.0246947e-10
C0SA30,都歷,2025-04-12,23.020333,121.323642,4.6541224e-09
C0C620,蘆竹,2025-04-12,25.084275,121.265767,1.4352731e-06
C0R730,大坪頂,2025-04-12,22.024633,120.69355,0.9298513
C0AJ40,石門,2025-04-12,25.273672,121.601198,7.676597e-05
C0E750,苗栗,2025-04-12,24.564569,120.824575,6.706152e-10
C0T870,鯉魚潭,2025-04-12,23.935639,121.508944,1.6227194e-09
C1V170,排雲,2025-04-12,23.463619,120.954147,2.4000645e-08
C2H950,中寮,2025-04-12,23.884447,120.766406,8.0839346e-10
C0R350,貓鼻頭,2025-04-12,21.921774,120.7358,0.09807589
C0V660,岡山,2025-04-12,22.797078,120.294958,0.9815226
C1H941,雙冬,2025-04-12,23.967378,120.802189,9.780163e-10
C0AJ70,田寮,2025-04-12,25.2698,121.4886,0.0007315874
C0AI00,五股,2025-04-12,25.07445,121.42728,3.332552e-09
C0Z280,德武,2025-04-12,23.47426,121.41071,8.4918705e-10
C0R700,枋山,2025-04-12,22.246844,120.661086,0.0009795486
C0C460,復興,2025-04-12,24.820208,121.352281,4.585639e-09
E2H360,蓮華池,2025-04-12,23.918333,120.885278,1.0790526e-09
C0M640,中埔,2025-04-12,23.42538,120.5229,4.878611e-10
C0W140,金沙,2025-04-12,24.488292,118.408778,1.940645e-09
C2A540,四堵,2025-04-12,24.8926,121.745736,3.1167133e-09
C0ACA0,新莊,2025-04-12,25.051478,121.446756,7.4960695e-09
C0R220,潮州,2025-04-12,22.534361,120.54,0.81577736
U2HA40,臺大內茅埔,2025-04-12,23.689722,120.851117,1.9952215e-09
467490,臺中,2025-04-12,24.145736,120.684075,9.887148e-10
C0U960,翠峰湖,2025-04-12,24.510856,121.608044,2.5472648e-08
E2HA20,林試畢祿溪站,2025-04-12,24.226944,121.308522,2.5442446e-08
C0V890,前鎮,2025-04-12,22.5718,120.3117,0.2954423
C1F941,雪嶺,2025-04-12,24.280586,121.026642,3.4712482e-08
C2H9E0,國姓南港,2025-04-12,23.911108,120.846556,4.6506794e-09
C0AC80,文山,2025-04-12,25.00235,121.575728,1.0294083e-07
C0F9R0,龍井,2025-04-12,24.184536,120.528972,2.8728395e-09
C0M760,民雄,2025-04-12,23.551754,120.428457,4.709125e-10
C0UA40,西德山,2025-04-12,24.560647,121.752608,1.1845023e-08
C1T920,中興,2025-04-12,23.769503,121.498653,1.2495737e-09
C0D550,雪霸,2025-04-12,24.526972,121.11605,2.0469724e-08
C2F860,梨山,2025-04-12,24.247522,121.243669,2.595029e-08
C0R320,車城,2025-04-12,22.0744,120.716247,0.08018287
C1S870,南美山,2025-04-12,23.15025,121.382333,2.7761629e-09
C0B020,基隆嶼,2025-04-12,25.19141,121.78391,0.015721932
C1U501,牛鬥,2025-04-12,24.637836,121.573656,1.3687779e-09
C0M730,嘉義市東區,2025-04-12,23.457673,120.460531,6.351777e-10
C0S700,知本,2025-04-12,22.684866,121.005642,1.0342336e-08
C1N001,沙崙,2025-04-12,22.935472,120.309406,1.8683311e-08
C0V760,橋頭,2025-04-12,22.757806,120.30575,0.84697425
C0G960,福寶,2025-04-12,24.0443,120.3814,1.8906023e-09
C0X210,白河,2025-04-12,23.347466,120.414427,7.178408e-10
C0S810,東河,2025-04-12,22.972672,121.303986,0.99664104
C2R170,屏東,2025-04-12,22.66027,120.49403,5.988548e-10
C0R670,楓港,2025-04-12,22.190131,120.692156,0.011292402
C0FA50,霧峰,2025-04-12,24.0419,120.6995,8.490478e-10
C0UB10,蘇澳,2025-04-12,24.5969,121.8571,2.4702964e-09
C0G950,防潮門,2025-04-12,24.1835,120.4871,2.8727298e-09
C0M740,六腳,2025-04-12,23.492871,120.290625,1.0167103e-09
C1R250,力里,2025-04-12,22.428117,120.629228,4.4732365e-05
C0K330,虎尾,2025-04-12,23.719183,120.442036,5.3999444e-10
C2FA00,烏石坑,2025-04-12,24.273503,120.947617,2.7973923e-09
C0V620,永安,2025-04-12,22.82315,120.236856,0.9815855
C1I330,楓樹林,2025-04-12,23.986803,121.076117,7.4942825e-09
C0W200,湖西,2025-04-12,23.596314,119.67275,0.9915639
72Q010,高雄農改場,2025-04-12,22.709333,120.525889,2.961342e-10
C0SA40,瑞和,2025-04-12,22.974361,121.156697,4.5068105e-09
C0C680,龜山,2025-04-12,25.02846,121.38656,5.5359695e-09
C2V260,月眉,2025-04-12,22.971003,120.539853,4.699874e-10
C0V450,鳳森,2025-04-12,22.545064,120.392592,9.540594e-08
C0U720,南山,2025-04-12,24.43742,121.38167,2.2818602e-08
A2N290,臺南蘭花園區,2025-04-12,23.340258,120.379661,6.397273e-10
C0R560,新園,2025-04-12,22.5434,120.461558,3.078428e-07
C0U890,三星,2025-04-12,24.66812,121.65302,1.2201734e-09
C1V300,御油山,2025-04-12,23.001983,120.715364,5.6061955e-09
C0U600,礁溪,2025-04-12,24.817539,121.765608,1.194457e-09
C1T980,龍澗,2025-04-12,24.023289,121.411328,5.0376e-08
C0D670,海天一線,2025-04-12,24.831986,120.914438,3.090639e-05
C0SA00,歷坵,2025-04-12,22.520969,120.89185,1.8458707e-08
C0M710,東石,2025-04-12,23.458927,120.15385,1.69364e-08
C0M780,鹿草,2025-04-12,23.41134,120.30835,9.842254e-10
C0U520,雙連埤,2025-04-12,24.753033,121.641303,3.6900514e-09
C0B010,七堵,2025-04-12,25.094819,121.71713,3.4762222e-09
C0R480,長治,2025-04-12,22.693128,120.542622,9.749175e-05
C1V830,國三S383K,2025-04-12,22.781967,120.426475,6.4009964e-10
12Q980,恆春工作站,2025-04-12,22.079678,120.714425,0.080244355
C1O940,東山服務區,2025-04-12,23.286016,120.398472,1.1586838e-09
C1U840,東澳嶺,2025-04-12,24.5378,121.8485,4.9474127e-09
C1D630,飛鳳山,2025-04-12,24.766464,121.119178,1.87199e-09
C0S940,石寧山,2025-04-12,23.223772,121.406639,1.9536397e-09
C0K410,北港,2025-04-12,23.573957,120.292802,8.062269e-10
C2M620,瑞里,2025-04-12,23.545133,120.675197,2.8393103e-09
C0SB70,小港漁港,2025-04-12,23.158558,121.400431,4.3331903e-09
C2O950,安南,2025-04-12,23.076694,120.144861,2.5536508e-06
C0F0E0,南湖圈谷,2025-04-12,24.363714,121.444667,4.7269655e-08
467610,成功,2025-04-12,23.097486,121.373428,5.992169e-06
C0G890,伸港,2025-04-12,24.148933,120.484403,2.9230547e-09
C2E540,龍溪,2025-04-12,24.606489,120.783933,1.4630299e-09
C1V200,梅山,2025-04-12,23.268447,120.823556,1.9804312e-09
C0T9H0,加路蘭山,2025-04-12,23.682947,121.5274,7.726589e-09
C2O930,玉井,2025-04-12,23.126042,120.46055,1.3344772e-08
C1F911,新伯公,2025-04-12,24.221361,120.841069,9.0212227e-10
C0R490,九如,2025-04-12,22.7405,120.490503,2.9996575e-10
C0X200,左鎮,2025-04-12,23.056758,120.408522,3.5806569e-09
C0SB50,叭嗡嗡,2025-04-12,23.047062,121.343223,8.0968245e-09
C1F891,稍來,2025-04-12,24.265689,121.001142,2.2947795e-08
72N240,七股研究中心,2025-04-12,23.081672,120.062894,2.3941702e-06
C0C700,中壢,2025-04-12,24.977661,121.256375,2.9233613e-09
C0M690,水上,2025-04-12,23.419734,120.388909,6.8482214e-10
C0V690,鼓山,2025-04-12,22.623325,120.275575,0.23768851
C0O860,大內,2025-04-12,23.11885,120.36083,1.2080217e-07
C0Z200,萬榮,2025-04-12,23.709219,121.420106,1.3262046e-09
C0T9D0,和中,2025-04-12,24.26676,121.74103,1.4933697e-08
C1O921,楠西,2025-04-12,23.183511,120.484083,2.0116568e-09
C0AJ30,淡水觀海,2025-04-12,25.184591,121.408616,2.4925944e-08
C0V810,左營,2025-04-12,22.67491,120.28491,0.99107915
C0UA70,桃源谷,2025-04-12,24.962606,121.888875,5.9452465e-09
C0X130,官田,2025-04-12,23.193217,120.315422,1.1896442e-08
C1H000,翠峰,2025-04-12,24.109397,121.205211,2.0587894e-08
C0UA90,石城,2025-04-12,24.980444,121.951214,2.6844953e-09
C1E681,南勢山,2025-04-12,24.421669,120.923831,1.8580739e-09
C0A9F0,內湖,2025-04-12,25.079422,121.57545,3.46444e-09
C0K291,宜梧,2025-04-12,23.536281,120.169329,1.7180769e-09
C1K540,口湖,2025-04-12,23.585344,120.180517,6.15711e-08
C0R780,滿州,2025-04-12,22.024403,120.839892,0.7467044
C0V870,文安,2025-04-12,22.8025,120.2164,0.9840018
C0U650,玉蘭,2025-04-12,24.675286,121.587061,2.6121305e-09
C0R640,東港,2025-04-12,22.46247,120.44074,0.97616917
C0AJ80,板橋,2025-04-12,25.0107,121.4489,1.1481909e-07
C0S660,下馬,2025-04-12,23.150427,121.070312,1.547141e-08
C1H9B1,阿眉,2025-04-12,24.1263,120.994672,2.7630476e-08
C0UA20,多加屯,2025-04-12,24.368614,121.373189,1.7397198e-08
C0E730,頭份,2025-04-12,24.688247,120.912206,3.8629904e-09
72V140,高改旗南分場,2025-04-12,22.857861,120.516667,1.2646915e-09
C0K480,莿桐,2025-04-12,23.761192,120.502372,7.802707e-10
C0U980,坪林石牌,2025-04-12,24.86478,121.77396,5.489861e-09
C0T900,西林,2025-04-12,23.8119,121.441458,1.4283703e-09
C1I150,青雲,2025-04-12,23.793361,120.949378,7.6501105e-10
467350,澎湖,2025-04-12,23.565503,119.563094,0.99702114
C0G800,埔鹽,2025-04-12,24.000394,120.431683,1.605669e-09
C0H960,草屯,2025-04-12,23.973672,120.68085,8.254248e-10
C1V780,多納林道,2025-04-12,22.888028,120.737917,1.3959504e-09
C0E920,通霄漁港,2025-04-12,24.498589,120.673876,4.4574472e-07
C0Z330,安通山,2025-04-12,23.290728,121.348528,2.2838358e-09
C0AH10,永和,2025-04-12,25.01125,121.508111,1.1474476e-07
C0AK10,太平里,2025-04-12,25.134937,121.364899,1.7394881e-05
C2G640,鹿港,2025-04-12,24.0753,120.430481,1.8902344e-09
C1E890,國三N149K,2025-04-12,24.463414,120.680019,4.177789e-09
C1R110,口社,2025-04-12,22.770111,120.645222,5.442569e-09
C1M870,國三N285K,2025-04-12,23.550319,120.505833,5.0999427e-10
C1E480,鳳美,2025-04-12,24.554803,121.034747,1.9198767e-09
C0M530,奮起湖,2025-04-12,23.493903,120.699253,3.3115661e-09
C0C590,觀音,2025-04-12,25.027072,121.153317,2.1043822e-06
C0T9M0,靜浦,2025-04-12,23.455167,121.495028,7.405187e-10
C2H9M0,發祥,2025-04-12,24.154094,121.164517,1.3188345e-08
C0AI40,石牌,2025-04-12,25.115597,121.513139,4.4296162e-09
C1F871,上谷關,2025-04-12,24.203483,121.018644,2.5460591e-09
C2H9G0,百勝,2025-04-12,24.051142,120.909361,9.330926e-10
C0G880,二水,2025-04-12,23.810742,120.6173,6.4875266e-10
C0R940,加祿堂,2025-04-12,22.3363,120.6217,1.6294481e-07
C0W220,北竿,2025-04-12,26.220358,119.974881,3.2684127e-09
C0O960,崎頂,2025-04-12,22.959547,120.369317,3.1179144e-09
C0S750,向陽,2025-04-12,23.248397,120.986133,1.0187082e-08
C0T9F0,水璉,2025-04-12,23.797131,121.542514,1.6540495e-09
C1M600,頭凍,2025-04-12,23.406364,120.603339,3.564079e-09
467660,臺東,2025-04-12,22.752211,121.154586,0.6447539
C1D380,新埔,2025-04-12,24.84745,121.03834,1.7266314e-09
C2G980,田頭村,2025-04-12,23.8263,120.444175,5.167633e-10
C0V750,路竹,2025-04-12,22.854997,120.259439,0.7762193
C0N050,蚵寮,2025-04-12,23.301,120.1104,1.1055716e-08
72M700,南改鹿草分場,2025-04-12,23.416869,120.283061,1.0139913e-09
C1SA50,利嘉林道,2025-04-12,22.82325,121.009389,7.2892994e-09
C0A940,金山,2025-04-12,25.223628,121.643967,6.280414e-09
C1V340,大津,2025-04-12,22.888322,120.645986,3.137528e-10
C0W180,七美,2025-04-12,23.219333,119.444892,0.99212617
C1F9C1,白冷,2025-04-12,24.182844,120.929889,1.0417842e-09
K2E710,苗改生物防治研究中心,2025-04-12,24.422861,120.871833,6.14774e-10
C0N040,蘆竹溝,2025-04-12,23.2344,120.0961,5.3713723e-08
C2W230,畜試所澎湖,2025-04-12,23.628342,119.513206,0.99516106
C0R880,後壁湖,2025-04-12,21.9457,120.7457,0.13624518
C1I280,埔中,2025-04-12,23.820778,120.642594,5.2728233e-10
467790,墾丁雷達站,2025-04-12,21.948235,120.808028,0.07445699
C0W190,望安,2025-04-12,23.380564,119.494075,0.9965806
C0Z170,卓溪,2025-04-12,23.3443,121.3029,1.2484516e-09
C0F850,東勢,2025-04-12,24.246428,120.833047,5.783778e-10
466900,淡水,2025-04-12,25.164889,121.448906,1.7394881e-05
C0I370,魚池,2025-04-12,23.895703,120.94135,8.5831087e-10
C0C630,大溪,2025-04-12,24.882853,121.265547,1.8000416e-09
C0A520,山佳,2025-04-12,24.974944,121.402008,4.1318913e-08
C0I110,竹山,2025-04-12,23.761225,120.688156,4.8251036e-10
82H840,茶改南部分場,2025-04-12,23.762528,120.7405,4.36789e-10
C0G660,溪湖,2025-04-12,23.94835,120.479122,5.944779e-10
C1T800,洛韶,2025-04-12,24.204558,121.453956,4.9729497e-08
C1T810,慈恩,2025-04-12,24.192044,121.388386,1.1942388e-08
C1E451,象鼻,2025-04-12,24.368617,120.940228,1.6850038e-09
C0AC60,三峽,2025-04-12,24.939025,121.369728,2.6816038e-09
C0I490,萬大林道,2025-04-12,23.928228,121.091411,1.2323408e-08
C1I290,豐丘,2025-04-12,23.668178,120.887417,3.9461523e-09
C1I320,奧萬大,2025-04-12,23.952956,121.178556,6.5015024e-09
C2M910,嘉義大學,2025-04-12,23.471325,120.485903,6.00487e-10
C0U770,南澳,2025-04-12,24.44935,121.81022,2.5716578e-09
C0A980,社子,2025-04-12,25.109508,121.469681,2.1315884e-05
C0V800,六龜,2025-04-12,22.997889,120.633583,2.986681e-10
C1G9D0,國一S218K,2025-04-12,23.890641,120.493253,6.748572e-10
C0E570,白沙屯,2025-04-12,24.549447,120.696803,1.0295139e-06
C2F9A0,中竹林,2025-04-12,24.103556,120.751061,5.297743e-10
C0FA40,臺中電廠,2025-04-12,24.2146,120.4907,2.8728395e-09
C2G9A0,畜試所彰化,2025-04-12,23.86045,120.557964,5.965133e-10
C0H9C0,合歡山,2025-04-12,24.143442,121.272547,3.568339e-08
C0X060,下營,2025-04-12,23.22695,120.256261,2.2608866e-09
G2M350,農試溪口農場,2025-04-12,23.58565,120.408111,4.810218e-10
C0U860,頭城,2025-04-12,24.85323,121.8308,1.186392e-09
C0R580,南州,2025-04-12,22.48591,120.50274,0.97616917
C0D430,峨眉,2025-04-12,24.6905,121.017189,8.1232865e-10
C0G780,秀水,2025-04-12,24.03405,120.503869,4.872306e-10
72N100,臺南農改場,2025-04-12,23.0605,120.342194,9.049183e-08
C0S900,蘭嶼高中,2025-04-12,22.04909,121.51214,0.9657029
C1F9W0,德基,2025-04-12,24.254783,121.190261,2.3300323e-08
C1Z120,壽豐,2025-04-12,23.870853,121.508081,1.5321634e-09
C0W160,烏坵,2025-04-12,24.9944,119.44956,0.07210868
C1I240,外大坪,2025-04-12,23.958697,120.917931,2.6794464e-09
C1I550,國六W023K,2025-04-12,23.979067,120.867742,7.127451e-10
C0R870,興海,2025-04-12,21.9752,120.8439,0.060146257
C0R140,瑪家,2025-04-12,22.682903,120.686639,7.351022e-10
C0A530,坪林,2025-04-12,24.938183,121.70975,2.746799e-09
C0X260,後壁,2025-04-12,23.366358,120.362326,5.220197e-10
C0Z230,和平,2025-04-12,24.30717,121.77007,1.670002e-08
C0G770,福興,2025-04-12,24.041289,120.437669,1.605669e-09
C0H9A0,神木村,2025-04-12,23.532742,120.843667,9.018028e-09
C0I460,南投,2025-04-12,23.911469,120.687331,7.8101664e-10
C0I480,梅峰,2025-04-12,24.085272,121.173572,1.7811596e-08
C1V570,吉東,2025-04-12,22.85422,120.5454,1.12711e-09
C2D740,屯原,2025-04-12,24.067969,121.209389,1.6358031e-08
C2A560,福山,2025-04-12,24.776203,121.502811,5.7203673e-09
C0AH30,五分山,2025-04-12,25.07125,121.780794,5.0620237e-09
C0FA10,松柏,2025-04-12,24.429115,120.617482,9.2908135e-09
72S200,東改班鳩分場,2025-04-12,22.829528,121.077694,7.3844433e-09
72HA00,中改埔里分場,2025-04-12,23.903208,120.963364,1.0197808e-09
C2H9W0,大坪頂農水,2025-04-12,24.043122,120.932781,2.114803e-09
C0C650,平鎮,2025-04-12,24.897503,121.214636,2.2956583e-09
C0S930,延平,2025-04-12,22.902581,121.084058,5.428749e-09
C0UA60,樟樹山,2025-04-12,24.41393,121.78325,6.061662e-09
C1S670,摩天,2025-04-12,23.199503,121.027,3.8047055e-08
C0V630,茄萣,2025-04-12,22.906642,120.182608,0.88952106
466940,基隆,2025-04-12,25.133314,121.740475,6.7575407e-09
C0X050,東河,2025-04-12,23.296598,120.385608,1.3328028e-09
C0R770,保力,2025-04-12,22.071122,120.764111,0.36417392
G2L020,農試嘉義分所,2025-04-12,23.485028,120.473806,5.2861654e-10
C0X240,關子嶺,2025-04-12,23.331169,120.508025,2.8732547e-10
C0I380,集集,2025-04-12,23.828206,120.801467,3.7330483e-10
466990,花蓮,2025-04-12,23.975128,121.613275,2.351744e-09
C1V220,小關山,2025-04-12,23.154217,120.813603,6.284428e-09
C1F9G1,慶福山,2025-04-12,24.180853,120.848378,1.3429923e-09
C0Z250,瑞穗林道,2025-04-12,23.49284,121.30688,6.036202e-08
C0D590,新豐,2025-04-12,24.87068,120.97721,1.0295414e-06
C0A870,五指山,2025-04-12,25.132153,121.608692,3.9549986e-09
C0UA50,西帽山,2025-04-12,24.555361,121.802628,6.5435146e-09
C0X160,仁德,2025-04-12,22.968258,120.257689,0.14451672
C1H971,六分寮,2025-04-12,23.92507,120.6378,5.2352134e-10
C0W120,西嶼,2025-04-12,23.5626,119.468436,0.9822344
C0G650,員林,2025-04-12,23.946503,120.585597,6.7291384e-10
C0AD50,鶯歌,2025-04-12,24.951533,121.346294,2.569711e-09
C2H9Q0,北東眼山,2025-04-12,24.120939,121.189303,2.4773232e-08
C2H9T0,名間竹圍,2025-04-12,23.859914,120.637572,3.9539103e-10
C0S990,山豬窟,2025-04-12,22.318619,120.857372,2.4018368e-08
C0X190,安平,2025-04-12,22.993161,120.152181,6.0675516e-06
C0K400,斗六,2025-04-12,23.720583,120.541127,6.1300715e-10
12J990,口湖工作站,2025-04-12,23.589978,120.180394,6.1596005e-08
C0O830,北寮,2025-04-12,23.079561,120.495008,6.7779327e-10
C1D410,白蘭,2025-04-12,24.579364,121.079947,6.025915e-09
C0S970,加津林,2025-04-12,22.416211,120.926942,5.5309005e-07
C0D700,關西,2025-04-12,24.7977,121.1732,1.3431665e-09
C0M810,里佳,2025-04-12,23.389125,120.716647,5.240921e-09
C0U750,龜山島,2025-04-12,24.841667,121.953133,1.0800301e-06
C0R810,內獅,2025-04-12,22.305064,120.642986,1.9101313e-07
C1M390,龍美,2025-04-12,23.406728,120.654417,4.177311e-09
C2FB60,頭櫃山,2025-04-12,24.129842,120.858925,5.281663e-09
C1H840,國三N238K,2025-04-12,23.841008,120.707711,3.851849e-10
CAQ030,崎峰國小,2025-04-12,22.42565,120.49521,0.97616917
C2E520,大湖,2025-04-12,24.414939,120.870872,5.8409155e-10
467530,阿里山,2025-04-12,23.508208,120.813242,1.9726885e-08
C1E691,南湖,2025-04-12,24.40135,120.837533,1.3344409e-09
C0FA30,梧棲,2025-04-12,24.256003,120.523381,2.4949334e-09
C1V231,高中,2025-04-12,23.134911,120.716711,6.5932226e-10
C0AK30,硬漢嶺,2025-04-12,25.136097,121.426372,3.43288e-09
C0F9V0,新社,2025-04-12,24.200172,120.815806,9.65128e-10
C0H890,埔里,2025-04-12,23.972169,120.952425,8.2775814e-10
C0R690,墾丁,2025-04-12,21.966756,120.810269,0.99753237
C0F0D0,審馬陣,2025-04-12,24.381675,121.4203,2.7066095e-08
C2W030,金門農試所,2025-04-12,24.448431,118.451786,3.8139096e-09
C0R820,白鷺,2025-04-12,22.454275,120.666219,6.1573985e-10
C1V190,南天池,2025-04-12,23.27403,120.91176,1.3917638e-08
K2E360,苗栗農改場,2025-04-12,24.495722,120.829111,5.8586114e-10
CAJ050,海口故事園區,2025-04-12,23.57543,120.14121,6.160352e-08
C2H9D0,三隻寮,2025-04-12,24.093078,120.861578,2.1516493e-09
C0O990,媽廟,2025-04-12,22.99175,120.293525,8.811885e-06
C0D480,打鐵坑,2025-04-12,24.849664,121.150789,1.2683417e-09
C0Z220,和平林道,2025-04-12,24.343922,121.656317,3.2328802e-09
C0TA10,花蓮漁港,2025-04-12,23.995322,121.638331,2.3531035e-09
72C440,桃園農改場,2025-04-12,24.950944,121.030583,1.540028e-08
C1E711,馬拉邦山,2025-04-12,24.367306,120.901656,1.9332635e-09
C0SB20,富岡,2025-04-12,22.792467,121.192669,6.5749464e-06
C0D560,竹東,2025-04-12,24.767147,121.057881,1.0430348e-09
C0F9U0,南屯,2025-04-12,24.137006,120.637969,3.2659372e-10
C0M720,番路,2025-04-12,23.464657,120.554156,4.3937173e-10
C0F0A0,雪山圈谷,2025-04-12,24.388594,121.236339,3.4488167e-08
C1A9N0,四十份,2025-04-12,24.934158,121.593283,1.1070994e-08
C0U760,東澳,2025-04-12,24.52196,121.83318,3.6602321e-09
C0X230,鹽水,2025-04-12,23.272621,120.247641,9.455265e-09
C2H9H0,苗改南投蜂場,2025-04-12,23.852589,120.693481,4.2546885e-10
C0R950,萬隆國小,2025-04-12,22.507667,120.587817,0.60054266
467540,大武,2025-04-12,22.35572,120.90374,8.04283e-07
C0V370,古亭坑,2025-04-12,22.893178,120.401947,1.5477541e-09
C1I340,新興橋,2025-04-12,23.563333,120.868728,2.0499094e-09
C0SA80,土坂,2025-04-12,22.453108,120.887572,8.330808e-08
C0R160,鹽埔,2025-04-12,22.739558,120.530778,2.9511363e-10
C0AC40,大屯山,2025-04-12,25.175675,121.522408,1.14397585e-08
466850,五分山雷達站,2025-04-12,25.071182,121.781205,5.1308744e-09
C2H9L0,馬烈霸,2025-04-12,24.1512,121.201772,2.882655e-08
C1AI50,國三N016K,2025-04-12,25.034164,121.619664,3.4233207e-09
C1V600,藤枝,2025-04-12,23.071961,120.757042,6.012104e-09
C1E601,南勢,2025-04-12,24.572486,120.734842,5.164554e-08
C0Z180,新城,2025-04-12,24.03946,121.60454,1.6252852e-08
C0O980,新市,2025-04-12,23.061614,120.298197,1.9524697e-07
C0K420,西螺,2025-04-12,23.800407,120.467394,5.009454e-10
C0Z050,佳心,2025-04-12,23.34567,121.21316,1.3677347e-08
C0AD30,蘆洲,2025-04-12,25.086594,121.472331,3.5256147e-09
C0V610,梓官,2025-04-12,22.760558,120.267211,0.84697425
K2F750,種苗改良場,2025-04-12,24.225972,120.800917,9.083622e-10
C0UA80,大溪漁港,2025-04-12,24.941801,121.902955,2.156263e-09
C1AI60,國一39K邊坡,2025-04-12,25.064361,121.383836,5.690409e-09
C0W150,金寧,2025-04-12,24.457703,118.328989,3.764382e-09
C0R960,內埔,2025-04-12,22.608483,120.570714,3.469101e-07
V2C250,八德合作社,2025-04-12,24.93775,121.266389,2.345365e-09
C2H9S0,龍南,2025-04-12,23.953536,120.833183,1.9051616e-09
C0AH40,平等,2025-04-12,25.129142,121.577086,2.7109377e-09
C0R540,佳冬,2025-04-12,22.419456,120.552375,3.0323694e-08
466950,彭佳嶼,2025-04-12,25.627975,122.079744,0.99722207
C0A890,雙溪,2025-04-12,25.036003,121.864242,1.4408575e-07
C0C480,桃園,2025-04-12,24.992425,121.323172,2.8408378e-09
C0AH50,林口,2025-04-12,25.072181,121.38084,5.3783715e-09
A2K360,水試臺西試驗場,2025-04-12,23.717231,120.190522,4.9187832e-08
C2M960,外寮,2025-04-12,23.562643,120.665688,2.6693872e-09
C0F9S0,烏日,2025-04-12,24.107058,120.624103,7.3709727e-10
C0C490,八德,2025-04-12,24.928708,121.283289,2.346139e-09
C0R190,赤山,2025-04-12,22.592333,120.614306,2.6932238e-07
C0T820,天祥,2025-04-12,24.179597,121.495639,6.883403e-08
C1F9E1,龍安,2025-04-12,24.1605,120.831961,7.945e-10
C0V820,小林,2025-04-12,23.148408,120.63325,2.8450933e-10
C2G870,芳苑,2025-04-12,23.922303,120.320025,0.0024510697
C0E850,大河,2025-04-12,24.618069,120.948578,7.4509493e-10
C1U670,寒溪,2025-04-12,24.634,121.71691,6.1560246e-10
C0N020,城西,2025-04-12,23.0568,120.0956,3.7595728e-06
C1Z110,三棧,2025-04-12,24.11557,121.60501,1.0100678e-07
C0R280,檳榔,2025-04-12,22.076078,120.836777,0.99477965
C2H9J0,中台,2025-04-12,23.9996,120.938739,1.3976528e-09
C0F9L0,后里,2025-04-12,24.310436,120.729725,4.0220471e-10
467441,高雄,2025-04-12,22.730432,120.312516,0.7853817
C0Z180,新城,2025-04-12,24.040486,121.604878,2.4864393e-09
C0D540,橫山,2025-04-12,24.71116,121.11693,9.551565e-10
C1D420,太閣南,2025-04-12,24.632808,121.160575,1.1470303e-08
C1E770,公館,2025-04-12,24.526914,120.830806,5.870625e-10
CAN130,水試所海水繁養殖中心,2025-04-12,23.120802,120.07968,2.3939488e-06
C1I430,翠華,2025-04-12,24.191961,121.224339,1.6039312e-08
C1M400,菜瓜坪,2025-04-12,23.251928,120.576103,4.8947824e-10
C0G730,二林,2025-04-12,23.903325,120.376081,1.9421706e-09
72M360,南改義竹分場,2025-04-12,23.360694,120.279361,1.691789e-09
V2K620,麥寮合作社,2025-04-12,23.753836,120.294783,6.2291716e-10
C0Z070,舞鶴,2025-04-12,23.46811,121.37407,8.920885e-10
C0B040,大武崙,2025-04-12,25.166676,121.706993,6.5430155e-09
C1Z030,紅葉,2025-04-12,23.493119,121.338806,7.3343837e-10
C1I050,丹大,2025-04-12,23.753747,121.141147,1.5980804e-08
C0I080,信義,2025-04-12,23.689694,120.851036,1.9952178e-09
C2M920,朴子農改,2025-04-12,23.469889,120.259383,1.0156036e-09
C2A880,福隆,2025-04-12,25.017842,121.942083,2.6582399e-09
C0Z160,鳳林,2025-04-12,23.746114,121.453411,1.2666155e-09
C0V210,復興,2025-04-12,23.222403,120.806089,1.297954e-09
C0H990,昆陽,2025-04-12,24.121322,121.273642,2.7561892e-08
C0R741,獅子,2025-04-12,22.202308,120.705236,0.959792
C0S710,鹿野,2025-04-12,22.917711,121.122994,2.5407714e-09
C0I530,小奇萊,2025-04-12,24.131764,121.295717,2.8572666e-08
C2K630,荷苞,2025-04-12,23.657717,120.595144,6.2781474e-10
C0Z080,富源,2025-04-12,23.587642,121.378225,3.5982795e-09
C0SB10,美和,2025-04-12,22.682078,121.060236,1.9821327e-08
C2K620,馬光農場,2025-04-12,23.721453,120.378864,5.757604e-10
C1I140,卡奈托灣,2025-04-12,23.754364,121.087872,1.0998319e-08
C0I520,玉山風口,2025-04-12,23.470489,120.955994,3.618019e-08
C1G691,下水埔,2025-04-12,23.816114,120.5676,7.103998e-10
C0X110,臺南市南區,2025-04-12,22.961189,120.188378,0.14502072
C0V680,仁武,2025-04-12,22.701083,120.347722,0.9910503
C2G840,北斗,2025-04-12,23.877586,120.514222,6.6435657e-10
C0R900,竹坑,2025-04-12,22.1385,120.7022,0.010711141
C0K250,崙背,2025-04-12,23.75555,120.318925,6.223448e-10
C0G860,社頭,2025-04-12,23.897647,120.5862,1.1622031e-09
C0X150,安定,2025-04-12,23.102614,120.227839,2.7313474e-06
C0R590,里港,2025-04-12,22.77919,120.49459,1.1759925e-09
C0E610,馬都安,2025-04-12,24.451272,120.930192,1.4562008e-09
C0E550,明德,2025-04-12,24.583486,120.885411,6.6342964e-10
C0R150,三地門,2025-04-12,22.709889,120.639944,6.1328223e-09
C0G910,花壇,2025-04-12,24.032076,120.549461,4.7131954e-10
C1D400,鳥嘴山,2025-04-12,24.71909,121.28387,3.4004204e-09
C0K500,元長,2025-04-12,23.64981,120.315024,6.421871e-10
C0F0B0,石岡,2025-04-12,24.276061,120.777644,4.0865075e-10
C2V250,甲仙,2025-04-12,23.080106,120.591758,3.2488762e-10
C0SA20,金崙山,2025-04-12,22.567419,120.959667,1.2594828e-08
C0V350,溪埔,2025-04-12,22.738578,120.446797,1.4249642e-08
C0M660,溪口,2025-04-12,23.604131,120.403569,4.810438e-10
C1S880,壽卡,2025-04-12,22.238911,120.858903,4.6567884e-08
72D680,桃改新埔分場,2025-04-12,24.834444,121.066111,1.7706682e-09
