站號,站名,日期,lat,lon,BLBTSLS
C0R710,龍磐,2025-03-19,21.931672,120.838942,0.95314306
C1F9D1,白毛台,2025-03-19,24.158325,120.886933,1.4312912e-09
C0G940,竹塘,2025-03-19,23.848253,120.386764,8.749829e-09
467590,恆春,2025-03-19,22.003897,120.746339,0.6536158
C1O850,環湖,2025-03-19,23.148617,120.418633,1.0109699e-07
C0U710,太平山,2025-03-19,24.505486,121.525656,1.1162806e-08
C0E820,獅潭,2025-03-19,24.539133,120.920042,6.897199e-09
C0V880,興達,2025-03-19,22.8778,120.2127,3.218557e-09
C0S890,關山,2025-03-19,23.0395,121.175017,2.4803303e-08
C0SB30,新蘭,2025-03-19,22.869214,121.223228,5.0929134e-06
C2R970,屏科大,2025-03-19,22.648275,120.619247,0.00017628414
K2F750,種苗繁殖,2025-03-19,24.225972,120.800917,1.242191e-08
C1Z130,銅門,2025-03-19,23.965694,121.492842,4.1185704e-08
C0AD40,土城,2025-03-19,24.973208,121.445169,8.926984e-09
CAN140,六官養殖協會,2025-03-19,23.22881,120.29962,5.605907e-09
C0X180,山上,2025-03-19,23.0757,120.363253,3.0819674e-08
C0F9Z0,雪山東峰,2025-03-19,24.388792,121.268675,1.7632278e-08
C1M480,獨立山,2025-03-19,23.537022,120.607797,8.2310114e-10
C0X220,學甲,2025-03-19,23.230367,120.182187,3.3944263e-09
467650,日月潭,2025-03-19,23.881325,120.90805,1.077506e-09
C0K600,箔子寮,2025-03-19,23.6197,120.14,1.384254e-06
C0G830,埤頭,2025-03-19,23.866003,120.452806,1.9497348e-09
C0S950,七塊厝,2025-03-19,22.954453,121.229922,1.5806135e-08
467110,金門,2025-03-19,24.407306,118.289281,2.5374655e-07
C0AH80,深坑,2025-03-19,25.002703,121.628328,8.051655e-09
467990,馬祖,2025-03-19,26.169269,119.923419,3.918448e-08
C0A970,三貂角,2025-03-19,25.007606,122.002058,6.269403e-09
C2D730,寶山農場,2025-03-19,24.732444,120.976153,1.3521173e-08
C0K430,褒忠,2025-03-19,23.690938,120.303634,4.0265933e-09
467480,嘉義,2025-03-19,23.495925,120.432906,7.1192616e-09
C2E540,後龍,2025-03-19,24.606489,120.783933,4.7851904e-07
C0V400,阿公店,2025-03-19,22.804194,120.355528,1.6799781e-06
467550,玉山,2025-03-19,23.48718,120.95943,2.1800423e-08
C0R440,大漢山,2025-03-19,22.405264,120.753181,7.690024e-09
C0K280,四湖,2025-03-19,23.630414,120.227125,6.8050116e-07
C1F9B1,桐林,2025-03-19,24.066172,120.735194,4.0495687e-09
C2H9U0,鳳鵬,2025-03-19,23.763919,120.788061,1.2614801e-09
C0K390,土庫,2025-03-19,23.679029,120.395574,2.776899e-09
C1I450,望鄉山,2025-03-19,23.594153,120.944286,7.9964515e-09
C0E910,海埔,2025-03-19,24.648767,120.772435,2.926699e-08
B2E890,畜試北區分所,2025-03-19,24.527806,120.770972,1.3369281e-08
C0R750,四林格山,2025-03-19,22.076989,120.802439,3.3185766e-05
C0F0C0,中坑,2025-03-19,24.248517,120.903319,2.0525972e-09
C1I121,大鞍,2025-03-19,23.678381,120.760017,2.1760946e-09
72U480,花改蘭陽分場,2025-03-19,24.686306,121.716583,2.5685745e-09
C0A770,科教館,2025-03-19,25.096356,121.516507,1.4185535e-08
C0AJ60,六塊厝,2025-03-19,25.24,121.4481,1.3464188e-07
C0R620,墾雷,2025-03-19,21.900836,120.855269,0.930924
467420,永康,2025-03-19,23.038386,120.2367,3.540482e-08
467300,東吉島,2025-03-19,23.25695,119.667467,0.99856824
C0I410,名間,2025-03-19,23.837053,120.701447,9.962911e-09
A2C560,農工中心,2025-03-19,24.985917,121.239833,2.5076249e-08
C0V740,旗山,2025-03-19,22.888614,120.483597,9.475091e-08
C0Z061,玉里,2025-03-19,23.3215,121.339656,5.241141e-09
C0S840,南田,2025-03-19,22.279725,120.889208,0.8153725
C1I470,杉林溪,2025-03-19,23.639517,120.786444,2.76773e-09
C1X040,東原,2025-03-19,23.291597,120.463822,2.904588e-08
C0R660,枋寮,2025-03-19,22.367722,120.590647,1.9581512e-06
C1R120,上德文,2025-03-19,22.763272,120.704442,4.704026e-10
C0K450,大埤,2025-03-19,23.646074,120.431537,3.966693e-09
C0UA00,土場,2025-03-19,24.576533,121.495333,5.7033827e-09
467080,宜蘭,2025-03-19,24.763975,121.756528,1.95266e-09
C0N030,四草,2025-03-19,23.0235,120.1116,4.309058e-09
467410,臺南,2025-03-19,22.99328,120.20492,3.4698298e-09
C0V650,彌陀,2025-03-19,22.783806,120.246361,8.881252e-08
C0D660,新竹市東區,2025-03-19,24.798681,120.986942,1.7540904e-08
82S580,茶改東部分場,2025-03-19,22.907694,121.130139,1.18390986e-07
C0SB40,興隆,2025-03-19,22.913661,121.257469,2.5193788e-06
467050,新屋,2025-03-19,25.006725,121.047492,4.4055585e-07
C0C710,大溪永福,2025-03-19,24.892936,121.324975,7.1938313e-09
C0FA20,溫寮,2025-03-19,24.372177,120.583125,1.3127705e-07
C0V640,湖內,2025-03-19,22.887139,120.2445,3.0967795e-09
C0R910,下寮,2025-03-19,22.3929,120.5548,1.9581512e-06
C0Z020,明里,2025-03-19,23.208717,121.262342,5.4043983e-09
C0M770,嘉義梅山,2025-03-19,23.585398,120.555587,2.4843203e-09
G2F820,農業試驗所,2025-03-19,24.031261,120.688133,1.6538673e-08
C0C660,楊梅,2025-03-19,24.912375,121.143047,1.6460062e-08
C1E511,新開,2025-03-19,24.347703,120.827019,1.9157727e-09
G2F820,農試所(霧峰),2025-03-19,24.031261,120.688133,5.079636e-09
C1I070,和社,2025-03-19,23.591131,120.888861,2.2566612e-08
C2F000,大肚,2025-03-19,24.15295,120.572117,2.3623627e-09
C1S850,豐南,2025-03-19,23.122139,121.262389,3.008276e-09
C2A920,富貴角,2025-03-19,25.263783,121.565258,6.832806e-08
CAH030,茶改場竹圍站,2025-03-19,23.860083,120.637528,1.4519241e-09
C0T960,光復,2025-03-19,23.660694,121.424964,3.3656025e-09
C0F9M0,豐原,2025-03-19,24.254322,120.720692,1.2723128e-09
C0R720,旭海,2025-03-19,22.205403,120.887614,0.7117687
C0V710,苓雅,2025-03-19,22.622742,120.330669,1.4913323e-06
C0C740,觀音工業區,2025-03-19,25.064764,121.114856,9.072736e-07
CAC040,拉拉山,2025-03-19,24.699317,121.427133,1.1250571e-08
C0V790,萬山,2025-03-19,22.905944,120.688056,2.7619233e-06
U2HA30,臺大和社,2025-03-19,23.590856,120.888864,2.2566612e-08
C0AJ90,澳底,2025-03-19,25.0552,121.9253,6.3783063e-09
C0Z100,東華,2025-03-19,23.89525,121.549833,1.5288773e-08
C0G970,三豐,2025-03-19,23.882,120.2895,0.03446756
V2K610,大庄合作社,2025-03-19,23.8068,120.367939,5.63426e-09
C0V900,汕尾,2025-03-19,22.4782,120.4151,3.3200636e-06
C1R630,龍泉,2025-03-19,22.66701,120.59091,0.00033679526
C1AC50,關渡,2025-03-19,25.133486,121.469331,2.093198e-08
C0F9I0,神岡,2025-03-19,24.272481,120.658314,1.8705837e-09
C0K460,斗南,2025-03-19,23.678734,120.478359,3.7496775e-09
467410,臺南,2025-03-19,22.993239,120.204772,0.00023412713
C2O810,曾文,2025-03-19,23.219681,120.497328,4.5164075e-08
467280,後龍,2025-03-19,24.648563,120.831834,2.7675625e-08
C1F9J1,清水林,2025-03-19,24.071242,120.820419,1.5832436e-09
C2A650,火燒寮,2025-03-19,25.002719,121.742892,5.759474e-09
466930,竹子湖,2025-03-19,25.162078,121.544547,7.203992e-09
C1I220,樟湖,2025-03-19,23.905333,120.846983,9.40384e-10
C0I390,仁愛,2025-03-19,24.022122,121.132206,8.86224e-10
C0Z300,東里,2025-03-19,23.26853,121.30547,6.7289236e-09
C1V590,新發,2025-03-19,23.057019,120.646064,2.782052e-09
C0K510,水林,2025-03-19,23.572924,120.24597,8.535199e-09
72S590,東改賓朗果園,2025-03-19,22.813889,121.071278,1.0151664e-08
82A750,茶改北部分場,2025-03-19,24.955778,121.631222,1.1097484e-08
C1A750,石碇服務區,2025-03-19,25.00872,121.646242,1.2978828e-08
C0X300,鹿寮,2025-03-19,23.386047,120.477331,1.4942236e-07
G2AI50,關渡,2025-03-19,25.11575,121.492,1.498892e-07
C0K590,雲林東勢,2025-03-19,23.674192,120.255721,3.741219e-09
C0A570,桶後,2025-03-19,24.848222,121.597992,6.2626144e-09
C1S800,華源,2025-03-19,22.657883,121.02325,4.3196303e-07
C0G720,溪州,2025-03-19,23.851589,120.499093,1.8850104e-09
C1V160,達卡努瓦,2025-03-19,23.279811,120.705319,7.7986895e-10
C2M410,馬頭山,2025-03-19,23.324361,120.582017,8.357064e-09
C0V850,蚵仔寮,2025-03-19,22.7256,120.2527,1.4345436e-07
C0S740,池上,2025-03-19,23.119628,121.209469,1.0413754e-08
C1V390,尖山,2025-03-19,22.813153,120.367789,5.4568847e-07
C0AH70,松山,2025-03-19,25.04871,121.55042,1.4091636e-08
C0N010,鯤鯓國小,2025-03-19,23.1879,120.0889,7.232601e-09
C0R550,新埤,2025-03-19,22.467947,120.582894,1.290674e-06
C0SA60,知本（水試所）,2025-03-19,22.702394,121.082761,1.2509782e-05
C0T9I0,豐濱,2025-03-19,23.583897,121.514806,2.9783085e-09
C0UB00,淡江大學蘭陽校園,2025-03-19,24.823239,121.730383,6.0900427e-09
C0W240,九宮,2025-03-19,24.423753,118.240186,2.6336167e-07
C0T9N0,富里,2025-03-19,23.171639,121.249378,1.0613943e-08
U2HA50,臺大竹山,2025-03-19,23.756972,120.681556,5.6974354e-09
C0V840,鳳鼻頭,2025-03-19,22.5083,120.3591,1.2940847e-05
C0X140,西港,2025-03-19,23.125608,120.203108,1.27236435e-08
72D080,桃改五峰分場,2025-03-19,24.612194,121.157167,3.8149643e-09
C2H9P0,伊拿谷,2025-03-19,23.963211,121.088264,9.236353e-10
C2H9F0,柑林,2025-03-19,24.018658,120.847072,4.4317203e-09
C0TA20,加灣,2025-03-19,24.082025,121.608944,5.0944447e-08
C0V530,阿蓮,2025-03-19,22.883208,120.327508,4.491062e-07
C1O880,關山,2025-03-19,23.173397,120.594092,3.1914944e-09
C0E791,卓蘭,2025-03-19,24.3126,120.8244,1.1393372e-09
C1I030,武界,2025-03-19,23.913225,121.052483,9.067264e-10
C0R520,崁頂,2025-03-19,22.514781,120.506914,3.087315e-06
C0R341,牡丹,2025-03-19,22.130036,120.792639,0.80266666
C0R930,萬丹,2025-03-19,22.5885,120.4851,0.0001468421
C0S760,紅石,2025-03-19,23.069131,121.126219,8.9123695e-09
C2C410,中央大學,2025-03-19,24.967652,121.185165,2.4059496e-08
C1M610,石磐龍,2025-03-19,23.496606,120.663506,1.4478838e-09
C0UA10,鴛鴦湖,2025-03-19,24.590269,121.412228,8.069397e-09
V2C260,八德蔬果,2025-03-19,24.978508,121.281819,8.117205e-09
C0R800,丹路,2025-03-19,22.204481,120.750989,0.98018175
C0G920,永靖,2025-03-19,23.924703,120.547533,1.5416259e-09
C2M950,太和,2025-03-19,23.538372,120.702961,1.71969e-09
C1A630,下盆,2025-03-19,24.771003,121.538622,6.0581367e-09
B2N890,畜產試驗所,2025-03-19,23.058972,120.336406,1.2904627e-08
C0UA30,白嶺,2025-03-19,24.527819,121.519031,1.0378162e-08
C1V580,溪南(特生中心),2025-03-19,23.084972,120.788475,1.0938023e-09
C1T970,大農,2025-03-19,23.615233,121.413331,2.8336404e-09
E2S960,林試太麻里2,2025-03-19,22.598014,120.989761,0.01562041
C0R650,竹田,2025-03-19,22.58486,120.54344,4.8199214e-05
C1H900,清流,2025-03-19,24.080775,120.962997,9.642981e-10
C1C510,水尾,2025-03-19,24.940081,121.087161,3.2822274e-07
C0F9X0,大雅(中科園區),2025-03-19,24.21528,120.62445,1.7857338e-09
C0SB60,白守蓮,2025-03-19,23.126769,121.401914,6.728759e-07
C0O970,虎頭埤,2025-03-19,23.021375,120.347878,3.7700786e-07
C0C730,中大臨海站,2025-03-19,24.966126,121.008581,5.1725743e-07
C0X250,新營,2025-03-19,23.310689,120.316681,2.989625e-08
C0V700,三民,2025-03-19,22.645017,120.311233,2.3189838e-08
C0U870,大礁溪,2025-03-19,24.791042,121.675047,5.8866614e-09
C0E870,高鐵苗栗,2025-03-19,24.60725,120.826094,2.7940503e-08
A2K570,古坑花卉中心,2025-03-19,23.63353,120.55239,6.5494583e-09
C0TA30,鹽寮,2025-03-19,23.845606,121.592664,1.7016541e-08
C0M860,新美,2025-03-19,23.338017,120.683169,1.2907476e-09
C1E701,八卦,2025-03-19,24.491756,120.927619,2.4155218e-09
C0I420,國姓,2025-03-19,24.037803,120.855072,3.784879e-09
C2D720,關西工作站,2025-03-19,24.757275,121.184792,1.2011286e-08
C0S960,香蘭,2025-03-19,22.587569,120.993375,0.000102549406
467620,蘭嶼,2025-03-19,22.0369,121.55843,0.9999712
C0R260,春日,2025-03-19,22.370361,120.628306,9.3207296e-07
72G600,臺中農改場,2025-03-19,24.003028,120.534389,1.3392704e-09
C0Z210,瑞穗,2025-03-19,23.5239,121.39021,3.8924495e-09
C0M820,達邦,2025-03-19,23.453994,120.749517,1.0399696e-09
C0V860,南寮,2025-03-19,22.7616,120.2339,1.4345436e-07
C0G740,大城,2025-03-19,23.852487,120.320935,0.028771566
C0R920,塭仔,2025-03-19,22.4169,120.5197,2.111712e-06
C0R470,高樹,2025-03-19,22.826389,120.600806,0.00026519186
C0R680,佳樂水,2025-03-19,21.993578,120.861633,0.4185324
C1O870,大棟山,2025-03-19,23.31157,120.52226,1.2950063e-09
C0D360,梅花,2025-03-19,24.678347,121.208558,4.345672e-09
C0Z190,富世,2025-03-19,24.14743,121.6297,2.267028e-08
C0AI10,屈尺,2025-03-19,24.92184,121.54475,8.784193e-09
B2U990,畜試東區分所,2025-03-19,24.669039,121.832561,2.7560354e-09
C0SB80,長濱漁港,2025-03-19,23.313644,121.459994,8.3257214e-09
C0R240,來義,2025-03-19,22.527306,120.625111,3.0655377e-07
C0V910,大樹,2025-03-19,22.684645,120.432803,0.00031563753
C1R610,西大武山,2025-03-19,22.617719,120.7322,1.0560571e-08
C0G900,線西,2025-03-19,24.143358,120.443536,1.4261307e-08
C0M700,竹崎,2025-03-19,23.526178,120.555508,2.355007e-09
C2E880,三義,2025-03-19,24.405478,120.749819,3.6502346e-09
C0C720,竹圍,2025-03-19,25.112692,121.239824,1.4988906e-07
C0F9P0,清水,2025-03-19,24.312297,120.562242,6.352885e-08
C0Z150,吉安光華,2025-03-19,23.930925,121.595153,2.1903041e-07
467300,東吉島,2025-03-19,23.25727,119.66762,0.9961002
C1D640,外坪(五指山),2025-03-19,24.644447,121.090961,3.0468383e-09
C0F9O0,潭子,2025-03-19,24.213106,120.703933,1.9846436e-09
C2H9R0,卓社,2025-03-19,23.887894,121.000086,7.187258e-10
72T250,花蓮農改場,2025-03-19,23.975222,121.563889,1.6475788e-06
C0E780,銅鑼,2025-03-19,24.489681,120.790853,1.18771935e-08
C1T950,太安,2025-03-19,23.666719,121.370128,1.9749775e-08
C0E830,苑裡,2025-03-19,24.439714,120.653053,3.8079548e-07
467270,田中,2025-03-19,23.873803,120.581286,5.7990572e-09
C0SA10,檳榔四格山,2025-03-19,22.810031,121.109308,5.9757603e-09
C1T830,布洛灣,2025-03-19,24.17184,121.57127,4.1367805e-08
C0F970,大坑,2025-03-19,24.173142,120.722289,5.1475477e-09
C1U920,思源,2025-03-19,24.393125,121.347214,3.1046512e-09
C0A931,三和,2025-03-19,25.233153,121.595236,1.3699173e-08
C0I010,廬山,2025-03-19,24.033311,121.181808,1.3962326e-09
C2M940,日野賀,2025-03-19,23.434056,120.727169,1.2190894e-09
C0R860,鼻頭,2025-03-19,22.1043,120.8979,0.9802365
C0UB20,壯圍,2025-03-19,24.7359,121.8163,2.6229245e-09
C0R790,九棚,2025-03-19,22.14195,120.889281,0.8879375
C0W110,東莒,2025-03-19,25.9652,119.98069,7.137552e-08
C1U930,粉鳥林,2025-03-19,24.497088,121.842479,2.0497422e-08
C1I211,蘆竹湳,2025-03-19,23.934019,120.811994,1.0534172e-09
C0S830,長濱,2025-03-19,23.286817,121.411975,4.169518e-09
C1F9F1,伯公龍,2025-03-19,24.272392,120.849047,1.2045188e-09
C0E810,西湖,2025-03-19,24.562947,120.7485,2.6509295e-05
C1I440,新高口,2025-03-19,23.478744,120.878939,4.444689e-09
C0O840,王爺宮,2025-03-19,23.222064,120.40085,7.776754e-09
C0T9G0,鳳林山,2025-03-19,23.735269,121.420131,1.0110139e-08
C0X080,佳里,2025-03-19,23.173039,120.145086,7.232601e-09
C0FB70,大甲溪埔,2025-03-19,24.370625,120.620067,1.0108407e-07
C0Z310,清水斷崖,2025-03-19,24.218294,121.689142,6.0993544e-09
C0M680,太保,2025-03-19,23.455062,120.331455,2.3043102e-08
C1S820,金峰,2025-03-19,22.590969,120.933236,4.969371e-07
C0AD10,八里,2025-03-19,25.150211,121.403947,1.4988906e-07
C2K240,草嶺,2025-03-19,23.59555,120.693461,1.4803632e-09
C1SA70,都蘭,2025-03-19,22.87794,121.226881,2.5193788e-06
C0K440,二崙,2025-03-19,23.772797,120.408944,1.7912362e-09
C1A760,坪林交控,2025-03-19,24.94284,121.713442,4.377876e-09
C0F9N0,大里,2025-03-19,24.092464,120.701378,5.5332565e-09
C0SA90,達仁林場,2025-03-19,22.264347,120.823972,9.30516e-07
C1R290,石門山,2025-03-19,22.112611,120.756597,0.29232126
42HA10,萬大發電廠,2025-03-19,23.978875,121.139639,1.2793187e-09
C0R890,山海,2025-03-19,21.9878,120.7091,0.26313952
C0T9A0,月眉山,2025-03-19,23.809928,121.539828,7.8410975e-09
C0AC70,信義,2025-03-19,25.037822,121.564597,1.4091636e-08
C0K560,棋山,2025-03-19,23.68645,120.603417,5.3358145e-09
C2FB50,出雲,2025-03-19,24.206469,120.902794,2.1471396e-09
C1Z240,中平林道,2025-03-19,23.42115,121.26763,9.247145e-09
U2H480,溪頭,2025-03-19,23.670306,120.798194,1.8502793e-09
C0M880,好美里,2025-03-19,23.3364,120.138,4.6476556e-09
C0T9E0,大坑,2025-03-19,23.880628,121.581981,7.413303e-09
C0K530,臺西,2025-03-19,23.701547,120.197559,5.5160774e-07
C1E900,國一N128K,2025-03-19,24.560997,120.844186,1.3977628e-08
C0AJ50,水湳洞,2025-03-19,25.123695,121.862238,6.47313e-09
C0AI20,白沙灣,2025-03-19,25.283128,121.519058,1.2455475e-07
C2V310,美濃,2025-03-19,22.898792,120.51907,1.2155415e-07
C0A860,大坪,2025-03-19,25.165914,121.632969,7.1285693e-09
C1U850,觀音海岸,2025-03-19,24.38319,121.77856,6.8959225e-09
C2K610,草嶺石壁,2025-03-19,23.602469,120.707731,1.4974418e-09
C0U950,鶯子嶺,2025-03-19,24.89754,121.79244,8.371151e-09
C0O900,善化,2025-03-19,23.112883,120.297219,2.3687754e-08
C0K550,蔦松,2025-03-19,23.514319,120.229736,1.0853176e-08
E2P980,林試六龜中心,2025-03-19,22.991703,120.645722,2.6534528e-09
C0E590,通霄,2025-03-19,24.471892,120.704622,1.3819858e-05
C1I310,西巒,2025-03-19,23.754486,120.883956,1.5549623e-09
C0A550,泰平,2025-03-19,24.971197,121.823711,7.801e-09
C0I360,水里,2025-03-19,23.812553,120.849792,1.9568545e-09
C0R830,高士,2025-03-19,22.121825,120.836781,0.06121241
C1I101,溪頭,2025-03-19,23.661789,120.807647,3.8214605e-09
C0AJ20,野柳,2025-03-19,25.20703,121.690021,1.7510418e-08
C0B060,暖暖,2025-03-19,25.0957,121.7403,6.93195e-09
C1H920,長豐,2025-03-19,24.102039,120.879897,9.894543e-10
C0V360,內門,2025-03-19,22.975481,120.466769,9.285147e-08
C0R850,林邊,2025-03-19,22.4634,120.5339,2.2222996e-06
C0E930,龍鳳,2025-03-19,24.700034,120.859125,1.6190158e-07
C0U910,冬山,2025-03-19,24.63373,121.7937,2.7560354e-09
C1E721,泰安,2025-03-19,24.489017,120.968036,2.471998e-09
82H320,茶改中部分場,2025-03-19,23.875611,120.913583,1.0694186e-09
C0M750,布袋,2025-03-19,23.380878,120.167789,8.127181e-09
C1S860,利嘉,2025-03-19,22.809417,121.050528,3.0649613e-08
72C440,桃園農改,2025-03-19,24.950944,121.030583,3.645384e-07
E2S980,林試太麻里1,2025-03-19,22.598922,120.980044,6.7745855e-06
C0X170,關廟,2025-03-19,22.963017,120.327797,2.2597574e-06
C0V720,林園,2025-03-19,22.507747,120.394511,8.483503e-06
C1I510,線浸林道,2025-03-19,23.761508,120.832956,1.0698531e-09
C0D690,外湖,2025-03-19,24.917735,120.968711,8.7398394e-07
C0C750,新興坑尾,2025-03-19,25.0061,121.0971,3.157589e-07
B2Q810,畜試南區分所,2025-03-19,21.945583,120.802167,0.39364076
C0S790,金崙,2025-03-19,22.538122,120.966875,5.042493e-08
C0AH90,福山植物園,2025-03-19,24.760717,121.58135,1.2021301e-08
C0I540,奇萊稜線,2025-03-19,24.109231,121.326456,1.0616879e-08
C0M850,表湖,2025-03-19,23.24186,120.64166,8.0852147e-10
C0S770,大溪山,2025-03-19,22.478475,120.943325,1.3621477e-08
C0AG80,中和,2025-03-19,24.991622,121.491792,8.926984e-09
C0T790,大禹嶺,2025-03-19,24.186117,121.316086,6.738119e-09
C0T9B0,水源,2025-03-19,23.991861,121.537169,2.3244084e-08
C0R840,牡丹池山,2025-03-19,22.168389,120.841225,0.00016510591
C1I131,桶頭,2025-03-19,23.641944,120.654117,1.1867088e-09
CAL110,布袋國中,2025-03-19,23.35893,120.18026,8.123601e-09
467571,新竹,2025-03-19,24.827853,121.014219,1.0216468e-07
C0Z290,赤柯山,2025-03-19,23.36893,121.38293,2.001695e-08
C0X280,將軍,2025-03-19,23.214999,120.13577,3.5288439e-09
C0S690,太麻里,2025-03-19,22.60902,120.98533,1.8767887e-08
C0U880,北關,2025-03-19,24.9072,121.8734,5.3697304e-09
C1H860,瑞岩,2025-03-19,24.123772,121.18345,5.951214e-09
C0G810,埔心,2025-03-19,23.947633,120.525456,1.5430969e-09
C0U970,大福,2025-03-19,24.80064,121.81389,1.9743966e-09
C2H9N0,仁愛東眼,2025-03-19,24.026875,121.1205,1.2011762e-09
C1E670,南礦,2025-03-19,24.538278,121.002836,3.6725187e-09
C0M520,東後寮,2025-03-19,23.369908,120.248065,7.237818e-09
C1E461,松安,2025-03-19,24.397972,120.986022,2.6009792e-09
72G600,臺中農改,2025-03-19,24.003028,120.534389,2.9967325e-08
C2N160,西拉雅風管處,2025-03-19,23.189481,120.335297,1.627264e-08
C2M970,碧湖,2025-03-19,23.568632,120.624165,1.4438052e-09
C0A640,石碇,2025-03-19,24.993969,121.662917,8.6169205e-09
E2S960,林試太麻里2,2025-03-19,22.598,120.99775,0.00016317179
C0F9Y0,桃山,2025-03-19,24.432739,121.303808,1.5548533e-08
C1I020,萬大,2025-03-19,23.979817,121.132261,8.8968244e-10
C0U940,羅東,2025-03-19,24.68184,121.74934,2.568643e-09
C0M650,朴子,2025-03-19,23.43463,120.23902,2.0960865e-08
C1I500,大尖山,2025-03-19,23.858572,120.994889,2.388906e-09
C0G820,田尾,2025-03-19,23.901669,120.509389,1.5416259e-09
E2K600,四湖植物園,2025-03-19,23.676986,120.163433,6.792316e-07
C0S730,綠島,2025-03-19,22.6672,121.47533,0.992697
12Q970,東港工作站,2025-03-19,22.479997,120.466058,3.3399308e-06
C0E430,南庄,2025-03-19,24.601775,121.000214,6.8685533e-09
C1TA00,太魯閣,2025-03-19,24.15773,121.6236,2.0500238e-08
466920,臺北,2025-03-19,25.037658,121.514853,1.4091636e-08
C0R600,舊泰武,2025-03-19,22.588194,120.664944,6.192059e-10
C1I260,北坑,2025-03-19,23.9246,121.006903,1.0053293e-09
466910,鞍部,2025-03-19,25.182586,121.529731,1.4783239e-08
C1I230,九份二山,2025-03-19,23.961944,120.845,1.0007625e-09
C2A660,瑞芳,2025-03-19,25.113169,121.801147,6.070791e-09
C0R270,琉球嶼,2025-03-19,22.332244,120.362236,1.2135041e-07
C1T990,高寮,2025-03-19,23.394239,121.356808,5.5322857e-09
C0G620,芬園,2025-03-19,24.015678,120.6213,3.986155e-09
C1Z140,荖溪,2025-03-19,23.890575,121.45964,1.580315e-08
C1I201,中心崙,2025-03-19,23.728722,120.712097,9.742368e-10
C1I400,凌霄,2025-03-19,24.018778,121.004456,1.1574712e-09
C1M640,十字,2025-03-19,23.492153,120.753683,2.245698e-09
G2P820,農試鳳山分所,2025-03-19,22.646611,120.356083,2.0822474e-08
C0Z270,蕃薯寮,2025-03-19,23.73835,121.540108,1.2173217e-08
C0F9Q0,外埔,2025-03-19,24.347817,120.705686,3.2647303e-09
C0K580,高鐵雲林,2025-03-19,23.737456,120.417944,2.209773e-09
C2I090,鳳凰,2025-03-19,23.728081,120.787347,1.1514751e-09
C0U990,員山,2025-03-19,24.74435,121.72247,2.620744e-09
C0V770,大社,2025-03-19,22.730306,120.346639,1.0982329e-07
C0X120,麻豆,2025-03-19,23.183289,120.248611,3.435939e-09
C0C670,龍潭,2025-03-19,24.870056,121.221389,1.272345e-08
C0D680,香山濕地,2025-03-19,24.783581,120.914988,1.9999776e-08
C0S980,勝林山,2025-03-19,22.430439,120.8938,9.331856e-09
C0V730,大寮,2025-03-19,22.605614,120.395717,1.2630549e-06
C0R570,麟洛,2025-03-19,22.65078,120.52719,0.00014975271
C2M930,石卓,2025-03-19,23.478744,120.702264,2.6378097e-09
C0G9B0,和美,2025-03-19,24.105169,120.492131,1.2866826e-08
CAG100,王功漁港,2025-03-19,23.96824,120.32586,0.11849648
C0X290,北門,2025-03-19,23.267772,120.125481,3.5314833e-09
C2F930,大甲,2025-03-19,24.347667,120.640403,5.6105737e-08
C0D650,湖口,2025-03-19,24.904794,121.043628,3.4782178e-07
C0E420,竹南,2025-03-19,24.708978,120.888897,1.332574e-07
C0U780,五結,2025-03-19,24.68637,121.79794,2.6229245e-09
C1I250,鯉潭,2025-03-19,23.961922,120.991131,1.2366304e-09
C0R130,阿禮,2025-03-19,22.742908,120.743678,5.588034e-10
C0X100,臺南市北區,2025-03-19,23.010394,120.194228,4.055853e-09
C0S920,金峰嘉蘭,2025-03-19,22.594789,120.960825,4.9385103e-06
C0V490,新興,2025-03-19,22.627422,120.298803,1.4913323e-06
C0F9K0,大安,2025-03-19,24.345061,120.588025,1.09489896e-07
72N100,臺南農改,2025-03-19,23.0605,120.342194,0.0016709102
467290,古坑,2025-03-19,23.633639,120.551889,6.5494583e-09
C2E970,八甲,2025-03-19,24.535811,120.795983,1.1601859e-08
C0V440,鳳山,2025-03-19,22.646653,120.356122,2.0822474e-08
C1T940,大觀,2025-03-19,23.714206,121.373133,1.0354731e-08
72T250,花蓮農改,2025-03-19,23.975222,121.563889,0.006058157
C0E740,造橋,2025-03-19,24.637056,120.864778,2.7966895e-08
C0R100,尾寮山,2025-03-19,22.833111,120.683889,4.4097614e-10
A2K630,臺大雲林校區,2025-03-19,23.730628,120.423903,2.209773e-09
467990,馬祖,2025-03-19,26.169467,119.923158,5.8601927e-08
C0D580,寶山,2025-03-19,24.735006,121.025192,8.2855784e-09
E2P990,林試扇平站,2025-03-19,22.9677,120.6857,6.073452e-07
C0AI30,三重,2025-03-19,25.057328,121.500629,1.4185535e-08
C0AH00,汐止,2025-03-19,25.066881,121.658778,1.4091636e-08
C1Z040,立山,2025-03-19,23.443356,121.327375,4.8024482e-08
466881,新北,2025-03-19,24.959207,121.525196,8.459704e-09
C0W130,花嶼,2025-03-19,23.40007,119.32276,0.99674994
C0A950,鼻頭角,2025-03-19,25.129036,121.923372,1.4943376e-07
C0K470,林內,2025-03-19,23.748675,120.609642,1.063374e-08
C2F990,摩天嶺,2025-03-19,24.322458,120.936819,2.2146633e-09
82C160,茶改場,2025-03-19,24.908472,121.185333,1.4352093e-08
C0Z320,清水林道,2025-03-19,23.27125,121.188272,1.2054847e-08
C0R760,南仁湖,2025-03-19,22.084681,120.863353,0.29232126
C0M670,大林,2025-03-19,23.600616,120.45841,3.922028e-09
C0M800,茶山,2025-03-19,23.299075,120.664767,1.9235422e-09
C0A9C0,天母,2025-03-19,25.117494,121.537169,2.9699823e-08
72K220,南改斗南分場,2025-03-19,23.634556,120.477333,3.7448458e-09
72AI40,桃改樹林分場,2025-03-19,24.944503,121.386972,1.38470995e-08
C0S910,蘭嶼燈塔,2025-03-19,22.081197,121.503117,0.9998324
C0B050,八斗子,2025-03-19,25.144754,121.79167,6.7041346e-09
C0U900,內城,2025-03-19,24.71813,121.68766,2.521547e-09
C0X320,柳營,2025-03-19,23.253328,120.375253,8.283038e-08
C0M790,新港,2025-03-19,23.553269,120.345728,4.392974e-09
C0F9T0,西屯,2025-03-19,24.179494,120.641275,1.849175e-09
C0SA30,都歷,2025-03-19,23.020333,121.323642,2.755541e-07
C0C620,蘆竹,2025-03-19,25.084275,121.265767,6.9694984e-08
C0R730,大坪頂,2025-03-19,22.024633,120.69355,0.9881552
C0AJ40,石門,2025-03-19,25.273672,121.601198,7.794801e-08
C0E750,苗栗,2025-03-19,24.564569,120.824575,1.4360472e-08
C0T870,鯉魚潭,2025-03-19,23.935639,121.508944,4.948151e-08
C1V170,排雲,2025-03-19,23.463619,120.954147,1.3940593e-08
C2H950,中寮,2025-03-19,23.884447,120.766406,8.508023e-09
C0R350,貓鼻頭,2025-03-19,21.921774,120.7358,0.8587388
C0V660,岡山,2025-03-19,22.797078,120.294958,8.8977835e-08
C1H941,雙冬,2025-03-19,23.967378,120.802189,9.910729e-10
C0AJ70,田寮,2025-03-19,25.2698,121.4886,1.2694137e-07
C0AI00,五股,2025-03-19,25.07445,121.42728,1.01466116e-08
C0Z280,德武,2025-03-19,23.47426,121.41071,3.4301768e-09
C0R700,枋山,2025-03-19,22.246844,120.661086,0.012931899
C0C460,復興,2025-03-19,24.820208,121.352281,6.553882e-09
E2H360,蓮華池,2025-03-19,23.918333,120.885278,9.488864e-10
C0M640,中埔,2025-03-19,23.42538,120.5229,3.5295844e-09
C0W140,金沙,2025-03-19,24.488292,118.408778,1.2931145e-07
C2A540,四堵,2025-03-19,24.8926,121.745736,4.3468074e-09
C0ACA0,新莊,2025-03-19,25.051478,121.446756,1.4077854e-08
C0R220,潮州,2025-03-19,22.534361,120.54,2.383488e-06
U2HA40,臺大內茅埔,2025-03-19,23.689722,120.851117,2.7774074e-09
467490,臺中,2025-03-19,24.145736,120.684075,7.800092e-09
C0U960,翠峰湖,2025-03-19,24.510856,121.608044,1.5167075e-08
E2HA20,林試畢祿溪站,2025-03-19,24.226944,121.308522,8.077666e-09
C0V890,前鎮,2025-03-19,22.5718,120.3117,1.8583762e-06
467620,蘭嶼,2025-03-19,22.036969,121.558339,0.9999883
C1F941,雪嶺,2025-03-19,24.280586,121.026642,1.5242739e-08
C2H9E0,國姓南港,2025-03-19,23.911108,120.846556,9.638679e-10
C0AC80,文山,2025-03-19,25.00235,121.575728,8.051639e-09
C0F9R0,龍井,2025-03-19,24.184536,120.528972,3.5651418e-08
C0M760,民雄,2025-03-19,23.551754,120.428457,4.2862047e-09
C0UA40,西德山,2025-03-19,24.560647,121.752608,1.2078484e-08
C1T920,中興,2025-03-19,23.769503,121.498653,1.2325007e-08
C0D550,雪霸,2025-03-19,24.526972,121.11605,4.11072e-09
C2F860,梨山,2025-03-19,24.247522,121.243669,8.3667935e-09
C0R320,車城,2025-03-19,22.0744,120.716247,0.81474006
C1S870,南美山,2025-03-19,23.15025,121.382333,1.0933668e-08
C0B020,基隆嶼,2025-03-19,25.19141,121.78391,1.11607235e-07
C1U501,牛鬥,2025-03-19,24.637836,121.573656,5.918466e-09
C0M730,嘉義市東區,2025-03-19,23.457673,120.460531,1.8623254e-08
C0S700,知本,2025-03-19,22.684866,121.005642,1.3351111e-08
C1N001,沙崙,2025-03-19,22.935472,120.309406,4.0907144e-06
C0V760,橋頭,2025-03-19,22.757806,120.30575,1.1995105e-07
C0G960,福寶,2025-03-19,24.0443,120.3814,1.4149569e-08
C0X210,白河,2025-03-19,23.347466,120.414427,5.341189e-07
C0S810,東河,2025-03-19,22.972672,121.303986,7.4064155e-07
C2R170,屏東,2025-03-19,22.66027,120.49403,0.00014975271
C0R670,楓港,2025-03-19,22.190131,120.692156,0.83541876
C0FA50,霧峰,2025-03-19,24.0419,120.6995,4.7815156e-09
C0UB10,蘇澳,2025-03-19,24.5969,121.8571,2.2832142e-08
C0G950,防潮門,2025-03-19,24.1835,120.4871,3.5651418e-08
C0M740,六腳,2025-03-19,23.492871,120.290625,8.365868e-09
C1R250,力里,2025-03-19,22.428117,120.629228,2.5093042e-08
C0K330,虎尾,2025-03-19,23.719183,120.442036,2.12989e-09
C2FA00,烏石坑,2025-03-19,24.273503,120.947617,2.2158042e-09
C0V620,永安,2025-03-19,22.82315,120.236856,8.881252e-08
C1I330,楓樹林,2025-03-19,23.986803,121.076117,9.697244e-10
C0W200,湖西,2025-03-19,23.596314,119.67275,0.96523345
72Q010,高雄農改場,2025-03-19,22.709333,120.525889,4.222462e-05
C0SA40,瑞和,2025-03-19,22.974361,121.156697,1.6861998e-07
C0C680,龜山,2025-03-19,25.02846,121.38656,9.317077e-09
C2V260,月眉,2025-03-19,22.971003,120.539853,3.4897564e-08
C0V450,鳳森,2025-03-19,22.545064,120.392592,1.3352611e-06
C0U720,南山,2025-03-19,24.43742,121.38167,3.9157717e-09
A2N290,臺南蘭花園區,2025-03-19,23.340258,120.379661,7.2676045e-08
C0R560,新園,2025-03-19,22.5434,120.461558,8.483503e-06
C0U890,三星,2025-03-19,24.66812,121.65302,7.488253e-09
C1V300,御油山,2025-03-19,23.001983,120.715364,1.1120618e-09
C0U600,礁溪,2025-03-19,24.817539,121.765608,3.8261794e-09
C1T980,龍澗,2025-03-19,24.023289,121.411328,2.0409685e-08
C0D670,海天一線,2025-03-19,24.831986,120.914438,0.05923669
C0SA00,歷坵,2025-03-19,22.520969,120.89185,1.044389e-08
C0M710,東石,2025-03-19,23.458927,120.15385,8.758796e-09
C0M780,鹿草,2025-03-19,23.41134,120.30835,1.8326556e-08
C0U520,雙連埤,2025-03-19,24.753033,121.641303,5.9118883e-09
C0B010,七堵,2025-03-19,25.094819,121.71713,7.6276185e-09
C0R480,長治,2025-03-19,22.693128,120.542622,0.00013752028
C1V830,國三S383K,2025-03-19,22.781967,120.426475,1.0494513e-07
12Q980,恆春工作站,2025-03-19,22.079678,120.714425,0.81474006
C1O940,東山服務區,2025-03-19,23.286016,120.398472,5.441129e-07
C1U840,東澳嶺,2025-03-19,24.5378,121.8485,8.850573e-09
C1D630,飛鳳山,2025-03-19,24.766464,121.119178,6.5598846e-09
C0S940,石寧山,2025-03-19,23.223772,121.406639,8.648436e-09
C0K410,北港,2025-03-19,23.573957,120.292802,7.601665e-09
C2M620,瑞里,2025-03-19,23.545133,120.675197,1.5516233e-09
C0SB70,小港漁港,2025-03-19,23.158558,121.400431,7.945523e-08
C2O950,安南,2025-03-19,23.076694,120.144861,9.53246e-09
C0F0E0,南湖圈谷,2025-03-19,24.363714,121.444667,1.7866649e-08
467610,成功,2025-03-19,23.097486,121.373428,2.8254044e-07
C0G890,伸港,2025-03-19,24.148933,120.484403,1.4261307e-08
C2E540,龍溪,2025-03-19,24.606489,120.783933,2.8939043e-08
C1V200,梅山,2025-03-19,23.268447,120.823556,1.5171464e-09
C0T9H0,加路蘭山,2025-03-19,23.682947,121.5274,1.7788848e-08
C2O930,玉井,2025-03-19,23.126042,120.46055,3.0819674e-08
C1F911,新伯公,2025-03-19,24.221361,120.841069,1.4877851e-09
C0R490,九如,2025-03-19,22.7405,120.490503,5.1577445e-05
C0X200,左鎮,2025-03-19,23.056758,120.408522,5.102843e-07
C0SB50,叭嗡嗡,2025-03-19,23.047062,121.343223,2.5600834e-06
C1F891,稍來,2025-03-19,24.265689,121.001142,7.77545e-09
72N240,七股研究中心,2025-03-19,23.081672,120.062894,1.0647277e-08
C0C700,中壢,2025-03-19,24.977661,121.256375,7.963164e-09
C0M690,水上,2025-03-19,23.419734,120.388909,1.7876602e-08
C0V690,鼓山,2025-03-19,22.623325,120.275575,1.4913323e-06
C0O860,大內,2025-03-19,23.11885,120.36083,1.5752143e-08
C0Z200,萬榮,2025-03-19,23.709219,121.420106,1.7683133e-08
C0T9D0,和中,2025-03-19,24.26676,121.74103,7.2703635e-08
C1O921,楠西,2025-03-19,23.183511,120.484083,5.332246e-08
C0AJ30,淡水觀海,2025-03-19,25.184591,121.408616,7.5338555e-08
C0V810,左營,2025-03-19,22.67491,120.28491,2.3189838e-08
C0UA70,桃源谷,2025-03-19,24.962606,121.888875,7.893829e-09
C0X130,官田,2025-03-19,23.193217,120.315422,2.0366599e-08
C1H000,翠峰,2025-03-19,24.109397,121.205211,3.0570135e-09
C0UA90,石城,2025-03-19,24.980444,121.951214,6.655529e-09
C1E681,南勢山,2025-03-19,24.421669,120.923831,2.1137343e-09
C0A9F0,內湖,2025-03-19,25.079422,121.57545,1.4091636e-08
C0K291,宜梧,2025-03-19,23.536281,120.169329,1.0856178e-08
C1K540,口湖,2025-03-19,23.585344,120.180517,1.384254e-06
C0R780,滿州,2025-03-19,22.024403,120.839892,0.6964338
C0V870,文安,2025-03-19,22.8025,120.2164,9.527464e-08
C0U650,玉蘭,2025-03-19,24.675286,121.587061,5.8756684e-09
C0R640,東港,2025-03-19,22.46247,120.44074,3.3200636e-06
K2E360,苗栗農改,2025-03-19,24.495722,120.829111,3.790386e-08
C0AJ80,板橋,2025-03-19,25.0107,121.4489,9.147226e-09
C0S660,下馬,2025-03-19,23.150427,121.070312,1.1874023e-08
C1H9B1,阿眉,2025-03-19,24.1263,120.994672,1.1127348e-08
C0UA20,多加屯,2025-03-19,24.368614,121.373189,9.258617e-09
C0E730,頭份,2025-03-19,24.688247,120.912206,1.4400017e-07
72V140,高改旗南分場,2025-03-19,22.857861,120.516667,1.2155415e-07
C0K480,莿桐,2025-03-19,23.761192,120.502372,3.5889849e-09
C0U980,坪林石牌,2025-03-19,24.86478,121.77396,5.944759e-09
C0T900,西林,2025-03-19,23.8119,121.441458,9.287358e-09
C1I150,青雲,2025-03-19,23.793361,120.949378,1.2047325e-09
467350,澎湖,2025-03-19,23.565503,119.563094,0.99061567
C0G800,埔鹽,2025-03-19,24.000394,120.431683,8.861552e-09
C0H960,草屯,2025-03-19,23.973672,120.68085,4.1089177e-09
C1V780,多納林道,2025-03-19,22.888028,120.737917,4.2764522e-10
C0E920,通霄漁港,2025-03-19,24.498589,120.673876,5.9413407e-05
C0Z330,安通山,2025-03-19,23.290728,121.348528,3.4361292e-09
C0AH10,永和,2025-03-19,25.01125,121.508111,9.147226e-09
C0AK10,太平里,2025-03-19,25.134937,121.364899,1.3792503e-07
C2G640,鹿港,2025-03-19,24.0753,120.430481,1.4149569e-08
C1E890,國三N149K,2025-03-19,24.463414,120.680019,2.6517273e-07
C1R110,口社,2025-03-19,22.770111,120.645222,0.0017524852
C1M870,國三N285K,2025-03-19,23.550319,120.505833,3.4310734e-09
467050,新屋,2025-03-19,25.006744,121.047486,2.656577e-07
C1E480,鳳美,2025-03-19,24.554803,121.034747,2.9798597e-09
C0M530,奮起湖,2025-03-19,23.493903,120.699253,1.7237094e-09
C0C590,觀音,2025-03-19,25.027072,121.153317,4.7987265e-07
C0T9M0,靜浦,2025-03-19,23.455167,121.495028,4.6222746e-09
C2H9M0,發祥,2025-03-19,24.154094,121.164517,7.78759e-09
C0AI40,石牌,2025-03-19,25.115597,121.513139,3.1657237e-08
C1F871,上谷關,2025-03-19,24.203483,121.018644,2.0560023e-09
C2H9G0,百勝,2025-03-19,24.051142,120.909361,1.7610018e-09
C0G880,二水,2025-03-19,23.810742,120.6173,3.0535947e-08
C0R940,加祿堂,2025-03-19,22.3363,120.6217,0.054570325
C0W220,北竿,2025-03-19,26.220358,119.974881,6.1745155e-08
C0O960,崎頂,2025-03-19,22.959547,120.369317,1.64037e-07
C0S750,向陽,2025-03-19,23.248397,120.986133,1.8873776e-09
C0T9F0,水璉,2025-03-19,23.797131,121.542514,8.490191e-09
C1M600,頭凍,2025-03-19,23.406364,120.603339,1.4111802e-09
467660,臺東,2025-03-19,22.752211,121.154586,0.00016396049
C1D380,新埔,2025-03-19,24.84745,121.03834,6.5941975e-08
C2G980,田頭村,2025-03-19,23.8263,120.444175,1.7912362e-09
C0V750,路竹,2025-03-19,22.854997,120.259439,2.8725984e-09
C0N050,蚵寮,2025-03-19,23.301,120.1104,4.572965e-09
72M700,南改鹿草分場,2025-03-19,23.416869,120.283061,2.0956747e-08
C1SA50,利嘉林道,2025-03-19,22.82325,121.009389,1.9695972e-09
467550,玉山,2025-03-19,23.487614,120.959522,3.4646536e-08
C0A940,金山,2025-03-19,25.223628,121.643967,1.703947e-08
C1V340,大津,2025-03-19,22.888322,120.645986,0.0005979623
C0W180,七美,2025-03-19,23.219333,119.444892,0.9980574
C1F9C1,白冷,2025-03-19,24.182844,120.929889,1.0301028e-09
K2E710,苗改生物防治研究中心,2025-03-19,24.422861,120.871833,3.1494007e-09
C0N040,蘆竹溝,2025-03-19,23.2344,120.0961,3.5314833e-09
C2W230,畜試所澎湖,2025-03-19,23.628342,119.513206,0.98759675
C0R880,後壁湖,2025-03-19,21.9457,120.7457,0.22550093
C1I280,埔中,2025-03-19,23.820778,120.642594,1.0177211e-09
467790,墾丁雷達站,2025-03-19,21.948235,120.808028,0.5317725
C0W190,望安,2025-03-19,23.380564,119.494075,0.99206555
466881,新北,2025-03-19,24.9593,121.52,3.836602e-08
C0Z170,卓溪,2025-03-19,23.3443,121.3029,4.4178794e-09
C0F850,東勢,2025-03-19,24.246428,120.833047,1.1099955e-09
466900,淡水,2025-03-19,25.164889,121.448906,1.3792503e-07
C0I370,魚池,2025-03-19,23.895703,120.94135,7.512941e-10
C0C630,大溪,2025-03-19,24.882853,121.265547,1.4575575e-08
C0A520,山佳,2025-03-19,24.974944,121.402008,5.0815836e-09
C0I110,竹山,2025-03-19,23.761225,120.688156,1.2806034e-08
82H840,茶改南部分場,2025-03-19,23.762528,120.7405,1.0954767e-09
C0G660,溪湖,2025-03-19,23.94835,120.479122,1.5864419e-09
C1T800,洛韶,2025-03-19,24.204558,121.453956,2.140745e-08
C1T810,慈恩,2025-03-19,24.192044,121.388386,1.3226831e-09
C1E451,象鼻,2025-03-19,24.368617,120.940228,1.48512e-09
C0AC60,三峽,2025-03-19,24.939025,121.369728,1.313976e-08
C0I490,萬大林道,2025-03-19,23.928228,121.091411,1.6009901e-09
C1I290,豐丘,2025-03-19,23.668178,120.887417,1.9540758e-09
C1I320,奧萬大,2025-03-19,23.952956,121.178556,1.1137917e-09
C2M910,嘉義大學,2025-03-19,23.471325,120.485903,9.7699875e-09
C0U770,南澳,2025-03-19,24.44935,121.81022,1.08856e-08
C0A980,社子,2025-03-19,25.109508,121.469681,1.5181321e-07
C0V800,六龜,2025-03-19,22.997889,120.633583,3.0299625e-09
C1G9D0,國一S218K,2025-03-19,23.890641,120.493253,1.9497348e-09
C0E570,白沙屯,2025-03-19,24.549447,120.696803,0.0001418178
C2F9A0,中竹林,2025-03-19,24.103556,120.751061,2.114182e-09
C0FA40,臺中電廠,2025-03-19,24.2146,120.4907,3.5651418e-08
C2G9A0,畜試所彰化,2025-03-19,23.86045,120.557964,5.7990572e-09
C0H9C0,合歡山,2025-03-19,24.143442,121.272547,1.4755885e-08
C0X060,下營,2025-03-19,23.22695,120.256261,5.6067946e-09
G2M350,農試溪口農場,2025-03-19,23.58565,120.408111,4.422837e-09
C0U860,頭城,2025-03-19,24.85323,121.8308,3.89092e-09
C0R580,南州,2025-03-19,22.48591,120.50274,3.3200636e-06
C0D430,峨眉,2025-03-19,24.6905,121.017189,1.34878935e-08
C0G780,秀水,2025-03-19,24.03405,120.503869,1.3392704e-09
72N100,臺南農改場,2025-03-19,23.0605,120.342194,1.2904627e-08
C0S900,蘭嶼高中,2025-03-19,22.04909,121.51214,0.9966867
467540,大武,2025-03-19,22.355675,120.903789,0.99409896
C1F9W0,德基,2025-03-19,24.254783,121.190261,6.0025482e-09
C1Z120,壽豐,2025-03-19,23.870853,121.508081,1.5288773e-08
C0W160,烏坵,2025-03-19,24.9944,119.44956,1.3624398e-06
C1I240,外大坪,2025-03-19,23.958697,120.917931,1.1877959e-09
C1I550,國六W023K,2025-03-19,23.979067,120.867742,1.583132e-09
C0R870,興海,2025-03-19,21.9752,120.8439,0.39364076
C0R140,瑪家,2025-03-19,22.682903,120.686639,6.168942e-10
C0A530,坪林,2025-03-19,24.938183,121.70975,4.300486e-09
C0X260,後壁,2025-03-19,23.366358,120.362326,7.2676045e-08
C0Z230,和平,2025-03-19,24.30717,121.77007,8.366573e-08
C0G770,福興,2025-03-19,24.041289,120.437669,8.861552e-09
C0H9A0,神木村,2025-03-19,23.532742,120.843667,2.3322366e-09
C0I460,南投,2025-03-19,23.911469,120.687331,3.7027654e-08
C0I480,梅峰,2025-03-19,24.085272,121.173572,2.5627558e-09
C1V570,吉東,2025-03-19,22.85422,120.5454,8.130859e-08
C2D740,屯原,2025-03-19,24.067969,121.209389,2.0703301e-09
C2A560,福山,2025-03-19,24.776203,121.502811,1.2287357e-08
C0AH30,五分山,2025-03-19,25.07125,121.780794,6.63244e-09
C0FA10,松柏,2025-03-19,24.429115,120.617482,4.5412375e-07
72S200,東改班鳩分場,2025-03-19,22.829528,121.077694,1.6078642e-08
72HA00,中改埔里分場,2025-03-19,23.903208,120.963364,9.675554e-10
C2H9W0,大坪頂農水,2025-03-19,24.043122,120.932781,9.81773e-10
C0C650,平鎮,2025-03-19,24.897503,121.214636,9.170005e-09
C0S930,延平,2025-03-19,22.902581,121.084058,5.2422628e-08
C0UA60,樟樹山,2025-03-19,24.41393,121.78325,4.2498833e-08
C1S670,摩天,2025-03-19,23.199503,121.027,1.3218414e-08
C0V630,茄萣,2025-03-19,22.906642,120.182608,3.218557e-09
466940,基隆,2025-03-19,25.133314,121.740475,6.583299e-09
C0X050,東河,2025-03-19,23.296598,120.385608,1.1860587e-06
C0R770,保力,2025-03-19,22.071122,120.764111,0.99448794
G2L020,農試嘉義分所,2025-03-19,23.485028,120.473806,3.809569e-09
C0X240,關子嶺,2025-03-19,23.331169,120.508025,3.242322e-09
C0I380,集集,2025-03-19,23.828206,120.801467,2.035226e-09
466990,花蓮,2025-03-19,23.975128,121.613275,2.8435475e-06
C1V220,小關山,2025-03-19,23.154217,120.813603,1.3699114e-09
C1F9G1,慶福山,2025-03-19,24.180853,120.848378,1.2139475e-09
C0Z250,瑞穗林道,2025-03-19,23.49284,121.30688,1.2405714e-08
C0D590,新豐,2025-03-19,24.87068,120.97721,0.0031915593
C0A870,五指山,2025-03-19,25.132153,121.608692,7.330206e-09
C0UA50,西帽山,2025-03-19,24.555361,121.802628,1.0168214e-08
C0X160,仁德,2025-03-19,22.968258,120.257689,1.1199679e-08
C1H971,六分寮,2025-03-19,23.92507,120.6378,3.3453975e-09
C0W120,西嶼,2025-03-19,23.5626,119.468436,0.9886409
C0G650,員林,2025-03-19,23.946503,120.585597,7.947232e-09
C0AD50,鶯歌,2025-03-19,24.951533,121.346294,1.22760655e-08
C2H9Q0,北東眼山,2025-03-19,24.120939,121.189303,7.162902e-09
C2H9T0,名間竹圍,2025-03-19,23.859914,120.637572,1.4515614e-09
C0S990,山豬窟,2025-03-19,22.318619,120.857372,2.6521218e-07
72Q010,高雄農改,2025-03-19,22.709333,120.525889,0.0043974463
C0X190,安平,2025-03-19,22.993161,120.152181,4.055853e-09
C0K400,斗六,2025-03-19,23.720583,120.541127,2.2170472e-09
12J990,口湖工作站,2025-03-19,23.589978,120.180394,1.384254e-06
C0O830,北寮,2025-03-19,23.079561,120.495008,1.6148162e-08
C1D410,白蘭,2025-03-19,24.579364,121.079947,4.0220494e-09
C0S970,加津林,2025-03-19,22.416211,120.926942,0.00022827717
C0D700,關西,2025-03-19,24.7977,121.1732,1.2304689e-08
C0M810,里佳,2025-03-19,23.389125,120.716647,1.4622794e-09
C0U750,龜山島,2025-03-19,24.841667,121.953133,2.5390827e-07
C0R810,內獅,2025-03-19,22.305064,120.642986,0.05561692
C1M390,龍美,2025-03-19,23.406728,120.654417,1.3032329e-09
C2FB60,頭櫃山,2025-03-19,24.129842,120.858925,1.8153467e-09
C1H840,國三N238K,2025-03-19,23.841008,120.707711,1.7242947e-09
CAQ030,崎峰國小,2025-03-19,22.42565,120.49521,3.3200636e-06
C2E520,大湖,2025-03-19,24.414939,120.870872,3.1861969e-09
467530,阿里山,2025-03-19,23.508208,120.813242,6.0430763e-09
C1E691,南湖,2025-03-19,24.40135,120.837533,1.7932941e-09
C0FA30,梧棲,2025-03-19,24.256003,120.523381,6.3564606e-08
C1V231,高中,2025-03-19,23.134911,120.716711,8.2632107e-10
C0AK30,硬漢嶺,2025-03-19,25.136097,121.426372,7.12876e-09
C0F9V0,新社,2025-03-19,24.200172,120.815806,1.1350771e-09
C0H890,埔里,2025-03-19,23.972169,120.952425,1.4019113e-09
C0R690,墾丁,2025-03-19,21.966756,120.810269,0.9897223
C0F0D0,審馬陣,2025-03-19,24.381675,121.4203,1.37705864e-08
C2W030,金門農試所,2025-03-19,24.448431,118.451786,2.9150368e-07
C0R820,白鷺,2025-03-19,22.454275,120.666219,2.2257372e-09
U2H480,臺大溪頭,2025-03-19,23.670306,120.798194,4.611918e-09
C1V190,南天池,2025-03-19,23.27403,120.91176,2.4288827e-09
K2E360,苗栗農改場,2025-03-19,24.495722,120.829111,1.2784338e-08
CAJ050,海口故事園區,2025-03-19,23.57543,120.14121,1.384254e-06
C2H9D0,三隻寮,2025-03-19,24.093078,120.861578,9.742981e-10
C0O990,媽廟,2025-03-19,22.99175,120.293525,2.411265e-08
C0D480,打鐵坑,2025-03-19,24.849664,121.150789,1.2648996e-08
C0Z220,和平林道,2025-03-19,24.343922,121.656317,7.228726e-09
C0TA10,花蓮漁港,2025-03-19,23.995322,121.638331,4.8798397e-06
72C440,桃園農改場,2025-03-19,24.950944,121.030583,5.450836e-07
C1E711,馬拉邦山,2025-03-19,24.367306,120.901656,1.5296493e-09
C0SB20,富岡,2025-03-19,22.792467,121.192669,4.4920575e-06
C0D560,竹東,2025-03-19,24.767147,121.057881,1.2673072e-08
C0F9U0,南屯,2025-03-19,24.137006,120.637969,1.8891027e-09
C0M720,番路,2025-03-19,23.464657,120.554156,1.9707471e-09
C0F0A0,雪山圈谷,2025-03-19,24.388594,121.236339,2.0391942e-08
C1A9N0,四十份,2025-03-19,24.934158,121.593283,5.225659e-09
C0U760,東澳,2025-03-19,24.52196,121.83318,1.7315298e-08
C0X230,鹽水,2025-03-19,23.272621,120.247641,4.2489248e-09
C2H9H0,苗改南投蜂場,2025-03-19,23.852589,120.693481,1.1549466e-08
C0R950,萬隆國小,2025-03-19,22.507667,120.587817,9.375432e-07
467540,大武,2025-03-19,22.35572,120.90374,0.0012148162
C0V370,古亭坑,2025-03-19,22.893178,120.401947,9.167805e-08
C1I340,新興橋,2025-03-19,23.563333,120.868728,1.5324557e-09
C0SA80,土坂,2025-03-19,22.453108,120.887572,8.488624e-08
C0R160,鹽埔,2025-03-19,22.739558,120.530778,4.222462e-05
C0AC40,大屯山,2025-03-19,25.175675,121.522408,1.7550375e-08
466850,五分山雷達站,2025-03-19,25.071182,121.781205,6.6372867e-09
C2H9L0,馬烈霸,2025-03-19,24.1512,121.201772,7.0750237e-09
C1AI50,國三N016K,2025-03-19,25.034164,121.619664,1.2513439e-08
C1V600,藤枝,2025-03-19,23.071961,120.757042,9.142511e-10
C1E601,南勢,2025-03-19,24.572486,120.734842,2.7191347e-06
C0Z180,新城,2025-03-19,24.03946,121.60454,2.4112803e-06
C0O980,新市,2025-03-19,23.061614,120.298197,2.3687754e-08
C0K420,西螺,2025-03-19,23.800407,120.467394,1.7411462e-09
C0Z050,佳心,2025-03-19,23.34567,121.21316,2.2622075e-08
C0AD30,蘆洲,2025-03-19,25.086594,121.472331,1.4185535e-08
C0V610,梓官,2025-03-19,22.760558,120.267211,1.1976324e-07
K2F750,種苗改良場,2025-03-19,24.225972,120.800917,1.2569935e-09
C0UA80,大溪漁港,2025-03-19,24.941801,121.902955,5.307718e-09
C1AI60,國一39K邊坡,2025-03-19,25.064361,121.383836,9.659443e-09
C0W150,金寧,2025-03-19,24.457703,118.328989,2.8043502e-07
C0R960,內埔,2025-03-19,22.608483,120.570714,4.0586143e-05
V2C250,八德合作社,2025-03-19,24.93775,121.266389,1.0179061e-08
C2H9S0,龍南,2025-03-19,23.953536,120.833183,1.086736e-09
C0AH40,平等,2025-03-19,25.129142,121.577086,7.009917e-09
C0R540,佳冬,2025-03-19,22.419456,120.552375,1.6227889e-06
466950,彭佳嶼,2025-03-19,25.627975,122.079744,3.656313e-06
C0A890,雙溪,2025-03-19,25.036003,121.864242,6.202712e-09
C0C480,桃園,2025-03-19,24.992425,121.323172,8.308335e-09
C0AH50,林口,2025-03-19,25.072181,121.38084,9.2257935e-09
A2K360,水試臺西試驗場,2025-03-19,23.717231,120.190522,6.1553084e-07
B2N890,畜試所,2025-03-19,23.058972,120.336406,0.0019598643
C2M960,外寮,2025-03-19,23.562643,120.665688,1.4289318e-09
C0F9S0,烏日,2025-03-19,24.107058,120.624103,7.8694e-09
C0C490,八德,2025-03-19,24.928708,121.283289,9.993515e-09
C0R190,赤山,2025-03-19,22.592333,120.614306,3.829216e-05
C0T820,天祥,2025-03-19,24.179597,121.495639,2.8456496e-08
C1F9E1,龍安,2025-03-19,24.1605,120.831961,1.3778567e-09
C0V820,小林,2025-03-19,23.148408,120.63325,1.420142e-09
C2G870,芳苑,2025-03-19,23.922303,120.320025,0.10448445
C0E850,大河,2025-03-19,24.618069,120.948578,8.412109e-09
C1U670,寒溪,2025-03-19,24.634,121.71691,2.5153313e-09
C0N020,城西,2025-03-19,23.0568,120.0956,4.055853e-09
C1Z110,三棧,2025-03-19,24.11557,121.60501,2.2923253e-08
C0R280,檳榔,2025-03-19,22.076078,120.836777,0.7813887
C2H9J0,中台,2025-03-19,23.9996,120.938739,1.1382381e-09
C0F9L0,后里,2025-03-19,24.310436,120.729725,1.2448849e-09
467441,高雄,2025-03-19,22.730432,120.312516,1.097567e-07
C0Z180,新城,2025-03-19,24.040486,121.604878,2.4101605e-06
C0D540,橫山,2025-03-19,24.71116,121.11693,7.689569e-09
C1D420,太閣南,2025-03-19,24.632808,121.160575,3.9325747e-09
C1E770,公館,2025-03-19,24.526914,120.830806,1.3369281e-08
CAN130,水試所海水繁養殖中心,2025-03-19,23.120802,120.07968,1.0647277e-08
C1I430,翠華,2025-03-19,24.191961,121.224339,3.9083847e-09
C1M400,菜瓜坪,2025-03-19,23.251928,120.576103,2.5243574e-09
C0G730,二林,2025-03-19,23.903325,120.376081,8.6106935e-09
72M360,南改義竹分場,2025-03-19,23.360694,120.279361,7.235347e-09
V2K620,麥寮合作社,2025-03-19,23.753836,120.294783,4.0265933e-09
C0Z070,舞鶴,2025-03-19,23.46811,121.37407,3.1786154e-09
C0B040,大武崙,2025-03-19,25.166676,121.706993,6.4139902e-09
C1Z030,紅葉,2025-03-19,23.493119,121.338806,3.1987892e-09
C1I050,丹大,2025-03-19,23.753747,121.141147,2.1853952e-09
C0I080,信義,2025-03-19,23.689694,120.851036,2.7774074e-09
C2M920,朴子農改,2025-03-19,23.469889,120.259383,2.0960824e-08
C2A880,福隆,2025-03-19,25.017842,121.942083,6.6858865e-09
C0Z160,鳳林,2025-03-19,23.746114,121.453411,2.0208644e-08
C0V210,復興,2025-03-19,23.222403,120.806089,4.3165684e-09
C0H990,昆陽,2025-03-19,24.121322,121.273642,7.4948545e-09
C0R741,獅子,2025-03-19,22.202308,120.705236,0.97685605
C0S710,鹿野,2025-03-19,22.917711,121.122994,1.9314879e-08
C0I530,小奇萊,2025-03-19,24.131764,121.295717,8.122005e-09
C2K630,荷苞,2025-03-19,23.657717,120.595144,3.276283e-09
C0Z080,富源,2025-03-19,23.587642,121.378225,2.2974683e-08
467441,高雄,2025-03-19,22.7304,120.3125,0.0007338001
C0SB10,美和,2025-03-19,22.682078,121.060236,1.2509782e-05
C2K620,馬光農場,2025-03-19,23.721453,120.378864,2.2951285e-09
C1I140,卡奈托灣,2025-03-19,23.754364,121.087872,8.7650753e-10
C0I520,玉山風口,2025-03-19,23.470489,120.955994,2.2235954e-08
C1G691,下水埔,2025-03-19,23.816114,120.5676,3.2167464e-09
C0X110,臺南市南區,2025-03-19,22.961189,120.188378,1.1207522e-08
C0V680,仁武,2025-03-19,22.701083,120.347722,2.3208244e-08
C2G840,北斗,2025-03-19,23.877586,120.514222,1.8850104e-09
C0R900,竹坑,2025-03-19,22.1385,120.7022,0.82778823
C0K250,崙背,2025-03-19,23.75555,120.318925,4.0265933e-09
C0G860,社頭,2025-03-19,23.897647,120.5862,6.325074e-09
C0X150,安定,2025-03-19,23.102614,120.227839,1.27236435e-08
C0R590,里港,2025-03-19,22.77919,120.49459,1.3077026e-06
C0E610,馬都安,2025-03-19,24.451272,120.930192,1.861355e-09
C0E550,明德,2025-03-19,24.583486,120.885411,1.39015075e-08
C0R150,三地門,2025-03-19,22.709889,120.639944,0.0020273323
C0G910,花壇,2025-03-19,24.032076,120.549461,1.2605301e-09
C1D400,鳥嘴山,2025-03-19,24.71909,121.28387,4.552453e-09
C0K500,元長,2025-03-19,23.64981,120.315024,3.908742e-09
C0F0B0,石岡,2025-03-19,24.276061,120.777644,1.1558849e-09
C2V250,甲仙,2025-03-19,23.080106,120.591758,2.4284381e-09
C0SA20,金崙山,2025-03-19,22.567419,120.959667,9.67794e-09
C0V350,溪埔,2025-03-19,22.738578,120.446797,5.0419967e-06
C0M660,溪口,2025-03-19,23.604131,120.403569,4.422837e-09
C1S880,壽卡,2025-03-19,22.238911,120.858903,1.3416625e-06
72D680,桃改新埔分場,2025-03-19,24.834444,121.066111,6.918098e-08
