站號,站名,日期,lat,lon,BLBTSLS
C0R710,龍磐,2025-04-12,21.931672,120.838942,0.99978036
C1F9D1,白毛台,2025-04-12,24.158325,120.886933,5.0612416e-09
C0G940,竹塘,2025-04-12,23.848253,120.386764,0.0002512924
467590,恆春,2025-04-12,22.003897,120.746339,0.98066837
C1O850,環湖,2025-04-12,23.148617,120.418633,1.8763502e-06
C0U710,太平山,2025-04-12,24.505486,121.525656,4.7769234e-08
C0E820,獅潭,2025-04-12,24.539133,120.920042,3.4317476e-09
C0V880,興達,2025-04-12,22.8778,120.2127,0.9999129
C0S890,關山,2025-04-12,23.0395,121.175017,0.00018430772
C0SB30,新蘭,2025-04-12,22.869214,121.223228,0.35306406
C2R970,屏科大,2025-04-12,22.648275,120.619247,0.20144929
C1Z130,銅門,2025-04-12,23.965694,121.492842,8.272239e-08
C0AD40,土城,2025-04-12,24.973208,121.445169,0.021975402
CAN140,六官養殖協會,2025-04-12,23.22881,120.29962,0.99888843
C0X180,山上,2025-04-12,23.0757,120.363253,0.99987143
C0F9Z0,雪山東峰,2025-04-12,24.388792,121.268675,5.0234185e-08
C1M480,獨立山,2025-04-12,23.537022,120.607797,2.1416262e-09
C0X220,學甲,2025-04-12,23.230367,120.182187,0.99890125
467650,日月潭,2025-04-12,23.881325,120.90805,7.6210895e-09
C0K600,箔子寮,2025-04-12,23.6197,120.14,0.00025420196
C0G830,埤頭,2025-04-12,23.866003,120.452806,0.00022459235
C0S950,七塊厝,2025-04-12,22.954453,121.229922,1.1461805e-06
467110,金門,2025-04-12,24.407306,118.289281,1.4248066e-08
C0AH80,深坑,2025-04-12,25.002703,121.628328,0.008770632
C0A970,三貂角,2025-04-12,25.007606,122.002058,1.3851352e-08
C2D730,寶山農場,2025-04-12,24.732444,120.976153,5.9833103e-09
C0K430,褒忠,2025-04-12,23.690938,120.303634,0.99128616
467480,嘉義,2025-04-12,23.495925,120.432906,2.953444e-05
C0V400,阿公店,2025-04-12,22.804194,120.355528,0.99993
467550,玉山,2025-04-12,23.48718,120.95943,5.688198e-08
C0R440,大漢山,2025-04-12,22.405264,120.753181,3.8639946e-08
C0K280,四湖,2025-04-12,23.630414,120.227125,0.9953011
C1F9B1,桐林,2025-04-12,24.066172,120.735194,0.9969336
C2H9U0,鳳鵬,2025-04-12,23.763919,120.788061,6.296246e-09
C0K390,土庫,2025-04-12,23.679029,120.395574,0.00023105461
C1I450,望鄉山,2025-04-12,23.594153,120.944286,3.9568263e-08
C0E910,海埔,2025-04-12,24.648767,120.772435,6.959037e-07
B2E890,畜試北區分所,2025-04-12,24.527806,120.770972,6.039449e-08
C0R750,四林格山,2025-04-12,22.076989,120.802439,0.9999763
C0F0C0,中坑,2025-04-12,24.248517,120.903319,5.603566e-09
C1I121,大鞍,2025-04-12,23.678381,120.760017,1.4488984e-08
72U480,花改蘭陽分場,2025-04-12,24.686306,121.716583,1.6378198e-08
C0A770,科教館,2025-04-12,25.096356,121.516507,0.030182483
C0AJ60,六塊厝,2025-04-12,25.24,121.4481,0.03267128
C0R620,墾雷,2025-04-12,21.900836,120.855269,0.9887049
467420,永康,2025-04-12,23.038386,120.2367,0.9999087
C0I410,名間,2025-04-12,23.837053,120.701447,2.514333e-07
A2C560,農工中心,2025-04-12,24.985917,121.239833,1.8737757e-07
C0V740,旗山,2025-04-12,22.888614,120.483597,0.9999258
C0Z061,玉里,2025-04-12,23.3215,121.339656,0.0024526487
C0S840,南田,2025-04-12,22.279725,120.889208,0.12900099
C1I470,杉林溪,2025-04-12,23.639517,120.786444,1.606641e-08
C1X040,東原,2025-04-12,23.291597,120.463822,7.437459e-05
C0R660,枋寮,2025-04-12,22.367722,120.590647,0.9996617
C1R120,上德文,2025-04-12,22.763272,120.704442,1.5169164e-07
C0K450,大埤,2025-04-12,23.646074,120.431537,0.00020681178
C0UA00,土場,2025-04-12,24.576533,121.495333,1.043358e-07
467080,宜蘭,2025-04-12,24.763975,121.756528,1.6597895e-08
C0N030,四草,2025-04-12,23.0235,120.1116,0.9991623
467410,臺南,2025-04-12,22.99328,120.20492,0.9999043
C0V650,彌陀,2025-04-12,22.783806,120.246361,0.99993604
C0D660,新竹市東區,2025-04-12,24.798681,120.986942,2.2103268e-07
82S580,茶改東部分場,2025-04-12,22.907694,121.130139,0.000448137
C0SB40,興隆,2025-04-12,22.913661,121.257469,0.20302556
467050,新屋,2025-04-12,25.006725,121.047492,4.6490982e-07
C0C710,大溪永福,2025-04-12,24.892936,121.324975,1.5741651e-07
C0FA20,溫寮,2025-04-12,24.372177,120.583125,0.9998193
C0V640,湖內,2025-04-12,22.887139,120.2445,0.9999087
C0R910,下寮,2025-04-12,22.3929,120.5548,0.9996617
C0Z020,明里,2025-04-12,23.208717,121.262342,0.00015814824
C0M770,嘉義梅山,2025-04-12,23.585398,120.555587,4.1652402e-07
C0C660,楊梅,2025-04-12,24.912375,121.143047,1.10189006e-07
C1E511,新開,2025-04-12,24.347703,120.827019,1.4099943e-08
G2F820,農試所(霧峰),2025-04-12,24.031261,120.688133,0.9994859
C1I070,和社,2025-04-12,23.591131,120.888861,4.0128562e-08
C2F000,大肚,2025-04-12,24.15295,120.572117,1.4984712e-08
C1S850,豐南,2025-04-12,23.122139,121.262389,4.810911e-07
C2A920,富貴角,2025-04-12,25.263783,121.565258,0.00023427405
CAH030,茶改場竹圍站,2025-04-12,23.860083,120.637528,8.7262086e-10
C0T960,光復,2025-04-12,23.660694,121.424964,1.08799796e-07
C0F9M0,豐原,2025-04-12,24.254322,120.720692,7.849028e-09
C0R720,旭海,2025-04-12,22.205403,120.887614,2.5978927e-05
C0V710,苓雅,2025-04-12,22.622742,120.330669,0.99993366
C0C740,觀音工業區,2025-04-12,25.064764,121.114856,5.3588116e-07
CAC040,拉拉山,2025-04-12,24.699317,121.427133,2.2671923e-08
C0V790,萬山,2025-04-12,22.905944,120.688056,2.0183442e-09
U2HA30,臺大和社,2025-04-12,23.590856,120.888864,4.0128562e-08
C0AJ90,澳底,2025-04-12,25.0552,121.9253,1.6578436e-08
C0Z100,東華,2025-04-12,23.89525,121.549833,2.2423463e-07
C0G970,三豐,2025-04-12,23.882,120.2895,0.9963221
V2K610,大庄合作社,2025-04-12,23.8068,120.367939,0.9898559
C0V900,汕尾,2025-04-12,22.4782,120.4151,0.999667
C1R630,龍泉,2025-04-12,22.66701,120.59091,0.826528
C1AC50,關渡,2025-04-12,25.133486,121.469331,0.0019358543
C0F9I0,神岡,2025-04-12,24.272481,120.658314,1.04470175e-08
C0K460,斗南,2025-04-12,23.678734,120.478359,0.00011508362
C2O810,曾文,2025-04-12,23.219681,120.497328,0.0008178382
467280,後龍,2025-04-12,24.648563,120.831834,3.3339117e-07
C1F9J1,清水林,2025-04-12,24.071242,120.820419,1.9243862e-09
C2A650,火燒寮,2025-04-12,25.002719,121.742892,1.224062e-08
466930,竹子湖,2025-04-12,25.162078,121.544547,8.96695e-09
C1I220,樟湖,2025-04-12,23.905333,120.846983,8.147762e-09
C0I390,仁愛,2025-04-12,24.022122,121.132206,8.271841e-09
C0Z300,東里,2025-04-12,23.26853,121.30547,0.0011253036
C1V590,新發,2025-04-12,23.057019,120.646064,4.977958e-09
C0K510,水林,2025-04-12,23.572924,120.24597,0.00016088557
72S590,東改賓朗果園,2025-04-12,22.813889,121.071278,1.5516203e-05
82A750,茶改北部分場,2025-04-12,24.955778,121.631222,7.0078316e-09
C1A750,石碇服務區,2025-04-12,25.00872,121.646242,0.005275993
C0X300,鹿寮,2025-04-12,23.386047,120.477331,2.4681753e-05
G2AI50,關渡,2025-04-12,25.11575,121.492,0.032854002
C0K590,雲林東勢,2025-04-12,23.674192,120.255721,0.99075955
C0A570,桶後,2025-04-12,24.848222,121.597992,1.9779883e-07
C1S800,華源,2025-04-12,22.657883,121.02325,0.00863999
C0G720,溪州,2025-04-12,23.851589,120.499093,0.00011687575
C1V160,達卡努瓦,2025-04-12,23.279811,120.705319,5.953269e-09
C2M410,馬頭山,2025-04-12,23.324361,120.582017,4.068591e-09
C0V850,蚵仔寮,2025-04-12,22.7256,120.2527,0.9999367
C0S740,池上,2025-04-12,23.119628,121.209469,1.7615874e-05
C1V390,尖山,2025-04-12,22.813153,120.367789,0.9999234
C0AH70,松山,2025-04-12,25.04871,121.55042,0.02278526
C0N010,鯤鯓國小,2025-04-12,23.1879,120.0889,0.99913687
C0R550,新埤,2025-04-12,22.467947,120.582894,0.9996239
C0SA60,知本（水試所）,2025-04-12,22.702394,121.082761,0.9778069
C0T9I0,豐濱,2025-04-12,23.583897,121.514806,1.0588005e-07
C0UB00,淡江大學蘭陽校園,2025-04-12,24.823239,121.730383,1.03605995e-08
C0W240,九宮,2025-04-12,24.423753,118.240186,1.4390606e-08
C0T9N0,富里,2025-04-12,23.171639,121.249378,5.3706666e-05
U2HA50,臺大竹山,2025-04-12,23.756972,120.681556,2.6173691e-07
C0V840,鳳鼻頭,2025-04-12,22.5083,120.3591,0.9999367
C0X140,西港,2025-04-12,23.125608,120.203108,0.99888283
72D080,桃改五峰分場,2025-04-12,24.612194,121.157167,6.1486345e-09
C2H9P0,伊拿谷,2025-04-12,23.963211,121.088264,7.4282918e-09
C2H9F0,柑林,2025-04-12,24.018658,120.847072,2.0011873e-08
C0TA20,加灣,2025-04-12,24.082025,121.608944,2.6355113e-07
C0V530,阿蓮,2025-04-12,22.883208,120.327508,0.99989986
C1O880,關山,2025-04-12,23.173397,120.594092,3.696617e-09
C0E791,卓蘭,2025-04-12,24.3126,120.8244,1.3486401e-08
C1I030,武界,2025-04-12,23.913225,121.052483,7.485796e-09
C0R520,崁頂,2025-04-12,22.514781,120.506914,0.9996554
C0R341,牡丹,2025-04-12,22.130036,120.792639,0.9921407
C0R930,萬丹,2025-04-12,22.5885,120.4851,0.9996304
C0S760,紅石,2025-04-12,23.069131,121.126219,2.9057183e-08
C2C410,中央大學,2025-04-12,24.967652,121.185165,1.609023e-07
C1M610,石磐龍,2025-04-12,23.496606,120.663506,5.0150395e-09
C0UA10,鴛鴦湖,2025-04-12,24.590269,121.412228,2.3202182e-08
V2C260,八德蔬果,2025-04-12,24.978508,121.281819,2.1736426e-07
C0R800,丹路,2025-04-12,22.204481,120.750989,0.99892205
C0G920,永靖,2025-04-12,23.924703,120.547533,0.85806614
C2M950,太和,2025-04-12,23.538372,120.702961,6.2358554e-09
C1A630,下盆,2025-04-12,24.771003,121.538622,4.0659844e-09
B2N890,畜產試驗所,2025-04-12,23.058972,120.336406,0.99989915
C0UA30,白嶺,2025-04-12,24.527819,121.519031,3.0938057e-08
C1V580,溪南(特生中心),2025-04-12,23.084972,120.788475,2.5063052e-08
C1T970,大農,2025-04-12,23.615233,121.413331,8.234317e-08
C0R650,竹田,2025-04-12,22.58486,120.54344,0.99963415
C1H900,清流,2025-04-12,24.080775,120.962997,7.399628e-09
C1C510,水尾,2025-04-12,24.940081,121.087161,2.491806e-07
C0F9X0,大雅(中科園區),2025-04-12,24.21528,120.62445,0.9614193
C0SB60,白守蓮,2025-04-12,23.126769,121.401914,0.9668912
C0O970,虎頭埤,2025-04-12,23.021375,120.347878,0.9998714
C0C730,中大臨海站,2025-04-12,24.966126,121.008581,5.254301e-07
C0X250,新營,2025-04-12,23.310689,120.316681,0.99850035
C0V700,三民,2025-04-12,22.645017,120.311233,0.99993366
C0U870,大礁溪,2025-04-12,24.791042,121.675047,1.1229925e-08
C0E870,高鐵苗栗,2025-04-12,24.60725,120.826094,0.99980265
A2K570,古坑花卉中心,2025-04-12,23.63353,120.55239,5.475482e-06
C0TA30,鹽寮,2025-04-12,23.845606,121.592664,2.6355113e-07
C0M860,新美,2025-04-12,23.338017,120.683169,1.3793134e-09
C1E701,八卦,2025-04-12,24.491756,120.927619,5.54929e-09
C0I420,國姓,2025-04-12,24.037803,120.855072,1.08808464e-08
C2D720,關西工作站,2025-04-12,24.757275,121.184792,3.863381e-09
C0S960,香蘭,2025-04-12,22.587569,120.993375,0.09642242
467620,蘭嶼,2025-04-12,22.0369,121.55843,0.9994438
C0R260,春日,2025-04-12,22.370361,120.628306,0.9995061
72G600,臺中農改場,2025-04-12,24.003028,120.534389,0.94664484
C0Z210,瑞穗,2025-04-12,23.5239,121.39021,1.1860061e-07
C0M820,達邦,2025-04-12,23.453994,120.749517,4.4984456e-09
C0V860,南寮,2025-04-12,22.7616,120.2339,0.9999367
C0G740,大城,2025-04-12,23.852487,120.320935,0.9911807
C0R920,塭仔,2025-04-12,22.4169,120.5197,0.999667
C0R470,高樹,2025-04-12,22.826389,120.600806,0.4682492
C0R680,佳樂水,2025-04-12,21.993578,120.861633,0.9795316
C1O870,大棟山,2025-04-12,23.31157,120.52226,6.64585e-09
C0D360,梅花,2025-04-12,24.678347,121.208558,8.145416e-09
C0Z190,富世,2025-04-12,24.14743,121.6297,4.1565574e-05
C0AI10,屈尺,2025-04-12,24.92184,121.54475,0.006444075
B2U990,畜試東區分所,2025-04-12,24.669039,121.832561,1.6478062e-08
C0SB80,長濱漁港,2025-04-12,23.313644,121.459994,0.82296336
C0R240,來義,2025-04-12,22.527306,120.625111,0.999393
C0V910,大樹,2025-04-12,22.684645,120.432803,0.9333683
C1R610,西大武山,2025-04-12,22.617719,120.7322,3.8621746e-08
C0G900,線西,2025-04-12,24.143358,120.443536,0.9998193
C0M700,竹崎,2025-04-12,23.526178,120.555508,7.797461e-07
C2E880,三義,2025-04-12,24.405478,120.749819,5.5922054e-09
C0C720,竹圍,2025-04-12,25.112692,121.239824,0.030188464
C0F9P0,清水,2025-04-12,24.312297,120.562242,0.99982107
C0Z150,吉安光華,2025-04-12,23.930925,121.595153,2.9787938e-07
467300,東吉島,2025-04-12,23.25727,119.66762,0.9999256
C1D640,外坪(五指山),2025-04-12,24.644447,121.090961,4.774626e-09
C0F9O0,潭子,2025-04-12,24.213106,120.703933,1.158649e-08
C2H9R0,卓社,2025-04-12,23.887894,121.000086,1.1485365e-08
72T250,花蓮農改場,2025-04-12,23.975222,121.563889,2.2376295e-07
C0E780,銅鑼,2025-04-12,24.489681,120.790853,1.3784541e-08
C1T950,太安,2025-04-12,23.666719,121.370128,7.772795e-09
C0E830,苑裡,2025-04-12,24.439714,120.653053,0.999803
467270,田中,2025-04-12,23.873803,120.581286,0.00010887168
C0SA10,檳榔四格山,2025-04-12,22.810031,121.109308,2.5005907e-06
C1T830,布洛灣,2025-04-12,24.17184,121.57127,1.4475056e-07
C0F970,大坑,2025-04-12,24.173142,120.722289,1.746309e-08
C1U920,思源,2025-04-12,24.393125,121.347214,3.5218328e-08
C0A931,三和,2025-04-12,25.233153,121.595236,9.518264e-05
C0I010,廬山,2025-04-12,24.033311,121.181808,1.4884245e-08
C2M940,日野賀,2025-04-12,23.434056,120.727169,5.1200817e-09
C0R860,鼻頭,2025-04-12,22.1043,120.8979,0.9653534
C0UB20,壯圍,2025-04-12,24.7359,121.8163,1.6501115e-08
C0R790,九棚,2025-04-12,22.14195,120.889281,0.00017562964
C0W110,東莒,2025-04-12,25.9652,119.98069,1.0597183e-06
C1U930,粉鳥林,2025-04-12,24.497088,121.842479,0.00060732965
C1I211,蘆竹湳,2025-04-12,23.934019,120.811994,1.7785581e-09
C0S830,長濱,2025-04-12,23.286817,121.411975,5.228731e-05
C1F9F1,伯公龍,2025-04-12,24.272392,120.849047,6.223308e-09
C0E810,西湖,2025-04-12,24.562947,120.7485,2.3703014e-07
C1I440,新高口,2025-04-12,23.478744,120.878939,3.2072645e-08
C0O840,王爺宮,2025-04-12,23.222064,120.40085,0.0008297129
C0T9G0,鳳林山,2025-04-12,23.735269,121.420131,8.425328e-08
C0X080,佳里,2025-04-12,23.173039,120.145086,0.9991438
C0FB70,大甲溪埔,2025-04-12,24.370625,120.620067,0.99976695
C0Z310,清水斷崖,2025-04-12,24.218294,121.689142,7.49814e-06
C0M680,太保,2025-04-12,23.455062,120.331455,5.39401e-05
C1S820,金峰,2025-04-12,22.590969,120.933236,8.785173e-05
C0AD10,八里,2025-04-12,25.150211,121.403947,0.023328787
C2K240,草嶺,2025-04-12,23.59555,120.693461,5.061734e-09
C1SA70,都蘭,2025-04-12,22.87794,121.226881,0.19682543
C0K440,二崙,2025-04-12,23.772797,120.408944,0.00022804309
C1A760,坪林交控,2025-04-12,24.94284,121.713442,1.2645739e-08
C0F9N0,大里,2025-04-12,24.092464,120.701378,5.1449526e-05
C0SA90,達仁林場,2025-04-12,22.264347,120.823972,4.4670518e-08
C1R290,石門山,2025-04-12,22.112611,120.756597,0.9999874
42HA10,萬大發電廠,2025-04-12,23.978875,121.139639,7.772795e-09
C0R890,山海,2025-04-12,21.9878,120.7091,0.9664376
C0T9A0,月眉山,2025-04-12,23.809928,121.539828,3.6024908e-08
C0AC70,信義,2025-04-12,25.037822,121.564597,0.023630645
C0K560,棋山,2025-04-12,23.68645,120.603417,2.242063e-06
C2FB50,出雲,2025-04-12,24.206469,120.902794,7.899055e-09
C1Z240,中平林道,2025-04-12,23.42115,121.26763,1.251394e-08
U2H480,溪頭,2025-04-12,23.670306,120.798194,8.476922e-09
C0M880,好美里,2025-04-12,23.3364,120.138,0.9991438
C0T9E0,大坑,2025-04-12,23.880628,121.581981,4.042309e-08
C0K530,臺西,2025-04-12,23.701547,120.197559,0.99559116
C1E900,國一N128K,2025-04-12,24.560997,120.844186,1.1302184e-07
C0AJ50,水湳洞,2025-04-12,25.123695,121.862238,0.02347873
C0AI20,白沙灣,2025-04-12,25.283128,121.519058,0.02347873
C2V310,美濃,2025-04-12,22.898792,120.51907,0.99992853
C0A860,大坪,2025-04-12,25.165914,121.632969,6.765253e-09
C1U850,觀音海岸,2025-04-12,24.38319,121.77856,1.21939685e-08
C2K610,草嶺石壁,2025-04-12,23.602469,120.707731,5.16803e-09
C0U950,鶯子嶺,2025-04-12,24.89754,121.79244,1.577045e-08
C0O900,善化,2025-04-12,23.112883,120.297219,0.9999127
C0K550,蔦松,2025-04-12,23.514319,120.229736,0.00022839081
E2P980,林試六龜中心,2025-04-12,22.991703,120.645722,1.48192e-06
C0E590,通霄,2025-04-12,24.471892,120.704622,2.2103268e-07
C1I310,西巒,2025-04-12,23.754486,120.883956,7.755054e-09
C0A550,泰平,2025-04-12,24.971197,121.823711,7.010519e-09
C0I360,水里,2025-04-12,23.812553,120.849792,9.975551e-10
C0R830,高士,2025-04-12,22.121825,120.836781,0.9999875
C1I101,溪頭,2025-04-12,23.661789,120.807647,1.7157756e-08
C0AJ20,野柳,2025-04-12,25.20703,121.690021,0.02278526
C0B060,暖暖,2025-04-12,25.0957,121.7403,0.005585879
C1H920,長豐,2025-04-12,24.102039,120.879897,1.97089e-09
C0V360,內門,2025-04-12,22.975481,120.466769,0.5442289
C0R850,林邊,2025-04-12,22.4634,120.5339,0.9996528
C0E930,龍鳳,2025-04-12,24.700034,120.859125,7.41303e-07
C0U910,冬山,2025-04-12,24.63373,121.7937,1.6478062e-08
C1E721,泰安,2025-04-12,24.489017,120.968036,1.2344486e-08
82H320,茶改中部分場,2025-04-12,23.875611,120.913583,7.4176167e-09
C0M750,布袋,2025-04-12,23.380878,120.167789,0.00027422528
C1S860,利嘉,2025-04-12,22.809417,121.050528,4.09397e-08
E2S980,林試太麻里1,2025-04-12,22.598922,120.980044,0.0028622225
C0X170,關廟,2025-04-12,22.963017,120.327797,0.999884
C0V720,林園,2025-04-12,22.507747,120.394511,0.9996525
C1I510,線浸林道,2025-04-12,23.761508,120.832956,5.5027454e-09
C0D690,外湖,2025-04-12,24.917735,120.968711,5.4801393e-07
C0C750,新興坑尾,2025-04-12,25.0061,121.0971,3.403492e-07
B2Q810,畜試南區分所,2025-04-12,21.945583,120.802167,0.9777866
C0S790,金崙,2025-04-12,22.538122,120.966875,1.3561689e-05
C0AH90,福山植物園,2025-04-12,24.760717,121.58135,4.630834e-09
C0I540,奇萊稜線,2025-04-12,24.109231,121.326456,4.6897682e-08
C0M850,表湖,2025-04-12,23.24186,120.64166,1.3848228e-09
C0S770,大溪山,2025-04-12,22.478475,120.943325,1.2961603e-07
C0AG80,中和,2025-04-12,24.991622,121.491792,0.021893093
C0T790,大禹嶺,2025-04-12,24.186117,121.316086,4.55249e-08
C0T9B0,水源,2025-04-12,23.991861,121.537169,9.019682e-08
C0R840,牡丹池山,2025-04-12,22.168389,120.841225,4.7660752e-08
C1I131,桶頭,2025-04-12,23.641944,120.654117,8.7357005e-10
CAL110,布袋國中,2025-04-12,23.35893,120.18026,0.9991514
467571,新竹,2025-04-12,24.827853,121.014219,3.5224076e-07
C0Z290,赤柯山,2025-04-12,23.36893,121.38293,3.7184915e-08
C0X280,將軍,2025-04-12,23.214999,120.13577,0.99913687
C0S690,太麻里,2025-04-12,22.60902,120.98533,0.014158948
C0U880,北關,2025-04-12,24.9072,121.8734,0.030182483
C0G810,埔心,2025-04-12,23.947633,120.525456,0.88944083
C0U970,大福,2025-04-12,24.80064,121.81389,1.639567e-08
C2H9N0,仁愛東眼,2025-04-12,24.026875,121.1205,1.3955438e-08
C1E670,南礦,2025-04-12,24.538278,121.002836,1.12093606e-08
C0M520,東後寮,2025-04-12,23.369908,120.248065,0.99890125
C1E461,松安,2025-04-12,24.397972,120.986022,1.1664587e-08
C2N160,西拉雅風管處,2025-04-12,23.189481,120.335297,0.99802315
C2M970,碧湖,2025-04-12,23.568632,120.624165,4.646982e-09
C0A640,石碇,2025-04-12,24.993969,121.662917,1.2538071e-08
E2S960,林試太麻里2,2025-04-12,22.598,120.99775,0.122175835
C0F9Y0,桃山,2025-04-12,24.432739,121.303808,5.2780404e-08
C1I020,萬大,2025-04-12,23.979817,121.132261,8.298342e-09
C0U940,羅東,2025-04-12,24.68184,121.74934,1.6509489e-08
C0M650,朴子,2025-04-12,23.43463,120.23902,0.00016088557
C1I500,大尖山,2025-04-12,23.858572,120.994889,2.4201992e-08
C0G820,田尾,2025-04-12,23.901669,120.509389,0.8852241
E2K600,四湖植物園,2025-04-12,23.676986,120.163433,0.9913942
C0S730,綠島,2025-04-12,22.6672,121.47533,0.014165073
12Q970,東港工作站,2025-04-12,22.479997,120.466058,0.9996617
C0E430,南庄,2025-04-12,24.601775,121.000214,3.3106442e-09
C1TA00,太魯閣,2025-04-12,24.15773,121.6236,8.663066e-06
466920,臺北,2025-04-12,25.037658,121.514853,0.02278526
C0R600,舊泰武,2025-04-12,22.588194,120.664944,5.0262625e-09
C1I260,北坑,2025-04-12,23.9246,121.006903,1.7988265e-09
466910,鞍部,2025-04-12,25.182586,121.529731,1.1923975e-08
C1I230,九份二山,2025-04-12,23.961944,120.845,7.545314e-09
C2A660,瑞芳,2025-04-12,25.113169,121.801147,0.0027948963
C0R270,琉球嶼,2025-04-12,22.332244,120.362236,0.9994946
C1T990,高寮,2025-04-12,23.394239,121.356808,1.3135895e-07
C0G620,芬園,2025-04-12,24.015678,120.6213,0.031517785
C1Z140,荖溪,2025-04-12,23.890575,121.45964,5.5880285e-08
C1I201,中心崙,2025-04-12,23.728722,120.712097,1.8431677e-09
C1I400,凌霄,2025-04-12,24.018778,121.004456,1.3819211e-08
C1M640,十字,2025-04-12,23.492153,120.753683,1.4952793e-08
G2P820,農試鳳山分所,2025-04-12,22.646611,120.356083,0.999931
C0Z270,蕃薯寮,2025-04-12,23.73835,121.540108,4.914282e-08
C0F9Q0,外埔,2025-04-12,24.347817,120.705686,1.6294754e-08
C0K580,高鐵雲林,2025-04-12,23.737456,120.417944,0.00022804309
C2I090,鳳凰,2025-04-12,23.728081,120.787347,7.3975817e-09
C0U990,員山,2025-04-12,24.74435,121.72247,1.6534825e-08
C0V770,大社,2025-04-12,22.730306,120.346639,0.99993354
C0X120,麻豆,2025-04-12,23.183289,120.248611,0.99888283
C0C670,龍潭,2025-04-12,24.870056,121.221389,3.2761207e-09
C0D680,香山濕地,2025-04-12,24.783581,120.914988,7.295346e-07
C0S980,勝林山,2025-04-12,22.430439,120.8938,1.3341712e-07
C0V730,大寮,2025-04-12,22.605614,120.395717,0.9996239
C0R570,麟洛,2025-04-12,22.65078,120.52719,0.9309535
C2M930,石卓,2025-04-12,23.478744,120.702264,1.497454e-08
C0G9B0,和美,2025-04-12,24.105169,120.492131,0.9601631
CAG100,王功漁港,2025-04-12,23.96824,120.32586,0.99559116
C0X290,北門,2025-04-12,23.267772,120.125481,0.9991514
C2F930,大甲,2025-04-12,24.347667,120.640403,0.9991036
C0D650,湖口,2025-04-12,24.904794,121.043628,2.798577e-07
C0E420,竹南,2025-04-12,24.708978,120.888897,3.6241732e-07
C0U780,五結,2025-04-12,24.68637,121.79794,1.6478062e-08
C1I250,鯉潭,2025-04-12,23.961922,120.991131,1.97089e-09
C0R130,阿禮,2025-04-12,22.742908,120.743678,7.353932e-08
C0X100,臺南市北區,2025-04-12,23.010394,120.194228,0.9999129
C0S920,金峰嘉蘭,2025-04-12,22.594789,120.960825,0.0028402586
C0V490,新興,2025-04-12,22.627422,120.298803,0.99993616
C0F9K0,大安,2025-04-12,24.345061,120.588025,0.9998021
467290,古坑,2025-04-12,23.633639,120.551889,5.475482e-06
C2E970,八甲,2025-04-12,24.535811,120.795983,1.2197295e-08
C0V440,鳳山,2025-04-12,22.646653,120.356122,0.999931
C1T940,大觀,2025-04-12,23.714206,121.373133,3.5519808e-08
C0E740,造橋,2025-04-12,24.637056,120.864778,4.1061935e-07
C0R100,尾寮山,2025-04-12,22.833111,120.683889,7.273276e-08
A2K630,臺大雲林校區,2025-04-12,23.730628,120.423903,0.00022459982
467990,馬祖,2025-04-12,26.169467,119.923158,1.268032e-09
C0D580,寶山,2025-04-12,24.735006,121.025192,4.4018145e-09
E2P990,林試扇平站,2025-04-12,22.9677,120.6857,5.027404e-09
C0AI30,三重,2025-04-12,25.057328,121.500629,0.030182483
C0AH00,汐止,2025-04-12,25.066881,121.658778,0.02278526
C1Z040,立山,2025-04-12,23.443356,121.327375,3.6876752e-08
466881,新北,2025-04-12,24.959207,121.525196,0.014135021
C0W130,花嶼,2025-04-12,23.40007,119.32276,0.99967307
C0A950,鼻頭角,2025-04-12,25.129036,121.923372,1.636552e-08
C0K470,林內,2025-04-12,23.748675,120.609642,1.0785823e-05
C2F990,摩天嶺,2025-04-12,24.322458,120.936819,7.698066e-09
82C160,茶改場,2025-04-12,24.908472,121.185333,7.4668336e-08
C0Z320,清水林道,2025-04-12,23.27125,121.188272,4.772188e-08
C0R760,南仁湖,2025-04-12,22.084681,120.863353,0.9999875
C0M670,大林,2025-04-12,23.600616,120.45841,1.375105e-05
C0M800,茶山,2025-04-12,23.299075,120.664767,1.7579345e-09
C0A9C0,天母,2025-04-12,25.117494,121.537169,0.021893093
72K220,南改斗南分場,2025-04-12,23.634556,120.477333,0.00011468902
72AI40,桃改樹林分場,2025-04-12,24.944503,121.386972,0.015420367
C0S910,蘭嶼燈塔,2025-04-12,22.081197,121.503117,0.99941814
C0B050,八斗子,2025-04-12,25.144754,121.79167,0.03267128
C0U900,內城,2025-04-12,24.71813,121.68766,1.540081e-08
C0X320,柳營,2025-04-12,23.253328,120.375253,2.953444e-05
C0M790,新港,2025-04-12,23.553269,120.345728,0.00013043605
C0F9T0,西屯,2025-04-12,24.179494,120.641275,0.9991036
C0SA30,都歷,2025-04-12,23.020333,121.323642,0.070122026
C0C620,蘆竹,2025-04-12,25.084275,121.265767,0.016579086
C0R730,大坪頂,2025-04-12,22.024633,120.69355,0.99995244
C0AJ40,石門,2025-04-12,25.273672,121.601198,0.00076636585
C0E750,苗栗,2025-04-12,24.564569,120.824575,1.4220596e-07
C0T870,鯉魚潭,2025-04-12,23.935639,121.508944,9.795292e-08
C1V170,排雲,2025-04-12,23.463619,120.954147,5.2187985e-08
C2H950,中寮,2025-04-12,23.884447,120.766406,0.54705876
C0R350,貓鼻頭,2025-04-12,21.921774,120.7358,0.9853044
C0V660,岡山,2025-04-12,22.797078,120.294958,0.99993616
C1H941,雙冬,2025-04-12,23.967378,120.802189,1.8015254e-09
C0AJ70,田寮,2025-04-12,25.2698,121.4886,0.02289768
C0AI00,五股,2025-04-12,25.07445,121.42728,9.275748e-08
C0Z280,德武,2025-04-12,23.47426,121.41071,7.649359e-08
C0R700,枋山,2025-04-12,22.246844,120.661086,0.9996525
C0C460,復興,2025-04-12,24.820208,121.352281,7.389868e-09
E2H360,蓮華池,2025-04-12,23.918333,120.885278,1.8861972e-09
C0M640,中埔,2025-04-12,23.42538,120.5229,7.672291e-07
C0W140,金沙,2025-04-12,24.488292,118.408778,2.3887113e-08
C2A540,四堵,2025-04-12,24.8926,121.745736,6.6573445e-09
C0ACA0,新莊,2025-04-12,25.051478,121.446756,0.023446336
C0R220,潮州,2025-04-12,22.534361,120.54,0.9996343
U2HA40,臺大內茅埔,2025-04-12,23.689722,120.851117,1.782739e-09
467490,臺中,2025-04-12,24.145736,120.684075,0.9993744
C0U960,翠峰湖,2025-04-12,24.510856,121.608044,4.760025e-08
E2HA20,林試畢祿溪站,2025-04-12,24.226944,121.308522,3.6309743e-08
C0V890,前鎮,2025-04-12,22.5718,120.3117,0.99993604
C1F941,雪嶺,2025-04-12,24.280586,121.026642,4.2167944e-08
C2H9E0,國姓南港,2025-04-12,23.911108,120.846556,8.273087e-09
C0AC80,文山,2025-04-12,25.00235,121.575728,0.0066964496
C0F9R0,龍井,2025-04-12,24.184536,120.528972,0.999822
C0M760,民雄,2025-04-12,23.551754,120.428457,1.48896825e-05
C0UA40,西德山,2025-04-12,24.560647,121.752608,3.0126476e-08
C1T920,中興,2025-04-12,23.769503,121.498653,1.6273579e-07
C0D550,雪霸,2025-04-12,24.526972,121.11605,2.5742844e-08
C2F860,梨山,2025-04-12,24.247522,121.243669,3.6719467e-08
C0R320,車城,2025-04-12,22.0744,120.716247,0.9666773
C1S870,南美山,2025-04-12,23.15025,121.382333,8.0229955e-05
C0B020,基隆嶼,2025-04-12,25.19141,121.78391,0.02316401
C1U501,牛鬥,2025-04-12,24.637836,121.573656,1.2369729e-08
C0M730,嘉義市東區,2025-04-12,23.457673,120.460531,1.4236491e-05
C0S700,知本,2025-04-12,22.684866,121.005642,4.4670518e-08
C1N001,沙崙,2025-04-12,22.935472,120.309406,0.99989945
C0V760,橋頭,2025-04-12,22.757806,120.30575,0.99993616
C0G960,福寶,2025-04-12,24.0443,120.3814,0.96628696
C0X210,白河,2025-04-12,23.347466,120.414427,7.105744e-06
C0S810,東河,2025-04-12,22.972672,121.303986,0.39493608
C2R170,屏東,2025-04-12,22.66027,120.49403,0.9330126
C0R670,楓港,2025-04-12,22.190131,120.692156,0.99965215
C0FA50,霧峰,2025-04-12,24.0419,120.6995,0.99944556
C0UB10,蘇澳,2025-04-12,24.5969,121.8571,0.0006139884
C0G950,防潮門,2025-04-12,24.1835,120.4871,0.9998194
C0M740,六腳,2025-04-12,23.492871,120.290625,0.00013981794
C1R250,力里,2025-04-12,22.428117,120.629228,0.99939495
C0K330,虎尾,2025-04-12,23.719183,120.442036,0.00012818849
C2FA00,烏石坑,2025-04-12,24.273503,120.947617,7.608758e-09
C0V620,永安,2025-04-12,22.82315,120.236856,0.99993604
C1I330,楓樹林,2025-04-12,23.986803,121.076117,1.1193358e-08
C0W200,湖西,2025-04-12,23.596314,119.67275,0.9994238
72Q010,高雄農改場,2025-04-12,22.709333,120.525889,0.9170607
C0SA40,瑞和,2025-04-12,22.974361,121.156697,0.00038561432
C0C680,龜山,2025-04-12,25.02846,121.38656,1.2053813e-08
C2V260,月眉,2025-04-12,22.971003,120.539853,0.20144929
C0V450,鳳森,2025-04-12,22.545064,120.392592,0.9995122
C0U720,南山,2025-04-12,24.43742,121.38167,3.0018985e-08
A2N290,臺南蘭花園區,2025-04-12,23.340258,120.379661,3.1533258e-05
C0R560,新園,2025-04-12,22.5434,120.461558,0.9996525
C0U890,三星,2025-04-12,24.66812,121.65302,1.4175772e-08
C1V300,御油山,2025-04-12,23.001983,120.715364,2.4816032e-08
C0U600,礁溪,2025-04-12,24.817539,121.765608,1.6043932e-08
C1T980,龍澗,2025-04-12,24.023289,121.411328,5.0200565e-08
C0D670,海天一線,2025-04-12,24.831986,120.914438,7.41303e-07
C0SA00,歷坵,2025-04-12,22.520969,120.89185,6.450812e-08
C0M710,東石,2025-04-12,23.458927,120.15385,0.00025840226
C0M780,鹿草,2025-04-12,23.41134,120.30835,5.114857e-05
C0U520,雙連埤,2025-04-12,24.753033,121.641303,1.1058226e-08
C0B010,七堵,2025-04-12,25.094819,121.71713,0.01628946
C0R480,長治,2025-04-12,22.693128,120.542622,0.8746957
C1V830,國三S383K,2025-04-12,22.781967,120.426475,0.26815528
12Q980,恆春工作站,2025-04-12,22.079678,120.714425,0.9669647
C1O940,東山服務區,2025-04-12,23.286016,120.398472,7.026491e-06
C1U840,東澳嶺,2025-04-12,24.5378,121.8485,1.3400912e-08
C1D630,飛鳳山,2025-04-12,24.766464,121.119178,3.5246732e-09
C0S940,石寧山,2025-04-12,23.223772,121.406639,0.00538817
C0K410,北港,2025-04-12,23.573957,120.292802,0.00013501015
C2M620,瑞里,2025-04-12,23.545133,120.675197,5.6395497e-09
C0SB70,小港漁港,2025-04-12,23.158558,121.400431,0.92637867
C2O950,安南,2025-04-12,23.076694,120.144861,0.9999165
C0F0E0,南湖圈谷,2025-04-12,24.363714,121.444667,7.542684e-08
467610,成功,2025-04-12,23.097486,121.373428,0.7292851
C0G890,伸港,2025-04-12,24.148933,120.484403,0.999822
C2E540,龍溪,2025-04-12,24.606489,120.783933,0.99979824
C1V200,梅山,2025-04-12,23.268447,120.823556,5.305147e-09
C0T9H0,加路蘭山,2025-04-12,23.682947,121.5274,6.8696046e-08
C2O930,玉井,2025-04-12,23.126042,120.46055,2.0681643e-06
C1F911,新伯公,2025-04-12,24.221361,120.841069,8.461399e-09
C0R490,九如,2025-04-12,22.7405,120.490503,0.92007935
C0X200,左鎮,2025-04-12,23.056758,120.408522,0.99992764
C0SB50,叭嗡嗡,2025-04-12,23.047062,121.343223,0.9520353
C1F891,稍來,2025-04-12,24.265689,121.001142,3.6414747e-08
72N240,七股研究中心,2025-04-12,23.081672,120.062894,0.99919194
C0C700,中壢,2025-04-12,24.977661,121.256375,1.5755514e-07
C0M690,水上,2025-04-12,23.419734,120.388909,3.104088e-05
C0V690,鼓山,2025-04-12,22.623325,120.275575,0.9999361
C0O860,大內,2025-04-12,23.11885,120.36083,0.99989986
C0Z200,萬榮,2025-04-12,23.709219,121.420106,9.836462e-08
C0T9D0,和中,2025-04-12,24.26676,121.74103,0.00043718956
C1O921,楠西,2025-04-12,23.183511,120.484083,5.5418195e-07
C0AJ30,淡水觀海,2025-04-12,25.184591,121.408616,0.032854002
C0V810,左營,2025-04-12,22.67491,120.28491,0.99993366
C0UA70,桃源谷,2025-04-12,24.962606,121.888875,1.1243321e-08
C0X130,官田,2025-04-12,23.193217,120.315422,0.9984574
C1H000,翠峰,2025-04-12,24.109397,121.205211,3.980747e-08
C0UA90,石城,2025-04-12,24.980444,121.951214,1.5964293e-08
C1E681,南勢山,2025-04-12,24.421669,120.923831,5.478982e-09
C0A9F0,內湖,2025-04-12,25.079422,121.57545,0.02278526
C0K291,宜梧,2025-04-12,23.536281,120.169329,0.00027422528
C1K540,口湖,2025-04-12,23.585344,120.180517,0.00026978145
C0R780,滿州,2025-04-12,22.024403,120.839892,0.9899228
C0V870,文安,2025-04-12,22.8025,120.2164,0.9999367
C0U650,玉蘭,2025-04-12,24.675286,121.587061,1.0849637e-08
C0R640,東港,2025-04-12,22.46247,120.44074,0.9996617
C0AJ80,板橋,2025-04-12,25.0107,121.4489,0.023630602
C0S660,下馬,2025-04-12,23.150427,121.070312,4.217084e-08
C1H9B1,阿眉,2025-04-12,24.1263,120.994672,2.235447e-08
C0UA20,多加屯,2025-04-12,24.368614,121.373189,4.3621746e-08
C0E730,頭份,2025-04-12,24.688247,120.912206,3.7988397e-07
72V140,高改旗南分場,2025-04-12,22.857861,120.516667,0.87560004
C0K480,莿桐,2025-04-12,23.761192,120.502372,0.00011378336
C0U980,坪林石牌,2025-04-12,24.86478,121.77396,1.1656535e-08
C0T900,西林,2025-04-12,23.8119,121.441458,7.7889155e-08
C1I150,青雲,2025-04-12,23.793361,120.949378,1.904028e-09
467350,澎湖,2025-04-12,23.565503,119.563094,0.9991066
C0G800,埔鹽,2025-04-12,24.000394,120.431683,0.9609491
C0H960,草屯,2025-04-12,23.973672,120.68085,0.99898636
C1V780,多納林道,2025-04-12,22.888028,120.737917,6.101367e-09
C0E920,通霄漁港,2025-04-12,24.498589,120.673876,0.9998193
C0Z330,安通山,2025-04-12,23.290728,121.348528,4.863671e-07
C0AH10,永和,2025-04-12,25.01125,121.508111,0.022938292
C0AK10,太平里,2025-04-12,25.134937,121.364899,0.02289768
C2G640,鹿港,2025-04-12,24.0753,120.430481,0.96621585
C1E890,國三N149K,2025-04-12,24.463414,120.680019,8.9614474e-08
C1R110,口社,2025-04-12,22.770111,120.645222,0.20144929
C1M870,國三N285K,2025-04-12,23.550319,120.505833,1.9470435e-06
C1E480,鳳美,2025-04-12,24.554803,121.034747,4.123607e-09
C0M530,奮起湖,2025-04-12,23.493903,120.699253,6.2567405e-09
C0C590,觀音,2025-04-12,25.027072,121.153317,2.9494603e-07
C0T9M0,靜浦,2025-04-12,23.455167,121.495028,1.5164449e-07
C2H9M0,發祥,2025-04-12,24.154094,121.164517,1.1210494e-08
C0AI40,石牌,2025-04-12,25.115597,121.513139,0.02278526
C1F871,上谷關,2025-04-12,24.203483,121.018644,7.653486e-09
C2H9G0,百勝,2025-04-12,24.051142,120.909361,6.266438e-09
C0G880,二水,2025-04-12,23.810742,120.6173,1.2149452e-05
C0R940,加祿堂,2025-04-12,22.3363,120.6217,0.99965215
C0W220,北竿,2025-04-12,26.220358,119.974881,1.2004822e-09
C0O960,崎頂,2025-04-12,22.959547,120.369317,0.9997933
C0S750,向陽,2025-04-12,23.248397,120.986133,2.9874872e-08
C0T9F0,水璉,2025-04-12,23.797131,121.542514,5.7337296e-08
C1M600,頭凍,2025-04-12,23.406364,120.603339,4.4986774e-09
467660,臺東,2025-04-12,22.752211,121.154586,0.9520353
C1D380,新埔,2025-04-12,24.84745,121.03834,5.9188388e-09
C2G980,田頭村,2025-04-12,23.8263,120.444175,0.00023102335
C0V750,路竹,2025-04-12,22.854997,120.259439,0.99993265
C0N050,蚵寮,2025-04-12,23.301,120.1104,0.9991514
72M700,南改鹿草分場,2025-04-12,23.416869,120.283061,0.0001373938
C1SA50,利嘉林道,2025-04-12,22.82325,121.009389,7.024104e-09
C0A940,金山,2025-04-12,25.223628,121.643967,0.015235653
C1V340,大津,2025-04-12,22.888322,120.645986,0.072912514
C0W180,七美,2025-04-12,23.219333,119.444892,0.9996319
C1F9C1,白冷,2025-04-12,24.182844,120.929889,5.0552695e-09
K2E710,苗改生物防治研究中心,2025-04-12,24.422861,120.871833,2.9588818e-09
C0N040,蘆竹溝,2025-04-12,23.2344,120.0961,0.9991559
C2W230,畜試所澎湖,2025-04-12,23.628342,119.513206,0.99948525
C0R880,後壁湖,2025-04-12,21.9457,120.7457,0.9572092
C1I280,埔中,2025-04-12,23.820778,120.642594,1.9653865e-09
467790,墾丁雷達站,2025-04-12,21.948235,120.808028,0.9935665
C0W190,望安,2025-04-12,23.380564,119.494075,0.99936604
C0Z170,卓溪,2025-04-12,23.3443,121.3029,0.00073016784
C0F850,東勢,2025-04-12,24.246428,120.833047,8.996175e-09
466900,淡水,2025-04-12,25.164889,121.448906,0.02278526
C0I370,魚池,2025-04-12,23.895703,120.94135,1.8648127e-09
C0C630,大溪,2025-04-12,24.882853,121.265547,7.618767e-08
C0A520,山佳,2025-04-12,24.974944,121.402008,0.014945507
C0I110,竹山,2025-04-12,23.761225,120.688156,3.9594767e-07
82H840,茶改南部分場,2025-04-12,23.762528,120.7405,4.65755e-09
C0G660,溪湖,2025-04-12,23.94835,120.479122,0.91090995
C1T800,洛韶,2025-04-12,24.204558,121.453956,3.0150044e-08
C1T810,慈恩,2025-04-12,24.192044,121.388386,3.5221284e-08
C1E451,象鼻,2025-04-12,24.368617,120.940228,5.480738e-09
C0AC60,三峽,2025-04-12,24.939025,121.369728,3.9869212e-07
C0I490,萬大林道,2025-04-12,23.928228,121.091411,1.5178449e-08
C1I290,豐丘,2025-04-12,23.668178,120.887417,5.504498e-09
C1I320,奧萬大,2025-04-12,23.952956,121.178556,1.1252524e-08
C2M910,嘉義大學,2025-04-12,23.471325,120.485903,5.0964183e-05
C0U770,南澳,2025-04-12,24.44935,121.81022,0.00061058416
C0A980,社子,2025-04-12,25.109508,121.469681,0.03267128
C0V800,六龜,2025-04-12,22.997889,120.633583,2.0316818e-06
C1G9D0,國一S218K,2025-04-12,23.890641,120.493253,0.88845456
C0E570,白沙屯,2025-04-12,24.549447,120.696803,0.9998194
C2F9A0,中竹林,2025-04-12,24.103556,120.751061,4.284684e-09
C0FA40,臺中電廠,2025-04-12,24.2146,120.4907,0.999822
C2G9A0,畜試所彰化,2025-04-12,23.86045,120.557964,0.00011287421
C0H9C0,合歡山,2025-04-12,24.143442,121.272547,5.7779506e-08
C0X060,下營,2025-04-12,23.22695,120.256261,0.99913687
G2M350,農試溪口農場,2025-04-12,23.58565,120.408111,5.114857e-05
C0U860,頭城,2025-04-12,24.85323,121.8308,1.636552e-08
C0R580,南州,2025-04-12,22.48591,120.50274,0.9996617
C0D430,峨眉,2025-04-12,24.6905,121.017189,5.918974e-09
C0G780,秀水,2025-04-12,24.03405,120.503869,0.9539886
72N100,臺南農改場,2025-04-12,23.0605,120.342194,0.9998948
C0S900,蘭嶼高中,2025-04-12,22.04909,121.51214,0.99958986
C1F9W0,德基,2025-04-12,24.254783,121.190261,2.37033e-08
C1Z120,壽豐,2025-04-12,23.870853,121.508081,2.2423463e-07
C0W160,烏坵,2025-04-12,24.9944,119.44956,0.9720503
C1I240,外大坪,2025-04-12,23.958697,120.917931,1.9946738e-09
C1I550,國六W023K,2025-04-12,23.979067,120.867742,5.5380607e-09
C0R870,興海,2025-04-12,21.9752,120.8439,0.97800744
C0R140,瑪家,2025-04-12,22.682903,120.686639,5.0166946e-09
C0A530,坪林,2025-04-12,24.938183,121.70975,1.2447501e-08
C0X260,後壁,2025-04-12,23.366358,120.362326,0.9980713
C0Z230,和平,2025-04-12,24.30717,121.77007,0.0004884451
C0G770,福興,2025-04-12,24.041289,120.437669,0.96215355
C0H9A0,神木村,2025-04-12,23.532742,120.843667,2.4687242e-08
C0I460,南投,2025-04-12,23.911469,120.687331,0.9991036
C0I480,梅峰,2025-04-12,24.085272,121.173572,3.6007048e-08
C1V570,吉東,2025-04-12,22.85422,120.5454,0.79594934
C2D740,屯原,2025-04-12,24.067969,121.209389,2.4967674e-08
C2A560,福山,2025-04-12,24.776203,121.502811,6.9778885e-09
C0AH30,五分山,2025-04-12,25.07125,121.780794,1.2744848e-08
C0FA10,松柏,2025-04-12,24.429115,120.617482,0.9998193
72S200,東改班鳩分場,2025-04-12,22.829528,121.077694,5.228731e-05
72HA00,中改埔里分場,2025-04-12,23.903208,120.963364,1.8275583e-09
C2H9W0,大坪頂農水,2025-04-12,24.043122,120.932781,1.9725184e-09
C0C650,平鎮,2025-04-12,24.897503,121.214636,6.679083e-08
C0S930,延平,2025-04-12,22.902581,121.084058,8.3262275e-05
C0UA60,樟樹山,2025-04-12,24.41393,121.78325,1.1538061e-08
C1S670,摩天,2025-04-12,23.199503,121.027,2.9079139e-08
C0V630,茄萣,2025-04-12,22.906642,120.182608,0.9999129
466940,基隆,2025-04-12,25.133314,121.740475,0.03174059
C0X050,東河,2025-04-12,23.296598,120.385608,2.953444e-05
C0R770,保力,2025-04-12,22.071122,120.764111,0.9986867
G2L020,農試嘉義分所,2025-04-12,23.485028,120.473806,2.4439008e-05
C0X240,關子嶺,2025-04-12,23.331169,120.508025,1.9861697e-09
C0I380,集集,2025-04-12,23.828206,120.801467,1.0842557e-09
466990,花蓮,2025-04-12,23.975128,121.613275,2.978047e-07
C1V220,小關山,2025-04-12,23.154217,120.813603,2.5879313e-08
C1F9G1,慶福山,2025-04-12,24.180853,120.848378,4.0591654e-09
C0Z250,瑞穗林道,2025-04-12,23.49284,121.30688,1.2426981e-08
C0D590,新豐,2025-04-12,24.87068,120.97721,4.4018145e-09
C0A870,五指山,2025-04-12,25.132153,121.608692,9.726739e-09
C0UA50,西帽山,2025-04-12,24.555361,121.802628,1.34333105e-08
C0X160,仁德,2025-04-12,22.968258,120.257689,0.9999087
C1H971,六分寮,2025-04-12,23.92507,120.6378,3.9941077e-09
C0W120,西嶼,2025-04-12,23.5626,119.468436,0.9991124
C0G650,員林,2025-04-12,23.946503,120.585597,0.87684196
C0AD50,鶯歌,2025-04-12,24.951533,121.346294,3.4752733e-07
C2H9Q0,北東眼山,2025-04-12,24.120939,121.189303,2.4708111e-08
C2H9T0,名間竹圍,2025-04-12,23.859914,120.637572,8.7306035e-10
C0S990,山豬窟,2025-04-12,22.318619,120.857372,1.1456008e-07
C0X190,安平,2025-04-12,22.993161,120.152181,0.99991286
C0K400,斗六,2025-04-12,23.720583,120.541127,9.1293725e-05
12J990,口湖工作站,2025-04-12,23.589978,120.180394,0.00025420196
C0O830,北寮,2025-04-12,23.079561,120.495008,0.19943501
C1D410,白蘭,2025-04-12,24.579364,121.079947,1.170756e-08
C0S970,加津林,2025-04-12,22.416211,120.926942,0.09642242
C0D700,關西,2025-04-12,24.7977,121.1732,1.2692914e-07
C0M810,里佳,2025-04-12,23.389125,120.716647,6.2610024e-09
C0U750,龜山島,2025-04-12,24.841667,121.953133,1.2845021e-07
C0R810,內獅,2025-04-12,22.305064,120.642986,0.9996525
C1M390,龍美,2025-04-12,23.406728,120.654417,5.08553e-09
C2FB60,頭櫃山,2025-04-12,24.129842,120.858925,8.031163e-09
C1H840,國三N238K,2025-04-12,23.841008,120.707711,1.0652289e-09
CAQ030,崎峰國小,2025-04-12,22.42565,120.49521,0.9996617
C2E520,大湖,2025-04-12,24.414939,120.870872,1.5659786e-08
467530,阿里山,2025-04-12,23.508208,120.813242,3.0943898e-08
C1E691,南湖,2025-04-12,24.40135,120.837533,4.213263e-09
C0FA30,梧棲,2025-04-12,24.256003,120.523381,0.99982166
C1V231,高中,2025-04-12,23.134911,120.716711,1.4019728e-09
C0F9V0,新社,2025-04-12,24.200172,120.815806,5.644403e-09
C0H890,埔里,2025-04-12,23.972169,120.952425,7.3651303e-09
C0R690,墾丁,2025-04-12,21.966756,120.810269,0.99998266
C0F0D0,審馬陣,2025-04-12,24.381675,121.4203,6.010318e-08
C2W030,金門農試所,2025-04-12,24.448431,118.451786,2.0346175e-08
C0R820,白鷺,2025-04-12,22.454275,120.666219,2.9609382e-08
C1V190,南天池,2025-04-12,23.27403,120.91176,3.1666296e-08
K2E360,苗栗農改場,2025-04-12,24.495722,120.829111,2.6718997e-08
CAJ050,海口故事園區,2025-04-12,23.57543,120.14121,0.00025840226
C2H9D0,三隻寮,2025-04-12,24.093078,120.861578,2.0094326e-09
C0O990,媽廟,2025-04-12,22.99175,120.293525,0.9999042
C0D480,打鐵坑,2025-04-12,24.849664,121.150789,3.2170717e-09
C0Z220,和平林道,2025-04-12,24.343922,121.656317,4.517045e-08
C0TA10,花蓮漁港,2025-04-12,23.995322,121.638331,3.2172886e-07
72C440,桃園農改場,2025-04-12,24.950944,121.030583,3.9348694e-07
C1E711,馬拉邦山,2025-04-12,24.367306,120.901656,7.6617095e-09
C0SB20,富岡,2025-04-12,22.792467,121.192669,0.9245776
C0D560,竹東,2025-04-12,24.767147,121.057881,4.5992508e-09
C0F9U0,南屯,2025-04-12,24.137006,120.637969,0.49066684
C0M720,番路,2025-04-12,23.464657,120.554156,1.6136945e-09
C0F0A0,雪山圈谷,2025-04-12,24.388594,121.236339,6.102126e-08
C1A9N0,四十份,2025-04-12,24.934158,121.593283,7.1683415e-09
C0U760,東澳,2025-04-12,24.52196,121.83318,0.0002455876
C0X230,鹽水,2025-04-12,23.272621,120.247641,0.99890125
C2H9H0,苗改南投蜂場,2025-04-12,23.852589,120.693481,4.1652402e-07
C0R950,萬隆國小,2025-04-12,22.507667,120.587817,0.9995588
467540,大武,2025-04-12,22.35572,120.90374,0.2082876
C0V370,古亭坑,2025-04-12,22.893178,120.401947,0.999923
C1I340,新興橋,2025-04-12,23.563333,120.868728,2.5818954e-09
C0SA80,土坂,2025-04-12,22.453108,120.887572,0.00054965494
C0R160,鹽埔,2025-04-12,22.739558,120.530778,0.8852531
C0AC40,大屯山,2025-04-12,25.175675,121.522408,1.5946945e-08
466850,五分山雷達站,2025-04-12,25.071182,121.781205,1.2933901e-08
C2H9L0,馬烈霸,2025-04-12,24.1512,121.201772,2.3955003e-08
C1AI50,國三N016K,2025-04-12,25.034164,121.619664,0.012199487
C1V600,藤枝,2025-04-12,23.071961,120.757042,2.8841013e-08
C1E601,南勢,2025-04-12,24.572486,120.734842,2.6255785e-08
C0Z180,新城,2025-04-12,24.03946,121.60454,2.61086e-07
C0O980,新市,2025-04-12,23.061614,120.298197,0.9999087
C0K420,西螺,2025-04-12,23.800407,120.467394,0.0001240956
C0Z050,佳心,2025-04-12,23.34567,121.21316,3.9416783e-08
C0AD30,蘆洲,2025-04-12,25.086594,121.472331,0.023386307
C0V610,梓官,2025-04-12,22.760558,120.267211,0.9999361
K2F750,種苗改良場,2025-04-12,24.225972,120.800917,6.50309e-09
C0UA80,大溪漁港,2025-04-12,24.941801,121.902955,1.6534825e-08
C1AI60,國一39K邊坡,2025-04-12,25.064361,121.383836,1.2415372e-08
C0W150,金寧,2025-04-12,24.457703,118.328989,1.9559934e-08
C0R960,內埔,2025-04-12,22.608483,120.570714,0.9996203
V2C250,八德合作社,2025-04-12,24.93775,121.266389,1.4674329e-07
C2H9S0,龍南,2025-04-12,23.953536,120.833183,7.698889e-09
C0AH40,平等,2025-04-12,25.129142,121.577086,7.126557e-09
C0R540,佳冬,2025-04-12,22.419456,120.552375,0.9996554
466950,彭佳嶼,2025-04-12,25.627975,122.079744,0.9999961
C0A890,雙溪,2025-04-12,25.036003,121.864242,0.009140089
C0C480,桃園,2025-04-12,24.992425,121.323172,2.139674e-07
C0AH50,林口,2025-04-12,25.072181,121.38084,1.2366497e-08
A2K360,水試臺西試驗場,2025-04-12,23.717231,120.190522,0.9962139
C2M960,外寮,2025-04-12,23.562643,120.665688,4.7868993e-09
C0F9S0,烏日,2025-04-12,24.107058,120.624103,0.85806614
C0C490,八德,2025-04-12,24.928708,121.283289,1.2615065e-07
C0R190,赤山,2025-04-12,22.592333,120.614306,0.99959004
C0T820,天祥,2025-04-12,24.179597,121.495639,5.5840225e-08
C1F9E1,龍安,2025-04-12,24.1605,120.831961,5.4454974e-09
C0V820,小林,2025-04-12,23.148408,120.63325,1.6988025e-09
C2G870,芳苑,2025-04-12,23.922303,120.320025,0.99535954
C0E850,大河,2025-04-12,24.618069,120.948578,5.3951936e-08
C1U670,寒溪,2025-04-12,24.634,121.71691,1.4208254e-08
C0N020,城西,2025-04-12,23.0568,120.0956,0.99913687
C1Z110,三棧,2025-04-12,24.11557,121.60501,7.203913e-08
C0R280,檳榔,2025-04-12,22.076078,120.836777,0.9999804
C2H9J0,中台,2025-04-12,23.9996,120.938739,1.7726077e-09
C0F9L0,后里,2025-04-12,24.310436,120.729725,3.2116475e-08
467441,高雄,2025-04-12,22.730432,120.312516,0.99993366
C0D540,橫山,2025-04-12,24.71116,121.11693,3.3575496e-09
C1D420,太閣南,2025-04-12,24.632808,121.160575,3.003989e-08
C1E770,公館,2025-04-12,24.526914,120.830806,6.039449e-08
CAN130,水試所海水繁養殖中心,2025-04-12,23.120802,120.07968,0.9991623
C1I430,翠華,2025-04-12,24.191961,121.224339,3.938965e-08
C1M400,菜瓜坪,2025-04-12,23.251928,120.576103,1.7729527e-09
C0G730,二林,2025-04-12,23.903325,120.376081,0.9539886
72M360,南改義竹分場,2025-04-12,23.360694,120.279361,0.99886096
V2K620,麥寮合作社,2025-04-12,23.753836,120.294783,0.99488837
C0Z070,舞鶴,2025-04-12,23.46811,121.37407,6.446322e-08
C0B040,大武崙,2025-04-12,25.166676,121.706993,0.015235653
C1Z030,紅葉,2025-04-12,23.493119,121.338806,7.717902e-08
C1I050,丹大,2025-04-12,23.753747,121.141147,3.238566e-08
C0I080,信義,2025-04-12,23.689694,120.851036,1.782739e-09
C2M920,朴子農改,2025-04-12,23.469889,120.259383,0.00021204948
C2A880,福隆,2025-04-12,25.017842,121.942083,1.6534825e-08
C0Z160,鳳林,2025-04-12,23.746114,121.453411,1.3016194e-07
C0V210,復興,2025-04-12,23.222403,120.806089,1.4214427e-09
C0H990,昆陽,2025-04-12,24.121322,121.273642,5.1004726e-08
C0R741,獅子,2025-04-12,22.202308,120.705236,0.9995057
C0S710,鹿野,2025-04-12,22.917711,121.122994,2.295733e-06
C0I530,小奇萊,2025-04-12,24.131764,121.295717,5.2364967e-08
C2K630,荷苞,2025-04-12,23.657717,120.595144,3.9594767e-07
C0Z080,富源,2025-04-12,23.587642,121.378225,5.0015917e-08
C0SB10,美和,2025-04-12,22.682078,121.060236,0.9645926
C2K620,馬光農場,2025-04-12,23.721453,120.378864,0.0002512924
C1I140,卡奈托灣,2025-04-12,23.754364,121.087872,2.1613657e-08
C0I520,玉山風口,2025-04-12,23.470489,120.955994,5.7175995e-08
C1G691,下水埔,2025-04-12,23.816114,120.5676,5.612451e-05
C0X110,臺南市南區,2025-04-12,22.961189,120.188378,0.9999127
C0V680,仁武,2025-04-12,22.701083,120.347722,0.99993354
C2G840,北斗,2025-04-12,23.877586,120.514222,0.87342095
C0R900,竹坑,2025-04-12,22.1385,120.7022,0.99965215
C0K250,崙背,2025-04-12,23.75555,120.318925,0.9911807
C0G860,社頭,2025-04-12,23.897647,120.5862,0.83736664
C0X150,安定,2025-04-12,23.102614,120.227839,0.9999129
C0R590,里港,2025-04-12,22.77919,120.49459,0.887603
C0E610,馬都安,2025-04-12,24.451272,120.930192,4.467382e-09
C0E550,明德,2025-04-12,24.583486,120.885411,8.785185e-08
C0R150,三地門,2025-04-12,22.709889,120.639944,0.26815528
C0G910,花壇,2025-04-12,24.032076,120.549461,0.88944083
C1D400,鳥嘴山,2025-04-12,24.71909,121.28387,4.6818744e-09
C0K500,元長,2025-04-12,23.64981,120.315024,0.9912862
C0F0B0,石岡,2025-04-12,24.276061,120.777644,1.08808464e-08
C2V250,甲仙,2025-04-12,23.080106,120.591758,6.559093e-07
C0SA20,金崙山,2025-04-12,22.567419,120.959667,1.3692113e-07
C0V350,溪埔,2025-04-12,22.738578,120.446797,0.9309535
C0M660,溪口,2025-04-12,23.604131,120.403569,5.092333e-05
C1S880,壽卡,2025-04-12,22.238911,120.858903,4.9095412e-08
72D680,桃改新埔分場,2025-04-12,24.834444,121.066111,6.5179044e-09
