站號,站名,日期,lat,lon,BLBTSLS
C0R710,龍磐,2025-03-23,21.931672,120.838942,0.9994394
C1F9D1,白毛台,2025-03-23,24.158325,120.886933,2.0385127e-09
C0G940,竹塘,2025-03-23,23.848253,120.386764,2.3082693e-08
467590,恆春,2025-03-23,22.003897,120.746339,2.8010702e-06
C1O850,環湖,2025-03-23,23.148617,120.418633,1.110146e-09
C0U710,太平山,2025-03-23,24.505486,121.525656,2.2251312e-08
C0E820,獅潭,2025-03-23,24.539133,120.920042,1.0351572e-08
C0V880,興達,2025-03-23,22.8778,120.2127,1.3087429e-09
C0S890,關山,2025-03-23,23.0395,121.175017,3.611784e-09
C0SB30,新蘭,2025-03-23,22.869214,121.223228,2.5137055e-09
C2R970,屏科大,2025-03-23,22.648275,120.619247,1.1166911e-09
K2F750,種苗繁殖,2025-03-23,24.225972,120.800917,6.5044916e-09
C1Z130,銅門,2025-03-23,23.965694,121.492842,7.0094224e-09
C0AD40,土城,2025-03-23,24.973208,121.445169,1.0594222e-08
CAN140,六官養殖協會,2025-03-23,23.22881,120.29962,1.3162957e-09
C0X180,山上,2025-03-23,23.0757,120.363253,7.5191053e-10
C0F9Z0,雪山東峰,2025-03-23,24.388792,121.268675,3.376458e-08
C1M480,獨立山,2025-03-23,23.537022,120.607797,2.8561211e-09
C0X220,學甲,2025-03-23,23.230367,120.182187,2.7124947e-09
467650,日月潭,2025-03-23,23.881325,120.90805,7.981229e-09
C0K600,箔子寮,2025-03-23,23.6197,120.14,0.00012465646
C0G830,埤頭,2025-03-23,23.866003,120.452806,1.0967441e-08
C0S950,七塊厝,2025-03-23,22.954453,121.229922,4.539646e-09
467110,金門,2025-03-23,24.407306,118.289281,3.1414892e-08
C0AH80,深坑,2025-03-23,25.002703,121.628328,1.1606529e-08
467990,馬祖,2025-03-23,26.169269,119.923419,1.3800904e-08
C0A970,三貂角,2025-03-23,25.007606,122.002058,1.3145827e-08
C2D730,寶山農場,2025-03-23,24.732444,120.976153,1.4405606e-07
C0K430,褒忠,2025-03-23,23.690938,120.303634,4.5299586e-09
467480,嘉義,2025-03-23,23.495925,120.432906,1.998337e-09
C2E540,後龍,2025-03-23,24.606489,120.783933,0.00019929161
C0V400,阿公店,2025-03-23,22.804194,120.355528,6.393126e-10
467550,玉山,2025-03-23,23.48718,120.95943,3.8103995e-08
C0R440,大漢山,2025-03-23,22.405264,120.753181,1.6371859e-08
C0K280,四湖,2025-03-23,23.630414,120.227125,2.5624722e-06
C1F9B1,桐林,2025-03-23,24.066172,120.735194,1.3482665e-09
C2H9U0,鳳鵬,2025-03-23,23.763919,120.788061,1.8950321e-09
C0K390,土庫,2025-03-23,23.679029,120.395574,1.1216995e-08
C1I450,望鄉山,2025-03-23,23.594153,120.944286,2.0673598e-08
C0E910,海埔,2025-03-23,24.648767,120.772435,1.7629102e-06
B2E890,畜試北區分所,2025-03-23,24.527806,120.770972,1.2691771e-08
C0R750,四林格山,2025-03-23,22.076989,120.802439,7.1796606e-08
C0F0C0,中坑,2025-03-23,24.248517,120.903319,3.5299883e-09
C1I121,大鞍,2025-03-23,23.678381,120.760017,1.35911655e-08
72U480,花改蘭陽分場,2025-03-23,24.686306,121.716583,2.4913764e-09
C0A770,科教館,2025-03-23,25.096356,121.516507,4.4787463e-09
C0AJ60,六塊厝,2025-03-23,25.24,121.4481,2.0516864e-06
C0R620,墾雷,2025-03-23,21.900836,120.855269,0.9931586
467420,永康,2025-03-23,23.038386,120.2367,1.135207e-09
467300,東吉島,2025-03-23,23.25695,119.667467,0.9998946
C0I410,名間,2025-03-23,23.837053,120.701447,2.0675086e-09
A2C560,農工中心,2025-03-23,24.985917,121.239833,2.3068812e-07
C0V740,旗山,2025-03-23,22.888614,120.483597,9.332706e-10
C0Z061,玉里,2025-03-23,23.3215,121.339656,5.938741e-09
C0S840,南田,2025-03-23,22.279725,120.889208,1.9254445e-08
C1I470,杉林溪,2025-03-23,23.639517,120.786444,1.5399634e-08
C1X040,東原,2025-03-23,23.291597,120.463822,2.1372681e-09
C0R660,枋寮,2025-03-23,22.367722,120.590647,1.0492422e-09
C1R120,上德文,2025-03-23,22.763272,120.704442,2.2930675e-09
C0K450,大埤,2025-03-23,23.646074,120.431537,4.6649204e-09
C0UA00,土場,2025-03-23,24.576533,121.495333,3.808189e-09
467080,宜蘭,2025-03-23,24.763975,121.756528,2.8059048e-09
C0N030,四草,2025-03-23,23.0235,120.1116,1.5133661e-09
467410,臺南,2025-03-23,22.99328,120.20492,1.2172654e-09
C0V650,彌陀,2025-03-23,22.783806,120.246361,9.861759e-10
C0D660,新竹市東區,2025-03-23,24.798681,120.986942,1.3039508e-05
82S580,茶改東部分場,2025-03-23,22.907694,121.130139,2.726411e-09
C0SB40,興隆,2025-03-23,22.913661,121.257469,2.5348466e-09
467050,新屋,2025-03-23,25.006725,121.047492,3.5235746e-05
C0C710,大溪永福,2025-03-23,24.892936,121.324975,7.878745e-08
C0FA20,溫寮,2025-03-23,24.372177,120.583125,1.4501211e-07
C0V640,湖內,2025-03-23,22.887139,120.2445,1.3075602e-09
C0R910,下寮,2025-03-23,22.3929,120.5548,1.0492422e-09
C0Z020,明里,2025-03-23,23.208717,121.262342,6.8121775e-09
C0M770,嘉義梅山,2025-03-23,23.585398,120.555587,1.907474e-09
G2F820,農業試驗所,2025-03-23,24.031261,120.688133,4.8801117e-05
C0C660,楊梅,2025-03-23,24.912375,121.143047,4.4025302e-07
C1E511,新開,2025-03-23,24.347703,120.827019,3.8460883e-09
G2F820,農試所(霧峰),2025-03-23,24.031261,120.688133,1.4622628e-09
C1I070,和社,2025-03-23,23.591131,120.888861,5.6325407e-09
C2F000,大肚,2025-03-23,24.15295,120.572117,1.9359239e-09
C1S850,豐南,2025-03-23,23.122139,121.262389,4.8920312e-09
C2A920,富貴角,2025-03-23,25.263783,121.565258,8.5057604e-07
CAH030,茶改場竹圍站,2025-03-23,23.860083,120.637528,2.2553606e-09
C0T960,光復,2025-03-23,23.660694,121.424964,2.5975584e-09
C0F9M0,豐原,2025-03-23,24.254322,120.720692,1.6751373e-09
C0R720,旭海,2025-03-23,22.205403,120.887614,2.2150235e-08
C0V710,苓雅,2025-03-23,22.622742,120.330669,8.570643e-10
C0C740,觀音工業區,2025-03-23,25.064764,121.114856,2.1838081e-05
CAC040,拉拉山,2025-03-23,24.699317,121.427133,2.3221705e-08
C0V790,萬山,2025-03-23,22.905944,120.688056,1.4505347e-09
U2HA30,臺大和社,2025-03-23,23.590856,120.888864,5.6325407e-09
C0AJ90,澳底,2025-03-23,25.0552,121.9253,4.982843e-08
C0Z100,東華,2025-03-23,23.89525,121.549833,6.308363e-09
C0G970,三豐,2025-03-23,23.882,120.2895,2.5923958e-07
V2K610,大庄合作社,2025-03-23,23.8068,120.367939,1.7238321e-08
C0V900,汕尾,2025-03-23,22.4782,120.4151,7.181667e-10
C1R630,龍泉,2025-03-23,22.66701,120.59091,1.1242308e-09
C1AC50,關渡,2025-03-23,25.133486,121.469331,1.19692976e-08
C0F9I0,神岡,2025-03-23,24.272481,120.658314,2.78798e-09
C0K460,斗南,2025-03-23,23.678734,120.478359,4.648985e-09
467410,臺南,2025-03-23,22.993239,120.204772,1.0766389e-05
C2O810,曾文,2025-03-23,23.219681,120.497328,1.7582363e-09
467280,後龍,2025-03-23,24.648563,120.831834,1.4746383e-06
C1F9J1,清水林,2025-03-23,24.071242,120.820419,4.566228e-09
C2A650,火燒寮,2025-03-23,25.002719,121.742892,1.3389441e-08
466930,竹子湖,2025-03-23,25.162078,121.544547,1.3267391e-08
C1I220,樟湖,2025-03-23,23.905333,120.846983,8.21914e-09
C0I390,仁愛,2025-03-23,24.022122,121.132206,8.582606e-09
C0Z300,東里,2025-03-23,23.26853,121.30547,6.760583e-09
C1V590,新發,2025-03-23,23.057019,120.646064,3.6100207e-09
C0K510,水林,2025-03-23,23.572924,120.24597,2.7940663e-08
72S590,東改賓朗果園,2025-03-23,22.813889,121.071278,2.4035314e-09
82A750,茶改北部分場,2025-03-23,24.955778,121.631222,5.9076504e-09
C1A750,石碇服務區,2025-03-23,25.00872,121.646242,2.7127236e-08
C0X300,鹿寮,2025-03-23,23.386047,120.477331,1.6730936e-09
G2AI50,關渡,2025-03-23,25.11575,121.492,3.8866798e-07
C0K590,雲林東勢,2025-03-23,23.674192,120.255721,5.0452806e-09
C0A570,桶後,2025-03-23,24.848222,121.597992,3.3300231e-09
C1S800,華源,2025-03-23,22.657883,121.02325,1.5992788e-08
C0G720,溪州,2025-03-23,23.851589,120.499093,1.0736763e-08
C1V160,達卡努瓦,2025-03-23,23.279811,120.705319,6.807268e-09
C2M410,馬頭山,2025-03-23,23.324361,120.582017,1.8106473e-09
C0V850,蚵仔寮,2025-03-23,22.7256,120.2527,7.1763956e-10
C0S740,池上,2025-03-23,23.119628,121.209469,6.112491e-09
C1V390,尖山,2025-03-23,22.813153,120.367789,6.279297e-10
C0AH70,松山,2025-03-23,25.04871,121.55042,4.485295e-09
C0N010,鯤鯓國小,2025-03-23,23.1879,120.0889,2.4376126e-09
C0R550,新埤,2025-03-23,22.467947,120.582894,7.076707e-10
C0SA60,知本（水試所）,2025-03-23,22.702394,121.082761,2.0770987e-08
C0T9I0,豐濱,2025-03-23,23.583897,121.514806,3.3661676e-09
C0UB00,淡江大學蘭陽校園,2025-03-23,24.823239,121.730383,3.7041405e-09
C0W240,九宮,2025-03-23,24.423753,118.240186,3.186466e-08
C0T9N0,富里,2025-03-23,23.171639,121.249378,7.973074e-09
U2HA50,臺大竹山,2025-03-23,23.756972,120.681556,1.7729831e-09
C0V840,鳳鼻頭,2025-03-23,22.5083,120.3591,5.0226473e-10
C0X140,西港,2025-03-23,23.125608,120.203108,1.1140828e-09
72D080,桃改五峰分場,2025-03-23,24.612194,121.157167,1.0182576e-08
C2H9P0,伊拿谷,2025-03-23,23.963211,121.088264,6.923797e-09
C2H9F0,柑林,2025-03-23,24.018658,120.847072,2.2646587e-09
C0TA20,加灣,2025-03-23,24.082025,121.608944,1.1072366e-08
C0V530,阿蓮,2025-03-23,22.883208,120.327508,8.037565e-10
C1O880,關山,2025-03-23,23.173397,120.594092,1.5203764e-09
C0E791,卓蘭,2025-03-23,24.3126,120.8244,2.1134965e-09
C1I030,武界,2025-03-23,23.913225,121.052483,7.079465e-09
C0R520,崁頂,2025-03-23,22.514781,120.506914,5.7210303e-10
C0R341,牡丹,2025-03-23,22.130036,120.792639,3.4471988e-08
C0R930,萬丹,2025-03-23,22.5885,120.4851,8.6676694e-10
C0S760,紅石,2025-03-23,23.069131,121.126219,2.4130362e-08
C2C410,中央大學,2025-03-23,24.967652,121.185165,2.212345e-07
C1M610,石磐龍,2025-03-23,23.496606,120.663506,7.168177e-09
C0UA10,鴛鴦湖,2025-03-23,24.590269,121.412228,2.3661201e-08
V2C260,八德蔬果,2025-03-23,24.978508,121.281819,3.6180396e-08
C0R800,丹路,2025-03-23,22.204481,120.750989,2.5905685e-08
C0G920,永靖,2025-03-23,23.924703,120.547533,4.973507e-09
C2M950,太和,2025-03-23,23.538372,120.702961,8.656027e-09
C1A630,下盆,2025-03-23,24.771003,121.538622,5.22541e-09
B2N890,畜產試驗所,2025-03-23,23.058972,120.336406,8.8470736e-10
C0UA30,白嶺,2025-03-23,24.527819,121.519031,1.7824611e-08
C1V580,溪南(特生中心),2025-03-23,23.084972,120.788475,6.6583348e-09
C1T970,大農,2025-03-23,23.615233,121.413331,3.5120036e-09
E2S960,林試太麻里2,2025-03-23,22.598014,120.989761,1.6480424e-06
C0R650,竹田,2025-03-23,22.58486,120.54344,6.8962347e-10
C1H900,清流,2025-03-23,24.080775,120.962997,6.735511e-09
C1C510,水尾,2025-03-23,24.940081,121.087161,1.1843987e-05
C0F9X0,大雅(中科園區),2025-03-23,24.21528,120.62445,2.019661e-09
C0SB60,白守蓮,2025-03-23,23.126769,121.401914,6.095749e-09
C0O970,虎頭埤,2025-03-23,23.021375,120.347878,9.2622326e-10
C0C730,中大臨海站,2025-03-23,24.966126,121.008581,4.8526246e-05
C0X250,新營,2025-03-23,23.310689,120.316681,1.1404591e-09
C0V700,三民,2025-03-23,22.645017,120.311233,1.3409573e-09
C0U870,大礁溪,2025-03-23,24.791042,121.675047,4.613088e-09
C0E870,高鐵苗栗,2025-03-23,24.60725,120.826094,7.767639e-07
A2K570,古坑花卉中心,2025-03-23,23.63353,120.55239,1.6503875e-09
C0TA30,鹽寮,2025-03-23,23.845606,121.592664,6.313888e-09
C0M860,新美,2025-03-23,23.338017,120.683169,3.0815543e-09
C1E701,八卦,2025-03-23,24.491756,120.927619,8.356443e-09
C0I420,國姓,2025-03-23,24.037803,120.855072,2.3580367e-09
C2D720,關西工作站,2025-03-23,24.757275,121.184792,1.0120908e-07
C0S960,香蘭,2025-03-23,22.587569,120.993375,2.7326703e-08
467620,蘭嶼,2025-03-23,22.0369,121.55843,0.9895263
C0R260,春日,2025-03-23,22.370361,120.628306,9.775799e-10
72G600,臺中農改場,2025-03-23,24.003028,120.534389,3.6449401e-09
C0Z210,瑞穗,2025-03-23,23.5239,121.39021,4.306092e-09
C0M820,達邦,2025-03-23,23.453994,120.749517,5.9892136e-09
C0V860,南寮,2025-03-23,22.7616,120.2339,7.178955e-10
C0G740,大城,2025-03-23,23.852487,120.320935,2.3720696e-07
C0R920,塭仔,2025-03-23,22.4169,120.5197,1.0726114e-09
C0R470,高樹,2025-03-23,22.826389,120.600806,1.3786927e-09
C0R680,佳樂水,2025-03-23,21.993578,120.861633,0.055061713
C1O870,大棟山,2025-03-23,23.31157,120.52226,7.4041178e-09
C0D360,梅花,2025-03-23,24.678347,121.208558,8.265375e-09
C0Z190,富世,2025-03-23,24.14743,121.6297,8.347538e-09
C0AI10,屈尺,2025-03-23,24.92184,121.54475,2.3332921e-08
B2U990,畜試東區分所,2025-03-23,24.669039,121.832561,1.1989741e-09
C0SB80,長濱漁港,2025-03-23,23.313644,121.459994,5.933239e-09
C0R240,來義,2025-03-23,22.527306,120.625111,5.6706545e-10
C0V910,大樹,2025-03-23,22.684645,120.432803,1.071072e-09
C1R610,西大武山,2025-03-23,22.617719,120.7322,1.8033587e-08
C0G900,線西,2025-03-23,24.143358,120.443536,2.4664745e-08
C0M700,竹崎,2025-03-23,23.526178,120.555508,2.163695e-09
C2E880,三義,2025-03-23,24.405478,120.749819,7.989408e-09
C0C720,竹圍,2025-03-23,25.112692,121.239824,3.8860313e-07
C0F9P0,清水,2025-03-23,24.312297,120.562242,1.1011862e-07
C0Z150,吉安光華,2025-03-23,23.930925,121.595153,7.04302e-09
467300,東吉島,2025-03-23,23.25727,119.66762,0.7300621
C1D640,外坪(五指山),2025-03-23,24.644447,121.090961,8.312615e-09
C0F9O0,潭子,2025-03-23,24.213106,120.703933,1.1318149e-09
C2H9R0,卓社,2025-03-23,23.887894,121.000086,6.1109406e-09
72T250,花蓮農改場,2025-03-23,23.975222,121.563889,1.0654651e-08
C0E780,銅鑼,2025-03-23,24.489681,120.790853,1.2666934e-08
C1T950,太安,2025-03-23,23.666719,121.370128,2.379217e-08
C0E830,苑裡,2025-03-23,24.439714,120.653053,1.877335e-07
467270,田中,2025-03-23,23.873803,120.581286,4.467544e-09
C0SA10,檳榔四格山,2025-03-23,22.810031,121.109308,2.622059e-09
C1T830,布洛灣,2025-03-23,24.17184,121.57127,1.0621294e-08
C0F970,大坑,2025-03-23,24.173142,120.722289,1.0193103e-09
C1U920,思源,2025-03-23,24.393125,121.347214,1.0737152e-08
C0A931,三和,2025-03-23,25.233153,121.595236,1.9961629e-08
C0I010,廬山,2025-03-23,24.033311,121.181808,1.2453271e-08
C2M940,日野賀,2025-03-23,23.434056,120.727169,6.9814963e-09
C0R860,鼻頭,2025-03-23,22.1043,120.8979,0.011362765
C0UB20,壯圍,2025-03-23,24.7359,121.8163,2.4822222e-09
C0R790,九棚,2025-03-23,22.14195,120.889281,4.8188266e-08
C0W110,東莒,2025-03-23,25.9652,119.98069,4.555956e-08
C1U930,粉鳥林,2025-03-23,24.497088,121.842479,2.8033906e-09
C1I211,蘆竹湳,2025-03-23,23.934019,120.811994,2.893511e-09
C0S830,長濱,2025-03-23,23.286817,121.411975,6.1550294e-09
C1F9F1,伯公龍,2025-03-23,24.272392,120.849047,2.1045543e-09
C0E810,西湖,2025-03-23,24.562947,120.7485,0.001320838
C1I440,新高口,2025-03-23,23.478744,120.878939,1.6305512e-08
C0O840,王爺宮,2025-03-23,23.222064,120.40085,1.5260766e-09
C0T9G0,鳳林山,2025-03-23,23.735269,121.420131,1.3362474e-08
C0X080,佳里,2025-03-23,23.173039,120.145086,2.4386078e-09
C0FB70,大甲溪埔,2025-03-23,24.370625,120.620067,1.259815e-07
C0Z310,清水斷崖,2025-03-23,24.218294,121.689142,7.1078783e-09
C0M680,太保,2025-03-23,23.455062,120.331455,2.0799997e-09
C1S820,金峰,2025-03-23,22.590969,120.933236,1.8868565e-08
C0AD10,八里,2025-03-23,25.150211,121.403947,3.8862314e-07
C2K240,草嶺,2025-03-23,23.59555,120.693461,6.069425e-09
C1SA70,都蘭,2025-03-23,22.87794,121.226881,2.5348466e-09
C0K440,二崙,2025-03-23,23.772797,120.408944,1.1914268e-08
C1A760,坪林交控,2025-03-23,24.94284,121.713442,6.5986105e-09
C0F9N0,大里,2025-03-23,24.092464,120.701378,2.131414e-09
C0SA90,達仁林場,2025-03-23,22.264347,120.823972,2.0501608e-08
C1R290,石門山,2025-03-23,22.112611,120.756597,3.4210288e-07
42HA10,萬大發電廠,2025-03-23,23.978875,121.139639,8.63627e-09
C0R890,山海,2025-03-23,21.9878,120.7091,0.9234748
C0T9A0,月眉山,2025-03-23,23.809928,121.539828,7.585386e-09
C0AC70,信義,2025-03-23,25.037822,121.564597,4.520818e-09
C0K560,棋山,2025-03-23,23.68645,120.603417,1.6470227e-09
C2FB50,出雲,2025-03-23,24.206469,120.902794,5.8962804e-09
C1Z240,中平林道,2025-03-23,23.42115,121.26763,2.2833882e-08
U2H480,溪頭,2025-03-23,23.670306,120.798194,7.753857e-09
C0M880,好美里,2025-03-23,23.3364,120.138,2.8840395e-09
C0T9E0,大坑,2025-03-23,23.880628,121.581981,7.0009913e-09
C0K530,臺西,2025-03-23,23.701547,120.197559,3.136314e-07
C1E900,國一N128K,2025-03-23,24.560997,120.844186,2.4276611e-08
C0AJ50,水湳洞,2025-03-23,25.123695,121.862238,9.122494e-07
C0AI20,白沙灣,2025-03-23,25.283128,121.519058,1.9170348e-06
C2V310,美濃,2025-03-23,22.898792,120.51907,9.335466e-10
C0A860,大坪,2025-03-23,25.165914,121.632969,1.053478e-08
C1U850,觀音海岸,2025-03-23,24.38319,121.77856,7.719621e-09
C2K610,草嶺石壁,2025-03-23,23.602469,120.707731,6.1622183e-09
C0U950,鶯子嶺,2025-03-23,24.89754,121.79244,9.788865e-09
C0O900,善化,2025-03-23,23.112883,120.297219,8.935394e-10
C0K550,蔦松,2025-03-23,23.514319,120.229736,1.5998554e-08
E2P980,林試六龜中心,2025-03-23,22.991703,120.645722,2.2162818e-09
C0E590,通霄,2025-03-23,24.471892,120.704622,3.2369084e-07
C1I310,西巒,2025-03-23,23.754486,120.883956,8.769294e-09
C0A550,泰平,2025-03-23,24.971197,121.823711,7.948991e-09
C0I360,水里,2025-03-23,23.812553,120.849792,2.002641e-09
C0R830,高士,2025-03-23,22.121825,120.836781,1.8734487e-07
C1I101,溪頭,2025-03-23,23.661789,120.807647,1.0223872e-08
C0AJ20,野柳,2025-03-23,25.20703,121.690021,1.8958355e-08
C0B060,暖暖,2025-03-23,25.0957,121.7403,1.4624196e-08
C1H920,長豐,2025-03-23,24.102039,120.879897,4.8317923e-09
C0V360,內門,2025-03-23,22.975481,120.466769,1.0986783e-09
C0R850,林邊,2025-03-23,22.4634,120.5339,7.1176287e-10
C0E930,龍鳳,2025-03-23,24.700034,120.859125,0.00024130456
C0U910,冬山,2025-03-23,24.63373,121.7937,1.1989741e-09
C1E721,泰安,2025-03-23,24.489017,120.968036,9.262945e-09
82H320,茶改中部分場,2025-03-23,23.875611,120.913583,7.248483e-09
C0M750,布袋,2025-03-23,23.380878,120.167789,3.80289e-09
C1S860,利嘉,2025-03-23,22.809417,121.050528,1.0445444e-08
72C440,桃園農改,2025-03-23,24.950944,121.030583,1.9737222e-07
E2S980,林試太麻里1,2025-03-23,22.598922,120.980044,2.321462e-08
C0X170,關廟,2025-03-23,22.963017,120.327797,1.2580609e-09
C0V720,林園,2025-03-23,22.507747,120.394511,5.934277e-10
C1I510,線浸林道,2025-03-23,23.761508,120.832956,7.808234e-09
C0D690,外湖,2025-03-23,24.917735,120.968711,5.9100686e-05
C0C750,新興坑尾,2025-03-23,25.0061,121.0971,1.6211095e-05
B2Q810,畜試南區分所,2025-03-23,21.945583,120.802167,0.09242011
C0S790,金崙,2025-03-23,22.538122,120.966875,1.3413673e-08
C0AH90,福山植物園,2025-03-23,24.760717,121.58135,9.162575e-09
C0I540,奇萊稜線,2025-03-23,24.109231,121.326456,2.7497569e-08
C0M850,表湖,2025-03-23,23.24186,120.64166,3.3714493e-09
C0S770,大溪山,2025-03-23,22.478475,120.943325,1.27309026e-08
C0AG80,中和,2025-03-23,24.991622,121.491792,1.0598993e-08
C0T790,大禹嶺,2025-03-23,24.186117,121.316086,2.2741911e-08
C0T9B0,水源,2025-03-23,23.991861,121.537169,1.3698102e-08
C0R840,牡丹池山,2025-03-23,22.168389,120.841225,2.1390226e-08
C1I131,桶頭,2025-03-23,23.641944,120.654117,2.1128355e-09
CAL110,布袋國中,2025-03-23,23.35893,120.18026,2.604787e-09
467571,新竹,2025-03-23,24.827853,121.014219,3.0108895e-05
C0Z290,赤柯山,2025-03-23,23.36893,121.38293,2.349678e-08
C0X280,將軍,2025-03-23,23.214999,120.13577,2.7290281e-09
C0S690,太麻里,2025-03-23,22.60902,120.98533,1.5720147e-08
C0U880,北關,2025-03-23,24.9072,121.8734,5.918997e-09
C1H860,瑞岩,2025-03-23,24.123772,121.18345,1.1503057e-08
C0G810,埔心,2025-03-23,23.947633,120.525456,4.945856e-09
C0U970,大福,2025-03-23,24.80064,121.81389,2.8237077e-09
C2H9N0,仁愛東眼,2025-03-23,24.026875,121.1205,1.1437773e-08
C1E670,南礦,2025-03-23,24.538278,121.002836,1.0825865e-08
C0M520,東後寮,2025-03-23,23.369908,120.248065,2.5736353e-09
C1E461,松安,2025-03-23,24.397972,120.986022,1.0131508e-08
72G600,臺中農改,2025-03-23,24.003028,120.534389,9.939159e-07
C2N160,西拉雅風管處,2025-03-23,23.189481,120.335297,1.1488733e-09
C2M970,碧湖,2025-03-23,23.568632,120.624165,5.604218e-09
C0A640,石碇,2025-03-23,24.993969,121.662917,1.9253747e-08
E2S960,林試太麻里2,2025-03-23,22.598,120.99775,2.8136235e-08
C0F9Y0,桃山,2025-03-23,24.432739,121.303808,3.247981e-08
C1I020,萬大,2025-03-23,23.979817,121.132261,8.615573e-09
C0U940,羅東,2025-03-23,24.68184,121.74934,2.4889495e-09
C0M650,朴子,2025-03-23,23.43463,120.23902,3.1457748e-09
C1I500,大尖山,2025-03-23,23.858572,120.994889,1.4278781e-08
C0G820,田尾,2025-03-23,23.901669,120.509389,4.946422e-09
E2K600,四湖植物園,2025-03-23,23.676986,120.163433,2.5799357e-06
C0S730,綠島,2025-03-23,22.6672,121.47533,6.6409125e-06
12Q970,東港工作站,2025-03-23,22.479997,120.466058,7.178709e-10
C0E430,南庄,2025-03-23,24.601775,121.000214,1.0388638e-08
C1TA00,太魯閣,2025-03-23,24.15773,121.6236,8.299307e-09
466920,臺北,2025-03-23,25.037658,121.514853,4.485295e-09
C0R600,舊泰武,2025-03-23,22.588194,120.664944,2.5790405e-09
C1I260,北坑,2025-03-23,23.9246,121.006903,3.001868e-09
466910,鞍部,2025-03-23,25.182586,121.529731,2.8005061e-08
C1I230,九份二山,2025-03-23,23.961944,120.845,6.622049e-09
C2A660,瑞芳,2025-03-23,25.113169,121.801147,5.268305e-07
C0R270,琉球嶼,2025-03-23,22.332244,120.362236,5.025026e-09
C1T990,高寮,2025-03-23,23.394239,121.356808,5.413663e-09
C0G620,芬園,2025-03-23,24.015678,120.6213,1.925763e-09
C1Z140,荖溪,2025-03-23,23.890575,121.45964,2.76968e-08
C1I201,中心崙,2025-03-23,23.728722,120.712097,3.004675e-09
C1I400,凌霄,2025-03-23,24.018778,121.004456,1.1222581e-08
C1M640,十字,2025-03-23,23.492153,120.753683,1.4496254e-08
G2P820,農試鳳山分所,2025-03-23,22.646611,120.356083,1.3069742e-09
C0Z270,蕃薯寮,2025-03-23,23.73835,121.540108,8.882129e-09
C0F9Q0,外埔,2025-03-23,24.347817,120.705686,4.4981454e-09
C0K580,高鐵雲林,2025-03-23,23.737456,120.417944,1.400597e-08
C2I090,鳳凰,2025-03-23,23.728081,120.787347,6.0870584e-09
C0U990,員山,2025-03-23,24.74435,121.72247,2.473493e-09
C0V770,大社,2025-03-23,22.730306,120.346639,7.0293543e-10
C0X120,麻豆,2025-03-23,23.183289,120.248611,8.8321356e-10
C0C670,龍潭,2025-03-23,24.870056,121.221389,1.181388e-07
C0D680,香山濕地,2025-03-23,24.783581,120.914988,1.5485646e-05
C0S980,勝林山,2025-03-23,22.430439,120.8938,1.6245288e-08
C0V730,大寮,2025-03-23,22.605614,120.395717,9.123089e-10
C0R570,麟洛,2025-03-23,22.65078,120.52719,1.4405208e-09
C2M930,石卓,2025-03-23,23.478744,120.702264,1.5439133e-08
C0G9B0,和美,2025-03-23,24.105169,120.492131,7.748301e-08
CAG100,王功漁港,2025-03-23,23.96824,120.32586,3.8237556e-07
C0X290,北門,2025-03-23,23.267772,120.125481,2.7273006e-09
C2F930,大甲,2025-03-23,24.347667,120.640403,7.4774796e-08
C0D650,湖口,2025-03-23,24.904794,121.043628,1.3269527e-05
C0E420,竹南,2025-03-23,24.708978,120.888897,0.00011376981
C0U780,五結,2025-03-23,24.68637,121.79794,2.4836144e-09
C1I250,鯉潭,2025-03-23,23.961922,120.991131,4.95926e-09
C0R130,阿禮,2025-03-23,22.742908,120.743678,2.7004203e-09
C0X100,臺南市北區,2025-03-23,23.010394,120.194228,1.222967e-09
C0S920,金峰嘉蘭,2025-03-23,22.594789,120.960825,2.2955104e-08
C0V490,新興,2025-03-23,22.627422,120.298803,8.575467e-10
C0F9K0,大安,2025-03-23,24.345061,120.588025,1.3138626e-07
72N100,臺南農改,2025-03-23,23.0605,120.342194,5.361538e-06
467290,古坑,2025-03-23,23.633639,120.551889,1.6503875e-09
C2E970,八甲,2025-03-23,24.535811,120.795983,2.4392042e-08
C0V440,鳳山,2025-03-23,22.646653,120.356122,1.3069742e-09
C1T940,大觀,2025-03-23,23.714206,121.373133,9.25973e-09
72T250,花蓮農改,2025-03-23,23.975222,121.563889,3.330159e-07
C0E740,造橋,2025-03-23,24.637056,120.864778,1.5332042e-06
C0R100,尾寮山,2025-03-23,22.833111,120.683889,2.474616e-09
A2K630,臺大雲林校區,2025-03-23,23.730628,120.423903,1.3997984e-08
467990,馬祖,2025-03-23,26.169467,119.923158,6.9742725e-08
C0D580,寶山,2025-03-23,24.735006,121.025192,1.1828316e-08
E2P990,林試扇平站,2025-03-23,22.9677,120.6857,2.3724955e-09
C0AI30,三重,2025-03-23,25.057328,121.500629,4.4787463e-09
C0AH00,汐止,2025-03-23,25.066881,121.658778,4.485295e-09
C1Z040,立山,2025-03-23,23.443356,121.327375,2.0886834e-08
466881,新北,2025-03-23,24.959207,121.525196,1.1588612e-08
C0W130,花嶼,2025-03-23,23.40007,119.32276,0.6326991
C0A950,鼻頭角,2025-03-23,25.129036,121.923372,4.741042e-08
C0K470,林內,2025-03-23,23.748675,120.609642,1.7908979e-09
C2F990,摩天嶺,2025-03-23,24.322458,120.936819,5.732644e-09
82C160,茶改場,2025-03-23,24.908472,121.185333,3.392348e-07
C0Z320,清水林道,2025-03-23,23.27125,121.188272,1.7236841e-08
C0R760,南仁湖,2025-03-23,22.084681,120.863353,3.4140606e-07
C0M670,大林,2025-03-23,23.600616,120.45841,4.0602184e-09
C0M800,茶山,2025-03-23,23.299075,120.664767,2.810345e-09
C0A9C0,天母,2025-03-23,25.117494,121.537169,1.2099882e-08
72K220,南改斗南分場,2025-03-23,23.634556,120.477333,4.6513624e-09
72AI40,桃改樹林分場,2025-03-23,24.944503,121.386972,4.460909e-07
C0S910,蘭嶼燈塔,2025-03-23,22.081197,121.503117,0.98631024
C0B050,八斗子,2025-03-23,25.144754,121.79167,1.0506536e-06
C0U900,內城,2025-03-23,24.71813,121.68766,2.5149236e-09
C0X320,柳營,2025-03-23,23.253328,120.375253,1.552701e-09
C0M790,新港,2025-03-23,23.553269,120.345728,8.6045535e-09
C0F9T0,西屯,2025-03-23,24.179494,120.641275,2.5041011e-09
C0SA30,都歷,2025-03-23,23.020333,121.323642,3.3145615e-09
C0C620,蘆竹,2025-03-23,25.084275,121.265767,3.3714068e-07
C0R730,大坪頂,2025-03-23,22.024633,120.69355,3.934904e-05
C0AJ40,石門,2025-03-23,25.273672,121.601198,1.0192397e-06
C0E750,苗栗,2025-03-23,24.564569,120.824575,2.4830472e-08
C0T870,鯉魚潭,2025-03-23,23.935639,121.508944,7.0182384e-09
C1V170,排雲,2025-03-23,23.463619,120.954147,3.015568e-08
C2H950,中寮,2025-03-23,23.884447,120.766406,1.5471019e-09
C0R350,貓鼻頭,2025-03-23,21.921774,120.7358,0.99976087
C0V660,岡山,2025-03-23,22.797078,120.294958,9.858261e-10
C1H941,雙冬,2025-03-23,23.967378,120.802189,3.0446308e-09
C0AJ70,田寮,2025-03-23,25.2698,121.4886,1.9349984e-06
C0AI00,五股,2025-03-23,25.07445,121.42728,8.164644e-08
C0Z280,德武,2025-03-23,23.47426,121.41071,4.542912e-09
C0R700,枋山,2025-03-23,22.246844,120.661086,7.4717175e-09
C0C460,復興,2025-03-23,24.820208,121.352281,1.3229159e-08
E2H360,蓮華池,2025-03-23,23.918333,120.885278,3.2598895e-09
C0M640,中埔,2025-03-23,23.42538,120.5229,1.5824738e-09
C0W140,金沙,2025-03-23,24.488292,118.408778,1.7087801e-08
C2A540,四堵,2025-03-23,24.8926,121.745736,6.397984e-09
C0ACA0,新莊,2025-03-23,25.051478,121.446756,8.85172e-09
C0R220,潮州,2025-03-23,22.534361,120.54,5.720561e-10
U2HA40,臺大內茅埔,2025-03-23,23.689722,120.851117,3.743282e-09
467490,臺中,2025-03-23,24.145736,120.684075,8.7650415e-10
C0U960,翠峰湖,2025-03-23,24.510856,121.608044,2.6824493e-08
E2HA20,林試畢祿溪站,2025-03-23,24.226944,121.308522,2.3069267e-08
C0V890,前鎮,2025-03-23,22.5718,120.3117,8.644687e-10
467620,蘭嶼,2025-03-23,22.036969,121.558339,0.9998614
C1F941,雪嶺,2025-03-23,24.280586,121.026642,3.1942673e-08
C2H9E0,國姓南港,2025-03-23,23.911108,120.846556,8.4639815e-09
C0AC80,文山,2025-03-23,25.00235,121.575728,1.169292e-08
C0F9R0,龍井,2025-03-23,24.184536,120.528972,4.8549357e-08
C0M760,民雄,2025-03-23,23.551754,120.428457,4.1099915e-09
C0UA40,西德山,2025-03-23,24.560647,121.752608,1.3617477e-08
C1T920,中興,2025-03-23,23.769503,121.498653,6.3616974e-09
C0D550,雪霸,2025-03-23,24.526972,121.11605,1.3723757e-08
C2F860,梨山,2025-03-23,24.247522,121.243669,2.3516149e-08
C0R320,車城,2025-03-23,22.0744,120.716247,0.77130896
C1S870,南美山,2025-03-23,23.15025,121.382333,8.048339e-09
C0B020,基隆嶼,2025-03-23,25.19141,121.78391,7.1449404e-07
C1U501,牛鬥,2025-03-23,24.637836,121.573656,2.645645e-09
C0M730,嘉義市東區,2025-03-23,23.457673,120.460531,1.3631971e-09
C0S700,知本,2025-03-23,22.684866,121.005642,1.2849658e-08
C1N001,沙崙,2025-03-23,22.935472,120.309406,1.2688037e-09
C0V760,橋頭,2025-03-23,22.757806,120.30575,7.1227757e-10
C0G960,福寶,2025-03-23,24.0443,120.3814,7.384179e-08
C0X210,白河,2025-03-23,23.347466,120.414427,1.4700229e-09
C0S810,東河,2025-03-23,22.972672,121.303986,3.0777128e-09
C2R170,屏東,2025-03-23,22.66027,120.49403,1.4406335e-09
C0R670,楓港,2025-03-23,22.190131,120.692156,5.228742e-08
C0FA50,霧峰,2025-03-23,24.0419,120.6995,1.4739198e-09
C0UB10,蘇澳,2025-03-23,24.5969,121.8571,3.1769123e-09
C0G950,防潮門,2025-03-23,24.1835,120.4871,4.8542596e-08
C0M740,六腳,2025-03-23,23.492871,120.290625,3.9416688e-09
C1R250,力里,2025-03-23,22.428117,120.629228,6.6439454e-10
C0K330,虎尾,2025-03-23,23.719183,120.442036,1.3678729e-08
C2FA00,烏石坑,2025-03-23,24.273503,120.947617,5.639528e-09
C0V620,永安,2025-03-23,22.82315,120.236856,9.861759e-10
C1I330,楓樹林,2025-03-23,23.986803,121.076117,7.65537e-09
C0W200,湖西,2025-03-23,23.596314,119.67275,0.3824456
72Q010,高雄農改場,2025-03-23,22.709333,120.525889,1.1598513e-09
C0SA40,瑞和,2025-03-23,22.974361,121.156697,3.850507e-09
C0C680,龜山,2025-03-23,25.02846,121.38656,3.240537e-08
C2V260,月眉,2025-03-23,22.971003,120.539853,1.501864e-09
C0V450,鳳森,2025-03-23,22.545064,120.392592,5.9796795e-10
C0U720,南山,2025-03-23,24.43742,121.38167,9.938845e-09
A2N290,臺南蘭花園區,2025-03-23,23.340258,120.379661,2.2182864e-09
C0R560,新園,2025-03-23,22.5434,120.461558,5.934277e-10
C0U890,三星,2025-03-23,24.66812,121.65302,2.25555e-09
C1V300,御油山,2025-03-23,23.001983,120.715364,6.183588e-09
C0U600,礁溪,2025-03-23,24.817539,121.765608,2.7093043e-09
C1T980,龍澗,2025-03-23,24.023289,121.411328,3.7099124e-08
C0D670,海天一線,2025-03-23,24.831986,120.914438,0.00054768677
C0SA00,歷坵,2025-03-23,22.520969,120.89185,1.0623826e-08
C0M710,東石,2025-03-23,23.458927,120.15385,4.370334e-09
C0M780,鹿草,2025-03-23,23.41134,120.30835,2.9991554e-09
C0U520,雙連埤,2025-03-23,24.753033,121.641303,4.6178332e-09
C0B010,七堵,2025-03-23,25.094819,121.71713,1.5501362e-08
C0R480,長治,2025-03-23,22.693128,120.542622,1.0722289e-09
C1V830,國三S383K,2025-03-23,22.781967,120.426475,1.18144e-09
12Q980,恆春工作站,2025-03-23,22.079678,120.714425,0.77130896
C1O940,東山服務區,2025-03-23,23.286016,120.398472,1.4141144e-09
C1U840,東澳嶺,2025-03-23,24.5378,121.8485,6.41738e-09
C1D630,飛鳳山,2025-03-23,24.766464,121.119178,2.3271943e-08
C0S940,石寧山,2025-03-23,23.223772,121.406639,6.763343e-09
C0K410,北港,2025-03-23,23.573957,120.292802,2.6224004e-08
C2M620,瑞里,2025-03-23,23.545133,120.675197,7.9735605e-09
C0SB70,小港漁港,2025-03-23,23.158558,121.400431,8.097812e-09
C2O950,安南,2025-03-23,23.076694,120.144861,1.438094e-09
C0F0E0,南湖圈谷,2025-03-23,24.363714,121.444667,3.46622e-08
467610,成功,2025-03-23,23.097486,121.373428,5.620028e-09
C0G890,伸港,2025-03-23,24.148933,120.484403,2.4669733e-08
C2E540,龍溪,2025-03-23,24.606489,120.783933,8.5540887e-07
C1V200,梅山,2025-03-23,23.268447,120.823556,4.722052e-09
C0T9H0,加路蘭山,2025-03-23,23.682947,121.5274,2.1678806e-08
C2O930,玉井,2025-03-23,23.126042,120.46055,1.1742846e-09
C1F911,新伯公,2025-03-23,24.221361,120.841069,1.6487043e-09
C0R490,九如,2025-03-23,22.7405,120.490503,1.1576169e-09
C0X200,左鎮,2025-03-23,23.056758,120.408522,8.9830704e-10
C0SB50,叭嗡嗡,2025-03-23,23.047062,121.343223,3.2077645e-09
C1F891,稍來,2025-03-23,24.265689,121.001142,1.9796579e-08
72N240,七股研究中心,2025-03-23,23.081672,120.062894,2.7056377e-09
C0C700,中壢,2025-03-23,24.977661,121.256375,3.2714954e-08
C0M690,水上,2025-03-23,23.419734,120.388909,1.9961008e-09
C0V690,鼓山,2025-03-23,22.623325,120.275575,8.6323293e-10
C0O860,大內,2025-03-23,23.11885,120.36083,8.8752317e-10
C0Z200,萬榮,2025-03-23,23.709219,121.420106,8.692575e-09
C0T9D0,和中,2025-03-23,24.26676,121.74103,1.24697905e-08
C1O921,楠西,2025-03-23,23.183511,120.484083,1.0428219e-09
C0AJ30,淡水觀海,2025-03-23,25.184591,121.408616,7.9353455e-08
C0V810,左營,2025-03-23,22.67491,120.28491,1.3400573e-09
C0UA70,桃源谷,2025-03-23,24.962606,121.888875,6.100436e-09
C0X130,官田,2025-03-23,23.193217,120.315422,1.1604289e-09
C1H000,翠峰,2025-03-23,24.109397,121.205211,1.4364006e-08
C0UA90,石城,2025-03-23,24.980444,121.951214,1.3809067e-08
C1E681,南勢山,2025-03-23,24.421669,120.923831,7.522151e-09
C0A9F0,內湖,2025-03-23,25.079422,121.57545,4.485295e-09
C0K291,宜梧,2025-03-23,23.536281,120.169329,1.6005085e-08
C1K540,口湖,2025-03-23,23.585344,120.180517,0.00013703844
C0R780,滿州,2025-03-23,22.024403,120.839892,2.0703865e-06
C0V870,文安,2025-03-23,22.8025,120.2164,9.905948e-10
C0U650,玉蘭,2025-03-23,24.675286,121.587061,4.2551696e-09
C0R640,東港,2025-03-23,22.46247,120.44074,7.178709e-10
K2E360,苗栗農改,2025-03-23,24.495722,120.829111,6.482226e-08
C0AJ80,板橋,2025-03-23,25.0107,121.4489,1.0746002e-08
C0S660,下馬,2025-03-23,23.150427,121.070312,1.8625528e-08
C1H9B1,阿眉,2025-03-23,24.1263,120.994672,2.5509017e-08
C0UA20,多加屯,2025-03-23,24.368614,121.373189,2.3208642e-08
C0E730,頭份,2025-03-23,24.688247,120.912206,0.00015073591
72V140,高改旗南分場,2025-03-23,22.857861,120.516667,1.3169511e-09
C0K480,莿桐,2025-03-23,23.761192,120.502372,6.6200285e-09
C0U980,坪林石牌,2025-03-23,24.86478,121.77396,4.491604e-09
C0T900,西林,2025-03-23,23.8119,121.441458,6.4581833e-09
C1I150,青雲,2025-03-23,23.793361,120.949378,3.0280272e-09
467350,澎湖,2025-03-23,23.565503,119.563094,0.5452891
C0G800,埔鹽,2025-03-23,24.000394,120.431683,8.242771e-08
C0H960,草屯,2025-03-23,23.973672,120.68085,1.4968337e-09
C1V780,多納林道,2025-03-23,22.888028,120.737917,2.9486225e-09
C0E920,通霄漁港,2025-03-23,24.498589,120.673876,2.7195992e-07
C0Z330,安通山,2025-03-23,23.290728,121.348528,6.953588e-09
C0AH10,永和,2025-03-23,25.01125,121.508111,1.0650385e-08
C0AK10,太平里,2025-03-23,25.134937,121.364899,3.6868002e-07
C2G640,鹿港,2025-03-23,24.0753,120.430481,7.383925e-08
C1E890,國三N149K,2025-03-23,24.463414,120.680019,2.5697648e-07
C1R110,口社,2025-03-23,22.770111,120.645222,1.1862631e-09
C1M870,國三N285K,2025-03-23,23.550319,120.505833,1.928189e-09
467050,新屋,2025-03-23,25.006744,121.047486,2.3456732e-07
C1E480,鳳美,2025-03-23,24.554803,121.034747,8.46064e-09
C0M530,奮起湖,2025-03-23,23.493903,120.699253,8.721687e-09
C0C590,觀音,2025-03-23,25.027072,121.153317,8.151524e-06
C0T9M0,靜浦,2025-03-23,23.455167,121.495028,4.33405e-09
C2H9M0,發祥,2025-03-23,24.154094,121.164517,1.7162536e-08
C0AI40,石牌,2025-03-23,25.115597,121.513139,1.2056434e-08
C1F871,上谷關,2025-03-23,24.203483,121.018644,5.5244826e-09
C2H9G0,百勝,2025-03-23,24.051142,120.909361,2.311533e-09
C0G880,二水,2025-03-23,23.810742,120.6173,2.0012816e-09
C0R940,加祿堂,2025-03-23,22.3363,120.6217,7.03479e-09
C0W220,北竿,2025-03-23,26.220358,119.974881,4.263377e-08
C0O960,崎頂,2025-03-23,22.959547,120.369317,1.2484849e-09
C0S750,向陽,2025-03-23,23.248397,120.986133,1.129872e-08
C0T9F0,水璉,2025-03-23,23.797131,121.542514,6.720189e-09
C1M600,頭凍,2025-03-23,23.406364,120.603339,7.413246e-09
467660,臺東,2025-03-23,22.752211,121.154586,2.0519122e-09
C1D380,新埔,2025-03-23,24.84745,121.03834,2.7781018e-05
C2G980,田頭村,2025-03-23,23.8263,120.444175,1.1916109e-08
C0V750,路竹,2025-03-23,22.854997,120.259439,1.3985808e-09
C0N050,蚵寮,2025-03-23,23.301,120.1104,2.884045e-09
72M700,南改鹿草分場,2025-03-23,23.416869,120.283061,3.1258278e-09
C1SA50,利嘉林道,2025-03-23,22.82325,121.009389,9.5471435e-09
467550,玉山,2025-03-23,23.487614,120.959522,4.7328474e-08
C0A940,金山,2025-03-23,25.223628,121.643967,1.8960417e-08
C1V340,大津,2025-03-23,22.888322,120.645986,1.5659598e-09
C0W180,七美,2025-03-23,23.219333,119.444892,0.82296956
C1F9C1,白冷,2025-03-23,24.182844,120.929889,1.9839246e-09
K2E710,苗改生物防治研究中心,2025-03-23,24.422861,120.871833,5.7374465e-09
C0N040,蘆竹溝,2025-03-23,23.2344,120.0961,2.7273006e-09
C2W230,畜試所澎湖,2025-03-23,23.628342,119.513206,0.5429338
C0R880,後壁湖,2025-03-23,21.9457,120.7457,0.9304305
C1I280,埔中,2025-03-23,23.820778,120.642594,2.5917337e-09
467790,墾丁雷達站,2025-03-23,21.948235,120.808028,0.011713729
C0W190,望安,2025-03-23,23.380564,119.494075,0.45048562
466881,新北,2025-03-23,24.9593,121.52,3.2465354e-07
C0Z170,卓溪,2025-03-23,23.3443,121.3029,5.514818e-09
C0F850,東勢,2025-03-23,24.246428,120.833047,1.6350286e-09
466900,淡水,2025-03-23,25.164889,121.448906,3.687011e-07
C0I370,魚池,2025-03-23,23.895703,120.94135,3.008167e-09
C0C630,大溪,2025-03-23,24.882853,121.265547,1.7104227e-07
C0A520,山佳,2025-03-23,24.974944,121.402008,3.063553e-08
C0I110,竹山,2025-03-23,23.761225,120.688156,2.0794364e-09
82H840,茶改南部分場,2025-03-23,23.762528,120.7405,1.990102e-09
C0G660,溪湖,2025-03-23,23.94835,120.479122,4.9979274e-09
C1T800,洛韶,2025-03-23,24.204558,121.453956,2.4561604e-08
C1T810,慈恩,2025-03-23,24.192044,121.388386,1.03395745e-08
C1E451,象鼻,2025-03-23,24.368617,120.940228,5.5963456e-09
C0AC60,三峽,2025-03-23,24.939025,121.369728,4.5980514e-07
C0I490,萬大林道,2025-03-23,23.928228,121.091411,9.925301e-09
C1I290,豐丘,2025-03-23,23.668178,120.887417,8.189158e-09
C1I320,奧萬大,2025-03-23,23.952956,121.178556,5.464913e-09
C2M910,嘉義大學,2025-03-23,23.471325,120.485903,1.6012466e-09
C0U770,南澳,2025-03-23,24.44935,121.81022,3.9262193e-09
C0A980,社子,2025-03-23,25.109508,121.469681,3.9125973e-07
C0V800,六龜,2025-03-23,22.997889,120.633583,2.2017164e-09
C1G9D0,國一S218K,2025-03-23,23.890641,120.493253,7.792167e-09
C0E570,白沙屯,2025-03-23,24.549447,120.696803,0.0033182858
C2F9A0,中竹林,2025-03-23,24.103556,120.751061,2.1097348e-09
C0FA40,臺中電廠,2025-03-23,24.2146,120.4907,4.8551115e-08
C2G9A0,畜試所彰化,2025-03-23,23.86045,120.557964,4.467365e-09
C0H9C0,合歡山,2025-03-23,24.143442,121.272547,3.2718635e-08
C0X060,下營,2025-03-23,23.22695,120.256261,1.3172953e-09
G2M350,農試溪口農場,2025-03-23,23.58565,120.408111,4.2003365e-09
C0U860,頭城,2025-03-23,24.85323,121.8308,2.7041467e-09
C0R580,南州,2025-03-23,22.48591,120.50274,7.178709e-10
C0D430,峨眉,2025-03-23,24.6905,121.017189,1.4479143e-07
C0G780,秀水,2025-03-23,24.03405,120.503869,3.6446202e-09
72N100,臺南農改場,2025-03-23,23.0605,120.342194,8.8470736e-10
C0S900,蘭嶼高中,2025-03-23,22.04909,121.51214,0.98874885
467540,大武,2025-03-23,22.355675,120.903789,2.3710345e-06
C1F9W0,德基,2025-03-23,24.254783,121.190261,1.7803885e-08
C1Z120,壽豐,2025-03-23,23.870853,121.508081,6.308363e-09
C0W160,烏坵,2025-03-23,24.9944,119.44956,4.9112884e-07
C1I240,外大坪,2025-03-23,23.958697,120.917931,5.0115587e-09
C1I550,國六W023K,2025-03-23,23.979067,120.867742,1.9464799e-09
C0R870,興海,2025-03-23,21.9752,120.8439,0.09188607
C0R140,瑪家,2025-03-23,22.682903,120.686639,2.367058e-09
C0A530,坪林,2025-03-23,24.938183,121.70975,6.8074626e-09
C0X260,後壁,2025-03-23,23.366358,120.362326,1.2814996e-09
C0Z230,和平,2025-03-23,24.30717,121.77007,1.2667006e-08
C0G770,福興,2025-03-23,24.041289,120.437669,8.150501e-08
C0H9A0,神木村,2025-03-23,23.532742,120.843667,1.5030684e-08
C0I460,南投,2025-03-23,23.911469,120.687331,1.4704322e-09
C0I480,梅峰,2025-03-23,24.085272,121.173572,1.2747838e-08
C1V570,吉東,2025-03-23,22.85422,120.5454,1.3198556e-09
C2D740,屯原,2025-03-23,24.067969,121.209389,1.19762396e-08
C2A560,福山,2025-03-23,24.776203,121.502811,6.6646244e-09
C0AH30,五分山,2025-03-23,25.07125,121.780794,1.1640805e-08
C0FA10,松柏,2025-03-23,24.429115,120.617482,2.0253796e-07
72S200,東改班鳩分場,2025-03-23,22.829528,121.077694,2.2867868e-09
72HA00,中改埔里分場,2025-03-23,23.903208,120.963364,3.138014e-09
C2H9W0,大坪頂農水,2025-03-23,24.043122,120.932781,4.839503e-09
C0C650,平鎮,2025-03-23,24.897503,121.214636,1.9468897e-07
C0S930,延平,2025-03-23,22.902581,121.084058,2.8827194e-09
C0UA60,樟樹山,2025-03-23,24.41393,121.78325,8.744925e-09
C1S670,摩天,2025-03-23,23.199503,121.027,2.8586731e-08
C0V630,茄萣,2025-03-23,22.906642,120.182608,1.3087429e-09
466940,基隆,2025-03-23,25.133314,121.740475,9.836189e-07
C0X050,東河,2025-03-23,23.296598,120.385608,1.4713272e-09
C0R770,保力,2025-03-23,22.071122,120.764111,0.0027913023
G2L020,農試嘉義分所,2025-03-23,23.485028,120.473806,2.2412137e-09
C0X240,關子嶺,2025-03-23,23.331169,120.508025,1.9714275e-09
C0I380,集集,2025-03-23,23.828206,120.801467,1.9861128e-09
466990,花蓮,2025-03-23,23.975128,121.613275,1.0990686e-08
C1V220,小關山,2025-03-23,23.154217,120.813603,8.123771e-09
C1F9G1,慶福山,2025-03-23,24.180853,120.848378,2.6325273e-09
C0Z250,瑞穗林道,2025-03-23,23.49284,121.30688,2.5729738e-08
C0D590,新豐,2025-03-23,24.87068,120.97721,3.4220942e-05
C0A870,五指山,2025-03-23,25.132153,121.608692,1.39766945e-08
C0UA50,西帽山,2025-03-23,24.555361,121.802628,8.344577e-09
C0X160,仁德,2025-03-23,22.968258,120.257689,1.1757076e-09
C1H971,六分寮,2025-03-23,23.92507,120.6378,3.4049765e-09
C0W120,西嶼,2025-03-23,23.5626,119.468436,0.46448395
C0G650,員林,2025-03-23,23.946503,120.585597,1.7812775e-09
C0AD50,鶯歌,2025-03-23,24.951533,121.346294,3.782424e-07
C2H9Q0,北東眼山,2025-03-23,24.120939,121.189303,2.1668596e-08
C2H9T0,名間竹圍,2025-03-23,23.859914,120.637572,2.255451e-09
C0S990,山豬窟,2025-03-23,22.318619,120.857372,2.1252527e-08
72Q010,高雄農改,2025-03-23,22.709333,120.525889,4.7833035e-09
C0X190,安平,2025-03-23,22.993161,120.152181,1.2228107e-09
C0K400,斗六,2025-03-23,23.720583,120.541127,4.713153e-09
12J990,口湖工作站,2025-03-23,23.589978,120.180394,0.00012465646
C0O830,北寮,2025-03-23,23.079561,120.495008,1.3737316e-09
C1D410,白蘭,2025-03-23,24.579364,121.079947,1.152759e-08
C0S970,加津林,2025-03-23,22.416211,120.926942,3.8567787e-08
C0D700,關西,2025-03-23,24.7977,121.1732,1.1998755e-07
C0M810,里佳,2025-03-23,23.389125,120.716647,9.890736e-09
C0U750,龜山島,2025-03-23,24.841667,121.953133,4.335257e-09
C0R810,內獅,2025-03-23,22.305064,120.642986,6.9864914e-09
C1M390,龍美,2025-03-23,23.406728,120.654417,8.2320835e-09
C2FB60,頭櫃山,2025-03-23,24.129842,120.858925,8.888128e-09
C1H840,國三N238K,2025-03-23,23.841008,120.707711,2.146849e-09
CAQ030,崎峰國小,2025-03-23,22.42565,120.49521,7.178709e-10
C2E520,大湖,2025-03-23,24.414939,120.870872,6.732749e-09
467530,阿里山,2025-03-23,23.508208,120.813242,2.277977e-08
C1E691,南湖,2025-03-23,24.40135,120.837533,6.4268852e-09
C0FA30,梧棲,2025-03-23,24.256003,120.523381,1.1018774e-07
C1V231,高中,2025-03-23,23.134911,120.716711,2.7983103e-09
C0F9V0,新社,2025-03-23,24.200172,120.815806,1.794964e-09
C0H890,埔里,2025-03-23,23.972169,120.952425,1.6933193e-09
C0R690,墾丁,2025-03-23,21.966756,120.810269,7.871369e-06
C0F0D0,審馬陣,2025-03-23,24.381675,121.4203,2.8833094e-08
C2W030,金門農試所,2025-03-23,24.448431,118.451786,3.215914e-08
C0R820,白鷺,2025-03-23,22.454275,120.666219,2.9301046e-09
U2H480,臺大溪頭,2025-03-23,23.670306,120.798194,4.7923625e-09
C1V190,南天池,2025-03-23,23.27403,120.91176,1.2663142e-08
K2E360,苗栗農改場,2025-03-23,24.495722,120.829111,1.2631203e-08
CAJ050,海口故事園區,2025-03-23,23.57543,120.14121,0.00013703844
C2H9D0,三隻寮,2025-03-23,24.093078,120.861578,4.9108033e-09
C0O990,媽廟,2025-03-23,22.99175,120.293525,1.1297552e-09
C0D480,打鐵坑,2025-03-23,24.849664,121.150789,1.172825e-07
C0Z220,和平林道,2025-03-23,24.343922,121.656317,6.6585635e-09
C0TA10,花蓮漁港,2025-03-23,23.995322,121.638331,1.10024105e-08
72C440,桃園農改場,2025-03-23,24.950944,121.030583,2.8077484e-05
C1E711,馬拉邦山,2025-03-23,24.367306,120.901656,7.3437243e-09
C0SB20,富岡,2025-03-23,22.792467,121.192669,1.8391116e-09
C0D560,竹東,2025-03-23,24.767147,121.057881,1.07868104e-07
C0F9U0,南屯,2025-03-23,24.137006,120.637969,3.6566035e-09
C0M720,番路,2025-03-23,23.464657,120.554156,1.9534163e-09
C0F0A0,雪山圈谷,2025-03-23,24.388594,121.236339,3.7888316e-08
C1A9N0,四十份,2025-03-23,24.934158,121.593283,8.178107e-09
C0U760,東澳,2025-03-23,24.52196,121.83318,2.780503e-09
C0X230,鹽水,2025-03-23,23.272621,120.247641,2.8168332e-09
C2H9H0,苗改南投蜂場,2025-03-23,23.852589,120.693481,2.0450748e-09
C0R950,萬隆國小,2025-03-23,22.507667,120.587817,5.684635e-10
467540,大武,2025-03-23,22.35572,120.90374,4.1817692e-08
C0V370,古亭坑,2025-03-23,22.893178,120.401947,7.0258693e-10
C1I340,新興橋,2025-03-23,23.563333,120.868728,4.074617e-09
C0SA80,土坂,2025-03-23,22.453108,120.887572,1.81838e-08
C0R160,鹽埔,2025-03-23,22.739558,120.530778,1.1598402e-09
C0AC40,大屯山,2025-03-23,25.175675,121.522408,3.2592137e-08
466850,五分山雷達站,2025-03-23,25.071182,121.781205,1.1761613e-08
C2H9L0,馬烈霸,2025-03-23,24.1512,121.201772,2.2159448e-08
C1AI50,國三N016K,2025-03-23,25.034164,121.619664,4.4054342e-09
C1V600,藤枝,2025-03-23,23.071961,120.757042,6.187847e-09
C1E601,南勢,2025-03-23,24.572486,120.734842,0.0004222311
C0Z180,新城,2025-03-23,24.03946,121.60454,1.0754471e-08
C0O980,新市,2025-03-23,23.061614,120.298197,8.934883e-10
C0K420,西螺,2025-03-23,23.800407,120.467394,1.1814337e-08
C0Z050,佳心,2025-03-23,23.34567,121.21316,2.3157483e-08
C0AD30,蘆洲,2025-03-23,25.086594,121.472331,4.4851576e-09
C0V610,梓官,2025-03-23,22.760558,120.267211,7.185106e-10
K2F750,種苗改良場,2025-03-23,24.225972,120.800917,1.7107717e-09
C0UA80,大溪漁港,2025-03-23,24.941801,121.902955,6.177481e-09
C1AI60,國一39K邊坡,2025-03-23,25.064361,121.383836,3.260053e-08
C0W150,金寧,2025-03-23,24.457703,118.328989,3.1717796e-08
C0R960,內埔,2025-03-23,22.608483,120.570714,6.841302e-10
V2C250,八德合作社,2025-03-23,24.93775,121.266389,2.4361944e-07
C2H9S0,龍南,2025-03-23,23.953536,120.833183,5.4800897e-09
C0AH40,平等,2025-03-23,25.129142,121.577086,1.1580834e-08
C0R540,佳冬,2025-03-23,22.419456,120.552375,1.0344915e-09
466950,彭佳嶼,2025-03-23,25.627975,122.079744,0.00066438876
C0A890,雙溪,2025-03-23,25.036003,121.864242,6.17202e-07
C0C480,桃園,2025-03-23,24.992425,121.323172,3.679799e-08
C0AH50,林口,2025-03-23,25.072181,121.38084,3.239363e-08
A2K360,水試臺西試驗場,2025-03-23,23.717231,120.190522,3.8940703e-07
B2N890,畜試所,2025-03-23,23.058972,120.336406,7.4348463e-06
C2M960,外寮,2025-03-23,23.562643,120.665688,5.7792042e-09
C0F9S0,烏日,2025-03-23,24.107058,120.624103,1.5097421e-09
C0C490,八德,2025-03-23,24.928708,121.283289,2.4151828e-07
C0R190,赤山,2025-03-23,22.592333,120.614306,6.839958e-10
C0T820,天祥,2025-03-23,24.179597,121.495639,1.12119265e-08
C1F9E1,龍安,2025-03-23,24.1605,120.831961,1.8700808e-09
C0V820,小林,2025-03-23,23.148408,120.63325,1.6491698e-09
C2G870,芳苑,2025-03-23,23.922303,120.320025,3.5021162e-07
C0E850,大河,2025-03-23,24.618069,120.948578,1.0848354e-08
C1U670,寒溪,2025-03-23,24.634,121.71691,1.2534502e-09
C0N020,城西,2025-03-23,23.0568,120.0956,1.496237e-09
C1Z110,三棧,2025-03-23,24.11557,121.60501,3.739195e-08
C0R280,檳榔,2025-03-23,22.076078,120.836777,1.331308e-06
C2H9J0,中台,2025-03-23,23.9996,120.938739,3.986231e-09
C0F9L0,后里,2025-03-23,24.310436,120.729725,2.3964954e-09
467441,高雄,2025-03-23,22.730432,120.312516,7.0303735e-10
C0D540,橫山,2025-03-23,24.71116,121.11693,1.2486807e-08
C1D420,太閣南,2025-03-23,24.632808,121.160575,1.7672006e-08
C1E770,公館,2025-03-23,24.526914,120.830806,1.2691771e-08
CAN130,水試所海水繁養殖中心,2025-03-23,23.120802,120.07968,2.702899e-09
C1I430,翠華,2025-03-23,24.191961,121.224339,1.7396202e-08
C1M400,菜瓜坪,2025-03-23,23.251928,120.576103,2.3912994e-09
C0G730,二林,2025-03-23,23.903325,120.376081,2.8476214e-07
72M360,南改義竹分場,2025-03-23,23.360694,120.279361,2.5714273e-09
V2K620,麥寮合作社,2025-03-23,23.753836,120.294783,4.507404e-09
C0Z070,舞鶴,2025-03-23,23.46811,121.37407,4.6279998e-09
C0B040,大武崙,2025-03-23,25.166676,121.706993,7.406133e-07
C1Z030,紅葉,2025-03-23,23.493119,121.338806,4.4857567e-09
C1I050,丹大,2025-03-23,23.753747,121.141147,1.3563068e-08
C0I080,信義,2025-03-23,23.689694,120.851036,3.7432746e-09
C2M920,朴子農改,2025-03-23,23.469889,120.259383,3.1415714e-09
C2A880,福隆,2025-03-23,25.017842,121.942083,1.390461e-08
C0Z160,鳳林,2025-03-23,23.746114,121.453411,8.753452e-09
C0V210,復興,2025-03-23,23.222403,120.806089,3.195088e-09
C0H990,昆陽,2025-03-23,24.121322,121.273642,2.345903e-08
C0R741,獅子,2025-03-23,22.202308,120.705236,3.538025e-08
C0S710,鹿野,2025-03-23,22.917711,121.122994,4.407174e-09
C0I530,小奇萊,2025-03-23,24.131764,121.295717,2.4453533e-08
C2K630,荷苞,2025-03-23,23.657717,120.595144,1.6355401e-09
C0Z080,富源,2025-03-23,23.587642,121.378225,1.5389446e-08
467441,高雄,2025-03-23,22.7304,120.3125,0.0027875048
C0SB10,美和,2025-03-23,22.682078,121.060236,2.0757126e-08
C2K620,馬光農場,2025-03-23,23.721453,120.378864,1.4520357e-08
C1I140,卡奈托灣,2025-03-23,23.754364,121.087872,6.6362613e-09
C0I520,玉山風口,2025-03-23,23.470489,120.955994,3.9550304e-08
C1G691,下水埔,2025-03-23,23.816114,120.5676,6.4525194e-09
C0X110,臺南市南區,2025-03-23,22.961189,120.188378,1.1762662e-09
C0V680,仁武,2025-03-23,22.701083,120.347722,1.3388055e-09
C2G840,北斗,2025-03-23,23.877586,120.514222,7.654742e-09
C0R900,竹坑,2025-03-23,22.1385,120.7022,2.3754473e-07
C0K250,崙背,2025-03-23,23.75555,120.318925,4.5299586e-09
C0G860,社頭,2025-03-23,23.897647,120.5862,2.536965e-09
C0X150,安定,2025-03-23,23.102614,120.227839,8.96715e-10
C0R590,里港,2025-03-23,22.77919,120.49459,1.1748513e-09
C0E610,馬都安,2025-03-23,24.451272,120.930192,6.678125e-09
C0E550,明德,2025-03-23,24.583486,120.885411,2.4441455e-08
C0R150,三地門,2025-03-23,22.709889,120.639944,1.184041e-09
C0G910,花壇,2025-03-23,24.032076,120.549461,3.565602e-09
C1D400,鳥嘴山,2025-03-23,24.71909,121.28387,1.39150105e-08
C0K500,元長,2025-03-23,23.64981,120.315024,5.283033e-09
C0F0B0,石岡,2025-03-23,24.276061,120.777644,2.4717763e-09
C2V250,甲仙,2025-03-23,23.080106,120.591758,1.6007305e-09
C0SA20,金崙山,2025-03-23,22.567419,120.959667,1.4918523e-08
C0V350,溪埔,2025-03-23,22.738578,120.446797,1.1926631e-09
C0M660,溪口,2025-03-23,23.604131,120.403569,4.2003365e-09
C1S880,壽卡,2025-03-23,22.238911,120.858903,2.0766986e-08
72D680,桃改新埔分場,2025-03-23,24.834444,121.066111,3.0499583e-05
