站號,站名,日期,lat,lon,BLBTSLS
C0R710,龍磐,2025-09-19,21.931672,120.838942,0.038153235
C1F9D1,白毛台,2025-09-19,24.158325,120.886933,0.9916228
C0G940,竹塘,2025-09-19,23.848253,120.386764,0.8725529
467590,恆春,2025-09-19,22.003897,120.746339,0.05208869
C1O850,環湖,2025-09-19,23.148617,120.418633,0.30496886
C0U710,太平山,2025-09-19,24.505486,121.525656,1.5121262e-08
C0E820,獅潭,2025-09-19,24.539133,120.920042,0.39673677
C0V880,興達,2025-09-19,22.8778,120.2127,0.19941103
C0S890,關山,2025-09-19,23.0395,121.175017,0.4892244
C0SB30,新蘭,2025-09-19,22.869214,121.223228,0.34833974
C2R970,屏科大,2025-09-19,22.648275,120.619247,0.1740632
C1Z130,銅門,2025-09-19,23.965694,121.492842,0.6838947
C0AD40,土城,2025-09-19,24.973208,121.445169,0.1165042
CAN140,六官養殖協會,2025-09-19,23.22881,120.29962,0.34705696
C0X180,山上,2025-09-19,23.0757,120.363253,0.20203808
C0F9Z0,雪山東峰,2025-09-19,24.388792,121.268675,2.3260005e-08
C1M480,獨立山,2025-09-19,23.537022,120.607797,0.9992773
C0X220,學甲,2025-09-19,23.230367,120.182187,0.3468709
467650,日月潭,2025-09-19,23.881325,120.90805,0.99667627
C0K600,箔子寮,2025-09-19,23.6197,120.14,0.2875781
C0G830,埤頭,2025-09-19,23.866003,120.452806,0.86501616
C0S950,七塊厝,2025-09-19,22.954453,121.229922,0.9831747
467110,金門,2025-09-19,24.407306,118.289281,0.7977464
C0AH80,深坑,2025-09-19,25.002703,121.628328,0.12121382
C0A970,三貂角,2025-09-19,25.007606,122.002058,0.084957816
C2D730,寶山農場,2025-09-19,24.732444,120.976153,0.28439865
C0K430,褒忠,2025-09-19,23.690938,120.303634,0.64625776
467480,嘉義,2025-09-19,23.495925,120.432906,0.2931174
C0V400,阿公店,2025-09-19,22.804194,120.355528,0.21401489
C0E960,觀霧分站,2025-09-19,24.505781,121.113921,1.5021255e-08
467550,玉山,2025-09-19,23.48718,120.95943,2.5678947e-08
C0R440,大漢山,2025-09-19,22.405264,120.753181,5.397736e-08
C0K280,四湖,2025-09-19,23.630414,120.227125,0.6547324
C1F9B1,桐林,2025-09-19,24.066172,120.735194,0.30427787
C2H9U0,鳳鵬,2025-09-19,23.763919,120.788061,0.36904928
C0K390,土庫,2025-09-19,23.679029,120.395574,0.8653541
C1I450,望鄉山,2025-09-19,23.594153,120.944286,1.3857007e-08
C0E910,海埔,2025-09-19,24.648767,120.772435,0.28875947
B2E890,畜試北區分所,2025-09-19,24.527806,120.770972,0.28575817
C0R750,四林格山,2025-09-19,22.076989,120.802439,0.98850536
C0F0C0,中坑,2025-09-19,24.248517,120.903319,0.9946079
C1I121,大鞍,2025-09-19,23.678381,120.760017,1.1932652e-06
72U480,花改蘭陽分場,2025-09-19,24.686306,121.716583,0.09434123
C0A770,科教館,2025-09-19,25.096356,121.516507,0.11547727
C0AJ60,六塊厝,2025-09-19,25.24,121.4481,0.114892885
C0R620,墾雷,2025-09-19,21.900836,120.855269,0.049492072
467420,永康,2025-09-19,23.038386,120.2367,0.19829015
C0I410,名間,2025-09-19,23.837053,120.701447,0.7818459
A2C560,農工中心,2025-09-19,24.985917,121.239833,0.29809907
C0V740,旗山,2025-09-19,22.888614,120.483597,0.19292738
C0Z061,玉里,2025-09-19,23.3215,121.339656,0.38412383
C0S840,南田,2025-09-19,22.279725,120.889208,0.07292449
C1I470,杉林溪,2025-09-19,23.639517,120.786444,5.1299374e-08
C1X040,東原,2025-09-19,23.291597,120.463822,0.16551164
C0R660,枋寮,2025-09-19,22.367722,120.590647,0.16340324
C1R120,上德文,2025-09-19,22.763272,120.704442,0.9989238
C0K450,大埤,2025-09-19,23.646074,120.431537,0.8639048
C0UA00,土場,2025-09-19,24.576533,121.495333,0.9490751
467080,宜蘭,2025-09-19,24.763975,121.756528,0.098448426
C0N030,四草,2025-09-19,23.0235,120.1116,0.345639
467410,臺南,2025-09-19,22.99328,120.20492,0.19928306
C0V650,彌陀,2025-09-19,22.783806,120.246361,0.24540788
C0D660,新竹市東區,2025-09-19,24.798681,120.986942,0.28391302
82S580,茶改東部分場,2025-09-19,22.907694,121.130139,0.4327635
C0SB40,興隆,2025-09-19,22.913661,121.257469,0.34595448
467050,新屋,2025-09-19,25.006725,121.047492,0.26370966
C0C710,大溪永福,2025-09-19,24.892936,121.324975,0.31044835
C0FA20,溫寮,2025-09-19,24.372177,120.583125,0.26993337
C0V640,湖內,2025-09-19,22.887139,120.2445,0.19939801
C0R910,下寮,2025-09-19,22.3929,120.5548,0.1634128
C0Z020,明里,2025-09-19,23.208717,121.262342,0.4895828
C0M770,嘉義梅山,2025-09-19,23.585398,120.555587,0.7848479
C0C660,楊梅,2025-09-19,24.912375,121.143047,0.3348082
C1E511,新開,2025-09-19,24.347703,120.827019,0.1701509
G2F820,農試所(霧峰),2025-09-19,24.031261,120.688133,0.2815128
C1I070,和社,2025-09-19,23.591131,120.888861,0.9979155
C0TA80,立霧山,2025-09-19,24.183258,121.641899,0.96871656
C2F000,大肚,2025-09-19,24.15295,120.572117,0.36343566
C1S850,豐南,2025-09-19,23.122139,121.262389,0.9973544
C2A920,富貴角,2025-09-19,25.263783,121.565258,0.20652907
CAH030,茶改場竹圍站,2025-09-19,23.860083,120.637528,0.17898923
C0T960,光復,2025-09-19,23.660694,121.424964,0.7081368
C0F9M0,豐原,2025-09-19,24.254322,120.720692,0.40021276
C0R720,旭海,2025-09-19,22.205403,120.887614,0.046179753
C0V710,苓雅,2025-09-19,22.622742,120.330669,0.23683101
C0C740,觀音工業區,2025-09-19,25.064764,121.114856,0.26349142
CAC040,拉拉山,2025-09-19,24.699317,121.427133,1.2583632e-07
C0V790,萬山,2025-09-19,22.905944,120.688056,0.3944522
U2HA30,臺大和社,2025-09-19,23.590856,120.888864,0.9979155
C0AJ90,澳底,2025-09-19,25.0552,121.9253,0.098648645
C0Z100,東華,2025-09-19,23.89525,121.549833,0.73057705
C0G970,三豐,2025-09-19,23.882,120.2895,0.6579121
V2K610,大庄合作社,2025-09-19,23.8068,120.367939,0.64791244
C0V900,汕尾,2025-09-19,22.4782,120.4151,0.16300829
C1R630,龍泉,2025-09-19,22.66701,120.59091,0.16612813
C1AC50,關渡,2025-09-19,25.133486,121.469331,0.13254613
C0C800,四稜,2025-09-19,24.64733,121.4293,0.36486405
C0F9I0,神岡,2025-09-19,24.272481,120.658314,0.34237155
C0K460,斗南,2025-09-19,23.678734,120.478359,0.8536364
C2O810,曾文,2025-09-19,23.219681,120.497328,0.16706227
467280,後龍,2025-09-19,24.648563,120.831834,0.28862917
C1F9J1,清水林,2025-09-19,24.071242,120.820419,0.9990086
C2A650,火燒寮,2025-09-19,25.002719,121.742892,0.07138711
466930,竹子湖,2025-09-19,25.162078,121.544547,0.99571776
C1I220,樟湖,2025-09-19,23.905333,120.846983,0.9886757
C0I390,仁愛,2025-09-19,24.022122,121.132206,0.9808265
C0Z300,東里,2025-09-19,23.26853,121.30547,0.40392655
C1V590,新發,2025-09-19,23.057019,120.646064,0.995402
C0K510,水林,2025-09-19,23.572924,120.24597,0.28710413
72S590,東改賓朗果園,2025-09-19,22.813889,121.071278,0.7232325
82A750,茶改北部分場,2025-09-19,24.955778,121.631222,0.7881817
C1A750,石碇服務區,2025-09-19,25.00872,121.646242,0.122460544
C0X300,鹿寮,2025-09-19,23.386047,120.477331,0.82150936
G2AI50,關渡,2025-09-19,25.11575,121.492,0.115065955
C0K590,雲林東勢,2025-09-19,23.674192,120.255721,0.6473926
C0A570,桶後,2025-09-19,24.848222,121.597992,0.74078923
C1S800,華源,2025-09-19,22.657883,121.02325,0.3685181
C0G720,溪州,2025-09-19,23.851589,120.499093,0.8519062
C1V160,達卡努瓦,2025-09-19,23.279811,120.705319,0.9819767
C2M410,馬頭山,2025-09-19,23.324361,120.582017,0.2031333
C0V850,蚵仔寮,2025-09-19,22.7256,120.2527,0.25306547
C0S740,池上,2025-09-19,23.119628,121.209469,0.6928598
C1V390,尖山,2025-09-19,22.813153,120.367789,0.18693234
C0AH70,松山,2025-09-19,25.04871,121.55042,0.116778076
C0N010,鯤鯓國小,2025-09-19,23.1879,120.0889,0.3466894
C0R550,新埤,2025-09-19,22.467947,120.582894,0.14582145
C0SA60,知本（水試所）,2025-09-19,22.702394,121.082761,0.36769518
C0T9I0,豐濱,2025-09-19,23.583897,121.514806,0.69908637
C0UB00,淡江大學蘭陽校園,2025-09-19,24.823239,121.730383,0.22274843
C0W240,九宮,2025-09-19,24.423753,118.240186,0.7953145
C0T9N0,富里,2025-09-19,23.171639,121.249378,0.5603788
U2HA50,臺大竹山,2025-09-19,23.756972,120.681556,0.7814681
C0V840,鳳鼻頭,2025-09-19,22.5083,120.3591,0.25306547
C0X140,西港,2025-09-19,23.125608,120.203108,0.34744015
72D080,桃改五峰分場,2025-09-19,24.612194,121.157167,0.9895485
C2H9P0,伊拿谷,2025-09-19,23.963211,121.088264,0.99743843
C2H9F0,柑林,2025-09-19,24.018658,120.847072,0.36271977
C0TA20,加灣,2025-09-19,24.082025,121.608944,0.7384197
C0V530,阿蓮,2025-09-19,22.883208,120.327508,0.19950937
C0FB30,八仙山苗圃,2025-09-19,24.192719,121.001366,0.9956455
C1O880,關山,2025-09-19,23.173397,120.594092,0.20842226
C0E791,卓蘭,2025-09-19,24.3126,120.8244,0.17377101
C1I030,武界,2025-09-19,23.913225,121.052483,0.99748856
C0R520,崁頂,2025-09-19,22.514781,120.506914,0.15730709
C0R341,牡丹,2025-09-19,22.130036,120.792639,0.18062748
C0R930,萬丹,2025-09-19,22.5885,120.4851,0.15344341
C0S760,紅石,2025-09-19,23.069131,121.126219,3.9146983e-08
C2C410,中央大學,2025-09-19,24.967652,121.185165,0.301916
C1M610,石磐龍,2025-09-19,23.496606,120.663506,0.9879349
C0C790,東眼山,2025-09-19,24.8284,121.40888,0.9979849
C0UA10,鴛鴦湖,2025-09-19,24.590269,121.412228,8.588275e-08
V2C260,八德蔬果,2025-09-19,24.978508,121.281819,0.29362613
C0R800,丹路,2025-09-19,22.204481,120.750989,0.117455356
C0G920,永靖,2025-09-19,23.924703,120.547533,0.5113476
C2M950,太和,2025-09-19,23.538372,120.702961,0.0038344103
C1A630,下盆,2025-09-19,24.771003,121.538622,0.96731925
B2N890,畜產試驗所,2025-09-19,23.058972,120.336406,0.20001188
C0UA30,白嶺,2025-09-19,24.527819,121.519031,2.187389e-06
C1V580,溪南(特生中心),2025-09-19,23.084972,120.788475,8.971093e-08
C1T970,大農,2025-09-19,23.615233,121.413331,0.6874916
C0R650,竹田,2025-09-19,22.58486,120.54344,0.15333708
C1H900,清流,2025-09-19,24.080775,120.962997,0.99745125
C1C510,水尾,2025-09-19,24.940081,121.087161,0.284484
C0F9X0,大雅(中科園區),2025-09-19,24.21528,120.62445,0.36519212
C0SB60,白守蓮,2025-09-19,23.126769,121.401914,0.3698976
C0O970,虎頭埤,2025-09-19,23.021375,120.347878,0.202363
C0C730,中大臨海站,2025-09-19,24.966126,121.008581,0.26600152
C0X250,新營,2025-09-19,23.310689,120.316681,0.3462206
C0V700,三民,2025-09-19,22.645017,120.311233,0.23683101
C0U870,大礁溪,2025-09-19,24.791042,121.675047,0.68518806
C0E870,高鐵苗栗,2025-09-19,24.60725,120.826094,0.27020013
A2K570,古坑花卉中心,2025-09-19,23.63353,120.55239,0.8082028
C0TA30,鹽寮,2025-09-19,23.845606,121.592664,0.7384197
C0M860,新美,2025-09-19,23.338017,120.683169,0.99178356
C1E701,八卦,2025-09-19,24.491756,120.927619,0.9978898
C0I420,國姓,2025-09-19,24.037803,120.855072,0.36438763
C2D720,關西工作站,2025-09-19,24.757275,121.184792,0.33149153
C0S960,香蘭,2025-09-19,22.587569,120.993375,0.07297912
467620,蘭嶼,2025-09-19,22.0369,121.55843,0.8086968
C0R260,春日,2025-09-19,22.370361,120.628306,0.12765548
72G600,臺中農改場,2025-09-19,24.003028,120.534389,0.5192319
C0Z210,瑞穗,2025-09-19,23.5239,121.39021,0.7062253
C0M820,達邦,2025-09-19,23.453994,120.749517,0.99568355
C0V860,南寮,2025-09-19,22.7616,120.2339,0.2525865
C0G740,大城,2025-09-19,23.852487,120.320935,0.64617383
C0R920,塭仔,2025-09-19,22.4169,120.5197,0.16300829
C0R470,高樹,2025-09-19,22.826389,120.600806,0.17017125
C0R680,佳樂水,2025-09-19,21.993578,120.861633,0.052060857
C1O870,大棟山,2025-09-19,23.31157,120.52226,0.8127869
C0D360,梅花,2025-09-19,24.678347,121.208558,0.9884346
C0Z190,富世,2025-09-19,24.14743,121.6297,0.34489438
C0AI10,屈尺,2025-09-19,24.92184,121.54475,0.12017057
B2U990,畜試東區分所,2025-09-19,24.669039,121.832561,0.10127699
C0SB80,長濱漁港,2025-09-19,23.313644,121.459994,0.356666
C0TA50,和仁,2025-09-19,24.241394,121.712472,0.35930428
C0R240,來義,2025-09-19,22.527306,120.625111,0.12208579
C0V910,大樹,2025-09-19,22.684645,120.432803,0.16310234
C1R610,西大武山,2025-09-19,22.617719,120.7322,3.9564263e-08
C0G900,線西,2025-09-19,24.143358,120.443536,0.2702573
C0M700,竹崎,2025-09-19,23.526178,120.555508,0.7897791
C2E880,三義,2025-09-19,24.405478,120.749819,0.8608096
C0C720,竹圍,2025-09-19,25.112692,121.239824,0.11561362
C0F9P0,清水,2025-09-19,24.312297,120.562242,0.2704672
C0Z150,吉安光華,2025-09-19,23.930925,121.595153,0.7426075
C0FA80,小雪山天池,2025-09-19,24.28025,121.02627,1.2781119e-08
467300,東吉島,2025-09-19,23.25727,119.66762,0.97127753
C1D640,外坪(五指山),2025-09-19,24.644447,121.090961,0.99616855
C0F9O0,潭子,2025-09-19,24.213106,120.703933,0.3319142
C2H9R0,卓社,2025-09-19,23.887894,121.000086,0.004378789
72T250,花蓮農改場,2025-09-19,23.975222,121.563889,0.731307
C0E780,銅鑼,2025-09-19,24.489681,120.790853,0.3151273
C1T950,太安,2025-09-19,23.666719,121.370128,0.99576396
C0E830,苑裡,2025-09-19,24.439714,120.653053,0.26966766
467270,田中,2025-09-19,23.873803,120.581286,0.8475166
C0SA10,檳榔四格山,2025-09-19,22.810031,121.109308,0.9410065
C1T830,布洛灣,2025-09-19,24.17184,121.57127,0.8548721
C0F970,大坑,2025-09-19,24.173142,120.722289,0.30284467
C1U920,思源,2025-09-19,24.393125,121.347214,1.565662e-08
C0A931,三和,2025-09-19,25.233153,121.595236,0.307554
C0I010,廬山,2025-09-19,24.033311,121.181808,4.15653e-07
C2M940,日野賀,2025-09-19,23.434056,120.727169,0.9821007
C0R860,鼻頭,2025-09-19,22.1043,120.8979,0.032863945
C0UB20,壯圍,2025-09-19,24.7359,121.8163,0.10112696
C0R790,九棚,2025-09-19,22.14195,120.889281,0.046881303
C0W110,東莒,2025-09-19,25.9652,119.98069,0.88260096
C1U930,粉鳥林,2025-09-19,24.497088,121.842479,0.3733314
C1I211,蘆竹湳,2025-09-19,23.934019,120.811994,0.8950034
C0S830,長濱,2025-09-19,23.286817,121.411975,0.5701777
C1F9F1,伯公龍,2025-09-19,24.272392,120.849047,0.5354747
C0UB90,太平山莊,2025-09-19,24.494171,121.536209,1.4648037e-08
C0E810,西湖,2025-09-19,24.562947,120.7485,0.28700677
C1I440,新高口,2025-09-19,23.478744,120.878939,1.0125867e-08
C0O840,王爺宮,2025-09-19,23.222064,120.40085,0.16680647
C0T9G0,鳳林山,2025-09-19,23.735269,121.420131,0.8943696
C0X080,佳里,2025-09-19,23.173039,120.145086,0.34648252
C0FB70,大甲溪埔,2025-09-19,24.370625,120.620067,0.26827163
C0Z310,清水斷崖,2025-09-19,24.218294,121.689142,0.33729854
C0M680,太保,2025-09-19,23.455062,120.331455,0.28765184
C1S820,金峰,2025-09-19,22.590969,120.933236,0.047527354
C0AD10,八里,2025-09-19,25.150211,121.403947,0.11608733
C2K240,草嶺,2025-09-19,23.59555,120.693461,0.9852166
C1SA70,都蘭,2025-09-19,22.87794,121.226881,0.34596696
C0K440,二崙,2025-09-19,23.772797,120.408944,0.86500657
C1A760,坪林交控,2025-09-19,24.94284,121.713442,0.069196984
C0F9N0,大里,2025-09-19,24.092464,120.701378,0.8280262
C0SA90,達仁林場,2025-09-19,22.264347,120.823972,0.71217173
C1R290,石門山,2025-09-19,22.112611,120.756597,0.116952434
42HA10,萬大發電廠,2025-09-19,23.978875,121.139639,0.99576396
C0R890,山海,2025-09-19,21.9878,120.7091,0.05720916
C0T9A0,月眉山,2025-09-19,23.809928,121.539828,0.98955137
C0AC70,信義,2025-09-19,25.037822,121.564597,0.116087265
C0K560,棋山,2025-09-19,23.68645,120.603417,0.79787034
C2FB50,出雲,2025-09-19,24.206469,120.902794,0.9943137
C1Z240,中平林道,2025-09-19,23.42115,121.26763,0.99638593
U2H480,溪頭,2025-09-19,23.670306,120.798194,0.9615586
C0M880,好美里,2025-09-19,23.3364,120.138,0.34648252
C0T9E0,大坑,2025-09-19,23.880628,121.581981,0.9237697
C0K530,臺西,2025-09-19,23.701547,120.197559,0.65312314
C1E900,國一N128K,2025-09-19,24.560997,120.844186,0.28402165
C0AJ50,水湳洞,2025-09-19,25.123695,121.862238,0.11623638
C0AI20,白沙灣,2025-09-19,25.283128,121.519058,0.11623638
C2V310,美濃,2025-09-19,22.898792,120.51907,0.2151694
C0A860,大坪,2025-09-19,25.165914,121.632969,0.71761984
C1U850,觀音海岸,2025-09-19,24.38319,121.77856,0.9878819
C2K610,草嶺石壁,2025-09-19,23.602469,120.707731,0.9775806
C0U950,鶯子嶺,2025-09-19,24.89754,121.79244,0.9818347
C0O900,善化,2025-09-19,23.112883,120.297219,0.19984925
C0K550,蔦松,2025-09-19,23.514319,120.229736,0.28779194
E2P980,林試六龜中心,2025-09-19,22.991703,120.645722,0.14756577
C0E590,通霄,2025-09-19,24.471892,120.704622,0.28391302
C1I310,西巒,2025-09-19,23.754486,120.883956,0.99528617
C0A550,泰平,2025-09-19,24.971197,121.823711,0.7836534
C0I360,水里,2025-09-19,23.812553,120.849792,0.18697655
C0R830,高士,2025-09-19,22.121825,120.836781,0.26889947
C1I101,溪頭,2025-09-19,23.661789,120.807647,2.071856e-08
C0AJ20,野柳,2025-09-19,25.20703,121.690021,0.116778076
C0B060,暖暖,2025-09-19,25.0957,121.7403,0.12219116
C1H920,長豐,2025-09-19,24.102039,120.879897,0.9991224
C0V360,內門,2025-09-19,22.975481,120.466769,0.16882381
C0R850,林邊,2025-09-19,22.4634,120.5339,0.1572735
C0E930,龍鳳,2025-09-19,24.700034,120.859125,0.29544842
C0U910,冬山,2025-09-19,24.63373,121.7937,0.10127696
C1E721,泰安,2025-09-19,24.489017,120.968036,1.1919646e-05
82H320,茶改中部分場,2025-09-19,23.875611,120.913583,0.9969694
C0M750,布袋,2025-09-19,23.380878,120.167789,0.2870325
C1S860,利嘉,2025-09-19,22.809417,121.050528,0.74684614
E2S980,林試太麻里1,2025-09-19,22.598922,120.980044,0.059994496
C0X170,關廟,2025-09-19,22.963017,120.327797,0.20157807
C0V720,林園,2025-09-19,22.507747,120.394511,0.15718192
C1I510,線浸林道,2025-09-19,23.761508,120.832956,0.8378988
C0D690,外湖,2025-09-19,24.917735,120.968711,0.2654938
C0C750,新興坑尾,2025-09-19,25.0061,121.0971,0.2696459
B2Q810,畜試南區分所,2025-09-19,21.945583,120.802167,0.05563634
C0S790,金崙,2025-09-19,22.538122,120.966875,0.047217857
C0AH90,福山植物園,2025-09-19,24.760717,121.58135,0.9946852
C0I540,奇萊稜線,2025-09-19,24.109231,121.326456,1.50955e-08
C0M850,表湖,2025-09-19,23.24186,120.64166,0.9964844
C0S770,大溪山,2025-09-19,22.478475,120.943325,0.19477656
C0AG80,中和,2025-09-19,24.991622,121.491792,0.11673065
C0T790,大禹嶺,2025-09-19,24.186117,121.316086,1.39210625e-08
C0T9B0,水源,2025-09-19,23.991861,121.537169,0.77775514
C0R840,牡丹池山,2025-09-19,22.168389,120.841225,0.65376896
C1I131,桶頭,2025-09-19,23.641944,120.654117,0.17890164
CAL110,布袋國中,2025-09-19,23.35893,120.18026,0.34632573
467571,新竹,2025-09-19,24.827853,121.014219,0.287582
C0Z290,赤柯山,2025-09-19,23.36893,121.38293,0.9976377
C0X280,將軍,2025-09-19,23.214999,120.13577,0.3466894
C0S690,太麻里,2025-09-19,22.60902,120.98533,0.9260646
C0U880,北關,2025-09-19,24.9072,121.8734,0.11547727
C0G810,埔心,2025-09-19,23.947633,120.525456,0.5108183
C0U970,大福,2025-09-19,24.80064,121.81389,0.10194108
C2H9N0,仁愛東眼,2025-09-19,24.026875,121.1205,0.00013057045
C1E670,南礦,2025-09-19,24.538278,121.002836,0.02846203
C0M520,東後寮,2025-09-19,23.369908,120.248065,0.3468709
C1E461,松安,2025-09-19,24.397972,120.986022,0.00051251386
C2N160,西拉雅風管處,2025-09-19,23.189481,120.335297,0.34540847
C2M970,碧湖,2025-09-19,23.568632,120.624165,0.9945847
C0A640,石碇,2025-09-19,24.993969,121.662917,0.06939051
E2S960,林試太麻里2,2025-09-19,22.598,120.99775,0.073111966
C0F9Y0,桃山,2025-09-19,24.432739,121.303808,2.4570554e-08
C1I020,萬大,2025-09-19,23.979817,121.132261,0.97731817
C0U940,羅東,2025-09-19,24.68184,121.74934,0.09910201
C0M650,朴子,2025-09-19,23.43463,120.23902,0.28710413
C1I500,大尖山,2025-09-19,23.858572,120.994889,3.4917587e-09
C0FB40,中橫21.6k,2025-09-19,24.2499,121.1455,1.2788842e-05
C0G820,田尾,2025-09-19,23.901669,120.509389,0.5114511
E2K600,四湖植物園,2025-09-19,23.676986,120.163433,0.64605236
C0S730,綠島,2025-09-19,22.6672,121.47533,0.35994026
12Q970,東港工作站,2025-09-19,22.479997,120.466058,0.16340324
C0E430,南庄,2025-09-19,24.601775,121.000214,0.41311547
C1TA00,太魯閣,2025-09-19,24.15773,121.6236,0.3350132
466920,臺北,2025-09-19,25.037658,121.514853,0.116778076
C0R600,舊泰武,2025-09-19,22.588194,120.664944,0.99348253
C1I260,北坑,2025-09-19,23.9246,121.006903,0.9804977
466910,鞍部,2025-09-19,25.182586,121.529731,0.9684396
C1I230,九份二山,2025-09-19,23.961944,120.845,0.9963926
C2A660,瑞芳,2025-09-19,25.113169,121.801147,0.12743147
C0R270,琉球嶼,2025-09-19,22.332244,120.362236,0.12765272
C1T990,高寮,2025-09-19,23.394239,121.356808,0.71664304
C0G620,芬園,2025-09-19,24.015678,120.6213,0.48217452
C1Z140,荖溪,2025-09-19,23.890575,121.45964,0.99660003
C1I201,中心崙,2025-09-19,23.728722,120.712097,0.9974481
C1I400,凌霄,2025-09-19,24.018778,121.004456,0.0005795631
C1M640,十字,2025-09-19,23.492153,120.753683,2.56523e-07
G2P820,農試鳳山分所,2025-09-19,22.646611,120.356083,0.22296676
C0Z270,蕃薯寮,2025-09-19,23.73835,121.540108,0.7841915
C0FB10,出雲山苗圃,2025-09-19,24.23105,120.90475,0.99450153
C0F9Q0,外埔,2025-09-19,24.347817,120.705686,0.306396
C0K580,高鐵雲林,2025-09-19,23.737456,120.417944,0.86500657
C2I090,鳳凰,2025-09-19,23.728081,120.787347,0.99745506
C0U990,員山,2025-09-19,24.74435,121.72247,0.09865836
C0V770,大社,2025-09-19,22.730306,120.346639,0.23819356
C0X120,麻豆,2025-09-19,23.183289,120.248611,0.34744015
C0C670,龍潭,2025-09-19,24.870056,121.221389,0.45500875
C0D680,香山濕地,2025-09-19,24.783581,120.914988,0.2883909
C0S980,勝林山,2025-09-19,22.430439,120.8938,0.99890536
C0V730,大寮,2025-09-19,22.605614,120.395717,0.14582145
C0R570,麟洛,2025-09-19,22.65078,120.52719,0.16386119
C2M930,石卓,2025-09-19,23.478744,120.702264,3.7292452e-07
C0G9B0,和美,2025-09-19,24.105169,120.492131,0.517107
CAG100,王功漁港,2025-09-19,23.96824,120.32586,0.65312314
C0X290,北門,2025-09-19,23.267772,120.125481,0.34632573
C2F930,大甲,2025-09-19,24.347667,120.640403,0.29359362
C0D650,湖口,2025-09-19,24.904794,121.043628,0.2796215
C0E420,竹南,2025-09-19,24.708978,120.888897,0.28737018
C0U780,五結,2025-09-19,24.68637,121.79794,0.10127699
C1I250,鯉潭,2025-09-19,23.961922,120.991131,0.9991224
C0R130,阿禮,2025-09-19,22.742908,120.743678,0.9973312
C0X100,臺南市北區,2025-09-19,23.010394,120.194228,0.19941103
C0S920,金峰嘉蘭,2025-09-19,22.594789,120.960825,0.06009778
C0V490,新興,2025-09-19,22.627422,120.298803,0.24536145
C0F9K0,大安,2025-09-19,24.345061,120.588025,0.2703371
467290,古坑,2025-09-19,23.633639,120.551889,0.8082028
C2E970,八甲,2025-09-19,24.535811,120.795983,0.32981092
C0V440,鳳山,2025-09-19,22.646653,120.356122,0.22296676
C1T940,大觀,2025-09-19,23.714206,121.373133,0.99309945
C0E740,造橋,2025-09-19,24.637056,120.864778,0.28923073
C0R100,尾寮山,2025-09-19,22.833111,120.683889,0.9973076
A2K630,臺大雲林校區,2025-09-19,23.730628,120.423903,0.8649264
467990,馬祖,2025-09-19,26.169467,119.923158,0.09301417
C0D580,寶山,2025-09-19,24.735006,121.025192,0.30453914
E2P990,林試扇平站,2025-09-19,22.9677,120.6857,0.9970911
C0AI30,三重,2025-09-19,25.057328,121.500629,0.11547727
C0AH00,汐止,2025-09-19,25.066881,121.658778,0.116778076
C1Z040,立山,2025-09-19,23.443356,121.327375,0.9779254
466881,新北,2025-09-19,24.959207,121.525196,0.11868229
C0W130,花嶼,2025-09-19,23.40007,119.32276,0.98914534
C0A950,鼻頭角,2025-09-19,25.129036,121.923372,0.10135895
C0K470,林內,2025-09-19,23.748675,120.609642,0.812767
C2F990,摩天嶺,2025-09-19,24.322458,120.936819,0.99625146
82C160,茶改場,2025-09-19,24.908472,121.185333,0.4118068
C0Z320,清水林道,2025-09-19,23.27125,121.188272,0.99381363
C0R760,南仁湖,2025-09-19,22.084681,120.863353,0.118533984
C0M670,大林,2025-09-19,23.600616,120.45841,0.29372928
C0M800,茶山,2025-09-19,23.299075,120.664767,0.67634755
C0A9C0,天母,2025-09-19,25.117494,121.537169,0.116730705
72K220,南改斗南分場,2025-09-19,23.634556,120.477333,0.8498067
72AI40,桃改樹林分場,2025-09-19,24.944503,121.386972,0.11815479
C0S910,蘭嶼燈塔,2025-09-19,22.081197,121.503117,0.51575017
C0B050,八斗子,2025-09-19,25.144754,121.79167,0.114892885
C0U900,內城,2025-09-19,24.71813,121.68766,0.09479615
C0X320,柳營,2025-09-19,23.253328,120.375253,0.2931174
C0M790,新港,2025-09-19,23.553269,120.345728,0.28850794
C0F9T0,西屯,2025-09-19,24.179494,120.641275,0.29359362
C0E950,松安,2025-09-19,24.39792,120.98599,0.00051251386
C0SA30,都歷,2025-09-19,23.020333,121.323642,0.35017705
C0C620,蘆竹,2025-09-19,25.084275,121.265767,0.11661222
C0R730,大坪頂,2025-09-19,22.024633,120.69355,0.03837065
C0AJ40,石門,2025-09-19,25.273672,121.601198,0.15280545
C0E750,苗栗,2025-09-19,24.564569,120.824575,0.28519326
C0T870,鯉魚潭,2025-09-19,23.935639,121.508944,0.69903594
C1V170,排雲,2025-09-19,23.463619,120.954147,2.2232221e-08
C2H950,中寮,2025-09-19,23.884447,120.766406,0.4145935
C0R350,貓鼻頭,2025-09-19,21.921774,120.7358,0.050466906
C0V660,岡山,2025-09-19,22.797078,120.294958,0.24533594
C1H941,雙冬,2025-09-19,23.967378,120.802189,0.98982406
C0AJ70,田寮,2025-09-19,25.2698,121.4886,0.116650596
C0AI00,五股,2025-09-19,25.07445,121.42728,0.35844928
C0Z280,德武,2025-09-19,23.47426,121.41071,0.6853926
C0R700,枋山,2025-09-19,22.246844,120.661086,0.15718192
C0C460,復興,2025-09-19,24.820208,121.352281,0.85367703
E2H360,蓮華池,2025-09-19,23.918333,120.885278,0.99874747
C0M640,中埔,2025-09-19,23.42538,120.5229,0.7899926
C0W140,金沙,2025-09-19,24.488292,118.408778,0.78546995
C2A540,四堵,2025-09-19,24.8926,121.745736,0.6866804
C0ACA0,新莊,2025-09-19,25.051478,121.446756,0.11633448
C0R220,潮州,2025-09-19,22.534361,120.54,0.15359633
U2HA40,臺大內茅埔,2025-09-19,23.689722,120.851117,0.7420404
467490,臺中,2025-09-19,24.145736,120.684075,0.29052445
C0UB60,明池,2025-09-19,24.650688,121.475277,0.5713092
C0U960,翠峰湖,2025-09-19,24.510856,121.608044,1.641504e-08
E2HA20,林試畢祿溪站,2025-09-19,24.226944,121.308522,1.3853043e-08
C0V890,前鎮,2025-09-19,22.5718,120.3117,0.24540788
C1F941,雪嶺,2025-09-19,24.280586,121.026642,1.2781119e-08
C2H9E0,國姓南港,2025-09-19,23.911108,120.846556,0.98090935
C0AC80,文山,2025-09-19,25.00235,121.575728,0.11981393
C0F9R0,龍井,2025-09-19,24.184536,120.528972,0.26963982
C0M760,民雄,2025-09-19,23.551754,120.428457,0.2924997
C0UA40,西德山,2025-09-19,24.560647,121.752608,0.9326944
C1T920,中興,2025-09-19,23.769503,121.498653,0.7245181
C0D550,雪霸,2025-09-19,24.526972,121.11605,3.5397463e-08
C2F860,梨山,2025-09-19,24.247522,121.243669,1.3368974e-08
C0R320,車城,2025-09-19,22.0744,120.716247,0.05718702
C1S870,南美山,2025-09-19,23.15025,121.382333,0.5399124
C0B020,基隆嶼,2025-09-19,25.19141,121.78391,0.11635485
C1U501,牛鬥,2025-09-19,24.637836,121.573656,0.07028807
C0M730,嘉義市東區,2025-09-19,23.457673,120.460531,0.2930339
C0S700,知本,2025-09-19,22.684866,121.005642,0.71217173
C1N001,沙崙,2025-09-19,22.935472,120.309406,0.19966681
C0V760,橋頭,2025-09-19,22.757806,120.30575,0.24536145
C0G960,福寶,2025-09-19,24.0443,120.3814,0.52161735
C0X210,白河,2025-09-19,23.347466,120.414427,0.29820716
C0S810,東河,2025-09-19,22.972672,121.303986,0.34632033
C2R170,屏東,2025-09-19,22.66027,120.49403,0.16324143
C0R670,楓港,2025-09-19,22.190131,120.692156,0.15739511
C0FA50,霧峰,2025-09-19,24.0419,120.6995,0.28859764
C0UB10,蘇澳,2025-09-19,24.5969,121.8571,0.37344167
C0G950,防潮門,2025-09-19,24.1835,120.4871,0.26957467
C0M740,六腳,2025-09-19,23.492871,120.290625,0.2873716
C1R250,力里,2025-09-19,22.428117,120.629228,0.12168709
C0K330,虎尾,2025-09-19,23.719183,120.442036,0.8539106
C2FA00,烏石坑,2025-09-19,24.273503,120.947617,0.9966198
C0V620,永安,2025-09-19,22.82315,120.236856,0.24540788
C1I330,楓樹林,2025-09-19,23.986803,121.076117,0.014610486
C0W200,湖西,2025-09-19,23.596314,119.67275,0.9882017
72Q010,高雄農改場,2025-09-19,22.709333,120.525889,0.1643757
C0SA40,瑞和,2025-09-19,22.974361,121.156697,0.43710965
C0C680,龜山,2025-09-19,25.02846,121.38656,0.070457794
C2V260,月眉,2025-09-19,22.971003,120.539853,0.1740632
C0V450,鳳森,2025-09-19,22.545064,120.392592,0.12772183
C0FA90,小雪山林道,2025-09-19,24.29515,121.03651,1.4840391e-08
C0U720,南山,2025-09-19,24.43742,121.38167,0.7527846
A2N290,臺南蘭花園區,2025-09-19,23.340258,120.379661,0.29210857
C0R560,新園,2025-09-19,22.5434,120.461558,0.15718192
C0U890,三星,2025-09-19,24.66812,121.65302,0.08149388
C1V300,御油山,2025-09-19,23.001983,120.715364,1.302988e-07
C0U600,礁溪,2025-09-19,24.817539,121.765608,0.097395025
C1T980,龍澗,2025-09-19,24.023289,121.411328,3.8025828e-05
C0D670,海天一線,2025-09-19,24.831986,120.914438,0.29544842
C0SA00,歷坵,2025-09-19,22.520969,120.89185,0.48554394
C0M710,東石,2025-09-19,23.458927,120.15385,0.28748417
C0M780,鹿草,2025-09-19,23.41134,120.30835,0.28779498
C0U520,雙連埤,2025-09-19,24.753033,121.641303,0.6967065
C0B010,七堵,2025-09-19,25.094819,121.71713,0.11713662
C0R480,長治,2025-09-19,22.693128,120.542622,0.16498516
C1V830,國三S383K,2025-09-19,22.781967,120.426475,0.17180252
12Q980,恆春工作站,2025-09-19,22.079678,120.714425,0.057218004
C1O940,東山服務區,2025-09-19,23.286016,120.398472,0.29861122
C1U840,東澳嶺,2025-09-19,24.5378,121.8485,0.9988416
C1D630,飛鳳山,2025-09-19,24.766464,121.119178,0.51908165
C0S940,石寧山,2025-09-19,23.223772,121.406639,0.36943418
C0K410,北港,2025-09-19,23.573957,120.292802,0.2879189
C2M620,瑞里,2025-09-19,23.545133,120.675197,0.6244461
C0SB70,小港漁港,2025-09-19,23.158558,121.400431,0.36382496
C2O950,安南,2025-09-19,23.076694,120.144861,0.20078444
C0F0E0,南湖圈谷,2025-09-19,24.363714,121.444667,2.2751935e-08
467610,成功,2025-09-19,23.097486,121.373428,0.3514434
C0G890,伸港,2025-09-19,24.148933,120.484403,0.2698562
C2E540,龍溪,2025-09-19,24.606489,120.783933,0.26770547
C1V200,梅山,2025-09-19,23.268447,120.823556,0.99074656
C0T9H0,加路蘭山,2025-09-19,23.682947,121.5274,0.9895493
C2O930,玉井,2025-09-19,23.126042,120.46055,0.30419853
C1F911,新伯公,2025-09-19,24.221361,120.841069,0.23173817
C0R490,九如,2025-09-19,22.7405,120.490503,0.16328558
C0X200,左鎮,2025-09-19,23.056758,120.408522,0.20701085
C0FA60,鞍馬山工作站,2025-09-19,24.267064,121.000793,1.3321884e-08
C0SB50,叭嗡嗡,2025-09-19,23.047062,121.343223,0.36378834
C1F891,稍來,2025-09-19,24.265689,121.001142,1.367286e-08
72N240,七股研究中心,2025-09-19,23.081672,120.062894,0.34615666
C0C700,中壢,2025-09-19,24.977661,121.256375,0.30392826
C0M690,水上,2025-09-19,23.419734,120.388909,0.29233602
C0V690,鼓山,2025-09-19,22.623325,120.275575,0.24520303
C0O860,大內,2025-09-19,23.11885,120.36083,0.19845608
C0Z200,萬榮,2025-09-19,23.709219,121.420106,0.6986662
C0T9D0,和中,2025-09-19,24.26676,121.74103,0.3656278
C1O921,楠西,2025-09-19,23.183511,120.484083,0.31623942
C0AJ30,淡水觀海,2025-09-19,25.184591,121.408616,0.11506601
C0V810,左營,2025-09-19,22.67491,120.28491,0.23673087
C0UA70,桃源谷,2025-09-19,24.962606,121.888875,0.8284019
C0X130,官田,2025-09-19,23.193217,120.315422,0.3465749
C1H000,翠峰,2025-09-19,24.109397,121.205211,1.2438268e-08
C0UA90,石城,2025-09-19,24.980444,121.951214,0.09763839
C1E681,南勢山,2025-09-19,24.421669,120.923831,0.9950194
C0A9F0,內湖,2025-09-19,25.079422,121.57545,0.116778076
C0K291,宜梧,2025-09-19,23.536281,120.169329,0.2870325
C1K540,口湖,2025-09-19,23.585344,120.180517,0.2872065
C0R780,滿州,2025-09-19,22.024403,120.839892,0.04944935
C0V870,文安,2025-09-19,22.8025,120.2164,0.25306547
C0U650,玉蘭,2025-09-19,24.675286,121.587061,0.46671674
C0R640,東港,2025-09-19,22.46247,120.44074,0.1634128
C0AJ80,板橋,2025-09-19,25.0107,121.4489,0.116087265
C0S660,下馬,2025-09-19,23.150427,121.070312,0.99764806
C1H9B1,阿眉,2025-09-19,24.1263,120.994672,1.4908075e-07
C0UA20,多加屯,2025-09-19,24.368614,121.373189,1.3242589e-08
C0E730,頭份,2025-09-19,24.688247,120.912206,0.28678867
72V140,高改旗南分場,2025-09-19,22.857861,120.516667,0.16473547
C0K480,莿桐,2025-09-19,23.761192,120.502372,0.8497896
C0U980,坪林石牌,2025-09-19,24.86478,121.77396,0.9315092
C0T900,西林,2025-09-19,23.8119,121.441458,0.6850099
C1I150,青雲,2025-09-19,23.793361,120.949378,0.5089507
467350,澎湖,2025-09-19,23.565503,119.563094,0.99208814
C0G800,埔鹽,2025-09-19,24.000394,120.431683,0.51705694
C0H960,草屯,2025-09-19,23.973672,120.68085,0.29893148
C1V780,多納林道,2025-09-19,22.888028,120.737917,0.976489
C0E920,通霄漁港,2025-09-19,24.498589,120.673876,0.2702573
C0Z330,安通山,2025-09-19,23.290728,121.348528,0.9973024
C0AH10,永和,2025-09-19,25.01125,121.508111,0.11657968
C0AK10,太平里,2025-09-19,25.134937,121.364899,0.116650596
C2G640,鹿港,2025-09-19,24.0753,120.430481,0.5221497
C1E890,國三N149K,2025-09-19,24.463414,120.680019,0.28196353
C1R110,口社,2025-09-19,22.770111,120.645222,0.1740632
C1M870,國三N285K,2025-09-19,23.550319,120.505833,0.795755
C1E480,鳳美,2025-09-19,24.554803,121.034747,0.9731087
C0M530,奮起湖,2025-09-19,23.493903,120.699253,0.0025641785
C0C590,觀音,2025-09-19,25.027072,121.153317,0.27520293
C0T9M0,靜浦,2025-09-19,23.455167,121.495028,0.718227
C2H9M0,發祥,2025-09-19,24.154094,121.164517,0.016654449
C0AI40,石牌,2025-09-19,25.115597,121.513139,0.116778076
C1F871,上谷關,2025-09-19,24.203483,121.018644,0.9964821
C2H9G0,百勝,2025-09-19,24.051142,120.909361,0.4374601
C0G880,二水,2025-09-19,23.810742,120.6173,0.8131354
C0R940,加祿堂,2025-09-19,22.3363,120.6217,0.15739511
C0W220,北竿,2025-09-19,26.220358,119.974881,0.092991136
C0O960,崎頂,2025-09-19,22.959547,120.369317,0.2089715
C0TA40,秀林,2025-09-19,24.302864,121.731144,0.99706185
C0S750,向陽,2025-09-19,23.248397,120.986133,9.67423e-09
C0T9F0,水璉,2025-09-19,23.797131,121.542514,0.7116964
C1M600,頭凍,2025-09-19,23.406364,120.603339,0.9956022
467660,臺東,2025-09-19,22.752211,121.154586,0.36378834
C1D380,新埔,2025-09-19,24.84745,121.03834,0.28564498
C2G980,田頭村,2025-09-19,23.8263,120.444175,0.8650781
C0V750,路竹,2025-09-19,22.854997,120.259439,0.2341132
C0N050,蚵寮,2025-09-19,23.301,120.1104,0.34632573
72M700,南改鹿草分場,2025-09-19,23.416869,120.283061,0.28761196
C1SA50,利嘉林道,2025-09-19,22.82325,121.009389,0.23268929
C0UB70,太平山中間站,2025-09-19,24.542003,121.513453,0.99778616
C0A940,金山,2025-09-19,25.223628,121.643967,0.118241906
C1V340,大津,2025-09-19,22.888322,120.645986,0.1791369
C0W180,七美,2025-09-19,23.219333,119.444892,0.96472913
C1F9C1,白冷,2025-09-19,24.182844,120.929889,0.9900656
K2E710,苗改生物防治研究中心,2025-09-19,24.422861,120.871833,0.7259611
C0N040,蘆竹溝,2025-09-19,23.2344,120.0961,0.34613603
C0D760,大坪苗圃,2025-09-19,24.5362,121.1108,1.141051e-05
C2W230,畜試所澎湖,2025-09-19,23.628342,119.513206,0.9954545
C0R880,後壁湖,2025-09-19,21.9457,120.7457,0.062383182
C1I280,埔中,2025-09-19,23.820778,120.642594,0.48592377
467790,墾丁雷達站,2025-09-19,21.948235,120.808028,0.04537134
C0W190,望安,2025-09-19,23.380564,119.494075,0.9954416
C0Z170,卓溪,2025-09-19,23.3443,121.3029,0.41663247
C0F850,東勢,2025-09-19,24.246428,120.833047,0.19526264
466900,淡水,2025-09-19,25.164889,121.448906,0.116778076
C0I370,魚池,2025-09-19,23.895703,120.94135,0.99829155
C0C630,大溪,2025-09-19,24.882853,121.265547,0.4035311
C0A520,山佳,2025-09-19,24.974944,121.402008,0.11742938
C0I110,竹山,2025-09-19,23.761225,120.688156,0.7850406
82H840,茶改南部分場,2025-09-19,23.762528,120.7405,0.36536792
C0G660,溪湖,2025-09-19,23.94835,120.479122,0.51386976
C1T800,洛韶,2025-09-19,24.204558,121.453956,0.00813429
C1T810,慈恩,2025-09-19,24.192044,121.388386,1.5636088e-08
C1E451,象鼻,2025-09-19,24.368617,120.940228,0.9949751
C0AC60,三峽,2025-09-19,24.939025,121.369728,0.265856
C0I490,萬大林道,2025-09-19,23.928228,121.091411,1.5163913e-07
C1I290,豐丘,2025-09-19,23.668178,120.887417,0.82667947
C1I320,奧萬大,2025-09-19,23.952956,121.178556,0.012598746
C2M910,嘉義大學,2025-09-19,23.471325,120.485903,0.82808226
C0U770,南澳,2025-09-19,24.44935,121.81022,0.37390757
C0A980,社子,2025-09-19,25.109508,121.469681,0.114892885
C0V800,六龜,2025-09-19,22.997889,120.633583,0.14572994
C1G9D0,國一S218K,2025-09-19,23.890641,120.493253,0.5108994
C0E570,白沙屯,2025-09-19,24.549447,120.696803,0.26957467
C2F9A0,中竹林,2025-09-19,24.103556,120.751061,0.3709497
C0FA40,臺中電廠,2025-09-19,24.2146,120.4907,0.2698562
C2G9A0,畜試所彰化,2025-09-19,23.86045,120.557964,0.84969527
C0H9C0,合歡山,2025-09-19,24.143442,121.272547,1.97197e-08
C0X060,下營,2025-09-19,23.22695,120.256261,0.3466893
G2M350,農試溪口農場,2025-09-19,23.58565,120.408111,0.28779498
C0U860,頭城,2025-09-19,24.85323,121.8308,0.10135895
C0R580,南州,2025-09-19,22.48591,120.50274,0.1634128
C0D430,峨眉,2025-09-19,24.6905,121.017189,0.28620553
C0G780,秀水,2025-09-19,24.03405,120.503869,0.5187504
72N100,臺南農改場,2025-09-19,23.0605,120.342194,0.20106138
C0S900,蘭嶼高中,2025-09-19,22.04909,121.51214,0.49570045
C1F9W0,德基,2025-09-19,24.254783,121.190261,8.647347e-09
C1Z120,壽豐,2025-09-19,23.870853,121.508081,0.73057705
C0W160,烏坵,2025-09-19,24.9944,119.44956,0.9989639
C1I240,外大坪,2025-09-19,23.958697,120.917931,0.9991702
C1I550,國六W023K,2025-09-19,23.979067,120.867742,0.3688464
C0R870,興海,2025-09-19,21.9752,120.8439,0.055561077
C0R140,瑪家,2025-09-19,22.682903,120.686639,0.9971371
C0A530,坪林,2025-09-19,24.938183,121.70975,0.07833521
C0X260,後壁,2025-09-19,23.366358,120.362326,0.3447412
C0Z230,和平,2025-09-19,24.30717,121.77007,0.3740389
C0G770,福興,2025-09-19,24.041289,120.437669,0.5228269
C0H9A0,神木村,2025-09-19,23.532742,120.843667,4.4638708e-07
C0I460,南投,2025-09-19,23.911469,120.687331,0.29359362
C0I480,梅峰,2025-09-19,24.085272,121.173572,1.4082661e-08
C1V570,吉東,2025-09-19,22.85422,120.5454,0.16600408
C2D740,屯原,2025-09-19,24.067969,121.209389,3.492318e-09
C2A560,福山,2025-09-19,24.776203,121.502811,0.77926326
C0AH30,五分山,2025-09-19,25.07125,121.780794,0.99748874
C0FA10,松柏,2025-09-19,24.429115,120.617482,0.2702573
72S200,東改班鳩分場,2025-09-19,22.829528,121.077694,0.5701777
72HA00,中改埔里分場,2025-09-19,23.903208,120.963364,0.99708533
C2H9W0,大坪頂農水,2025-09-19,24.043122,120.932781,0.9991484
C0C650,平鎮,2025-09-19,24.897503,121.214636,0.413046
C0S930,延平,2025-09-19,22.902581,121.084058,0.53325194
C0UA60,樟樹山,2025-09-19,24.41393,121.78325,0.9112097
C1S670,摩天,2025-09-19,23.199503,121.027,6.675288e-08
C0V630,茄萣,2025-09-19,22.906642,120.182608,0.19946447
466940,基隆,2025-09-19,25.133314,121.740475,0.115337625
C0X050,東河,2025-09-19,23.296598,120.385608,0.2931174
C0R770,保力,2025-09-19,22.071122,120.764111,0.04092413
G2L020,農試嘉義分所,2025-09-19,23.485028,120.473806,0.8215733
C0X240,關子嶺,2025-09-19,23.331169,120.508025,0.41371906
C0I380,集集,2025-09-19,23.828206,120.801467,0.19325171
466990,花蓮,2025-09-19,23.975128,121.613275,0.7428085
C1V220,小關山,2025-09-19,23.154217,120.813603,2.445829e-08
C1F9G1,慶福山,2025-09-19,24.180853,120.848378,0.9967586
C0FB20,雪山橋,2025-09-19,24.23192,120.9786,1.60776e-08
C0Z250,瑞穗林道,2025-09-19,23.49284,121.30688,0.99714786
C0D590,新豐,2025-09-19,24.87068,120.97721,0.30453914
C0A870,五指山,2025-09-19,25.132153,121.608692,0.99355537
C0UA50,西帽山,2025-09-19,24.555361,121.802628,0.9987738
C0X160,仁德,2025-09-19,22.968258,120.257689,0.19829015
C1H971,六分寮,2025-09-19,23.92507,120.6378,0.385911
C0W120,西嶼,2025-09-19,23.5626,119.468436,0.9924795
C0G650,員林,2025-09-19,23.946503,120.585597,0.5121509
C0AD50,鶯歌,2025-09-19,24.951533,121.346294,0.27272558
C2H9Q0,北東眼山,2025-09-19,24.120939,121.189303,3.5417906e-09
C2H9T0,名間竹圍,2025-09-19,23.859914,120.637572,0.17920347
C0S990,山豬窟,2025-09-19,22.318619,120.857372,0.23084632
C0X190,安平,2025-09-19,22.993161,120.152181,0.19959807
C0K400,斗六,2025-09-19,23.720583,120.541127,0.8438839
12J990,口湖工作站,2025-09-19,23.589978,120.180394,0.28757805
C0O830,北寮,2025-09-19,23.079561,120.495008,0.17433152
C1D410,白蘭,2025-09-19,24.579364,121.079947,0.0007065443
C0S970,加津林,2025-09-19,22.416211,120.926942,0.07297912
C0D700,關西,2025-09-19,24.7977,121.1732,0.32352814
C0M810,里佳,2025-09-19,23.389125,120.716647,0.0022687162
C0U750,龜山島,2025-09-19,24.841667,121.953133,0.8881826
C0R810,內獅,2025-09-19,22.305064,120.642986,0.15718192
C1M390,龍美,2025-09-19,23.406728,120.654417,0.9846279
C2FB60,頭櫃山,2025-09-19,24.129842,120.858925,0.99117553
C1H840,國三N238K,2025-09-19,23.841008,120.707711,0.18696995
CAQ030,崎峰國小,2025-09-19,22.42565,120.49521,0.1634128
C2E520,大湖,2025-09-19,24.414939,120.870872,0.16827315
467530,阿里山,2025-09-19,23.508208,120.813242,9.815338e-09
C1E691,南湖,2025-09-19,24.40135,120.837533,0.99690187
C0FA30,梧棲,2025-09-19,24.256003,120.523381,0.27039856
C1V231,高中,2025-09-19,23.134911,120.716711,0.9967405
C0AK30,硬漢嶺,2025-09-19,25.136097,121.426372,0.9945926
C0F9V0,新社,2025-09-19,24.200172,120.815806,0.879778
C0H890,埔里,2025-09-19,23.972169,120.952425,0.2940318
C0R690,墾丁,2025-09-19,21.966756,120.810269,0.05132367
C0F0D0,審馬陣,2025-09-19,24.381675,121.4203,2.0745647e-08
C2W030,金門農試所,2025-09-19,24.448431,118.451786,0.8007247
C0R820,白鷺,2025-09-19,22.454275,120.666219,0.93433994
C0FB00,大雪山,2025-09-19,24.254668,121.007374,1.32592195e-08
C1V190,南天池,2025-09-19,23.27403,120.91176,9.965269e-09
C0E940,雪見,2025-09-19,24.42595,121.01347,3.4094626e-08
K2E360,苗栗農改場,2025-09-19,24.495722,120.829111,0.29479235
CAJ050,海口故事園區,2025-09-19,23.57543,120.14121,0.28748417
C2H9D0,三隻寮,2025-09-19,24.093078,120.861578,0.9991917
C0O990,媽廟,2025-09-19,22.99175,120.293525,0.19957094
C0D480,打鐵坑,2025-09-19,24.849664,121.150789,0.46493372
C0Z220,和平林道,2025-09-19,24.343922,121.656317,0.9987193
C0TA10,花蓮漁港,2025-09-19,23.995322,121.638331,0.7499339
72C440,桃園農改場,2025-09-19,24.950944,121.030583,0.26706886
C1E711,馬拉邦山,2025-09-19,24.367306,120.901656,0.99667245
C0SB20,富岡,2025-09-19,22.792467,121.192669,0.3629255
C0D560,竹東,2025-09-19,24.767147,121.057881,0.30218843
C0F9U0,南屯,2025-09-19,24.137006,120.637969,0.5040831
C0M720,番路,2025-09-19,23.464657,120.554156,0.21735576
C0F0A0,雪山圈谷,2025-09-19,24.388594,121.236339,2.9292679e-08
C1A9N0,四十份,2025-09-19,24.934158,121.593283,0.8035142
C0U760,東澳,2025-09-19,24.52196,121.83318,0.35968813
C0X230,鹽水,2025-09-19,23.272621,120.247641,0.3468709
C2H9H0,苗改南投蜂場,2025-09-19,23.852589,120.693481,0.7848479
C0R950,萬隆國小,2025-09-19,22.507667,120.587817,0.13674124
467540,大武,2025-09-19,22.35572,120.90374,0.07347517
C0V370,古亭坑,2025-09-19,22.893178,120.401947,0.1877938
C1I340,新興橋,2025-09-19,23.563333,120.868728,0.99915516
C0SA80,土坂,2025-09-19,22.453108,120.887572,0.050852142
C0R160,鹽埔,2025-09-19,22.739558,120.530778,0.1644841
C0AC40,大屯山,2025-09-19,25.175675,121.522408,0.0045711664
466850,五分山雷達站,2025-09-19,25.071182,121.781205,0.9980132
C2H9L0,馬烈霸,2025-09-19,24.1512,121.201772,8.213937e-09
C1AI50,國三N016K,2025-09-19,25.034164,121.619664,0.11822991
C1V600,藤枝,2025-09-19,23.071961,120.757042,9.533063e-08
C1E601,南勢,2025-09-19,24.572486,120.734842,0.29497895
C0O980,新市,2025-09-19,23.061614,120.298197,0.19829015
C0K420,西螺,2025-09-19,23.800407,120.467394,0.8537996
C0Z050,佳心,2025-09-19,23.34567,121.21316,0.99802613
C0AD30,蘆洲,2025-09-19,25.086594,121.472331,0.11617972
C0V610,梓官,2025-09-19,22.760558,120.267211,0.24520303
K2F750,種苗改良場,2025-09-19,24.225972,120.800917,0.4280856
C0UA80,大溪漁港,2025-09-19,24.941801,121.902955,0.09865836
C1AI60,國一39K邊坡,2025-09-19,25.064361,121.383836,0.06901108
C0W150,金寧,2025-09-19,24.457703,118.328989,0.7883892
C0R960,內埔,2025-09-19,22.608483,120.570714,0.1457915
V2C250,八德合作社,2025-09-19,24.93775,121.266389,0.3221169
C2H9S0,龍南,2025-09-19,23.953536,120.833183,0.99627286
C0AH40,平等,2025-09-19,25.129142,121.577086,0.78872657
C0R540,佳冬,2025-09-19,22.419456,120.552375,0.15716197
466950,彭佳嶼,2025-09-19,25.627975,122.079744,0.9816954
C0A890,雙溪,2025-09-19,25.036003,121.864242,0.11959434
C0C480,桃園,2025-09-19,24.992425,121.323172,0.28882825
C0AH50,林口,2025-09-19,25.072181,121.38084,0.07059752
A2K360,水試臺西試驗場,2025-09-19,23.717231,120.190522,0.6579479
C2M960,外寮,2025-09-19,23.562643,120.665688,0.9928643
C0F9S0,烏日,2025-09-19,24.107058,120.624103,0.5113476
C0C490,八德,2025-09-19,24.928708,121.283289,0.32635748
C0R190,赤山,2025-09-19,22.592333,120.614306,0.13805336
C0T820,天祥,2025-09-19,24.179597,121.495639,0.9966553
C1F9E1,龍安,2025-09-19,24.1605,120.831961,0.9663075
C0V820,小林,2025-09-19,23.148408,120.63325,0.7527708
C2G870,芳苑,2025-09-19,23.922303,120.320025,0.6542937
C0E850,大河,2025-09-19,24.618069,120.948578,0.28710195
C1U670,寒溪,2025-09-19,24.634,121.71691,0.08134016
C0N020,城西,2025-09-19,23.0568,120.0956,0.3466894
C1Z110,三棧,2025-09-19,24.11557,121.60501,0.97904915
C0R280,檳榔,2025-09-19,22.076078,120.836777,0.046790518
C2H9J0,中台,2025-09-19,23.9996,120.938739,0.7852531
C0F9L0,后里,2025-09-19,24.310436,120.729725,0.36125344
467441,高雄,2025-09-19,22.730432,120.312516,0.23673087
C0Z180,新城,2025-09-19,24.040486,121.604878,0.73665404
C0D540,橫山,2025-09-19,24.71116,121.11693,0.40742677
C1D420,太閣南,2025-09-19,24.632808,121.160575,0.36486405
C1E770,公館,2025-09-19,24.526914,120.830806,0.28575817
CAN130,水試所海水繁養殖中心,2025-09-19,23.120802,120.07968,0.34563902
C1I430,翠華,2025-09-19,24.191961,121.224339,1.2454506e-08
C1M400,菜瓜坪,2025-09-19,23.251928,120.576103,0.62478316
C0G730,二林,2025-09-19,23.903325,120.376081,0.5187504
72M360,南改義竹分場,2025-09-19,23.360694,120.279361,0.34782353
V2K620,麥寮合作社,2025-09-19,23.753836,120.294783,0.6550725
C0Z070,舞鶴,2025-09-19,23.46811,121.37407,0.6922712
C0B040,大武崙,2025-09-19,25.166676,121.706993,0.118241906
C1Z030,紅葉,2025-09-19,23.493119,121.338806,0.68166685
C1I050,丹大,2025-09-19,23.753747,121.141147,1.0285169e-08
C0I080,信義,2025-09-19,23.689694,120.851036,0.74204034
C0D750,樂山林道6k,2025-09-19,24.49999,121.08773,1.2530038e-08
C2M920,朴子農改,2025-09-19,23.469889,120.259383,0.28822458
C2A880,福隆,2025-09-19,25.017842,121.942083,0.09865836
C0Z160,鳳林,2025-09-19,23.746114,121.453411,0.7123392
C0UB80,翠峰林道6K,2025-09-19,24.49773,121.568625,1.7958108e-08
C0V210,復興,2025-09-19,23.222403,120.806089,0.99687344
C0H990,昆陽,2025-09-19,24.121322,121.273642,1.6277669e-08
C0R741,獅子,2025-09-19,22.202308,120.705236,0.1276933
C0S710,鹿野,2025-09-19,22.917711,121.122994,0.9554384
C0I530,小奇萊,2025-09-19,24.131764,121.295717,1.689043e-08
C0FA70,大雪山埡口,2025-09-19,24.26867,121.03062,1.2745577e-08
C2K630,荷苞,2025-09-19,23.657717,120.595144,0.7850406
C0Z080,富源,2025-09-19,23.587642,121.378225,0.7586841
C0SB10,美和,2025-09-19,22.682078,121.060236,0.36928415
C2K620,馬光農場,2025-09-19,23.721453,120.378864,0.8725529
C1I140,卡奈托灣,2025-09-19,23.754364,121.087872,1.6667562e-08
C0I520,玉山風口,2025-09-19,23.470489,120.955994,2.6008317e-08
C1G691,下水埔,2025-09-19,23.816114,120.5676,0.83395433
C0X110,臺南市南區,2025-09-19,22.961189,120.188378,0.19973388
C0V680,仁武,2025-09-19,22.701083,120.347722,0.23819356
C2G840,北斗,2025-09-19,23.877586,120.514222,0.51233786
C0R900,竹坑,2025-09-19,22.1385,120.7022,0.15739511
C0K250,崙背,2025-09-19,23.75555,120.318925,0.64617383
C0G860,社頭,2025-09-19,23.897647,120.5862,0.5137022
C0X150,安定,2025-09-19,23.102614,120.227839,0.19946447
C0R590,里港,2025-09-19,22.77919,120.49459,0.16439077
C0E610,馬都安,2025-09-19,24.451272,120.930192,0.9969601
C0E550,明德,2025-09-19,24.583486,120.885411,0.2831482
C0R150,三地門,2025-09-19,22.709889,120.639944,0.17180252
C0G910,花壇,2025-09-19,24.032076,120.549461,0.5108183
C1D400,鳥嘴山,2025-09-19,24.71909,121.28387,0.99686116
C0K500,元長,2025-09-19,23.64981,120.315024,0.64625776
C0F0B0,石岡,2025-09-19,24.276061,120.777644,0.36438763
C2V250,甲仙,2025-09-19,23.080106,120.591758,0.1480568
C0SA20,金崙山,2025-09-19,22.567419,120.959667,0.9989163
C0V350,溪埔,2025-09-19,22.738578,120.446797,0.16386119
C0M660,溪口,2025-09-19,23.604131,120.403569,0.28824243
C1S880,壽卡,2025-09-19,22.238911,120.858903,0.64625645
72D680,桃改新埔分場,2025-09-19,24.834444,121.066111,0.2807567
