站號,站名,日期,lat,lon,BlastGRU-TW
C0R710,龍磐,2025-07-18,21.931672,120.838942,0.046911206
C1F9D1,白毛台,2025-07-18,24.158325,120.886933,0.19083498
C0G940,竹塘,2025-07-18,23.848253,120.386764,0.020575471
467590,恆春,2025-07-18,22.003897,120.746339,0.034225687
C1O850,環湖,2025-07-18,23.148617,120.418633,0.012847573
C0U710,太平山,2025-07-18,24.505486,121.525656,0.39608684
C0E820,獅潭,2025-07-18,24.539133,120.920042,0.17494074
C0V880,興達,2025-07-18,22.8778,120.2127,0.009320275
C0S890,關山,2025-07-18,23.0395,121.175017,0.006918123
C0SB30,新蘭,2025-07-18,22.869214,121.223228,0.009109935
C2R970,屏科大,2025-07-18,22.648275,120.619247,0.0080793565
C1Z130,銅門,2025-07-18,23.965694,121.492842,0.016409103
C0AD40,土城,2025-07-18,24.973208,121.445169,0.04022269
CAN140,六官養殖協會,2025-07-18,23.22881,120.29962,0.009951182
C0X180,山上,2025-07-18,23.0757,120.363253,0.0072446684
C0F9Z0,雪山東峰,2025-07-18,24.388792,121.268675,0.0004992642
C1M480,獨立山,2025-07-18,23.537022,120.607797,0.7400217
C0X220,學甲,2025-07-18,23.230367,120.182187,0.010735774
467650,日月潭,2025-07-18,23.881325,120.90805,0.97114664
C0K600,箔子寮,2025-07-18,23.6197,120.14,0.012268329
C0G830,埤頭,2025-07-18,23.866003,120.452806,0.017732237
C0S950,七塊厝,2025-07-18,22.954453,121.229922,0.013601893
467110,金門,2025-07-18,24.407306,118.289281,0.05557814
C0AH80,深坑,2025-07-18,25.002703,121.628328,0.045739535
C0A970,三貂角,2025-07-18,25.007606,122.002058,0.054810517
C2D730,寶山農場,2025-07-18,24.732444,120.976153,0.13692236
C0K430,褒忠,2025-07-18,23.690938,120.303634,0.022392934
467480,嘉義,2025-07-18,23.495925,120.432906,0.011681427
C0V400,阿公店,2025-07-18,22.804194,120.355528,0.009684264
C0E960,觀霧分站,2025-07-18,24.505781,121.113921,0.3841773
467550,玉山,2025-07-18,23.48718,120.95943,0.00036276886
C0R440,大漢山,2025-07-18,22.405264,120.753181,0.25833845
C0K280,四湖,2025-07-18,23.630414,120.227125,0.024911484
C1F9B1,桐林,2025-07-18,24.066172,120.735194,0.06524908
C2H9U0,鳳鵬,2025-07-18,23.763919,120.788061,0.0195025
C0K390,土庫,2025-07-18,23.679029,120.395574,0.017654989
C1I450,望鄉山,2025-07-18,23.594153,120.944286,0.0025562807
C0E910,海埔,2025-07-18,24.648767,120.772435,0.06891871
B2E890,畜試北區分所,2025-07-18,24.527806,120.770972,0.07604343
C0R750,四林格山,2025-07-18,22.076989,120.802439,0.8709984
C0F0C0,中坑,2025-07-18,24.248517,120.903319,0.9901891
C1I121,大鞍,2025-07-18,23.678381,120.760017,0.84865165
72U480,花改蘭陽分場,2025-07-18,24.686306,121.716583,0.038287614
C0A770,科教館,2025-07-18,25.096356,121.516507,0.028251322
C0AJ60,六塊厝,2025-07-18,25.24,121.4481,0.04368342
C0R620,墾雷,2025-07-18,21.900836,120.855269,0.021573883
467420,永康,2025-07-18,23.038386,120.2367,0.0072861146
C0I410,名間,2025-07-18,23.837053,120.701447,0.017270878
A2C560,農工中心,2025-07-18,24.985917,121.239833,0.12381028
C0V740,旗山,2025-07-18,22.888614,120.483597,0.009404251
C0Z061,玉里,2025-07-18,23.3215,121.339656,0.009075581
C0S840,南田,2025-07-18,22.279725,120.889208,0.0046068006
C1I470,杉林溪,2025-07-18,23.639517,120.786444,0.6616259
C1X040,東原,2025-07-18,23.291597,120.463822,0.0067057367
C0R660,枋寮,2025-07-18,22.367722,120.590647,0.00884649
C1R120,上德文,2025-07-18,22.763272,120.704442,0.96539015
C0K450,大埤,2025-07-18,23.646074,120.431537,0.02099047
C0UA00,土場,2025-07-18,24.576533,121.495333,0.04151502
467080,宜蘭,2025-07-18,24.763975,121.756528,0.032667235
C0N030,四草,2025-07-18,23.0235,120.1116,0.009344936
467410,臺南,2025-07-18,22.99328,120.20492,0.0074129757
C0V650,彌陀,2025-07-18,22.783806,120.246361,0.01146055
C0D660,新竹市東區,2025-07-18,24.798681,120.986942,0.06961165
82S580,茶改東部分場,2025-07-18,22.907694,121.130139,0.008156106
C0SB40,興隆,2025-07-18,22.913661,121.257469,0.008990764
467050,新屋,2025-07-18,25.006725,121.047492,0.09594056
C0C710,大溪永福,2025-07-18,24.892936,121.324975,0.119025536
C0FA20,溫寮,2025-07-18,24.372177,120.583125,0.060956135
C0V640,湖內,2025-07-18,22.887139,120.2445,0.009314579
C0R910,下寮,2025-07-18,22.3929,120.5548,0.008833997
C0Z020,明里,2025-07-18,23.208717,121.262342,0.007586753
C0M770,嘉義梅山,2025-07-18,23.585398,120.555587,0.028418604
C0C660,楊梅,2025-07-18,24.912375,121.143047,0.11476393
C1E511,新開,2025-07-18,24.347703,120.827019,0.031121876
G2F820,農試所(霧峰),2025-07-18,24.031261,120.688133,0.057972565
C1I070,和社,2025-07-18,23.591131,120.888861,0.76284856
C0TA80,立霧山,2025-07-18,24.183258,121.641899,0.9800792
C2F000,大肚,2025-07-18,24.15295,120.572117,0.027023109
C1S850,豐南,2025-07-18,23.122139,121.262389,0.023837518
C2A920,富貴角,2025-07-18,25.263783,121.565258,0.11520451
CAH030,茶改場竹圍站,2025-07-18,23.860083,120.637528,0.008614485
C0T960,光復,2025-07-18,23.660694,121.424964,0.014513499
C0F9M0,豐原,2025-07-18,24.254322,120.720692,0.11923577
C0R720,旭海,2025-07-18,22.205403,120.887614,0.08743044
C0V710,苓雅,2025-07-18,22.622742,120.330669,0.011403697
C0C740,觀音工業區,2025-07-18,25.064764,121.114856,0.1307844
CAC040,拉拉山,2025-07-18,24.699317,121.427133,0.68815386
C0V790,萬山,2025-07-18,22.905944,120.688056,0.0068941517
U2HA30,臺大和社,2025-07-18,23.590856,120.888864,0.7628486
C0AJ90,澳底,2025-07-18,25.0552,121.9253,0.05290836
C0Z100,東華,2025-07-18,23.89525,121.549833,0.017553102
C0G970,三豐,2025-07-18,23.882,120.2895,0.020556513
V2K610,大庄合作社,2025-07-18,23.8068,120.367939,0.024428165
C0V900,汕尾,2025-07-18,22.4782,120.4151,0.010207065
C1R630,龍泉,2025-07-18,22.66701,120.59091,0.00820539
C1AC50,關渡,2025-07-18,25.133486,121.469331,0.047379956
C0C800,四稜,2025-07-18,24.64733,121.4293,0.98161614
C0F9I0,神岡,2025-07-18,24.272481,120.658314,0.094030954
C0K460,斗南,2025-07-18,23.678734,120.478359,0.02119636
C2O810,曾文,2025-07-18,23.219681,120.497328,0.006841004
467280,後龍,2025-07-18,24.648563,120.831834,0.07503325
C1F9J1,清水林,2025-07-18,24.071242,120.820419,0.15034068
C2A650,火燒寮,2025-07-18,25.002719,121.742892,0.16494444
466930,竹子湖,2025-07-18,25.162078,121.544547,0.448632
C1I220,樟湖,2025-07-18,23.905333,120.846983,0.9798731
C0I390,仁愛,2025-07-18,24.022122,121.132206,0.9655741
C0Z300,東里,2025-07-18,23.26853,121.30547,0.007815908
C1V590,新發,2025-07-18,23.057019,120.646064,0.97451127
C0K510,水林,2025-07-18,23.572924,120.24597,0.011758307
72S590,東改賓朗果園,2025-07-18,22.813889,121.071278,0.008305157
82A750,茶改北部分場,2025-07-18,24.955778,121.631222,0.07376392
C1A750,石碇服務區,2025-07-18,25.00872,121.646242,0.058010392
C0X300,鹿寮,2025-07-18,23.386047,120.477331,0.019283054
G2AI50,關渡,2025-07-18,25.11575,121.492,0.04474614
C0K590,雲林東勢,2025-07-18,23.674192,120.255721,0.022102779
C0A570,桶後,2025-07-18,24.848222,121.597992,0.031504784
C1S800,華源,2025-07-18,22.657883,121.02325,0.007924156
C0G720,溪州,2025-07-18,23.851589,120.499093,0.018023767
C1V160,達卡努瓦,2025-07-18,23.279811,120.705319,0.9804669
C2M410,馬頭山,2025-07-18,23.324361,120.582017,0.0076527186
C0V850,蚵仔寮,2025-07-18,22.7256,120.2527,0.011194048
C0S740,池上,2025-07-18,23.119628,121.209469,0.005936681
C1V390,尖山,2025-07-18,22.813153,120.367789,0.009647807
C0AH70,松山,2025-07-18,25.04871,121.55042,0.028949983
C0N010,鯤鯓國小,2025-07-18,23.1879,120.0889,0.0106365625
C0R550,新埤,2025-07-18,22.467947,120.582894,0.010664362
C0SA60,知本（水試所）,2025-07-18,22.702394,121.082761,0.009371797
C0T9I0,豐濱,2025-07-18,23.583897,121.514806,0.014834256
C0UB00,淡江大學蘭陽校園,2025-07-18,24.823239,121.730383,0.055161882
C0W240,九宮,2025-07-18,24.423753,118.240186,0.055205863
C0T9N0,富里,2025-07-18,23.171639,121.249378,0.0062928153
U2HA50,臺大竹山,2025-07-18,23.756972,120.681556,0.026478637
C0V840,鳳鼻頭,2025-07-18,22.5083,120.3591,0.011322734
C0X140,西港,2025-07-18,23.125608,120.203108,0.009359056
72D080,桃改五峰分場,2025-07-18,24.612194,121.157167,0.98142475
C2H9P0,伊拿谷,2025-07-18,23.963211,121.088264,0.85140055
C2H9F0,柑林,2025-07-18,24.018658,120.847072,0.017219458
C0TA20,加灣,2025-07-18,24.082025,121.608944,0.022319008
C0V530,阿蓮,2025-07-18,22.883208,120.327508,0.00817818
C0FB30,八仙山苗圃,2025-07-18,24.192719,121.001366,0.9904974
C1O880,關山,2025-07-18,23.173397,120.594092,0.007425013
C0E791,卓蘭,2025-07-18,24.3126,120.8244,0.030078024
C1I030,武界,2025-07-18,23.913225,121.052483,0.925587
C0R520,崁頂,2025-07-18,22.514781,120.506914,0.00932367
C0R341,牡丹,2025-07-18,22.130036,120.792639,0.017297111
C0R930,萬丹,2025-07-18,22.5885,120.4851,0.007827427
C0S760,紅石,2025-07-18,23.069131,121.126219,0.7249059
C2C410,中央大學,2025-07-18,24.967652,121.185165,0.12968479
C1M610,石磐龍,2025-07-18,23.496606,120.663506,0.9754755
C0C790,東眼山,2025-07-18,24.8284,121.40888,0.92606777
C0UA10,鴛鴦湖,2025-07-18,24.590269,121.412228,0.7432271
V2C260,八德蔬果,2025-07-18,24.978508,121.281819,0.10058704
C0R800,丹路,2025-07-18,22.204481,120.750989,0.006537285
C0G920,永靖,2025-07-18,23.924703,120.547533,0.029459694
C2M950,太和,2025-07-18,23.538372,120.702961,0.97415894
C1A630,下盆,2025-07-18,24.771003,121.538622,0.2455545
B2N890,畜產試驗所,2025-07-18,23.058972,120.336406,0.0070689204
C0UA30,白嶺,2025-07-18,24.527819,121.519031,0.8624183
C1V580,溪南(特生中心),2025-07-18,23.084972,120.788475,0.9191307
C1T970,大農,2025-07-18,23.615233,121.413331,0.014232699
C0R650,竹田,2025-07-18,22.58486,120.54344,0.009483747
C1H900,清流,2025-07-18,24.080775,120.962997,0.92417544
C1C510,水尾,2025-07-18,24.940081,121.087161,0.113001674
C0F9X0,大雅(中科園區),2025-07-18,24.21528,120.62445,0.10370552
C0SB60,白守蓮,2025-07-18,23.126769,121.401914,0.0077705854
C0O970,虎頭埤,2025-07-18,23.021375,120.347878,0.007616264
C0C730,中大臨海站,2025-07-18,24.966126,121.008581,0.08909283
C0X250,新營,2025-07-18,23.310689,120.316681,0.009726303
C0V700,三民,2025-07-18,22.645017,120.311233,0.012382076
C0U870,大礁溪,2025-07-18,24.791042,121.675047,0.14066547
C0E870,高鐵苗栗,2025-07-18,24.60725,120.826094,0.070436195
A2K570,古坑花卉中心,2025-07-18,23.63353,120.55239,0.026890367
C0TA30,鹽寮,2025-07-18,23.845606,121.592664,0.017778177
C0M860,新美,2025-07-18,23.338017,120.683169,0.01254254
C1E701,八卦,2025-07-18,24.491756,120.927619,0.9660392
C0I420,國姓,2025-07-18,24.037803,120.855072,0.017728724
C2D720,關西工作站,2025-07-18,24.757275,121.184792,0.11558249
C0S960,香蘭,2025-07-18,22.587569,120.993375,0.008160991
467620,蘭嶼,2025-07-18,22.0369,121.55843,0.72076285
C0R260,春日,2025-07-18,22.370361,120.628306,0.00985367
72G600,臺中農改場,2025-07-18,24.003028,120.534389,0.033079654
C0Z210,瑞穗,2025-07-18,23.5239,121.39021,0.014635042
C0M820,達邦,2025-07-18,23.453994,120.749517,0.96128345
C0V860,南寮,2025-07-18,22.7616,120.2339,0.011191685
C0G740,大城,2025-07-18,23.852487,120.320935,0.021084543
C0R920,塭仔,2025-07-18,22.4169,120.5197,0.008808851
C0R470,高樹,2025-07-18,22.826389,120.600806,0.0069500194
C0R680,佳樂水,2025-07-18,21.993578,120.861633,0.018834382
C1O870,大棟山,2025-07-18,23.31157,120.52226,0.98635805
C0D360,梅花,2025-07-18,24.678347,121.208558,0.2599916
C0Z190,富世,2025-07-18,24.14743,121.6297,0.03453058
C0AI10,屈尺,2025-07-18,24.92184,121.54475,0.06295377
B2U990,畜試東區分所,2025-07-18,24.669039,121.832561,0.032222115
C0SB80,長濱漁港,2025-07-18,23.313644,121.459994,0.009938502
C0TA50,和仁,2025-07-18,24.241394,121.712472,0.027835932
C0R240,來義,2025-07-18,22.527306,120.625111,0.011373622
C0V910,大樹,2025-07-18,22.684645,120.432803,0.006361135
C1R610,西大武山,2025-07-18,22.617719,120.7322,0.26650932
C0G900,線西,2025-07-18,24.143358,120.443536,0.076441444
C0M700,竹崎,2025-07-18,23.526178,120.555508,0.024724666
C2E880,三義,2025-07-18,24.405478,120.749819,0.06368438
C0C720,竹圍,2025-07-18,25.112692,121.239824,0.045366663
C0F9P0,清水,2025-07-18,24.312297,120.562242,0.0642124
C0Z150,吉安光華,2025-07-18,23.930925,121.595153,0.019209618
C0FA80,小雪山天池,2025-07-18,24.28025,121.02627,0.010668056
467300,東吉島,2025-07-18,23.25727,119.66762,0.14941639
C1D640,外坪(五指山),2025-07-18,24.644447,121.090961,0.7091697
C0F9O0,潭子,2025-07-18,24.213106,120.703933,0.104331724
C2H9R0,卓社,2025-07-18,23.887894,121.000086,0.95761687
72T250,花蓮農改場,2025-07-18,23.975222,121.563889,0.019136854
C0E780,銅鑼,2025-07-18,24.489681,120.790853,0.10399321
C1T950,太安,2025-07-18,23.666719,121.370128,0.971058
C0E830,苑裡,2025-07-18,24.439714,120.653053,0.07955779
467270,田中,2025-07-18,23.873803,120.581286,0.017035054
C0SA10,檳榔四格山,2025-07-18,22.810031,121.109308,0.010369767
C1T830,布洛灣,2025-07-18,24.17184,121.57127,0.033667993
C0F970,大坑,2025-07-18,24.173142,120.722289,0.09720861
C1U920,思源,2025-07-18,24.393125,121.347214,0.20771529
C0A931,三和,2025-07-18,25.233153,121.595236,0.1190974
C0I010,廬山,2025-07-18,24.033311,121.181808,0.87669086
C2M940,日野賀,2025-07-18,23.434056,120.727169,0.98980635
C0R860,鼻頭,2025-07-18,22.1043,120.8979,0.06252882
C0UB20,壯圍,2025-07-18,24.7359,121.8163,0.035511956
C0R790,九棚,2025-07-18,22.14195,120.889281,0.030894117
C0W110,東莒,2025-07-18,25.9652,119.98069,0.0936795
C1U930,粉鳥林,2025-07-18,24.497088,121.842479,0.03244632
C1I211,蘆竹湳,2025-07-18,23.934019,120.811994,0.031334255
C0S830,長濱,2025-07-18,23.286817,121.411975,0.008931903
C1F9F1,伯公龍,2025-07-18,24.272392,120.849047,0.0404343
C0UB90,太平山莊,2025-07-18,24.494171,121.536209,0.36052838
C0E810,西湖,2025-07-18,24.562947,120.7485,0.108009264
C1I440,新高口,2025-07-18,23.478744,120.878939,0.0075429347
C0O840,王爺宮,2025-07-18,23.222064,120.40085,0.006199568
C0T9G0,鳳林山,2025-07-18,23.735269,121.420131,0.008844809
C0X080,佳里,2025-07-18,23.173039,120.145086,0.010627628
C0FB70,大甲溪埔,2025-07-18,24.370625,120.620067,0.06669643
C0Z310,清水斷崖,2025-07-18,24.218294,121.689142,0.03159636
C0M680,太保,2025-07-18,23.455062,120.331455,0.011614625
C1S820,金峰,2025-07-18,22.590969,120.933236,0.06576073
C0AD10,八里,2025-07-18,25.150211,121.403947,0.04570972
C2K240,草嶺,2025-07-18,23.59555,120.693461,0.9390681
C1SA70,都蘭,2025-07-18,22.87794,121.226881,0.008985763
C0K440,二崙,2025-07-18,23.772797,120.408944,0.017657585
C1A760,坪林交控,2025-07-18,24.94284,121.713442,0.086626805
C0F9N0,大里,2025-07-18,24.092464,120.701378,0.020146152
C0SA90,達仁林場,2025-07-18,22.264347,120.823972,0.94473755
C1R290,石門山,2025-07-18,22.112611,120.756597,0.65128636
42HA10,萬大發電廠,2025-07-18,23.978875,121.139639,0.98149633
C0R890,山海,2025-07-18,21.9878,120.7091,0.020577265
C0T9A0,月眉山,2025-07-18,23.809928,121.539828,0.029507853
C0AC70,信義,2025-07-18,25.037822,121.564597,0.029131291
C0K560,棋山,2025-07-18,23.68645,120.603417,0.027678471
C2FB50,出雲,2025-07-18,24.206469,120.902794,0.98106956
C1Z240,中平林道,2025-07-18,23.42115,121.26763,0.9660528
U2H480,溪頭,2025-07-18,23.670306,120.798194,0.9631113
C0M880,好美里,2025-07-18,23.3364,120.138,0.010985373
C0T9E0,大坑,2025-07-18,23.880628,121.581981,0.017979372
C0K530,臺西,2025-07-18,23.701547,120.197559,0.02527286
C1E900,國一N128K,2025-07-18,24.560997,120.844186,0.071492605
C0AJ50,水湳洞,2025-07-18,25.123695,121.862238,0.04698815
C0AI20,白沙灣,2025-07-18,25.283128,121.519058,0.04648679
C2V310,美濃,2025-07-18,22.898792,120.51907,0.009407668
C0A860,大坪,2025-07-18,25.165914,121.632969,0.05607525
C1U850,觀音海岸,2025-07-18,24.38319,121.77856,0.2791931
C2K610,草嶺石壁,2025-07-18,23.602469,120.707731,0.94762534
C0U950,鶯子嶺,2025-07-18,24.89754,121.79244,0.9610971
C0O900,善化,2025-07-18,23.112883,120.297219,0.007112402
C0K550,蔦松,2025-07-18,23.514319,120.229736,0.012837115
E2P980,林試六龜中心,2025-07-18,22.991703,120.645722,0.005459547
C0E590,通霄,2025-07-18,24.471892,120.704622,0.05703593
C1I310,西巒,2025-07-18,23.754486,120.883956,0.97482795
C0A550,泰平,2025-07-18,24.971197,121.823711,0.08149168
C0I360,水里,2025-07-18,23.812553,120.849792,0.009338749
C0R830,高士,2025-07-18,22.121825,120.836781,0.74794644
C1I101,溪頭,2025-07-18,23.661789,120.807647,0.548786
C0AJ20,野柳,2025-07-18,25.20703,121.690021,0.03971308
C0B060,暖暖,2025-07-18,25.0957,121.7403,0.050241295
C1H920,長豐,2025-07-18,24.102039,120.879897,0.2727233
C0V360,內門,2025-07-18,22.975481,120.466769,0.006634868
C0R850,林邊,2025-07-18,22.4634,120.5339,0.010393674
C0E930,龍鳳,2025-07-18,24.700034,120.859125,0.08619339
C0U910,冬山,2025-07-18,24.63373,121.7937,0.032222115
C1E721,泰安,2025-07-18,24.489017,120.968036,0.9380437
82H320,茶改中部分場,2025-07-18,23.875611,120.913583,0.5132861
C0M750,布袋,2025-07-18,23.380878,120.167789,0.012855691
C1S860,利嘉,2025-07-18,22.809417,121.050528,0.96770436
E2S980,林試太麻里1,2025-07-18,22.598922,120.980044,0.014014725
C0X170,關廟,2025-07-18,22.963017,120.327797,0.008087826
C0V720,林園,2025-07-18,22.507747,120.394511,0.008093891
C1I510,線浸林道,2025-07-18,23.761508,120.832956,0.96821153
C0D690,外湖,2025-07-18,24.917735,120.968711,0.07771632
C0C750,新興坑尾,2025-07-18,25.0061,121.0971,0.112265565
B2Q810,畜試南區分所,2025-07-18,21.945583,120.802167,0.017653871
C0S790,金崙,2025-07-18,22.538122,120.966875,0.11466277
C0AH90,福山植物園,2025-07-18,24.760717,121.58135,0.45514107
C0I540,奇萊稜線,2025-07-18,24.109231,121.326456,0.00036200273
C0M850,表湖,2025-07-18,23.24186,120.64166,0.046183743
C0S770,大溪山,2025-07-18,22.478475,120.943325,0.8739104
C0AG80,中和,2025-07-18,24.991622,121.491792,0.04032893
C0T790,大禹嶺,2025-07-18,24.186117,121.316086,0.003364869
C0T9B0,水源,2025-07-18,23.991861,121.537169,0.008684672
C0R840,牡丹池山,2025-07-18,22.168389,120.841225,0.9333797
C1I131,桶頭,2025-07-18,23.641944,120.654117,0.011493123
CAL110,布袋國中,2025-07-18,23.35893,120.18026,0.010907404
467571,新竹,2025-07-18,24.827853,121.014219,0.058372054
C0Z290,赤柯山,2025-07-18,23.36893,121.38293,0.9833722
C0X280,將軍,2025-07-18,23.214999,120.13577,0.010723052
C0S690,太麻里,2025-07-18,22.60902,120.98533,0.7544427
C0U880,北關,2025-07-18,24.9072,121.8734,0.042704117
C0G810,埔心,2025-07-18,23.947633,120.525456,0.02901443
C0U970,大福,2025-07-18,24.80064,121.81389,0.031715207
C2H9N0,仁愛東眼,2025-07-18,24.026875,121.1205,0.9256137
C1E670,南礦,2025-07-18,24.538278,121.002836,0.958395
C0M520,東後寮,2025-07-18,23.369908,120.248065,0.010934827
C1E461,松安,2025-07-18,24.397972,120.986022,0.95517135
C2N160,西拉雅風管處,2025-07-18,23.189481,120.335297,0.0095599545
C2M970,碧湖,2025-07-18,23.568632,120.624165,0.8596002
C0A640,石碇,2025-07-18,24.993969,121.662917,0.09547536
E2S960,林試太麻里2,2025-07-18,22.598,120.99775,0.007846931
C0F9Y0,桃山,2025-07-18,24.432739,121.303808,0.0004064712
C1I020,萬大,2025-07-18,23.979817,121.132261,0.9646522
C0U940,羅東,2025-07-18,24.68184,121.74934,0.03699412
C0M650,朴子,2025-07-18,23.43463,120.23902,0.0121987285
C1I500,大尖山,2025-07-18,23.858572,120.994889,0.230597
C0FB40,中橫21.6k,2025-07-18,24.2499,121.1455,0.9515569
C0G820,田尾,2025-07-18,23.901669,120.509389,0.029191852
E2K600,四湖植物園,2025-07-18,23.676986,120.163433,0.02510883
C0S730,綠島,2025-07-18,22.6672,121.47533,0.0070886146
12Q970,東港工作站,2025-07-18,22.479997,120.466058,0.010267405
C0E430,南庄,2025-07-18,24.601775,121.000214,0.1849181
C1TA00,太魯閣,2025-07-18,24.15773,121.6236,0.03657173
466920,臺北,2025-07-18,25.037658,121.514853,0.028949983
C0R600,舊泰武,2025-07-18,22.588194,120.664944,0.9801916
C1I260,北坑,2025-07-18,23.9246,121.006903,0.03917905
466910,鞍部,2025-07-18,25.182586,121.529731,0.9703024
C1I230,九份二山,2025-07-18,23.961944,120.845,0.4121094
C2A660,瑞芳,2025-07-18,25.113169,121.801147,0.06904786
C0R270,琉球嶼,2025-07-18,22.332244,120.362236,0.011565385
C1T990,高寮,2025-07-18,23.394239,121.356808,0.01502792
C0G620,芬園,2025-07-18,24.015678,120.6213,0.034249503
C1Z140,荖溪,2025-07-18,23.890575,121.45964,0.7106183
C1I201,中心崙,2025-07-18,23.728722,120.712097,0.07162771
C1I400,凌霄,2025-07-18,24.018778,121.004456,0.9356066
C1M640,十字,2025-07-18,23.492153,120.753683,0.85855365
G2P820,農試鳳山分所,2025-07-18,22.646611,120.356083,0.012383172
C0Z270,蕃薯寮,2025-07-18,23.73835,121.540108,0.014765021
C0FB10,出雲山苗圃,2025-07-18,24.23105,120.90475,0.99012
C0F9Q0,外埔,2025-07-18,24.347817,120.705686,0.07971988
C0K580,高鐵雲林,2025-07-18,23.737456,120.417944,0.018292168
C2I090,鳳凰,2025-07-18,23.728081,120.787347,0.8476076
C0U990,員山,2025-07-18,24.74435,121.72247,0.036676515
C0V770,大社,2025-07-18,22.730306,120.346639,0.011197185
C0X120,麻豆,2025-07-18,23.183289,120.248611,0.009691675
C0C670,龍潭,2025-07-18,24.870056,121.221389,0.17701906
C0D680,香山濕地,2025-07-18,24.783581,120.914988,0.06119543
C0S980,勝林山,2025-07-18,22.430439,120.8938,0.96931696
C0V730,大寮,2025-07-18,22.605614,120.395717,0.008701083
C0R570,麟洛,2025-07-18,22.65078,120.52719,0.0069386936
C2M930,石卓,2025-07-18,23.478744,120.702264,0.8498738
C0G9B0,和美,2025-07-18,24.105169,120.492131,0.03937801
CAG100,王功漁港,2025-07-18,23.96824,120.32586,0.026521849
C0X290,北門,2025-07-18,23.267772,120.125481,0.010711091
C2F930,大甲,2025-07-18,24.347667,120.640403,0.08372477
C0D650,湖口,2025-07-18,24.904794,121.043628,0.107736066
C0E420,竹南,2025-07-18,24.708978,120.888897,0.09696951
C0U780,五結,2025-07-18,24.68637,121.79794,0.03569234
C1I250,鯉潭,2025-07-18,23.961922,120.991131,0.21557076
C0R130,阿禮,2025-07-18,22.742908,120.743678,0.96057105
C0X100,臺南市北區,2025-07-18,23.010394,120.194228,0.007438636
C0S920,金峰嘉蘭,2025-07-18,22.594789,120.960825,0.014210759
C0V490,新興,2025-07-18,22.627422,120.298803,0.011396947
C0F9K0,大安,2025-07-18,24.345061,120.588025,0.06531205
467290,古坑,2025-07-18,23.633639,120.551889,0.026890367
C2E970,八甲,2025-07-18,24.535811,120.795983,0.10751642
C0V440,鳳山,2025-07-18,22.646653,120.356122,0.012383172
C1T940,大觀,2025-07-18,23.714206,121.373133,0.035520148
C0E740,造橋,2025-07-18,24.637056,120.864778,0.072426505
C0R100,尾寮山,2025-07-18,22.833111,120.683889,0.94713265
A2K630,臺大雲林校區,2025-07-18,23.730628,120.423903,0.018341297
467990,馬祖,2025-07-18,26.169467,119.923158,0.037938043
C0D580,寶山,2025-07-18,24.735006,121.025192,0.13024521
E2P990,林試扇平站,2025-07-18,22.9677,120.6857,0.98315346
C0AI30,三重,2025-07-18,25.057328,121.500629,0.028251322
C0AH00,汐止,2025-07-18,25.066881,121.658778,0.028949983
C1Z040,立山,2025-07-18,23.443356,121.327375,0.018787248
466881,新北,2025-07-18,24.959207,121.525196,0.042710338
C0W130,花嶼,2025-07-18,23.40007,119.32276,0.1892598
C0A950,鼻頭角,2025-07-18,25.129036,121.923372,0.058745872
C0K470,林內,2025-07-18,23.748675,120.609642,0.023747263
C2F990,摩天嶺,2025-07-18,24.322458,120.936819,0.96332204
82C160,茶改場,2025-07-18,24.908472,121.185333,0.1485443
C0Z320,清水林道,2025-07-18,23.27125,121.188272,0.051783863
C0R760,南仁湖,2025-07-18,22.084681,120.863353,0.65556866
C0M670,大林,2025-07-18,23.600616,120.45841,0.013856552
C0M800,茶山,2025-07-18,23.299075,120.664767,0.0076854653
C0A9C0,天母,2025-07-18,25.117494,121.537169,0.03357777
72K220,南改斗南分場,2025-07-18,23.634556,120.477333,0.02136536
72AI40,桃改樹林分場,2025-07-18,24.944503,121.386972,0.044267397
C0S910,蘭嶼燈塔,2025-07-18,22.081197,121.503117,0.4580234
C0B050,八斗子,2025-07-18,25.144754,121.79167,0.04384227
C0U900,內城,2025-07-18,24.71813,121.68766,0.04005824
C0X320,柳營,2025-07-18,23.253328,120.375253,0.011122779
C0M790,新港,2025-07-18,23.553269,120.345728,0.0121335825
C0F9T0,西屯,2025-07-18,24.179494,120.641275,0.09769226
C0E950,松安,2025-07-18,24.39792,120.98599,0.95517135
C0SA30,都歷,2025-07-18,23.020333,121.323642,0.007882966
C0C620,蘆竹,2025-07-18,25.084275,121.265767,0.05065424
C0R730,大坪頂,2025-07-18,22.024633,120.69355,0.13498017
C0AJ40,石門,2025-07-18,25.273672,121.601198,0.08570817
C0E750,苗栗,2025-07-18,24.564569,120.824575,0.070036724
C0T870,鯉魚潭,2025-07-18,23.935639,121.508944,0.016965743
C1V170,排雲,2025-07-18,23.463619,120.954147,0.00030370132
C2H950,中寮,2025-07-18,23.884447,120.766406,0.062315032
C0R350,貓鼻頭,2025-07-18,21.921774,120.7358,0.021883473
C0V660,岡山,2025-07-18,22.797078,120.294958,0.01146689
C1H941,雙冬,2025-07-18,23.967378,120.802189,0.043940723
C0AJ70,田寮,2025-07-18,25.2698,121.4886,0.045671202
C0AI00,五股,2025-07-18,25.07445,121.42728,0.13737206
C0Z280,德武,2025-07-18,23.47426,121.41071,0.012891831
C0R700,枋山,2025-07-18,22.246844,120.661086,0.0072793444
C0C460,復興,2025-07-18,24.820208,121.352281,0.10641242
E2H360,蓮華池,2025-07-18,23.918333,120.885278,0.096778795
C0M640,中埔,2025-07-18,23.42538,120.5229,0.02130637
C0W140,金沙,2025-07-18,24.488292,118.408778,0.070201516
C2A540,四堵,2025-07-18,24.8926,121.745736,0.067049205
C0ACA0,新莊,2025-07-18,25.051478,121.446756,0.030456379
C0R220,潮州,2025-07-18,22.534361,120.54,0.009442242
U2HA40,臺大內茅埔,2025-07-18,23.689722,120.851117,0.023150664
467490,臺中,2025-07-18,24.145736,120.684075,0.07927935
C0UB60,明池,2025-07-18,24.650688,121.475277,0.9826659
C0U960,翠峰湖,2025-07-18,24.510856,121.608044,0.42479867
E2HA20,林試畢祿溪站,2025-07-18,24.226944,121.308522,0.15074393
C0V890,前鎮,2025-07-18,22.5718,120.3117,0.011403074
C1F941,雪嶺,2025-07-18,24.280586,121.026642,0.010668056
C2H9E0,國姓南港,2025-07-18,23.911108,120.846556,0.97443885
C0AC80,文山,2025-07-18,25.00235,121.575728,0.046458907
C0F9R0,龍井,2025-07-18,24.184536,120.528972,0.08113128
C0M760,民雄,2025-07-18,23.551754,120.428457,0.013821111
C0UA40,西德山,2025-07-18,24.560647,121.752608,0.98175675
C1T920,中興,2025-07-18,23.769503,121.498653,0.016977016
C0D550,雪霸,2025-07-18,24.526972,121.11605,0.664851
C2F860,梨山,2025-07-18,24.247522,121.243669,0.11886336
C0R320,車城,2025-07-18,22.0744,120.716247,0.019370198
C1S870,南美山,2025-07-18,23.15025,121.382333,0.0063206092
C0B020,基隆嶼,2025-07-18,25.19141,121.78391,0.04835145
C1U501,牛鬥,2025-07-18,24.637836,121.573656,0.09481375
C0M730,嘉義市東區,2025-07-18,23.457673,120.460531,0.012657796
C0S700,知本,2025-07-18,22.684866,121.005642,0.961185
C1N001,沙崙,2025-07-18,22.935472,120.309406,0.008109242
C0V760,橋頭,2025-07-18,22.757806,120.30575,0.011199741
C0G960,福寶,2025-07-18,24.0443,120.3814,0.038567174
C0X210,白河,2025-07-18,23.347466,120.414427,0.012583142
C0S810,東河,2025-07-18,22.972672,121.303986,0.007224393
C2R170,屏東,2025-07-18,22.66027,120.49403,0.0069418033
C0R670,楓港,2025-07-18,22.190131,120.692156,0.00517085
C0FA50,霧峰,2025-07-18,24.0419,120.6995,0.05960225
C0UB10,蘇澳,2025-07-18,24.5969,121.8571,0.019321168
C0G950,防潮門,2025-07-18,24.1835,120.4871,0.07999049
C0M740,六腳,2025-07-18,23.492871,120.290625,0.011716535
C1R250,力里,2025-07-18,22.428117,120.629228,0.012287128
C0K330,虎尾,2025-07-18,23.719183,120.442036,0.01852067
C2FA00,烏石坑,2025-07-18,24.273503,120.947617,0.95932853
C0V620,永安,2025-07-18,22.82315,120.236856,0.01146055
C1I330,楓樹林,2025-07-18,23.986803,121.076117,0.965304
C0W200,湖西,2025-07-18,23.596314,119.67275,0.21205173
72Q010,高雄農改場,2025-07-18,22.709333,120.525889,0.0068554874
C0SA40,瑞和,2025-07-18,22.974361,121.156697,0.007857443
C0C680,龜山,2025-07-18,25.02846,121.38656,0.09510233
C2V260,月眉,2025-07-18,22.971003,120.539853,0.005729407
C0V450,鳳森,2025-07-18,22.545064,120.392592,0.008740466
C0FA90,小雪山林道,2025-07-18,24.29515,121.03651,0.0030016066
C0U720,南山,2025-07-18,24.43742,121.38167,0.9766082
A2N290,臺南蘭花園區,2025-07-18,23.340258,120.379661,0.0117444405
C0R560,新園,2025-07-18,22.5434,120.461558,0.008093888
C0U890,三星,2025-07-18,24.66812,121.65302,0.034664355
C1V300,御油山,2025-07-18,23.001983,120.715364,0.9410312
C0U600,礁溪,2025-07-18,24.817539,121.765608,0.030646246
C1T980,龍澗,2025-07-18,24.023289,121.411328,0.9775007
C0D670,海天一線,2025-07-18,24.831986,120.914438,0.069888115
C0SA00,歷坵,2025-07-18,22.520969,120.89185,0.9408092
C0M710,東石,2025-07-18,23.458927,120.15385,0.013698687
C0M780,鹿草,2025-07-18,23.41134,120.30835,0.012301609
C0U520,雙連埤,2025-07-18,24.753033,121.641303,0.14823495
C0B010,七堵,2025-07-18,25.094819,121.71713,0.04192067
C0R480,長治,2025-07-18,22.693128,120.542622,0.006301773
C1V830,國三S383K,2025-07-18,22.781967,120.426475,0.005690432
12Q980,恆春工作站,2025-07-18,22.079678,120.714425,0.019500492
C1O940,東山服務區,2025-07-18,23.286016,120.398472,0.012342058
C1U840,東澳嶺,2025-07-18,24.5378,121.8485,0.62380266
C1D630,飛鳳山,2025-07-18,24.766464,121.119178,0.1085432
C0S940,石寧山,2025-07-18,23.223772,121.406639,0.008057013
C0K410,北港,2025-07-18,23.573957,120.292802,0.011779203
C2M620,瑞里,2025-07-18,23.545133,120.675197,0.9807748
C0SB70,小港漁港,2025-07-18,23.158558,121.400431,0.008416618
C2O950,安南,2025-07-18,23.076694,120.144861,0.00798319
C0F0E0,南湖圈谷,2025-07-18,24.363714,121.444667,0.0003614503
467610,成功,2025-07-18,23.097486,121.373428,0.007484285
C0G890,伸港,2025-07-18,24.148933,120.484403,0.07714088
C2E540,龍溪,2025-07-18,24.606489,120.783933,0.06838597
C1V200,梅山,2025-07-18,23.268447,120.823556,0.9665045
C0T9H0,加路蘭山,2025-07-18,23.682947,121.5274,0.014341675
C2O930,玉井,2025-07-18,23.126042,120.46055,0.010593874
C1F911,新伯公,2025-07-18,24.221361,120.841069,0.033776425
C0R490,九如,2025-07-18,22.7405,120.490503,0.0068756845
C0X200,左鎮,2025-07-18,23.056758,120.408522,0.009401042
C0FA60,鞍馬山工作站,2025-07-18,24.267064,121.000793,0.10817311
C0SB50,叭嗡嗡,2025-07-18,23.047062,121.343223,0.008595297
C1F891,稍來,2025-07-18,24.265689,121.001142,0.14207947
72N240,七股研究中心,2025-07-18,23.081672,120.062894,0.010060082
C0C700,中壢,2025-07-18,24.977661,121.256375,0.11003014
C0M690,水上,2025-07-18,23.419734,120.388909,0.011719506
C0V690,鼓山,2025-07-18,22.623325,120.275575,0.0113924565
C0O860,大內,2025-07-18,23.11885,120.36083,0.007082227
C0Z200,萬榮,2025-07-18,23.709219,121.420106,0.016128702
C0T9D0,和中,2025-07-18,24.26676,121.74103,0.028433483
C1O921,楠西,2025-07-18,23.183511,120.484083,0.013054525
C0AJ30,淡水觀海,2025-07-18,25.184591,121.408616,0.037992172
C0V810,左營,2025-07-18,22.67491,120.28491,0.012385605
C0UA70,桃源谷,2025-07-18,24.962606,121.888875,0.16334859
C0X130,官田,2025-07-18,23.193217,120.315422,0.009535478
C1H000,翠峰,2025-07-18,24.109397,121.205211,0.016928786
C0UA90,石城,2025-07-18,24.980444,121.951214,0.04329295
C1E681,南勢山,2025-07-18,24.421669,120.923831,0.9899593
C0A9F0,內湖,2025-07-18,25.079422,121.57545,0.028950006
C0K291,宜梧,2025-07-18,23.536281,120.169329,0.012796054
C1K540,口湖,2025-07-18,23.585344,120.180517,0.012253961
C0R780,滿州,2025-07-18,22.024403,120.839892,0.04291402
C0V870,文安,2025-07-18,22.8025,120.2164,0.011465867
C0U650,玉蘭,2025-07-18,24.675286,121.587061,0.07917403
C0R640,東港,2025-07-18,22.46247,120.44074,0.010252669
C0AJ80,板橋,2025-07-18,25.0107,121.4489,0.03969124
C0S660,下馬,2025-07-18,23.150427,121.070312,0.7223149
C1H9B1,阿眉,2025-07-18,24.1263,120.994672,0.6781242
C0UA20,多加屯,2025-07-18,24.368614,121.373189,0.0045981333
C0E730,頭份,2025-07-18,24.688247,120.912206,0.09597209
72V140,高改旗南分場,2025-07-18,22.857861,120.516667,0.0061160447
C0K480,莿桐,2025-07-18,23.761192,120.502372,0.017587155
C0U980,坪林石牌,2025-07-18,24.86478,121.77396,0.28840926
C0T900,西林,2025-07-18,23.8119,121.441458,0.015100757
C1I150,青雲,2025-07-18,23.793361,120.949378,0.025367664
467350,澎湖,2025-07-18,23.565503,119.563094,0.21459925
C0G800,埔鹽,2025-07-18,24.000394,120.431683,0.037842985
C0H960,草屯,2025-07-18,23.973672,120.68085,0.06379133
C1V780,多納林道,2025-07-18,22.888028,120.737917,0.97548234
C0E920,通霄漁港,2025-07-18,24.498589,120.673876,0.04901298
C0Z330,安通山,2025-07-18,23.290728,121.348528,0.037619483
C0AH10,永和,2025-07-18,25.01125,121.508111,0.039216053
C0AK10,太平里,2025-07-18,25.134937,121.364899,0.046504322
C2G640,鹿港,2025-07-18,24.0753,120.430481,0.038733937
C1E890,國三N149K,2025-07-18,24.463414,120.680019,0.09541883
C1R110,口社,2025-07-18,22.770111,120.645222,0.008679444
C1M870,國三N285K,2025-07-18,23.550319,120.505833,0.026845658
C1E480,鳳美,2025-07-18,24.554803,121.034747,0.24060698
C0M530,奮起湖,2025-07-18,23.493903,120.699253,0.9731081
C0C590,觀音,2025-07-18,25.027072,121.153317,0.17692702
C0T9M0,靜浦,2025-07-18,23.455167,121.495028,0.014360446
C2H9M0,發祥,2025-07-18,24.154094,121.164517,0.96342313
C0AI40,石牌,2025-07-18,25.115597,121.513139,0.032866612
C1F871,上谷關,2025-07-18,24.203483,121.018644,0.9768541
C2H9G0,百勝,2025-07-18,24.051142,120.909361,0.043474384
C0G880,二水,2025-07-18,23.810742,120.6173,0.017205019
C0R940,加祿堂,2025-07-18,22.3363,120.6217,0.0069381883
C0W220,北竿,2025-07-18,26.220358,119.974881,0.045784585
C0O960,崎頂,2025-07-18,22.959547,120.369317,0.007957036
C0TA40,秀林,2025-07-18,24.302864,121.731144,0.34013814
C0S750,向陽,2025-07-18,23.248397,120.986133,0.025960643
C0T9F0,水璉,2025-07-18,23.797131,121.542514,0.014135219
C1M600,頭凍,2025-07-18,23.406364,120.603339,0.89746535
467660,臺東,2025-07-18,22.752211,121.154586,0.01076978
C1D380,新埔,2025-07-18,24.84745,121.03834,0.09361099
C2G980,田頭村,2025-07-18,23.8263,120.444175,0.017639926
C0V750,路竹,2025-07-18,22.854997,120.259439,0.011635565
C0N050,蚵寮,2025-07-18,23.301,120.1104,0.010982611
72M700,南改鹿草分場,2025-07-18,23.416869,120.283061,0.012224059
C1SA50,利嘉林道,2025-07-18,22.82325,121.009389,0.96425724
C0UB70,太平山中間站,2025-07-18,24.542003,121.513453,0.9574956
C0A940,金山,2025-07-18,25.223628,121.643967,0.042528562
C1V340,大津,2025-07-18,22.888322,120.645986,0.006096993
C0W180,七美,2025-07-18,23.219333,119.444892,0.21507393
C1F9C1,白冷,2025-07-18,24.182844,120.929889,0.11463269
K2E710,苗改生物防治研究中心,2025-07-18,24.422861,120.871833,0.34339833
C0N040,蘆竹溝,2025-07-18,23.2344,120.0961,0.010706019
C0D760,大坪苗圃,2025-07-18,24.5362,121.1108,0.9295144
C2W230,畜試所澎湖,2025-07-18,23.628342,119.513206,0.2728246
C0R880,後壁湖,2025-07-18,21.9457,120.7457,0.01921408
C1I280,埔中,2025-07-18,23.820778,120.642594,0.017401418
467790,墾丁雷達站,2025-07-18,21.948235,120.808028,0.027402662
C0W190,望安,2025-07-18,23.380564,119.494075,0.2485072
C0Z170,卓溪,2025-07-18,23.3443,121.3029,0.008924878
C0F850,東勢,2025-07-18,24.246428,120.833047,0.035700712
466900,淡水,2025-07-18,25.164889,121.448906,0.046611812
C0I370,魚池,2025-07-18,23.895703,120.94135,0.0731844
C0C630,大溪,2025-07-18,24.882853,121.265547,0.14761141
C0A520,山佳,2025-07-18,24.974944,121.402008,0.04047129
C0I110,竹山,2025-07-18,23.761225,120.688156,0.018640848
82H840,茶改南部分場,2025-07-18,23.762528,120.7405,0.020757668
C0G660,溪湖,2025-07-18,23.94835,120.479122,0.02852243
C1T800,洛韶,2025-07-18,24.204558,121.453956,0.96058726
C1T810,慈恩,2025-07-18,24.192044,121.388386,0.25366318
C1E451,象鼻,2025-07-18,24.368617,120.940228,0.9913287
C0AC60,三峽,2025-07-18,24.939025,121.369728,0.076319486
C0I490,萬大林道,2025-07-18,23.928228,121.091411,0.8838376
C1I290,豐丘,2025-07-18,23.668178,120.887417,0.9726173
C1I320,奧萬大,2025-07-18,23.952956,121.178556,0.9668414
C2M910,嘉義大學,2025-07-18,23.471325,120.485903,0.019291159
C0U770,南澳,2025-07-18,24.44935,121.81022,0.028535513
C0A980,社子,2025-07-18,25.109508,121.469681,0.044348177
C0V800,六龜,2025-07-18,22.997889,120.633583,0.005476038
C1G9D0,國一S218K,2025-07-18,23.890641,120.493253,0.027332043
C0E570,白沙屯,2025-07-18,24.549447,120.696803,0.09082528
C2F9A0,中竹林,2025-07-18,24.103556,120.751061,0.024365062
C0FA40,臺中電廠,2025-07-18,24.2146,120.4907,0.081269674
C2G9A0,畜試所彰化,2025-07-18,23.86045,120.557964,0.01699355
C0H9C0,合歡山,2025-07-18,24.143442,121.272547,0.00068236794
C0X060,下營,2025-07-18,23.22695,120.256261,0.009929952
G2M350,農試溪口農場,2025-07-18,23.58565,120.408111,0.013634482
C0U860,頭城,2025-07-18,24.85323,121.8308,0.029674442
C0R580,南州,2025-07-18,22.48591,120.50274,0.010252669
C0D430,峨眉,2025-07-18,24.6905,121.017189,0.1398862
C0G780,秀水,2025-07-18,24.03405,120.503869,0.033003893
72N100,臺南農改場,2025-07-18,23.0605,120.342194,0.0070645516
C0S900,蘭嶼高中,2025-07-18,22.04909,121.51214,0.20435455
C1F9W0,德基,2025-07-18,24.254783,121.190261,0.28323314
C1Z120,壽豐,2025-07-18,23.870853,121.508081,0.017553102
C0W160,烏坵,2025-07-18,24.9944,119.44956,0.19010666
C1I240,外大坪,2025-07-18,23.958697,120.917931,0.26105493
C1I550,國六W023K,2025-07-18,23.979067,120.867742,0.019927131
C0R870,興海,2025-07-18,21.9752,120.8439,0.017880607
C0R140,瑪家,2025-07-18,22.682903,120.686639,0.9857264
C0A530,坪林,2025-07-18,24.938183,121.70975,0.15983425
C0X260,後壁,2025-07-18,23.366358,120.362326,0.009921597
C0Z230,和平,2025-07-18,24.30717,121.77007,0.028183429
C0G770,福興,2025-07-18,24.041289,120.437669,0.03761306
C0H9A0,神木村,2025-07-18,23.532742,120.843667,0.9253405
C0I460,南投,2025-07-18,23.911469,120.687331,0.050486233
C0I480,梅峰,2025-07-18,24.085272,121.173572,0.13747725
C1V570,吉東,2025-07-18,22.85422,120.5454,0.0060689943
C2D740,屯原,2025-07-18,24.067969,121.209389,0.12228362
C2A560,福山,2025-07-18,24.776203,121.502811,0.05821439
C0AH30,五分山,2025-07-18,25.07125,121.780794,0.29938096
C0FA10,松柏,2025-07-18,24.429115,120.617482,0.07474285
72S200,東改班鳩分場,2025-07-18,22.829528,121.077694,0.0080049895
72HA00,中改埔里分場,2025-07-18,23.903208,120.963364,0.059305213
C2H9W0,大坪頂農水,2025-07-18,24.043122,120.932781,0.3015048
C0C650,平鎮,2025-07-18,24.897503,121.214636,0.16397338
C0S930,延平,2025-07-18,22.902581,121.084058,0.008033674
C0UA60,樟樹山,2025-07-18,24.41393,121.78325,0.23833738
C1S670,摩天,2025-07-18,23.199503,121.027,0.75693685
C0V630,茄萣,2025-07-18,22.906642,120.182608,0.00932289
466940,基隆,2025-07-18,25.133314,121.740475,0.044547897
C0X050,東河,2025-07-18,23.296598,120.385608,0.012238998
C0R770,保力,2025-07-18,22.071122,120.764111,0.042781122
G2L020,農試嘉義分所,2025-07-18,23.485028,120.473806,0.022461887
C0X240,關子嶺,2025-07-18,23.331169,120.508025,0.007655409
C0I380,集集,2025-07-18,23.828206,120.801467,0.009366699
466990,花蓮,2025-07-18,23.975128,121.613275,0.019494077
C1V220,小關山,2025-07-18,23.154217,120.813603,0.8709629
C1F9G1,慶福山,2025-07-18,24.180853,120.848378,0.8796852
C0FB20,雪山橋,2025-07-18,24.23192,120.9786,0.28290042
C0Z250,瑞穗林道,2025-07-18,23.49284,121.30688,0.958165
C0D590,新豐,2025-07-18,24.87068,120.97721,0.16359642
C0A870,五指山,2025-07-18,25.132153,121.608692,0.7332127
C0UA50,西帽山,2025-07-18,24.555361,121.802628,0.6694027
C0X160,仁德,2025-07-18,22.968258,120.257689,0.008130825
C1H971,六分寮,2025-07-18,23.92507,120.6378,0.021818588
C0W120,西嶼,2025-07-18,23.5626,119.468436,0.19737889
C0G650,員林,2025-07-18,23.946503,120.585597,0.026827054
C0AD50,鶯歌,2025-07-18,24.951533,121.346294,0.08384486
C2H9Q0,北東眼山,2025-07-18,24.120939,121.189303,0.13416317
C2H9T0,名間竹圍,2025-07-18,23.859914,120.637572,0.00861345
C0S990,山豬窟,2025-07-18,22.318619,120.857372,0.86489177
C0X190,安平,2025-07-18,22.993161,120.152181,0.007440928
C0K400,斗六,2025-07-18,23.720583,120.541127,0.019965146
12J990,口湖工作站,2025-07-18,23.589978,120.180394,0.012268329
C0O830,北寮,2025-07-18,23.079561,120.495008,0.0059937723
C1D410,白蘭,2025-07-18,24.579364,121.079947,0.95191586
C0S970,加津林,2025-07-18,22.416211,120.926942,0.004992395
C0D700,關西,2025-07-18,24.7977,121.1732,0.112673305
C0M810,里佳,2025-07-18,23.389125,120.716647,0.9551315
C0U750,龜山島,2025-07-18,24.841667,121.953133,0.108289205
C0R810,內獅,2025-07-18,22.305064,120.642986,0.006946245
C1M390,龍美,2025-07-18,23.406728,120.654417,0.98284656
C2FB60,頭櫃山,2025-07-18,24.129842,120.858925,0.98671985
C1H840,國三N238K,2025-07-18,23.841008,120.707711,0.008759036
CAQ030,崎峰國小,2025-07-18,22.42565,120.49521,0.010252669
C2E520,大湖,2025-07-18,24.414939,120.870872,0.029557707
467530,阿里山,2025-07-18,23.508208,120.813242,0.023008011
C1E691,南湖,2025-07-18,24.40135,120.837533,0.8981633
C0FA30,梧棲,2025-07-18,24.256003,120.523381,0.06404217
C1V231,高中,2025-07-18,23.134911,120.716711,0.05243186
C0AK30,硬漢嶺,2025-07-18,25.136097,121.426372,0.3127782
C0F9V0,新社,2025-07-18,24.200172,120.815806,0.052909672
C0H890,埔里,2025-07-18,23.972169,120.952425,0.030700874
C0R690,墾丁,2025-07-18,21.966756,120.810269,0.29330054
C0F0D0,審馬陣,2025-07-18,24.381675,121.4203,0.00036380976
C2W030,金門農試所,2025-07-18,24.448431,118.451786,0.052859515
C0R820,白鷺,2025-07-18,22.454275,120.666219,0.9784432
C0FB00,大雪山,2025-07-18,24.254668,121.007374,0.109948725
C1V190,南天池,2025-07-18,23.27403,120.91176,0.008512756
C0E940,雪見,2025-07-18,24.42595,121.01347,0.6749171
K2E360,苗栗農改場,2025-07-18,24.495722,120.829111,0.08620345
CAJ050,海口故事園區,2025-07-18,23.57543,120.14121,0.012262349
C2H9D0,三隻寮,2025-07-18,24.093078,120.861578,0.37532496
C0O990,媽廟,2025-07-18,22.99175,120.293525,0.007255579
C0D480,打鐵坑,2025-07-18,24.849664,121.150789,0.17964141
C0Z220,和平林道,2025-07-18,24.343922,121.656317,0.25217777
C0TA10,花蓮漁港,2025-07-18,23.995322,121.638331,0.019647595
72C440,桃園農改場,2025-07-18,24.950944,121.030583,0.090493776
C1E711,馬拉邦山,2025-07-18,24.367306,120.901656,0.9727528
C0SB20,富岡,2025-07-18,22.792467,121.192669,0.009616725
C0D560,竹東,2025-07-18,24.767147,121.057881,0.09746481
C0F9U0,南屯,2025-07-18,24.137006,120.637969,0.045412548
C0M720,番路,2025-07-18,23.464657,120.554156,0.00978135
C0F0A0,雪山圈谷,2025-07-18,24.388594,121.236339,0.00024679693
C1A9N0,四十份,2025-07-18,24.934158,121.593283,0.13288382
C0U760,東澳,2025-07-18,24.52196,121.83318,0.033479694
C0X230,鹽水,2025-07-18,23.272621,120.247641,0.011010082
C2H9H0,苗改南投蜂場,2025-07-18,23.852589,120.693481,0.017078841
C0R950,萬隆國小,2025-07-18,22.507667,120.587817,0.009929923
467540,大武,2025-07-18,22.35572,120.90374,0.0046867495
C0V370,古亭坑,2025-07-18,22.893178,120.401947,0.010131813
C1I340,新興橋,2025-07-18,23.563333,120.868728,0.8791868
C0SA80,土坂,2025-07-18,22.453108,120.887572,0.016265173
C0R160,鹽埔,2025-07-18,22.739558,120.530778,0.0068464195
C0AC40,大屯山,2025-07-18,25.175675,121.522408,0.7297112
466850,五分山雷達站,2025-07-18,25.071182,121.781205,0.34693936
C2H9L0,馬烈霸,2025-07-18,24.1512,121.201772,0.15352972
C1AI50,國三N016K,2025-07-18,25.034164,121.619664,0.032035533
C1V600,藤枝,2025-07-18,23.071961,120.757042,0.955191
C1E601,南勢,2025-07-18,24.572486,120.734842,0.14364953
C0O980,新市,2025-07-18,23.061614,120.298197,0.007111985
C0K420,西螺,2025-07-18,23.800407,120.467394,0.017905744
C0Z050,佳心,2025-07-18,23.34567,121.21316,0.9308245
C0AD30,蘆洲,2025-07-18,25.086594,121.472331,0.028580781
C0V610,梓官,2025-07-18,22.760558,120.267211,0.011195775
K2F750,種苗改良場,2025-07-18,24.225972,120.800917,0.04019514
C0UA80,大溪漁港,2025-07-18,24.941801,121.902955,0.03299411
C1AI60,國一39K邊坡,2025-07-18,25.064361,121.383836,0.07402565
C0W150,金寧,2025-07-18,24.457703,118.328989,0.053512063
C0R960,內埔,2025-07-18,22.608483,120.570714,0.009640352
V2C250,八德合作社,2025-07-18,24.93775,121.266389,0.119867444
C2H9S0,龍南,2025-07-18,23.953536,120.833183,0.98020256
C0AH40,平等,2025-07-18,25.129142,121.577086,0.075563155
C0R540,佳冬,2025-07-18,22.419456,120.552375,0.008897417
466950,彭佳嶼,2025-07-18,25.627975,122.079744,0.49759376
C0A890,雙溪,2025-07-18,25.036003,121.864242,0.08596617
C0C480,桃園,2025-07-18,24.992425,121.323172,0.097886324
C0AH50,林口,2025-07-18,25.072181,121.38084,0.11066215
A2K360,水試臺西試驗場,2025-07-18,23.717231,120.190522,0.02513433
C2M960,外寮,2025-07-18,23.562643,120.665688,0.9076678
C0F9S0,烏日,2025-07-18,24.107058,120.624103,0.029113559
C0C490,八德,2025-07-18,24.928708,121.283289,0.122904845
C0R190,赤山,2025-07-18,22.592333,120.614306,0.009772901
C0T820,天祥,2025-07-18,24.179597,121.495639,0.07207907
C1F9E1,龍安,2025-07-18,24.1605,120.831961,0.07385298
C0V820,小林,2025-07-18,23.148408,120.63325,0.007649971
C2G870,芳苑,2025-07-18,23.922303,120.320025,0.0266534
C0E850,大河,2025-07-18,24.618069,120.948578,0.08132997
C1U670,寒溪,2025-07-18,24.634,121.71691,0.043759648
C0N020,城西,2025-07-18,23.0568,120.0956,0.009343894
C1Z110,三棧,2025-07-18,24.11557,121.60501,0.01004817
C0R280,檳榔,2025-07-18,22.076078,120.836777,0.40470538
C2H9J0,中台,2025-07-18,23.9996,120.938739,0.041180443
C0F9L0,后里,2025-07-18,24.310436,120.729725,0.02062436
467441,高雄,2025-07-18,22.730432,120.312516,0.011195616
C0Z180,新城,2025-07-18,24.040486,121.604878,0.019322064
C0D540,橫山,2025-07-18,24.71116,121.11693,0.20082422
C1D420,太閣南,2025-07-18,24.632808,121.160575,0.97798294
C1E770,公館,2025-07-18,24.526914,120.830806,0.07604343
CAN130,水試所海水繁養殖中心,2025-07-18,23.120802,120.07968,0.010072774
C1I430,翠華,2025-07-18,24.191961,121.224339,0.023909671
C1M400,菜瓜坪,2025-07-18,23.251928,120.576103,0.007516452
C0G730,二林,2025-07-18,23.903325,120.376081,0.032273803
72M360,南改義竹分場,2025-07-18,23.360694,120.279361,0.010963791
V2K620,麥寮合作社,2025-07-18,23.753836,120.294783,0.02225082
C0Z070,舞鶴,2025-07-18,23.46811,121.37407,0.012474776
C0B040,大武崙,2025-07-18,25.166676,121.706993,0.050122146
C1Z030,紅葉,2025-07-18,23.493119,121.338806,0.01380404
C1I050,丹大,2025-07-18,23.753747,121.141147,0.006730056
C0I080,信義,2025-07-18,23.689694,120.851036,0.023150664
C0D750,樂山林道6k,2025-07-18,24.49999,121.08773,0.05657877
C2M920,朴子農改,2025-07-18,23.469889,120.259383,0.012175434
C2A880,福隆,2025-07-18,25.017842,121.942083,0.042233933
C0Z160,鳳林,2025-07-18,23.746114,121.453411,0.016816178
C0UB80,翠峰林道6K,2025-07-18,24.49773,121.568625,0.2536228
C0V210,復興,2025-07-18,23.222403,120.806089,0.08033825
C0H990,昆陽,2025-07-18,24.121322,121.273642,0.001719739
C0R741,獅子,2025-07-18,22.202308,120.705236,0.004900139
C0S710,鹿野,2025-07-18,22.917711,121.122994,0.010730511
C0I530,小奇萊,2025-07-18,24.131764,121.295717,0.0014602024
C0FA70,大雪山埡口,2025-07-18,24.26867,121.03062,0.011277052
C2K630,荷苞,2025-07-18,23.657717,120.595144,0.029836236
C0Z080,富源,2025-07-18,23.587642,121.378225,0.012054575
C0SB10,美和,2025-07-18,22.682078,121.060236,0.009348393
C2K620,馬光農場,2025-07-18,23.721453,120.378864,0.018141754
C1I140,卡奈托灣,2025-07-18,23.754364,121.087872,0.7706394
C0I520,玉山風口,2025-07-18,23.470489,120.955994,0.00034076173
C1G691,下水埔,2025-07-18,23.816114,120.5676,0.017971897
C0X110,臺南市南區,2025-07-18,22.961189,120.188378,0.008130506
C0V680,仁武,2025-07-18,22.701083,120.347722,0.012390143
C2G840,北斗,2025-07-18,23.877586,120.514222,0.027601833
C0R900,竹坑,2025-07-18,22.1385,120.7022,0.0060565267
C0K250,崙背,2025-07-18,23.75555,120.318925,0.02243164
C0G860,社頭,2025-07-18,23.897647,120.5862,0.025900064
C0X150,安定,2025-07-18,23.102614,120.227839,0.007427361
C0R590,里港,2025-07-18,22.77919,120.49459,0.005875175
C0E610,馬都安,2025-07-18,24.451272,120.930192,0.9621673
C0E550,明德,2025-07-18,24.583486,120.885411,0.07321886
C0R150,三地門,2025-07-18,22.709889,120.639944,0.008689978
C0G910,花壇,2025-07-18,24.032076,120.549461,0.033938292
C1D400,鳥嘴山,2025-07-18,24.71909,121.28387,0.9848457
C0K500,元長,2025-07-18,23.64981,120.315024,0.02202789
C0F0B0,石岡,2025-07-18,24.276061,120.777644,0.02194953
C2V250,甲仙,2025-07-18,23.080106,120.591758,0.0062715313
C0SA20,金崙山,2025-07-18,22.567419,120.959667,0.94185793
C0V350,溪埔,2025-07-18,22.738578,120.446797,0.005993639
C0M660,溪口,2025-07-18,23.604131,120.403569,0.013649136
C1S880,壽卡,2025-07-18,22.238911,120.858903,0.9377585
72D680,桃改新埔分場,2025-07-18,24.834444,121.066111,0.09042881
