站號,站名,日期,lat,lon,BlastGRU-TW
12J990,口湖工作站,2025-06-26,23.589978,120.180394,0.5545822
12Q970,東港工作站,2025-06-26,22.479997,120.466058,0.4311473
12Q980,恆春工作站,2025-06-26,22.079678,120.714425,0.23339517
466881,新北,2025-06-26,24.959207,121.525196,0.06075042
466900,淡水,2025-06-26,25.164889,121.448906,0.07538
466920,臺北,2025-06-26,25.037658,121.514853,0.028228283
466940,基隆,2025-06-26,25.133314,121.740475,0.060258675
466990,花蓮,2025-06-26,23.975128,121.613275,0.06819383
467050,新屋,2025-06-26,25.006725,121.047492,0.814438
467080,宜蘭,2025-06-26,24.763975,121.756528,0.02328006
467270,田中,2025-06-26,23.873803,120.581286,0.17355783
467280,後龍,2025-06-26,24.648563,120.831834,0.8969844
467290,古坑,2025-06-26,23.633639,120.551889,0.2916728
467300,東吉島,2025-06-26,23.25727,119.66762,0.72196716
467350,澎湖,2025-06-26,23.565503,119.563094,0.38651195
467410,臺南,2025-06-26,22.99328,120.20492,0.11400758
467420,永康,2025-06-26,23.038386,120.2367,0.057294555
467441,高雄,2025-06-26,22.730432,120.312516,0.029481743
467480,嘉義,2025-06-26,23.495925,120.432906,0.08213256
467490,臺中,2025-06-26,24.145736,120.684075,0.093243696
467540,大武,2025-06-26,22.35572,120.90374,0.042729497
467571,新竹,2025-06-26,24.827853,121.014219,0.76679194
467590,恆春,2025-06-26,22.003897,120.746339,0.07665442
467610,成功,2025-06-26,23.097486,121.373428,0.22585444
467620,蘭嶼,2025-06-26,22.0369,121.55843,0.9956663
467660,臺東,2025-06-26,22.752211,121.154586,0.9226589
467790,墾丁雷達站,2025-06-26,21.948235,120.808028,0.11527284
72AI40,桃改樹林分場,2025-06-26,24.944503,121.386972,0.072378896
72C440,桃園農改場,2025-06-26,24.950944,121.030583,0.7894875
72D680,桃改新埔分場,2025-06-26,24.834444,121.066111,0.53431386
72G600,臺中農改場,2025-06-26,24.003028,120.534389,0.137844
72K220,南改斗南分場,2025-06-26,23.634556,120.477333,0.38250148
72M360,南改義竹分場,2025-06-26,23.360694,120.279361,0.35267597
72M700,南改鹿草分場,2025-06-26,23.416869,120.283061,0.2051724
72N100,臺南農改場,2025-06-26,23.0605,120.342194,0.106912464
72N240,七股研究中心,2025-06-26,23.081672,120.062894,0.12617631
72Q010,高雄農改場,2025-06-26,22.709333,120.525889,0.095536076
72S200,東改班鳩分場,2025-06-26,22.829528,121.077694,0.8457254
72S590,東改賓朗果園,2025-06-26,22.813889,121.071278,0.9039293
72T250,花蓮農改場,2025-06-26,23.975222,121.563889,0.07940954
72U480,花改蘭陽分場,2025-06-26,24.686306,121.716583,0.01739312
72V140,高改旗南分場,2025-06-26,22.857861,120.516667,0.15523604
82A750,茶改北部分場,2025-06-26,24.955778,121.631222,0.22307885
82C160,茶改場,2025-06-26,24.908472,121.185333,0.6142518
82H840,茶改南部分場,2025-06-26,23.762528,120.7405,0.5648019
82S580,茶改東部分場,2025-06-26,22.907694,121.130139,0.06490214
A2C560,農工中心,2025-06-26,24.985917,121.239833,0.37741432
A2K360,水試臺西試驗場,2025-06-26,23.717231,120.190522,0.20287058
A2K570,古坑花卉中心,2025-06-26,23.63353,120.55239,0.2916728
A2K630,臺大雲林校區,2025-06-26,23.730628,120.423903,0.52197516
A2N290,臺南蘭花園區,2025-06-26,23.340258,120.379661,0.20273572
B2E890,畜試北區分所,2025-06-26,24.527806,120.770972,0.8985487
B2N890,畜產試驗所,2025-06-26,23.058972,120.336406,0.10728003
B2Q810,畜試南區分所,2025-06-26,21.945583,120.802167,0.09341528
B2U990,畜試東區分所,2025-06-26,24.669039,121.832561,0.020438952
C0A520,山佳,2025-06-26,24.974944,121.402008,0.061200142
C0A530,坪林,2025-06-26,24.938183,121.70975,0.03753586
C0A550,泰平,2025-06-26,24.971197,121.823711,0.64966875
C0A570,桶後,2025-06-26,24.848222,121.597992,0.40227848
C0A640,石碇,2025-06-26,24.993969,121.662917,0.13255869
C0A770,科教館,2025-06-26,25.096356,121.516507,0.028277878
C0A860,大坪,2025-06-26,25.165914,121.632969,0.15790437
C0A890,雙溪,2025-06-26,25.036003,121.864242,0.048292913
C0A931,三和,2025-06-26,25.233153,121.595236,0.10138867
C0A940,金山,2025-06-26,25.223628,121.643967,0.047298126
C0A950,鼻頭角,2025-06-26,25.129036,121.923372,0.091916315
C0A970,三貂角,2025-06-26,25.007606,122.002058,0.026709206
C0A980,社子,2025-06-26,25.109508,121.469681,0.06884952
C0A9C0,天母,2025-06-26,25.117494,121.537169,0.03219288
C0A9F0,內湖,2025-06-26,25.079422,121.57545,0.028228283
C0AC60,三峽,2025-06-26,24.939025,121.369728,0.07581814
C0AC70,信義,2025-06-26,25.037822,121.564597,0.03292936
C0AC80,文山,2025-06-26,25.00235,121.575728,0.07473009
C0ACA0,新莊,2025-06-26,25.051478,121.446756,0.04055826
C0AD10,八里,2025-06-26,25.150211,121.403947,0.07443333
C0AD30,蘆洲,2025-06-26,25.086594,121.472331,0.028142858
C0AD40,土城,2025-06-26,24.973208,121.445169,0.058712803
C0AD50,鶯歌,2025-06-26,24.951533,121.346294,0.08174595
C0AG80,中和,2025-06-26,24.991622,121.491792,0.058712803
C0AH00,汐止,2025-06-26,25.066881,121.658778,0.028228283
C0AH10,永和,2025-06-26,25.01125,121.508111,0.057715088
C0AH40,平等,2025-06-26,25.129142,121.577086,0.2572739
C0AH50,林口,2025-06-26,25.072181,121.38084,0.70961815
C0AH70,松山,2025-06-26,25.04871,121.55042,0.028228283
C0AH80,深坑,2025-06-26,25.002703,121.628328,0.07513688
C0AI00,五股,2025-06-26,25.07445,121.42728,0.3250402
C0AI10,屈尺,2025-06-26,24.92184,121.54475,0.037880372
C0AI20,白沙灣,2025-06-26,25.283128,121.519058,0.069569744
C0AI30,三重,2025-06-26,25.057328,121.500629,0.028075406
C0AI40,石牌,2025-06-26,25.115597,121.513139,0.032054875
C0AJ20,野柳,2025-06-26,25.20703,121.690021,0.06389955
C0AJ30,淡水觀海,2025-06-26,25.184591,121.408616,0.055178177
C0AJ40,石門,2025-06-26,25.273672,121.601198,0.12487124
C0AJ50,水湳洞,2025-06-26,25.123695,121.862238,0.051795233
C0AJ60,六塊厝,2025-06-26,25.24,121.4481,0.06585613
C0AJ70,田寮,2025-06-26,25.2698,121.4886,0.06766337
C0AJ80,板橋,2025-06-26,25.0107,121.4489,0.057715088
C0AJ90,澳底,2025-06-26,25.0552,121.9253,0.044504475
C0AK10,太平里,2025-06-26,25.134937,121.364899,0.078167476
C0B010,七堵,2025-06-26,25.094819,121.71713,0.043988027
C0B020,基隆嶼,2025-06-26,25.19141,121.78391,0.091000885
C0B040,大武崙,2025-06-26,25.166676,121.706993,0.06360279
C0B050,八斗子,2025-06-26,25.144754,121.79167,0.059472125
C0B060,暖暖,2025-06-26,25.0957,121.7403,0.04731397
C0C460,復興,2025-06-26,24.820208,121.352281,0.8468202
C0C480,桃園,2025-06-26,24.992425,121.323172,0.119236246
C0C490,八德,2025-06-26,24.928708,121.283289,0.120299086
C0C590,觀音,2025-06-26,25.027072,121.153317,0.8522477
C0C620,蘆竹,2025-06-26,25.084275,121.265767,0.40814042
C0C630,大溪,2025-06-26,24.882853,121.265547,0.07942911
C0C650,平鎮,2025-06-26,24.897503,121.214636,0.17926474
C0C660,楊梅,2025-06-26,24.912375,121.143047,0.384813
C0C670,龍潭,2025-06-26,24.870056,121.221389,0.121335074
C0C680,龜山,2025-06-26,25.02846,121.38656,0.42686775
C0C700,中壢,2025-06-26,24.977661,121.256375,0.14536025
C0C710,大溪永福,2025-06-26,24.892936,121.324975,0.09870035
C0C720,竹圍,2025-06-26,25.112692,121.239824,0.094565794
C0C730,中大臨海站,2025-06-26,24.966126,121.008581,0.77151966
C0C740,觀音工業區,2025-06-26,25.064764,121.114856,0.785881
C0C750,新興坑尾,2025-06-26,25.0061,121.0971,0.8062998
C0D430,峨眉,2025-06-26,24.6905,121.017189,0.9168545
C0D480,打鐵坑,2025-06-26,24.849664,121.150789,0.134297
C0D540,橫山,2025-06-26,24.71116,121.11693,0.74120533
C0D560,竹東,2025-06-26,24.767147,121.057881,0.6058393
C0D580,寶山,2025-06-26,24.735006,121.025192,0.4836473
C0D590,新豐,2025-06-26,24.87068,120.97721,0.92165464
C0D650,湖口,2025-06-26,24.904794,121.043628,0.868773
C0D660,新竹市東區,2025-06-26,24.798681,120.986942,0.7185811
C0D670,海天一線,2025-06-26,24.831986,120.914438,0.81755507
C0D680,香山濕地,2025-06-26,24.783581,120.914988,0.77312845
C0D690,外湖,2025-06-26,24.917735,120.968711,0.6979616
C0D700,關西,2025-06-26,24.7977,121.1732,0.62497866
C0E420,竹南,2025-06-26,24.708978,120.888897,0.8430309
C0E430,南庄,2025-06-26,24.601775,121.000214,0.9567104
C0E550,明德,2025-06-26,24.583486,120.885411,0.91670626
C0E570,白沙屯,2025-06-26,24.549447,120.696803,0.8442805
C0E590,通霄,2025-06-26,24.471892,120.704622,0.7273868
C0E730,頭份,2025-06-26,24.688247,120.912206,0.8303073
C0E740,造橋,2025-06-26,24.637056,120.864778,0.88684386
C0E750,苗栗,2025-06-26,24.564569,120.824575,0.8961833
C0E780,銅鑼,2025-06-26,24.489681,120.790853,0.9683382
C0E791,卓蘭,2025-06-26,24.3126,120.8244,0.9067448
C0E810,西湖,2025-06-26,24.562947,120.7485,0.8932134
C0E820,獅潭,2025-06-26,24.539133,120.920042,0.96587604
C0E830,苑裡,2025-06-26,24.439714,120.653053,0.5107162
C0E850,大河,2025-06-26,24.618069,120.948578,0.88553554
C0E870,高鐵苗栗,2025-06-26,24.60725,120.826094,0.886747
C0E910,海埔,2025-06-26,24.648767,120.772435,0.8585353
C0E920,通霄漁港,2025-06-26,24.498589,120.673876,0.62457895
C0E930,龍鳳,2025-06-26,24.700034,120.859125,0.7863943
C0F0B0,石岡,2025-06-26,24.276061,120.777644,0.8101994
C0F850,東勢,2025-06-26,24.246428,120.833047,0.9722304
C0F970,大坑,2025-06-26,24.173142,120.722289,0.11495679
C0F9I0,神岡,2025-06-26,24.272481,120.658314,0.84391
C0F9K0,大安,2025-06-26,24.345061,120.588025,0.36874217
C0F9L0,后里,2025-06-26,24.310436,120.729725,0.68621594
C0F9M0,豐原,2025-06-26,24.254322,120.720692,0.63159573
C0F9N0,大里,2025-06-26,24.092464,120.701378,0.08876233
C0F9O0,潭子,2025-06-26,24.213106,120.703933,0.3254637
C0F9P0,清水,2025-06-26,24.312297,120.562242,0.27897832
C0F9Q0,外埔,2025-06-26,24.347817,120.705686,0.6556728
C0F9R0,龍井,2025-06-26,24.184536,120.528972,0.16343631
C0F9S0,烏日,2025-06-26,24.107058,120.624103,0.08131112
C0F9T0,西屯,2025-06-26,24.179494,120.641275,0.3020089
C0F9U0,南屯,2025-06-26,24.137006,120.637969,0.23933335
C0F9X0,大雅(中科園區),2025-06-26,24.21528,120.62445,0.533729
C0FA10,松柏,2025-06-26,24.429115,120.617482,0.4389604
C0FA20,溫寮,2025-06-26,24.372177,120.583125,0.33318958
C0FA30,梧棲,2025-06-26,24.256003,120.523381,0.27897832
C0FA40,臺中電廠,2025-06-26,24.2146,120.4907,0.18941237
C0FA50,霧峰,2025-06-26,24.0419,120.6995,0.22573717
C0FB70,大甲溪埔,2025-06-26,24.370625,120.620067,0.38887838
C0G620,芬園,2025-06-26,24.015678,120.6213,0.23210599
C0G650,員林,2025-06-26,23.946503,120.585597,0.2444906
C0G660,溪湖,2025-06-26,23.94835,120.479122,0.15164745
C0G720,溪州,2025-06-26,23.851589,120.499093,0.13561368
C0G730,二林,2025-06-26,23.903325,120.376081,0.22024868
C0G740,大城,2025-06-26,23.852487,120.320935,0.32584175
C0G770,福興,2025-06-26,24.041289,120.437669,0.186507
C0G780,秀水,2025-06-26,24.03405,120.503869,0.13654806
C0G800,埔鹽,2025-06-26,24.000394,120.431683,0.18629485
C0G810,埔心,2025-06-26,23.947633,120.525456,0.16477223
C0G820,田尾,2025-06-26,23.901669,120.509389,0.10963702
C0G830,埤頭,2025-06-26,23.866003,120.452806,0.12950583
C0G860,社頭,2025-06-26,23.897647,120.5862,0.1636679
C0G880,二水,2025-06-26,23.810742,120.6173,0.24759337
C0G890,伸港,2025-06-26,24.148933,120.484403,0.11940005
C0G900,線西,2025-06-26,24.143358,120.443536,0.119576655
C0G910,花壇,2025-06-26,24.032076,120.549461,0.15950505
C0G920,永靖,2025-06-26,23.924703,120.547533,0.10963702
C0G940,竹塘,2025-06-26,23.848253,120.386764,0.17015661
C0G950,防潮門,2025-06-26,24.1835,120.4871,0.16343631
C0G960,福寶,2025-06-26,24.0443,120.3814,0.13135287
C0G970,三豐,2025-06-26,23.882,120.2895,0.49965087
C0G9B0,和美,2025-06-26,24.105169,120.492131,0.13750163
C0H890,埔里,2025-06-26,23.972169,120.952425,0.4655495
C0H960,草屯,2025-06-26,23.973672,120.68085,0.23227726
C0I110,竹山,2025-06-26,23.761225,120.688156,0.38058558
C0I360,水里,2025-06-26,23.812553,120.849792,0.16159017
C0I380,集集,2025-06-26,23.828206,120.801467,0.14609155
C0I410,名間,2025-06-26,23.837053,120.701447,0.2892548
C0I420,國姓,2025-06-26,24.037803,120.855072,0.114560984
C0I460,南投,2025-06-26,23.911469,120.687331,0.07065803
C0K250,崙背,2025-06-26,23.75555,120.318925,0.12711129
C0K280,四湖,2025-06-26,23.630414,120.227125,0.4643715
C0K291,宜梧,2025-06-26,23.536281,120.169329,0.3716731
C0K330,虎尾,2025-06-26,23.719183,120.442036,0.41658798
C0K390,土庫,2025-06-26,23.679029,120.395574,0.18098119
C0K400,斗六,2025-06-26,23.720583,120.541127,0.3304901
C0K410,北港,2025-06-26,23.573957,120.292802,0.4404823
C0K420,西螺,2025-06-26,23.800407,120.467394,0.21348424
C0K430,褒忠,2025-06-26,23.690938,120.303634,0.12731934
C0K440,二崙,2025-06-26,23.772797,120.408944,0.30863664
C0K450,大埤,2025-06-26,23.646074,120.431537,0.35416293
C0K460,斗南,2025-06-26,23.678734,120.478359,0.38250148
C0K470,林內,2025-06-26,23.748675,120.609642,0.20147373
C0K480,莿桐,2025-06-26,23.761192,120.502372,0.11892638
C0K500,元長,2025-06-26,23.64981,120.315024,0.11359861
C0K510,水林,2025-06-26,23.572924,120.24597,0.41490933
C0K530,臺西,2025-06-26,23.701547,120.197559,0.21749109
C0K550,蔦松,2025-06-26,23.514319,120.229736,0.3716731
C0K560,棋山,2025-06-26,23.68645,120.603417,0.33461446
C0K580,高鐵雲林,2025-06-26,23.737456,120.417944,0.52197516
C0K590,雲林東勢,2025-06-26,23.674192,120.255721,0.29159632
C0K600,箔子寮,2025-06-26,23.6197,120.14,0.5545822
C0M520,東後寮,2025-06-26,23.369908,120.248065,0.35254973
C0M640,中埔,2025-06-26,23.42538,120.5229,0.21740158
C0M650,朴子,2025-06-26,23.43463,120.23902,0.20378365
C0M660,溪口,2025-06-26,23.604131,120.403569,0.23747906
C0M670,大林,2025-06-26,23.600616,120.45841,0.2835245
C0M680,太保,2025-06-26,23.455062,120.331455,0.105844304
C0M690,水上,2025-06-26,23.419734,120.388909,0.1135625
C0M700,竹崎,2025-06-26,23.526178,120.555508,0.37448308
C0M710,東石,2025-06-26,23.458927,120.15385,0.37950498
C0M720,番路,2025-06-26,23.464657,120.554156,0.31065664
C0M730,嘉義市東區,2025-06-26,23.457673,120.460531,0.15679574
C0M740,六腳,2025-06-26,23.492871,120.290625,0.23915713
C0M750,布袋,2025-06-26,23.380878,120.167789,0.35246307
C0M760,民雄,2025-06-26,23.551754,120.428457,0.2691133
C0M770,嘉義梅山,2025-06-26,23.585398,120.555587,0.5837323
C0M780,鹿草,2025-06-26,23.41134,120.30835,0.22071388
C0M790,新港,2025-06-26,23.553269,120.345728,0.098205015
C0M800,茶山,2025-06-26,23.299075,120.664767,0.16647024
C0M880,好美里,2025-06-26,23.3364,120.138,0.35139924
C0N010,鯤鯓國小,2025-06-26,23.1879,120.0889,0.19501294
C0N020,城西,2025-06-26,23.0568,120.0956,0.09307582
C0N030,四草,2025-06-26,23.0235,120.1116,0.0921
C0N040,蘆竹溝,2025-06-26,23.2344,120.0961,0.25703412
C0N050,蚵寮,2025-06-26,23.301,120.1104,0.39515808
C0O830,北寮,2025-06-26,23.079561,120.495008,0.2441993
C0O840,王爺宮,2025-06-26,23.222064,120.40085,0.18180496
C0O860,大內,2025-06-26,23.11885,120.36083,0.10030089
C0O900,善化,2025-06-26,23.112883,120.297219,0.11441978
C0O960,崎頂,2025-06-26,22.959547,120.369317,0.0647384
C0O970,虎頭埤,2025-06-26,23.021375,120.347878,0.053295188
C0O980,新市,2025-06-26,23.061614,120.298197,0.09904879
C0O990,媽廟,2025-06-26,22.99175,120.293525,0.058639992
C0R150,三地門,2025-06-26,22.709889,120.639944,0.04820738
C0R160,鹽埔,2025-06-26,22.739558,120.530778,0.095536076
C0R190,赤山,2025-06-26,22.592333,120.614306,0.09118474
C0R220,潮州,2025-06-26,22.534361,120.54,0.17421514
C0R240,來義,2025-06-26,22.527306,120.625111,0.09726518
C0R260,春日,2025-06-26,22.370361,120.628306,0.9975319
C0R270,琉球嶼,2025-06-26,22.332244,120.362236,0.9952825
C0R280,檳榔,2025-06-26,22.076078,120.836777,0.059482086
C0R320,車城,2025-06-26,22.0744,120.716247,0.23339517
C0R341,牡丹,2025-06-26,22.130036,120.792639,0.057470787
C0R350,貓鼻頭,2025-06-26,21.921774,120.7358,0.33364606
C0R470,高樹,2025-06-26,22.826389,120.600806,0.09847496
C0R480,長治,2025-06-26,22.693128,120.542622,0.057340764
C0R490,九如,2025-06-26,22.7405,120.490503,0.09376425
C0R520,崁頂,2025-06-26,22.514781,120.506914,0.15958239
C0R540,佳冬,2025-06-26,22.419456,120.552375,0.9959246
C0R550,新埤,2025-06-26,22.467947,120.582894,0.19547899
C0R560,新園,2025-06-26,22.5434,120.461558,0.08265443
C0R570,麟洛,2025-06-26,22.65078,120.52719,0.121705905
C0R580,南州,2025-06-26,22.48591,120.50274,0.4311473
C0R590,里港,2025-06-26,22.77919,120.49459,0.16704671
C0R620,墾雷,2025-06-26,21.900836,120.855269,0.47471076
C0R640,東港,2025-06-26,22.46247,120.44074,0.4311473
C0R650,竹田,2025-06-26,22.58486,120.54344,0.08534553
C0R660,枋寮,2025-06-26,22.367722,120.590647,0.99586827
C0R670,楓港,2025-06-26,22.190131,120.692156,0.03299568
C0R680,佳樂水,2025-06-26,21.993578,120.861633,0.09661838
C0R690,墾丁,2025-06-26,21.966756,120.810269,0.3701879
C0R700,枋山,2025-06-26,22.246844,120.661086,0.98986936
C0R710,龍磐,2025-06-26,21.931672,120.838942,0.46540704
C0R720,旭海,2025-06-26,22.205403,120.887614,0.028381865
C0R730,大坪頂,2025-06-26,22.024633,120.69355,0.040720753
C0R741,獅子,2025-06-26,22.202308,120.705236,0.023333073
C0R760,南仁湖,2025-06-26,22.084681,120.863353,0.102738805
C0R770,保力,2025-06-26,22.071122,120.764111,0.029942786
C0R780,滿州,2025-06-26,22.024403,120.839892,0.07998879
C0R790,九棚,2025-06-26,22.14195,120.889281,0.052416503
C0R800,丹路,2025-06-26,22.204481,120.750989,0.02233561
C0R810,內獅,2025-06-26,22.305064,120.642986,0.023004891
C0R830,高士,2025-06-26,22.121825,120.836781,0.17099293
C0R850,林邊,2025-06-26,22.4634,120.5339,0.45815554
C0R860,鼻頭,2025-06-26,22.1043,120.8979,0.02996318
C0R870,興海,2025-06-26,21.9752,120.8439,0.09341528
C0R880,後壁湖,2025-06-26,21.9457,120.7457,0.13058203
C0R890,山海,2025-06-26,21.9878,120.7091,0.13518263
C0R900,竹坑,2025-06-26,22.1385,120.7022,0.25453135
C0R910,下寮,2025-06-26,22.3929,120.5548,0.99586827
C0R920,塭仔,2025-06-26,22.4169,120.5197,0.99560004
C0R930,萬丹,2025-06-26,22.5885,120.4851,0.085119046
C0R940,加祿堂,2025-06-26,22.3363,120.6217,0.034190897
C0R950,萬隆國小,2025-06-26,22.507667,120.587817,0.07713046
C0R960,內埔,2025-06-26,22.608483,120.570714,0.08756196
C0S710,鹿野,2025-06-26,22.917711,121.122994,0.3944244
C0S730,綠島,2025-06-26,22.6672,121.47533,0.9943218
C0S740,池上,2025-06-26,23.119628,121.209469,0.8324509
C0S770,大溪山,2025-06-26,22.478475,120.943325,0.75479543
C0S790,金崙,2025-06-26,22.538122,120.966875,0.3905888
C0S810,東河,2025-06-26,22.972672,121.303986,0.18790467
C0S830,長濱,2025-06-26,23.286817,121.411975,0.06235321
C0S840,南田,2025-06-26,22.279725,120.889208,0.09007914
C0S890,關山,2025-06-26,23.0395,121.175017,0.26636744
C0S900,蘭嶼高中,2025-06-26,22.04909,121.51214,0.97840595
C0S910,蘭嶼燈塔,2025-06-26,22.081197,121.503117,0.99182415
C0S920,金峰嘉蘭,2025-06-26,22.594789,120.960825,0.2323692
C0S930,延平,2025-06-26,22.902581,121.084058,0.0906016
C0S940,石寧山,2025-06-26,23.223772,121.406639,0.06413263
C0S950,七塊厝,2025-06-26,22.954453,121.229922,0.3953718
C0S960,香蘭,2025-06-26,22.587569,120.993375,0.15533596
C0S970,加津林,2025-06-26,22.416211,120.926942,0.043680053
C0S990,山豬窟,2025-06-26,22.318619,120.857372,0.18375728
C0SA00,歷坵,2025-06-26,22.520969,120.89185,0.9113396
C0SA10,檳榔四格山,2025-06-26,22.810031,121.109308,0.9277998
C0SA30,都歷,2025-06-26,23.020333,121.323642,0.09893111
C0SA40,瑞和,2025-06-26,22.974361,121.156697,0.08828148
C0SA60,知本（水試所）,2025-06-26,22.702394,121.082761,0.29580954
C0SA80,土坂,2025-06-26,22.453108,120.887572,0.15687083
C0SA90,達仁林場,2025-06-26,22.264347,120.823972,0.41187006
C0SB10,美和,2025-06-26,22.682078,121.060236,0.29588637
C0SB20,富岡,2025-06-26,22.792467,121.192669,0.37245628
C0SB30,新蘭,2025-06-26,22.869214,121.223228,0.035908014
C0SB40,興隆,2025-06-26,22.913661,121.257469,0.037672978
C0SB50,叭嗡嗡,2025-06-26,23.047062,121.343223,0.06556
C0SB60,白守蓮,2025-06-26,23.126769,121.401914,0.19570732
C0SB70,小港漁港,2025-06-26,23.158558,121.400431,0.14342344
C0SB80,長濱漁港,2025-06-26,23.313644,121.459994,0.030068371
C0T870,鯉魚潭,2025-06-26,23.935639,121.508944,0.1475666
C0T900,西林,2025-06-26,23.8119,121.441458,0.35720217
C0T960,光復,2025-06-26,23.660694,121.424964,0.32778683
C0T9A0,月眉山,2025-06-26,23.809928,121.539828,0.8776025
C0T9D0,和中,2025-06-26,24.26676,121.74103,0.05907627
C0T9E0,大坑,2025-06-26,23.880628,121.581981,0.86851585
C0T9F0,水璉,2025-06-26,23.797131,121.542514,0.67516446
C0T9I0,豐濱,2025-06-26,23.583897,121.514806,0.11280994
C0T9M0,靜浦,2025-06-26,23.455167,121.495028,0.03646605
C0T9N0,富里,2025-06-26,23.171639,121.249378,0.7105053
C0TA10,花蓮漁港,2025-06-26,23.995322,121.638331,0.06178722
C0TA20,加灣,2025-06-26,24.082025,121.608944,0.80349666
C0TA30,鹽寮,2025-06-26,23.845606,121.592664,0.08710758
C0TA50,和仁,2025-06-26,24.241394,121.712472,0.98092324
C0U600,礁溪,2025-06-26,24.817539,121.765608,0.013345106
C0U650,玉蘭,2025-06-26,24.675286,121.587061,0.2099377
C0U750,龜山島,2025-06-26,24.841667,121.953133,0.9963454
C0U760,東澳,2025-06-26,24.52196,121.83318,0.053681698
C0U770,南澳,2025-06-26,24.44935,121.81022,0.91443807
C0U780,五結,2025-06-26,24.68637,121.79794,0.017554075
C0U860,頭城,2025-06-26,24.85323,121.8308,0.013396775
C0U870,大礁溪,2025-06-26,24.791042,121.675047,0.9597647
C0U880,北關,2025-06-26,24.9072,121.8734,0.014282572
C0U890,三星,2025-06-26,24.66812,121.65302,0.009679568
C0U900,內城,2025-06-26,24.71813,121.68766,0.017254578
C0U910,冬山,2025-06-26,24.63373,121.7937,0.020438952
C0U940,羅東,2025-06-26,24.68184,121.74934,0.017461332
C0U970,大福,2025-06-26,24.80064,121.81389,0.023020232
C0U990,員山,2025-06-26,24.74435,121.72247,0.017454036
C0UA00,土場,2025-06-26,24.576533,121.495333,0.050891463
C0UA80,大溪漁港,2025-06-26,24.941801,121.902955,0.0142323505
C0UA90,石城,2025-06-26,24.980444,121.951214,0.02432263
C0UB00,淡江大學蘭陽校園,2025-06-26,24.823239,121.730383,0.6775519
C0UB10,蘇澳,2025-06-26,24.5969,121.8571,0.01515759
C0UB20,壯圍,2025-06-26,24.7359,121.8163,0.01764948
C0V350,溪埔,2025-06-26,22.738578,120.446797,0.13461101
C0V360,內門,2025-06-26,22.975481,120.466769,0.15439236
C0V370,古亭坑,2025-06-26,22.893178,120.401947,0.08034269
C0V400,阿公店,2025-06-26,22.804194,120.355528,0.04096503
C0V440,鳳山,2025-06-26,22.646653,120.356122,0.9808136
C0V450,鳳森,2025-06-26,22.545064,120.392592,0.103417516
C0V490,新興,2025-06-26,22.627422,120.298803,0.87463474
C0V530,阿蓮,2025-06-26,22.883208,120.327508,0.06820065
C0V610,梓官,2025-06-26,22.760558,120.267211,0.03182028
C0V620,永安,2025-06-26,22.82315,120.236856,0.062498115
C0V630,茄萣,2025-06-26,22.906642,120.182608,0.18871672
C0V640,湖內,2025-06-26,22.887139,120.2445,0.18768062
C0V650,彌陀,2025-06-26,22.783806,120.246361,0.06383727
C0V660,岡山,2025-06-26,22.797078,120.294958,0.06383727
C0V680,仁武,2025-06-26,22.701083,120.347722,0.30335605
C0V690,鼓山,2025-06-26,22.623325,120.275575,0.87463474
C0V700,三民,2025-06-26,22.645017,120.311233,0.9813157
C0V710,苓雅,2025-06-26,22.622742,120.330669,0.8079921
C0V720,林園,2025-06-26,22.507747,120.394511,0.08887858
C0V730,大寮,2025-06-26,22.605614,120.395717,0.84472686
C0V740,旗山,2025-06-26,22.888614,120.483597,0.1533431
C0V750,路竹,2025-06-26,22.854997,120.259439,0.19249816
C0V760,橋頭,2025-06-26,22.757806,120.30575,0.03182028
C0V770,大社,2025-06-26,22.730306,120.346639,0.029481743
C0V790,萬山,2025-06-26,22.905944,120.688056,0.5655215
C0V800,六龜,2025-06-26,22.997889,120.633583,0.14192264
C0V810,左營,2025-06-26,22.67491,120.28491,0.9813157
C0V820,小林,2025-06-26,23.148408,120.63325,0.30060866
C0V840,鳳鼻頭,2025-06-26,22.5083,120.3591,0.08067319
C0V850,蚵仔寮,2025-06-26,22.7256,120.2527,0.031166347
C0V860,南寮,2025-06-26,22.7616,120.2339,0.031166347
C0V870,文安,2025-06-26,22.8025,120.2164,0.0629687
C0V880,興達,2025-06-26,22.8778,120.2127,0.18228215
C0V890,前鎮,2025-06-26,22.5718,120.3117,0.8522204
C0V900,汕尾,2025-06-26,22.4782,120.4151,0.4311473
C0V910,大樹,2025-06-26,22.684645,120.432803,0.076157756
C0W200,湖西,2025-06-26,23.596314,119.67275,0.5561778
C0X050,東河,2025-06-26,23.296598,120.385608,0.30681255
C0X060,下營,2025-06-26,23.22695,120.256261,0.16386402
C0X080,佳里,2025-06-26,23.173039,120.145086,0.19501294
C0X100,臺南市北區,2025-06-26,23.010394,120.194228,0.11559209
C0X110,臺南市南區,2025-06-26,22.961189,120.188378,0.11524792
C0X120,麻豆,2025-06-26,23.183289,120.248611,0.123317175
C0X130,官田,2025-06-26,23.193217,120.315422,0.10710139
C0X140,西港,2025-06-26,23.125608,120.203108,0.16593696
C0X150,安定,2025-06-26,23.102614,120.227839,0.16593696
C0X160,仁德,2025-06-26,22.968258,120.257689,0.1148476
C0X170,關廟,2025-06-26,22.963017,120.327797,0.054307617
C0X180,山上,2025-06-26,23.0757,120.363253,0.13839194
C0X190,安平,2025-06-26,22.993161,120.152181,0.09285639
C0X200,左鎮,2025-06-26,23.056758,120.408522,0.052895013
C0X210,白河,2025-06-26,23.347466,120.414427,0.16292669
C0X220,學甲,2025-06-26,23.230367,120.182187,0.26460543
C0X230,鹽水,2025-06-26,23.272621,120.247641,0.31194672
C0X240,關子嶺,2025-06-26,23.331169,120.508025,0.32504067
C0X250,新營,2025-06-26,23.310689,120.316681,0.28436318
C0X260,後壁,2025-06-26,23.366358,120.362326,0.20273572
C0X280,將軍,2025-06-26,23.214999,120.13577,0.25703412
C0X290,北門,2025-06-26,23.267772,120.125481,0.25703412
C0X300,鹿寮,2025-06-26,23.386047,120.477331,0.1786123
C0X320,柳營,2025-06-26,23.253328,120.375253,0.14966136
C0Z020,明里,2025-06-26,23.208717,121.262342,0.11192495
C0Z061,玉里,2025-06-26,23.3215,121.339656,0.043523125
C0Z070,舞鶴,2025-06-26,23.46811,121.37407,0.06577795
C0Z080,富源,2025-06-26,23.587642,121.378225,0.29189774
C0Z100,東華,2025-06-26,23.89525,121.549833,0.10047077
C0Z150,吉安光華,2025-06-26,23.930925,121.595153,0.07605553
C0Z160,鳳林,2025-06-26,23.746114,121.453411,0.2930218
C0Z170,卓溪,2025-06-26,23.3443,121.3029,0.026292251
C0Z180,新城,2025-06-26,24.040486,121.604878,0.07150415
C0Z190,富世,2025-06-26,24.14743,121.6297,0.9666115
C0Z200,萬榮,2025-06-26,23.709219,121.420106,0.38230392
C0Z210,瑞穗,2025-06-26,23.5239,121.39021,0.11349604
C0Z230,和平,2025-06-26,24.30717,121.77007,0.054274518
C0Z270,蕃薯寮,2025-06-26,23.73835,121.540108,0.9300708
C0Z280,德武,2025-06-26,23.47426,121.41071,0.057277996
C0Z300,東里,2025-06-26,23.26853,121.30547,0.0805424
C0Z310,清水斷崖,2025-06-26,24.218294,121.689142,0.98793507
C0Z330,安通山,2025-06-26,23.290728,121.348528,0.33992827
C2A540,四堵,2025-06-26,24.8926,121.745736,0.10047723
C2A560,福山,2025-06-26,24.776203,121.502811,0.06633743
C2A650,火燒寮,2025-06-26,25.002719,121.742892,0.13597858
C2A660,瑞芳,2025-06-26,25.113169,121.801147,0.057394072
C2A880,福隆,2025-06-26,25.017842,121.942083,0.024282018
C2A920,富貴角,2025-06-26,25.263783,121.565258,0.1948916
C2C410,中央大學,2025-06-26,24.967652,121.185165,0.6562307
C2D720,關西工作站,2025-06-26,24.757275,121.184792,0.6934457
C2D730,寶山農場,2025-06-26,24.732444,120.976153,0.91621166
C2E520,大湖,2025-06-26,24.414939,120.870872,0.96726686
C2E540,龍溪,2025-06-26,24.606489,120.783933,0.8697282
C2E970,八甲,2025-06-26,24.535811,120.795983,0.9743241
C2F000,大肚,2025-06-26,24.15295,120.572117,0.52508765
C2F930,大甲,2025-06-26,24.347667,120.640403,0.5805611
C2F9A0,中竹林,2025-06-26,24.103556,120.751061,0.12358202
C2G640,鹿港,2025-06-26,24.0753,120.430481,0.13135287
C2G840,北斗,2025-06-26,23.877586,120.514222,0.13544795
C2G870,芳苑,2025-06-26,23.922303,120.320025,0.5057437
C2G980,田頭村,2025-06-26,23.8263,120.444175,0.18724552
C2G9A0,畜試所彰化,2025-06-26,23.86045,120.557964,0.15159467
C2H950,中寮,2025-06-26,23.884447,120.766406,0.3571025
C2H9F0,柑林,2025-06-26,24.018658,120.847072,0.10248073
C2H9H0,苗改南投蜂場,2025-06-26,23.852589,120.693481,0.24968469
C2H9T0,名間竹圍,2025-06-26,23.859914,120.637572,0.32948157
C2H9U0,鳳鵬,2025-06-26,23.763919,120.788061,0.43205285
C2K620,馬光農場,2025-06-26,23.721453,120.378864,0.4921509
C2K630,荷苞,2025-06-26,23.657717,120.595144,0.48515937
C2M410,馬頭山,2025-06-26,23.324361,120.582017,0.2561568
C2M910,嘉義大學,2025-06-26,23.471325,120.485903,0.1757959
C2M920,朴子農改,2025-06-26,23.469889,120.259383,0.2410544
C2N160,西拉雅風管處,2025-06-26,23.189481,120.335297,0.11105445
C2O810,曾文,2025-06-26,23.219681,120.497328,0.09291024
C2O930,玉井,2025-06-26,23.126042,120.46055,0.13117006
C2O950,安南,2025-06-26,23.076694,120.144861,0.12928155
C2R170,屏東,2025-06-26,22.66027,120.49403,0.121705905
C2R970,屏科大,2025-06-26,22.648275,120.619247,0.10581934
C2V250,甲仙,2025-06-26,23.080106,120.591758,0.33952853
C2V260,月眉,2025-06-26,22.971003,120.539853,0.21714942
C2V310,美濃,2025-06-26,22.898792,120.51907,0.15523604
C2W230,畜試所澎湖,2025-06-26,23.628342,119.513206,0.33661592
CAG100,王功漁港,2025-06-26,23.96824,120.32586,0.4855546
CAH030,茶改場竹圍站,2025-06-26,23.860083,120.637528,0.32948157
CAJ050,海口故事園區,2025-06-26,23.57543,120.14121,0.55415285
CAL110,布袋國中,2025-06-26,23.35893,120.18026,0.35246307
CAN130,水試所海水繁養殖中心,2025-06-26,23.120802,120.07968,0.12617631
CAN140,六官養殖協會,2025-06-26,23.22881,120.29962,0.16386402
CAQ030,崎峰國小,2025-06-26,22.42565,120.49521,0.4311473
E2K600,四湖植物園,2025-06-26,23.676986,120.163433,0.4643715
E2P980,林試六龜中心,2025-06-26,22.991703,120.645722,0.15381433
E2S960,林試太麻里2,2025-06-26,22.598,120.99775,0.14844994
E2S980,林試太麻里1,2025-06-26,22.598922,120.980044,0.22277138
G2AI50,關渡,2025-06-26,25.11575,121.492,0.07141982
G2F820,農試所(霧峰),2025-06-26,24.031261,120.688133,0.22445029
G2L020,農試嘉義分所,2025-06-26,23.485028,120.473806,0.3268837
G2M350,農試溪口農場,2025-06-26,23.58565,120.408111,0.23747906
G2P820,農試鳳山分所,2025-06-26,22.646611,120.356083,0.9808136
K2E360,苗栗農改場,2025-06-26,24.495722,120.829111,0.93394715
K2E710,苗改生物防治研究中心,2025-06-26,24.422861,120.871833,0.9527695
K2F750,種苗改良場,2025-06-26,24.225972,120.800917,0.9534547
U2HA50,臺大竹山,2025-06-26,23.756972,120.681556,0.35092816
V2C250,八德合作社,2025-06-26,24.93775,121.266389,0.119702764
V2C260,八德蔬果,2025-06-26,24.978508,121.281819,0.11971274
V2K610,大庄合作社,2025-06-26,23.8068,120.367939,0.15887249
V2K620,麥寮合作社,2025-06-26,23.753836,120.294783,0.12720929
