站號,站名,日期,lat,lon,BlastGRU-TW
C0R710,龍磐,2025-03-08,21.931672,120.838942,0.0010726486
C1F9D1,白毛台,2025-03-08,24.158325,120.886933,0.0007950903
C0G940,竹塘,2025-03-08,23.848253,120.386764,0.00080012064
467590,恆春,2025-03-08,22.003897,120.746339,0.057758808
C1O850,環湖,2025-03-08,23.148617,120.418633,0.018337788
C0U710,太平山,2025-03-08,24.505486,121.525656,0.00048085197
C0E820,獅潭,2025-03-08,24.539133,120.920042,0.00038096364
C0V880,興達,2025-03-08,22.8778,120.2127,0.012197861
C0S890,關山,2025-03-08,23.0395,121.175017,0.008116747
C0SB30,新蘭,2025-03-08,22.869214,121.223228,0.026856704
C2R970,屏科大,2025-03-08,22.648275,120.619247,0.19889717
K2F750,種苗繁殖,2025-03-08,24.225972,120.800917,0.0008712889
C1Z130,銅門,2025-03-08,23.965694,121.492842,0.0077684377
C0AD40,土城,2025-03-08,24.973208,121.445169,0.0005496772
CAN140,六官養殖協會,2025-03-08,23.22881,120.29962,0.019561628
C0X180,山上,2025-03-08,23.0757,120.363253,0.08715443
C0F9Z0,雪山東峰,2025-03-08,24.388792,121.268675,0.000658331
C1M480,獨立山,2025-03-08,23.537022,120.607797,0.0006869262
C0X220,學甲,2025-03-08,23.230367,120.182187,0.0026586917
467650,日月潭,2025-03-08,23.881325,120.90805,0.0034978113
C0K600,箔子寮,2025-03-08,23.6197,120.14,0.00020580145
C0G830,埤頭,2025-03-08,23.866003,120.452806,0.010605551
C0S950,七塊厝,2025-03-08,22.954453,121.229922,0.0011030928
467110,金門,2025-03-08,24.407306,118.289281,0.00010266026
C0AH80,深坑,2025-03-08,25.002703,121.628328,0.00047870298
467990,馬祖,2025-03-08,26.169269,119.923419,0.00045908114
C0A970,三貂角,2025-03-08,25.007606,122.002058,0.1461274
C2D730,寶山農場,2025-03-08,24.732444,120.976153,8.5420026e-05
C0K430,褒忠,2025-03-08,23.690938,120.303634,0.0002224927
467480,嘉義,2025-03-08,23.495925,120.432906,0.0058745462
C2E540,後龍,2025-03-08,24.606489,120.783933,5.0792187e-05
C0V400,阿公店,2025-03-08,22.804194,120.355528,0.4202683
C0R440,大漢山,2025-03-08,22.405264,120.753181,0.0010957819
C0K280,四湖,2025-03-08,23.630414,120.227125,7.837777e-05
C1F9B1,桐林,2025-03-08,24.066172,120.735194,0.0021906195
C2H9U0,鳳鵬,2025-03-08,23.763919,120.788061,0.024860961
C0K390,土庫,2025-03-08,23.679029,120.395574,0.008964076
C1I450,望鄉山,2025-03-08,23.594153,120.944286,0.0008004039
C0E910,海埔,2025-03-08,24.648767,120.772435,8.279151e-05
B2E890,畜試北區分所,2025-03-08,24.527806,120.770972,0.00020143701
C0R750,四林格山,2025-03-08,22.076989,120.802439,0.0017492148
C0F0C0,中坑,2025-03-08,24.248517,120.903319,0.0005808884
C1I121,大鞍,2025-03-08,23.678381,120.760017,0.0012106963
72U480,花改蘭陽分場,2025-03-08,24.686306,121.716583,0.027506178
C0A770,科教館,2025-03-08,25.096356,121.516507,0.0008402206
C0AJ60,六塊厝,2025-03-08,25.24,121.4481,0.002877486
C0R620,墾雷,2025-03-08,21.900836,120.855269,0.00059743156
467420,永康,2025-03-08,23.038386,120.2367,0.13401417
467300,東吉島,2025-03-08,23.25695,119.667467,0.00010585943
C0I410,名間,2025-03-08,23.837053,120.701447,0.0061868746
A2C560,農工中心,2025-03-08,24.985917,121.239833,0.0002515578
C0V740,旗山,2025-03-08,22.888614,120.483597,0.37570506
C0Z061,玉里,2025-03-08,23.3215,121.339656,0.061690573
C0S840,南田,2025-03-08,22.279725,120.889208,0.12280087
C1I470,杉林溪,2025-03-08,23.639517,120.786444,0.00095461885
C1X040,東原,2025-03-08,23.291597,120.463822,0.14170873
C0R660,枋寮,2025-03-08,22.367722,120.590647,0.27907136
C1R120,上德文,2025-03-08,22.763272,120.704442,0.0073709562
C0K450,大埤,2025-03-08,23.646074,120.431537,0.028014896
C0UA00,土場,2025-03-08,24.576533,121.495333,0.01932756
467080,宜蘭,2025-03-08,24.763975,121.756528,0.009695565
C0N030,四草,2025-03-08,23.0235,120.1116,0.009123831
C0V650,彌陀,2025-03-08,22.783806,120.246361,0.034730528
C0D660,新竹市東區,2025-03-08,24.798681,120.986942,7.9597754e-05
82S580,茶改東部分場,2025-03-08,22.907694,121.130139,0.009216469
C0SB40,興隆,2025-03-08,22.913661,121.257469,0.023723321
C0C710,大溪永福,2025-03-08,24.892936,121.324975,0.00075363216
C0FA20,溫寮,2025-03-08,24.372177,120.583125,6.0616072e-05
C0V640,湖內,2025-03-08,22.887139,120.2445,0.01117908
C0R910,下寮,2025-03-08,22.3929,120.5548,0.28001738
C0Z020,明里,2025-03-08,23.208717,121.262342,0.04566496
C0M770,嘉義梅山,2025-03-08,23.585398,120.555587,0.011390094
G2F820,農業試驗所,2025-03-08,24.031261,120.688133,0.0026043854
C0C660,楊梅,2025-03-08,24.912375,121.143047,0.00022839256
C1E511,新開,2025-03-08,24.347703,120.827019,0.000841363
G2F820,農試所(霧峰),2025-03-08,24.031261,120.688133,0.0026043854
C1I070,和社,2025-03-08,23.591131,120.888861,0.011953808
C2F000,大肚,2025-03-08,24.15295,120.572117,0.010740333
C1S850,豐南,2025-03-08,23.122139,121.262389,0.0010403815
C2A920,富貴角,2025-03-08,25.263783,121.565258,0.00084631366
CAH030,茶改場竹圍站,2025-03-08,23.860083,120.637528,0.029996807
C0T960,光復,2025-03-08,23.660694,121.424964,0.00861074
C0F9M0,豐原,2025-03-08,24.254322,120.720692,0.0008389206
C0R720,旭海,2025-03-08,22.205403,120.887614,0.027063282
C0V710,苓雅,2025-03-08,22.622742,120.330669,0.16492121
C0C740,觀音工業區,2025-03-08,25.064764,121.114856,6.4466985e-05
CAC040,拉拉山,2025-03-08,24.699317,121.427133,0.0011048622
C0V790,萬山,2025-03-08,22.905944,120.688056,0.084873036
U2HA30,臺大和社,2025-03-08,23.590856,120.888864,0.011953808
C0AJ90,澳底,2025-03-08,25.0552,121.9253,0.10216705
C0Z100,東華,2025-03-08,23.89525,121.549833,0.03718554
C0G970,三豐,2025-03-08,23.882,120.2895,7.4445044e-05
V2K610,大庄合作社,2025-03-08,23.8068,120.367939,0.00014100753
C0V900,汕尾,2025-03-08,22.4782,120.4151,0.2712007
C1R630,龍泉,2025-03-08,22.66701,120.59091,0.28300172
C1AC50,關渡,2025-03-08,25.133486,121.469331,0.0008520299
C0F9I0,神岡,2025-03-08,24.272481,120.658314,0.0006221564
C0K460,斗南,2025-03-08,23.678734,120.478359,0.025903698
467410,臺南,2025-03-08,22.993239,120.204772,0.015059468
C2O810,曾文,2025-03-08,23.219681,120.497328,0.20847327
467280,後龍,2025-03-08,24.648563,120.831834,7.520309e-05
C1F9J1,清水林,2025-03-08,24.071242,120.820419,0.0017020816
C2A650,火燒寮,2025-03-08,25.002719,121.742892,0.028921776
466930,竹子湖,2025-03-08,25.162078,121.544547,0.0008257968
C1I220,樟湖,2025-03-08,23.905333,120.846983,0.00104447
C0I390,仁愛,2025-03-08,24.022122,121.132206,0.000764914
C0Z300,東里,2025-03-08,23.26853,121.30547,0.07199711
C1V590,新發,2025-03-08,23.057019,120.646064,0.010893689
C0K510,水林,2025-03-08,23.572924,120.24597,0.0009393168
72S590,東改賓朗果園,2025-03-08,22.813889,121.071278,0.004000544
82A750,茶改北部分場,2025-03-08,24.955778,121.631222,0.0030643928
C1A750,石碇服務區,2025-03-08,25.00872,121.646242,0.00079573225
C0X300,鹿寮,2025-03-08,23.386047,120.477331,0.039467577
G2AI50,關渡,2025-03-08,25.11575,121.492,0.00024944908
C0K590,雲林東勢,2025-03-08,23.674192,120.255721,0.0002826039
C0A570,桶後,2025-03-08,24.848222,121.597992,0.016746689
C1S800,華源,2025-03-08,22.657883,121.02325,0.5594167
C0G720,溪州,2025-03-08,23.851589,120.499093,0.00934453
C1V160,達卡努瓦,2025-03-08,23.279811,120.705319,0.0023730588
C2M410,馬頭山,2025-03-08,23.324361,120.582017,0.08450474
C0V850,蚵仔寮,2025-03-08,22.7256,120.2527,0.15183751
C0S740,池上,2025-03-08,23.119628,121.209469,0.0024782221
C1V390,尖山,2025-03-08,22.813153,120.367789,0.35869706
C0AH70,松山,2025-03-08,25.04871,121.55042,0.00079327886
C0N010,鯤鯓國小,2025-03-08,23.1879,120.0889,0.0022815708
C0R550,新埤,2025-03-08,22.467947,120.582894,0.22631538
C0SA60,知本（水試所）,2025-03-08,22.702394,121.082761,0.7894882
C0T9I0,豐濱,2025-03-08,23.583897,121.514806,0.013960155
C0UB00,淡江大學蘭陽校園,2025-03-08,24.823239,121.730383,0.01175209
C0W240,九宮,2025-03-08,24.423753,118.240186,0.00010149474
C0T9N0,富里,2025-03-08,23.171639,121.249378,0.014763467
U2HA50,臺大竹山,2025-03-08,23.756972,120.681556,0.007556279
C0V840,鳳鼻頭,2025-03-08,22.5083,120.3591,0.2521264
C0X140,西港,2025-03-08,23.125608,120.203108,0.028670523
72D080,桃改五峰分場,2025-03-08,24.612194,121.157167,0.00031792436
C2H9P0,伊拿谷,2025-03-08,23.963211,121.088264,0.005624528
C2H9F0,柑林,2025-03-08,24.018658,120.847072,0.025124863
C0TA20,加灣,2025-03-08,24.082025,121.608944,0.007423249
C0V530,阿蓮,2025-03-08,22.883208,120.327508,0.1151906
C1O880,關山,2025-03-08,23.173397,120.594092,0.11298123
C0E791,卓蘭,2025-03-08,24.3126,120.8244,0.0013144586
C1I030,武界,2025-03-08,23.913225,121.052483,0.0042351577
C0R520,崁頂,2025-03-08,22.514781,120.506914,0.35888785
C0R341,牡丹,2025-03-08,22.130036,120.792639,0.0203278
C0R930,萬丹,2025-03-08,22.5885,120.4851,0.4052451
C0S760,紅石,2025-03-08,23.069131,121.126219,0.0008143492
C1M610,石磐龍,2025-03-08,23.496606,120.663506,0.0021156229
C0UA10,鴛鴦湖,2025-03-08,24.590269,121.412228,0.0008781315
V2C260,八德蔬果,2025-03-08,24.978508,121.281819,0.00049701164
C0R800,丹路,2025-03-08,22.204481,120.750989,0.050392814
C0G920,永靖,2025-03-08,23.924703,120.547533,0.0015085636
C2M950,太和,2025-03-08,23.538372,120.702961,0.0013436658
C1A630,下盆,2025-03-08,24.771003,121.538622,0.0068133627
B2N890,畜產試驗所,2025-03-08,23.058972,120.336406,0.11120899
C0UA30,白嶺,2025-03-08,24.527819,121.519031,0.0007574337
C1V580,溪南(特生中心),2025-03-08,23.084972,120.788475,0.0010966408
C1T970,大農,2025-03-08,23.615233,121.413331,0.008475448
E2S960,林試太麻里2,2025-03-08,22.598014,120.989761,0.7864996
C0R650,竹田,2025-03-08,22.58486,120.54344,0.34540945
C1H900,清流,2025-03-08,24.080775,120.962997,0.005878226
C1C510,水尾,2025-03-08,24.940081,121.087161,0.000120795274
C0F9X0,大雅(中科園區),2025-03-08,24.21528,120.62445,0.0003017106
C0SB60,白守蓮,2025-03-08,23.126769,121.401914,0.01941907
C0O970,虎頭埤,2025-03-08,23.021375,120.347878,0.11270807
C0C730,中大臨海站,2025-03-08,24.966126,121.008581,0.00011688389
C0X250,新營,2025-03-08,23.310689,120.316681,0.0181037
C0V700,三民,2025-03-08,22.645017,120.311233,0.028667983
C0U870,大礁溪,2025-03-08,24.791042,121.675047,0.008221726
C0E870,高鐵苗栗,2025-03-08,24.60725,120.826094,5.0503164e-05
A2K570,古坑花卉中心,2025-03-08,23.63353,120.55239,0.028706938
C0M860,新美,2025-03-08,23.338017,120.683169,0.015864968
C1E701,八卦,2025-03-08,24.491756,120.927619,0.00033881518
C0I420,國姓,2025-03-08,24.037803,120.855072,0.018300308
C2D720,關西工作站,2025-03-08,24.757275,121.184792,0.00011409127
C0S960,香蘭,2025-03-08,22.587569,120.993375,0.78691256
C0R260,春日,2025-03-08,22.370361,120.628306,0.18215424
72G600,臺中農改場,2025-03-08,24.003028,120.534389,0.0019208431
C0Z210,瑞穗,2025-03-08,23.5239,121.39021,0.024280215
C0M820,達邦,2025-03-08,23.453994,120.749517,0.002762883
C0V860,南寮,2025-03-08,22.7616,120.2339,0.15354526
C0G740,大城,2025-03-08,23.852487,120.320935,7.487179e-05
C0R920,塭仔,2025-03-08,22.4169,120.5197,0.29340044
C0R470,高樹,2025-03-08,22.826389,120.600806,0.24846463
C0R680,佳樂水,2025-03-08,21.993578,120.861633,0.005381573
C1O870,大棟山,2025-03-08,23.31157,120.52226,0.0021015313
C0D360,梅花,2025-03-08,24.678347,121.208558,0.00031191387
C0Z190,富世,2025-03-08,24.14743,121.6297,0.0019088519
C0AI10,屈尺,2025-03-08,24.92184,121.54475,0.0020148281
B2U990,畜試東區分所,2025-03-08,24.669039,121.832561,0.0931415
C0SB80,長濱漁港,2025-03-08,23.313644,121.459994,0.13286935
C0R240,來義,2025-03-08,22.527306,120.625111,0.21272556
C0V910,大樹,2025-03-08,22.684645,120.432803,0.4209988
C1R610,西大武山,2025-03-08,22.617719,120.7322,0.00056439365
C0G900,線西,2025-03-08,24.143358,120.443536,6.0612958e-05
C0M700,竹崎,2025-03-08,23.526178,120.555508,0.00980596
C2E880,三義,2025-03-08,24.405478,120.749819,0.00030401765
C0C720,竹圍,2025-03-08,25.112692,121.239824,0.00024691602
C0F9P0,清水,2025-03-08,24.312297,120.562242,7.0938855e-05
C0Z150,吉安光華,2025-03-08,23.930925,121.595153,0.0558451
C1D640,外坪(五指山),2025-03-08,24.644447,121.090961,0.0006063196
C0F9O0,潭子,2025-03-08,24.213106,120.703933,0.0007590956
C2H9R0,卓社,2025-03-08,23.887894,121.000086,0.0005570729
72T250,花蓮農改場,2025-03-08,23.975222,121.563889,0.037854645
C0E780,銅鑼,2025-03-08,24.489681,120.790853,0.000160028
C1T950,太安,2025-03-08,23.666719,121.370128,0.021756046
C0E830,苑裡,2025-03-08,24.439714,120.653053,4.6861005e-05
467270,田中,2025-03-08,23.873803,120.581286,0.024915034
C0SA10,檳榔四格山,2025-03-08,22.810031,121.109308,0.0021772534
C1T830,布洛灣,2025-03-08,24.17184,121.57127,0.08868125
C0F970,大坑,2025-03-08,24.173142,120.722289,0.0015445293
C1U920,思源,2025-03-08,24.393125,121.347214,0.0007494628
C0A931,三和,2025-03-08,25.233153,121.595236,0.004918201
C0I010,廬山,2025-03-08,24.033311,121.181808,0.00048976956
C2M940,日野賀,2025-03-08,23.434056,120.727169,0.001467764
C0R860,鼻頭,2025-03-08,22.1043,120.8979,0.07486942
C0UB20,壯圍,2025-03-08,24.7359,121.8163,0.032324906
C0R790,九棚,2025-03-08,22.14195,120.889281,0.05451638
C0W110,東莒,2025-03-08,25.9652,119.98069,0.00035554587
C1U930,粉鳥林,2025-03-08,24.497088,121.842479,0.19080514
C1I211,蘆竹湳,2025-03-08,23.934019,120.811994,0.014363982
C0S830,長濱,2025-03-08,23.286817,121.411975,0.02797589
C1F9F1,伯公龍,2025-03-08,24.272392,120.849047,0.0007405186
C0E810,西湖,2025-03-08,24.562947,120.7485,4.5637564e-05
C1I440,新高口,2025-03-08,23.478744,120.878939,0.0010280419
C0O840,王爺宮,2025-03-08,23.222064,120.40085,0.15258689
C0T9G0,鳳林山,2025-03-08,23.735269,121.420131,0.0033226379
C0X080,佳里,2025-03-08,23.173039,120.145086,0.002291411
C0FB70,大甲溪埔,2025-03-08,24.370625,120.620067,5.853927e-05
C0Z310,清水斷崖,2025-03-08,24.218294,121.689142,0.002870072
C0M680,太保,2025-03-08,23.455062,120.331455,0.011958929
C1S820,金峰,2025-03-08,22.590969,120.933236,0.55502045
C0AD10,八里,2025-03-08,25.150211,121.403947,0.00024515833
C2K240,草嶺,2025-03-08,23.59555,120.693461,0.0022173135
C1SA70,都蘭,2025-03-08,22.87794,121.226881,0.023687841
C0K440,二崙,2025-03-08,23.772797,120.408944,0.011470895
C1A760,坪林交控,2025-03-08,24.94284,121.713442,0.03190118
C0F9N0,大里,2025-03-08,24.092464,120.701378,0.038666964
C0SA90,達仁林場,2025-03-08,22.264347,120.823972,0.0021664517
C1R290,石門山,2025-03-08,22.112611,120.756597,0.004759392
42HA10,萬大發電廠,2025-03-08,23.978875,121.139639,0.0012230749
C0R890,山海,2025-03-08,21.9878,120.7091,0.0010044522
C0T9A0,月眉山,2025-03-08,23.809928,121.539828,0.0014854572
C0AC70,信義,2025-03-08,25.037822,121.564597,0.00078860106
C0K560,棋山,2025-03-08,23.68645,120.603417,0.023079166
C2FB50,出雲,2025-03-08,24.206469,120.902794,0.0014517563
C1Z240,中平林道,2025-03-08,23.42115,121.26763,0.035929184
U2H480,溪頭,2025-03-08,23.670306,120.798194,0.0029256328
C0M880,好美里,2025-03-08,23.3364,120.138,0.0032933867
C0T9E0,大坑,2025-03-08,23.880628,121.581981,0.0016673617
C0K530,臺西,2025-03-08,23.701547,120.197559,7.2415474e-05
C1E900,國一N128K,2025-03-08,24.560997,120.844186,0.00013301073
C0AJ50,水湳洞,2025-03-08,25.123695,121.862238,0.011427908
C0AI20,白沙灣,2025-03-08,25.283128,121.519058,0.002501102
C0A860,大坪,2025-03-08,25.165914,121.632969,0.0017251816
C1U850,觀音海岸,2025-03-08,24.38319,121.77856,0.0010448113
C2K610,草嶺石壁,2025-03-08,23.602469,120.707731,0.0020175108
C0U950,鶯子嶺,2025-03-08,24.89754,121.79244,0.002228593
C0O900,善化,2025-03-08,23.112883,120.297219,0.13860416
C0K550,蔦松,2025-03-08,23.514319,120.229736,0.00076574757
E2P980,林試六龜中心,2025-03-08,22.991703,120.645722,0.2823466
C0E590,通霄,2025-03-08,24.471892,120.704622,6.228585e-05
C1I310,西巒,2025-03-08,23.754486,120.883956,0.0057104677
C0A550,泰平,2025-03-08,24.971197,121.823711,0.011028065
C0I360,水里,2025-03-08,23.812553,120.849792,0.04576171
C0R830,高士,2025-03-08,22.121825,120.836781,0.003180391
C1I101,溪頭,2025-03-08,23.661789,120.807647,0.00041201987
C0AJ20,野柳,2025-03-08,25.20703,121.690021,0.024992216
C0B060,暖暖,2025-03-08,25.0957,121.7403,0.0016904315
C1H920,長豐,2025-03-08,24.102039,120.879897,0.0029131824
C0V360,內門,2025-03-08,22.975481,120.466769,0.35528407
C0R850,林邊,2025-03-08,22.4634,120.5339,0.25376403
C0E930,龍鳳,2025-03-08,24.700034,120.859125,4.858732e-05
C0U910,冬山,2025-03-08,24.63373,121.7937,0.0931415
C1E721,泰安,2025-03-08,24.489017,120.968036,0.0009484903
82H320,茶改中部分場,2025-03-08,23.875611,120.913583,0.013931977
C0M750,布袋,2025-03-08,23.380878,120.167789,0.0018247928
C1S860,利嘉,2025-03-08,22.809417,121.050528,0.28554508
72C440,桃園農改,2025-03-08,24.950944,121.030583,0.00012978507
E2S980,林試太麻里1,2025-03-08,22.598922,120.980044,0.70331377
C0X170,關廟,2025-03-08,22.963017,120.327797,0.15178917
C0V720,林園,2025-03-08,22.507747,120.394511,0.33259553
C1I510,線浸林道,2025-03-08,23.761508,120.832956,0.0010966073
C0D690,外湖,2025-03-08,24.917735,120.968711,0.000142493
C0C750,新興坑尾,2025-03-08,25.0061,121.0971,0.00010553046
B2Q810,畜試南區分所,2025-03-08,21.945583,120.802167,0.005804119
C0S790,金崙,2025-03-08,22.538122,120.966875,0.42423102
C0AH90,福山植物園,2025-03-08,24.760717,121.58135,0.007367646
C0I540,奇萊稜線,2025-03-08,24.109231,121.326456,0.00075047166
C0M850,表湖,2025-03-08,23.24186,120.64166,0.006352732
C0S770,大溪山,2025-03-08,22.478475,120.943325,0.07187398
C0AG80,中和,2025-03-08,24.991622,121.491792,0.0005489005
C0T790,大禹嶺,2025-03-08,24.186117,121.316086,0.0007008163
C0T9B0,水源,2025-03-08,23.991861,121.537169,0.0016169972
C0R840,牡丹池山,2025-03-08,22.168389,120.841225,0.00097955
C1I131,桶頭,2025-03-08,23.641944,120.654117,0.014339894
CAL110,布袋國中,2025-03-08,23.35893,120.18026,0.004180636
467571,新竹,2025-03-08,24.827853,121.014219,0.000119443124
C0Z290,赤柯山,2025-03-08,23.36893,121.38293,0.0011005382
C0X280,將軍,2025-03-08,23.214999,120.13577,0.0028261433
C0S690,太麻里,2025-03-08,22.60902,120.98533,0.0451748
C0U880,北關,2025-03-08,24.9072,121.8734,0.080164455
C1H860,瑞岩,2025-03-08,24.123772,121.18345,0.0007222976
C0G810,埔心,2025-03-08,23.947633,120.525456,0.00157152
C0U970,大福,2025-03-08,24.80064,121.81389,0.010479983
C2H9N0,仁愛東眼,2025-03-08,24.026875,121.1205,0.00046412012
C1E670,南礦,2025-03-08,24.538278,121.002836,0.00077207125
C0M520,東後寮,2025-03-08,23.369908,120.248065,0.0038805394
C1E461,松安,2025-03-08,24.397972,120.986022,0.001067443
72G600,臺中農改,2025-03-08,24.003028,120.534389,0.0019208431
C2N160,西拉雅風管處,2025-03-08,23.189481,120.335297,0.0451064
C2M970,碧湖,2025-03-08,23.568632,120.624165,0.0036852749
C0A640,石碇,2025-03-08,24.993969,121.662917,0.00080728246
E2S960,林試太麻里2,2025-03-08,22.598,120.99775,0.7955436
C0F9Y0,桃山,2025-03-08,24.432739,121.303808,0.0005686301
C1I020,萬大,2025-03-08,23.979817,121.132261,0.00075910357
C0U940,羅東,2025-03-08,24.68184,121.74934,0.029205177
C0M650,朴子,2025-03-08,23.43463,120.23902,0.0032363955
C1I500,大尖山,2025-03-08,23.858572,120.994889,0.00055318687
C0G820,田尾,2025-03-08,23.901669,120.509389,0.0015369252
E2K600,四湖植物園,2025-03-08,23.676986,120.163433,7.802438e-05
C0S730,綠島,2025-03-08,22.6672,121.47533,0.0019876703
12Q970,東港工作站,2025-03-08,22.479997,120.466058,0.26847714
C0E430,南庄,2025-03-08,24.601775,121.000214,0.00037125076
C1TA00,太魯閣,2025-03-08,24.15773,121.6236,0.0014506384
466920,臺北,2025-03-08,25.037658,121.514853,0.00079327886
C0R600,舊泰武,2025-03-08,22.588194,120.664944,0.012901963
C1I260,北坑,2025-03-08,23.9246,121.006903,0.00989334
466910,鞍部,2025-03-08,25.182586,121.529731,0.0010012455
C1I230,九份二山,2025-03-08,23.961944,120.845,0.011813572
C2A660,瑞芳,2025-03-08,25.113169,121.801147,0.0054818788
C0R270,琉球嶼,2025-03-08,22.332244,120.362236,0.12187381
C1T990,高寮,2025-03-08,23.394239,121.356808,0.02072254
C0G620,芬園,2025-03-08,24.015678,120.6213,0.0035477334
C1Z140,荖溪,2025-03-08,23.890575,121.45964,0.017175052
C1I201,中心崙,2025-03-08,23.728722,120.712097,0.0023510118
C1I400,凌霄,2025-03-08,24.018778,121.004456,0.00046393744
C1M640,十字,2025-03-08,23.492153,120.753683,0.00082283746
G2P820,農試鳳山分所,2025-03-08,22.646611,120.356083,0.02467084
C0Z270,蕃薯寮,2025-03-08,23.73835,121.540108,0.006356857
C0F9Q0,外埔,2025-03-08,24.347817,120.705686,0.0005086542
C0K580,高鐵雲林,2025-03-08,23.737456,120.417944,0.011492711
C2I090,鳳凰,2025-03-08,23.728081,120.787347,0.0068446756
C0U990,員山,2025-03-08,24.74435,121.72247,0.030349135
C0V770,大社,2025-03-08,22.730306,120.346639,0.13253018
C0X120,麻豆,2025-03-08,23.183289,120.248611,0.027050637
C0C670,龍潭,2025-03-08,24.870056,121.221389,0.00017130248
C0D680,香山濕地,2025-03-08,24.783581,120.914988,9.388922e-05
C0S980,勝林山,2025-03-08,22.430439,120.8938,0.0036691243
C0V730,大寮,2025-03-08,22.605614,120.395717,0.27706406
C0R570,麟洛,2025-03-08,22.65078,120.52719,0.36716074
C2M930,石卓,2025-03-08,23.478744,120.702264,0.001168615
C0G9B0,和美,2025-03-08,24.105169,120.492131,0.00015385715
CAG100,王功漁港,2025-03-08,23.96824,120.32586,7.1107155e-05
C0X290,北門,2025-03-08,23.267772,120.125481,0.002854838
C2F930,大甲,2025-03-08,24.347667,120.640403,6.0448736e-05
C0D650,湖口,2025-03-08,24.904794,121.043628,0.00012299481
C0E420,竹南,2025-03-08,24.708978,120.888897,4.6432313e-05
C0U780,五結,2025-03-08,24.68637,121.79794,0.032131348
C1I250,鯉潭,2025-03-08,23.961922,120.991131,0.0021157365
C0R130,阿禮,2025-03-08,22.742908,120.743678,0.0028352072
C0X100,臺南市北區,2025-03-08,23.010394,120.194228,0.017911104
C0S920,金峰嘉蘭,2025-03-08,22.594789,120.960825,0.6926023
C0V490,新興,2025-03-08,22.627422,120.298803,0.16752864
C0F9K0,大安,2025-03-08,24.345061,120.588025,5.8746406e-05
72N100,臺南農改,2025-03-08,23.0605,120.342194,0.10985126
467290,古坑,2025-03-08,23.633639,120.551889,0.028706977
C2E970,八甲,2025-03-08,24.535811,120.795983,0.000105678686
C0V440,鳳山,2025-03-08,22.646653,120.356122,0.02467084
C1T940,大觀,2025-03-08,23.714206,121.373133,0.0028648463
72T250,花蓮農改,2025-03-08,23.975222,121.563889,0.037854645
C0E740,造橋,2025-03-08,24.637056,120.864778,7.774223e-05
C0R100,尾寮山,2025-03-08,22.833111,120.683889,0.004076618
A2K630,臺大雲林校區,2025-03-08,23.730628,120.423903,0.0113795595
C0D580,寶山,2025-03-08,24.735006,121.025192,0.00018348711
E2P990,林試扇平站,2025-03-08,22.9677,120.6857,0.06592649
C0AI30,三重,2025-03-08,25.057328,121.500629,0.0008402206
C0AH00,汐止,2025-03-08,25.066881,121.658778,0.00079327886
C1Z040,立山,2025-03-08,23.443356,121.327375,0.007867218
C0W130,花嶼,2025-03-08,23.40007,119.32276,0.00018703367
C0A950,鼻頭角,2025-03-08,25.129036,121.923372,0.0037037868
C0K470,林內,2025-03-08,23.748675,120.609642,0.020089895
C2F990,摩天嶺,2025-03-08,24.322458,120.936819,0.0020763178
82C160,茶改場,2025-03-08,24.908472,121.185333,0.00020618545
C0Z320,清水林道,2025-03-08,23.27125,121.188272,0.003954791
C0R760,南仁湖,2025-03-08,22.084681,120.863353,0.0047379136
C0M670,大林,2025-03-08,23.600616,120.45841,0.0048525175
C0M800,茶山,2025-03-08,23.299075,120.664767,0.054722153
C0A9C0,天母,2025-03-08,25.117494,121.537169,0.0013442758
72K220,南改斗南分場,2025-03-08,23.634556,120.477333,0.024734925
72AI40,桃改樹林分場,2025-03-08,24.944503,121.386972,0.00080961746
C0S910,蘭嶼燈塔,2025-03-08,22.081197,121.503117,0.0011462856
C0B050,八斗子,2025-03-08,25.144754,121.79167,0.0141878845
C0U900,內城,2025-03-08,24.71813,121.68766,0.025016023
C0X320,柳營,2025-03-08,23.253328,120.375253,0.023789302
C0M790,新港,2025-03-08,23.553269,120.345728,0.0026833005
C0F9T0,西屯,2025-03-08,24.179494,120.641275,0.00028245305
C0SA30,都歷,2025-03-08,23.020333,121.323642,0.027729215
C0C620,蘆竹,2025-03-08,25.084275,121.265767,0.00018121376
C0R730,大坪頂,2025-03-08,22.024633,120.69355,0.0042370846
C0AJ40,石門,2025-03-08,25.273672,121.601198,0.0010361677
C0E750,苗栗,2025-03-08,24.564569,120.824575,0.00013712994
C0T870,鯉魚潭,2025-03-08,23.935639,121.508944,0.011054491
C1V170,排雲,2025-03-08,23.463619,120.954147,0.0009668299
C2H950,中寮,2025-03-08,23.884447,120.766406,0.00067472016
C0R350,貓鼻頭,2025-03-08,21.921774,120.7358,0.00095620326
C0V660,岡山,2025-03-08,22.797078,120.294958,0.034347806
C1H941,雙冬,2025-03-08,23.967378,120.802189,0.008553331
C0AJ70,田寮,2025-03-08,25.2698,121.4886,0.0026325427
C0AI00,五股,2025-03-08,25.07445,121.42728,0.0002154852
C0Z280,德武,2025-03-08,23.47426,121.41071,0.007853462
C0R700,枋山,2025-03-08,22.246844,120.661086,0.04515521
C0C460,復興,2025-03-08,24.820208,121.352281,0.00042766365
E2H360,蓮華池,2025-03-08,23.918333,120.885278,0.0047645243
C0M640,中埔,2025-03-08,23.42538,120.5229,0.014242522
C0W140,金沙,2025-03-08,24.488292,118.408778,0.00011766233
C2A540,四堵,2025-03-08,24.8926,121.745736,0.012527231
C0ACA0,新莊,2025-03-08,25.051478,121.446756,0.00069400214
C0R220,潮州,2025-03-08,22.534361,120.54,0.34189078
U2HA40,臺大內茅埔,2025-03-08,23.689722,120.851117,0.044656187
467490,臺中,2025-03-08,24.145736,120.684075,0.0010480488
C0U960,翠峰湖,2025-03-08,24.510856,121.608044,0.0004901047
E2HA20,林試畢祿溪站,2025-03-08,24.226944,121.308522,0.00071358285
C0V890,前鎮,2025-03-08,22.5718,120.3117,0.17885396
467620,蘭嶼,2025-03-08,22.036969,121.558339,0.00040745235
C1F941,雪嶺,2025-03-08,24.280586,121.026642,0.00082101417
C2H9E0,國姓南港,2025-03-08,23.911108,120.846556,0.00092864543
C0AC80,文山,2025-03-08,25.00235,121.575728,0.00047468752
C0F9R0,龍井,2025-03-08,24.184536,120.528972,5.9967024e-05
C0M760,民雄,2025-03-08,23.551754,120.428457,0.0052194544
C0UA40,西德山,2025-03-08,24.560647,121.752608,0.0042811204
C1T920,中興,2025-03-08,23.769503,121.498653,0.02409063
C0D550,雪霸,2025-03-08,24.526972,121.11605,0.0008698111
C2F860,梨山,2025-03-08,24.247522,121.243669,0.00070084
C0R320,車城,2025-03-08,22.0744,120.716247,0.0052269073
C1S870,南美山,2025-03-08,23.15025,121.382333,0.01594118
C0B020,基隆嶼,2025-03-08,25.19141,121.78391,0.0006202875
C1U501,牛鬥,2025-03-08,24.637836,121.573656,0.045495544
C0M730,嘉義市東區,2025-03-08,23.457673,120.460531,0.017678889
C0S700,知本,2025-03-08,22.684866,121.005642,0.090463385
C1N001,沙崙,2025-03-08,22.935472,120.309406,0.1711747
C0V760,橋頭,2025-03-08,22.757806,120.30575,0.14181788
C0G960,福寶,2025-03-08,24.0443,120.3814,0.00016122495
C0X210,白河,2025-03-08,23.347466,120.414427,0.019347329
C0S810,東河,2025-03-08,22.972672,121.303986,0.0034430334
C2R170,屏東,2025-03-08,22.66027,120.49403,0.3681358
C0R670,楓港,2025-03-08,22.190131,120.692156,0.03365947
C0FA50,霧峰,2025-03-08,24.0419,120.6995,0.002500254
C0UB10,蘇澳,2025-03-08,24.5969,121.8571,0.23836084
C0G950,防潮門,2025-03-08,24.1835,120.4871,6.0075028e-05
C0M740,六腳,2025-03-08,23.492871,120.290625,0.0033894947
C1R250,力里,2025-03-08,22.428117,120.629228,0.2626008
C0K330,虎尾,2025-03-08,23.719183,120.442036,0.010513321
C2FA00,烏石坑,2025-03-08,24.273503,120.947617,0.0006484307
C0V620,永安,2025-03-08,22.82315,120.236856,0.034730528
C1I330,楓樹林,2025-03-08,23.986803,121.076117,0.0004787347
C0W200,湖西,2025-03-08,23.596314,119.67275,0.00016853251
72Q010,高雄農改場,2025-03-08,22.709333,120.525889,0.2608936
C0SA40,瑞和,2025-03-08,22.974361,121.156697,0.008235677
C0C680,龜山,2025-03-08,25.02846,121.38656,0.00040622466
C2V260,月眉,2025-03-08,22.971003,120.539853,0.34854966
C0V450,鳳森,2025-03-08,22.545064,120.392592,0.24054849
C0U720,南山,2025-03-08,24.43742,121.38167,0.0017508075
A2N290,臺南蘭花園區,2025-03-08,23.340258,120.379661,0.010802138
C0R560,新園,2025-03-08,22.5434,120.461558,0.3325955
C0U890,三星,2025-03-08,24.66812,121.65302,0.10237261
C1V300,御油山,2025-03-08,23.001983,120.715364,0.0010922094
C0U600,礁溪,2025-03-08,24.817539,121.765608,0.03380946
C1T980,龍澗,2025-03-08,24.023289,121.411328,0.0070150825
C0D670,海天一線,2025-03-08,24.831986,120.914438,5.5285047e-05
C0SA00,歷坵,2025-03-08,22.520969,120.89185,0.09781475
C0M710,東石,2025-03-08,23.458927,120.15385,0.00041411023
C0M780,鹿草,2025-03-08,23.41134,120.30835,0.0028583235
C0U520,雙連埤,2025-03-08,24.753033,121.641303,0.0080082845
C0B010,七堵,2025-03-08,25.094819,121.71713,0.0023630676
C0R480,長治,2025-03-08,22.693128,120.542622,0.39427218
C1V830,國三S383K,2025-03-08,22.781967,120.426475,0.45964217
12Q980,恆春工作站,2025-03-08,22.079678,120.714425,0.0051932666
C1O940,東山服務區,2025-03-08,23.286016,120.398472,0.01851618
C1U840,東澳嶺,2025-03-08,24.5378,121.8485,0.01061994
C1D630,飛鳳山,2025-03-08,24.766464,121.119178,0.00019425113
C0S940,石寧山,2025-03-08,23.223772,121.406639,0.094902344
C0K410,北港,2025-03-08,23.573957,120.292802,0.00088476477
C2M620,瑞里,2025-03-08,23.545133,120.675197,0.0015200243
C0SB70,小港漁港,2025-03-08,23.158558,121.400431,0.13815364
C2O950,安南,2025-03-08,23.076694,120.144861,0.0019486054
C0F0E0,南湖圈谷,2025-03-08,24.363714,121.444667,0.00048914115
467610,成功,2025-03-08,23.097486,121.373428,0.015740132
C0G890,伸港,2025-03-08,24.148933,120.484403,6.0432365e-05
C2E540,龍溪,2025-03-08,24.606489,120.783933,5.0792187e-05
C1V200,梅山,2025-03-08,23.268447,120.823556,0.012544928
C0T9H0,加路蘭山,2025-03-08,23.682947,121.5274,0.0028701937
C2O930,玉井,2025-03-08,23.126042,120.46055,0.014312307
C1F911,新伯公,2025-03-08,24.221361,120.841069,0.0013940419
C0R490,九如,2025-03-08,22.7405,120.490503,0.27007112
C0X200,左鎮,2025-03-08,23.056758,120.408522,0.19401035
C0SB50,叭嗡嗡,2025-03-08,23.047062,121.343223,0.048037417
C1F891,稍來,2025-03-08,24.265689,121.001142,0.0007119459
72N240,七股研究中心,2025-03-08,23.081672,120.062894,0.0011097387
C0C700,中壢,2025-03-08,24.977661,121.256375,0.00045562157
C0M690,水上,2025-03-08,23.419734,120.388909,0.010613965
C0V690,鼓山,2025-03-08,22.623325,120.275575,0.16834807
C0O860,大內,2025-03-08,23.11885,120.36083,0.11896837
C0Z200,萬榮,2025-03-08,23.709219,121.420106,0.023745704
C0T9D0,和中,2025-03-08,24.26676,121.74103,0.040708788
C1O921,楠西,2025-03-08,23.183511,120.484083,0.013225597
C0AJ30,淡水觀海,2025-03-08,25.184591,121.408616,0.004199647
C0V810,左營,2025-03-08,22.67491,120.28491,0.028615737
C0UA70,桃源谷,2025-03-08,24.962606,121.888875,0.008910146
C0X130,官田,2025-03-08,23.193217,120.315422,0.049555153
C1H000,翠峰,2025-03-08,24.109397,121.205211,0.00084025814
C0UA90,石城,2025-03-08,24.980444,121.951214,0.25136057
C1E681,南勢山,2025-03-08,24.421669,120.923831,0.00028822204
C0A9F0,內湖,2025-03-08,25.079422,121.57545,0.00079327886
C0K291,宜梧,2025-03-08,23.536281,120.169329,0.000784752
C1K540,口湖,2025-03-08,23.585344,120.180517,0.00020741369
C0R780,滿州,2025-03-08,22.024403,120.839892,0.04513725
C0V870,文安,2025-03-08,22.8025,120.2164,0.036346827
C0U650,玉蘭,2025-03-08,24.675286,121.587061,0.01725657
C0R640,東港,2025-03-08,22.46247,120.44074,0.26924622
K2E360,苗栗農改,2025-03-08,24.495722,120.829111,0.00018042428
C0AJ80,板橋,2025-03-08,25.0107,121.4489,0.00056457357
C0S660,下馬,2025-03-08,23.150427,121.070312,0.0008579681
C1H9B1,阿眉,2025-03-08,24.1263,120.994672,0.0009251685
C0UA20,多加屯,2025-03-08,24.368614,121.373189,0.0007857435
C0E730,頭份,2025-03-08,24.688247,120.912206,4.6682897e-05
72V140,高改旗南分場,2025-03-08,22.857861,120.516667,0.4258767
C0K480,莿桐,2025-03-08,23.761192,120.502372,0.02109035
C0U980,坪林石牌,2025-03-08,24.86478,121.77396,0.005343018
C0T900,西林,2025-03-08,23.8119,121.441458,0.0075963344
C1I150,青雲,2025-03-08,23.793361,120.949378,0.030538287
467350,澎湖,2025-03-08,23.565503,119.563094,0.00019413873
C0G800,埔鹽,2025-03-08,24.000394,120.431683,0.00017342786
C0H960,草屯,2025-03-08,23.973672,120.68085,0.0021960281
C1V780,多納林道,2025-03-08,22.888028,120.737917,0.00802896
C0E920,通霄漁港,2025-03-08,24.498589,120.673876,4.658324e-05
C0Z330,安通山,2025-03-08,23.290728,121.348528,0.003846958
C0AH10,永和,2025-03-08,25.01125,121.508111,0.0005706817
C0AK10,太平里,2025-03-08,25.134937,121.364899,0.00023892548
C2G640,鹿港,2025-03-08,24.0753,120.430481,0.0001591861
C1E890,國三N149K,2025-03-08,24.463414,120.680019,6.379452e-05
C1R110,口社,2025-03-08,22.770111,120.645222,0.24589308
C1M870,國三N285K,2025-03-08,23.550319,120.505833,0.018533528
467050,新屋,2025-03-08,25.006744,121.047486,0.00011261016
C1E480,鳳美,2025-03-08,24.554803,121.034747,0.0005661824
C0M530,奮起湖,2025-03-08,23.493903,120.699253,0.0013336932
C0C590,觀音,2025-03-08,25.027072,121.153317,6.0562634e-05
C0T9M0,靜浦,2025-03-08,23.455167,121.495028,0.027415013
C2H9M0,發祥,2025-03-08,24.154094,121.164517,0.0017494456
C0AI40,石牌,2025-03-08,25.115597,121.513139,0.0013998449
C1F871,上谷關,2025-03-08,24.203483,121.018644,0.0017899964
C2H9G0,百勝,2025-03-08,24.051142,120.909361,0.0018973164
C0G880,二水,2025-03-08,23.810742,120.6173,0.015010326
C0R940,加祿堂,2025-03-08,22.3363,120.6217,0.047862284
C0W220,北竿,2025-03-08,26.220358,119.974881,0.0004734556
C0O960,崎頂,2025-03-08,22.959547,120.369317,0.079085544
C0S750,向陽,2025-03-08,23.248397,120.986133,0.0013122564
C0T9F0,水璉,2025-03-08,23.797131,121.542514,0.0039493497
C1M600,頭凍,2025-03-08,23.406364,120.603339,0.003877085
467660,臺東,2025-03-08,22.752211,121.154586,0.021804556
C1D380,新埔,2025-03-08,24.84745,121.03834,0.00011489053
C2G980,田頭村,2025-03-08,23.8263,120.444175,0.01158085
C0V750,路竹,2025-03-08,22.854997,120.259439,0.015520032
C0N050,蚵寮,2025-03-08,23.301,120.1104,0.0033123079
72M700,南改鹿草分場,2025-03-08,23.416869,120.283061,0.003171994
C1SA50,利嘉林道,2025-03-08,22.82325,121.009389,0.0020733438
467550,玉山,2025-03-08,23.487614,120.959522,0.0007850003
C0A940,金山,2025-03-08,25.223628,121.643967,0.021485027
C1V340,大津,2025-03-08,22.888322,120.645986,0.31653056
C0W180,七美,2025-03-08,23.219333,119.444892,0.00011056224
C1F9C1,白冷,2025-03-08,24.182844,120.929889,0.0004261457
K2E710,苗改生物防治研究中心,2025-03-08,24.422861,120.871833,0.00038580238
C0N040,蘆竹溝,2025-03-08,23.2344,120.0961,0.0029054582
C2W230,畜試所澎湖,2025-03-08,23.628342,119.513206,0.00030569264
C0R880,後壁湖,2025-03-08,21.9457,120.7457,0.0010659433
C1I280,埔中,2025-03-08,23.820778,120.642594,0.009550504
467790,墾丁雷達站,2025-03-08,21.948235,120.808028,0.0038439918
C0W190,望安,2025-03-08,23.380564,119.494075,0.00018557099
466881,新北,2025-03-08,24.9593,121.52,0.0005243824
C0Z170,卓溪,2025-03-08,23.3443,121.3029,0.027991725
C0F850,東勢,2025-03-08,24.246428,120.833047,0.0007164608
466900,淡水,2025-03-08,25.164889,121.448906,0.00023839848
C0I370,魚池,2025-03-08,23.895703,120.94135,0.003999161
C0C630,大溪,2025-03-08,24.882853,121.265547,0.00021703063
C0A520,山佳,2025-03-08,24.974944,121.402008,0.0009998155
C0I110,竹山,2025-03-08,23.761225,120.688156,0.0057382802
82H840,茶改南部分場,2025-03-08,23.762528,120.7405,0.014480255
C0G660,溪湖,2025-03-08,23.94835,120.479122,0.0016799419
C1T800,洛韶,2025-03-08,24.204558,121.453956,0.0032693879
C1T810,慈恩,2025-03-08,24.192044,121.388386,0.0010421587
C1E451,象鼻,2025-03-08,24.368617,120.940228,0.00026179216
C0AC60,三峽,2025-03-08,24.939025,121.369728,0.00062581355
C0I490,萬大林道,2025-03-08,23.928228,121.091411,0.0005335833
C1I290,豐丘,2025-03-08,23.668178,120.887417,0.0017853617
C1I320,奧萬大,2025-03-08,23.952956,121.178556,0.00048277745
C2M910,嘉義大學,2025-03-08,23.471325,120.485903,0.037003227
C0U770,南澳,2025-03-08,24.44935,121.81022,0.025110915
C0A980,社子,2025-03-08,25.109508,121.469681,0.00025507694
C0V800,六龜,2025-03-08,22.997889,120.633583,0.30630243
C1G9D0,國一S218K,2025-03-08,23.890641,120.493253,0.0015661676
C0E570,白沙屯,2025-03-08,24.549447,120.696803,3.538614e-05
C2F9A0,中竹林,2025-03-08,24.103556,120.751061,0.0026913239
C0FA40,臺中電廠,2025-03-08,24.2146,120.4907,5.9945294e-05
C2G9A0,畜試所彰化,2025-03-08,23.86045,120.557964,0.025352754
C0H9C0,合歡山,2025-03-08,24.143442,121.272547,0.00065564475
C0X060,下營,2025-03-08,23.22695,120.256261,0.020005265
G2M350,農試溪口農場,2025-03-08,23.58565,120.408111,0.006034992
C0U860,頭城,2025-03-08,24.85323,121.8308,0.037234657
C0R580,南州,2025-03-08,22.48591,120.50274,0.26924622
C0D430,峨眉,2025-03-08,24.6905,121.017189,8.513882e-05
C0G780,秀水,2025-03-08,24.03405,120.503869,0.001953046
72N100,臺南農改場,2025-03-08,23.0605,120.342194,0.10985126
C0S900,蘭嶼高中,2025-03-08,22.04909,121.51214,0.002740457
467540,大武,2025-03-08,22.355675,120.903789,0.54280907
C1F9W0,德基,2025-03-08,24.254783,121.190261,0.0009300019
C1Z120,壽豐,2025-03-08,23.870853,121.508081,0.03718554
C0W160,烏坵,2025-03-08,24.9944,119.44956,0.00033819766
C1I240,外大坪,2025-03-08,23.958697,120.917931,0.0018910869
C1I550,國六W023K,2025-03-08,23.979067,120.867742,0.017349096
C0R870,興海,2025-03-08,21.9752,120.8439,0.0057951454
C0R140,瑪家,2025-03-08,22.682903,120.686639,0.066784
C0A530,坪林,2025-03-08,24.938183,121.70975,0.017852852
C0X260,後壁,2025-03-08,23.366358,120.362326,0.026844326
C0Z230,和平,2025-03-08,24.30717,121.77007,0.04436708
C0G770,福興,2025-03-08,24.041289,120.437669,0.00017401706
C0H9A0,神木村,2025-03-08,23.532742,120.843667,0.00081839476
C0I460,南投,2025-03-08,23.911469,120.687331,0.0025787163
C0I480,梅峰,2025-03-08,24.085272,121.173572,0.0007054341
C1V570,吉東,2025-03-08,22.85422,120.5454,0.40104553
C2D740,屯原,2025-03-08,24.067969,121.209389,0.00072171784
C2A560,福山,2025-03-08,24.776203,121.502811,0.0113712195
C0AH30,五分山,2025-03-08,25.07125,121.780794,0.001940614
C0FA10,松柏,2025-03-08,24.429115,120.617482,4.6962017e-05
72S200,東改班鳩分場,2025-03-08,22.829528,121.077694,0.0056620906
72HA00,中改埔里分場,2025-03-08,23.903208,120.963364,0.0064766766
C2H9W0,大坪頂農水,2025-03-08,24.043122,120.932781,0.0028057273
C0C650,平鎮,2025-03-08,24.897503,121.214636,0.0003235293
C0S930,延平,2025-03-08,22.902581,121.084058,0.006079294
C0UA60,樟樹山,2025-03-08,24.41393,121.78325,0.009348756
C1S670,摩天,2025-03-08,23.199503,121.027,0.0012363784
C0V630,茄萣,2025-03-08,22.906642,120.182608,0.012161207
466940,基隆,2025-03-08,25.133314,121.740475,0.013311338
C0X050,東河,2025-03-08,23.296598,120.385608,0.022078356
C0R770,保力,2025-03-08,22.071122,120.764111,0.010082946
G2L020,農試嘉義分所,2025-03-08,23.485028,120.473806,0.02276489
C0X240,關子嶺,2025-03-08,23.331169,120.508025,0.03304848
C0I380,集集,2025-03-08,23.828206,120.801467,0.0526681
466990,花蓮,2025-03-08,23.975128,121.613275,0.051087983
C1V220,小關山,2025-03-08,23.154217,120.813603,0.0015830888
C1F9G1,慶福山,2025-03-08,24.180853,120.848378,0.0007842777
C0Z250,瑞穗林道,2025-03-08,23.49284,121.30688,0.028004283
C0D590,新豐,2025-03-08,24.87068,120.97721,9.417867e-05
C0A870,五指山,2025-03-08,25.132153,121.608692,0.0007120316
C0UA50,西帽山,2025-03-08,24.555361,121.802628,0.0076103127
C0X160,仁德,2025-03-08,22.968258,120.257689,0.056180276
C1H971,六分寮,2025-03-08,23.92507,120.6378,0.0071326243
C0W120,西嶼,2025-03-08,23.5626,119.468436,0.00018133718
C0G650,員林,2025-03-08,23.946503,120.585597,0.0065840213
C0AD50,鶯歌,2025-03-08,24.951533,121.346294,0.00054730085
C2H9Q0,北東眼山,2025-03-08,24.120939,121.189303,0.00054017967
C2H9T0,名間竹圍,2025-03-08,23.859914,120.637572,0.029936781
C0S990,山豬窟,2025-03-08,22.318619,120.857372,0.015721254
72Q010,高雄農改,2025-03-08,22.709333,120.525889,0.2608936
C0X190,安平,2025-03-08,22.993161,120.152181,0.01777975
C0K400,斗六,2025-03-08,23.720583,120.541127,0.021053571
12J990,口湖工作站,2025-03-08,23.589978,120.180394,0.00020580165
C0O830,北寮,2025-03-08,23.079561,120.495008,0.22614077
C1D410,白蘭,2025-03-08,24.579364,121.079947,0.0007209435
C0S970,加津林,2025-03-08,22.416211,120.926942,0.49142554
C0D700,關西,2025-03-08,24.7977,121.1732,0.00012755468
C0M810,里佳,2025-03-08,23.389125,120.716647,0.0012982152
C0U750,龜山島,2025-03-08,24.841667,121.953133,0.00042356763
C0R810,內獅,2025-03-08,22.305064,120.642986,0.05007787
C1M390,龍美,2025-03-08,23.406728,120.654417,0.0018714251
C2FB60,頭櫃山,2025-03-08,24.129842,120.858925,0.0028709427
C1H840,國三N238K,2025-03-08,23.841008,120.707711,0.05157103
CAQ030,崎峰國小,2025-03-08,22.42565,120.49521,0.26924622
C2E520,大湖,2025-03-08,24.414939,120.870872,0.00067038153
467530,阿里山,2025-03-08,23.508208,120.813242,0.00063550344
C1E691,南湖,2025-03-08,24.40135,120.837533,0.00034420827
C0FA30,梧棲,2025-03-08,24.256003,120.523381,7.093129e-05
C1V231,高中,2025-03-08,23.134911,120.716711,0.004056707
C0F9V0,新社,2025-03-08,24.200172,120.815806,0.0006147074
C0H890,埔里,2025-03-08,23.972169,120.952425,0.002571877
C0R690,墾丁,2025-03-08,21.966756,120.810269,0.001077153
C0F0D0,審馬陣,2025-03-08,24.381675,121.4203,0.0004250424
C0R820,白鷺,2025-03-08,22.454275,120.666219,0.026481131
U2H480,臺大溪頭,2025-03-08,23.670306,120.798194,0.0029256328
C1V190,南天池,2025-03-08,23.27403,120.91176,0.0011278888
K2E360,苗栗農改場,2025-03-08,24.495722,120.829111,0.00018042428
CAJ050,海口故事園區,2025-03-08,23.57543,120.14121,0.00020669881
C2H9D0,三隻寮,2025-03-08,24.093078,120.861578,0.0026199964
C0O990,媽廟,2025-03-08,22.99175,120.293525,0.117866546
C0D480,打鐵坑,2025-03-08,24.849664,121.150789,0.00017038354
C0Z220,和平林道,2025-03-08,24.343922,121.656317,0.0012193338
C0TA10,花蓮漁港,2025-03-08,23.995322,121.638331,0.06081224
72C440,桃園農改場,2025-03-08,24.950944,121.030583,0.00012978507
C1E711,馬拉邦山,2025-03-08,24.367306,120.901656,0.00026059334
C0SB20,富岡,2025-03-08,22.792467,121.192669,0.03387001
C0D560,竹東,2025-03-08,24.767147,121.057881,0.0001229056
C0F9U0,南屯,2025-03-08,24.137006,120.637969,0.00071730313
C0M720,番路,2025-03-08,23.464657,120.554156,0.038962122
C0F0A0,雪山圈谷,2025-03-08,24.388594,121.236339,0.0005768487
C1A9N0,四十份,2025-03-08,24.934158,121.593283,0.0011038923
C0U760,東澳,2025-03-08,24.52196,121.83318,0.16682892
C0X230,鹽水,2025-03-08,23.272621,120.247641,0.0030715347
C2H9H0,苗改南投蜂場,2025-03-08,23.852589,120.693481,0.0072456524
C0R950,萬隆國小,2025-03-08,22.507667,120.587817,0.28253123
C0V370,古亭坑,2025-03-08,22.893178,120.401947,0.4037822
C1I340,新興橋,2025-03-08,23.563333,120.868728,0.0034048671
C0SA80,土坂,2025-03-08,22.453108,120.887572,0.36994845
C0R160,鹽埔,2025-03-08,22.739558,120.530778,0.2588997
C0AC40,大屯山,2025-03-08,25.175675,121.522408,0.00065279694
466850,五分山雷達站,2025-03-08,25.071182,121.781205,0.001887785
C2H9L0,馬烈霸,2025-03-08,24.1512,121.201772,0.00067366415
C1AI50,國三N016K,2025-03-08,25.034164,121.619664,0.00068615214
C1V600,藤枝,2025-03-08,23.071961,120.757042,0.0012788805
C1E601,南勢,2025-03-08,24.572486,120.734842,5.0875566e-05
C0Z180,新城,2025-03-08,24.03946,121.60454,0.045756355
C0O980,新市,2025-03-08,23.061614,120.298197,0.13719176
C0K420,西螺,2025-03-08,23.800407,120.467394,0.010320167
C0Z050,佳心,2025-03-08,23.34567,121.21316,0.0015210472
C0AD30,蘆洲,2025-03-08,25.086594,121.472331,0.0008141219
C0V610,梓官,2025-03-08,22.760558,120.267211,0.14240472
K2F750,種苗改良場,2025-03-08,24.225972,120.800917,0.0008712889
C0UA80,大溪漁港,2025-03-08,24.941801,121.902955,0.1754415
C1AI60,國一39K邊坡,2025-03-08,25.064361,121.383836,0.0004469131
C0W150,金寧,2025-03-08,24.457703,118.328989,9.8058816e-05
C0R960,內埔,2025-03-08,22.608483,120.570714,0.32708433
V2C250,八德合作社,2025-03-08,24.93775,121.266389,0.00038428477
C2H9S0,龍南,2025-03-08,23.953536,120.833183,0.003601708
C0AH40,平等,2025-03-08,25.129142,121.577086,0.0014301479
C0R540,佳冬,2025-03-08,22.419456,120.552375,0.27616826
466950,彭佳嶼,2025-03-08,25.627975,122.079744,0.0004394605
C0A890,雙溪,2025-03-08,25.036003,121.864242,0.022022111
C0C480,桃園,2025-03-08,24.992425,121.323172,0.0005122518
C0AH50,林口,2025-03-08,25.072181,121.38084,0.00038464597
A2K360,水試臺西試驗場,2025-03-08,23.717231,120.190522,7.3899566e-05
B2N890,畜試所,2025-03-08,23.058972,120.336406,0.11120899
C2M960,外寮,2025-03-08,23.562643,120.665688,0.0029120622
C0F9S0,烏日,2025-03-08,24.107058,120.624103,0.008693001
C0C490,八德,2025-03-08,24.928708,121.283289,0.00037852835
C0R190,赤山,2025-03-08,22.592333,120.614306,0.31316677
C0T820,天祥,2025-03-08,24.179597,121.495639,0.030224022
C1F9E1,龍安,2025-03-08,24.1605,120.831961,0.00041672366
C0V820,小林,2025-03-08,23.148408,120.63325,0.03132307
C2G870,芳苑,2025-03-08,23.922303,120.320025,7.156648e-05
C0E850,大河,2025-03-08,24.618069,120.948578,0.00020719625
C1U670,寒溪,2025-03-08,24.634,121.71691,0.055218376
C0N020,城西,2025-03-08,23.0568,120.0956,0.008294426
C1Z110,三棧,2025-03-08,24.11557,121.60501,0.0343896
C0R280,檳榔,2025-03-08,22.076078,120.836777,0.011340951
C2H9J0,中台,2025-03-08,23.9996,120.938739,0.026069751
C0F9L0,后里,2025-03-08,24.310436,120.729725,0.015635002
C0D540,橫山,2025-03-08,24.71116,121.11693,0.00014885793
C1D420,太閣南,2025-03-08,24.632808,121.160575,0.00073211535
C1E770,公館,2025-03-08,24.526914,120.830806,0.00020143701
CAN130,水試所海水繁養殖中心,2025-03-08,23.120802,120.07968,0.0011055303
C1I430,翠華,2025-03-08,24.191961,121.224339,0.0007786835
C1M400,菜瓜坪,2025-03-08,23.251928,120.576103,0.051283773
C0G730,二林,2025-03-08,23.903325,120.376081,0.00017353537
72M360,南改義竹分場,2025-03-08,23.360694,120.279361,0.0037735703
V2K620,麥寮合作社,2025-03-08,23.753836,120.294783,0.00022495454
C0Z070,舞鶴,2025-03-08,23.46811,121.37407,0.0050888676
C0B040,大武崙,2025-03-08,25.166676,121.706993,0.00985824
C1Z030,紅葉,2025-03-08,23.493119,121.338806,0.009674131
C1I050,丹大,2025-03-08,23.753747,121.141147,0.0010150103
C0I080,信義,2025-03-08,23.689694,120.851036,0.044656187
C2M920,朴子農改,2025-03-08,23.469889,120.259383,0.0032614328
C2A880,福隆,2025-03-08,25.017842,121.942083,0.26823637
C0Z160,鳳林,2025-03-08,23.746114,121.453411,0.03257159
C0V210,復興,2025-03-08,23.222403,120.806089,0.0072956677
C0H990,昆陽,2025-03-08,24.121322,121.273642,0.00078023074
C0R741,獅子,2025-03-08,22.202308,120.705236,0.11570462
C0S710,鹿野,2025-03-08,22.917711,121.122994,0.0014918234
C0I530,小奇萊,2025-03-08,24.131764,121.295717,0.0007733687
C2K630,荷苞,2025-03-08,23.657717,120.595144,0.011867398
C0Z080,富源,2025-03-08,23.587642,121.378225,0.025005199
467441,高雄,2025-03-08,22.7304,120.3125,0.13323984
C0SB10,美和,2025-03-08,22.682078,121.060236,0.7885119
C2K620,馬光農場,2025-03-08,23.721453,120.378864,0.01257005
C1I140,卡奈托灣,2025-03-08,23.754364,121.087872,0.0010408624
C0I520,玉山風口,2025-03-08,23.470489,120.955994,0.0007880203
C1G691,下水埔,2025-03-08,23.816114,120.5676,0.017304441
C0X110,臺南市南區,2025-03-08,22.961189,120.188378,0.057051275
C0V680,仁武,2025-03-08,22.701083,120.347722,0.028410645
C2G840,北斗,2025-03-08,23.877586,120.514222,0.0014764036
C0R900,竹坑,2025-03-08,22.1385,120.7022,0.015799377
C0K250,崙背,2025-03-08,23.75555,120.318925,0.00022195601
C0G860,社頭,2025-03-08,23.897647,120.5862,0.0047217133
C0X150,安定,2025-03-08,23.102614,120.227839,0.064484775
C0R590,里港,2025-03-08,22.77919,120.49459,0.55097395
C0E610,馬都安,2025-03-08,24.451272,120.930192,0.00032141572
C0E550,明德,2025-03-08,24.583486,120.885411,0.00012972062
C0R150,三地門,2025-03-08,22.709889,120.639944,0.25595644
C0G910,花壇,2025-03-08,24.032076,120.549461,0.0016939928
C1D400,鳥嘴山,2025-03-08,24.71909,121.28387,0.00035187072
C0K500,元長,2025-03-08,23.64981,120.315024,0.00029120207
C0F0B0,石岡,2025-03-08,24.276061,120.777644,0.008894508
C2V250,甲仙,2025-03-08,23.080106,120.591758,0.11413758
C0SA20,金崙山,2025-03-08,22.567419,120.959667,0.0035089033
C0V350,溪埔,2025-03-08,22.738578,120.446797,0.5145771
C0M660,溪口,2025-03-08,23.604131,120.403569,0.0059985355
C1S880,壽卡,2025-03-08,22.238911,120.858903,0.0023324029
72D680,桃改新埔分場,2025-03-08,24.834444,121.066111,0.00011577585
