站號,站名,日期,lat,lon,BlastGRU-TW
C0R710,龍磐,2025-10-20,21.931672,120.838942,0.007505397
C1F9D1,白毛台,2025-10-20,24.158325,120.886933,0.28616166
C0G940,竹塘,2025-10-20,23.848253,120.386764,0.09696782
467590,恆春,2025-10-20,22.003897,120.746339,0.008330553
C1O850,環湖,2025-10-20,23.148617,120.418633,0.09099056
C0U710,太平山,2025-10-20,24.505486,121.525656,0.07443768
C0E820,獅潭,2025-10-20,24.539133,120.920042,0.19555102
C0V880,興達,2025-10-20,22.8778,120.2127,0.109072566
C0S890,關山,2025-10-20,23.0395,121.175017,0.28770414
C0SB30,新蘭,2025-10-20,22.869214,121.223228,0.16116509
C2R970,屏科大,2025-10-20,22.648275,120.619247,0.19495162
C1Z130,銅門,2025-10-20,23.965694,121.492842,0.27205315
C0AD40,土城,2025-10-20,24.973208,121.445169,0.046697374
CAN140,六官養殖協會,2025-10-20,23.22881,120.29962,0.11468947
C0X180,山上,2025-10-20,23.0757,120.363253,0.117823064
C0F9Z0,雪山東峰,2025-10-20,24.388792,121.268675,0.0014998714
C1M480,獨立山,2025-10-20,23.537022,120.607797,0.25490546
C0X220,學甲,2025-10-20,23.230367,120.182187,0.115507245
467650,日月潭,2025-10-20,23.881325,120.90805,0.14322327
C0K600,箔子寮,2025-10-20,23.6197,120.14,0.10579818
C0G830,埤頭,2025-10-20,23.866003,120.452806,0.098700985
C0S950,七塊厝,2025-10-20,22.954453,121.229922,0.4256473
467110,金門,2025-10-20,24.407306,118.289281,0.10684195
C0AH80,深坑,2025-10-20,25.002703,121.628328,0.04844108
C0A970,三貂角,2025-10-20,25.007606,122.002058,0.07511515
C2D730,寶山農場,2025-10-20,24.732444,120.976153,0.16441049
C0K430,褒忠,2025-10-20,23.690938,120.303634,0.08438077
467480,嘉義,2025-10-20,23.495925,120.432906,0.09472461
C0V400,阿公店,2025-10-20,22.804194,120.355528,0.11517458
C0E960,觀霧分站,2025-10-20,24.505781,121.113921,0.08157519
467550,玉山,2025-10-20,23.48718,120.95943,0.0004749976
C0R440,大漢山,2025-10-20,22.405264,120.753181,0.03291555
C0K280,四湖,2025-10-20,23.630414,120.227125,0.11186327
C1F9B1,桐林,2025-10-20,24.066172,120.735194,0.21894993
C2H9U0,鳳鵬,2025-10-20,23.763919,120.788061,0.18149273
C0K390,土庫,2025-10-20,23.679029,120.395574,0.10734809
C1I450,望鄉山,2025-10-20,23.594153,120.944286,0.0012390665
C0E910,海埔,2025-10-20,24.648767,120.772435,0.18846038
B2E890,畜試北區分所,2025-10-20,24.527806,120.770972,0.16264498
C0R750,四林格山,2025-10-20,22.076989,120.802439,0.13686803
C0F0C0,中坑,2025-10-20,24.248517,120.903319,0.15535434
C1I121,大鞍,2025-10-20,23.678381,120.760017,0.4357484
72U480,花改蘭陽分場,2025-10-20,24.686306,121.716583,0.031639762
C0A770,科教館,2025-10-20,25.096356,121.516507,0.03211355
C0AJ60,六塊厝,2025-10-20,25.24,121.4481,0.04051286
C0R620,墾雷,2025-10-20,21.900836,120.855269,0.006596733
467420,永康,2025-10-20,23.038386,120.2367,0.10249628
C0I410,名間,2025-10-20,23.837053,120.701447,0.14638956
A2C560,農工中心,2025-10-20,24.985917,121.239833,0.09371673
C0V740,旗山,2025-10-20,22.888614,120.483597,0.10421125
C0Z061,玉里,2025-10-20,23.3215,121.339656,0.19404896
C0S840,南田,2025-10-20,22.279725,120.889208,0.024999771
C1I470,杉林溪,2025-10-20,23.639517,120.786444,0.3352342
C1X040,東原,2025-10-20,23.291597,120.463822,0.08615801
C0R660,枋寮,2025-10-20,22.367722,120.590647,0.11866198
C1R120,上德文,2025-10-20,22.763272,120.704442,0.1451196
C0K450,大埤,2025-10-20,23.646074,120.431537,0.14036098
C0UA00,土場,2025-10-20,24.576533,121.495333,0.27231944
467080,宜蘭,2025-10-20,24.763975,121.756528,0.033604592
C0N030,四草,2025-10-20,23.0235,120.1116,0.116065316
467410,臺南,2025-10-20,22.99328,120.20492,0.12157227
C0V650,彌陀,2025-10-20,22.783806,120.246361,0.10882522
C0D660,新竹市東區,2025-10-20,24.798681,120.986942,0.1632462
82S580,茶改東部分場,2025-10-20,22.907694,121.130139,0.3038092
C0SB40,興隆,2025-10-20,22.913661,121.257469,0.17045675
467050,新屋,2025-10-20,25.006725,121.047492,0.112281695
C0C710,大溪永福,2025-10-20,24.892936,121.324975,0.11167772
C0FA20,溫寮,2025-10-20,24.372177,120.583125,0.14023627
C0V640,湖內,2025-10-20,22.887139,120.2445,0.11077852
C0R910,下寮,2025-10-20,22.3929,120.5548,0.118518114
C0Z020,明里,2025-10-20,23.208717,121.262342,0.23559217
C0M770,嘉義梅山,2025-10-20,23.585398,120.555587,0.2038329
C0C660,楊梅,2025-10-20,24.912375,121.143047,0.106459334
C1E511,新開,2025-10-20,24.347703,120.827019,0.2328468
G2F820,農試所(霧峰),2025-10-20,24.031261,120.688133,0.15317926
C1I070,和社,2025-10-20,23.591131,120.888861,0.07198081
C0TA80,立霧山,2025-10-20,24.183258,121.641899,0.05487124
C2F000,大肚,2025-10-20,24.15295,120.572117,0.23839314
C1S850,豐南,2025-10-20,23.122139,121.262389,0.2938149
C2A920,富貴角,2025-10-20,25.263783,121.565258,0.050803952
CAH030,茶改場竹圍站,2025-10-20,23.860083,120.637528,0.14248195
C0T960,光復,2025-10-20,23.660694,121.424964,0.23999499
C0F9M0,豐原,2025-10-20,24.254322,120.720692,0.23715104
C0R720,旭海,2025-10-20,22.205403,120.887614,0.047209732
C0V710,苓雅,2025-10-20,22.622742,120.330669,0.13443503
C0C740,觀音工業區,2025-10-20,25.064764,121.114856,0.117976725
CAC040,拉拉山,2025-10-20,24.699317,121.427133,0.30025148
C0V790,萬山,2025-10-20,22.905944,120.688056,0.24144007
U2HA30,臺大和社,2025-10-20,23.590856,120.888864,0.07198081
C2H9K0,屯原,2025-10-20,24.067969,121.209389,0.07660991
C0AJ90,澳底,2025-10-20,25.0552,121.9253,0.09216981
C0Z100,東華,2025-10-20,23.89525,121.549833,0.17615877
C0G970,三豐,2025-10-20,23.882,120.2895,0.08423162
V2K610,大庄合作社,2025-10-20,23.8068,120.367939,0.08487132
C0V900,汕尾,2025-10-20,22.4782,120.4151,0.18348579
C1R630,龍泉,2025-10-20,22.66701,120.59091,0.15578339
C1AC50,關渡,2025-10-20,25.133486,121.469331,0.040283386
C0C800,四稜,2025-10-20,24.64733,121.4293,0.047463443
C0F9I0,神岡,2025-10-20,24.272481,120.658314,0.17830254
C0K460,斗南,2025-10-20,23.678734,120.478359,0.14172225
C2O810,曾文,2025-10-20,23.219681,120.497328,0.06841612
467280,後龍,2025-10-20,24.648563,120.831834,0.20172504
C1F9J1,清水林,2025-10-20,24.071242,120.820419,0.26749757
C2A650,火燒寮,2025-10-20,25.002719,121.742892,0.110848665
466930,竹子湖,2025-10-20,25.162078,121.544547,0.19081274
C1I220,樟湖,2025-10-20,23.905333,120.846983,0.08627245
C0I390,仁愛,2025-10-20,24.022122,121.132206,0.06807084
C0Z300,東里,2025-10-20,23.26853,121.30547,0.18500012
C1V590,新發,2025-10-20,23.057019,120.646064,0.31977597
C0K510,水林,2025-10-20,23.572924,120.24597,0.08988922
72S590,東改賓朗果園,2025-10-20,22.813889,121.071278,0.41357958
82A750,茶改北部分場,2025-10-20,24.955778,121.631222,0.11131672
C1A750,石碇服務區,2025-10-20,25.00872,121.646242,0.049682137
C0X300,鹿寮,2025-10-20,23.386047,120.477331,0.11005773
G2AI50,關渡,2025-10-20,25.11575,121.492,0.05172275
C0K590,雲林東勢,2025-10-20,23.674192,120.255721,0.08748979
C0A570,桶後,2025-10-20,24.848222,121.597992,0.18058296
C1S800,華源,2025-10-20,22.657883,121.02325,0.19464047
C0G720,溪州,2025-10-20,23.851589,120.499093,0.09998397
C1V160,達卡努瓦,2025-10-20,23.279811,120.705319,0.26782137
C2M410,馬頭山,2025-10-20,23.324361,120.582017,0.097101286
C0V850,蚵仔寮,2025-10-20,22.7256,120.2527,0.10981699
C0S740,池上,2025-10-20,23.119628,121.209469,0.25169164
C1V390,尖山,2025-10-20,22.813153,120.367789,0.12258522
C0AH70,松山,2025-10-20,25.04871,121.55042,0.032346506
C0N010,鯤鯓國小,2025-10-20,23.1879,120.0889,0.10571238
C0R550,新埤,2025-10-20,22.467947,120.582894,0.19781637
C0SA60,知本（水試所）,2025-10-20,22.702394,121.082761,0.11007429
C0T9I0,豐濱,2025-10-20,23.583897,121.514806,0.23291671
C0UB00,淡江大學蘭陽校園,2025-10-20,24.823239,121.730383,0.12632239
C0W240,九宮,2025-10-20,24.423753,118.240186,0.10577816
C0T9N0,富里,2025-10-20,23.171639,121.249378,0.27850282
U2HA50,臺大竹山,2025-10-20,23.756972,120.681556,0.18551452
C0V840,鳳鼻頭,2025-10-20,22.5083,120.3591,0.0986345
C0X140,西港,2025-10-20,23.125608,120.203108,0.1082106
72D080,桃改五峰分場,2025-10-20,24.612194,121.157167,0.101347275
C2H9P0,伊拿谷,2025-10-20,23.963211,121.088264,0.2371121
C2H9F0,柑林,2025-10-20,24.018658,120.847072,0.1377725
C0TA20,加灣,2025-10-20,24.082025,121.608944,0.24689972
C0V530,阿蓮,2025-10-20,22.883208,120.327508,0.11158261
C0FB30,八仙山苗圃,2025-10-20,24.192719,121.001366,0.16884436
C1O880,關山,2025-10-20,23.173397,120.594092,0.1041607
C0E791,卓蘭,2025-10-20,24.3126,120.8244,0.2529022
C1I030,武界,2025-10-20,23.913225,121.052483,0.2166354
C0R520,崁頂,2025-10-20,22.514781,120.506914,0.17985147
C0R341,牡丹,2025-10-20,22.130036,120.792639,0.060102247
C0R930,萬丹,2025-10-20,22.5885,120.4851,0.099274695
C0S760,紅石,2025-10-20,23.069131,121.126219,0.26250917
C2C410,中央大學,2025-10-20,24.967652,121.185165,0.09522518
C1M610,石磐龍,2025-10-20,23.496606,120.663506,0.3026001
C0C790,東眼山,2025-10-20,24.8284,121.40888,0.118126504
C0UA10,鴛鴦湖,2025-10-20,24.590269,121.412228,0.34616756
V2C260,八德蔬果,2025-10-20,24.978508,121.281819,0.09754973
C0R800,丹路,2025-10-20,22.204481,120.750989,0.046538625
C0G920,永靖,2025-10-20,23.924703,120.547533,0.1173277
C2M950,太和,2025-10-20,23.538372,120.702961,0.53741235
C1A630,下盆,2025-10-20,24.771003,121.538622,0.11480701
B2N890,畜產試驗所,2025-10-20,23.058972,120.336406,0.10224577
C0UA30,白嶺,2025-10-20,24.527819,121.519031,0.07298122
C1V580,溪南(特生中心),2025-10-20,23.084972,120.788475,0.40064156
C1T970,大農,2025-10-20,23.615233,121.413331,0.25327653
C0R650,竹田,2025-10-20,22.58486,120.54344,0.16242182
C1H900,清流,2025-10-20,24.080775,120.962997,0.21371976
C1C510,水尾,2025-10-20,24.940081,121.087161,0.1176717
C0F9X0,大雅(中科園區),2025-10-20,24.21528,120.62445,0.22160026
C0SB60,白守蓮,2025-10-20,23.126769,121.401914,0.07844958
C0O970,虎頭埤,2025-10-20,23.021375,120.347878,0.13186222
C0C730,中大臨海站,2025-10-20,24.966126,121.008581,0.1087172
C0X250,新營,2025-10-20,23.310689,120.316681,0.12904815
C0V700,三民,2025-10-20,22.645017,120.311233,0.12267075
C0U870,大礁溪,2025-10-20,24.791042,121.675047,0.25572935
C0E870,高鐵苗栗,2025-10-20,24.60725,120.826094,0.21925785
A2K570,古坑花卉中心,2025-10-20,23.63353,120.55239,0.17722106
C0TA30,鹽寮,2025-10-20,23.845606,121.592664,0.16659029
C0M860,新美,2025-10-20,23.338017,120.683169,0.5458078
C1E701,八卦,2025-10-20,24.491756,120.927619,0.124900505
C0I420,國姓,2025-10-20,24.037803,120.855072,0.14126393
C2D720,關西工作站,2025-10-20,24.757275,121.184792,0.17454465
C0S960,香蘭,2025-10-20,22.587569,120.993375,0.0901735
467620,蘭嶼,2025-10-20,22.0369,121.55843,0.012578748
C0R260,春日,2025-10-20,22.370361,120.628306,0.13916503
72G600,臺中農改場,2025-10-20,24.003028,120.534389,0.13681854
C0Z210,瑞穗,2025-10-20,23.5239,121.39021,0.22017789
C0M820,達邦,2025-10-20,23.453994,120.749517,0.39173594
C0V860,南寮,2025-10-20,22.7616,120.2339,0.10920644
C0G740,大城,2025-10-20,23.852487,120.320935,0.08610895
C0R920,塭仔,2025-10-20,22.4169,120.5197,0.11731869
C0R470,高樹,2025-10-20,22.826389,120.600806,0.11138462
C0R680,佳樂水,2025-10-20,21.993578,120.861633,0.008590395
C1O870,大棟山,2025-10-20,23.31157,120.52226,0.53858674
C0D360,梅花,2025-10-20,24.678347,121.208558,0.2986487
C0Z190,富世,2025-10-20,24.14743,121.6297,0.1483188
C0AI10,屈尺,2025-10-20,24.92184,121.54475,0.06265634
B2U990,畜試東區分所,2025-10-20,24.669039,121.832561,0.04209722
C0SB80,長濱漁港,2025-10-20,23.313644,121.459994,0.1065877
C0TA50,和仁,2025-10-20,24.241394,121.712472,0.11181369
C0V910,大樹,2025-10-20,22.684645,120.432803,0.086374335
C1R610,西大武山,2025-10-20,22.617719,120.7322,0.02534325
C0G900,線西,2025-10-20,24.143358,120.443536,0.13818987
C0M700,竹崎,2025-10-20,23.526178,120.555508,0.1609117
C2E880,三義,2025-10-20,24.405478,120.749819,0.31126198
C0C720,竹圍,2025-10-20,25.112692,121.239824,0.05192211
C0F9P0,清水,2025-10-20,24.312297,120.562242,0.1321499
C0Z150,吉安光華,2025-10-20,23.930925,121.595153,0.17933807
C0FA80,小雪山天池,2025-10-20,24.28025,121.02627,0.005003588
467300,東吉島,2025-10-20,23.25727,119.66762,0.2801539
C1D640,外坪(五指山),2025-10-20,24.644447,121.090961,0.115116656
C0F9O0,潭子,2025-10-20,24.213106,120.703933,0.21614265
C2H9R0,卓社,2025-10-20,23.887894,121.000086,0.14887045
72T250,花蓮農改場,2025-10-20,23.975222,121.563889,0.2114514
C0E780,銅鑼,2025-10-20,24.489681,120.790853,0.21101205
C1T950,太安,2025-10-20,23.666719,121.370128,0.10059609
C0E830,苑裡,2025-10-20,24.439714,120.653053,0.17205423
467270,田中,2025-10-20,23.873803,120.581286,0.10805664
C0SA10,檳榔四格山,2025-10-20,22.810031,121.109308,0.42204455
C1T830,布洛灣,2025-10-20,24.17184,121.57127,0.25126556
C0F970,大坑,2025-10-20,24.173142,120.722289,0.20712367
C1U920,思源,2025-10-20,24.393125,121.347214,0.09825248
C0A931,三和,2025-10-20,25.233153,121.595236,0.05509671
C0I010,廬山,2025-10-20,24.033311,121.181808,0.45621863
C2M940,日野賀,2025-10-20,23.434056,120.727169,0.3030918
C0R860,鼻頭,2025-10-20,22.1043,120.8979,0.0076918947
C0UB20,壯圍,2025-10-20,24.7359,121.8163,0.031135755
C0R790,九棚,2025-10-20,22.14195,120.889281,0.03815523
C0W110,東莒,2025-10-20,25.9652,119.98069,0.021459078
C1U930,粉鳥林,2025-10-20,24.497088,121.842479,0.12044391
C1I211,蘆竹湳,2025-10-20,23.934019,120.811994,0.23694132
C0S830,長濱,2025-10-20,23.286817,121.411975,0.293451
C1F9F1,伯公龍,2025-10-20,24.272392,120.849047,0.25495812
C0UB90,太平山莊,2025-10-20,24.494171,121.536209,0.066281
C0E810,西湖,2025-10-20,24.562947,120.7485,0.20900236
C1I440,新高口,2025-10-20,23.478744,120.878939,0.005400759
C0O840,王爺宮,2025-10-20,23.222064,120.40085,0.076175675
C0T9G0,鳳林山,2025-10-20,23.735269,121.420131,0.3511399
C0X080,佳里,2025-10-20,23.173039,120.145086,0.10543495
C0FB70,大甲溪埔,2025-10-20,24.370625,120.620067,0.1506335
C0Z310,清水斷崖,2025-10-20,24.218294,121.689142,0.15648432
C0M680,太保,2025-10-20,23.455062,120.331455,0.09542828
C1S820,金峰,2025-10-20,22.590969,120.933236,0.1690352
C0AD10,八里,2025-10-20,25.150211,121.403947,0.052008986
C2K240,草嶺,2025-10-20,23.59555,120.693461,0.26640704
C1SA70,都蘭,2025-10-20,22.87794,121.226881,0.17093952
C0K440,二崙,2025-10-20,23.772797,120.408944,0.10618201
C1A760,坪林交控,2025-10-20,24.94284,121.713442,0.06266205
C0F9N0,大里,2025-10-20,24.092464,120.701378,0.1816146
C0SA90,達仁林場,2025-10-20,22.264347,120.823972,0.10909769
C1R290,石門山,2025-10-20,22.112611,120.756597,0.016683266
42HA10,萬大發電廠,2025-10-20,23.978875,121.139639,0.1342997
C0R890,山海,2025-10-20,21.9878,120.7091,0.011691456
C0T9A0,月眉山,2025-10-20,23.809928,121.539828,0.19877
C0AC70,信義,2025-10-20,25.037822,121.564597,0.032386154
C0K560,棋山,2025-10-20,23.68645,120.603417,0.18077461
C2FB50,出雲,2025-10-20,24.206469,120.902794,0.11338034
C1Z240,中平林道,2025-10-20,23.42115,121.26763,0.105931975
U2H480,溪頭,2025-10-20,23.670306,120.798194,0.06733885
C0M880,好美里,2025-10-20,23.3364,120.138,0.12328279
C0T9E0,大坑,2025-10-20,23.880628,121.581981,0.23424838
C0K530,臺西,2025-10-20,23.701547,120.197559,0.10405548
C1E900,國一N128K,2025-10-20,24.560997,120.844186,0.19193764
C0AJ50,水湳洞,2025-10-20,25.123695,121.862238,0.04765339
C0AI20,白沙灣,2025-10-20,25.283128,121.519058,0.041158207
C2V310,美濃,2025-10-20,22.898792,120.51907,0.10195183
C0A860,大坪,2025-10-20,25.165914,121.632969,0.08039165
C1U850,觀音海岸,2025-10-20,24.38319,121.77856,0.39222917
C2K610,草嶺石壁,2025-10-20,23.602469,120.707731,0.2938283
C0U950,鶯子嶺,2025-10-20,24.89754,121.79244,0.055460885
C0O900,善化,2025-10-20,23.112883,120.297219,0.09743941
C0K550,蔦松,2025-10-20,23.514319,120.229736,0.09899901
E2P980,林試六龜中心,2025-10-20,22.991703,120.645722,0.12427617
C0E590,通霄,2025-10-20,24.471892,120.704622,0.14331463
C1I310,西巒,2025-10-20,23.754486,120.883956,0.11142484
C0A550,泰平,2025-10-20,24.971197,121.823711,0.11132485
C0I360,水里,2025-10-20,23.812553,120.849792,0.13748546
C0R830,高士,2025-10-20,22.121825,120.836781,0.02435911
C1I101,溪頭,2025-10-20,23.661789,120.807647,0.12434551
C0AJ20,野柳,2025-10-20,25.20703,121.690021,0.04210118
C0B060,暖暖,2025-10-20,25.0957,121.7403,0.046191663
C1H920,長豐,2025-10-20,24.102039,120.879897,0.25327948
C0V360,內門,2025-10-20,22.975481,120.466769,0.10973866
C0R850,林邊,2025-10-20,22.4634,120.5339,0.18831103
C0E930,龍鳳,2025-10-20,24.700034,120.859125,0.20369083
C0U910,冬山,2025-10-20,24.63373,121.7937,0.04209722
C1E721,泰安,2025-10-20,24.489017,120.968036,0.40033087
82H320,茶改中部分場,2025-10-20,23.875611,120.913583,0.21455665
C0M750,布袋,2025-10-20,23.380878,120.167789,0.1227338
C1S860,利嘉,2025-10-20,22.809417,121.050528,0.29380104
E2S980,林試太麻里1,2025-10-20,22.598922,120.980044,0.1141126
C0X170,關廟,2025-10-20,22.963017,120.327797,0.11932957
C0V720,林園,2025-10-20,22.507747,120.394511,0.10448225
C1I510,線浸林道,2025-10-20,23.761508,120.832956,0.3082797
C0D690,外湖,2025-10-20,24.917735,120.968711,0.09994976
C0C750,新興坑尾,2025-10-20,25.0061,121.0971,0.12017761
B2Q810,畜試南區分所,2025-10-20,21.945583,120.802167,0.0085746115
C0S790,金崙,2025-10-20,22.538122,120.966875,0.13776988
C0AH90,福山植物園,2025-10-20,24.760717,121.58135,0.118090026
C0I540,奇萊稜線,2025-10-20,24.109231,121.326456,0.00088687794
C0M850,表湖,2025-10-20,23.24186,120.64166,0.6104992
C0S770,大溪山,2025-10-20,22.478475,120.943325,0.18366213
C0AG80,中和,2025-10-20,24.991622,121.491792,0.046726435
C0T790,大禹嶺,2025-10-20,24.186117,121.316086,0.0035655028
C0T9B0,水源,2025-10-20,23.991861,121.537169,0.4243883
C0R840,牡丹池山,2025-10-20,22.168389,120.841225,0.10819295
C1I131,桶頭,2025-10-20,23.641944,120.654117,0.20828016
CAL110,布袋國中,2025-10-20,23.35893,120.18026,0.1304641
467571,新竹,2025-10-20,24.827853,121.014219,0.14499138
C0Z290,赤柯山,2025-10-20,23.36893,121.38293,0.0658843
C0X280,將軍,2025-10-20,23.214999,120.13577,0.114696026
C0S690,太麻里,2025-10-20,22.60902,120.98533,0.58125883
C0U880,北關,2025-10-20,24.9072,121.8734,0.051098306
C0G810,埔心,2025-10-20,23.947633,120.525456,0.116354935
C0U970,大福,2025-10-20,24.80064,121.81389,0.033388175
C2H9N0,仁愛東眼,2025-10-20,24.026875,121.1205,0.43177724
C1E670,南礦,2025-10-20,24.538278,121.002836,0.09555835
C0M520,東後寮,2025-10-20,23.369908,120.248065,0.13206051
C1E461,松安,2025-10-20,24.397972,120.986022,0.21839155
C2N160,西拉雅風管處,2025-10-20,23.189481,120.335297,0.10424801
C2M970,碧湖,2025-10-20,23.568632,120.624165,0.2816602
C0A640,石碇,2025-10-20,24.993969,121.662917,0.057403486
E2S960,林試太麻里2,2025-10-20,22.598,120.99775,0.0880955
C0F9Y0,桃山,2025-10-20,24.432739,121.303808,0.0010707445
C1I020,萬大,2025-10-20,23.979817,121.132261,0.06633278
C0U940,羅東,2025-10-20,24.68184,121.74934,0.031371236
C0M650,朴子,2025-10-20,23.43463,120.23902,0.11146585
C1I500,大尖山,2025-10-20,23.858572,120.994889,0.060409848
C0FB40,中橫21.6k,2025-10-20,24.2499,121.1455,0.06560907
C0G820,田尾,2025-10-20,23.901669,120.509389,0.116573684
E2K600,四湖植物園,2025-10-20,23.676986,120.163433,0.1124193
C0S730,綠島,2025-10-20,22.6672,121.47533,0.09047688
12Q970,東港工作站,2025-10-20,22.479997,120.466058,0.18526717
C0E430,南庄,2025-10-20,24.601775,121.000214,0.19993041
C1TA00,太魯閣,2025-10-20,24.15773,121.6236,0.17381498
466920,臺北,2025-10-20,25.037658,121.514853,0.032346506
C0R600,舊泰武,2025-10-20,22.588194,120.664944,0.3169356
C1I260,北坑,2025-10-20,23.9246,121.006903,0.24234095
466910,鞍部,2025-10-20,25.182586,121.529731,0.15999775
C1I230,九份二山,2025-10-20,23.961944,120.845,0.28016576
C2A660,瑞芳,2025-10-20,25.113169,121.801147,0.05185856
C0R270,琉球嶼,2025-10-20,22.332244,120.362236,0.14494772
C1T990,高寮,2025-10-20,23.394239,121.356808,0.16497575
C0G620,芬園,2025-10-20,24.015678,120.6213,0.17278087
C1Z140,荖溪,2025-10-20,23.890575,121.45964,0.094246164
C1I201,中心崙,2025-10-20,23.728722,120.712097,0.29423252
C1I400,凌霄,2025-10-20,24.018778,121.004456,0.39963832
C1M640,十字,2025-10-20,23.492153,120.753683,0.5130937
G2P820,農試鳳山分所,2025-10-20,22.646611,120.356083,0.12725434
C0Z270,蕃薯寮,2025-10-20,23.73835,121.540108,0.25070855
C0FB10,出雲山苗圃,2025-10-20,24.23105,120.90475,0.15468663
C0F9Q0,外埔,2025-10-20,24.347817,120.705686,0.15643589
C0K580,高鐵雲林,2025-10-20,23.737456,120.417944,0.10466307
C2I090,鳳凰,2025-10-20,23.728081,120.787347,0.19028434
C0U990,員山,2025-10-20,24.74435,121.72247,0.031287123
C0V770,大社,2025-10-20,22.730306,120.346639,0.11418522
C0X120,麻豆,2025-10-20,23.183289,120.248611,0.116467945
C0C670,龍潭,2025-10-20,24.870056,121.221389,0.19593412
C0D680,香山濕地,2025-10-20,24.783581,120.914988,0.14564759
C0S980,勝林山,2025-10-20,22.430439,120.8938,0.08887586
C0V730,大寮,2025-10-20,22.605614,120.395717,0.146025
C0R570,麟洛,2025-10-20,22.65078,120.52719,0.08791615
C2M930,石卓,2025-10-20,23.478744,120.702264,0.51167166
C0G9B0,和美,2025-10-20,24.105169,120.492131,0.15693763
CAG100,王功漁港,2025-10-20,23.96824,120.32586,0.111864194
C0X290,北門,2025-10-20,23.267772,120.125481,0.11420779
C2F930,大甲,2025-10-20,24.347667,120.640403,0.18124509
C0D650,湖口,2025-10-20,24.904794,121.043628,0.11552452
C0E420,竹南,2025-10-20,24.708978,120.888897,0.22067414
C0U780,五結,2025-10-20,24.68637,121.79794,0.031163283
C1I250,鯉潭,2025-10-20,23.961922,120.991131,0.29779506
C0R130,阿禮,2025-10-20,22.742908,120.743678,0.11155009
C0X100,臺南市北區,2025-10-20,23.010394,120.194228,0.117551014
C0S920,金峰嘉蘭,2025-10-20,22.594789,120.960825,0.114658415
C0V490,新興,2025-10-20,22.627422,120.298803,0.13358562
C0F9K0,大安,2025-10-20,24.345061,120.588025,0.14780468
467290,古坑,2025-10-20,23.633639,120.551889,0.17722106
C2E970,八甲,2025-10-20,24.535811,120.795983,0.2724075
C0V440,鳳山,2025-10-20,22.646653,120.356122,0.12725434
C1T940,大觀,2025-10-20,23.714206,121.373133,0.18929274
C0E740,造橋,2025-10-20,24.637056,120.864778,0.19609274
C0R100,尾寮山,2025-10-20,22.833111,120.683889,0.090793334
A2K630,臺大雲林校區,2025-10-20,23.730628,120.423903,0.104659356
467990,馬祖,2025-10-20,26.169467,119.923158,0.021843381
C0D580,寶山,2025-10-20,24.735006,121.025192,0.17811841
E2P990,林試扇平站,2025-10-20,22.9677,120.6857,0.45759898
C0AI30,三重,2025-10-20,25.057328,121.500629,0.03211355
C0AH00,汐止,2025-10-20,25.066881,121.658778,0.032346506
C1Z040,立山,2025-10-20,23.443356,121.327375,0.1559016
466881,新北,2025-10-20,24.959207,121.525196,0.047493994
C0W130,花嶼,2025-10-20,23.40007,119.32276,0.09830937
C0A950,鼻頭角,2025-10-20,25.129036,121.923372,0.10315038
C0K470,林內,2025-10-20,23.748675,120.609642,0.16778493
C2F990,摩天嶺,2025-10-20,24.322458,120.936819,0.13079806
82C160,茶改場,2025-10-20,24.908472,121.185333,0.11671405
C0Z320,清水林道,2025-10-20,23.27125,121.188272,0.18455167
C0R760,南仁湖,2025-10-20,22.084681,120.863353,0.016940776
C0M670,大林,2025-10-20,23.600616,120.45841,0.121054806
C0M800,茶山,2025-10-20,23.299075,120.664767,0.24821086
C0A9C0,天母,2025-10-20,25.117494,121.537169,0.036803074
72K220,南改斗南分場,2025-10-20,23.634556,120.477333,0.1424876
72AI40,桃改樹林分場,2025-10-20,24.944503,121.386972,0.060179006
C0S910,蘭嶼燈塔,2025-10-20,22.081197,121.503117,0.012362401
C0B050,八斗子,2025-10-20,25.144754,121.79167,0.04685354
C0U900,內城,2025-10-20,24.71813,121.68766,0.03191469
C0X320,柳營,2025-10-20,23.253328,120.375253,0.09424863
C0M790,新港,2025-10-20,23.553269,120.345728,0.09564802
C0F9T0,西屯,2025-10-20,24.179494,120.641275,0.17891377
C0E950,松安,2025-10-20,24.39792,120.98599,0.21839155
C0SA30,都歷,2025-10-20,23.020333,121.323642,0.14822698
C0C620,蘆竹,2025-10-20,25.084275,121.265767,0.051423535
C0R730,大坪頂,2025-10-20,22.024633,120.69355,0.01105092
C0AJ40,石門,2025-10-20,25.273672,121.601198,0.04779351
C0E750,苗栗,2025-10-20,24.564569,120.824575,0.18795379
C0T870,鯉魚潭,2025-10-20,23.935639,121.508944,0.25717682
C1V170,排雲,2025-10-20,23.463619,120.954147,0.00050030276
C2H950,中寮,2025-10-20,23.884447,120.766406,0.19383968
C0R350,貓鼻頭,2025-10-20,21.921774,120.7358,0.008942032
C0V660,岡山,2025-10-20,22.797078,120.294958,0.10973598
C1H941,雙冬,2025-10-20,23.967378,120.802189,0.24397726
C0AJ70,田寮,2025-10-20,25.2698,121.4886,0.04094699
C0AI00,五股,2025-10-20,25.07445,121.42728,0.09464985
C0Z280,德武,2025-10-20,23.47426,121.41071,0.20410514
C0R700,枋山,2025-10-20,22.246844,120.661086,0.10655855
C0C460,復興,2025-10-20,24.820208,121.352281,0.20888977
E2H360,蓮華池,2025-10-20,23.918333,120.885278,0.24323562
C0M640,中埔,2025-10-20,23.42538,120.5229,0.12405762
C0W140,金沙,2025-10-20,24.488292,118.408778,0.09479583
C2A540,四堵,2025-10-20,24.8926,121.745736,0.1079638
C0ACA0,新莊,2025-10-20,25.051478,121.446756,0.038704917
C0R220,潮州,2025-10-20,22.534361,120.54,0.1848541
U2HA40,臺大內茅埔,2025-10-20,23.689722,120.851117,0.1895618
467490,臺中,2025-10-20,24.145736,120.684075,0.19871001
C0UB60,明池,2025-10-20,24.650688,121.475277,0.04867124
C0U960,翠峰湖,2025-10-20,24.510856,121.608044,0.08085223
E2HA20,林試畢祿溪站,2025-10-20,24.226944,121.308522,0.04553535
C0V890,前鎮,2025-10-20,22.5718,120.3117,0.13175987
C1F941,雪嶺,2025-10-20,24.280586,121.026642,0.005003588
C2H9E0,國姓南港,2025-10-20,23.911108,120.846556,0.0749551
C0AC80,文山,2025-10-20,25.00235,121.575728,0.048624277
C0F9R0,龍井,2025-10-20,24.184536,120.528972,0.14353086
C0M760,民雄,2025-10-20,23.551754,120.428457,0.11863937
C0UA40,西德山,2025-10-20,24.560647,121.752608,0.07273118
C1T920,中興,2025-10-20,23.769503,121.498653,0.19018409
C0D550,雪霸,2025-10-20,24.526972,121.11605,0.23479307
C2F860,梨山,2025-10-20,24.247522,121.243669,0.038338613
C0R320,車城,2025-10-20,22.0744,120.716247,0.014643702
C1S870,南美山,2025-10-20,23.15025,121.382333,0.2735975
C0B020,基隆嶼,2025-10-20,25.19141,121.78391,0.05825596
C1U501,牛鬥,2025-10-20,24.637836,121.573656,0.055049833
C0M730,嘉義市東區,2025-10-20,23.457673,120.460531,0.1021516
C0S700,知本,2025-10-20,22.684866,121.005642,0.35177457
C1N001,沙崙,2025-10-20,22.935472,120.309406,0.115935795
C0V760,橋頭,2025-10-20,22.757806,120.30575,0.11217977
C0G960,福寶,2025-10-20,24.0443,120.3814,0.15465051
C0X210,白河,2025-10-20,23.347466,120.414427,0.09823466
C0S810,東河,2025-10-20,22.972672,121.303986,0.09607035
C2R170,屏東,2025-10-20,22.66027,120.49403,0.08739946
C0R670,楓港,2025-10-20,22.190131,120.692156,0.0438427
C0FA50,霧峰,2025-10-20,24.0419,120.6995,0.15659735
C0UB10,蘇澳,2025-10-20,24.5969,121.8571,0.06284323
C0G950,防潮門,2025-10-20,24.1835,120.4871,0.14191046
C0M740,六腳,2025-10-20,23.492871,120.290625,0.106780045
C1R250,力里,2025-10-20,22.428117,120.629228,0.22317061
C0K330,虎尾,2025-10-20,23.719183,120.442036,0.10566468
C2FA00,烏石坑,2025-10-20,24.273503,120.947617,0.1355638
C0V620,永安,2025-10-20,22.82315,120.236856,0.10882522
C1I330,楓樹林,2025-10-20,23.986803,121.076117,0.1232595
C0W200,湖西,2025-10-20,23.596314,119.67275,0.2412726
72Q010,高雄農改場,2025-10-20,22.709333,120.525889,0.11432874
C0SA40,瑞和,2025-10-20,22.974361,121.156697,0.3264518
C0C680,龜山,2025-10-20,25.02846,121.38656,0.060359206
C2V260,月眉,2025-10-20,22.971003,120.539853,0.109140426
C0V450,鳳森,2025-10-20,22.545064,120.392592,0.121481374
C0FA90,小雪山林道,2025-10-20,24.29515,121.03651,0.0017809592
C0U720,南山,2025-10-20,24.43742,121.38167,0.05829934
A2N290,臺南蘭花園區,2025-10-20,23.340258,120.379661,0.10317989
C0R560,新園,2025-10-20,22.5434,120.461558,0.10448225
C0U890,三星,2025-10-20,24.66812,121.65302,0.038084753
C1V300,御油山,2025-10-20,23.001983,120.715364,0.34182757
C0U600,礁溪,2025-10-20,24.817539,121.765608,0.036395565
C1T980,龍澗,2025-10-20,24.023289,121.411328,0.08993022
C0D670,海天一線,2025-10-20,24.831986,120.914438,0.16559853
C0SA00,歷坵,2025-10-20,22.520969,120.89185,0.2866034
C0M710,東石,2025-10-20,23.458927,120.15385,0.10804794
C0M780,鹿草,2025-10-20,23.41134,120.30835,0.113783084
C0U520,雙連埤,2025-10-20,24.753033,121.641303,0.26230237
C0B010,七堵,2025-10-20,25.094819,121.71713,0.044114545
C0R480,長治,2025-10-20,22.693128,120.542622,0.09103956
C1V830,國三S383K,2025-10-20,22.781967,120.426475,0.09565762
12Q980,恆春工作站,2025-10-20,22.079678,120.714425,0.0146552045
C1O940,東山服務區,2025-10-20,23.286016,120.398472,0.10649721
C1U840,東澳嶺,2025-10-20,24.5378,121.8485,0.1731778
C1D630,飛鳳山,2025-10-20,24.766464,121.119178,0.23752561
C0S940,石寧山,2025-10-20,23.223772,121.406639,0.15557261
C0K410,北港,2025-10-20,23.573957,120.292802,0.09057466
C2M620,瑞里,2025-10-20,23.545133,120.675197,0.5162131
C0SB70,小港漁港,2025-10-20,23.158558,121.400431,0.102805264
C2O950,安南,2025-10-20,23.076694,120.144861,0.105874665
C0F0E0,南湖圈谷,2025-10-20,24.363714,121.444667,0.0006353826
467610,成功,2025-10-20,23.097486,121.373428,0.08814954
C0G890,伸港,2025-10-20,24.148933,120.484403,0.13971968
C2E540,龍溪,2025-10-20,24.606489,120.783933,0.21438794
C1V200,梅山,2025-10-20,23.268447,120.823556,0.41438022
C0T9H0,加路蘭山,2025-10-20,23.682947,121.5274,0.23941529
C2O930,玉井,2025-10-20,23.126042,120.46055,0.10972198
C1F911,新伯公,2025-10-20,24.221361,120.841069,0.25824317
C0R490,九如,2025-10-20,22.7405,120.490503,0.113012046
C0X200,左鎮,2025-10-20,23.056758,120.408522,0.13822412
C0FA60,鞍馬山工作站,2025-10-20,24.267064,121.000793,0.031521864
C0SB50,叭嗡嗡,2025-10-20,23.047062,121.343223,0.10595684
C1F891,稍來,2025-10-20,24.265689,121.001142,0.039235234
72N240,七股研究中心,2025-10-20,23.081672,120.062894,0.10501606
C0C700,中壢,2025-10-20,24.977661,121.256375,0.101212695
C0M690,水上,2025-10-20,23.419734,120.388909,0.09728332
C0V690,鼓山,2025-10-20,22.623325,120.275575,0.13315487
C0O860,大內,2025-10-20,23.11885,120.36083,0.10110439
C0Z200,萬榮,2025-10-20,23.709219,121.420106,0.21516651
C0T9D0,和中,2025-10-20,24.26676,121.74103,0.103242725
C1O921,楠西,2025-10-20,23.183511,120.484083,0.09502617
C0AJ30,淡水觀海,2025-10-20,25.184591,121.408616,0.03824848
C0V810,左營,2025-10-20,22.67491,120.28491,0.122807704
C0UA70,桃源谷,2025-10-20,24.962606,121.888875,0.23740333
C0X130,官田,2025-10-20,23.193217,120.315422,0.10180128
C1H000,翠峰,2025-10-20,24.109397,121.205211,0.013266196
C0UA90,石城,2025-10-20,24.980444,121.951214,0.069719285
C1E681,南勢山,2025-10-20,24.421669,120.923831,0.12967955
C0A9F0,內湖,2025-10-20,25.079422,121.57545,0.032346506
C0K291,宜梧,2025-10-20,23.536281,120.169329,0.098552234
C1K540,口湖,2025-10-20,23.585344,120.180517,0.10567254
C0R780,滿州,2025-10-20,22.024403,120.839892,0.008480411
C0V870,文安,2025-10-20,22.8025,120.2164,0.107520156
C0U650,玉蘭,2025-10-20,24.675286,121.587061,0.22836918
C0R640,東港,2025-10-20,22.46247,120.44074,0.1850247
C0AJ80,板橋,2025-10-20,25.0107,121.4489,0.04647547
C0S660,下馬,2025-10-20,23.150427,121.070312,0.12256012
C1H9B1,阿眉,2025-10-20,24.1263,120.994672,0.23765826
C0UA20,多加屯,2025-10-20,24.368614,121.373189,0.00529676
C0E730,頭份,2025-10-20,24.688247,120.912206,0.21828087
72V140,高改旗南分場,2025-10-20,22.857861,120.516667,0.080612205
C0K480,莿桐,2025-10-20,23.761192,120.502372,0.11906223
C0U980,坪林石牌,2025-10-20,24.86478,121.77396,0.24905725
C0T900,西林,2025-10-20,23.8119,121.441458,0.24882151
C1I150,青雲,2025-10-20,23.793361,120.949378,0.22036307
467350,澎湖,2025-10-20,23.565503,119.563094,0.15808438
C0G800,埔鹽,2025-10-20,24.000394,120.431683,0.14443788
C0H960,草屯,2025-10-20,23.973672,120.68085,0.16833645
C1V780,多納林道,2025-10-20,22.888028,120.737917,0.24818109
C0E920,通霄漁港,2025-10-20,24.498589,120.673876,0.14442804
C0Z330,安通山,2025-10-20,23.290728,121.348528,0.28870833
C0AH10,永和,2025-10-20,25.01125,121.508111,0.04631952
C0AK10,太平里,2025-10-20,25.134937,121.364899,0.052321635
C2G640,鹿港,2025-10-20,24.0753,120.430481,0.15486054
C1E890,國三N149K,2025-10-20,24.463414,120.680019,0.17193711
C1R110,口社,2025-10-20,22.770111,120.645222,0.16822337
C1M870,國三N285K,2025-10-20,23.550319,120.505833,0.19553316
C1E480,鳳美,2025-10-20,24.554803,121.034747,0.1466873
C0M530,奮起湖,2025-10-20,23.493903,120.699253,0.5372812
C0C590,觀音,2025-10-20,25.027072,121.153317,0.1322308
C0T9M0,靜浦,2025-10-20,23.455167,121.495028,0.1586366
C2H9M0,發祥,2025-10-20,24.154094,121.164517,0.103980385
C0AI40,石牌,2025-10-20,25.115597,121.513139,0.036581058
C1F871,上谷關,2025-10-20,24.203483,121.018644,0.14389133
C2H9G0,百勝,2025-10-20,24.051142,120.909361,0.25015137
C0G880,二水,2025-10-20,23.810742,120.6173,0.1519068
C0R940,加祿堂,2025-10-20,22.3363,120.6217,0.07571852
C0W220,北竿,2025-10-20,26.220358,119.974881,0.020974984
C0O960,崎頂,2025-10-20,22.959547,120.369317,0.1382227
C0TA40,秀林,2025-10-20,24.302864,121.731144,0.10192421
C0S750,向陽,2025-10-20,23.248397,120.986133,0.018326467
C0T9F0,水璉,2025-10-20,23.797131,121.542514,0.26538646
C1M600,頭凍,2025-10-20,23.406364,120.603339,0.35687727
467660,臺東,2025-10-20,22.752211,121.154586,0.1598973
C1D380,新埔,2025-10-20,24.84745,121.03834,0.14765632
C2G980,田頭村,2025-10-20,23.8263,120.444175,0.106092304
C0V750,路竹,2025-10-20,22.854997,120.259439,0.12012257
C0N050,蚵寮,2025-10-20,23.301,120.1104,0.12308188
72M700,南改鹿草分場,2025-10-20,23.416869,120.283061,0.112119064
C1SA50,利嘉林道,2025-10-20,22.82325,121.009389,0.43733153
C0UB70,太平山中間站,2025-10-20,24.542003,121.513453,0.16892394
C0A940,金山,2025-10-20,25.223628,121.643967,0.042850327
C1V340,大津,2025-10-20,22.888322,120.645986,0.13640209
C0W180,七美,2025-10-20,23.219333,119.444892,0.19348526
C1F9C1,白冷,2025-10-20,24.182844,120.929889,0.2916623
K2E710,苗改生物防治研究中心,2025-10-20,24.422861,120.871833,0.19393826
C0N040,蘆竹溝,2025-10-20,23.2344,120.0961,0.1140873
C0D760,大坪苗圃,2025-10-20,24.5362,121.1108,0.37997076
C2W230,畜試所澎湖,2025-10-20,23.628342,119.513206,0.12366585
C0R880,後壁湖,2025-10-20,21.9457,120.7457,0.011691389
C1I280,埔中,2025-10-20,23.820778,120.642594,0.24260724
467790,墾丁雷達站,2025-10-20,21.948235,120.808028,0.008751187
C0W190,望安,2025-10-20,23.380564,119.494075,0.17850432
C0Z170,卓溪,2025-10-20,23.3443,121.3029,0.24516064
C0F850,東勢,2025-10-20,24.246428,120.833047,0.29943788
466900,淡水,2025-10-20,25.164889,121.448906,0.052383374
C0I370,魚池,2025-10-20,23.895703,120.94135,0.22966884
C0C630,大溪,2025-10-20,24.882853,121.265547,0.14065944
C0A520,山佳,2025-10-20,24.974944,121.402008,0.04547718
C0I110,竹山,2025-10-20,23.761225,120.688156,0.16433306
82H840,茶改南部分場,2025-10-20,23.762528,120.7405,0.18570496
C0G660,溪湖,2025-10-20,23.94835,120.479122,0.114850216
C1T800,洛韶,2025-10-20,24.204558,121.453956,0.05556095
C1T810,慈恩,2025-10-20,24.192044,121.388386,0.101909444
C1E451,象鼻,2025-10-20,24.368617,120.940228,0.1382507
C0AC60,三峽,2025-10-20,24.939025,121.369728,0.09967187
C0I490,萬大林道,2025-10-20,23.928228,121.091411,0.3950572
C1I290,豐丘,2025-10-20,23.668178,120.887417,0.42653024
C1I320,奧萬大,2025-10-20,23.952956,121.178556,0.1318503
C2M910,嘉義大學,2025-10-20,23.471325,120.485903,0.11475529
C0U770,南澳,2025-10-20,24.44935,121.81022,0.11256147
C0A980,社子,2025-10-20,25.109508,121.469681,0.05157391
C0V800,六龜,2025-10-20,22.997889,120.633583,0.1174918
C1G9D0,國一S218K,2025-10-20,23.890641,120.493253,0.10701292
C0E570,白沙屯,2025-10-20,24.549447,120.696803,0.21210769
C2F9A0,中竹林,2025-10-20,24.103556,120.751061,0.17820719
C0FA40,臺中電廠,2025-10-20,24.2146,120.4907,0.14394002
C2G9A0,畜試所彰化,2025-10-20,23.86045,120.557964,0.108071655
C0H9C0,合歡山,2025-10-20,24.143442,121.272547,0.00093969994
C0X060,下營,2025-10-20,23.22695,120.256261,0.11396281
G2M350,農試溪口農場,2025-10-20,23.58565,120.408111,0.11564409
C0U860,頭城,2025-10-20,24.85323,121.8308,0.036155205
C0R580,南州,2025-10-20,22.48591,120.50274,0.1850247
C0D430,峨眉,2025-10-20,24.6905,121.017189,0.16618192
C0G780,秀水,2025-10-20,24.03405,120.503869,0.13660535
72N100,臺南農改場,2025-10-20,23.0605,120.342194,0.1027017
C0S900,蘭嶼高中,2025-10-20,22.04909,121.51214,0.011227688
C1F9W0,德基,2025-10-20,24.254783,121.190261,0.13155857
C1Z120,壽豐,2025-10-20,23.870853,121.508081,0.17615877
C0W160,烏坵,2025-10-20,24.9944,119.44956,0.075101264
C1I240,外大坪,2025-10-20,23.958697,120.917931,0.29607013
C1I550,國六W023K,2025-10-20,23.979067,120.867742,0.1239789
C0R870,興海,2025-10-20,21.9752,120.8439,0.00857665
C0R140,瑪家,2025-10-20,22.682903,120.686639,0.39847597
C0A530,坪林,2025-10-20,24.938183,121.70975,0.07899144
C0X260,後壁,2025-10-20,23.366358,120.362326,0.10863925
C0Z230,和平,2025-10-20,24.30717,121.77007,0.10180222
C0G770,福興,2025-10-20,24.041289,120.437669,0.14374357
C0H9A0,神木村,2025-10-20,23.532742,120.843667,0.48345256
C0I460,南投,2025-10-20,23.911469,120.687331,0.1250907
C0I480,梅峰,2025-10-20,24.085272,121.173572,0.055051617
C1V570,吉東,2025-10-20,22.85422,120.5454,0.08465245
C2D740,屯原,2025-10-20,24.067969,121.209389,0.07660991
C2A560,福山,2025-10-20,24.776203,121.502811,0.10489513
C0AH30,五分山,2025-10-20,25.07125,121.780794,0.15099989
C0FA10,松柏,2025-10-20,24.429115,120.617482,0.16390295
72S200,東改班鳩分場,2025-10-20,22.829528,121.077694,0.37969705
72HA00,中改埔里分場,2025-10-20,23.903208,120.963364,0.24393739
C2H9W0,大坪頂農水,2025-10-20,24.043122,120.932781,0.2539174
C0C650,平鎮,2025-10-20,24.897503,121.214636,0.13638937
C0S930,延平,2025-10-20,22.902581,121.084058,0.3642729
C0UA60,樟樹山,2025-10-20,24.41393,121.78325,0.29074585
C1S670,摩天,2025-10-20,23.199503,121.027,0.2816451
C0V630,茄萣,2025-10-20,22.906642,120.182608,0.10913236
466940,基隆,2025-10-20,25.133314,121.740475,0.047035165
C0X050,東河,2025-10-20,23.296598,120.385608,0.10406868
C0R770,保力,2025-10-20,22.071122,120.764111,0.010469339
G2L020,農試嘉義分所,2025-10-20,23.485028,120.473806,0.14799908
C0X240,關子嶺,2025-10-20,23.331169,120.508025,0.1894542
C0I380,集集,2025-10-20,23.828206,120.801467,0.13145325
466990,花蓮,2025-10-20,23.975128,121.613275,0.1966471
C1V220,小關山,2025-10-20,23.154217,120.813603,0.23475283
C1F9G1,慶福山,2025-10-20,24.180853,120.848378,0.25239235
C0FB20,雪山橋,2025-10-20,24.23192,120.9786,0.076526545
C0Z250,瑞穗林道,2025-10-20,23.49284,121.30688,0.099239945
C0D590,新豐,2025-10-20,24.87068,120.97721,0.20341344
C0A870,五指山,2025-10-20,25.132153,121.608692,0.19651912
C0UA50,西帽山,2025-10-20,24.555361,121.802628,0.22200559
C0X160,仁德,2025-10-20,22.968258,120.257689,0.10776173
C1H971,六分寮,2025-10-20,23.92507,120.6378,0.14399934
C0W120,西嶼,2025-10-20,23.5626,119.468436,0.15580963
C0G650,員林,2025-10-20,23.946503,120.585597,0.121605776
C0AD50,鶯歌,2025-10-20,24.951533,121.346294,0.103685014
C2H9Q0,北東眼山,2025-10-20,24.120939,121.189303,0.05397305
C2H9T0,名間竹圍,2025-10-20,23.859914,120.637572,0.14285049
C0S990,山豬窟,2025-10-20,22.318619,120.857372,0.11501957
C0X190,安平,2025-10-20,22.993161,120.152181,0.117972896
C0K400,斗六,2025-10-20,23.720583,120.541127,0.14455429
12J990,口湖工作站,2025-10-20,23.589978,120.180394,0.10579807
C0O830,北寮,2025-10-20,23.079561,120.495008,0.10345297
C1D410,白蘭,2025-10-20,24.579364,121.079947,0.18798119
C0S970,加津林,2025-10-20,22.416211,120.926942,0.030382466
C0D700,關西,2025-10-20,24.7977,121.1732,0.13495605
C0M810,里佳,2025-10-20,23.389125,120.716647,0.46310624
C0U750,龜山島,2025-10-20,24.841667,121.953133,0.77620524
C0R810,內獅,2025-10-20,22.305064,120.642986,0.07541281
C1M390,龍美,2025-10-20,23.406728,120.654417,0.28185806
C2FB60,頭櫃山,2025-10-20,24.129842,120.858925,0.09749373
C1H840,國三N238K,2025-10-20,23.841008,120.707711,0.1183275
CAQ030,崎峰國小,2025-10-20,22.42565,120.49521,0.1850247
C2E520,大湖,2025-10-20,24.414939,120.870872,0.21929927
467530,阿里山,2025-10-20,23.508208,120.813242,0.0034343041
C1E691,南湖,2025-10-20,24.40135,120.837533,0.19224694
C0FA30,梧棲,2025-10-20,24.256003,120.523381,0.13208105
C1V231,高中,2025-10-20,23.134911,120.716711,0.6326089
C0AK30,硬漢嶺,2025-10-20,25.136097,121.426372,0.17917472
C0F9V0,新社,2025-10-20,24.200172,120.815806,0.28987208
C0H890,埔里,2025-10-20,23.972169,120.952425,0.18321194
C0R690,墾丁,2025-10-20,21.966756,120.810269,0.012113903
C0F0D0,審馬陣,2025-10-20,24.381675,121.4203,0.0009306867
C2W030,金門農試所,2025-10-20,24.448431,118.451786,0.10152647
C0R820,白鷺,2025-10-20,22.454275,120.666219,0.22485556
C0FB00,大雪山,2025-10-20,24.254668,121.007374,0.030609034
C1V190,南天池,2025-10-20,23.27403,120.91176,0.0073522236
C0E940,雪見,2025-10-20,24.42595,121.01347,0.27285028
K2E360,苗栗農改場,2025-10-20,24.495722,120.829111,0.18030675
CAJ050,海口故事園區,2025-10-20,23.57543,120.14121,0.10576534
C2H9D0,三隻寮,2025-10-20,24.093078,120.861578,0.25289518
C0O990,媽廟,2025-10-20,22.99175,120.293525,0.10525501
C0D480,打鐵坑,2025-10-20,24.849664,121.150789,0.19687423
C0Z220,和平林道,2025-10-20,24.343922,121.656317,0.5061386
C0TA10,花蓮漁港,2025-10-20,23.995322,121.638331,0.18982734
72C440,桃園農改場,2025-10-20,24.950944,121.030583,0.10674093
C1E711,馬拉邦山,2025-10-20,24.367306,120.901656,0.12008261
C0SB20,富岡,2025-10-20,22.792467,121.192669,0.14263913
C0D560,竹東,2025-10-20,24.767147,121.057881,0.1593944
C0F9U0,南屯,2025-10-20,24.137006,120.637969,0.17500451
C0M720,番路,2025-10-20,23.464657,120.554156,0.09338539
C0F0A0,雪山圈谷,2025-10-20,24.388594,121.236339,0.00066545367
C1A9N0,四十份,2025-10-20,24.934158,121.593283,0.15794292
C0U760,東澳,2025-10-20,24.52196,121.83318,0.12701689
C0X230,鹽水,2025-10-20,23.272621,120.247641,0.12454965
C2H9H0,苗改南投蜂場,2025-10-20,23.852589,120.693481,0.14482729
C0R950,萬隆國小,2025-10-20,22.507667,120.587817,0.20226873
467540,大武,2025-10-20,22.35572,120.90374,0.029164432
C0V370,古亭坑,2025-10-20,22.893178,120.401947,0.12802902
C1I340,新興橋,2025-10-20,23.563333,120.868728,0.16098544
C0SA80,土坂,2025-10-20,22.453108,120.887572,0.060609613
C0R160,鹽埔,2025-10-20,22.739558,120.530778,0.115099095
C0AC40,大屯山,2025-10-20,25.175675,121.522408,0.07273693
466850,五分山雷達站,2025-10-20,25.071182,121.781205,0.14413618
C2H9L0,馬烈霸,2025-10-20,24.1512,121.201772,0.07265654
C1AI50,國三N016K,2025-10-20,25.034164,121.619664,0.033224337
C1V600,藤枝,2025-10-20,23.071961,120.757042,0.517134
C1E601,南勢,2025-10-20,24.572486,120.734842,0.26029304
C0O980,新市,2025-10-20,23.061614,120.298197,0.09779272
C0K420,西螺,2025-10-20,23.800407,120.467394,0.10729234
C0Z050,佳心,2025-10-20,23.34567,121.21316,0.098095395
C0AD30,蘆洲,2025-10-20,25.086594,121.472331,0.032199413
C0V610,梓官,2025-10-20,22.760558,120.267211,0.1118339
K2F750,種苗改良場,2025-10-20,24.225972,120.800917,0.27820948
C0UA80,大溪漁港,2025-10-20,24.941801,121.902955,0.04701207
C1AI60,國一39K邊坡,2025-10-20,25.064361,121.383836,0.0551726
C0W150,金寧,2025-10-20,24.457703,118.328989,0.10300537
C0R960,內埔,2025-10-20,22.608483,120.570714,0.16747706
V2C250,八德合作社,2025-10-20,24.93775,121.266389,0.120425545
C2H9S0,龍南,2025-10-20,23.953536,120.833183,0.12348866
C0AH40,平等,2025-10-20,25.129142,121.577086,0.09895919
C0R540,佳冬,2025-10-20,22.419456,120.552375,0.11943248
466950,彭佳嶼,2025-10-20,25.627975,122.079744,0.16106649
C0A890,雙溪,2025-10-20,25.036003,121.864242,0.104488835
C0C480,桃園,2025-10-20,24.992425,121.323172,0.09677827
C0AH50,林口,2025-10-20,25.072181,121.38084,0.06400267
A2K360,水試臺西試驗場,2025-10-20,23.717231,120.190522,0.10326564
C2M960,外寮,2025-10-20,23.562643,120.665688,0.25938874
C0F9S0,烏日,2025-10-20,24.107058,120.624103,0.18791994
C0C490,八德,2025-10-20,24.928708,121.283289,0.1216135
C0R190,赤山,2025-10-20,22.592333,120.614306,0.17160372
C0T820,天祥,2025-10-20,24.179597,121.495639,0.34418565
C1F9E1,龍安,2025-10-20,24.1605,120.831961,0.3312358
C0V820,小林,2025-10-20,23.148408,120.63325,0.2856899
C2G870,芳苑,2025-10-20,23.922303,120.320025,0.11247361
C0E850,大河,2025-10-20,24.618069,120.948578,0.1954983
C1U670,寒溪,2025-10-20,24.634,121.71691,0.045838967
C0N020,城西,2025-10-20,23.0568,120.0956,0.11701409
C1Z110,三棧,2025-10-20,24.11557,121.60501,0.1992636
C0R280,檳榔,2025-10-20,22.076078,120.836777,0.011627046
C2H9J0,中台,2025-10-20,23.9996,120.938739,0.24040307
C0F9L0,后里,2025-10-20,24.310436,120.729725,0.19487724
467441,高雄,2025-10-20,22.730432,120.312516,0.11333881
C0Z180,新城,2025-10-20,24.040486,121.604878,0.20395063
C0D540,橫山,2025-10-20,24.71116,121.11693,0.2161981
C1D420,太閣南,2025-10-20,24.632808,121.160575,0.061339136
C1E770,公館,2025-10-20,24.526914,120.830806,0.16264498
CAN130,水試所海水繁養殖中心,2025-10-20,23.120802,120.07968,0.105436526
C1I430,翠華,2025-10-20,24.191961,121.224339,0.018437935
C1M400,菜瓜坪,2025-10-20,23.251928,120.576103,0.2288136
C0G730,二林,2025-10-20,23.903325,120.376081,0.12346244
72M360,南改義竹分場,2025-10-20,23.360694,120.279361,0.13238034
V2K620,麥寮合作社,2025-10-20,23.753836,120.294783,0.08394671
C0Z070,舞鶴,2025-10-20,23.46811,121.37407,0.21279627
C0B040,大武崙,2025-10-20,25.166676,121.706993,0.048360884
C1Z030,紅葉,2025-10-20,23.493119,121.338806,0.25380906
C1I050,丹大,2025-10-20,23.753747,121.141147,0.0059148665
C0I080,信義,2025-10-20,23.689694,120.851036,0.1895618
C0D750,樂山林道6k,2025-10-20,24.49999,121.08773,0.016219229
C2M920,朴子農改,2025-10-20,23.469889,120.259383,0.11122402
C2A880,福隆,2025-10-20,25.017842,121.942083,0.06906768
C0Z160,鳳林,2025-10-20,23.746114,121.453411,0.19566126
C0UB80,翠峰林道6K,2025-10-20,24.49773,121.568625,0.10493935
C0V210,復興,2025-10-20,23.222403,120.806089,0.6074496
C0H990,昆陽,2025-10-20,24.121322,121.273642,0.0015225399
C0R741,獅子,2025-10-20,22.202308,120.705236,0.03725041
C0S710,鹿野,2025-10-20,22.917711,121.122994,0.43945047
C0I530,小奇萊,2025-10-20,24.131764,121.295717,0.0013402719
C0FA70,大雪山埡口,2025-10-20,24.26867,121.03062,0.0052337246
C2K630,荷苞,2025-10-20,23.657717,120.595144,0.19119273
C0Z080,富源,2025-10-20,23.587642,121.378225,0.17602526
C0SB10,美和,2025-10-20,22.682078,121.060236,0.11097097
C2K620,馬光農場,2025-10-20,23.721453,120.378864,0.10355355
C1I140,卡奈托灣,2025-10-20,23.754364,121.087872,0.31443068
C0I520,玉山風口,2025-10-20,23.470489,120.955994,0.00044811823
C1G691,下水埔,2025-10-20,23.816114,120.5676,0.12151168
C0X110,臺南市南區,2025-10-20,22.961189,120.188378,0.10728994
C0V680,仁武,2025-10-20,22.701083,120.347722,0.12373023
C2G840,北斗,2025-10-20,23.877586,120.514222,0.107702084
C0R900,竹坑,2025-10-20,22.1385,120.7022,0.05540389
C0K250,崙背,2025-10-20,23.75555,120.318925,0.084547155
C0G860,社頭,2025-10-20,23.897647,120.5862,0.11688088
C0X150,安定,2025-10-20,23.102614,120.227839,0.10792936
C0R590,里港,2025-10-20,22.77919,120.49459,0.076519415
C0E610,馬都安,2025-10-20,24.451272,120.930192,0.17462647
C0E550,明德,2025-10-20,24.583486,120.885411,0.19624412
C0R150,三地門,2025-10-20,22.709889,120.639944,0.16387445
C0G910,花壇,2025-10-20,24.032076,120.549461,0.1395236
C1D400,鳥嘴山,2025-10-20,24.71909,121.28387,0.16990398
C0K500,元長,2025-10-20,23.64981,120.315024,0.08701133
C0F0B0,石岡,2025-10-20,24.276061,120.777644,0.20488322
C2V250,甲仙,2025-10-20,23.080106,120.591758,0.12173269
C0SA20,金崙山,2025-10-20,22.567419,120.959667,0.16015579
C0V350,溪埔,2025-10-20,22.738578,120.446797,0.075840145
C0M660,溪口,2025-10-20,23.604131,120.403569,0.1158595
C1S880,壽卡,2025-10-20,22.238911,120.858903,0.10993572
72D680,桃改新埔分場,2025-10-20,24.834444,121.066111,0.14438242
