站號,站名,日期,lat,lon,BLBTSLS
C0R710,龍磐,2025-03-18,21.931672,120.838942,0.888217
C1F9D1,白毛台,2025-03-18,24.158325,120.886933,1.4455742e-09
C0G940,竹塘,2025-03-18,23.848253,120.386764,6.829038e-09
467590,恆春,2025-03-18,22.003897,120.746339,0.9794654
C1O850,環湖,2025-03-18,23.148617,120.418633,1.4832354e-08
C0U710,太平山,2025-03-18,24.505486,121.525656,1.4751833e-08
C0E820,獅潭,2025-03-18,24.539133,120.920042,4.8349635e-09
C0V880,興達,2025-03-18,22.8778,120.2127,1.5709108e-09
C0S890,關山,2025-03-18,23.0395,121.175017,0.00015393902
C0SB30,新蘭,2025-03-18,22.869214,121.223228,0.017114107
C2R970,屏科大,2025-03-18,22.648275,120.619247,0.00017607686
K2F750,種苗繁殖,2025-03-18,24.225972,120.800917,1.274737e-09
C1Z130,銅門,2025-03-18,23.965694,121.492842,7.6744425e-07
C0AD40,土城,2025-03-18,24.973208,121.445169,3.3389355e-08
CAN140,六官養殖協會,2025-03-18,23.22881,120.29962,4.5446877e-06
C0X180,山上,2025-03-18,23.0757,120.363253,3.0645779e-06
C0F9Z0,雪山東峰,2025-03-18,24.388792,121.268675,2.2601718e-08
C1M480,獨立山,2025-03-18,23.537022,120.607797,1.3671159e-09
C0X220,學甲,2025-03-18,23.230367,120.182187,1.7085948e-06
467650,日月潭,2025-03-18,23.881325,120.90805,1.0626963e-09
C0K600,箔子寮,2025-03-18,23.6197,120.14,9.940212e-06
C0G830,埤頭,2025-03-18,23.866003,120.452806,1.3942368e-07
C0S950,七塊厝,2025-03-18,22.954453,121.229922,4.775585e-07
467110,金門,2025-03-18,24.407306,118.289281,9.981933e-09
C0AH80,深坑,2025-03-18,25.002703,121.628328,2.9077142e-08
467990,馬祖,2025-03-18,26.169269,119.923419,3.2249556e-08
C0A970,三貂角,2025-03-18,25.007606,122.002058,4.968624e-09
C2D730,寶山農場,2025-03-18,24.732444,120.976153,6.2040018e-09
C0K430,褒忠,2025-03-18,23.690938,120.303634,5.1624047e-09
467480,嘉義,2025-03-18,23.495925,120.432906,1.0704006e-08
C2E540,後龍,2025-03-18,24.606489,120.783933,4.077527e-08
C0V400,阿公店,2025-03-18,22.804194,120.355528,6.366046e-08
C0R440,大漢山,2025-03-18,22.405264,120.753181,1.5130784e-08
C0K280,四湖,2025-03-18,23.630414,120.227125,9.380011e-07
C1F9B1,桐林,2025-03-18,24.066172,120.735194,3.907602e-09
C2H9U0,鳳鵬,2025-03-18,23.763919,120.788061,6.0239014e-10
C0K390,土庫,2025-03-18,23.679029,120.395574,4.957804e-09
C1I450,望鄉山,2025-03-18,23.594153,120.944286,1.8798483e-08
C0E910,海埔,2025-03-18,24.648767,120.772435,4.4325596e-08
B2E890,畜試北區分所,2025-03-18,24.527806,120.770972,1.3982107e-08
C0R750,四林格山,2025-03-18,22.076989,120.802439,0.97901165
C0F0C0,中坑,2025-03-18,24.248517,120.903319,2.2207418e-09
C1I121,大鞍,2025-03-18,23.678381,120.760017,3.3915335e-09
72U480,花改蘭陽分場,2025-03-18,24.686306,121.716583,3.4925778e-09
C0A770,科教館,2025-03-18,25.096356,121.516507,1.8815951e-08
C0AJ60,六塊厝,2025-03-18,25.24,121.4481,2.438074e-08
C0R620,墾雷,2025-03-18,21.900836,120.855269,0.9464197
467420,永康,2025-03-18,23.038386,120.2367,1.4849559e-06
467300,東吉島,2025-03-18,23.25695,119.667467,0.99217904
C0I410,名間,2025-03-18,23.837053,120.701447,1.8246743e-09
A2C560,農工中心,2025-03-18,24.985917,121.239833,1.0475911e-08
C0V740,旗山,2025-03-18,22.888614,120.483597,7.5677e-08
C0Z061,玉里,2025-03-18,23.3215,121.339656,3.714486e-08
C0S840,南田,2025-03-18,22.279725,120.889208,0.99912447
C1I470,杉林溪,2025-03-18,23.639517,120.786444,4.1823816e-09
C1X040,東原,2025-03-18,23.291597,120.463822,1.5484111e-05
C0R660,枋寮,2025-03-18,22.367722,120.590647,8.4807165e-05
C1R120,上德文,2025-03-18,22.763272,120.704442,1.0090585e-08
C0K450,大埤,2025-03-18,23.646074,120.431537,5.9103775e-09
C0UA00,土場,2025-03-18,24.576533,121.495333,8.198895e-09
467080,宜蘭,2025-03-18,24.763975,121.756528,5.2224207e-09
C0N030,四草,2025-03-18,23.0235,120.1116,1.32407205e-08
C0V650,彌陀,2025-03-18,22.783806,120.246361,1.373837e-08
C0D660,新竹市東區,2025-03-18,24.798681,120.986942,1.4618089e-08
82S580,茶改東部分場,2025-03-18,22.907694,121.130139,0.0005749333
C0SB40,興隆,2025-03-18,22.913661,121.257469,0.01330303
C0C710,大溪永福,2025-03-18,24.892936,121.324975,1.28717845e-08
C0FA20,溫寮,2025-03-18,24.372177,120.583125,2.8349376e-07
C0V640,湖內,2025-03-18,22.887139,120.2445,1.5198341e-09
C0R910,下寮,2025-03-18,22.3929,120.5548,8.4853105e-05
C0Z020,明里,2025-03-18,23.208717,121.262342,5.0412428e-08
C0M770,嘉義梅山,2025-03-18,23.585398,120.555587,9.822787e-10
G2F820,農業試驗所,2025-03-18,24.031261,120.688133,4.1303685e-09
C0C660,楊梅,2025-03-18,24.912375,121.143047,1.1360264e-08
C1E511,新開,2025-03-18,24.347703,120.827019,3.854668e-08
G2F820,農試所(霧峰),2025-03-18,24.031261,120.688133,4.1303685e-09
C1I070,和社,2025-03-18,23.591131,120.888861,1.680242e-08
C2F000,大肚,2025-03-18,24.15295,120.572117,1.033368e-08
C1S850,豐南,2025-03-18,23.122139,121.262389,9.3535455e-08
C2A920,富貴角,2025-03-18,25.263783,121.565258,1.6291834e-08
CAH030,茶改場竹圍站,2025-03-18,23.860083,120.637528,8.092234e-10
C0T960,光復,2025-03-18,23.660694,121.424964,2.5728814e-06
C0F9M0,豐原,2025-03-18,24.254322,120.720692,3.8677164e-09
C0R720,旭海,2025-03-18,22.205403,120.887614,0.9876905
C0V710,苓雅,2025-03-18,22.622742,120.330669,1.3551338e-06
C0C740,觀音工業區,2025-03-18,25.064764,121.114856,1.0148783e-07
CAC040,拉拉山,2025-03-18,24.699317,121.427133,8.440846e-09
C0V790,萬山,2025-03-18,22.905944,120.688056,3.0944815e-05
U2HA30,臺大和社,2025-03-18,23.590856,120.888864,1.680242e-08
C0AJ90,澳底,2025-03-18,25.0552,121.9253,4.7148614e-09
C0Z100,東華,2025-03-18,23.89525,121.549833,1.0583387e-06
C0G970,三豐,2025-03-18,23.882,120.2895,0.011702949
V2K610,大庄合作社,2025-03-18,23.8068,120.367939,5.8996217e-09
C0V900,汕尾,2025-03-18,22.4782,120.4151,8.0056925e-05
C1R630,龍泉,2025-03-18,22.66701,120.59091,0.0003274844
C1AC50,關渡,2025-03-18,25.133486,121.469331,1.1527239e-08
C0F9I0,神岡,2025-03-18,24.272481,120.658314,5.764221e-09
C0K460,斗南,2025-03-18,23.678734,120.478359,5.1642757e-09
467410,臺南,2025-03-18,22.993239,120.204772,1.216435e-08
C2O810,曾文,2025-03-18,23.219681,120.497328,0.0002926993
467280,後龍,2025-03-18,24.648563,120.831834,2.9916784e-08
C1F9J1,清水林,2025-03-18,24.071242,120.820419,2.0443258e-09
C2A650,火燒寮,2025-03-18,25.002719,121.742892,5.063965e-09
466930,竹子湖,2025-03-18,25.162078,121.544547,4.3570423e-09
C1I220,樟湖,2025-03-18,23.905333,120.846983,1.222946e-09
C0I390,仁愛,2025-03-18,24.022122,121.132206,2.9917337e-09
C0Z300,東里,2025-03-18,23.26853,121.30547,8.786107e-08
C1V590,新發,2025-03-18,23.057019,120.646064,1.3288791e-08
C0K510,水林,2025-03-18,23.572924,120.24597,4.6807314e-09
72S590,東改賓朗果園,2025-03-18,22.813889,121.071278,5.509085e-05
82A750,茶改北部分場,2025-03-18,24.955778,121.631222,5.9327405e-09
C1A750,石碇服務區,2025-03-18,25.00872,121.646242,2.6560416e-08
C0X300,鹿寮,2025-03-18,23.386047,120.477331,5.093129e-07
G2AI50,關渡,2025-03-18,25.11575,121.492,2.3609088e-08
C0K590,雲林東勢,2025-03-18,23.674192,120.255721,6.1617245e-09
C0A570,桶後,2025-03-18,24.848222,121.597992,6.7354593e-09
C1S800,華源,2025-03-18,22.657883,121.02325,2.6819162e-05
C0G720,溪州,2025-03-18,23.851589,120.499093,8.9304955e-08
C1V160,達卡努瓦,2025-03-18,23.279811,120.705319,4.0824433e-09
C2M410,馬頭山,2025-03-18,23.324361,120.582017,3.6059428e-06
C0V850,蚵仔寮,2025-03-18,22.7256,120.2527,9.2040025e-08
C0S740,池上,2025-03-18,23.119628,121.209469,5.527567e-05
C1V390,尖山,2025-03-18,22.813153,120.367789,4.0879463e-08
C0AH70,松山,2025-03-18,25.04871,121.55042,1.8372615e-08
C0N010,鯤鯓國小,2025-03-18,23.1879,120.0889,1.0627033e-07
C0R550,新埤,2025-03-18,22.467947,120.582894,5.294259e-05
C0SA60,知本（水試所）,2025-03-18,22.702394,121.082761,0.00021448222
C0T9I0,豐濱,2025-03-18,23.583897,121.514806,2.3951957e-06
C0UB00,淡江大學蘭陽校園,2025-03-18,24.823239,121.730383,6.3332344e-09
C0W240,九宮,2025-03-18,24.423753,118.240186,9.97843e-09
C0T9N0,富里,2025-03-18,23.171639,121.249378,1.0498313e-06
U2HA50,臺大竹山,2025-03-18,23.756972,120.681556,1.0994455e-09
C0V840,鳳鼻頭,2025-03-18,22.5083,120.3591,1.3353142e-07
C0X140,西港,2025-03-18,23.125608,120.203108,1.404245e-06
72D080,桃改五峰分場,2025-03-18,24.612194,121.157167,3.2459295e-09
C2H9P0,伊拿谷,2025-03-18,23.963211,121.088264,9.737315e-10
C2H9F0,柑林,2025-03-18,24.018658,120.847072,4.478456e-09
C0TA20,加灣,2025-03-18,24.082025,121.608944,1.1757866e-06
C0V530,阿蓮,2025-03-18,22.883208,120.327508,1.936549e-08
C1O880,關山,2025-03-18,23.173397,120.594092,4.7891957e-05
C0E791,卓蘭,2025-03-18,24.3126,120.8244,1.35765275e-08
C1I030,武界,2025-03-18,23.913225,121.052483,9.616202e-10
C0R520,崁頂,2025-03-18,22.514781,120.506914,1.4360631e-05
C0R341,牡丹,2025-03-18,22.130036,120.792639,0.0005521846
C0R930,萬丹,2025-03-18,22.5885,120.4851,2.660508e-05
C0S760,紅石,2025-03-18,23.069131,121.126219,8.068735e-09
C1M610,石磐龍,2025-03-18,23.496606,120.663506,4.0250194e-09
C0UA10,鴛鴦湖,2025-03-18,24.590269,121.412228,5.5793885e-09
V2C260,八德蔬果,2025-03-18,24.978508,121.281819,1.0084659e-08
C0R800,丹路,2025-03-18,22.204481,120.750989,0.79901457
C0G920,永靖,2025-03-18,23.924703,120.547533,6.8889947e-09
C2M950,太和,2025-03-18,23.538372,120.702961,4.346219e-09
C1A630,下盆,2025-03-18,24.771003,121.538622,3.0263239e-09
B2N890,畜產試驗所,2025-03-18,23.058972,120.336406,8.245833e-06
C0UA30,白嶺,2025-03-18,24.527819,121.519031,7.817861e-09
C1V580,溪南(特生中心),2025-03-18,23.084972,120.788475,6.8277615e-09
C1T970,大農,2025-03-18,23.615233,121.413331,9.0917655e-07
E2S960,林試太麻里2,2025-03-18,22.598014,120.989761,0.0004343441
C0R650,竹田,2025-03-18,22.58486,120.54344,1.8311468e-05
C1H900,清流,2025-03-18,24.080775,120.962997,1.3686056e-09
C1C510,水尾,2025-03-18,24.940081,121.087161,3.135886e-08
C0F9X0,大雅(中科園區),2025-03-18,24.21528,120.62445,5.148068e-09
C0SB60,白守蓮,2025-03-18,23.126769,121.401914,0.18415056
C0O970,虎頭埤,2025-03-18,23.021375,120.347878,1.844537e-06
C0C730,中大臨海站,2025-03-18,24.966126,121.008581,5.054375e-08
C0X250,新營,2025-03-18,23.310689,120.316681,2.1756223e-06
C0V700,三民,2025-03-18,22.645017,120.311233,1.217846e-07
C0U870,大礁溪,2025-03-18,24.791042,121.675047,6.8558967e-09
C0E870,高鐵苗栗,2025-03-18,24.60725,120.826094,3.6362273e-08
A2K570,古坑花卉中心,2025-03-18,23.63353,120.55239,9.046483e-10
C0M860,新美,2025-03-18,23.338017,120.683169,1.2200995e-08
C1E701,八卦,2025-03-18,24.491756,120.927619,2.529664e-09
C0I420,國姓,2025-03-18,24.037803,120.855072,3.365654e-09
C2D720,關西工作站,2025-03-18,24.757275,121.184792,5.263421e-09
C0S960,香蘭,2025-03-18,22.587569,120.993375,0.00044042175
C0R260,春日,2025-03-18,22.370361,120.628306,3.2430802e-05
72G600,臺中農改場,2025-03-18,24.003028,120.534389,6.7547186e-09
C0Z210,瑞穗,2025-03-18,23.5239,121.39021,1.9438357e-06
C0M820,達邦,2025-03-18,23.453994,120.749517,5.427103e-09
C0V860,南寮,2025-03-18,22.7616,120.2339,9.498451e-08
C0G740,大城,2025-03-18,23.852487,120.320935,0.010816611
C0R920,塭仔,2025-03-18,22.4169,120.5197,8.831336e-05
C0R470,高樹,2025-03-18,22.826389,120.600806,0.00060630654
C0R680,佳樂水,2025-03-18,21.993578,120.861633,0.6474091
C1O870,大棟山,2025-03-18,23.31157,120.52226,4.2856e-09
C0D360,梅花,2025-03-18,24.678347,121.208558,2.3409272e-09
C0Z190,富世,2025-03-18,24.14743,121.6297,3.1595103e-08
C0AI10,屈尺,2025-03-18,24.92184,121.54475,1.7819275e-08
B2U990,畜試東區分所,2025-03-18,24.669039,121.832561,2.7904061e-09
C0SB80,長濱漁港,2025-03-18,23.313644,121.459994,2.1318363e-07
C0R240,來義,2025-03-18,22.527306,120.625111,3.7039313e-06
C0V910,大樹,2025-03-18,22.684645,120.432803,0.000505041
C1R610,西大武山,2025-03-18,22.617719,120.7322,1.4472799e-08
C0G900,線西,2025-03-18,24.143358,120.443536,2.9692801e-08
C0M700,竹崎,2025-03-18,23.526178,120.555508,3.0373573e-09
C2E880,三義,2025-03-18,24.405478,120.749819,7.3201742e-09
C0C720,竹圍,2025-03-18,25.112692,121.239824,2.3275405e-08
C0F9P0,清水,2025-03-18,24.312297,120.562242,1.13084155e-07
C0Z150,吉安光華,2025-03-18,23.930925,121.595153,3.3612912e-05
C1D640,外坪(五指山),2025-03-18,24.644447,121.090961,2.6625224e-09
C0F9O0,潭子,2025-03-18,24.213106,120.703933,4.186923e-09
C2H9R0,卓社,2025-03-18,23.887894,121.000086,2.317444e-09
72T250,花蓮農改場,2025-03-18,23.975222,121.563889,1.28959055e-05
C0E780,銅鑼,2025-03-18,24.489681,120.790853,8.148586e-09
C1T950,太安,2025-03-18,23.666719,121.370128,2.0039248e-09
C0E830,苑裡,2025-03-18,24.439714,120.653053,6.9939665e-06
467270,田中,2025-03-18,23.873803,120.581286,4.6000338e-07
C0SA10,檳榔四格山,2025-03-18,22.810031,121.109308,2.9395972e-06
C1T830,布洛灣,2025-03-18,24.17184,121.57127,1.1806723e-08
C0F970,大坑,2025-03-18,24.173142,120.722289,3.670621e-09
C1U920,思源,2025-03-18,24.393125,121.347214,1.24353745e-08
C0A931,三和,2025-03-18,25.233153,121.595236,1.0725505e-08
C0I010,廬山,2025-03-18,24.033311,121.181808,3.7888155e-09
C2M940,日野賀,2025-03-18,23.434056,120.727169,4.4960697e-09
C0R860,鼻頭,2025-03-18,22.1043,120.8979,0.99992245
C0UB20,壯圍,2025-03-18,24.7359,121.8163,3.4650018e-09
C0R790,九棚,2025-03-18,22.14195,120.889281,0.95664346
C0W110,東莒,2025-03-18,25.9652,119.98069,1.8545207e-07
C1U930,粉鳥林,2025-03-18,24.497088,121.842479,3.226732e-09
C1I211,蘆竹湳,2025-03-18,23.934019,120.811994,1.2728085e-08
C0S830,長濱,2025-03-18,23.286817,121.411975,2.4336648e-08
C1F9F1,伯公龍,2025-03-18,24.272392,120.849047,1.5016176e-09
C0E810,西湖,2025-03-18,24.562947,120.7485,0.15137738
C1I440,新高口,2025-03-18,23.478744,120.878939,1.270754e-08
C0O840,王爺宮,2025-03-18,23.222064,120.40085,0.0010214846
C0T9G0,鳳林山,2025-03-18,23.735269,121.420131,2.1599314e-08
C0X080,佳里,2025-03-18,23.173039,120.145086,1.0656179e-07
C0FB70,大甲溪埔,2025-03-18,24.370625,120.620067,1.8540096e-07
C0Z310,清水斷崖,2025-03-18,24.218294,121.689142,1.3982454e-08
C0M680,太保,2025-03-18,23.455062,120.331455,1.7155957e-08
C1S820,金峰,2025-03-18,22.590969,120.933236,1.0660186e-05
C0AD10,八里,2025-03-18,25.150211,121.403947,2.3225205e-08
C2K240,草嶺,2025-03-18,23.59555,120.693461,2.7690605e-09
C1SA70,都蘭,2025-03-18,22.87794,121.226881,0.0132954335
C0K440,二崙,2025-03-18,23.772797,120.408944,2.8853284e-08
C1A760,坪林交控,2025-03-18,24.94284,121.713442,5.529353e-09
C0F9N0,大里,2025-03-18,24.092464,120.701378,1.2484617e-08
C0SA90,達仁林場,2025-03-18,22.264347,120.823972,5.7029183e-06
C1R290,石門山,2025-03-18,22.112611,120.756597,0.9981453
42HA10,萬大發電廠,2025-03-18,23.978875,121.139639,1.1734024e-09
C0R890,山海,2025-03-18,21.9878,120.7091,0.7947539
C0T9A0,月眉山,2025-03-18,23.809928,121.539828,2.4357593e-08
C0AC70,信義,2025-03-18,25.037822,121.564597,1.8434008e-08
C0K560,棋山,2025-03-18,23.68645,120.603417,8.718622e-10
C2FB50,出雲,2025-03-18,24.206469,120.902794,1.0055305e-09
C1Z240,中平林道,2025-03-18,23.42115,121.26763,2.4029814e-09
U2H480,溪頭,2025-03-18,23.670306,120.798194,1.489915e-09
C0M880,好美里,2025-03-18,23.3364,120.138,3.7856894e-06
C0T9E0,大坑,2025-03-18,23.880628,121.581981,3.5717914e-08
C0K530,臺西,2025-03-18,23.701547,120.197559,2.1820158e-06
C1E900,國一N128K,2025-03-18,24.560997,120.844186,1.2920832e-08
C0AJ50,水湳洞,2025-03-18,25.123695,121.862238,1.0796213e-08
C0AI20,白沙灣,2025-03-18,25.283128,121.519058,2.3205722e-08
C0A860,大坪,2025-03-18,25.165914,121.632969,3.7120196e-09
C1U850,觀音海岸,2025-03-18,24.38319,121.77856,4.052814e-09
C2K610,草嶺石壁,2025-03-18,23.602469,120.707731,2.8015572e-09
C0U950,鶯子嶺,2025-03-18,24.89754,121.79244,7.290607e-09
C0O900,善化,2025-03-18,23.112883,120.297219,1.715703e-05
C0K550,蔦松,2025-03-18,23.514319,120.229736,8.595925e-09
E2P980,林試六龜中心,2025-03-18,22.991703,120.645722,0.00011760085
C0E590,通霄,2025-03-18,24.471892,120.704622,0.0043098256
C1I310,西巒,2025-03-18,23.754486,120.883956,1.6315644e-09
C0A550,泰平,2025-03-18,24.971197,121.823711,4.765055e-09
C0I360,水里,2025-03-18,23.812553,120.849792,6.1922006e-10
C0R830,高士,2025-03-18,22.121825,120.836781,0.99694765
C1I101,溪頭,2025-03-18,23.661789,120.807647,5.30367e-09
C0AJ20,野柳,2025-03-18,25.20703,121.690021,1.2129806e-08
C0B060,暖暖,2025-03-18,25.0957,121.7403,1.5529654e-08
C1H920,長豐,2025-03-18,24.102039,120.879897,1.2760409e-09
C0V360,內門,2025-03-18,22.975481,120.466769,0.0003281394
C0R850,林邊,2025-03-18,22.4634,120.5339,7.4301715e-05
C0E930,龍鳳,2025-03-18,24.700034,120.859125,0.00028248728
C0U910,冬山,2025-03-18,24.63373,121.7937,2.7904061e-09
C1E721,泰安,2025-03-18,24.489017,120.968036,2.6660645e-09
82H320,茶改中部分場,2025-03-18,23.875611,120.913583,9.526784e-10
C0M750,布袋,2025-03-18,23.380878,120.167789,3.5073462e-08
C1S860,利嘉,2025-03-18,22.809417,121.050528,2.991604e-08
72C440,桃園農改,2025-03-18,24.950944,121.030583,4.4815085e-08
E2S980,林試太麻里1,2025-03-18,22.598922,120.980044,0.00015710936
C0X170,關廟,2025-03-18,22.963017,120.327797,2.2833214e-07
C0V720,林園,2025-03-18,22.507747,120.394511,3.2968648e-05
C1I510,線浸林道,2025-03-18,23.761508,120.832956,1.977849e-09
C0D690,外湖,2025-03-18,24.917735,120.968711,6.5210656e-08
C0C750,新興坑尾,2025-03-18,25.0061,121.0971,3.3822975e-08
B2Q810,畜試南區分所,2025-03-18,21.945583,120.802167,0.5957846
C0S790,金崙,2025-03-18,22.538122,120.966875,7.0646897e-06
C0AH90,福山植物園,2025-03-18,24.760717,121.58135,4.2920214e-09
C0I540,奇萊稜線,2025-03-18,24.109231,121.326456,2.313982e-08
C0M850,表湖,2025-03-18,23.24186,120.64166,3.0570195e-09
C0S770,大溪山,2025-03-18,22.478475,120.943325,1.3921401e-07
C0AG80,中和,2025-03-18,24.991622,121.491792,3.339031e-08
C0T790,大禹嶺,2025-03-18,24.186117,121.316086,1.6318765e-08
C0T9B0,水源,2025-03-18,23.991861,121.537169,4.309619e-08
C0R840,牡丹池山,2025-03-18,22.168389,120.841225,0.00020860048
C1I131,桶頭,2025-03-18,23.641944,120.654117,6.726533e-10
CAL110,布袋國中,2025-03-18,23.35893,120.18026,1.2666528e-07
467571,新竹,2025-03-18,24.827853,121.014219,2.2637916e-08
C0Z290,赤柯山,2025-03-18,23.36893,121.38293,1.5018447e-08
C0X280,將軍,2025-03-18,23.214999,120.13577,2.0848502e-06
C0S690,太麻里,2025-03-18,22.60902,120.98533,1.4557648e-07
C0U880,北關,2025-03-18,24.9072,121.8734,1.2229932e-08
C1H860,瑞岩,2025-03-18,24.123772,121.18345,5.470868e-09
C0G810,埔心,2025-03-18,23.947633,120.525456,7.1603337e-09
C0U970,大福,2025-03-18,24.80064,121.81389,5.320824e-09
C2H9N0,仁愛東眼,2025-03-18,24.026875,121.1205,3.4918983e-09
C1E670,南礦,2025-03-18,24.538278,121.002836,2.5074993e-09
C0M520,東後寮,2025-03-18,23.369908,120.248065,1.0238745e-07
C1E461,松安,2025-03-18,24.397972,120.986022,2.5503555e-09
72G600,臺中農改,2025-03-18,24.003028,120.534389,6.7547186e-09
C2N160,西拉雅風管處,2025-03-18,23.189481,120.335297,1.2015214e-06
C2M970,碧湖,2025-03-18,23.568632,120.624165,2.4170794e-09
C0A640,石碇,2025-03-18,24.993969,121.662917,1.3676616e-08
E2S960,林試太麻里2,2025-03-18,22.598,120.99775,0.0004971187
C0F9Y0,桃山,2025-03-18,24.432739,121.303808,2.1668637e-08
C1I020,萬大,2025-03-18,23.979817,121.132261,3.048152e-09
C0U940,羅東,2025-03-18,24.68184,121.74934,3.426685e-09
C0M650,朴子,2025-03-18,23.43463,120.23902,7.1813693e-09
C1I500,大尖山,2025-03-18,23.858572,120.994889,4.813157e-09
C0G820,田尾,2025-03-18,23.901669,120.509389,7.121652e-09
E2K600,四湖植物園,2025-03-18,23.676986,120.163433,9.3177607e-07
C0S730,綠島,2025-03-18,22.6672,121.47533,0.9997042
12Q970,東港工作站,2025-03-18,22.479997,120.466058,8.049941e-05
C0E430,南庄,2025-03-18,24.601775,121.000214,4.7462243e-09
C1TA00,太魯閣,2025-03-18,24.15773,121.6236,2.980225e-08
466920,臺北,2025-03-18,25.037658,121.514853,1.8372615e-08
C0R600,舊泰武,2025-03-18,22.588194,120.664944,6.6806223e-09
C1I260,北坑,2025-03-18,23.9246,121.006903,8.541354e-09
466910,鞍部,2025-03-18,25.182586,121.529731,5.9681966e-09
C1I230,九份二山,2025-03-18,23.961944,120.845,9.692012e-10
C2A660,瑞芳,2025-03-18,25.113169,121.801147,9.59124e-09
C0R270,琉球嶼,2025-03-18,22.332244,120.362236,5.6600015e-06
C1T990,高寮,2025-03-18,23.394239,121.356808,5.850962e-07
C0G620,芬園,2025-03-18,24.015678,120.6213,3.2346132e-09
C1Z140,荖溪,2025-03-18,23.890575,121.45964,2.3927925e-08
C1I201,中心崙,2025-03-18,23.728722,120.712097,7.41477e-10
C1I400,凌霄,2025-03-18,24.018778,121.004456,3.450782e-09
C1M640,十字,2025-03-18,23.492153,120.753683,3.9257775e-09
G2P820,農試鳳山分所,2025-03-18,22.646611,120.356083,8.56209e-08
C0Z270,蕃薯寮,2025-03-18,23.73835,121.540108,3.2580388e-08
C0F9Q0,外埔,2025-03-18,24.347817,120.705686,9.4863e-09
C0K580,高鐵雲林,2025-03-18,23.737456,120.417944,5.2781886e-09
C2I090,鳳凰,2025-03-18,23.728081,120.787347,9.1266217e-10
C0U990,員山,2025-03-18,24.74435,121.72247,3.479924e-09
C0V770,大社,2025-03-18,22.730306,120.346639,7.371303e-08
C0X120,麻豆,2025-03-18,23.183289,120.248611,2.195716e-06
C0C670,龍潭,2025-03-18,24.870056,121.221389,7.169134e-09
C0D680,香山濕地,2025-03-18,24.783581,120.914988,2.4196037e-08
C0S980,勝林山,2025-03-18,22.430439,120.8938,1.8839257e-08
C0V730,大寮,2025-03-18,22.605614,120.395717,0.00020793662
C0R570,麟洛,2025-03-18,22.65078,120.52719,0.0005537463
C2M930,石卓,2025-03-18,23.478744,120.702264,4.2727772e-09
C0G9B0,和美,2025-03-18,24.105169,120.492131,1.8539897e-08
CAG100,王功漁港,2025-03-18,23.96824,120.32586,0.031989083
C0X290,北門,2025-03-18,23.267772,120.125481,2.1047597e-06
C2F930,大甲,2025-03-18,24.347667,120.640403,7.1026776e-08
C0D650,湖口,2025-03-18,24.904794,121.043628,3.2249186e-08
C0E420,竹南,2025-03-18,24.708978,120.888897,2.2567343e-05
C0U780,五結,2025-03-18,24.68637,121.79794,3.4617913e-09
C1I250,鯉潭,2025-03-18,23.961922,120.991131,1.0004954e-09
C0R130,阿禮,2025-03-18,22.742908,120.743678,6.813984e-09
C0X100,臺南市北區,2025-03-18,23.010394,120.194228,1.8041673e-08
C0S920,金峰嘉蘭,2025-03-18,22.594789,120.960825,0.00013455198
C0V490,新興,2025-03-18,22.627422,120.298803,1.464834e-06
C0F9K0,大安,2025-03-18,24.345061,120.588025,2.072898e-07
72N100,臺南農改,2025-03-18,23.0605,120.342194,6.847399e-06
467290,古坑,2025-03-18,23.633639,120.551889,9.046483e-10
C2E970,八甲,2025-03-18,24.535811,120.795983,6.478639e-09
C0V440,鳳山,2025-03-18,22.646653,120.356122,8.56209e-08
C1T940,大觀,2025-03-18,23.714206,121.373133,2.3891896e-08
72T250,花蓮農改,2025-03-18,23.975222,121.563889,1.28959055e-05
C0E740,造橋,2025-03-18,24.637056,120.864778,3.2815446e-08
C0R100,尾寮山,2025-03-18,22.833111,120.683889,6.977316e-09
A2K630,臺大雲林校區,2025-03-18,23.730628,120.423903,5.223895e-09
C0D580,寶山,2025-03-18,24.735006,121.025192,4.5203783e-09
E2P990,林試扇平站,2025-03-18,22.9677,120.6857,1.4195658e-08
C0AI30,三重,2025-03-18,25.057328,121.500629,1.8815951e-08
C0AH00,汐止,2025-03-18,25.066881,121.658778,1.8372615e-08
C1Z040,立山,2025-03-18,23.443356,121.327375,3.5964014e-08
C0W130,花嶼,2025-03-18,23.40007,119.32276,0.9890701
C0A950,鼻頭角,2025-03-18,25.129036,121.923372,1.9418867e-07
C0K470,林內,2025-03-18,23.748675,120.609642,1.38133e-09
C2F990,摩天嶺,2025-03-18,24.322458,120.936819,9.711997e-10
82C160,茶改場,2025-03-18,24.908472,121.185333,1.01613695e-08
C0Z320,清水林道,2025-03-18,23.27125,121.188272,1.5601442e-08
C0R760,南仁湖,2025-03-18,22.084681,120.863353,0.99814427
C0M670,大林,2025-03-18,23.600616,120.45841,4.2389363e-09
C0M800,茶山,2025-03-18,23.299075,120.664767,3.2067848e-07
C0A9C0,天母,2025-03-18,25.117494,121.537169,1.3551535e-08
72K220,南改斗南分場,2025-03-18,23.634556,120.477333,5.0331606e-09
72AI40,桃改樹林分場,2025-03-18,24.944503,121.386972,2.206771e-08
C0S910,蘭嶼燈塔,2025-03-18,22.081197,121.503117,0.99586284
C0B050,八斗子,2025-03-18,25.144754,121.79167,1.1390443e-08
C0U900,內城,2025-03-18,24.71813,121.68766,3.4585246e-09
C0X320,柳營,2025-03-18,23.253328,120.375253,5.1935167e-08
C0M790,新港,2025-03-18,23.553269,120.345728,4.5942095e-09
C0F9T0,西屯,2025-03-18,24.179494,120.641275,4.165472e-09
C0SA30,都歷,2025-03-18,23.020333,121.323642,0.00473922
C0C620,蘆竹,2025-03-18,25.084275,121.265767,2.864852e-08
C0R730,大坪頂,2025-03-18,22.024633,120.69355,0.9998321
C0AJ40,石門,2025-03-18,25.273672,121.601198,1.7470253e-08
C0E750,苗栗,2025-03-18,24.564569,120.824575,1.3755624e-08
C0T870,鯉魚潭,2025-03-18,23.935639,121.508944,1.4359796e-06
C1V170,排雲,2025-03-18,23.463619,120.954147,2.6738727e-08
C2H950,中寮,2025-03-18,23.884447,120.766406,3.6945094e-09
C0R350,貓鼻頭,2025-03-18,21.921774,120.7358,0.7890533
C0V660,岡山,2025-03-18,22.797078,120.294958,1.3199921e-08
C1H941,雙冬,2025-03-18,23.967378,120.802189,6.9121198e-09
C0AJ70,田寮,2025-03-18,25.2698,121.4886,2.3627198e-08
C0AI00,五股,2025-03-18,25.07445,121.42728,8.495828e-09
C0Z280,德武,2025-03-18,23.47426,121.41071,3.806575e-07
C0R700,枋山,2025-03-18,22.246844,120.661086,0.48194322
C0C460,復興,2025-03-18,24.820208,121.352281,4.968975e-09
E2H360,蓮華池,2025-03-18,23.918333,120.885278,4.0463335e-09
C0M640,中埔,2025-03-18,23.42538,120.5229,1.0527147e-08
C0W140,金沙,2025-03-18,24.488292,118.408778,8.422385e-09
C2A540,四堵,2025-03-18,24.8926,121.745736,3.8031365e-09
C0ACA0,新莊,2025-03-18,25.051478,121.446756,1.9217353e-08
C0R220,潮州,2025-03-18,22.534361,120.54,1.3570177e-05
U2HA40,臺大內茅埔,2025-03-18,23.689722,120.851117,1.2250518e-09
467490,臺中,2025-03-18,24.145736,120.684075,4.7841975e-09
C0U960,翠峰湖,2025-03-18,24.510856,121.608044,1.5047437e-08
E2HA20,林試畢祿溪站,2025-03-18,24.226944,121.308522,1.3135725e-08
C0V890,前鎮,2025-03-18,22.5718,120.3117,1.6409567e-06
467620,蘭嶼,2025-03-18,22.036969,121.558339,0.99992067
C1F941,雪嶺,2025-03-18,24.280586,121.026642,1.9331797e-08
C2H9E0,國姓南港,2025-03-18,23.911108,120.846556,1.2768322e-09
C0AC80,文山,2025-03-18,25.00235,121.575728,2.9006461e-08
C0F9R0,龍井,2025-03-18,24.184536,120.528972,5.9970695e-08
C0M760,民雄,2025-03-18,23.551754,120.428457,4.387029e-09
C0UA40,西德山,2025-03-18,24.560647,121.752608,6.1075847e-09
C1T920,中興,2025-03-18,23.769503,121.498653,1.5765043e-07
C0D550,雪霸,2025-03-18,24.526972,121.11605,6.65214e-09
C2F860,梨山,2025-03-18,24.247522,121.243669,1.3461653e-08
C0R320,車城,2025-03-18,22.0744,120.716247,0.9817212
C1S870,南美山,2025-03-18,23.15025,121.382333,1.3566907e-06
C0B020,基隆嶼,2025-03-18,25.19141,121.78391,5.363071e-07
C1U501,牛鬥,2025-03-18,24.637836,121.573656,4.7156528e-09
C0M730,嘉義市東區,2025-03-18,23.457673,120.460531,6.9440853e-09
C0S700,知本,2025-03-18,22.684866,121.005642,3.0906975e-08
C1N001,沙崙,2025-03-18,22.935472,120.309406,3.1100498e-07
C0V760,橋頭,2025-03-18,22.757806,120.30575,8.010163e-08
C0G960,福寶,2025-03-18,24.0443,120.3814,2.1736026e-08
C0X210,白河,2025-03-18,23.347466,120.414427,9.858699e-09
C0S810,東河,2025-03-18,22.972672,121.303986,0.39938387
C2R170,屏東,2025-03-18,22.66027,120.49403,0.0005566433
C0R670,楓港,2025-03-18,22.190131,120.692156,0.32395637
C0FA50,霧峰,2025-03-18,24.0419,120.6995,4.0595833e-09
C0UB10,蘇澳,2025-03-18,24.5969,121.8571,4.389222e-09
C0G950,防潮門,2025-03-18,24.1835,120.4871,6.292347e-08
C0M740,六腳,2025-03-18,23.492871,120.290625,7.586007e-09
C1R250,力里,2025-03-18,22.428117,120.629228,1.168159e-05
C0K330,虎尾,2025-03-18,23.719183,120.442036,4.89527e-09
C2FA00,烏石坑,2025-03-18,24.273503,120.947617,9.514508e-10
C0V620,永安,2025-03-18,22.82315,120.236856,1.373837e-08
C1I330,楓樹林,2025-03-18,23.986803,121.076117,3.1633558e-09
C0W200,湖西,2025-03-18,23.596314,119.67275,0.9776136
72Q010,高雄農改場,2025-03-18,22.709333,120.525889,0.00087533053
C0SA40,瑞和,2025-03-18,22.974361,121.156697,0.00030762254
C0C680,龜山,2025-03-18,25.02846,121.38656,7.535448e-09
C2V260,月眉,2025-03-18,22.971003,120.539853,0.000382739
C0V450,鳳森,2025-03-18,22.545064,120.392592,1.2586764e-05
C0U720,南山,2025-03-18,24.43742,121.38167,5.0213758e-09
A2N290,臺南蘭花園區,2025-03-18,23.340258,120.379661,1.7967427e-08
C0R560,新園,2025-03-18,22.5434,120.461558,3.2968648e-05
C0U890,三星,2025-03-18,24.66812,121.65302,4.4204587e-09
C1V300,御油山,2025-03-18,23.001983,120.715364,6.6010277e-09
C0U600,礁溪,2025-03-18,24.817539,121.765608,5.3901097e-09
C1T980,龍澗,2025-03-18,24.023289,121.411328,2.7795181e-08
C0D670,海天一線,2025-03-18,24.831986,120.914438,0.0768654
C0SA00,歷坵,2025-03-18,22.520969,120.89185,7.2218526e-08
C0M710,東石,2025-03-18,23.458927,120.15385,3.0329595e-08
C0M780,鹿草,2025-03-18,23.41134,120.30835,6.3236865e-09
C0U520,雙連埤,2025-03-18,24.753033,121.641303,6.881404e-09
C0B010,七堵,2025-03-18,25.094819,121.71713,1.7470553e-08
C0R480,長治,2025-03-18,22.693128,120.542622,0.00042590854
C1V830,國三S383K,2025-03-18,22.781967,120.426475,0.00030735633
12Q980,恆春工作站,2025-03-18,22.079678,120.714425,0.9817687
C1O940,東山服務區,2025-03-18,23.286016,120.398472,2.4565118e-08
C1U840,東澳嶺,2025-03-18,24.5378,121.8485,4.5762634e-09
C1D630,飛鳳山,2025-03-18,24.766464,121.119178,4.568615e-09
C0S940,石寧山,2025-03-18,23.223772,121.406639,1.6614578e-07
C0K410,北港,2025-03-18,23.573957,120.292802,4.3300505e-09
C2M620,瑞里,2025-03-18,23.545133,120.675197,4.203863e-09
C0SB70,小港漁港,2025-03-18,23.158558,121.400431,0.0005528332
C2O950,安南,2025-03-18,23.076694,120.144861,3.3622104e-08
C0F0E0,南湖圈谷,2025-03-18,24.363714,121.444667,3.7529993e-08
467610,成功,2025-03-18,23.097486,121.373428,0.10433092
C0G890,伸港,2025-03-18,24.148933,120.484403,2.8391167e-08
C2E540,龍溪,2025-03-18,24.606489,120.783933,4.077527e-08
C1V200,梅山,2025-03-18,23.268447,120.823556,9.8956985e-09
C0T9H0,加路蘭山,2025-03-18,23.682947,121.5274,1.9086505e-08
C2O930,玉井,2025-03-18,23.126042,120.46055,1.8042085e-08
C1F911,新伯公,2025-03-18,24.221361,120.841069,1.2506084e-09
C0R490,九如,2025-03-18,22.7405,120.490503,0.0009311705
C0X200,左鎮,2025-03-18,23.056758,120.408522,1.126059e-07
C0SB50,叭嗡嗡,2025-03-18,23.047062,121.343223,0.017359877
C1F891,稍來,2025-03-18,24.265689,121.001142,1.23247945e-08
72N240,七股研究中心,2025-03-18,23.081672,120.062894,2.5784319e-08
C0C700,中壢,2025-03-18,24.977661,121.256375,9.694845e-09
C0M690,水上,2025-03-18,23.419734,120.388909,1.3902143e-08
C0V690,鼓山,2025-03-18,22.623325,120.275575,1.4691584e-06
C0O860,大內,2025-03-18,23.11885,120.36083,9.110279e-06
C0Z200,萬榮,2025-03-18,23.709219,121.420106,6.8678624e-08
C0T9D0,和中,2025-03-18,24.26676,121.74103,6.767978e-07
C1O921,楠西,2025-03-18,23.183511,120.484083,9.974244e-09
C0AJ30,淡水觀海,2025-03-18,25.184591,121.408616,1.3992191e-08
C0V810,左營,2025-03-18,22.67491,120.28491,1.2178332e-07
C0UA70,桃源谷,2025-03-18,24.962606,121.888875,7.7747675e-09
C0X130,官田,2025-03-18,23.193217,120.315422,1.7308928e-06
C1H000,翠峰,2025-03-18,24.109397,121.205211,1.22919515e-08
C0UA90,石城,2025-03-18,24.980444,121.951214,5.1082787e-09
C1E681,南勢山,2025-03-18,24.421669,120.923831,2.7230953e-09
C0A9F0,內湖,2025-03-18,25.079422,121.57545,1.8372615e-08
C0K291,宜梧,2025-03-18,23.536281,120.169329,8.605883e-09
C1K540,口湖,2025-03-18,23.585344,120.180517,9.998931e-06
C0R780,滿州,2025-03-18,22.024403,120.839892,0.9861607
C0V870,文安,2025-03-18,22.8025,120.2164,1.45064885e-08
C0U650,玉蘭,2025-03-18,24.675286,121.587061,7.0559816e-09
C0R640,東港,2025-03-18,22.46247,120.44074,8.0467325e-05
K2E360,苗栗農改,2025-03-18,24.495722,120.829111,1.103848e-08
C0AJ80,板橋,2025-03-18,25.0107,121.4489,3.4892505e-08
C0S660,下馬,2025-03-18,23.150427,121.070312,1.6685183e-08
C1H9B1,阿眉,2025-03-18,24.1263,120.994672,6.163264e-09
C0UA20,多加屯,2025-03-18,24.368614,121.373189,1.4823587e-08
C0E730,頭份,2025-03-18,24.688247,120.912206,4.0936917e-05
72V140,高改旗南分場,2025-03-18,22.857861,120.516667,0.0008521509
C0K480,莿桐,2025-03-18,23.761192,120.502372,5.3928886e-07
C0U980,坪林石牌,2025-03-18,24.86478,121.77396,7.34605e-09
C0T900,西林,2025-03-18,23.8119,121.441458,6.257877e-08
C1I150,青雲,2025-03-18,23.793361,120.949378,1.1013849e-09
467350,澎湖,2025-03-18,23.565503,119.563094,0.9612441
C0G800,埔鹽,2025-03-18,24.000394,120.431683,1.6889302e-08
C0H960,草屯,2025-03-18,23.973672,120.68085,3.8659755e-09
C1V780,多納林道,2025-03-18,22.888028,120.737917,2.513504e-09
C0E920,通霄漁港,2025-03-18,24.498589,120.673876,0.021814048
C0Z330,安通山,2025-03-18,23.290728,121.348528,1.267769e-08
C0AH10,永和,2025-03-18,25.01125,121.508111,3.4891773e-08
C0AK10,太平里,2025-03-18,25.134937,121.364899,2.2741261e-08
C2G640,鹿港,2025-03-18,24.0753,120.430481,2.1126713e-08
C1E890,國三N149K,2025-03-18,24.463414,120.680019,1.2984755e-06
C1R110,口社,2025-03-18,22.770111,120.645222,0.00036792626
C1M870,國三N285K,2025-03-18,23.550319,120.505833,1.1350771e-09
467050,新屋,2025-03-18,25.006744,121.047486,4.446438e-08
C1E480,鳳美,2025-03-18,24.554803,121.034747,3.501222e-09
C0M530,奮起湖,2025-03-18,23.493903,120.699253,4.4004964e-09
C0C590,觀音,2025-03-18,25.027072,121.153317,6.829431e-08
C0T9M0,靜浦,2025-03-18,23.455167,121.495028,3.6055783e-06
C2H9M0,發祥,2025-03-18,24.154094,121.164517,3.3544898e-09
C0AI40,石牌,2025-03-18,25.115597,121.513139,1.3813466e-08
C1F871,上谷關,2025-03-18,24.203483,121.018644,9.174619e-10
C2H9G0,百勝,2025-03-18,24.051142,120.909361,3.1982585e-09
C0G880,二水,2025-03-18,23.810742,120.6173,3.4784706e-09
C0R940,加祿堂,2025-03-18,22.3363,120.6217,0.0018430278
C0W220,北竿,2025-03-18,26.220358,119.974881,4.5484366e-08
C0O960,崎頂,2025-03-18,22.959547,120.369317,2.7683544e-08
C0S750,向陽,2025-03-18,23.248397,120.986133,1.2059769e-08
C0T9F0,水璉,2025-03-18,23.797131,121.542514,4.1229328e-08
C1M600,頭凍,2025-03-18,23.406364,120.603339,2.8209637e-08
467660,臺東,2025-03-18,22.752211,121.154586,0.36638367
C1D380,新埔,2025-03-18,24.84745,121.03834,1.3964171e-08
C2G980,田頭村,2025-03-18,23.8263,120.444175,2.889051e-08
C0V750,路竹,2025-03-18,22.854997,120.259439,6.51035e-09
C0N050,蚵寮,2025-03-18,23.301,120.1104,3.8236863e-06
72M700,南改鹿草分場,2025-03-18,23.416869,120.283061,7.17161e-09
C1SA50,利嘉林道,2025-03-18,22.82325,121.009389,2.4779885e-09
467550,玉山,2025-03-18,23.487614,120.959522,3.3165616e-08
C0A940,金山,2025-03-18,25.223628,121.643967,1.1978775e-08
C1V340,大津,2025-03-18,22.888322,120.645986,0.0004719651
C0W180,七美,2025-03-18,23.219333,119.444892,0.9940762
C1F9C1,白冷,2025-03-18,24.182844,120.929889,1.4326678e-09
K2E710,苗改生物防治研究中心,2025-03-18,24.422861,120.871833,3.810056e-09
C0N040,蘆竹溝,2025-03-18,23.2344,120.0961,2.1050425e-06
C2W230,畜試所澎湖,2025-03-18,23.628342,119.513206,0.8959381
C0R880,後壁湖,2025-03-18,21.9457,120.7457,0.74874794
C1I280,埔中,2025-03-18,23.820778,120.642594,7.617728e-10
467790,墾丁雷達站,2025-03-18,21.948235,120.808028,0.8519146
C0W190,望安,2025-03-18,23.380564,119.494075,0.95651335
466881,新北,2025-03-18,24.9593,121.52,3.201605e-08
C0Z170,卓溪,2025-03-18,23.3443,121.3029,4.4876497e-08
C0F850,東勢,2025-03-18,24.246428,120.833047,1.0630455e-08
466900,淡水,2025-03-18,25.164889,121.448906,2.2727862e-08
C0I370,魚池,2025-03-18,23.895703,120.94135,1.1449729e-09
C0C630,大溪,2025-03-18,24.882853,121.265547,1.16692815e-08
C0A520,山佳,2025-03-18,24.974944,121.402008,1.903292e-08
C0I110,竹山,2025-03-18,23.761225,120.688156,1.9491697e-09
82H840,茶改南部分場,2025-03-18,23.762528,120.7405,6.0399274e-10
C0G660,溪湖,2025-03-18,23.94835,120.479122,7.640986e-09
C1T800,洛韶,2025-03-18,24.204558,121.453956,6.8396875e-09
C1T810,慈恩,2025-03-18,24.192044,121.388386,9.809012e-09
C1E451,象鼻,2025-03-18,24.368617,120.940228,2.710793e-09
C0AC60,三峽,2025-03-18,24.939025,121.369728,1.855971e-08
C0I490,萬大林道,2025-03-18,23.928228,121.091411,3.090737e-09
C1I290,豐丘,2025-03-18,23.668178,120.887417,2.1951374e-09
C1I320,奧萬大,2025-03-18,23.952956,121.178556,2.3488436e-09
C2M910,嘉義大學,2025-03-18,23.471325,120.485903,7.272555e-08
C0U770,南澳,2025-03-18,24.44935,121.81022,6.5421544e-09
C0A980,社子,2025-03-18,25.109508,121.469681,2.4408191e-08
C0V800,六龜,2025-03-18,22.997889,120.633583,0.00013467121
C1G9D0,國一S218K,2025-03-18,23.890641,120.493253,7.336892e-09
C0E570,白沙屯,2025-03-18,24.549447,120.696803,0.31321543
C2F9A0,中竹林,2025-03-18,24.103556,120.751061,2.3010416e-09
C0FA40,臺中電廠,2025-03-18,24.2146,120.4907,5.9067066e-08
C2G9A0,畜試所彰化,2025-03-18,23.86045,120.557964,5.3638786e-07
C0H9C0,合歡山,2025-03-18,24.143442,121.272547,2.4658725e-08
C0X060,下營,2025-03-18,23.22695,120.256261,6.2468025e-06
G2M350,農試溪口農場,2025-03-18,23.58565,120.408111,4.9223754e-09
C0U860,頭城,2025-03-18,24.85323,121.8308,5.47401e-09
C0R580,南州,2025-03-18,22.48591,120.50274,8.0467325e-05
C0D430,峨眉,2025-03-18,24.6905,121.017189,6.143699e-09
C0G780,秀水,2025-03-18,24.03405,120.503869,6.8005197e-09
72N100,臺南農改場,2025-03-18,23.0605,120.342194,6.847399e-06
C0S900,蘭嶼高中,2025-03-18,22.04909,121.51214,0.980383
467540,大武,2025-03-18,22.355675,120.903789,0.073252365
C1F9W0,德基,2025-03-18,24.254783,121.190261,6.29627e-09
C1Z120,壽豐,2025-03-18,23.870853,121.508081,1.0583387e-06
C0W160,烏坵,2025-03-18,24.9944,119.44956,0.00015796241
C1I240,外大坪,2025-03-18,23.958697,120.917931,9.915683e-10
C1I550,國六W023K,2025-03-18,23.979067,120.867742,2.7838196e-09
C0R870,興海,2025-03-18,21.9752,120.8439,0.6020241
C0R140,瑪家,2025-03-18,22.682903,120.686639,1.1687213e-08
C0A530,坪林,2025-03-18,24.938183,121.70975,5.5714233e-09
C0X260,後壁,2025-03-18,23.366358,120.362326,4.6979064e-08
C0Z230,和平,2025-03-18,24.30717,121.77007,8.7502895e-07
C0G770,福興,2025-03-18,24.041289,120.437669,1.7406492e-08
C0H9A0,神木村,2025-03-18,23.532742,120.843667,6.0988192e-09
C0I460,南投,2025-03-18,23.911469,120.687331,4.4357207e-09
C0I480,梅峰,2025-03-18,24.085272,121.173572,8.853679e-09
C1V570,吉東,2025-03-18,22.85422,120.5454,0.0007020386
C2D740,屯原,2025-03-18,24.067969,121.209389,5.652537e-09
C2A560,福山,2025-03-18,24.776203,121.502811,5.8818133e-09
C0AH30,五分山,2025-03-18,25.07125,121.780794,4.366943e-09
C0FA10,松柏,2025-03-18,24.429115,120.617482,1.6287087e-05
72S200,東改班鳩分場,2025-03-18,22.829528,121.077694,0.00016249453
72HA00,中改埔里分場,2025-03-18,23.903208,120.963364,5.2396514e-09
C2H9W0,大坪頂農水,2025-03-18,24.043122,120.932781,1.2556732e-09
C0C650,平鎮,2025-03-18,24.897503,121.214636,1.1292645e-08
C0S930,延平,2025-03-18,22.902581,121.084058,0.0001489515
C0UA60,樟樹山,2025-03-18,24.41393,121.78325,6.8430936e-09
C1S670,摩天,2025-03-18,23.199503,121.027,7.530189e-09
C0V630,茄萣,2025-03-18,22.906642,120.182608,1.5706292e-09
466940,基隆,2025-03-18,25.133314,121.740475,1.1044398e-08
C0X050,東河,2025-03-18,23.296598,120.385608,3.611407e-08
C0R770,保力,2025-03-18,22.071122,120.764111,0.9998488
G2L020,農試嘉義分所,2025-03-18,23.485028,120.473806,4.4201385e-09
C0X240,關子嶺,2025-03-18,23.331169,120.508025,1.1558407e-07
C0I380,集集,2025-03-18,23.828206,120.801467,6.2122524e-10
466990,花蓮,2025-03-18,23.975128,121.613275,2.329082e-05
C1V220,小關山,2025-03-18,23.154217,120.813603,7.742788e-09
C1F9G1,慶福山,2025-03-18,24.180853,120.848378,1.6632873e-09
C0Z250,瑞穗林道,2025-03-18,23.49284,121.30688,2.7709204e-09
C0D590,新豐,2025-03-18,24.87068,120.97721,0.014379146
C0A870,五指山,2025-03-18,25.132153,121.608692,4.5578745e-09
C0UA50,西帽山,2025-03-18,24.555361,121.802628,5.2938867e-09
C0X160,仁德,2025-03-18,22.968258,120.257689,1.3319292e-08
C1H971,六分寮,2025-03-18,23.92507,120.6378,1.268015e-09
C0W120,西嶼,2025-03-18,23.5626,119.468436,0.9694238
C0G650,員林,2025-03-18,23.946503,120.585597,5.6344103e-09
C0AD50,鶯歌,2025-03-18,24.951533,121.346294,1.6952463e-08
C2H9Q0,北東眼山,2025-03-18,24.120939,121.189303,6.372822e-09
C2H9T0,名間竹圍,2025-03-18,23.859914,120.637572,8.0949975e-10
C0S990,山豬窟,2025-03-18,22.318619,120.857372,1.9603617e-06
72Q010,高雄農改,2025-03-18,22.709333,120.525889,0.00087533053
C0X190,安平,2025-03-18,22.993161,120.152181,1.8019593e-08
C0K400,斗六,2025-03-18,23.720583,120.541127,8.310411e-09
12J990,口湖工作站,2025-03-18,23.589978,120.180394,9.940212e-06
C0O830,北寮,2025-03-18,23.079561,120.495008,0.00015512254
C1D410,白蘭,2025-03-18,24.579364,121.079947,2.834035e-09
C0S970,加津林,2025-03-18,22.416211,120.926942,0.033496358
C0D700,關西,2025-03-18,24.7977,121.1732,6.7240227e-09
C0M810,里佳,2025-03-18,23.389125,120.716647,6.151309e-09
C0U750,龜山島,2025-03-18,24.841667,121.953133,2.0852855e-05
C0R810,內獅,2025-03-18,22.305064,120.642986,0.002023322
C1M390,龍美,2025-03-18,23.406728,120.654417,9.521993e-09
C2FB60,頭櫃山,2025-03-18,24.129842,120.858925,1.2703487e-09
C1H840,國三N238K,2025-03-18,23.841008,120.707711,8.862105e-10
CAQ030,崎峰國小,2025-03-18,22.42565,120.49521,8.0467325e-05
C2E520,大湖,2025-03-18,24.414939,120.870872,9.7080964e-08
467530,阿里山,2025-03-18,23.508208,120.813242,1.3837779e-08
C1E691,南湖,2025-03-18,24.40135,120.837533,2.3262123e-09
C0FA30,梧棲,2025-03-18,24.256003,120.523381,1.15289254e-07
C1V231,高中,2025-03-18,23.134911,120.716711,3.1434115e-09
C0F9V0,新社,2025-03-18,24.200172,120.815806,1.3062167e-09
C0H890,埔里,2025-03-18,23.972169,120.952425,4.87203e-09
C0R690,墾丁,2025-03-18,21.966756,120.810269,0.99983627
C0F0D0,審馬陣,2025-03-18,24.381675,121.4203,1.9101545e-08
C0R820,白鷺,2025-03-18,22.454275,120.666219,5.397736e-08
U2H480,臺大溪頭,2025-03-18,23.670306,120.798194,1.489915e-09
C1V190,南天池,2025-03-18,23.27403,120.91176,1.2350327e-08
K2E360,苗栗農改場,2025-03-18,24.495722,120.829111,1.103848e-08
CAJ050,海口故事園區,2025-03-18,23.57543,120.14121,9.972618e-06
C2H9D0,三隻寮,2025-03-18,24.093078,120.861578,1.2391401e-09
C0O990,媽廟,2025-03-18,22.99175,120.293525,9.068394e-07
C0D480,打鐵坑,2025-03-18,24.849664,121.150789,7.1470847e-09
C0Z220,和平林道,2025-03-18,24.343922,121.656317,8.845256e-09
C0TA10,花蓮漁港,2025-03-18,23.995322,121.638331,3.444381e-05
72C440,桃園農改場,2025-03-18,24.950944,121.030583,4.4815085e-08
C1E711,馬拉邦山,2025-03-18,24.367306,120.901656,1.7016044e-09
C0SB20,富岡,2025-03-18,22.792467,121.192669,0.03536544
C0D560,竹東,2025-03-18,24.767147,121.057881,5.9051493e-09
C0F9U0,南屯,2025-03-18,24.137006,120.637969,4.5342983e-09
C0M720,番路,2025-03-18,23.464657,120.554156,3.0975254e-08
C0F0A0,雪山圈谷,2025-03-18,24.388594,121.236339,2.6515467e-08
C1A9N0,四十份,2025-03-18,24.934158,121.593283,5.7324914e-09
C0U760,東澳,2025-03-18,24.52196,121.83318,3.2495346e-09
C0X230,鹽水,2025-03-18,23.272621,120.247641,2.3905836e-06
C2H9H0,苗改南投蜂場,2025-03-18,23.852589,120.693481,1.9965731e-09
C0R950,萬隆國小,2025-03-18,22.507667,120.587817,7.959871e-06
C0V370,古亭坑,2025-03-18,22.893178,120.401947,4.456805e-08
C1I340,新興橋,2025-03-18,23.563333,120.868728,1.4686804e-09
C0SA80,土坂,2025-03-18,22.453108,120.887572,6.391765e-05
C0R160,鹽埔,2025-03-18,22.739558,120.530778,0.0008565753
C0AC40,大屯山,2025-03-18,25.175675,121.522408,7.816817e-09
466850,五分山雷達站,2025-03-18,25.071182,121.781205,4.3975343e-09
C2H9L0,馬烈霸,2025-03-18,24.1512,121.201772,7.2788517e-09
C1AI50,國三N016K,2025-03-18,25.034164,121.619664,1.681948e-08
C1V600,藤枝,2025-03-18,23.071961,120.757042,6.639211e-09
C1E601,南勢,2025-03-18,24.572486,120.734842,0.027515102
C0Z180,新城,2025-03-18,24.03946,121.60454,1.8583498e-05
C0O980,新市,2025-03-18,23.061614,120.298197,1.586762e-05
C0K420,西螺,2025-03-18,23.800407,120.467394,2.02592e-08
C0Z050,佳心,2025-03-18,23.34567,121.21316,1.4979541e-08
C0AD30,蘆洲,2025-03-18,25.086594,121.472331,1.8589327e-08
C0V610,梓官,2025-03-18,22.760558,120.267211,8.005199e-08
K2F750,種苗改良場,2025-03-18,24.225972,120.800917,1.274737e-09
C0UA80,大溪漁港,2025-03-18,24.941801,121.902955,6.0313883e-09
C1AI60,國一39K邊坡,2025-03-18,25.064361,121.383836,7.909186e-09
C0W150,金寧,2025-03-18,24.457703,118.328989,1.008412e-08
C0R960,內埔,2025-03-18,22.608483,120.570714,1.4628692e-05
V2C250,八德合作社,2025-03-18,24.93775,121.266389,1.3028134e-08
C2H9S0,龍南,2025-03-18,23.953536,120.833183,3.2861716e-09
C0AH40,平等,2025-03-18,25.129142,121.577086,3.8081596e-09
C0R540,佳冬,2025-03-18,22.419456,120.552375,8.24834e-05
466950,彭佳嶼,2025-03-18,25.627975,122.079744,0.00011500431
C0A890,雙溪,2025-03-18,25.036003,121.864242,8.702661e-09
C0C480,桃園,2025-03-18,24.992425,121.323172,1.0375351e-08
C0AH50,林口,2025-03-18,25.072181,121.38084,7.3198114e-09
A2K360,水試臺西試驗場,2025-03-18,23.717231,120.190522,2.613436e-06
B2N890,畜試所,2025-03-18,23.058972,120.336406,8.245833e-06
C2M960,外寮,2025-03-18,23.562643,120.665688,2.6952798e-09
C0F9S0,烏日,2025-03-18,24.107058,120.624103,5.3369646e-09
C0C490,八德,2025-03-18,24.928708,121.283289,1.2647234e-08
C0R190,赤山,2025-03-18,22.592333,120.614306,1.4035545e-05
C0T820,天祥,2025-03-18,24.179597,121.495639,1.1526689e-08
C1F9E1,龍安,2025-03-18,24.1605,120.831961,2.4554334e-09
C0V820,小林,2025-03-18,23.148408,120.63325,4.816406e-07
C2G870,芳苑,2025-03-18,23.922303,120.320025,0.029492037
C0E850,大河,2025-03-18,24.618069,120.948578,6.8211228e-09
C1U670,寒溪,2025-03-18,24.634,121.71691,2.983266e-09
C0N020,城西,2025-03-18,23.0568,120.0956,1.2612209e-08
C1Z110,三棧,2025-03-18,24.11557,121.60501,2.7619148e-08
C0R280,檳榔,2025-03-18,22.076078,120.836777,0.99946
C2H9J0,中台,2025-03-18,23.9996,120.938739,2.9349037e-09
C0F9L0,后里,2025-03-18,24.310436,120.729725,6.3820664e-09
C0D540,橫山,2025-03-18,24.71116,121.11693,3.625035e-09
C1D420,太閣南,2025-03-18,24.632808,121.160575,4.1698995e-09
C1E770,公館,2025-03-18,24.526914,120.830806,1.3982107e-08
CAN130,水試所海水繁養殖中心,2025-03-18,23.120802,120.07968,2.4054954e-08
C1I430,翠華,2025-03-18,24.191961,121.224339,1.1960032e-08
C1M400,菜瓜坪,2025-03-18,23.251928,120.576103,6.4783575e-07
C0G730,二林,2025-03-18,23.903325,120.376081,1.8741451e-08
72M360,南改義竹分場,2025-03-18,23.360694,120.279361,9.2153854e-08
V2K620,麥寮合作社,2025-03-18,23.753836,120.294783,5.157464e-09
C0Z070,舞鶴,2025-03-18,23.46811,121.37407,2.0022225e-07
C0B040,大武崙,2025-03-18,25.166676,121.706993,1.0508772e-08
C1Z030,紅葉,2025-03-18,23.493119,121.338806,4.45043e-07
C1I050,丹大,2025-03-18,23.753747,121.141147,1.4453709e-08
C0I080,信義,2025-03-18,23.689694,120.851036,1.2250518e-09
C2M920,朴子農改,2025-03-18,23.469889,120.259383,7.215984e-09
C2A880,福隆,2025-03-18,25.017842,121.942083,5.1426707e-09
C0Z160,鳳林,2025-03-18,23.746114,121.453411,8.821151e-08
C0V210,復興,2025-03-18,23.222403,120.806089,2.3060722e-09
C0H990,昆陽,2025-03-18,24.121322,121.273642,2.0815088e-08
C0R741,獅子,2025-03-18,22.202308,120.705236,0.9766648
C0S710,鹿野,2025-03-18,22.917711,121.122994,1.3337034e-06
C0I530,小奇萊,2025-03-18,24.131764,121.295717,2.1646908e-08
C2K630,荷苞,2025-03-18,23.657717,120.595144,8.0428403e-10
C0Z080,富源,2025-03-18,23.587642,121.378225,3.3635636e-08
467441,高雄,2025-03-18,22.7304,120.3125,7.526875e-08
C0SB10,美和,2025-03-18,22.682078,121.060236,0.00021498837
C2K620,馬光農場,2025-03-18,23.721453,120.378864,6.0610374e-09
C1I140,卡奈托灣,2025-03-18,23.754364,121.087872,7.1437185e-09
C0I520,玉山風口,2025-03-18,23.470489,120.955994,3.438275e-08
C1G691,下水埔,2025-03-18,23.816114,120.5676,2.3717439e-07
C0X110,臺南市南區,2025-03-18,22.961189,120.188378,1.4511358e-08
C0V680,仁武,2025-03-18,22.701083,120.347722,1.1900475e-07
C2G840,北斗,2025-03-18,23.877586,120.514222,6.9795387e-09
C0R900,竹坑,2025-03-18,22.1385,120.7022,0.50375205
C0K250,崙背,2025-03-18,23.75555,120.318925,5.1604947e-09
C0G860,社頭,2025-03-18,23.897647,120.5862,6.793895e-09
C0X150,安定,2025-03-18,23.102614,120.227839,2.23888e-05
C0R590,里港,2025-03-18,22.77919,120.49459,0.00064809644
C0E610,馬都安,2025-03-18,24.451272,120.930192,2.3831446e-09
C0E550,明德,2025-03-18,24.583486,120.885411,1.2173495e-08
C0R150,三地門,2025-03-18,22.709889,120.639944,0.00039454913
C0G910,花壇,2025-03-18,24.032076,120.549461,6.0635816e-09
C1D400,鳥嘴山,2025-03-18,24.71909,121.28387,2.88443e-09
C0K500,元長,2025-03-18,23.64981,120.315024,6.304213e-09
C0F0B0,石岡,2025-03-18,24.276061,120.777644,4.095655e-09
C2V250,甲仙,2025-03-18,23.080106,120.591758,5.810341e-05
C0SA20,金崙山,2025-03-18,22.567419,120.959667,7.398146e-09
C0V350,溪埔,2025-03-18,22.738578,120.446797,0.0005247156
C0M660,溪口,2025-03-18,23.604131,120.403569,4.919194e-09
C1S880,壽卡,2025-03-18,22.238911,120.858903,8.664405e-06
72D680,桃改新埔分場,2025-03-18,24.834444,121.066111,1.4435691e-08
