站號,站名,日期,lat,lon,BLBTSLS
C0R710,龍磐,2025-03-31,21.931672,120.838942,0.0011084456
C1F9D1,白毛台,2025-03-31,24.158325,120.886933,8.3262135e-09
C0G940,竹塘,2025-03-31,23.848253,120.386764,1.0533991e-09
467590,恆春,2025-03-31,22.003897,120.746339,6.759294e-09
C1O850,環湖,2025-03-31,23.148617,120.418633,3.372472e-06
C0U710,太平山,2025-03-31,24.505486,121.525656,2.3712696e-09
C0E820,獅潭,2025-03-31,24.539133,120.920042,1.0889684e-05
C0V880,興達,2025-03-31,22.8778,120.2127,8.933052e-05
C0S890,關山,2025-03-31,23.0395,121.175017,6.330635e-10
C0SB30,新蘭,2025-03-31,22.869214,121.223228,9.346655e-10
C2R970,屏科大,2025-03-31,22.648275,120.619247,3.0834733e-05
K2F750,種苗繁殖,2025-03-31,24.225972,120.800917,5.5858877e-06
C1Z130,銅門,2025-03-31,23.965694,121.492842,3.0741944e-08
C0AD40,土城,2025-03-31,24.973208,121.445169,8.154201e-08
CAN140,六官養殖協會,2025-03-31,23.22881,120.29962,2.2290723e-09
C0X180,山上,2025-03-31,23.0757,120.363253,1.6454071e-06
C0F9Z0,雪山東峰,2025-03-31,24.388792,121.268675,2.0012026e-08
C1M480,獨立山,2025-03-31,23.537022,120.607797,2.6439714e-08
C0X220,學甲,2025-03-31,23.230367,120.182187,4.9590994e-09
467650,日月潭,2025-03-31,23.881325,120.90805,1.7288855e-09
C0K600,箔子寮,2025-03-31,23.6197,120.14,3.820637e-09
C0G830,埤頭,2025-03-31,23.866003,120.452806,1.0546959e-09
C0S950,七塊厝,2025-03-31,22.954453,121.229922,9.713682e-10
467110,金門,2025-03-31,24.407306,118.289281,5.5190483e-09
C0AH80,深坑,2025-03-31,25.002703,121.628328,4.4703842e-08
467990,馬祖,2025-03-31,26.169269,119.923419,1.0104259e-08
C0A970,三貂角,2025-03-31,25.007606,122.002058,5.3188074e-08
C2D730,寶山農場,2025-03-31,24.732444,120.976153,2.138321e-08
C0K430,褒忠,2025-03-31,23.690938,120.303634,1.9473636e-09
467480,嘉義,2025-03-31,23.495925,120.432906,1.3311108e-09
C2E540,後龍,2025-03-31,24.606489,120.783933,0.027500229
C0V400,阿公店,2025-03-31,22.804194,120.355528,1.6701444e-09
467550,玉山,2025-03-31,23.48718,120.95943,1.2761029e-07
C0R440,大漢山,2025-03-31,22.405264,120.753181,2.7091493e-09
C0K280,四湖,2025-03-31,23.630414,120.227125,2.8465168e-09
C1F9B1,桐林,2025-03-31,24.066172,120.735194,5.4365373e-05
C2H9U0,鳳鵬,2025-03-31,23.763919,120.788061,2.272717e-08
C0K390,土庫,2025-03-31,23.679029,120.395574,9.10666e-10
C1I450,望鄉山,2025-03-31,23.594153,120.944286,2.3254238e-08
C0E910,海埔,2025-03-31,24.648767,120.772435,3.0137252e-07
B2E890,畜試北區分所,2025-03-31,24.527806,120.770972,1.349217e-07
C0R750,四林格山,2025-03-31,22.076989,120.802439,7.1251943e-10
C0F0C0,中坑,2025-03-31,24.248517,120.903319,3.714548e-09
C1I121,大鞍,2025-03-31,23.678381,120.760017,1.8227959e-09
72U480,花改蘭陽分場,2025-03-31,24.686306,121.716583,4.5443738e-10
C0A770,科教館,2025-03-31,25.096356,121.516507,3.7127985e-09
C0AJ60,六塊厝,2025-03-31,25.24,121.4481,0.00010475154
C0R620,墾雷,2025-03-31,21.900836,120.855269,0.41627577
467420,永康,2025-03-31,23.038386,120.2367,2.850207e-08
467300,東吉島,2025-03-31,23.25695,119.667467,0.99999243
C0I410,名間,2025-03-31,23.837053,120.701447,6.524301e-08
A2C560,農工中心,2025-03-31,24.985917,121.239833,2.3859963e-09
C0V740,旗山,2025-03-31,22.888614,120.483597,4.138994e-10
C0Z061,玉里,2025-03-31,23.3215,121.339656,3.9340206e-10
C0S840,南田,2025-03-31,22.279725,120.889208,5.239224e-08
C1I470,杉林溪,2025-03-31,23.639517,120.786444,2.3953803e-09
C1X040,東原,2025-03-31,23.291597,120.463822,1.104107e-08
C0R660,枋寮,2025-03-31,22.367722,120.590647,7.846326e-05
C1R120,上德文,2025-03-31,22.763272,120.704442,2.0945468e-09
C0K450,大埤,2025-03-31,23.646074,120.431537,2.3318329e-08
C0UA00,土場,2025-03-31,24.576533,121.495333,1.1260377e-09
467080,宜蘭,2025-03-31,24.763975,121.756528,2.7287053e-09
C0N030,四草,2025-03-31,23.0235,120.1116,4.390612e-09
467410,臺南,2025-03-31,22.99328,120.20492,3.0643577e-09
C0V650,彌陀,2025-03-31,22.783806,120.246361,0.20515238
C0D660,新竹市東區,2025-03-31,24.798681,120.986942,1.9749238e-09
82S580,茶改東部分場,2025-03-31,22.907694,121.130139,9.211318e-10
C0SB40,興隆,2025-03-31,22.913661,121.257469,9.2779695e-10
467050,新屋,2025-03-31,25.006725,121.047492,9.690925e-09
C0C710,大溪永福,2025-03-31,24.892936,121.324975,5.3886756e-06
C0FA20,溫寮,2025-03-31,24.372177,120.583125,3.8288243e-07
C0V640,湖內,2025-03-31,22.887139,120.2445,6.5408974e-05
C0R910,下寮,2025-03-31,22.3929,120.5548,7.846326e-05
C0Z020,明里,2025-03-31,23.208717,121.262342,4.0791717e-10
C0M770,嘉義梅山,2025-03-31,23.585398,120.555587,0.31537926
G2F820,農業試驗所,2025-03-31,24.031261,120.688133,0.0010347308
C0C660,楊梅,2025-03-31,24.912375,121.143047,4.7868447e-09
C1E511,新開,2025-03-31,24.347703,120.827019,4.2379056e-06
G2F820,農試所(霧峰),2025-03-31,24.031261,120.688133,2.326564e-08
C1I070,和社,2025-03-31,23.591131,120.888861,1.7919844e-09
C2F000,大肚,2025-03-31,24.15295,120.572117,0.007853708
C1S850,豐南,2025-03-31,23.122139,121.262389,7.5513135e-10
C2A920,富貴角,2025-03-31,25.263783,121.565258,7.752623e-07
CAH030,茶改場竹圍站,2025-03-31,23.860083,120.637528,9.688518e-10
C0T960,光復,2025-03-31,23.660694,121.424964,5.702467e-10
C0F9M0,豐原,2025-03-31,24.254322,120.720692,0.00054535986
C0R720,旭海,2025-03-31,22.205403,120.887614,9.1832325e-10
C0V710,苓雅,2025-03-31,22.622742,120.330669,1.8640419e-08
C0C740,觀音工業區,2025-03-31,25.064764,121.114856,5.0368406e-08
CAC040,拉拉山,2025-03-31,24.699317,121.427133,2.2234203e-09
C0V790,萬山,2025-03-31,22.905944,120.688056,1.1610796e-07
U2HA30,臺大和社,2025-03-31,23.590856,120.888864,1.7919844e-09
C0AJ90,澳底,2025-03-31,25.0552,121.9253,5.950229e-06
C0Z100,東華,2025-03-31,23.89525,121.549833,2.533213e-09
C0G970,三豐,2025-03-31,23.882,120.2895,3.101828e-09
V2K610,大庄合作社,2025-03-31,23.8068,120.367939,2.0209134e-09
C0V900,汕尾,2025-03-31,22.4782,120.4151,1.33504445e-05
C1R630,龍泉,2025-03-31,22.66701,120.59091,0.00015204912
C1AC50,關渡,2025-03-31,25.133486,121.469331,8.749496e-09
C0F9I0,神岡,2025-03-31,24.272481,120.658314,8.310304e-08
C0K460,斗南,2025-03-31,23.678734,120.478359,2.1853504e-08
467410,臺南,2025-03-31,22.993239,120.204772,0.9925212
C2O810,曾文,2025-03-31,23.219681,120.497328,6.527313e-08
467280,後龍,2025-03-31,24.648563,120.831834,2.034488e-07
C1F9J1,清水林,2025-03-31,24.071242,120.820419,1.4614959e-09
C2A650,火燒寮,2025-03-31,25.002719,121.742892,1.1765853e-08
466930,竹子湖,2025-03-31,25.162078,121.544547,1.7994648e-09
C1I220,樟湖,2025-03-31,23.905333,120.846983,1.0404741e-08
C0I390,仁愛,2025-03-31,24.022122,121.132206,3.529411e-08
C0Z300,東里,2025-03-31,23.26853,121.30547,3.748038e-10
C1V590,新發,2025-03-31,23.057019,120.646064,1.3172777e-07
C0K510,水林,2025-03-31,23.572924,120.24597,1.6670318e-09
72S590,東改賓朗果園,2025-03-31,22.813889,121.071278,3.721157e-09
82A750,茶改北部分場,2025-03-31,24.955778,121.631222,1.9107375e-08
C1A750,石碇服務區,2025-03-31,25.00872,121.646242,2.5453257e-06
C0X300,鹿寮,2025-03-31,23.386047,120.477331,6.916422e-08
G2AI50,關渡,2025-03-31,25.11575,121.492,7.594462e-09
C0K590,雲林東勢,2025-03-31,23.674192,120.255721,1.6663865e-09
C0A570,桶後,2025-03-31,24.848222,121.597992,1.1765758e-09
C1S800,華源,2025-03-31,22.657883,121.02325,4.147426e-10
C0G720,溪州,2025-03-31,23.851589,120.499093,1.0292308e-09
C1V160,達卡努瓦,2025-03-31,23.279811,120.705319,2.1207165e-09
C2M410,馬頭山,2025-03-31,23.324361,120.582017,4.9595346e-09
C0V850,蚵仔寮,2025-03-31,22.7256,120.2527,6.946492e-06
C0S740,池上,2025-03-31,23.119628,121.209469,3.979847e-10
C1V390,尖山,2025-03-31,22.813153,120.367789,1.2088642e-09
C0AH70,松山,2025-03-31,25.04871,121.55042,3.541223e-09
C0N010,鯤鯓國小,2025-03-31,23.1879,120.0889,5.8981477e-09
C0R550,新埤,2025-03-31,22.467947,120.582894,5.5944497e-06
C0SA60,知本（水試所）,2025-03-31,22.702394,121.082761,3.9726422e-10
C0T9I0,豐濱,2025-03-31,23.583897,121.514806,5.987509e-10
C0UB00,淡江大學蘭陽校園,2025-03-31,24.823239,121.730383,1.1208137e-09
C0W240,九宮,2025-03-31,24.423753,118.240186,5.5369305e-09
C0T9N0,富里,2025-03-31,23.171639,121.249378,5.5086863e-10
U2HA50,臺大竹山,2025-03-31,23.756972,120.681556,0.0049197087
C0V840,鳳鼻頭,2025-03-31,22.5083,120.3591,4.8359206e-10
C0X140,西港,2025-03-31,23.125608,120.203108,4.6112936e-09
72D080,桃改五峰分場,2025-03-31,24.612194,121.157167,6.9624266e-09
C2H9P0,伊拿谷,2025-03-31,23.963211,121.088264,2.2290392e-08
C2H9F0,柑林,2025-03-31,24.018658,120.847072,7.688719e-09
C0TA20,加灣,2025-03-31,24.082025,121.608944,1.212586e-06
C0V530,阿蓮,2025-03-31,22.883208,120.327508,3.149877e-08
C1O880,關山,2025-03-31,23.173397,120.594092,2.858786e-09
C0E791,卓蘭,2025-03-31,24.3126,120.8244,5.1057294e-05
C1I030,武界,2025-03-31,23.913225,121.052483,1.8565942e-08
C0R520,崁頂,2025-03-31,22.514781,120.506914,1.2025911e-08
C0R341,牡丹,2025-03-31,22.130036,120.792639,1.0295135e-09
C0R930,萬丹,2025-03-31,22.5885,120.4851,2.7490304e-10
C0S760,紅石,2025-03-31,23.069131,121.126219,3.1787548e-09
C2C410,中央大學,2025-03-31,24.967652,121.185165,2.3226212e-09
C1M610,石磐龍,2025-03-31,23.496606,120.663506,9.583445e-10
C0UA10,鴛鴦湖,2025-03-31,24.590269,121.412228,1.9688797e-09
V2C260,八德蔬果,2025-03-31,24.978508,121.281819,3.9364174e-09
C0R800,丹路,2025-03-31,22.204481,120.750989,1.3408679e-09
C0G920,永靖,2025-03-31,23.924703,120.547533,1.1772717e-09
C2M950,太和,2025-03-31,23.538372,120.702961,1.2874086e-09
C1A630,下盆,2025-03-31,24.771003,121.538622,5.9434524e-10
B2N890,畜產試驗所,2025-03-31,23.058972,120.336406,1.5190698e-08
C0UA30,白嶺,2025-03-31,24.527819,121.519031,2.027384e-09
C1V580,溪南(特生中心),2025-03-31,23.084972,120.788475,3.6210337e-09
C1T970,大農,2025-03-31,23.615233,121.413331,6.157469e-10
E2S960,林試太麻里2,2025-03-31,22.598014,120.989761,0.73856205
C0R650,竹田,2025-03-31,22.58486,120.54344,3.4330364e-07
C1H900,清流,2025-03-31,24.080775,120.962997,1.0950694e-09
C1C510,水尾,2025-03-31,24.940081,121.087161,3.792821e-09
C0F9X0,大雅(中科園區),2025-03-31,24.21528,120.62445,9.138144e-08
C0SB60,白守蓮,2025-03-31,23.126769,121.401914,2.7878938e-10
C0O970,虎頭埤,2025-03-31,23.021375,120.347878,9.7545545e-08
C0C730,中大臨海站,2025-03-31,24.966126,121.008581,1.050821e-08
C0X250,新營,2025-03-31,23.310689,120.316681,2.980917e-09
C0V700,三民,2025-03-31,22.645017,120.311233,0.95613325
C0U870,大礁溪,2025-03-31,24.791042,121.675047,5.4398475e-10
C0E870,高鐵苗栗,2025-03-31,24.60725,120.826094,2.3692662e-07
A2K570,古坑花卉中心,2025-03-31,23.63353,120.55239,0.9136964
C0TA30,鹽寮,2025-03-31,23.845606,121.592664,2.783809e-09
C0M860,新美,2025-03-31,23.338017,120.683169,5.4313776e-10
C1E701,八卦,2025-03-31,24.491756,120.927619,2.5440295e-07
C0I420,國姓,2025-03-31,24.037803,120.855072,6.380217e-09
C2D720,關西工作站,2025-03-31,24.757275,121.184792,1.0283443e-08
C0S960,香蘭,2025-03-31,22.587569,120.993375,4.3065906e-10
467620,蘭嶼,2025-03-31,22.0369,121.55843,0.99964696
C0R260,春日,2025-03-31,22.370361,120.628306,1.0928259e-05
72G600,臺中農改場,2025-03-31,24.003028,120.534389,4.811055e-09
C0Z210,瑞穗,2025-03-31,23.5239,121.39021,6.227105e-10
C0M820,達邦,2025-03-31,23.453994,120.749517,8.6245777e-10
C0V860,南寮,2025-03-31,22.7616,120.2339,6.9315233e-06
C0G740,大城,2025-03-31,23.852487,120.320935,3.0496814e-09
C0R920,塭仔,2025-03-31,22.4169,120.5197,0.00012399649
C0R470,高樹,2025-03-31,22.826389,120.600806,1.9484336e-09
C0R680,佳樂水,2025-03-31,21.993578,120.861633,8.4856065e-06
C1O870,大棟山,2025-03-31,23.31157,120.52226,8.6996355e-10
C0D360,梅花,2025-03-31,24.678347,121.208558,3.313089e-06
C0Z190,富世,2025-03-31,24.14743,121.6297,1.2335684e-08
C0AI10,屈尺,2025-03-31,24.92184,121.54475,0.00016701325
B2U990,畜試東區分所,2025-03-31,24.669039,121.832561,9.550107e-10
C0SB80,長濱漁港,2025-03-31,23.313644,121.459994,3.3394795e-10
C0R240,來義,2025-03-31,22.527306,120.625111,4.3237125e-09
C0V910,大樹,2025-03-31,22.684645,120.432803,7.2575546e-10
C1R610,西大武山,2025-03-31,22.617719,120.7322,3.6984082e-09
C0G900,線西,2025-03-31,24.143358,120.443536,2.849408e-08
C0M700,竹崎,2025-03-31,23.526178,120.555508,2.836202e-05
C2E880,三義,2025-03-31,24.405478,120.749819,1.7309081e-07
C0C720,竹圍,2025-03-31,25.112692,121.239824,7.606669e-09
C0F9P0,清水,2025-03-31,24.312297,120.562242,5.1497597e-08
C0Z150,吉安光華,2025-03-31,23.930925,121.595153,3.2002683e-07
467300,東吉島,2025-03-31,23.25727,119.66762,0.9966544
C1D640,外坪(五指山),2025-03-31,24.644447,121.090961,4.258533e-08
C0F9O0,潭子,2025-03-31,24.213106,120.703933,0.0009809377
C2H9R0,卓社,2025-03-31,23.887894,121.000086,1.0099404e-08
72T250,花蓮農改場,2025-03-31,23.975222,121.563889,4.0788495e-07
C0E780,銅鑼,2025-03-31,24.489681,120.790853,4.299225e-08
C1T950,太安,2025-03-31,23.666719,121.370128,1.4898695e-09
C0E830,苑裡,2025-03-31,24.439714,120.653053,2.8957467e-07
467270,田中,2025-03-31,23.873803,120.581286,6.0166125e-09
C0SA10,檳榔四格山,2025-03-31,22.810031,121.109308,3.3120968e-09
C1T830,布洛灣,2025-03-31,24.17184,121.57127,1.3556493e-09
C0F970,大坑,2025-03-31,24.173142,120.722289,0.43878502
C1U920,思源,2025-03-31,24.393125,121.347214,2.9485945e-09
C0A931,三和,2025-03-31,25.233153,121.595236,5.6385816e-09
C0I010,廬山,2025-03-31,24.033311,121.181808,2.0198895e-08
C2M940,日野賀,2025-03-31,23.434056,120.727169,1.0478344e-09
C0R860,鼻頭,2025-03-31,22.1043,120.8979,3.360785e-09
C0UB20,壯圍,2025-03-31,24.7359,121.8163,4.522644e-10
C0R790,九棚,2025-03-31,22.14195,120.889281,1.3496817e-09
C0W110,東莒,2025-03-31,25.9652,119.98069,5.5978613e-09
C1U930,粉鳥林,2025-03-31,24.497088,121.842479,1.47170125e-08
C1I211,蘆竹湳,2025-03-31,23.934019,120.811994,9.917102e-10
C0S830,長濱,2025-03-31,23.286817,121.411975,4.6250587e-10
C1F9F1,伯公龍,2025-03-31,24.272392,120.849047,0.00012641525
C0E810,西湖,2025-03-31,24.562947,120.7485,8.895272e-08
C1I440,新高口,2025-03-31,23.478744,120.878939,3.2386094e-08
C0O840,王爺宮,2025-03-31,23.222064,120.40085,9.308409e-09
C0T9G0,鳳林山,2025-03-31,23.735269,121.420131,9.1927305e-10
C0X080,佳里,2025-03-31,23.173039,120.145086,5.8981477e-09
C0FB70,大甲溪埔,2025-03-31,24.370625,120.620067,2.2851731e-07
C0Z310,清水斷崖,2025-03-31,24.218294,121.689142,7.7717575e-09
C0M680,太保,2025-03-31,23.455062,120.331455,1.1797241e-09
C1S820,金峰,2025-03-31,22.590969,120.933236,4.4317264e-10
C0AD10,八里,2025-03-31,25.150211,121.403947,7.606669e-09
C2K240,草嶺,2025-03-31,23.59555,120.693461,7.8598406e-10
C1SA70,都蘭,2025-03-31,22.87794,121.226881,9.2779695e-10
C0K440,二崙,2025-03-31,23.772797,120.408944,1.3025494e-09
C1A760,坪林交控,2025-03-31,24.94284,121.713442,6.490958e-09
C0F9N0,大里,2025-03-31,24.092464,120.701378,0.00015728307
C0SA90,達仁林場,2025-03-31,22.264347,120.823972,1.0845577e-09
C1R290,石門山,2025-03-31,22.112611,120.756597,8.3635815e-10
42HA10,萬大發電廠,2025-03-31,23.978875,121.139639,4.804187e-09
C0R890,山海,2025-03-31,21.9878,120.7091,0.117021404
C0T9A0,月眉山,2025-03-31,23.809928,121.539828,9.062181e-10
C0AC70,信義,2025-03-31,25.037822,121.564597,3.541223e-09
C0K560,棋山,2025-03-31,23.68645,120.603417,0.88899124
C2FB50,出雲,2025-03-31,24.206469,120.902794,3.5055518e-09
C1Z240,中平林道,2025-03-31,23.42115,121.26763,1.9682151e-09
U2H480,溪頭,2025-03-31,23.670306,120.798194,8.5128227e-10
C0M880,好美里,2025-03-31,23.3364,120.138,3.0668894e-09
C0T9E0,大坑,2025-03-31,23.880628,121.581981,1.7155654e-09
C0K530,臺西,2025-03-31,23.701547,120.197559,2.4319238e-09
C1E900,國一N128K,2025-03-31,24.560997,120.844186,8.756225e-07
C0AJ50,水湳洞,2025-03-31,25.123695,121.862238,1.8689896e-09
C0AI20,白沙灣,2025-03-31,25.283128,121.519058,6.2408624e-05
C2V310,美濃,2025-03-31,22.898792,120.51907,4.2500087e-10
C0A860,大坪,2025-03-31,25.165914,121.632969,2.2575641e-09
C1U850,觀音海岸,2025-03-31,24.38319,121.77856,4.5960937e-09
C2K610,草嶺石壁,2025-03-31,23.602469,120.707731,8.021775e-10
C0U950,鶯子嶺,2025-03-31,24.89754,121.79244,1.9905044e-09
C0O900,善化,2025-03-31,23.112883,120.297219,1.9717595e-08
C0K550,蔦松,2025-03-31,23.514319,120.229736,2.223204e-09
E2P980,林試六龜中心,2025-03-31,22.991703,120.645722,6.574343e-08
C0E590,通霄,2025-03-31,24.471892,120.704622,3.241883e-09
C1I310,西巒,2025-03-31,23.754486,120.883956,1.4620479e-09
C0A550,泰平,2025-03-31,24.971197,121.823711,1.3528828e-09
C0I360,水里,2025-03-31,23.812553,120.849792,1.833497e-07
C0R830,高士,2025-03-31,22.121825,120.836781,7.635897e-10
C1I101,溪頭,2025-03-31,23.661789,120.807647,1.1597036e-08
C0AJ20,野柳,2025-03-31,25.20703,121.690021,5.9266476e-08
C0B060,暖暖,2025-03-31,25.0957,121.7403,5.476642e-09
C1H920,長豐,2025-03-31,24.102039,120.879897,1.2266604e-09
C0V360,內門,2025-03-31,22.975481,120.466769,2.65888e-08
C0R850,林邊,2025-03-31,22.4634,120.5339,1.1394058e-05
C0E930,龍鳳,2025-03-31,24.700034,120.859125,7.4293865e-08
C0U910,冬山,2025-03-31,24.63373,121.7937,9.550107e-10
C1E721,泰安,2025-03-31,24.489017,120.968036,4.7350124e-09
82H320,茶改中部分場,2025-03-31,23.875611,120.913583,1.8694708e-09
C0M750,布袋,2025-03-31,23.380878,120.167789,1.1328861e-09
C1S860,利嘉,2025-03-31,22.809417,121.050528,8.634289e-10
72C440,桃園農改,2025-03-31,24.950944,121.030583,0.006567748
E2S980,林試太麻里1,2025-03-31,22.598922,120.980044,4.2711046e-10
C0X170,關廟,2025-03-31,22.963017,120.327797,1.0129982e-08
C0V720,林園,2025-03-31,22.507747,120.394511,4.776491e-10
C1I510,線浸林道,2025-03-31,23.761508,120.832956,3.4766996e-09
C0D690,外湖,2025-03-31,24.917735,120.968711,5.2364446e-09
C0C750,新興坑尾,2025-03-31,25.0061,121.0971,8.059814e-09
B2Q810,畜試南區分所,2025-03-31,21.945583,120.802167,8.976201e-06
C0S790,金崙,2025-03-31,22.538122,120.966875,4.0953324e-10
C0AH90,福山植物園,2025-03-31,24.760717,121.58135,6.402571e-10
C0I540,奇萊稜線,2025-03-31,24.109231,121.326456,7.6325264e-08
C0M850,表湖,2025-03-31,23.24186,120.64166,1.7974204e-09
C0S770,大溪山,2025-03-31,22.478475,120.943325,5.840158e-10
C0AG80,中和,2025-03-31,24.991622,121.491792,8.154201e-08
C0T790,大禹嶺,2025-03-31,24.186117,121.316086,1.457513e-08
C0T9B0,水源,2025-03-31,23.991861,121.537169,1.3685201e-08
C0R840,牡丹池山,2025-03-31,22.168389,120.841225,6.393568e-09
C1I131,桶頭,2025-03-31,23.641944,120.654117,0.047472265
CAL110,布袋國中,2025-03-31,23.35893,120.18026,1.1328861e-09
467571,新竹,2025-03-31,24.827853,121.014219,2.3668143e-09
C0Z290,赤柯山,2025-03-31,23.36893,121.38293,1.4291989e-09
C0X280,將軍,2025-03-31,23.214999,120.13577,5.3863993e-09
C0S690,太麻里,2025-03-31,22.60902,120.98533,6.973215e-10
C0U880,北關,2025-03-31,24.9072,121.8734,1.3961167e-07
C1H860,瑞岩,2025-03-31,24.123772,121.18345,6.5294388e-09
C0G810,埔心,2025-03-31,23.947633,120.525456,1.1772717e-09
C0U970,大福,2025-03-31,24.80064,121.81389,2.8120983e-09
C2H9N0,仁愛東眼,2025-03-31,24.026875,121.1205,2.2144194e-08
C1E670,南礦,2025-03-31,24.538278,121.002836,6.5936288e-09
C0M520,東後寮,2025-03-31,23.369908,120.248065,1.1016643e-09
C1E461,松安,2025-03-31,24.397972,120.986022,3.2175196e-09
72G600,臺中農改,2025-03-31,24.003028,120.534389,0.0001747655
C2N160,西拉雅風管處,2025-03-31,23.189481,120.335297,2.2946262e-08
C2M970,碧湖,2025-03-31,23.568632,120.624165,6.9691464e-10
C0A640,石碇,2025-03-31,24.993969,121.662917,1.0335083e-07
E2S960,林試太麻里2,2025-03-31,22.598,120.99775,4.3212203e-10
C0F9Y0,桃山,2025-03-31,24.432739,121.303808,2.810368e-08
C1I020,萬大,2025-03-31,23.979817,121.132261,3.404725e-08
C0U940,羅東,2025-03-31,24.68184,121.74934,4.5203155e-10
C0M650,朴子,2025-03-31,23.43463,120.23902,8.010155e-10
C1I500,大尖山,2025-03-31,23.858572,120.994889,1.7615873e-08
C0G820,田尾,2025-03-31,23.901669,120.509389,1.1772717e-09
E2K600,四湖植物園,2025-03-31,23.676986,120.163433,2.8465168e-09
C0S730,綠島,2025-03-31,22.6672,121.47533,0.99515295
12Q970,東港工作站,2025-03-31,22.479997,120.466058,1.33504445e-05
C0E430,南庄,2025-03-31,24.601775,121.000214,8.858775e-06
C1TA00,太魯閣,2025-03-31,24.15773,121.6236,1.1556606e-08
466920,臺北,2025-03-31,25.037658,121.514853,3.541223e-09
C0R600,舊泰武,2025-03-31,22.588194,120.664944,2.2247313e-09
C1I260,北坑,2025-03-31,23.9246,121.006903,9.54887e-10
466910,鞍部,2025-03-31,25.182586,121.529731,2.7855935e-09
C1I230,九份二山,2025-03-31,23.961944,120.845,3.3343216e-08
C2A660,瑞芳,2025-03-31,25.113169,121.801147,1.6124546e-09
C0R270,琉球嶼,2025-03-31,22.332244,120.362236,1.1895545e-06
C1T990,高寮,2025-03-31,23.394239,121.356808,3.0063071e-10
C0G620,芬園,2025-03-31,24.015678,120.6213,1.6899614e-08
C1Z140,荖溪,2025-03-31,23.890575,121.45964,1.8342563e-09
C1I201,中心崙,2025-03-31,23.728722,120.712097,1.6732956e-08
C1I400,凌霄,2025-03-31,24.018778,121.004456,2.053452e-08
C1M640,十字,2025-03-31,23.492153,120.753683,3.1697338e-09
G2P820,農試鳳山分所,2025-03-31,22.646611,120.356083,0.9467752
C0Z270,蕃薯寮,2025-03-31,23.73835,121.540108,5.8417177e-10
C0F9Q0,外埔,2025-03-31,24.347817,120.705686,1.3542628e-07
C0K580,高鐵雲林,2025-03-31,23.737456,120.417944,1.3160322e-09
C2I090,鳳凰,2025-03-31,23.728081,120.787347,9.1323854e-10
C0U990,員山,2025-03-31,24.74435,121.72247,4.532774e-10
C0V770,大社,2025-03-31,22.730306,120.346639,4.724023e-06
C0X120,麻豆,2025-03-31,23.183289,120.248611,2.2786364e-09
C0C670,龍潭,2025-03-31,24.870056,121.221389,1.2091228e-06
C0D680,香山濕地,2025-03-31,24.783581,120.914988,2.3445599e-09
C0S980,勝林山,2025-03-31,22.430439,120.8938,9.545263e-10
C0V730,大寮,2025-03-31,22.605614,120.395717,1.5904359e-08
C0R570,麟洛,2025-03-31,22.65078,120.52719,2.6246047e-10
C2M930,石卓,2025-03-31,23.478744,120.702264,2.3600615e-09
C0G9B0,和美,2025-03-31,24.105169,120.492131,2.3256101e-08
CAG100,王功漁港,2025-03-31,23.96824,120.32586,3.2081378e-09
C0X290,北門,2025-03-31,23.267772,120.125481,5.353736e-09
C2F930,大甲,2025-03-31,24.347667,120.640403,8.740609e-08
C0D650,湖口,2025-03-31,24.904794,121.043628,3.9333776e-09
C0E420,竹南,2025-03-31,24.708978,120.888897,3.7742907e-08
C0U780,五結,2025-03-31,24.68637,121.79794,4.522644e-10
C1I250,鯉潭,2025-03-31,23.961922,120.991131,1.5747493e-07
C0R130,阿禮,2025-03-31,22.742908,120.743678,2.1815678e-09
C0X100,臺南市北區,2025-03-31,23.010394,120.194228,3.816682e-09
C0S920,金峰嘉蘭,2025-03-31,22.594789,120.960825,4.2683113e-10
C0V490,新興,2025-03-31,22.627422,120.298803,1.8640419e-08
C0F9K0,大安,2025-03-31,24.345061,120.588025,2.838108e-07
72N100,臺南農改,2025-03-31,23.0605,120.342194,0.99091595
467290,古坑,2025-03-31,23.633639,120.551889,0.9136964
C2E970,八甲,2025-03-31,24.535811,120.795983,1.01967274e-07
C0V440,鳳山,2025-03-31,22.646653,120.356122,0.9467752
C1T940,大觀,2025-03-31,23.714206,121.373133,7.5310613e-10
72T250,花蓮農改,2025-03-31,23.975222,121.563889,0.98011196
C0E740,造橋,2025-03-31,24.637056,120.864778,2.3692662e-07
C0R100,尾寮山,2025-03-31,22.833111,120.683889,1.0342568e-09
A2K630,臺大雲林校區,2025-03-31,23.730628,120.423903,1.3160322e-09
467990,馬祖,2025-03-31,26.169467,119.923158,6.9600103e-09
C0D580,寶山,2025-03-31,24.735006,121.025192,4.1009673e-05
E2P990,林試扇平站,2025-03-31,22.9677,120.6857,1.6539501e-07
C0AI30,三重,2025-03-31,25.057328,121.500629,3.7127985e-09
C0AH00,汐止,2025-03-31,25.066881,121.658778,3.541223e-09
C1Z040,立山,2025-03-31,23.443356,121.327375,6.4776595e-10
466881,新北,2025-03-31,24.959207,121.525196,5.949197e-08
C0W130,花嶼,2025-03-31,23.40007,119.32276,0.59724414
C0A950,鼻頭角,2025-03-31,25.129036,121.923372,3.4464531e-07
C0K470,林內,2025-03-31,23.748675,120.609642,0.02015989
C2F990,摩天嶺,2025-03-31,24.322458,120.936819,3.8569388e-09
82C160,茶改場,2025-03-31,24.908472,121.185333,3.6417365e-09
C0Z320,清水林道,2025-03-31,23.27125,121.188272,8.027468e-10
C0R760,南仁湖,2025-03-31,22.084681,120.863353,8.292483e-10
C0M670,大林,2025-03-31,23.600616,120.45841,2.6501854e-09
C0M800,茶山,2025-03-31,23.299075,120.664767,5.941231e-10
C0A9C0,天母,2025-03-31,25.117494,121.537169,2.6787527e-08
72K220,南改斗南分場,2025-03-31,23.634556,120.477333,2.1875023e-08
72AI40,桃改樹林分場,2025-03-31,24.944503,121.386972,1.3154125e-06
C0S910,蘭嶼燈塔,2025-03-31,22.081197,121.503117,0.999288
C0B050,八斗子,2025-03-31,25.144754,121.79167,1.958322e-09
C0U900,內城,2025-03-31,24.71813,121.68766,4.553484e-10
C0X320,柳營,2025-03-31,23.253328,120.375253,4.159797e-08
C0M790,新港,2025-03-31,23.553269,120.345728,8.293005e-10
C0F9T0,西屯,2025-03-31,24.179494,120.641275,1.4423205e-06
C0SA30,都歷,2025-03-31,23.020333,121.323642,5.179988e-10
C0C620,蘆竹,2025-03-31,25.084275,121.265767,6.5657555e-09
C0R730,大坪頂,2025-03-31,22.024633,120.69355,2.0786365e-08
C0AJ40,石門,2025-03-31,25.273672,121.601198,2.1825508e-06
C0E750,苗栗,2025-03-31,24.564569,120.824575,9.416993e-07
C0T870,鯉魚潭,2025-03-31,23.935639,121.508944,2.3890665e-08
C1V170,排雲,2025-03-31,23.463619,120.954147,9.811467e-08
C2H950,中寮,2025-03-31,23.884447,120.766406,4.1994014e-08
C0R350,貓鼻頭,2025-03-31,21.921774,120.7358,0.0016731037
C0V660,岡山,2025-03-31,22.797078,120.294958,0.20531434
C1H941,雙冬,2025-03-31,23.967378,120.802189,9.417572e-10
C0AJ70,田寮,2025-03-31,25.2698,121.4886,7.6599754e-05
C0AI00,五股,2025-03-31,25.07445,121.42728,2.227457e-09
C0Z280,德武,2025-03-31,23.47426,121.41071,4.1020398e-10
C0R700,枋山,2025-03-31,22.246844,120.661086,0.5203685
C0C460,復興,2025-03-31,24.820208,121.352281,8.195683e-07
E2H360,蓮華池,2025-03-31,23.918333,120.885278,9.2294844e-10
C0M640,中埔,2025-03-31,23.42538,120.5229,3.568714e-07
C0W140,金沙,2025-03-31,24.488292,118.408778,6.4492465e-09
C2A540,四堵,2025-03-31,24.8926,121.745736,3.5137389e-09
C0ACA0,新莊,2025-03-31,25.051478,121.446756,3.7991637e-09
C0R220,潮州,2025-03-31,22.534361,120.54,1.1370365e-08
U2HA40,臺大內茅埔,2025-03-31,23.689722,120.851117,5.1575205e-10
467490,臺中,2025-03-31,24.145736,120.684075,0.710111
C0U960,翠峰湖,2025-03-31,24.510856,121.608044,4.2427866e-09
E2HA20,林試畢祿溪站,2025-03-31,24.226944,121.308522,4.888375e-09
C0V890,前鎮,2025-03-31,22.5718,120.3117,1.9242696e-08
467620,蘭嶼,2025-03-31,22.036969,121.558339,0.99991274
C1F941,雪嶺,2025-03-31,24.280586,121.026642,6.9643926e-09
C2H9E0,國姓南港,2025-03-31,23.911108,120.846556,9.881082e-09
C0AC80,文山,2025-03-31,25.00235,121.575728,4.4703842e-08
C0F9R0,龍井,2025-03-31,24.184536,120.528972,6.964794e-08
C0M760,民雄,2025-03-31,23.551754,120.428457,3.122366e-09
C0UA40,西德山,2025-03-31,24.560647,121.752608,9.642577e-10
C1T920,中興,2025-03-31,23.769503,121.498653,5.765769e-10
C0D550,雪霸,2025-03-31,24.526972,121.11605,6.3145866e-09
C2F860,梨山,2025-03-31,24.247522,121.243669,5.1105786e-09
C0R320,車城,2025-03-31,22.0744,120.716247,5.0394196e-05
C1S870,南美山,2025-03-31,23.15025,121.382333,5.3992133e-10
C0B020,基隆嶼,2025-03-31,25.19141,121.78391,4.925935e-09
C1U501,牛鬥,2025-03-31,24.637836,121.573656,4.060441e-10
C0M730,嘉義市東區,2025-03-31,23.457673,120.460531,1.9546287e-06
C0S700,知本,2025-03-31,22.684866,121.005642,6.3242267e-10
C1N001,沙崙,2025-03-31,22.935472,120.309406,1.1972128e-08
C0V760,橋頭,2025-03-31,22.757806,120.30575,5.095036e-06
C0G960,福寶,2025-03-31,24.0443,120.3814,2.59699e-08
C0X210,白河,2025-03-31,23.347466,120.414427,1.1984208e-07
C0S810,東河,2025-03-31,22.972672,121.303986,8.2622653e-10
C2R170,屏東,2025-03-31,22.66027,120.49403,2.6246147e-10
C0R670,楓港,2025-03-31,22.190131,120.692156,1.7324159e-07
C0FA50,霧峰,2025-03-31,24.0419,120.6995,2.3056863e-08
C0UB10,蘇澳,2025-03-31,24.5969,121.8571,1.0563447e-09
C0G950,防潮門,2025-03-31,24.1835,120.4871,6.9557665e-08
C0M740,六腳,2025-03-31,23.492871,120.290625,9.461413e-10
C1R250,力里,2025-03-31,22.428117,120.629228,0.00036769468
C0K330,虎尾,2025-03-31,23.719183,120.442036,1.2735122e-09
C2FA00,烏石坑,2025-03-31,24.273503,120.947617,3.9172505e-09
C0V620,永安,2025-03-31,22.82315,120.236856,0.20515238
C1I330,楓樹林,2025-03-31,23.986803,121.076117,2.53333e-08
C0W200,湖西,2025-03-31,23.596314,119.67275,0.9392704
72Q010,高雄農改場,2025-03-31,22.709333,120.525889,3.9654655e-10
C0SA40,瑞和,2025-03-31,22.974361,121.156697,7.0466843e-10
C0C680,龜山,2025-03-31,25.02846,121.38656,1.7922784e-09
C2V260,月眉,2025-03-31,22.971003,120.539853,2.889343e-08
C0V450,鳳森,2025-03-31,22.545064,120.392592,4.2958273e-10
C0U720,南山,2025-03-31,24.43742,121.38167,9.363605e-10
A2N290,臺南蘭花園區,2025-03-31,23.340258,120.379661,1.02906e-09
C0R560,新園,2025-03-31,22.5434,120.461558,4.776491e-10
C0U890,三星,2025-03-31,24.66812,121.65302,3.8464532e-10
C1V300,御油山,2025-03-31,23.001983,120.715364,5.248013e-09
C0U600,礁溪,2025-03-31,24.817539,121.765608,8.690966e-09
C1T980,龍澗,2025-03-31,24.023289,121.411328,3.5515724e-09
C0D670,海天一線,2025-03-31,24.831986,120.914438,1.8122953e-09
C0SA00,歷坵,2025-03-31,22.520969,120.89185,5.325462e-10
C0M710,東石,2025-03-31,23.458927,120.15385,5.0619753e-09
C0M780,鹿草,2025-03-31,23.41134,120.30835,7.8298845e-10
C0U520,雙連埤,2025-03-31,24.753033,121.641303,5.5023125e-10
C0B010,七堵,2025-03-31,25.094819,121.71713,9.111981e-09
C0R480,長治,2025-03-31,22.693128,120.542622,6.810251e-10
C1V830,國三S383K,2025-03-31,22.781967,120.426475,2.9846933e-10
12Q980,恆春工作站,2025-03-31,22.079678,120.714425,5.0394196e-05
C1O940,東山服務區,2025-03-31,23.286016,120.398472,5.875593e-08
C1U840,東澳嶺,2025-03-31,24.5378,121.8485,9.65336e-10
C1D630,飛鳳山,2025-03-31,24.766464,121.119178,1.7333727e-07
C0S940,石寧山,2025-03-31,23.223772,121.406639,3.5537526e-10
C0K410,北港,2025-03-31,23.573957,120.292802,1.5770412e-09
C2M620,瑞里,2025-03-31,23.545133,120.675197,1.1298262e-09
C0SB70,小港漁港,2025-03-31,23.158558,121.400431,4.0554718e-10
C2O950,安南,2025-03-31,23.076694,120.144861,1.15241434e-07
C0F0E0,南湖圈谷,2025-03-31,24.363714,121.444667,2.1017112e-08
467610,成功,2025-03-31,23.097486,121.373428,2.8417363e-10
C0G890,伸港,2025-03-31,24.148933,120.484403,2.8538517e-08
C2E540,龍溪,2025-03-31,24.606489,120.783933,2.5659884e-07
C1V200,梅山,2025-03-31,23.268447,120.823556,1.7361984e-09
C0T9H0,加路蘭山,2025-03-31,23.682947,121.5274,9.081647e-10
C2O930,玉井,2025-03-31,23.126042,120.46055,1.6426994e-06
C1F911,新伯公,2025-03-31,24.221361,120.841069,0.0006977119
C0R490,九如,2025-03-31,22.7405,120.490503,4.1048967e-10
C0X200,左鎮,2025-03-31,23.056758,120.408522,1.2350957e-07
C0SB50,叭嗡嗡,2025-03-31,23.047062,121.343223,4.7672344e-10
C1F891,稍來,2025-03-31,24.265689,121.001142,4.3052464e-09
72N240,七股研究中心,2025-03-31,23.081672,120.062894,1.324204e-07
C0C700,中壢,2025-03-31,24.977661,121.256375,3.241611e-09
C0M690,水上,2025-03-31,23.419734,120.388909,1.1318905e-09
C0V690,鼓山,2025-03-31,22.623325,120.275575,1.8640419e-08
C0O860,大內,2025-03-31,23.11885,120.36083,1.619307e-08
C0Z200,萬榮,2025-03-31,23.709219,121.420106,4.6480694e-10
C0T9D0,和中,2025-03-31,24.26676,121.74103,8.470106e-08
C1O921,楠西,2025-03-31,23.183511,120.484083,2.334587e-06
C0AJ30,淡水觀海,2025-03-31,25.184591,121.408616,2.6180606e-07
C0V810,左營,2025-03-31,22.67491,120.28491,0.9562226
C0UA70,桃源谷,2025-03-31,24.962606,121.888875,1.2719004e-09
C0X130,官田,2025-03-31,23.193217,120.315422,2.5374938e-08
C1H000,翠峰,2025-03-31,24.109397,121.205211,4.9677546e-08
C0UA90,石城,2025-03-31,24.980444,121.951214,2.1164831e-07
C1E681,南勢山,2025-03-31,24.421669,120.923831,4.8283397e-08
C0A9F0,內湖,2025-03-31,25.079422,121.57545,3.541223e-09
C0K291,宜梧,2025-03-31,23.536281,120.169329,2.223204e-09
C1K540,口湖,2025-03-31,23.585344,120.180517,3.820637e-09
C0R780,滿州,2025-03-31,22.024403,120.839892,5.3855778e-09
C0V870,文安,2025-03-31,22.8025,120.2164,0.26565126
C0U650,玉蘭,2025-03-31,24.675286,121.587061,4.5411766e-10
C0R640,東港,2025-03-31,22.46247,120.44074,1.33504445e-05
K2E360,苗栗農改,2025-03-31,24.495722,120.829111,0.024387015
C0AJ80,板橋,2025-03-31,25.0107,121.4489,9.380416e-08
C0S660,下馬,2025-03-31,23.150427,121.070312,1.4187151e-09
C1H9B1,阿眉,2025-03-31,24.1263,120.994672,1.8065284e-09
C0UA20,多加屯,2025-03-31,24.368614,121.373189,1.9587898e-08
C0E730,頭份,2025-03-31,24.688247,120.912206,4.6973778e-08
72V140,高改旗南分場,2025-03-31,22.857861,120.516667,4.2500087e-10
C0K480,莿桐,2025-03-31,23.761192,120.502372,2.7269273e-08
C0U980,坪林石牌,2025-03-31,24.86478,121.77396,1.1747371e-09
C0T900,西林,2025-03-31,23.8119,121.441458,6.0736144e-10
C1I150,青雲,2025-03-31,23.793361,120.949378,1.5576249e-09
467350,澎湖,2025-03-31,23.565503,119.563094,0.81138307
C0G800,埔鹽,2025-03-31,24.000394,120.431683,3.391333e-09
C0H960,草屯,2025-03-31,23.973672,120.68085,1.8027535e-08
C1V780,多納林道,2025-03-31,22.888028,120.737917,1.0489781e-09
C0E920,通霄漁港,2025-03-31,24.498589,120.673876,4.1169743e-09
C0Z330,安通山,2025-03-31,23.290728,121.348528,6.7671335e-10
C0AH10,永和,2025-03-31,25.01125,121.508111,9.380416e-08
C0AK10,太平里,2025-03-31,25.134937,121.364899,7.4144904e-09
C2G640,鹿港,2025-03-31,24.0753,120.430481,2.59699e-08
C1E890,國三N149K,2025-03-31,24.463414,120.680019,1.4566814e-07
C1R110,口社,2025-03-31,22.770111,120.645222,0.025747715
C1M870,國三N285K,2025-03-31,23.550319,120.505833,0.5452346
467050,新屋,2025-03-31,25.006744,121.047486,0.024246117
C1E480,鳳美,2025-03-31,24.554803,121.034747,1.4637043e-06
C0M530,奮起湖,2025-03-31,23.493903,120.699253,1.2962197e-09
C0C590,觀音,2025-03-31,25.027072,121.153317,2.793219e-08
C0T9M0,靜浦,2025-03-31,23.455167,121.495028,3.6127604e-10
C2H9M0,發祥,2025-03-31,24.154094,121.164517,1.0553881e-09
C0AI40,石牌,2025-03-31,25.115597,121.513139,2.8015746e-08
C1F871,上谷關,2025-03-31,24.203483,121.018644,3.695905e-09
C2H9G0,百勝,2025-03-31,24.051142,120.909361,1.9825666e-09
C0G880,二水,2025-03-31,23.810742,120.6173,4.0595078e-05
C0R940,加祿堂,2025-03-31,22.3363,120.6217,1.0684078e-08
C0W220,北竿,2025-03-31,26.220358,119.974881,6.5022094e-09
C0O960,崎頂,2025-03-31,22.959547,120.369317,4.68669e-09
C0S750,向陽,2025-03-31,23.248397,120.986133,5.252469e-09
C0T9F0,水璉,2025-03-31,23.797131,121.542514,6.54471e-10
C1M600,頭凍,2025-03-31,23.406364,120.603339,1.982661e-09
467660,臺東,2025-03-31,22.752211,121.154586,0.03324052
C1D380,新埔,2025-03-31,24.84745,121.03834,2.0112885e-09
C2G980,田頭村,2025-03-31,23.8263,120.444175,1.3025494e-09
C0V750,路竹,2025-03-31,22.854997,120.259439,5.389332e-05
C0N050,蚵寮,2025-03-31,23.301,120.1104,3.0668894e-09
72M700,南改鹿草分場,2025-03-31,23.416869,120.283061,8.010155e-10
C1SA50,利嘉林道,2025-03-31,22.82325,121.009389,2.3038829e-09
467550,玉山,2025-03-31,23.487614,120.959522,4.8969067e-08
C0A940,金山,2025-03-31,25.223628,121.643967,4.7884907e-08
C1V340,大津,2025-03-31,22.888322,120.645986,2.7785777e-06
C0W180,七美,2025-03-31,23.219333,119.444892,0.9950316
C1F9C1,白冷,2025-03-31,24.182844,120.929889,2.0382322e-05
K2E710,苗改生物防治研究中心,2025-03-31,24.422861,120.871833,3.074267e-06
C0N040,蘆竹溝,2025-03-31,23.2344,120.0961,5.353736e-09
C2W230,畜試所澎湖,2025-03-31,23.628342,119.513206,0.0046173087
C0R880,後壁湖,2025-03-31,21.9457,120.7457,0.13367294
C1I280,埔中,2025-03-31,23.820778,120.642594,1.0218804e-08
467790,墾丁雷達站,2025-03-31,21.948235,120.808028,5.2065325e-06
C0W190,望安,2025-03-31,23.380564,119.494075,0.96627784
466881,新北,2025-03-31,24.9593,121.52,0.63401395
C0Z170,卓溪,2025-03-31,23.3443,121.3029,3.3600592e-10
C0F850,東勢,2025-03-31,24.246428,120.833047,1.8966577e-05
466900,淡水,2025-03-31,25.164889,121.448906,7.4144904e-09
C0I370,魚池,2025-03-31,23.895703,120.94135,5.857494e-10
C0C630,大溪,2025-03-31,24.882853,121.265547,3.1875593e-06
C0A520,山佳,2025-03-31,24.974944,121.402008,5.51521e-08
C0I110,竹山,2025-03-31,23.761225,120.688156,1.4931403e-05
82H840,茶改南部分場,2025-03-31,23.762528,120.7405,1.2623039e-08
C0G660,溪湖,2025-03-31,23.94835,120.479122,1.2147164e-09
C1T800,洛韶,2025-03-31,24.204558,121.453956,2.585409e-09
C1T810,慈恩,2025-03-31,24.192044,121.388386,4.00339e-09
C1E451,象鼻,2025-03-31,24.368617,120.940228,5.3161504e-08
C0AC60,三峽,2025-03-31,24.939025,121.369728,9.3329595e-07
C0I490,萬大林道,2025-03-31,23.928228,121.091411,2.3243109e-08
C1I290,豐丘,2025-03-31,23.668178,120.887417,9.102735e-10
C1I320,奧萬大,2025-03-31,23.952956,121.178556,2.9484047e-08
C2M910,嘉義大學,2025-03-31,23.471325,120.485903,1.428801e-06
C0U770,南澳,2025-03-31,24.44935,121.81022,1.6732277e-09
C0A980,社子,2025-03-31,25.109508,121.469681,8.093304e-09
C0V800,六龜,2025-03-31,22.997889,120.633583,7.979832e-08
C1G9D0,國一S218K,2025-03-31,23.890641,120.493253,1.0546959e-09
C0E570,白沙屯,2025-03-31,24.549447,120.696803,1.4863981e-07
C2F9A0,中竹林,2025-03-31,24.103556,120.751061,1.1248436e-06
C0FA40,臺中電廠,2025-03-31,24.2146,120.4907,6.964794e-08
C2G9A0,畜試所彰化,2025-03-31,23.86045,120.557964,5.9944476e-09
C0H9C0,合歡山,2025-03-31,24.143442,121.272547,4.6606626e-08
C0X060,下營,2025-03-31,23.22695,120.256261,2.2276696e-09
G2M350,農試溪口農場,2025-03-31,23.58565,120.408111,3.3152063e-09
C0U860,頭城,2025-03-31,24.85323,121.8308,1.0243665e-08
C0R580,南州,2025-03-31,22.48591,120.50274,1.33504445e-05
C0D430,峨眉,2025-03-31,24.6905,121.017189,2.138321e-08
C0G780,秀水,2025-03-31,24.03405,120.503869,4.811055e-09
72N100,臺南農改場,2025-03-31,23.0605,120.342194,1.5190698e-08
C0S900,蘭嶼高中,2025-03-31,22.04909,121.51214,0.99926305
467540,大武,2025-03-31,22.355675,120.903789,0.8250367
C1F9W0,德基,2025-03-31,24.254783,121.190261,3.0943588e-09
C1Z120,壽豐,2025-03-31,23.870853,121.508081,2.533213e-09
C0W160,烏坵,2025-03-31,24.9944,119.44956,8.406688e-09
C1I240,外大坪,2025-03-31,23.958697,120.917931,1.11045814e-07
C1I550,國六W023K,2025-03-31,23.979067,120.867742,8.61018e-10
C0R870,興海,2025-03-31,21.9752,120.8439,8.9918885e-06
C0R140,瑪家,2025-03-31,22.682903,120.686639,5.267287e-09
C0A530,坪林,2025-03-31,24.938183,121.70975,4.256452e-09
C0X260,後壁,2025-03-31,23.366358,120.362326,1.02906e-09
C0Z230,和平,2025-03-31,24.30717,121.77007,8.679341e-08
C0G770,福興,2025-03-31,24.041289,120.437669,3.391333e-09
C0H9A0,神木村,2025-03-31,23.532742,120.843667,3.2573721e-09
C0I460,南投,2025-03-31,23.911469,120.687331,1.34574165e-08
C0I480,梅峰,2025-03-31,24.085272,121.173572,3.391393e-08
C1V570,吉東,2025-03-31,22.85422,120.5454,4.1051315e-10
C2D740,屯原,2025-03-31,24.067969,121.209389,3.182239e-08
C2A560,福山,2025-03-31,24.776203,121.502811,5.7792127e-10
C0AH30,五分山,2025-03-31,25.07125,121.780794,1.1629615e-09
C0FA10,松柏,2025-03-31,24.429115,120.617482,3.954914e-07
72S200,東改班鳩分場,2025-03-31,22.829528,121.077694,4.149066e-09
72HA00,中改埔里分場,2025-03-31,23.903208,120.963364,9.2405994e-10
C2H9W0,大坪頂農水,2025-03-31,24.043122,120.932781,1.2200314e-09
C0C650,平鎮,2025-03-31,24.897503,121.214636,2.0003439e-08
C0S930,延平,2025-03-31,22.902581,121.084058,9.480181e-10
C0UA60,樟樹山,2025-03-31,24.41393,121.78325,6.097432e-10
C1S670,摩天,2025-03-31,23.199503,121.027,3.205098e-09
C0V630,茄萣,2025-03-31,22.906642,120.182608,8.933052e-05
466940,基隆,2025-03-31,25.133314,121.740475,1.9503337e-09
C0X050,東河,2025-03-31,23.296598,120.385608,7.6192464e-08
C0R770,保力,2025-03-31,22.071122,120.764111,5.5134954e-08
G2L020,農試嘉義分所,2025-03-31,23.485028,120.473806,0.0001018492
C0X240,關子嶺,2025-03-31,23.331169,120.508025,2.1009405e-09
C0I380,集集,2025-03-31,23.828206,120.801467,2.408432e-07
466990,花蓮,2025-03-31,23.975128,121.613275,8.006456e-07
C1V220,小關山,2025-03-31,23.154217,120.813603,3.0707232e-09
C1F9G1,慶福山,2025-03-31,24.180853,120.848378,5.0547584e-09
C0Z250,瑞穗林道,2025-03-31,23.49284,121.30688,2.2217121e-09
C0D590,新豐,2025-03-31,24.87068,120.97721,1.7889792e-09
C0A870,五指山,2025-03-31,25.132153,121.608692,1.875546e-09
C0UA50,西帽山,2025-03-31,24.555361,121.802628,6.004412e-10
C0X160,仁德,2025-03-31,22.968258,120.257689,2.2251763e-07
C1H971,六分寮,2025-03-31,23.92507,120.6378,1.3865857e-09
C0W120,西嶼,2025-03-31,23.5626,119.468436,0.06837138
C0G650,員林,2025-03-31,23.946503,120.585597,6.3740377e-09
C0AD50,鶯歌,2025-03-31,24.951533,121.346294,5.939894e-07
C2H9Q0,北東眼山,2025-03-31,24.120939,121.189303,4.375998e-09
C2H9T0,名間竹圍,2025-03-31,23.859914,120.637572,9.688518e-10
C0S990,山豬窟,2025-03-31,22.318619,120.857372,5.7238353e-10
72Q010,高雄農改,2025-03-31,22.709333,120.525889,0.87823886
C0X190,安平,2025-03-31,22.993161,120.152181,3.816682e-09
C0K400,斗六,2025-03-31,23.720583,120.541127,4.6712795e-08
12J990,口湖工作站,2025-03-31,23.589978,120.180394,3.820637e-09
C0O830,北寮,2025-03-31,23.079561,120.495008,3.101303e-08
C1D410,白蘭,2025-03-31,24.579364,121.079947,6.812048e-09
C0S970,加津林,2025-03-31,22.416211,120.926942,5.97594e-10
C0D700,關西,2025-03-31,24.7977,121.1732,1.14924426e-08
C0M810,里佳,2025-03-31,23.389125,120.716647,2.4716913e-09
C0U750,龜山島,2025-03-31,24.841667,121.953133,0.0054387725
C0R810,內獅,2025-03-31,22.305064,120.642986,1.1293851e-08
C1M390,龍美,2025-03-31,23.406728,120.654417,2.1162638e-09
C2FB60,頭櫃山,2025-03-31,24.129842,120.858925,1.1322013e-09
C1H840,國三N238K,2025-03-31,23.841008,120.707711,1.1434823e-09
CAQ030,崎峰國小,2025-03-31,22.42565,120.49521,1.33504445e-05
C2E520,大湖,2025-03-31,24.414939,120.870872,2.1085225e-06
467530,阿里山,2025-03-31,23.508208,120.813242,5.1853014e-08
C1E691,南湖,2025-03-31,24.40135,120.837533,4.1941942e-07
C0FA30,梧棲,2025-03-31,24.256003,120.523381,5.1497597e-08
C1V231,高中,2025-03-31,23.134911,120.716711,3.40044e-09
C0AK30,硬漢嶺,2025-03-31,25.136097,121.426372,1.7992452e-09
C0F9V0,新社,2025-03-31,24.200172,120.815806,0.00012424431
C0H890,埔里,2025-03-31,23.972169,120.952425,7.9774504e-10
C0R690,墾丁,2025-03-31,21.966756,120.810269,1.7170106e-07
C0F0D0,審馬陣,2025-03-31,24.381675,121.4203,2.963034e-08
C2W030,金門農試所,2025-03-31,24.448431,118.451786,5.5212803e-09
C0R820,白鷺,2025-03-31,22.454275,120.666219,3.9279924e-10
U2H480,臺大溪頭,2025-03-31,23.670306,120.798194,7.772069e-09
C1V190,南天池,2025-03-31,23.27403,120.91176,1.5522103e-08
K2E360,苗栗農改場,2025-03-31,24.495722,120.829111,8.633491e-08
CAJ050,海口故事園區,2025-03-31,23.57543,120.14121,3.820637e-09
C2H9D0,三隻寮,2025-03-31,24.093078,120.861578,1.2036645e-09
C0O990,媽廟,2025-03-31,22.99175,120.293525,2.363166e-08
C0D480,打鐵坑,2025-03-31,24.849664,121.150789,1.0541191e-06
C0Z220,和平林道,2025-03-31,24.343922,121.656317,4.2837365e-09
C0TA10,花蓮漁港,2025-03-31,23.995322,121.638331,1.6367649e-06
72C440,桃園農改場,2025-03-31,24.950944,121.030583,4.3784607e-09
C1E711,馬拉邦山,2025-03-31,24.367306,120.901656,4.7724612e-08
C0SB20,富岡,2025-03-31,22.792467,121.192669,1.9350463e-08
C0D560,竹東,2025-03-31,24.767147,121.057881,1.294318e-08
C0F9U0,南屯,2025-03-31,24.137006,120.637969,2.210703e-06
C0M720,番路,2025-03-31,23.464657,120.554156,1.1310681e-07
C0F0A0,雪山圈谷,2025-03-31,24.388594,121.236339,4.551344e-08
C1A9N0,四十份,2025-03-31,24.934158,121.593283,5.1220724e-07
C0U760,東澳,2025-03-31,24.52196,121.83318,1.3143696e-08
C0X230,鹽水,2025-03-31,23.272621,120.247641,2.8432392e-09
C2H9H0,苗改南投蜂場,2025-03-31,23.852589,120.693481,8.980577e-08
C0R950,萬隆國小,2025-03-31,22.507667,120.587817,6.9579396e-09
467540,大武,2025-03-31,22.35572,120.90374,6.2633526e-10
C0V370,古亭坑,2025-03-31,22.893178,120.401947,2.6005427e-09
C1I340,新興橋,2025-03-31,23.563333,120.868728,6.1085953e-10
C0SA80,土坂,2025-03-31,22.453108,120.887572,5.1431975e-10
C0R160,鹽埔,2025-03-31,22.739558,120.530778,3.9654655e-10
C0AC40,大屯山,2025-03-31,25.175675,121.522408,3.5311263e-09
466850,五分山雷達站,2025-03-31,25.071182,121.781205,1.170443e-09
C2H9L0,馬烈霸,2025-03-31,24.1512,121.201772,4.270317e-09
C1AI50,國三N016K,2025-03-31,25.034164,121.619664,2.7077545e-09
C1V600,藤枝,2025-03-31,23.071961,120.757042,3.2491814e-09
C1E601,南勢,2025-03-31,24.572486,120.734842,2.3048553e-08
C0Z180,新城,2025-03-31,24.03946,121.60454,6.043984e-07
C0O980,新市,2025-03-31,23.061614,120.298197,1.9717595e-08
C0K420,西螺,2025-03-31,23.800407,120.467394,1.2770026e-09
C0Z050,佳心,2025-03-31,23.34567,121.21316,1.1921377e-09
C0AD30,蘆洲,2025-03-31,25.086594,121.472331,3.7127985e-09
C0V610,梓官,2025-03-31,22.760558,120.267211,5.095036e-06
K2F750,種苗改良場,2025-03-31,24.225972,120.800917,0.00038262646
C0UA80,大溪漁港,2025-03-31,24.941801,121.902955,1.2418799e-07
C1AI60,國一39K邊坡,2025-03-31,25.064361,121.383836,1.9747015e-09
C0W150,金寧,2025-03-31,24.457703,118.328989,5.5012133e-09
C0R960,內埔,2025-03-31,22.608483,120.570714,3.1787692e-07
V2C250,八德合作社,2025-03-31,24.93775,121.266389,7.230232e-08
C2H9S0,龍南,2025-03-31,23.953536,120.833183,1.0303857e-09
C0AH40,平等,2025-03-31,25.129142,121.577086,2.0205628e-09
C0R540,佳冬,2025-03-31,22.419456,120.552375,7.846326e-05
466950,彭佳嶼,2025-03-31,25.627975,122.079744,0.10938906
C0A890,雙溪,2025-03-31,25.036003,121.864242,2.2451848e-06
C0C480,桃園,2025-03-31,24.992425,121.323172,4.084608e-09
C0AH50,林口,2025-03-31,25.072181,121.38084,1.6598645e-09
A2K360,水試臺西試驗場,2025-03-31,23.717231,120.190522,2.5990203e-09
B2N890,畜試所,2025-03-31,23.058972,120.336406,0.99153805
C2M960,外寮,2025-03-31,23.562643,120.665688,7.267695e-10
C0F9S0,烏日,2025-03-31,24.107058,120.624103,0.0002896788
C0C490,八德,2025-03-31,24.928708,121.283289,6.6913756e-08
C0R190,赤山,2025-03-31,22.592333,120.614306,2.5078432e-07
C0T820,天祥,2025-03-31,24.179597,121.495639,1.4338433e-09
C1F9E1,龍安,2025-03-31,24.1605,120.831961,1.6125381e-05
C0V820,小林,2025-03-31,23.148408,120.63325,1.2423942e-09
C2G870,芳苑,2025-03-31,23.922303,120.320025,3.1089118e-09
C0E850,大河,2025-03-31,24.618069,120.948578,2.7410091e-05
C1U670,寒溪,2025-03-31,24.634,121.71691,7.439475e-10
C0N020,城西,2025-03-31,23.0568,120.0956,3.816682e-09
C1Z110,三棧,2025-03-31,24.11557,121.60501,1.7527283e-09
C0R280,檳榔,2025-03-31,22.076078,120.836777,9.883037e-10
C2H9J0,中台,2025-03-31,23.9996,120.938739,8.064884e-10
C0F9L0,后里,2025-03-31,24.310436,120.729725,0.00035382225
467441,高雄,2025-03-31,22.730432,120.312516,4.680248e-06
C0Z180,新城,2025-03-31,24.040486,121.604878,6.043984e-07
C0D540,橫山,2025-03-31,24.71116,121.11693,1.1258029e-05
C1D420,太閣南,2025-03-31,24.632808,121.160575,2.0337318e-09
C1E770,公館,2025-03-31,24.526914,120.830806,1.349217e-07
CAN130,水試所海水繁養殖中心,2025-03-31,23.120802,120.07968,1.3637862e-07
C1I430,翠華,2025-03-31,24.191961,121.224339,9.261479e-09
C1M400,菜瓜坪,2025-03-31,23.251928,120.576103,7.03786e-10
C0G730,二林,2025-03-31,23.903325,120.376081,8.430062e-10
72M360,南改義竹分場,2025-03-31,23.360694,120.279361,1.1022129e-09
V2K620,麥寮合作社,2025-03-31,23.753836,120.294783,1.9438717e-09
C0Z070,舞鶴,2025-03-31,23.46811,121.37407,4.339118e-10
C0B040,大武崙,2025-03-31,25.166676,121.706993,1.7861357e-09
C1Z030,紅葉,2025-03-31,23.493119,121.338806,6.201609e-10
C1I050,丹大,2025-03-31,23.753747,121.141147,1.1110276e-08
C0I080,信義,2025-03-31,23.689694,120.851036,5.1575205e-10
C2M920,朴子農改,2025-03-31,23.469889,120.259383,8.010155e-10
C2A880,福隆,2025-03-31,25.017842,121.942083,2.415125e-07
C0Z160,鳳林,2025-03-31,23.746114,121.453411,4.5253706e-10
C0V210,復興,2025-03-31,23.222403,120.806089,1.949073e-09
C0H990,昆陽,2025-03-31,24.121322,121.273642,2.5075389e-08
C0R741,獅子,2025-03-31,22.202308,120.705236,2.328534e-09
C0S710,鹿野,2025-03-31,22.917711,121.122994,9.473204e-10
C0I530,小奇萊,2025-03-31,24.131764,121.295717,2.6968186e-08
C2K630,荷苞,2025-03-31,23.657717,120.595144,0.7591025
C0Z080,富源,2025-03-31,23.587642,121.378225,4.2405754e-10
467441,高雄,2025-03-31,22.7304,120.3125,0.9989695
C0SB10,美和,2025-03-31,22.682078,121.060236,3.9726422e-10
C2K620,馬光農場,2025-03-31,23.721453,120.378864,1.4027725e-09
C1I140,卡奈托灣,2025-03-31,23.754364,121.087872,5.293402e-09
C0I520,玉山風口,2025-03-31,23.470489,120.955994,8.978282e-08
C1G691,下水埔,2025-03-31,23.816114,120.5676,2.083185e-08
C0X110,臺南市南區,2025-03-31,22.961189,120.188378,2.2251763e-07
C0V680,仁武,2025-03-31,22.701083,120.347722,0.9562312
C2G840,北斗,2025-03-31,23.877586,120.514222,1.0260789e-09
C0R900,竹坑,2025-03-31,22.1385,120.7022,4.3480242e-05
C0K250,崙背,2025-03-31,23.75555,120.318925,1.9473636e-09
C0G860,社頭,2025-03-31,23.897647,120.5862,6.66254e-09
C0X150,安定,2025-03-31,23.102614,120.227839,4.6112936e-09
C0R590,里港,2025-03-31,22.77919,120.49459,3.1474956e-10
C0E610,馬都安,2025-03-31,24.451272,120.930192,2.4819306e-07
C0E550,明德,2025-03-31,24.583486,120.885411,6.422072e-07
C0R150,三地門,2025-03-31,22.709889,120.639944,0.031709876
C0G910,花壇,2025-03-31,24.032076,120.549461,3.94555e-09
C1D400,鳥嘴山,2025-03-31,24.71909,121.28387,2.6456348e-09
C0K500,元長,2025-03-31,23.64981,120.315024,1.7895492e-09
C0F0B0,石岡,2025-03-31,24.276061,120.777644,9.323382e-05
C2V250,甲仙,2025-03-31,23.080106,120.591758,5.6572613e-09
C0SA20,金崙山,2025-03-31,22.567419,120.959667,1.2245052e-09
C0V350,溪埔,2025-03-31,22.738578,120.446797,2.6236638e-10
C0M660,溪口,2025-03-31,23.604131,120.403569,3.3152063e-09
C1S880,壽卡,2025-03-31,22.238911,120.858903,1.0946162e-09
72D680,桃改新埔分場,2025-03-31,24.834444,121.066111,2.0584154e-09
