站號,站名,日期,lat,lon,BlastGRU-TW
12J990,口湖工作站,2025-01-03,23.589978,120.180394,0.0005665784
12Q970,東港工作站,2025-01-03,22.479997,120.466058,0.010129982
12Q980,恆春工作站,2025-01-03,22.079678,120.714425,0.0012549203
466881,新北,2025-01-03,24.9593,121.52,0.0008261135
466900,淡水,2025-01-03,25.164889,121.448906,0.0004778878
466920,臺北,2025-01-03,25.037658,121.514853,0.0011552365
466940,基隆,2025-01-03,25.133314,121.740475,0.008913906
466990,花蓮,2025-01-03,23.975128,121.613275,0.006036483
467050,新屋,2025-01-03,25.006744,121.047486,0.00033582686
467080,宜蘭,2025-01-03,24.763975,121.756528,0.009386505
467270,田中,2025-01-03,23.873803,120.581286,0.0026763717
467280,後龍,2025-01-03,24.648563,120.831834,0.00042483257
467290,古坑,2025-01-03,23.633639,120.551889,0.0025130648
467300,東吉島,2025-01-03,23.25695,119.667467,0.00044066634
467350,澎湖,2025-01-03,23.565503,119.563094,0.0004420269
467410,臺南,2025-01-03,22.993239,120.204772,0.0012085192
467420,永康,2025-01-03,23.038386,120.2367,0.0015814535
467441,高雄,2025-01-03,22.7304,120.3125,0.0063361563
467480,嘉義,2025-01-03,23.495925,120.432906,0.0015859327
467490,臺中,2025-01-03,24.145736,120.684075,0.0022640817
467540,大武,2025-01-03,22.355675,120.903789,0.007931936
467571,新竹,2025-01-03,24.827853,121.014219,0.0003312941
467590,恆春,2025-01-03,22.003897,120.746339,0.00045505774
467610,成功,2025-01-03,23.097486,121.373428,0.0022721232
467620,蘭嶼,2025-01-03,22.036969,121.558339,0.00045273599
467660,臺東,2025-01-03,22.752211,121.154586,0.0029359933
467790,墾丁雷達站,2025-01-03,21.948235,120.808028,0.00034569023
72AI40,桃改樹林分場,2025-01-03,24.944503,121.386972,0.0011235013
72C440,桃園農改,2025-01-03,24.950944,121.030583,0.00031847347
72C440,桃園農改場,2025-01-03,24.950944,121.030583,0.00031847376
72D680,桃改新埔分場,2025-01-03,24.834444,121.066111,0.00036397993
72G600,臺中農改,2025-01-03,24.003028,120.534389,0.0010875574
72G600,臺中農改場,2025-01-03,24.003028,120.534389,0.0010875574
72K220,南改斗南分場,2025-01-03,23.634556,120.477333,0.0020174272
72M360,南改義竹分場,2025-01-03,23.360694,120.279361,0.0010230532
72M700,南改鹿草分場,2025-01-03,23.416869,120.283061,0.0010906612
72N100,臺南農改,2025-01-03,23.0605,120.342194,0.0029623797
72N100,臺南農改場,2025-01-03,23.0605,120.342194,0.0029623797
72N240,七股研究中心,2025-01-03,23.081672,120.062894,0.00086719025
72Q010,高雄農改,2025-01-03,22.709333,120.525889,0.010064258
72Q010,高雄農改場,2025-01-03,22.709333,120.525889,0.010064258
72S200,東改班鳩分場,2025-01-03,22.829528,121.077694,0.0019256355
72S590,東改賓朗果園,2025-01-03,22.813889,121.071278,0.0016431793
72T250,花蓮農改,2025-01-03,23.975222,121.563889,0.0052879862
72T250,花蓮農改場,2025-01-03,23.975222,121.563889,0.0052879862
72U480,花改蘭陽分場,2025-01-03,24.686306,121.716583,0.029364292
72V140,高改旗南分場,2025-01-03,22.857861,120.516667,0.008872898
82A750,茶改北部分場,2025-01-03,24.955778,121.631222,0.0022593904
82C160,茶改場,2025-01-03,24.908472,121.185333,0.00054885057
82H840,茶改南部分場,2025-01-03,23.762528,120.7405,0.002701387
82S580,茶改東部分場,2025-01-03,22.907694,121.130139,0.0018357885
A2C560,農工中心,2025-01-03,24.985917,121.239833,0.0005379505
A2K360,水試臺西試驗場,2025-01-03,23.717231,120.190522,0.00053722644
A2K570,古坑花卉中心,2025-01-03,23.63353,120.55239,0.0025130636
A2K630,臺大雲林校區,2025-01-03,23.730628,120.423903,0.001244138
A2N290,臺南蘭花園區,2025-01-03,23.340258,120.379661,0.0016649171
B2E890,畜試北區分所,2025-01-03,24.527806,120.770972,0.00054991036
B2N890,畜產試驗所,2025-01-03,23.058972,120.336406,0.0029739635
B2N890,畜試所,2025-01-03,23.058972,120.336406,0.0029739635
B2Q810,畜試南區分所,2025-01-03,21.945583,120.802167,0.0004191232
B2U990,畜試東區分所,2025-01-03,24.669039,121.832561,0.055509478
C0A520,山佳,2025-01-03,24.974944,121.402008,0.0008739841
C0A530,坪林,2025-01-03,24.938183,121.70975,0.0024203425
C0A550,泰平,2025-01-03,24.971197,121.823711,0.0036187908
C0A570,桶後,2025-01-03,24.848222,121.597992,0.0058333785
C0A640,石碇,2025-01-03,24.993969,121.662917,0.0009955942
C0A770,科教館,2025-01-03,25.096356,121.516507,0.0010449647
C0A860,大坪,2025-01-03,25.165914,121.632969,0.0011702442
C0A890,雙溪,2025-01-03,25.036003,121.864242,0.009277314
C0A931,三和,2025-01-03,25.233153,121.595236,0.001946593
C0A940,金山,2025-01-03,25.223628,121.643967,0.0049489723
C0A950,鼻頭角,2025-01-03,25.129036,121.923372,0.0011581416
C0A970,三貂角,2025-01-03,25.007606,122.002058,0.016236654
C0A980,社子,2025-01-03,25.109508,121.469681,0.00048231063
C0A9C0,天母,2025-01-03,25.117494,121.537169,0.0007806386
C0A9F0,內湖,2025-01-03,25.079422,121.57545,0.0011552365
C0AC60,三峽,2025-01-03,24.939025,121.369728,0.0011003185
C0AC70,信義,2025-01-03,25.037822,121.564597,0.0011552365
C0AC80,文山,2025-01-03,25.00235,121.575728,0.0007965672
C0ACA0,新莊,2025-01-03,25.051478,121.446756,0.0008031452
C0AD10,八里,2025-01-03,25.150211,121.403947,0.0004642686
C0AD30,蘆洲,2025-01-03,25.086594,121.472331,0.0010392847
C0AD40,土城,2025-01-03,24.973208,121.445169,0.0008391764
C0AD50,鶯歌,2025-01-03,24.951533,121.346294,0.0010664866
C0AG80,中和,2025-01-03,24.991622,121.491792,0.0008391764
C0AH00,汐止,2025-01-03,25.066881,121.658778,0.0011552365
C0AH10,永和,2025-01-03,25.01125,121.508111,0.00084926956
C0AH40,平等,2025-01-03,25.129142,121.577086,0.0010672458
C0AH50,林口,2025-01-03,25.072181,121.38084,0.0004977313
C0AH70,松山,2025-01-03,25.04871,121.55042,0.0011552365
C0AH80,深坑,2025-01-03,25.002703,121.628328,0.0007995592
C0AI00,五股,2025-01-03,25.07445,121.42728,0.00049051427
C0AI10,屈尺,2025-01-03,24.92184,121.54475,0.0057606315
C0AI20,白沙灣,2025-01-03,25.283128,121.519058,0.0015722737
C0AI30,三重,2025-01-03,25.057328,121.500629,0.0011756405
C0AI40,石牌,2025-01-03,25.115597,121.513139,0.00078664214
C0AJ20,野柳,2025-01-03,25.20703,121.690021,0.0060880915
C0AJ30,淡水觀海,2025-01-03,25.184591,121.408616,0.0014299857
C0AJ40,石門,2025-01-03,25.273672,121.601198,0.0011865525
C0AJ50,水湳洞,2025-01-03,25.123695,121.862238,0.008954794
C0AJ60,六塊厝,2025-01-03,25.24,121.4481,0.0016306986
C0AJ70,田寮,2025-01-03,25.2698,121.4886,0.0016004218
C0AJ80,板橋,2025-01-03,25.0107,121.4489,0.00084926956
C0AJ90,澳底,2025-01-03,25.0552,121.9253,0.0117745185
C0B010,七堵,2025-01-03,25.094819,121.71713,0.0019192273
C0B020,基隆嶼,2025-01-03,25.19141,121.78391,0.001929001
C0B040,大武崙,2025-01-03,25.166676,121.706993,0.007634956
C0B050,八斗子,2025-01-03,25.144754,121.79167,0.009322912
C0B060,暖暖,2025-01-03,25.0957,121.7403,0.0016813611
C0C460,復興,2025-01-03,24.820208,121.352281,0.0014413643
C0C480,桃園,2025-01-03,24.992425,121.323172,0.000678537
C0C490,八德,2025-01-03,24.928708,121.283289,0.0008627023
C0C590,觀音,2025-01-03,25.027072,121.153317,0.00034361353
C0C620,蘆竹,2025-01-03,25.084275,121.265767,0.00042190054
C0C630,大溪,2025-01-03,24.882853,121.265547,0.00086705806
C0C650,平鎮,2025-01-03,24.897503,121.214636,0.00081326277
C0C660,楊梅,2025-01-03,24.912375,121.143047,0.0005630648
C0C670,龍潭,2025-01-03,24.870056,121.221389,0.00082639186
C0C680,龜山,2025-01-03,25.02846,121.38656,0.0004645621
C0C700,中壢,2025-01-03,24.977661,121.256375,0.0006079371
C0C710,大溪永福,2025-01-03,24.892936,121.324975,0.0021085087
C0C720,竹圍,2025-01-03,25.112692,121.239824,0.00036942266
C0C730,中大臨海站,2025-01-03,24.966126,121.008581,0.00033567657
C0C740,觀音工業區,2025-01-03,25.064764,121.114856,0.0003425035
C0C750,新興坑尾,2025-01-03,25.0061,121.0971,0.00033951065
C0D430,峨眉,2025-01-03,24.6905,121.017189,0.00039605497
C0D480,打鐵坑,2025-01-03,24.849664,121.150789,0.0008243584
C0D540,橫山,2025-01-03,24.71116,121.11693,0.0005755984
C0D560,竹東,2025-01-03,24.767147,121.057881,0.00051531015
C0D580,寶山,2025-01-03,24.735006,121.025192,0.00056289765
C0D590,新豐,2025-01-03,24.87068,120.97721,0.0003070854
C0D650,湖口,2025-01-03,24.904794,121.043628,0.00035388008
C0D660,新竹市東區,2025-01-03,24.798681,120.986942,0.00037344266
C0D670,海天一線,2025-01-03,24.831986,120.914438,0.00027943836
C0D680,香山濕地,2025-01-03,24.783581,120.914988,0.00037242126
C0D690,外湖,2025-01-03,24.917735,120.968711,0.0003516982
C0D700,關西,2025-01-03,24.7977,121.1732,0.0005413139
C0E420,竹南,2025-01-03,24.708978,120.888897,0.00033900095
C0E430,南庄,2025-01-03,24.601775,121.000214,0.0007909137
C0E550,明德,2025-01-03,24.583486,120.885411,0.0004878039
C0E590,通霄,2025-01-03,24.471892,120.704622,0.00043125745
C0E730,頭份,2025-01-03,24.688247,120.912206,0.00033855345
C0E740,造橋,2025-01-03,24.637056,120.864778,0.00042655863
C0E750,苗栗,2025-01-03,24.564569,120.824575,0.0004909417
C0E780,銅鑼,2025-01-03,24.489681,120.790853,0.00052939425
C0E791,卓蘭,2025-01-03,24.3126,120.8244,0.0013610856
C0E810,西湖,2025-01-03,24.562947,120.7485,0.0003433172
C0E820,獅潭,2025-01-03,24.539133,120.920042,0.00078614376
C0E830,苑裡,2025-01-03,24.439714,120.653053,0.00040268293
C0E850,大河,2025-01-03,24.618069,120.948578,0.00062935933
C0E870,高鐵苗栗,2025-01-03,24.60725,120.826094,0.00042540234
C0E910,海埔,2025-01-03,24.648767,120.772435,0.00038839682
C0E920,通霄漁港,2025-01-03,24.498589,120.673876,0.00040376864
C0E930,龍鳳,2025-01-03,24.700034,120.859125,0.00033866096
C0F0B0,石岡,2025-01-03,24.276061,120.777644,0.0018953561
C0F850,東勢,2025-01-03,24.246428,120.833047,0.0011365879
C0F970,大坑,2025-01-03,24.173142,120.722289,0.002401705
C0F9I0,神岡,2025-01-03,24.272481,120.658314,0.0010201663
C0F9K0,大安,2025-01-03,24.345061,120.588025,0.00042193994
C0F9L0,后里,2025-01-03,24.310436,120.729725,0.0021145903
C0F9M0,豐原,2025-01-03,24.254322,120.720692,0.0022470313
C0F9N0,大里,2025-01-03,24.092464,120.701378,0.0036518327
C0F9O0,潭子,2025-01-03,24.213106,120.703933,0.0021134377
C0F9P0,清水,2025-01-03,24.312297,120.562242,0.0005118113
C0F9Q0,外埔,2025-01-03,24.347817,120.705686,0.0008910741
C0F9R0,龍井,2025-01-03,24.184536,120.528972,0.00063191284
C0F9S0,烏日,2025-01-03,24.107058,120.624103,0.0041502463
C0F9T0,西屯,2025-01-03,24.179494,120.641275,0.0013768544
C0F9U0,南屯,2025-01-03,24.137006,120.637969,0.0014499002
C0F9X0,大雅(中科園區),2025-01-03,24.21528,120.62445,0.0009163408
C0FA10,松柏,2025-01-03,24.429115,120.617482,0.0004001237
C0FA20,溫寮,2025-01-03,24.372177,120.583125,0.00042398256
C0FA30,梧棲,2025-01-03,24.256003,120.523381,0.0005118113
C0FA40,臺中電廠,2025-01-03,24.2146,120.4907,0.00052296254
C0FA50,霧峰,2025-01-03,24.0419,120.6995,0.0041834204
C0G620,芬園,2025-01-03,24.015678,120.6213,0.0047232686
C0G650,員林,2025-01-03,23.946503,120.585597,0.0030155615
C0G660,溪湖,2025-01-03,23.94835,120.479122,0.0010518513
C0G720,溪州,2025-01-03,23.851589,120.499093,0.0015320416
C0G730,二林,2025-01-03,23.903325,120.376081,0.0006445522
C0G740,大城,2025-01-03,23.852487,120.320935,0.0005796951
C0G770,福興,2025-01-03,24.041289,120.437669,0.00062122376
C0G780,秀水,2025-01-03,24.03405,120.503869,0.0010945617
C0G800,埔鹽,2025-01-03,24.000394,120.431683,0.00061994826
C0G810,埔心,2025-01-03,23.947633,120.525456,0.0010360725
C0G820,田尾,2025-01-03,23.901669,120.509389,0.0015436927
C0G830,埤頭,2025-01-03,23.866003,120.452806,0.0015714976
C0G860,社頭,2025-01-03,23.897647,120.5862,0.0027662814
C0G880,二水,2025-01-03,23.810742,120.6173,0.002446201
C0G890,伸港,2025-01-03,24.148933,120.484403,0.00067116495
C0G900,線西,2025-01-03,24.143358,120.443536,0.00067296345
C0G910,花壇,2025-01-03,24.032076,120.549461,0.0010626987
C0G920,永靖,2025-01-03,23.924703,120.547533,0.0015436927
C0G940,竹塘,2025-01-03,23.848253,120.386764,0.0006481678
C0G950,防潮門,2025-01-03,24.1835,120.4871,0.00063191284
C0G960,福寶,2025-01-03,24.0443,120.3814,0.0006159778
C0G970,三豐,2025-01-03,23.882,120.2895,0.0005386801
C0H890,埔里,2025-01-03,23.972169,120.952425,0.004952103
C0H960,草屯,2025-01-03,23.973672,120.68085,0.0048268856
C0I110,竹山,2025-01-03,23.761225,120.688156,0.0018526352
C0I360,水里,2025-01-03,23.812553,120.849792,0.0033775272
C0I380,集集,2025-01-03,23.828206,120.801467,0.0034529818
C0I410,名間,2025-01-03,23.837053,120.701447,0.0026658473
C0I420,國姓,2025-01-03,24.037803,120.855072,0.0038805907
C0I460,南投,2025-01-03,23.911469,120.687331,0.005385574
C0K250,崙背,2025-01-03,23.75555,120.318925,0.0007604086
C0K280,四湖,2025-01-03,23.630414,120.227125,0.00059891137
C0K291,宜梧,2025-01-03,23.536281,120.169329,0.00076445733
C0K330,虎尾,2025-01-03,23.719183,120.442036,0.0014183295
C0K390,土庫,2025-01-03,23.679029,120.395574,0.0011302124
C0K400,斗六,2025-01-03,23.720583,120.541127,0.0022044773
C0K410,北港,2025-01-03,23.573957,120.292802,0.00074737566
C0K420,西螺,2025-01-03,23.800407,120.467394,0.0014605228
C0K430,褒忠,2025-01-03,23.690938,120.303634,0.0006361058
C0K440,二崙,2025-01-03,23.772797,120.408944,0.0012978202
C0K450,大埤,2025-01-03,23.646074,120.431537,0.0014761891
C0K460,斗南,2025-01-03,23.678734,120.478359,0.0020174272
C0K470,林內,2025-01-03,23.748675,120.609642,0.0024339154
C0K480,莿桐,2025-01-03,23.761192,120.502372,0.0022276666
C0K500,元長,2025-01-03,23.64981,120.315024,0.0008074436
C0K510,水林,2025-01-03,23.572924,120.24597,0.0007490745
C0K530,臺西,2025-01-03,23.701547,120.197559,0.00053429016
C0K550,蔦松,2025-01-03,23.514319,120.229736,0.00076445733
C0K560,棋山,2025-01-03,23.68645,120.603417,0.0023854622
C0K580,高鐵雲林,2025-01-03,23.737456,120.417944,0.001244138
C0K590,雲林東勢,2025-01-03,23.674192,120.255721,0.0007458463
C0K600,箔子寮,2025-01-03,23.6197,120.14,0.0005665784
C0M520,東後寮,2025-01-03,23.369908,120.248065,0.0010281624
C0M640,中埔,2025-01-03,23.42538,120.5229,0.0020569565
C0M650,朴子,2025-01-03,23.43463,120.23902,0.0010963237
C0M660,溪口,2025-01-03,23.604131,120.403569,0.0014277595
C0M670,大林,2025-01-03,23.600616,120.45841,0.0018798287
C0M680,太保,2025-01-03,23.455062,120.331455,0.0018720675
C0M690,水上,2025-01-03,23.419734,120.388909,0.0017550322
C0M700,竹崎,2025-01-03,23.526178,120.555508,0.0017821523
C0M710,東石,2025-01-03,23.458927,120.15385,0.0007075921
C0M720,番路,2025-01-03,23.464657,120.554156,0.0027239695
C0M730,嘉義市東區,2025-01-03,23.457673,120.460531,0.003238773
C0M740,六腳,2025-01-03,23.492871,120.290625,0.0010581207
C0M750,布袋,2025-01-03,23.380878,120.167789,0.0009692278
C0M760,民雄,2025-01-03,23.551754,120.428457,0.0016117619
C0M770,嘉義梅山,2025-01-03,23.585398,120.555587,0.0016890543
C0M780,鹿草,2025-01-03,23.41134,120.30835,0.0010784407
C0M790,新港,2025-01-03,23.553269,120.345728,0.0012212303
C0M800,茶山,2025-01-03,23.299075,120.664767,0.019000648
C0M880,好美里,2025-01-03,23.3364,120.138,0.0009363765
C0N010,鯤鯓國小,2025-01-03,23.1879,120.0889,0.0008867372
C0N020,城西,2025-01-03,23.0568,120.0956,0.0012528176
C0N030,四草,2025-01-03,23.0235,120.1116,0.001261091
C0N040,蘆竹溝,2025-01-03,23.2344,120.0961,0.00095696026
C0N050,蚵寮,2025-01-03,23.301,120.1104,0.0010038825
C0O830,北寮,2025-01-03,23.079561,120.495008,0.007147088
C0O840,王爺宮,2025-01-03,23.222064,120.40085,0.0016546281
C0O860,大內,2025-01-03,23.11885,120.36083,0.0031583556
C0O900,善化,2025-01-03,23.112883,120.297219,0.002476962
C0O960,崎頂,2025-01-03,22.959547,120.369317,0.0024573456
C0O970,虎頭埤,2025-01-03,23.021375,120.347878,0.0035402572
C0O980,新市,2025-01-03,23.061614,120.298197,0.002091154
C0O990,媽廟,2025-01-03,22.99175,120.293525,0.0015264672
C0R150,三地門,2025-01-03,22.709889,120.639944,0.030233713
C0R160,鹽埔,2025-01-03,22.739558,120.530778,0.010064258
C0R170,屏東,2025-01-03,22.660269,120.494072,0.008376761
C0R190,赤山,2025-01-03,22.592333,120.614306,0.02284813
C0R220,潮州,2025-01-03,22.534361,120.54,0.019249301
C0R240,來義,2025-01-03,22.527306,120.625111,0.009730534
C0R260,春日,2025-01-03,22.370361,120.628306,0.0833214
C0R270,琉球嶼,2025-01-03,22.332244,120.362236,0.008955636
C0R280,檳榔,2025-01-03,22.076078,120.836777,0.000613757
C0R320,車城,2025-01-03,22.0744,120.716247,0.0012549203
C0R341,牡丹,2025-01-03,22.130036,120.792639,0.00062663783
C0R350,貓鼻頭,2025-01-03,21.921774,120.7358,0.0012959371
C0R470,高樹,2025-01-03,22.826389,120.600806,0.0052347775
C0R480,長治,2025-01-03,22.693128,120.542622,0.011238662
C0R490,九如,2025-01-03,22.7405,120.490503,0.010471008
C0R520,崁頂,2025-01-03,22.514781,120.506914,0.020316005
C0R540,佳冬,2025-01-03,22.419456,120.552375,0.13935933
C0R550,新埤,2025-01-03,22.467947,120.582894,0.007625272
C0R560,新園,2025-01-03,22.5434,120.461558,0.013104579
C0R570,麟洛,2025-01-03,22.65078,120.52719,0.008376765
C0R580,南州,2025-01-03,22.48591,120.50274,0.010129982
C0R590,里港,2025-01-03,22.77919,120.49459,0.013828067
C0R620,墾雷,2025-01-03,21.900836,120.855269,0.00034149992
C0R640,東港,2025-01-03,22.46247,120.44074,0.010129982
C0R650,竹田,2025-01-03,22.58486,120.54344,0.02302031
C0R660,枋寮,2025-01-03,22.367722,120.590647,0.14123729
C0R670,楓港,2025-01-03,22.190131,120.692156,0.0011478179
C0R680,佳樂水,2025-01-03,21.993578,120.861633,0.00040726748
C0R690,墾丁,2025-01-03,21.966756,120.810269,0.00031388298
C0R700,枋山,2025-01-03,22.246844,120.661086,0.025264803
C0R710,龍磐,2025-01-03,21.931672,120.838942,0.0005487195
C0R720,旭海,2025-01-03,22.205403,120.887614,0.00074712216
C0R730,大坪頂,2025-01-03,22.024633,120.69355,0.0005090822
C0R740,獅子,2025-01-03,22.201569,120.70525,0.0012348543
C0R760,南仁湖,2025-01-03,22.084681,120.863353,0.0005448626
C0R770,保力,2025-01-03,22.071122,120.764111,0.0010179154
C0R780,滿州,2025-01-03,22.024403,120.839892,0.00044248774
C0R790,九棚,2025-01-03,22.14195,120.889281,0.0007045232
C0R800,丹路,2025-01-03,22.204481,120.750989,0.000990498
C0R810,內獅,2025-01-03,22.305064,120.642986,0.012461895
C0R830,高士,2025-01-03,22.121825,120.836781,0.0005191515
C0R850,林邊,2025-01-03,22.4634,120.5339,0.009686304
C0R860,鼻頭,2025-01-03,22.1043,120.8979,0.00087290595
C0R870,興海,2025-01-03,21.9752,120.8439,0.0004191232
C0R880,後壁湖,2025-01-03,21.9457,120.7457,0.00086289964
C0R890,山海,2025-01-03,21.9878,120.7091,0.00085546734
C0R900,竹坑,2025-01-03,22.1385,120.7022,0.0012275963
C0R910,下寮,2025-01-03,22.3929,120.5548,0.14123729
C0R920,塭仔,2025-01-03,22.4169,120.5197,0.14835414
C0R930,萬丹,2025-01-03,22.5885,120.4851,0.01216075
C0R940,加祿堂,2025-01-03,22.3363,120.6217,0.0496929
C0S710,鹿野,2025-01-03,22.917711,121.122994,0.0014944844
C0S730,綠島,2025-01-03,22.6672,121.47533,0.0007337669
C0S740,池上,2025-01-03,23.119628,121.209469,0.0012689536
C0S770,大溪山,2025-01-03,22.478475,120.943325,0.0021062805
C0S790,金崙,2025-01-03,22.538122,120.966875,0.0106425155
C0S810,東河,2025-01-03,22.972672,121.303986,0.001295224
C0S830,長濱,2025-01-03,23.286817,121.411975,0.0031116935
C0S840,南田,2025-01-03,22.279725,120.889208,0.00067212415
C0S890,關山,2025-01-03,23.0395,121.175017,0.0017234539
C0S900,蘭嶼高中,2025-01-03,22.04909,121.51214,0.0003101814
C0S910,蘭嶼燈塔,2025-01-03,22.081197,121.503117,0.0006248063
C0S920,金峰嘉蘭,2025-01-03,22.594789,120.960825,0.015093021
C0S930,延平,2025-01-03,22.902581,121.084058,0.001579543
C0S940,石寧山,2025-01-03,23.223772,121.406639,0.0058617303
C0S950,七塊厝,2025-01-03,22.954453,121.229922,0.0012266419
C0S960,香蘭,2025-01-03,22.587569,120.993375,0.026284948
C0S970,加津林,2025-01-03,22.416211,120.926942,0.0063242847
C0S990,山豬窟,2025-01-03,22.318619,120.857372,0.0012209696
C0SA00,歷坵,2025-01-03,22.520969,120.89185,0.0030589874
C0SA10,檳榔四格山,2025-01-03,22.810031,121.109308,0.0019750372
C0SA30,都歷,2025-01-03,23.020333,121.323642,0.002772079
C0SA40,瑞和,2025-01-03,22.974361,121.156697,0.001806552
C0SA60,知本（水試所）,2025-01-03,22.702394,121.082761,0.039717775
C0SA80,土坂,2025-01-03,22.453108,120.887572,0.0073728124
C0SA90,達仁林場,2025-01-03,22.264347,120.823972,0.0005606098
C0T870,鯉魚潭,2025-01-03,23.935639,121.508944,0.0034794586
C0T900,西林,2025-01-03,23.8119,121.441458,0.0026467496
C0T960,光復,2025-01-03,23.660694,121.424964,0.0013428265
C0T9A0,月眉山,2025-01-03,23.809928,121.539828,0.0020971568
C0T9D0,和中,2025-01-03,24.26676,121.74103,0.0050294828
C0T9E0,大坑,2025-01-03,23.880628,121.581981,0.0022638633
C0T9F0,水璉,2025-01-03,23.797131,121.542514,0.0020568059
C0T9I0,豐濱,2025-01-03,23.583897,121.514806,0.001527677
C0T9M0,靜浦,2025-01-03,23.455167,121.495028,0.0027188705
C0T9N0,富里,2025-01-03,23.171639,121.249378,0.0019572459
C0U600,礁溪,2025-01-03,24.817539,121.765608,0.0057738647
C0U650,玉蘭,2025-01-03,24.675286,121.587061,0.006265142
C0U750,龜山島,2025-01-03,24.841667,121.953133,0.0011721128
C0U760,東澳,2025-01-03,24.52196,121.83318,0.009652304
C0U770,南澳,2025-01-03,24.44935,121.81022,0.0030429445
C0U780,五結,2025-01-03,24.68637,121.79794,0.034363728
C0U860,頭城,2025-01-03,24.85323,121.8308,0.006084529
C0U870,大礁溪,2025-01-03,24.791042,121.675047,0.0046066525
C0U880,北關,2025-01-03,24.9072,121.8734,0.020591369
C0U890,三星,2025-01-03,24.66812,121.65302,0.056790773
C0U900,內城,2025-01-03,24.71813,121.68766,0.026334237
C0U910,冬山,2025-01-03,24.63373,121.7937,0.055509478
C0U940,羅東,2025-01-03,24.68184,121.74934,0.031076392
C0U970,大福,2025-01-03,24.80064,121.81389,0.009900882
C0U990,員山,2025-01-03,24.74435,121.72247,0.03242838
C0UA00,土場,2025-01-03,24.576533,121.495333,0.0073135607
C0UA80,大溪漁港,2025-01-03,24.941801,121.902955,0.015557123
C0UA90,石城,2025-01-03,24.980444,121.951214,0.026606837
C0UB00,淡江大學蘭陽校園,2025-01-03,24.823239,121.730383,0.0031876946
C0UB10,蘇澳,2025-01-03,24.5969,121.8571,0.22596933
C0UB20,壯圍,2025-01-03,24.7359,121.8163,0.034845836
C0V310,美濃,2025-01-03,22.898742,120.519153,0.008872898
C0V350,溪埔,2025-01-03,22.738578,120.446797,0.0137069505
C0V360,內門,2025-01-03,22.975481,120.466769,0.006834243
C0V370,古亭坑,2025-01-03,22.893178,120.401947,0.0052792523
C0V400,阿公店,2025-01-03,22.804194,120.355528,0.009190193
C0V440,鳳山,2025-01-03,22.646653,120.356122,0.0050025363
C0V450,鳳森,2025-01-03,22.545064,120.392592,0.006314739
C0V490,新興,2025-01-03,22.627422,120.298803,0.0053633116
C0V530,阿蓮,2025-01-03,22.883208,120.327508,0.0030292347
C0V610,梓官,2025-01-03,22.760558,120.267211,0.004328778
C0V620,永安,2025-01-03,22.82315,120.236856,0.0018547033
C0V630,茄萣,2025-01-03,22.906642,120.182608,0.0011554131
C0V640,湖內,2025-01-03,22.887139,120.2445,0.0014918618
C0V650,彌陀,2025-01-03,22.783806,120.246361,0.002780273
C0V660,岡山,2025-01-03,22.797078,120.294958,0.002780273
C0V680,仁武,2025-01-03,22.701083,120.347722,0.0046423357
C0V690,鼓山,2025-01-03,22.623325,120.275575,0.0053633195
C0V700,三民,2025-01-03,22.645017,120.311233,0.0031240184
C0V710,苓雅,2025-01-03,22.622742,120.330669,0.00968255
C0V720,林園,2025-01-03,22.507747,120.394511,0.010483613
C0V730,大寮,2025-01-03,22.605614,120.395717,0.009194857
C0V740,旗山,2025-01-03,22.888614,120.483597,0.008510457
C0V750,路竹,2025-01-03,22.854997,120.259439,0.001472587
C0V760,橋頭,2025-01-03,22.757806,120.30575,0.0043287803
C0V770,大社,2025-01-03,22.730306,120.346639,0.0063361563
C0V790,萬山,2025-01-03,22.905944,120.688056,0.004025448
C0V800,六龜,2025-01-03,22.997889,120.633583,0.0060989433
C0V810,左營,2025-01-03,22.67491,120.28491,0.0031240184
C0V820,小林,2025-01-03,23.148408,120.63325,0.0035223453
C0V840,鳳鼻頭,2025-01-03,22.5083,120.3591,0.013782811
C0V850,蚵仔寮,2025-01-03,22.7256,120.2527,0.004488274
C0V860,南寮,2025-01-03,22.7616,120.2339,0.0045169913
C0V870,文安,2025-01-03,22.8025,120.2164,0.0028388316
C0V880,興達,2025-01-03,22.8778,120.2127,0.0015103172
C0V890,前鎮,2025-01-03,22.5718,120.3117,0.005537911
C0V900,汕尾,2025-01-03,22.4782,120.4151,0.010129982
C0W200,湖西,2025-01-03,23.596314,119.67275,0.00045502585
C0X050,東河,2025-01-03,23.296598,120.385608,0.0024576376
C0X060,下營,2025-01-03,23.22695,120.256261,0.0015516808
C0X080,佳里,2025-01-03,23.173039,120.145086,0.0008867372
C0X100,臺南市北區,2025-01-03,23.010394,120.194228,0.0012470263
C0X110,臺南市南區,2025-01-03,22.961189,120.188378,0.001368252
C0X120,麻豆,2025-01-03,23.183289,120.248611,0.0019309326
C0X130,官田,2025-01-03,23.193217,120.315422,0.0024615196
C0X140,西港,2025-01-03,23.125608,120.203108,0.0016941153
C0X150,安定,2025-01-03,23.102614,120.227839,0.0016941153
C0X160,仁德,2025-01-03,22.968258,120.257689,0.0013652139
C0X170,關廟,2025-01-03,22.963017,120.327797,0.003074566
C0X180,山上,2025-01-03,23.0757,120.363253,0.003890557
C0X190,安平,2025-01-03,22.993161,120.152181,0.0012470263
C0X200,左鎮,2025-01-03,23.056758,120.408522,0.0036461428
C0X210,白河,2025-01-03,23.347466,120.414427,0.002762798
C0X220,學甲,2025-01-03,23.230367,120.182187,0.00095343316
C0X230,鹽水,2025-01-03,23.272621,120.247641,0.0010712557
C0X240,關子嶺,2025-01-03,23.331169,120.508025,0.0020025116
C0X250,新營,2025-01-03,23.310689,120.316681,0.0017034253
C0X260,後壁,2025-01-03,23.366358,120.362326,0.0016649171
C0X280,將軍,2025-01-03,23.214999,120.13577,0.00095696026
C0X290,北門,2025-01-03,23.267772,120.125481,0.00095696026
C0X300,鹿寮,2025-01-03,23.386047,120.477331,0.0028235551
C0X320,柳營,2025-01-03,23.253328,120.375253,0.0022967074
C0Z020,明里,2025-01-03,23.208717,121.262342,0.0039172173
C0Z061,玉里,2025-01-03,23.3215,121.339656,0.004168631
C0Z070,舞鶴,2025-01-03,23.46811,121.37407,0.0024726058
C0Z080,富源,2025-01-03,23.587642,121.378225,0.0073992554
C0Z100,東華,2025-01-03,23.89525,121.549833,0.0041326275
C0Z150,吉安光華,2025-01-03,23.930925,121.595153,0.005500372
C0Z160,鳳林,2025-01-03,23.746114,121.453411,0.005547376
C0Z170,卓溪,2025-01-03,23.3443,121.3029,0.0034941072
C0Z180,新城,2025-01-03,24.03946,121.60454,0.0057597826
C0Z190,富世,2025-01-03,24.14743,121.6297,0.0039018902
C0Z200,萬榮,2025-01-03,23.709219,121.420106,0.004673584
C0Z210,瑞穗,2025-01-03,23.5239,121.39021,0.002059407
C0Z230,和平,2025-01-03,24.30717,121.77007,0.0051942794
C0Z270,蕃薯寮,2025-01-03,23.73835,121.540108,0.0025641848
C0Z280,德武,2025-01-03,23.47426,121.41071,0.0026276857
C0Z300,東里,2025-01-03,23.26853,121.30547,0.0048930687
C0Z310,清水斷崖,2025-01-03,24.218294,121.689142,0.0019207096
C0Z330,安通山,2025-01-03,23.290728,121.348528,0.0020446468
C2A540,四堵,2025-01-03,24.8926,121.745736,0.0018858247
C2A560,福山,2025-01-03,24.776203,121.502811,0.028359756
C2A650,火燒寮,2025-01-03,25.002719,121.742892,0.0035251935
C2A660,瑞芳,2025-01-03,25.113169,121.801147,0.0062248106
C2A880,福隆,2025-01-03,25.017842,121.942083,0.028419157
C2A920,富貴角,2025-01-03,25.263783,121.565258,0.0011025859
C2E520,大湖,2025-01-03,24.414939,120.870872,0.0011275837
C2E540,後龍,2025-01-03,24.606489,120.783933,0.00038776032
C2E540,龍溪,2025-01-03,24.606489,120.783933,0.0003877605
C2F000,大肚,2025-01-03,24.15295,120.572117,0.0014208996
C2F930,大甲,2025-01-03,24.347667,120.640403,0.00041595683
C2F9A0,中竹林,2025-01-03,24.103556,120.751061,0.002682779
C2G640,鹿港,2025-01-03,24.0753,120.430481,0.0006159778
C2G840,北斗,2025-01-03,23.877586,120.514222,0.0015472386
C2G870,芳苑,2025-01-03,23.922303,120.320025,0.0005692415
C2H950,中寮,2025-01-03,23.884447,120.766406,0.0034868026
C2M410,馬頭山,2025-01-03,23.324361,120.582017,0.0026626505
C2N160,西拉雅風管處,2025-01-03,23.189481,120.335297,0.002417985
C2O810,曾文,2025-01-03,23.219681,120.497328,0.004118647
C2O930,玉井,2025-01-03,23.126042,120.46055,0.003890557
C2O950,安南,2025-01-03,23.076694,120.144861,0.00086072227
C2V250,甲仙,2025-01-03,23.080106,120.591758,0.006433654
C2V260,月眉,2025-01-03,22.971003,120.539853,0.004516035
C2W230,畜試所澎湖,2025-01-03,23.628342,119.513206,0.00040625833
CAG100,王功漁港,2025-01-03,23.96824,120.32586,0.00056260504
CAH030,茶改場竹圍站,2025-01-03,23.860083,120.637528,0.0034503806
CAJ050,海口故事園區,2025-01-03,23.57543,120.14121,0.00056757475
CAL110,布袋國中,2025-01-03,23.35893,120.18026,0.0009692278
CAN130,水試所海水繁養殖中心,2025-01-03,23.120802,120.07968,0.00086719025
CAN140,六官養殖協會,2025-01-03,23.22881,120.29962,0.0015516808
CAQ030,崎峰國小,2025-01-03,22.42565,120.49521,0.010129982
E2K600,四湖植物園,2025-01-03,23.676986,120.163433,0.00059891137
E2P980,林試六龜中心,2025-01-03,22.991703,120.645722,0.005649864
E2S960,林試太麻里2,2025-01-03,22.598014,120.989761,0.026197182
E2S960,林試太麻里2,2025-01-03,22.598,120.99775,0.028091824
E2S980,林試太麻里1,2025-01-03,22.598922,120.980044,0.015897155
G2AI50,關渡,2025-01-03,25.11575,121.492,0.00048003977
G2F820,農業試驗所,2025-01-03,24.031261,120.688133,0.0043608746
G2F820,農試所(霧峰),2025-01-03,24.031261,120.688133,0.0043608746
G2L020,農試嘉義分所,2025-01-03,23.485028,120.473806,0.0021615617
G2M350,農試溪口農場,2025-01-03,23.58565,120.408111,0.0014277583
G2P820,農試鳳山分所,2025-01-03,22.646611,120.356083,0.0050025363
K2E360,苗栗農改,2025-01-03,24.495722,120.829111,0.00053788815
K2E360,苗栗農改場,2025-01-03,24.495722,120.829111,0.00053788815
K2E710,苗改生物防治研究中心,2025-01-03,24.422861,120.871833,0.0011848578
K2F750,種苗改良場,2025-01-03,24.225972,120.800917,0.0008470934
K2F750,種苗繁殖,2025-01-03,24.225972,120.800917,0.0008470934
U2HA50,臺大竹山,2025-01-03,23.756972,120.681556,0.00296894
V2C250,八德合作社,2025-01-03,24.93775,121.266389,0.0008886441
V2C260,八德蔬果,2025-01-03,24.978508,121.281819,0.00061534316
V2K610,大庄合作社,2025-01-03,23.8068,120.367939,0.0007203398
V2K620,麥寮合作社,2025-01-03,23.753836,120.294783,0.00063867384
