站號,站名,日期,lat,lon,BLBTSLS
C0R710,龍磐,2025-02-04,21.931672,120.838942,0.9999536
C1F9D1,白毛台,2025-02-04,24.158325,120.886933,1.5959108e-09
C0G940,竹塘,2025-02-04,23.848253,120.386764,3.1643353e-08
467590,恆春,2025-02-04,22.003897,120.746339,0.9996978
C1O850,環湖,2025-02-04,23.148617,120.418633,4.1337475e-10
C0U710,太平山,2025-02-04,24.505486,121.525656,2.109603e-08
C0E820,獅潭,2025-02-04,24.539133,120.920042,7.605856e-09
C0V880,興達,2025-02-04,22.8778,120.2127,3.801108e-08
C0S890,關山,2025-02-04,23.0395,121.175017,3.3109409e-09
C0SB30,新蘭,2025-02-04,22.869214,121.223228,9.720752e-08
C2R970,屏科大,2025-02-04,22.648275,120.619247,7.212251e-10
K2F750,種苗繁殖,2025-02-04,24.225972,120.800917,2.1825126e-09
C1Z130,銅門,2025-02-04,23.965694,121.492842,2.598739e-08
C0AD40,土城,2025-02-04,24.973208,121.445169,1.149037e-06
CAN140,六官養殖協會,2025-02-04,23.22881,120.29962,9.6098995e-09
C0X180,山上,2025-02-04,23.0757,120.363253,5.481948e-10
C0F9Z0,雪山東峰,2025-02-04,24.388792,121.268675,2.401539e-08
C1M480,獨立山,2025-02-04,23.537022,120.607797,2.0161126e-09
C0X220,學甲,2025-02-04,23.230367,120.182187,2.4605164e-08
C0R170,屏東,2025-02-04,22.660269,120.494072,1.2137993e-09
467650,日月潭,2025-02-04,23.881325,120.90805,2.2103337e-09
C0K600,箔子寮,2025-02-04,23.6197,120.14,3.047259e-07
C0G830,埤頭,2025-02-04,23.866003,120.452806,1.2798244e-08
C0S950,七塊厝,2025-02-04,22.954453,121.229922,7.964896e-09
467110,金門,2025-02-04,24.407306,118.289281,1.3666649e-07
C0AH80,深坑,2025-02-04,25.002703,121.628328,8.532457e-07
467990,馬祖,2025-02-04,26.169269,119.923419,2.0523306e-07
C0A970,三貂角,2025-02-04,25.007606,122.002058,3.905793e-08
C2D730,寶山農場,2025-02-04,24.732444,120.976153,7.9166265e-09
C0K430,褒忠,2025-02-04,23.690938,120.303634,6.085317e-09
467480,嘉義,2025-02-04,23.495925,120.432906,1.0821241e-08
C2E540,後龍,2025-02-04,24.606489,120.783933,2.9319438e-07
C0V400,阿公店,2025-02-04,22.804194,120.355528,1.5712673e-09
467550,玉山,2025-02-04,23.48718,120.95943,3.3992876e-08
C0R440,大漢山,2025-02-04,22.405264,120.753181,2.6738116e-08
C0K280,四湖,2025-02-04,23.630414,120.227125,1.8317563e-07
C1F9B1,桐林,2025-02-04,24.066172,120.735194,3.939196e-09
C2H9U0,鳳鵬,2025-02-04,23.763919,120.788061,8.8637275e-10
C0K390,土庫,2025-02-04,23.679029,120.395574,1.150997e-08
C1I450,望鄉山,2025-02-04,23.594153,120.944286,1.9242954e-08
C0E910,海埔,2025-02-04,24.648767,120.772435,3.242414e-07
B2E890,畜試北區分所,2025-02-04,24.527806,120.770972,3.7380754e-08
C0R750,四林格山,2025-02-04,22.076989,120.802439,1.4223106e-07
C0F0C0,中坑,2025-02-04,24.248517,120.903319,2.894648e-09
C1I121,大鞍,2025-02-04,23.678381,120.760017,5.6080136e-09
72U480,花改蘭陽分場,2025-02-04,24.686306,121.716583,1.4558537e-09
C0A770,科教館,2025-02-04,25.096356,121.516507,3.2112617e-08
C0AJ60,六塊厝,2025-02-04,25.24,121.4481,0.93194544
C0R620,墾雷,2025-02-04,21.900836,120.855269,0.12111133
467420,永康,2025-02-04,23.038386,120.2367,3.3887724e-09
467300,東吉島,2025-02-04,23.25695,119.667467,0.925945
C0I410,名間,2025-02-04,23.837053,120.701447,7.445977e-10
A2C560,農工中心,2025-02-04,24.985917,121.239833,3.5780783e-08
C0V740,旗山,2025-02-04,22.888614,120.483597,4.285491e-10
C0Z061,玉里,2025-02-04,23.3215,121.339656,3.2588512e-09
C0S840,南田,2025-02-04,22.279725,120.889208,0.99855137
C1I470,杉林溪,2025-02-04,23.639517,120.786444,7.1109425e-09
C1X040,東原,2025-02-04,23.291597,120.463822,5.771017e-10
C0R660,枋寮,2025-02-04,22.367722,120.590647,3.2872578e-08
C1R120,上德文,2025-02-04,22.763272,120.704442,1.2874897e-09
C0K450,大埤,2025-02-04,23.646074,120.431537,9.4224095e-09
C0UA00,土場,2025-02-04,24.576533,121.495333,6.197237e-09
467080,宜蘭,2025-02-04,24.763975,121.756528,2.509351e-09
C0N030,四草,2025-02-04,23.0235,120.1116,1.14851675e-08
467410,臺南,2025-02-04,22.99328,120.20492,1.014698e-08
C0V650,彌陀,2025-02-04,22.783806,120.246361,2.3350099e-06
C0D660,新竹市東區,2025-02-04,24.798681,120.986942,1.1934948e-07
82S580,茶改東部分場,2025-02-04,22.907694,121.130139,5.3744465e-08
C0SB40,興隆,2025-02-04,22.913661,121.257469,8.569948e-08
467050,新屋,2025-02-04,25.006725,121.047492,1.9991969e-05
C0C710,大溪永福,2025-02-04,24.892936,121.324975,3.928903e-08
C0FA20,溫寮,2025-02-04,24.372177,120.583125,2.9358766e-06
C0V640,湖內,2025-02-04,22.887139,120.2445,3.669531e-08
C0R910,下寮,2025-02-04,22.3929,120.5548,3.2872578e-08
C0Z020,明里,2025-02-04,23.208717,121.262342,3.5822485e-09
C0M770,嘉義梅山,2025-02-04,23.585398,120.555587,1.0935394e-09
G2F820,農業試驗所,2025-02-04,24.031261,120.688133,1.8122503e-09
C0C660,楊梅,2025-02-04,24.912375,121.143047,1.5591507e-08
C1E511,新開,2025-02-04,24.347703,120.827019,1.4030729e-08
G2F820,農試所(霧峰),2025-02-04,24.031261,120.688133,1.8122503e-09
C1I070,和社,2025-02-04,23.591131,120.888861,1.5787114e-09
C2F000,大肚,2025-02-04,24.15295,120.572117,3.7425325e-09
C1S850,豐南,2025-02-04,23.122139,121.262389,3.4697767e-09
C2A920,富貴角,2025-02-04,25.263783,121.565258,0.13693953
CAH030,茶改場竹圍站,2025-02-04,23.860083,120.637528,8.5554047e-10
C0T960,光復,2025-02-04,23.660694,121.424964,4.5125734e-09
C0F9M0,豐原,2025-02-04,24.254322,120.720692,1.6423245e-08
C0R720,旭海,2025-02-04,22.205403,120.887614,1.5334424e-05
C0V710,苓雅,2025-02-04,22.622742,120.330669,5.3205525e-08
C0C740,觀音工業區,2025-02-04,25.064764,121.114856,0.9467714
CAC040,拉拉山,2025-02-04,24.699317,121.427133,2.8746607e-08
C0V790,萬山,2025-02-04,22.905944,120.688056,1.2347071e-09
U2HA30,臺大和社,2025-02-04,23.590856,120.888864,1.5787114e-09
C0AJ90,澳底,2025-02-04,25.0552,121.9253,0.0022399216
C0Z100,東華,2025-02-04,23.89525,121.549833,8.469488e-09
C0G970,三豐,2025-02-04,23.882,120.2895,0.007235952
V2K610,大庄合作社,2025-02-04,23.8068,120.367939,2.184696e-08
C0V900,汕尾,2025-02-04,22.4782,120.4151,4.0446206e-09
C1R630,龍泉,2025-02-04,22.66701,120.59091,6.596242e-10
C1AC50,關渡,2025-02-04,25.133486,121.469331,6.656408e-08
C0F9I0,神岡,2025-02-04,24.272481,120.658314,2.0143991e-08
C0K460,斗南,2025-02-04,23.678734,120.478359,8.983024e-09
467410,臺南,2025-02-04,22.993239,120.204772,1.014698e-08
C2O810,曾文,2025-02-04,23.219681,120.497328,4.801693e-10
467280,後龍,2025-02-04,24.648563,120.831834,2.3388267e-07
C1F9J1,清水林,2025-02-04,24.071242,120.820419,1.7686766e-09
C2A650,火燒寮,2025-02-04,25.002719,121.742892,3.3163086e-08
466930,竹子湖,2025-02-04,25.162078,121.544547,1.8093019e-08
C1I220,樟湖,2025-02-04,23.905333,120.846983,2.6344662e-09
C0I390,仁愛,2025-02-04,24.022122,121.132206,2.7006057e-09
C0Z300,東里,2025-02-04,23.26853,121.30547,3.3877126e-09
C0V310,美濃,2025-02-04,22.898742,120.519153,4.230114e-10
C1V590,新發,2025-02-04,23.057019,120.646064,1.453365e-09
C0K510,水林,2025-02-04,23.572924,120.24597,6.485278e-09
72S590,東改賓朗果園,2025-02-04,22.813889,121.071278,8.8670816e-07
82A750,茶改北部分場,2025-02-04,24.955778,121.631222,4.9650644e-08
C1A750,石碇服務區,2025-02-04,25.00872,121.646242,1.4498984e-05
C0X300,鹿寮,2025-02-04,23.386047,120.477331,9.2572344e-10
G2AI50,關渡,2025-02-04,25.11575,121.492,0.36617064
C0K590,雲林東勢,2025-02-04,23.674192,120.255721,4.178299e-09
C0A570,桶後,2025-02-04,24.848222,121.597992,8.827122e-09
C1S800,華源,2025-02-04,22.657883,121.02325,4.536729e-09
C0G720,溪州,2025-02-04,23.851589,120.499093,1.2315677e-08
C1V160,達卡努瓦,2025-02-04,23.279811,120.705319,2.7408957e-09
C2M410,馬頭山,2025-02-04,23.324361,120.582017,6.7119743e-10
C0V850,蚵仔寮,2025-02-04,22.7256,120.2527,6.175611e-08
C0S740,池上,2025-02-04,23.119628,121.209469,7.632785e-09
C1V390,尖山,2025-02-04,22.813153,120.367789,1.564291e-09
C0AH70,松山,2025-02-04,25.04871,121.55042,3.1574743e-08
C0N010,鯤鯓國小,2025-02-04,23.1879,120.0889,4.3602782e-08
C0R550,新埤,2025-02-04,22.467947,120.582894,3.8431405e-09
C0SA60,知本（水試所）,2025-02-04,22.702394,121.082761,3.7044514e-09
C0T9I0,豐濱,2025-02-04,23.583897,121.514806,3.9024997e-09
C0UB00,淡江大學蘭陽校園,2025-02-04,24.823239,121.730383,9.460154e-09
C0W240,九宮,2025-02-04,24.423753,118.240186,1.4751122e-07
C0T9N0,富里,2025-02-04,23.171639,121.249378,3.9916705e-09
U2HA50,臺大竹山,2025-02-04,23.756972,120.681556,8.933639e-10
C0V840,鳳鼻頭,2025-02-04,22.5083,120.3591,4.1977577e-09
C0X140,西港,2025-02-04,23.125608,120.203108,1.4236575e-08
72D080,桃改五峰分場,2025-02-04,24.612194,121.157167,7.957046e-09
C2H9P0,伊拿谷,2025-02-04,23.963211,121.088264,1.6901668e-09
C2H9F0,柑林,2025-02-04,24.018658,120.847072,7.2938716e-10
C0TA20,加灣,2025-02-04,24.082025,121.608944,5.4732297e-08
C0V530,阿蓮,2025-02-04,22.883208,120.327508,4.0862758e-09
C1O880,關山,2025-02-04,23.173397,120.594092,6.0346766e-10
C0E791,卓蘭,2025-02-04,24.3126,120.8244,1.3904557e-08
C1I030,武界,2025-02-04,23.913225,121.052483,1.7942178e-09
C0R520,崁頂,2025-02-04,22.514781,120.506914,1.2584593e-09
C0R341,牡丹,2025-02-04,22.130036,120.792639,6.084286e-06
C0R930,萬丹,2025-02-04,22.5885,120.4851,1.4972505e-09
C0S760,紅石,2025-02-04,23.069131,121.126219,2.6085768e-08
C2C410,中央大學,2025-02-04,24.967652,121.185165,3.5647744e-08
C1M610,石磐龍,2025-02-04,23.496606,120.663506,3.0520149e-09
C0UA10,鴛鴦湖,2025-02-04,24.590269,121.412228,1.1030966e-08
V2C260,八德蔬果,2025-02-04,24.978508,121.281819,2.9021901e-08
C0R800,丹路,2025-02-04,22.204481,120.750989,0.0003535837
C0G920,永靖,2025-02-04,23.924703,120.547533,1.333869e-08
C2M950,太和,2025-02-04,23.538372,120.702961,4.316519e-09
C1A630,下盆,2025-02-04,24.771003,121.538622,7.80965e-09
B2N890,畜產試驗所,2025-02-04,23.058972,120.336406,3.1951184e-09
C0UA30,白嶺,2025-02-04,24.527819,121.519031,1.6190784e-08
C1V580,溪南(特生中心),2025-02-04,23.084972,120.788475,5.088635e-09
C1T970,大農,2025-02-04,23.615233,121.413331,4.1246295e-09
E2S960,林試太麻里2,2025-02-04,22.598014,120.989761,5.089499e-09
C0R650,竹田,2025-02-04,22.58486,120.54344,8.47957e-10
C1H900,清流,2025-02-04,24.080775,120.962997,2.3904057e-09
C1C510,水尾,2025-02-04,24.940081,121.087161,3.477747e-07
C0F9X0,大雅(中科園區),2025-02-04,24.21528,120.62445,6.438139e-08
C0SB60,白守蓮,2025-02-04,23.126769,121.401914,9.3555235e-09
C0O970,虎頭埤,2025-02-04,23.021375,120.347878,7.912969e-10
C0C730,中大臨海站,2025-02-04,24.966126,121.008581,1.9422498e-05
C0X250,新營,2025-02-04,23.310689,120.316681,1.0544811e-08
C0V700,三民,2025-02-04,22.645017,120.311233,8.9942514e-05
C0U870,大礁溪,2025-02-04,24.791042,121.675047,7.145258e-09
C0E870,高鐵苗栗,2025-02-04,24.60725,120.826094,2.5822422e-07
A2K570,古坑花卉中心,2025-02-04,23.63353,120.55239,9.178294e-10
C0TA30,鹽寮,2025-02-04,23.845606,121.592664,8.1021385e-09
C0M860,新美,2025-02-04,23.338017,120.683169,1.3818571e-09
C1E701,八卦,2025-02-04,24.491756,120.927619,6.739906e-09
C0I420,國姓,2025-02-04,24.037803,120.855072,7.6463763e-10
C2D720,關西工作站,2025-02-04,24.757275,121.184792,7.47772e-09
C0S960,香蘭,2025-02-04,22.587569,120.993375,5.089499e-09
467620,蘭嶼,2025-02-04,22.0369,121.55843,0.5054264
C0R260,春日,2025-02-04,22.370361,120.628306,2.3187493e-08
72G600,臺中農改場,2025-02-04,24.003028,120.534389,3.8774388e-08
C0Z210,瑞穗,2025-02-04,23.5239,121.39021,5.2550546e-09
C0M820,達邦,2025-02-04,23.453994,120.749517,2.7702387e-09
C0V860,南寮,2025-02-04,22.7616,120.2339,6.174763e-08
C0G740,大城,2025-02-04,23.852487,120.320935,0.0065784846
C0R920,塭仔,2025-02-04,22.4169,120.5197,3.5915136e-08
C0R470,高樹,2025-02-04,22.826389,120.600806,7.9705753e-10
C0R680,佳樂水,2025-02-04,21.993578,120.861633,0.9999513
C1O870,大棟山,2025-02-04,23.31157,120.52226,3.720433e-09
C0D360,梅花,2025-02-04,24.678347,121.208558,5.9678325e-09
C0Z190,富世,2025-02-04,24.14743,121.6297,3.9454168e-08
C0AI10,屈尺,2025-02-04,24.92184,121.54475,2.9006244e-06
B2U990,畜試東區分所,2025-02-04,24.669039,121.832561,2.3807276e-09
C0SB80,長濱漁港,2025-02-04,23.313644,121.459994,2.7560931e-09
C0R240,來義,2025-02-04,22.527306,120.625111,1.3142687e-09
C0V910,大樹,2025-02-04,22.684645,120.432803,1.6322118e-09
C1R610,西大武山,2025-02-04,22.617719,120.7322,2.61003e-08
C0G900,線西,2025-02-04,24.143358,120.443536,2.0080006e-06
C0M700,竹崎,2025-02-04,23.526178,120.555508,9.499856e-10
C2E880,三義,2025-02-04,24.405478,120.749819,5.930331e-09
C0C720,竹圍,2025-02-04,25.112692,121.239824,0.36963814
C0F9P0,清水,2025-02-04,24.312297,120.562242,1.477806e-06
C0Z150,吉安光華,2025-02-04,23.930925,121.595153,3.263817e-08
467300,東吉島,2025-02-04,23.25727,119.66762,0.92160654
C1D640,外坪(五指山),2025-02-04,24.644447,121.090961,4.6684185e-09
C0F9O0,潭子,2025-02-04,24.213106,120.703933,7.669868e-09
C2H9R0,卓社,2025-02-04,23.887894,121.000086,3.5226704e-09
72T250,花蓮農改場,2025-02-04,23.975222,121.563889,5.8360545e-08
C0E780,銅鑼,2025-02-04,24.489681,120.790853,2.2028095e-08
C1T950,太安,2025-02-04,23.666719,121.370128,3.550328e-08
C0E830,苑裡,2025-02-04,24.439714,120.653053,1.5588832e-05
467270,田中,2025-02-04,23.873803,120.581286,2.5360942e-09
C0SA10,檳榔四格山,2025-02-04,22.810031,121.109308,4.3836897e-07
C1T830,布洛灣,2025-02-04,24.17184,121.57127,3.8166984e-08
C0F970,大坑,2025-02-04,24.173142,120.722289,3.5484171e-09
C1U920,思源,2025-02-04,24.393125,121.347214,1.416804e-08
C0A931,三和,2025-02-04,25.233153,121.595236,7.017385e-08
C0I010,廬山,2025-02-04,24.033311,121.181808,5.1465956e-09
C2M940,日野賀,2025-02-04,23.434056,120.727169,3.6386953e-09
C0R860,鼻頭,2025-02-04,22.1043,120.8979,0.2500643
C0UB20,壯圍,2025-02-04,24.7359,121.8163,1.3942554e-09
C0R790,九棚,2025-02-04,22.14195,120.889281,6.178668e-05
C0W110,東莒,2025-02-04,25.9652,119.98069,4.7039553e-06
C1U930,粉鳥林,2025-02-04,24.497088,121.842479,1.3344772e-08
C1I211,蘆竹湳,2025-02-04,23.934019,120.811994,1.073125e-09
C0S830,長濱,2025-02-04,23.286817,121.411975,3.6402572e-09
C1F9F1,伯公龍,2025-02-04,24.272392,120.849047,4.326699e-09
C0E810,西湖,2025-02-04,24.562947,120.7485,0.0013533101
C1I440,新高口,2025-02-04,23.478744,120.878939,1.2814317e-08
C0O840,王爺宮,2025-02-04,23.222064,120.40085,1.2601887e-09
C0T9G0,鳳林山,2025-02-04,23.735269,121.420131,8.7492955e-09
C0X080,佳里,2025-02-04,23.173039,120.145086,4.3602782e-08
C0FB70,大甲溪埔,2025-02-04,24.370625,120.620067,1.7935484e-06
C0Z310,清水斷崖,2025-02-04,24.218294,121.689142,1.3168362e-08
C0M680,太保,2025-02-04,23.455062,120.331455,6.6151316e-09
C1S820,金峰,2025-02-04,22.590969,120.933236,5.93984e-09
C0AD10,八里,2025-02-04,25.150211,121.403947,0.36963814
C2K240,草嶺,2025-02-04,23.59555,120.693461,3.2384098e-09
C1SA70,都蘭,2025-02-04,22.87794,121.226881,8.569948e-08
C0K440,二崙,2025-02-04,23.772797,120.408944,1.088722e-08
C1A760,坪林交控,2025-02-04,24.94284,121.713442,1.8618033e-08
C0F9N0,大里,2025-02-04,24.092464,120.701378,4.1171706e-09
C0SA90,達仁林場,2025-02-04,22.264347,120.823972,4.1239045e-07
C1R290,石門山,2025-02-04,22.112611,120.756597,1.0789677e-06
42HA10,萬大發電廠,2025-02-04,23.978875,121.139639,2.5972018e-09
C0R890,山海,2025-02-04,21.9878,120.7091,0.9994939
C0T9A0,月眉山,2025-02-04,23.809928,121.539828,7.470876e-09
C0AC70,信義,2025-02-04,25.037822,121.564597,3.1574743e-08
C0K560,棋山,2025-02-04,23.68645,120.603417,9.332047e-10
C2FB50,出雲,2025-02-04,24.206469,120.902794,3.5253993e-09
C1Z240,中平林道,2025-02-04,23.42115,121.26763,5.2645877e-08
U2H480,溪頭,2025-02-04,23.670306,120.798194,3.228191e-09
C0M880,好美里,2025-02-04,23.3364,120.138,1.940335e-08
C0T9E0,大坑,2025-02-04,23.880628,121.581981,1.0790469e-08
C0K530,臺西,2025-02-04,23.701547,120.197559,4.1566608e-07
C1E900,國一N128K,2025-02-04,24.560997,120.844186,4.9264727e-08
C0AJ50,水湳洞,2025-02-04,25.123695,121.862238,7.7233784e-07
C0AI20,白沙灣,2025-02-04,25.283128,121.519058,0.9054113
C2V310,美濃,2025-02-04,22.898792,120.51907,4.230114e-10
C0A860,大坪,2025-02-04,25.165914,121.632969,1.493062e-08
C1U850,觀音海岸,2025-02-04,24.38319,121.77856,9.677294e-09
C2K610,草嶺石壁,2025-02-04,23.602469,120.707731,3.3843155e-09
C0U950,鶯子嶺,2025-02-04,24.89754,121.79244,2.5949797e-08
C0O900,善化,2025-02-04,23.112883,120.297219,3.3173317e-09
C0K550,蔦松,2025-02-04,23.514319,120.229736,1.16484005e-08
E2P980,林試六龜中心,2025-02-04,22.991703,120.645722,4.1890133e-10
C0E590,通霄,2025-02-04,24.471892,120.704622,0.0007787948
C1I310,西巒,2025-02-04,23.754486,120.883956,2.9961478e-09
C0A550,泰平,2025-02-04,24.971197,121.823711,1.4729874e-08
C0I360,水里,2025-02-04,23.812553,120.849792,7.740657e-10
C0R830,高士,2025-02-04,22.121825,120.836781,5.2154803e-07
C1I101,溪頭,2025-02-04,23.661789,120.807647,8.869212e-09
C0AJ20,野柳,2025-02-04,25.20703,121.690021,1.2078397e-07
C0B060,暖暖,2025-02-04,25.0957,121.7403,4.8594938e-08
C1H920,長豐,2025-02-04,24.102039,120.879897,1.8399362e-09
C0V360,內門,2025-02-04,22.975481,120.466769,4.540042e-10
C0R850,林邊,2025-02-04,22.4634,120.5339,4.0011074e-09
C0E930,龍鳳,2025-02-04,24.700034,120.859125,1.0098883e-05
C0U910,冬山,2025-02-04,24.63373,121.7937,2.3807276e-09
C1E721,泰安,2025-02-04,24.489017,120.968036,6.3015926e-09
82H320,茶改中部分場,2025-02-04,23.875611,120.913583,1.7583369e-09
C0M750,布袋,2025-02-04,23.380878,120.167789,1.676551e-08
C1S860,利嘉,2025-02-04,22.809417,121.050528,8.197018e-09
72C440,桃園農改,2025-02-04,24.950944,121.030583,4.801281e-07
E2S980,林試太麻里1,2025-02-04,22.598922,120.980044,5.2839404e-09
C0X170,關廟,2025-02-04,22.963017,120.327797,1.5542061e-09
C0V720,林園,2025-02-04,22.507747,120.394511,4.1027777e-09
C1I510,線浸林道,2025-02-04,23.761508,120.832956,3.848114e-09
C0D690,外湖,2025-02-04,24.917735,120.968711,7.5946303e-07
C0C750,新興坑尾,2025-02-04,25.0061,121.0971,7.945309e-06
B2Q810,畜試南區分所,2025-02-04,21.945583,120.802167,0.9999482
C0S790,金崙,2025-02-04,22.538122,120.966875,1.2515468e-08
C0AH90,福山植物園,2025-02-04,24.760717,121.58135,1.5559866e-08
C0I540,奇萊稜線,2025-02-04,24.109231,121.326456,2.4116789e-08
C0M850,表湖,2025-02-04,23.24186,120.64166,1.4183715e-09
C0S770,大溪山,2025-02-04,22.478475,120.943325,2.6560567e-08
C0AG80,中和,2025-02-04,24.991622,121.491792,1.149037e-06
C0T790,大禹嶺,2025-02-04,24.186117,121.316086,1.662971e-08
C0T9B0,水源,2025-02-04,23.991861,121.537169,3.1329446e-08
C0R840,牡丹池山,2025-02-04,22.168389,120.841225,8.0968566e-05
C1I131,桶頭,2025-02-04,23.641944,120.654117,1.2841102e-09
CAL110,布袋國中,2025-02-04,23.35893,120.18026,1.676551e-08
467571,新竹,2025-02-04,24.827853,121.014219,4.27979e-07
C0Z290,赤柯山,2025-02-04,23.36893,121.38293,1.4556017e-08
C0X280,將軍,2025-02-04,23.214999,120.13577,2.6936828e-08
C0S690,太麻里,2025-02-04,22.60902,120.98533,8.271873e-09
C0U880,北關,2025-02-04,24.9072,121.8734,2.014307e-08
C1H860,瑞岩,2025-02-04,24.123772,121.18345,1.02724655e-08
C0G810,埔心,2025-02-04,23.947633,120.525456,1.2874829e-08
C0U970,大福,2025-02-04,24.80064,121.81389,2.475631e-09
C2H9N0,仁愛東眼,2025-02-04,24.026875,121.1205,4.3474957e-09
C1E670,南礦,2025-02-04,24.538278,121.002836,8.676192e-09
C0M520,東後寮,2025-02-04,23.369908,120.248065,1.5365542e-08
C1E461,松安,2025-02-04,24.397972,120.986022,4.7177577e-09
72G600,臺中農改,2025-02-04,24.003028,120.534389,3.8774388e-08
C2N160,西拉雅風管處,2025-02-04,23.189481,120.335297,2.0169124e-09
C2M970,碧湖,2025-02-04,23.568632,120.624165,2.785753e-09
C0A640,石碇,2025-02-04,24.993969,121.662917,1.799926e-06
E2S960,林試太麻里2,2025-02-04,22.598,120.99775,5.003784e-09
C0F9Y0,桃山,2025-02-04,24.432739,121.303808,2.5876005e-08
C1I020,萬大,2025-02-04,23.979817,121.132261,2.746249e-09
C0U940,羅東,2025-02-04,24.68184,121.74934,1.4317554e-09
C0M650,朴子,2025-02-04,23.43463,120.23902,9.282931e-09
C1I500,大尖山,2025-02-04,23.858572,120.994889,1.028109e-08
C0G820,田尾,2025-02-04,23.901669,120.509389,1.3328263e-08
E2K600,四湖植物園,2025-02-04,23.676986,120.163433,1.8317563e-07
C0S730,綠島,2025-02-04,22.6672,121.47533,0.99744195
12Q970,東港工作站,2025-02-04,22.479997,120.466058,4.0477772e-09
C0E430,南庄,2025-02-04,24.601775,121.000214,7.56699e-09
C1TA00,太魯閣,2025-02-04,24.15773,121.6236,3.735638e-08
466920,臺北,2025-02-04,25.037658,121.514853,3.1574743e-08
C0R600,舊泰武,2025-02-04,22.588194,120.664944,1.2957229e-09
C1I260,北坑,2025-02-04,23.9246,121.006903,1.1495594e-09
466910,鞍部,2025-02-04,25.182586,121.529731,5.583277e-08
C1I230,九份二山,2025-02-04,23.961944,120.845,1.4785995e-09
C2A660,瑞芳,2025-02-04,25.113169,121.801147,4.014399e-07
C0R270,琉球嶼,2025-02-04,22.332244,120.362236,9.164724e-09
C1T990,高寮,2025-02-04,23.394239,121.356808,3.4832308e-09
C0G620,芬園,2025-02-04,24.015678,120.6213,1.8057189e-09
C1Z140,荖溪,2025-02-04,23.890575,121.45964,2.2823345e-08
C1I201,中心崙,2025-02-04,23.728722,120.712097,1.6190528e-09
C1I400,凌霄,2025-02-04,24.018778,121.004456,4.1938684e-09
C1M640,十字,2025-02-04,23.492153,120.753683,4.9426028e-09
G2P820,農試鳳山分所,2025-02-04,22.646611,120.356083,5.5282726e-05
C0Z270,蕃薯寮,2025-02-04,23.73835,121.540108,6.5976793e-09
C0F9Q0,外埔,2025-02-04,24.347817,120.705686,1.5206817e-08
C0K580,高鐵雲林,2025-02-04,23.737456,120.417944,1.2527887e-08
C2I090,鳳凰,2025-02-04,23.728081,120.787347,2.0958815e-09
C0U990,員山,2025-02-04,24.74435,121.72247,1.4149831e-09
C0V770,大社,2025-02-04,22.730306,120.346639,5.5586995e-08
C0X120,麻豆,2025-02-04,23.183289,120.248611,9.297514e-09
C0C670,龍潭,2025-02-04,24.870056,121.221389,1.3515036e-08
C0D680,香山濕地,2025-02-04,24.783581,120.914988,1.4446067e-07
C0S980,勝林山,2025-02-04,22.430439,120.8938,2.3791307e-08
C0V730,大寮,2025-02-04,22.605614,120.395717,4.787258e-08
C0R570,麟洛,2025-02-04,22.65078,120.52719,1.2142625e-09
C2M930,石卓,2025-02-04,23.478744,120.702264,5.4394973e-09
C0G9B0,和美,2025-02-04,24.105169,120.492131,4.2145712e-07
CAG100,王功漁港,2025-02-04,23.96824,120.32586,0.017292988
C0X290,北門,2025-02-04,23.267772,120.125481,2.6936828e-08
C2F930,大甲,2025-02-04,24.347667,120.640403,7.140588e-07
C0D650,湖口,2025-02-04,24.904794,121.043628,3.6669638e-07
C0E420,竹南,2025-02-04,24.708978,120.888897,4.018876e-06
C0U780,五結,2025-02-04,24.68637,121.79794,1.3942554e-09
C1I250,鯉潭,2025-02-04,23.961922,120.991131,1.2252388e-09
C0R130,阿禮,2025-02-04,22.742908,120.743678,1.8499193e-09
C0X100,臺南市北區,2025-02-04,23.010394,120.194228,1.1130639e-08
C0S920,金峰嘉蘭,2025-02-04,22.594789,120.960825,5.252369e-09
C0V490,新興,2025-02-04,22.627422,120.298803,5.3100496e-08
C0F9K0,大安,2025-02-04,24.345061,120.588025,2.1859753e-06
72N100,臺南農改,2025-02-04,23.0605,120.342194,3.1951184e-09
467290,古坑,2025-02-04,23.633639,120.551889,9.178294e-10
C2E970,八甲,2025-02-04,24.535811,120.795983,2.3459835e-08
C0V440,鳳山,2025-02-04,22.646653,120.356122,5.5282726e-05
C1T940,大觀,2025-02-04,23.714206,121.373133,7.807743e-09
72T250,花蓮農改,2025-02-04,23.975222,121.563889,5.8360545e-08
C0E740,造橋,2025-02-04,24.637056,120.864778,2.5822422e-07
C0R100,尾寮山,2025-02-04,22.833111,120.683889,1.725828e-09
A2K630,臺大雲林校區,2025-02-04,23.730628,120.423903,1.2533193e-08
467990,馬祖,2025-02-04,26.169467,119.923158,2.1613928e-07
C0D580,寶山,2025-02-04,24.735006,121.025192,3.2940157e-09
E2P990,林試扇平站,2025-02-04,22.9677,120.6857,1.134125e-09
C0AI30,三重,2025-02-04,25.057328,121.500629,3.2112617e-08
C0AH00,汐止,2025-02-04,25.066881,121.658778,3.1574743e-08
C1Z040,立山,2025-02-04,23.443356,121.327375,1.1206261e-08
466881,新北,2025-02-04,24.959207,121.525196,1.046853e-06
C0W130,花嶼,2025-02-04,23.40007,119.32276,0.97672707
C0A950,鼻頭角,2025-02-04,25.129036,121.923372,0.9998351
C0K470,林內,2025-02-04,23.748675,120.609642,8.2359736e-10
C2F990,摩天嶺,2025-02-04,24.322458,120.936819,2.5514746e-09
82C160,茶改場,2025-02-04,24.908472,121.185333,1.5197944e-08
C0Z320,清水林道,2025-02-04,23.27125,121.188272,1.1120516e-08
C0R760,南仁湖,2025-02-04,22.084681,120.863353,1.0779618e-06
C0M670,大林,2025-02-04,23.600616,120.45841,8.8287555e-09
C0M800,茶山,2025-02-04,23.299075,120.664767,1.100675e-09
C0A9C0,天母,2025-02-04,25.117494,121.537169,8.797073e-08
72K220,南改斗南分場,2025-02-04,23.634556,120.477333,8.994854e-09
72AI40,桃改樹林分場,2025-02-04,24.944503,121.386972,1.58562e-08
C0S910,蘭嶼燈塔,2025-02-04,22.081197,121.503117,0.974041
C0B050,八斗子,2025-02-04,25.144754,121.79167,9.982914e-07
C0U900,內城,2025-02-04,24.71813,121.68766,1.495752e-09
C0X320,柳營,2025-02-04,23.253328,120.375253,1.230865e-09
C0M790,新港,2025-02-04,23.553269,120.345728,1.0893763e-08
C0F9T0,西屯,2025-02-04,24.179494,120.641275,3.254949e-07
C0SA30,都歷,2025-02-04,23.020333,121.323642,2.8153668e-09
C0C620,蘆竹,2025-02-04,25.084275,121.265767,0.004337011
C0R730,大坪頂,2025-02-04,22.024633,120.69355,0.9732965
C0AJ40,石門,2025-02-04,25.273672,121.601198,0.33762315
C0E750,苗栗,2025-02-04,24.564569,120.824575,5.1908923e-08
C0T870,鯉魚潭,2025-02-04,23.935639,121.508944,2.6909303e-08
C1V170,排雲,2025-02-04,23.463619,120.954147,2.5549626e-08
C2H950,中寮,2025-02-04,23.884447,120.766406,7.7010137e-10
C0R350,貓鼻頭,2025-02-04,21.921774,120.7358,0.99987954
C0V660,岡山,2025-02-04,22.797078,120.294958,2.3545538e-06
C1H941,雙冬,2025-02-04,23.967378,120.802189,1.1790785e-09
C0AJ70,田寮,2025-02-04,25.2698,121.4886,0.9232383
C0AI00,五股,2025-02-04,25.07445,121.42728,3.1198666e-05
C0Z280,德武,2025-02-04,23.47426,121.41071,3.7883097e-09
C0R700,枋山,2025-02-04,22.246844,120.661086,0.9990871
C0C460,復興,2025-02-04,24.820208,121.352281,1.3906148e-08
E2H360,蓮華池,2025-02-04,23.918333,120.885278,1.3166924e-09
C0M640,中埔,2025-02-04,23.42538,120.5229,9.655698e-10
C0W140,金沙,2025-02-04,24.488292,118.408778,2.2137016e-08
C2A540,四堵,2025-02-04,24.8926,121.745736,1.883861e-08
C0ACA0,新莊,2025-02-04,25.051478,121.446756,4.3718578e-07
C0R220,潮州,2025-02-04,22.534361,120.54,1.2591171e-09
U2HA40,臺大內茅埔,2025-02-04,23.689722,120.851117,1.0706349e-09
467490,臺中,2025-02-04,24.145736,120.684075,3.9081685e-09
C0U960,翠峰湖,2025-02-04,24.510856,121.608044,2.3865116e-08
E2HA20,林試畢祿溪站,2025-02-04,24.226944,121.308522,1.3934452e-08
C0V890,前鎮,2025-02-04,22.5718,120.3117,5.622572e-08
467620,蘭嶼,2025-02-04,22.036969,121.558339,0.5054264
C1F941,雪嶺,2025-02-04,24.280586,121.026642,1.9413049e-08
C2H9E0,國姓南港,2025-02-04,23.911108,120.846556,2.793809e-09
C0AC80,文山,2025-02-04,25.00235,121.575728,8.632129e-07
C0F9R0,龍井,2025-02-04,24.184536,120.528972,2.8593904e-06
C0M760,民雄,2025-02-04,23.551754,120.428457,9.209829e-09
C0UA40,西德山,2025-02-04,24.560647,121.752608,1.18658265e-08
C1T920,中興,2025-02-04,23.769503,121.498653,4.4882214e-09
C0D550,雪霸,2025-02-04,24.526972,121.11605,8.914222e-09
C2F860,梨山,2025-02-04,24.247522,121.243669,1.4344841e-08
C0R320,車城,2025-02-04,22.0744,120.716247,0.999077
C1S870,南美山,2025-02-04,23.15025,121.382333,3.9556625e-09
C0B020,基隆嶼,2025-02-04,25.19141,121.78391,0.99532586
C1U501,牛鬥,2025-02-04,24.637836,121.573656,2.561202e-09
C0M730,嘉義市東區,2025-02-04,23.457673,120.460531,8.934337e-10
C0S700,知本,2025-02-04,22.684866,121.005642,6.7645947e-09
C1N001,沙崙,2025-02-04,22.935472,120.309406,1.5582489e-09
C0V760,橋頭,2025-02-04,22.757806,120.30575,6.187201e-08
C0G960,福寶,2025-02-04,24.0443,120.3814,4.4349065e-07
C0X210,白河,2025-02-04,23.347466,120.414427,8.993288e-10
C0S810,東河,2025-02-04,22.972672,121.303986,2.1752034e-05
C2R170,屏東,2025-02-04,22.66027,120.49403,1.2137993e-09
C0R670,楓港,2025-02-04,22.190131,120.692156,0.9911368
C0FA50,霧峰,2025-02-04,24.0419,120.6995,1.7974306e-09
C0UB10,蘇澳,2025-02-04,24.5969,121.8571,2.3745645e-09
C0G950,防潮門,2025-02-04,24.1835,120.4871,2.851069e-06
C0M740,六腳,2025-02-04,23.492871,120.290625,7.583649e-09
C1R250,力里,2025-02-04,22.428117,120.629228,5.4219584e-10
C0K330,虎尾,2025-02-04,23.719183,120.442036,1.18220465e-08
C2FA00,烏石坑,2025-02-04,24.273503,120.947617,2.4798892e-09
C0V620,永安,2025-02-04,22.82315,120.236856,2.3350099e-06
C1I330,楓樹林,2025-02-04,23.986803,121.076117,3.269011e-09
C0W200,湖西,2025-02-04,23.596314,119.67275,0.7052269
72Q010,高雄農改場,2025-02-04,22.709333,120.525889,1.256066e-09
C0SA40,瑞和,2025-02-04,22.974361,121.156697,7.549892e-09
C0C680,龜山,2025-02-04,25.02846,121.38656,1.0857713e-05
C2V260,月眉,2025-02-04,22.971003,120.539853,3.9858103e-10
C0V450,鳳森,2025-02-04,22.545064,120.392592,3.870063e-09
C0U720,南山,2025-02-04,24.43742,121.38167,1.0701781e-08
A2N290,臺南蘭花園區,2025-02-04,23.340258,120.379661,6.417784e-09
C0R560,新園,2025-02-04,22.5434,120.461558,4.1027777e-09
C0U890,三星,2025-02-04,24.66812,121.65302,1.9553732e-09
C1V300,御油山,2025-02-04,23.001983,120.715364,5.1958824e-09
C0U600,礁溪,2025-02-04,24.817539,121.765608,4.338301e-09
C1T980,龍澗,2025-02-04,24.023289,121.411328,3.990919e-08
C0D670,海天一線,2025-02-04,24.831986,120.914438,0.041084286
C0SA00,歷坵,2025-02-04,22.520969,120.89185,1.3257879e-08
C0M710,東石,2025-02-04,23.458927,120.15385,2.339491e-08
C0M780,鹿草,2025-02-04,23.41134,120.30835,8.87114e-09
C0U520,雙連埤,2025-02-04,24.753033,121.641303,7.2333464e-09
C0B010,七堵,2025-02-04,25.094819,121.71713,5.5057193e-08
C0R480,長治,2025-02-04,22.693128,120.542622,1.6103309e-09
C1V830,國三S383K,2025-02-04,22.781967,120.426475,6.2756694e-10
12Q980,恆春工作站,2025-02-04,22.079678,120.714425,0.999077
C1O940,東山服務區,2025-02-04,23.286016,120.398472,1.1274561e-09
C1U840,東澳嶺,2025-02-04,24.5378,121.8485,7.839423e-09
C1D630,飛鳳山,2025-02-04,24.766464,121.119178,7.291733e-09
C0S940,石寧山,2025-02-04,23.223772,121.406639,3.2173293e-09
C0K410,北港,2025-02-04,23.573957,120.292802,6.171805e-09
C2M620,瑞里,2025-02-04,23.545133,120.675197,3.756779e-09
C0SB70,小港漁港,2025-02-04,23.158558,121.400431,3.4416192e-09
C2O950,安南,2025-02-04,23.076694,120.144861,9.350834e-08
C0F0E0,南湖圈谷,2025-02-04,24.363714,121.444667,3.9461693e-08
467610,成功,2025-02-04,23.097486,121.373428,9.075349e-09
C0G890,伸港,2025-02-04,24.148933,120.484403,2.0080006e-06
C2E540,龍溪,2025-02-04,24.606489,120.783933,2.9319438e-07
C1V200,梅山,2025-02-04,23.268447,120.823556,1.5643865e-09
C0T9H0,加路蘭山,2025-02-04,23.682947,121.5274,1.0045036e-08
C2O930,玉井,2025-02-04,23.126042,120.46055,5.481948e-10
C1F911,新伯公,2025-02-04,24.221361,120.841069,2.0324251e-09
C0R490,九如,2025-02-04,22.7405,120.490503,1.2503961e-09
C0X200,左鎮,2025-02-04,23.056758,120.408522,7.807307e-10
C0SB50,叭嗡嗡,2025-02-04,23.047062,121.343223,2.6360847e-09
C1F891,稍來,2025-02-04,24.265689,121.001142,1.188091e-08
72N240,七股研究中心,2025-02-04,23.081672,120.062894,1.02294926e-07
C0C700,中壢,2025-02-04,24.977661,121.256375,2.5300078e-08
C0M690,水上,2025-02-04,23.419734,120.388909,6.343208e-09
C0V690,鼓山,2025-02-04,22.623325,120.275575,5.3100496e-08
C0O860,大內,2025-02-04,23.11885,120.36083,3.2457128e-09
C0Z200,萬榮,2025-02-04,23.709219,121.420106,5.5224807e-09
C0T9D0,和中,2025-02-04,24.26676,121.74103,1.4985341e-08
C1O921,楠西,2025-02-04,23.183511,120.484083,4.2877313e-10
C0AJ30,淡水觀海,2025-02-04,25.184591,121.408616,6.9561574e-06
C0V810,左營,2025-02-04,22.67491,120.28491,9.063751e-05
C0UA70,桃源谷,2025-02-04,24.962606,121.888875,1.6659774e-08
C0X130,官田,2025-02-04,23.193217,120.315422,2.0504607e-09
C1H000,翠峰,2025-02-04,24.109397,121.205211,1.1143235e-08
C0UA90,石城,2025-02-04,24.980444,121.951214,4.350998e-08
C1E681,南勢山,2025-02-04,24.421669,120.923831,8.243176e-09
C0A9F0,內湖,2025-02-04,25.079422,121.57545,3.1574743e-08
C0K291,宜梧,2025-02-04,23.536281,120.169329,1.16484005e-08
C1K540,口湖,2025-02-04,23.585344,120.180517,3.047259e-07
C0R780,滿州,2025-02-04,22.024403,120.839892,0.9996884
C0V870,文安,2025-02-04,22.8025,120.2164,2.779251e-06
C0U650,玉蘭,2025-02-04,24.675286,121.587061,5.289476e-09
C0R640,東港,2025-02-04,22.46247,120.44074,4.0477772e-09
K2E360,苗栗農改,2025-02-04,24.495722,120.829111,2.9915984e-08
C0AJ80,板橋,2025-02-04,25.0107,121.4489,1.2219671e-06
C0S660,下馬,2025-02-04,23.150427,121.070312,9.804111e-09
C1H9B1,阿眉,2025-02-04,24.1263,120.994672,8.65223e-09
C0UA20,多加屯,2025-02-04,24.368614,121.373189,1.4622579e-08
C0E730,頭份,2025-02-04,24.688247,120.912206,4.8329002e-06
72V140,高改旗南分場,2025-02-04,22.857861,120.516667,4.230114e-10
C0K480,莿桐,2025-02-04,23.761192,120.502372,2.811101e-09
C0U980,坪林石牌,2025-02-04,24.86478,121.77396,1.1277427e-08
C0T900,西林,2025-02-04,23.8119,121.441458,5.292433e-09
C1I150,青雲,2025-02-04,23.793361,120.949378,9.2995306e-10
467350,澎湖,2025-02-04,23.565503,119.563094,0.85237473
C0G800,埔鹽,2025-02-04,24.000394,120.431683,5.2262195e-08
C0H960,草屯,2025-02-04,23.973672,120.68085,1.8029898e-09
C1V780,多納林道,2025-02-04,22.888028,120.737917,1.9025832e-09
C0E920,通霄漁港,2025-02-04,24.498589,120.673876,0.0013242685
C0Z330,安通山,2025-02-04,23.290728,121.348528,4.9557523e-09
C0AH10,永和,2025-02-04,25.01125,121.508111,1.2016474e-06
C0AK10,太平里,2025-02-04,25.134937,121.364899,0.3481411
C2G640,鹿港,2025-02-04,24.0753,120.430481,4.4502391e-07
C1E890,國三N149K,2025-02-04,24.463414,120.680019,7.5648013e-06
C1R110,口社,2025-02-04,22.770111,120.645222,5.600529e-10
C1M870,國三N285K,2025-02-04,23.550319,120.505833,1.045347e-09
467050,新屋,2025-02-04,25.006744,121.047486,1.9991969e-05
C1E480,鳳美,2025-02-04,24.554803,121.034747,7.1155286e-09
C0M530,奮起湖,2025-02-04,23.493903,120.699253,4.3620476e-09
C0C590,觀音,2025-02-04,25.027072,121.153317,0.7519102
C0T9M0,靜浦,2025-02-04,23.455167,121.495028,3.272592e-09
C2H9M0,發祥,2025-02-04,24.154094,121.164517,4.98633e-09
C0AI40,石牌,2025-02-04,25.115597,121.513139,8.8584294e-08
C1F871,上谷關,2025-02-04,24.203483,121.018644,3.0107041e-09
C2H9G0,百勝,2025-02-04,24.051142,120.909361,1.2178785e-09
C0G880,二水,2025-02-04,23.810742,120.6173,8.664066e-10
C0R940,加祿堂,2025-02-04,22.3363,120.6217,0.00943113
C0W220,北竿,2025-02-04,26.220358,119.974881,5.5309056e-07
C0O960,崎頂,2025-02-04,22.959547,120.369317,1.5952352e-09
C0S750,向陽,2025-02-04,23.248397,120.986133,9.7500505e-09
C0T9F0,水璉,2025-02-04,23.797131,121.542514,5.8477623e-09
C1M600,頭凍,2025-02-04,23.406364,120.603339,2.492094e-09
467660,臺東,2025-02-04,22.752211,121.154586,0.39519057
C1D380,新埔,2025-02-04,24.84745,121.03834,1.9371923e-07
C2G980,田頭村,2025-02-04,23.8263,120.444175,1.088722e-08
C0V750,路竹,2025-02-04,22.854997,120.259439,3.3309526e-08
C0N050,蚵寮,2025-02-04,23.301,120.1104,1.940335e-08
72M700,南改鹿草分場,2025-02-04,23.416869,120.283061,9.320027e-09
C1SA50,利嘉林道,2025-02-04,22.82325,121.009389,1.8352722e-08
467550,玉山,2025-02-04,23.487614,120.959522,3.3252775e-08
C0A940,金山,2025-02-04,25.223628,121.643967,1.14139574e-07
C1V340,大津,2025-02-04,22.888322,120.645986,8.1592033e-10
C0W180,七美,2025-02-04,23.219333,119.444892,0.985358
C1F9C1,白冷,2025-02-04,24.182844,120.929889,2.9109812e-09
K2E710,苗改生物防治研究中心,2025-02-04,24.422861,120.871833,6.0838894e-09
C0N040,蘆竹溝,2025-02-04,23.2344,120.0961,2.6936828e-08
C2W230,畜試所澎湖,2025-02-04,23.628342,119.513206,0.9537066
C0R880,後壁湖,2025-02-04,21.9457,120.7457,0.9994816
C1I280,埔中,2025-02-04,23.820778,120.642594,1.0119549e-09
467790,墾丁雷達站,2025-02-04,21.948235,120.808028,0.99996805
C0W190,望安,2025-02-04,23.380564,119.494075,0.953226
466881,新北,2025-02-04,24.9593,121.52,1.1189782e-06
C0Z170,卓溪,2025-02-04,23.3443,121.3029,3.7096413e-09
C0F850,東勢,2025-02-04,24.246428,120.833047,6.062194e-09
466900,淡水,2025-02-04,25.164889,121.448906,0.3481411
C0I370,魚池,2025-02-04,23.895703,120.94135,1.3945239e-09
C0C630,大溪,2025-02-04,24.882853,121.265547,1.4197878e-08
C0A520,山佳,2025-02-04,24.974944,121.402008,1.8603377e-07
C0I110,竹山,2025-02-04,23.761225,120.688156,9.573269e-10
82H840,茶改南部分場,2025-02-04,23.762528,120.7405,9.594803e-10
C0G660,溪湖,2025-02-04,23.94835,120.479122,1.3619477e-08
C1T800,洛韶,2025-02-04,24.204558,121.453956,2.918872e-08
C1T810,慈恩,2025-02-04,24.192044,121.388386,8.501339e-09
C1E451,象鼻,2025-02-04,24.368617,120.940228,5.4345195e-09
C0AC60,三峽,2025-02-04,24.939025,121.369728,1.5388418e-08
C0I490,萬大林道,2025-02-04,23.928228,121.091411,5.956631e-09
C1I290,豐丘,2025-02-04,23.668178,120.887417,3.4672298e-09
C1I320,奧萬大,2025-02-04,23.952956,121.178556,3.3981251e-09
C2M910,嘉義大學,2025-02-04,23.471325,120.485903,9.1775415e-10
C0U770,南澳,2025-02-04,24.44935,121.81022,1.11725615e-08
C0A980,社子,2025-02-04,25.109508,121.469681,0.4137488
C0V800,六龜,2025-02-04,22.997889,120.633583,4.0733172e-10
C1G9D0,國一S218K,2025-02-04,23.890641,120.493253,1.2798244e-08
C0E570,白沙屯,2025-02-04,24.549447,120.696803,0.0021820695
C2F9A0,中竹林,2025-02-04,24.103556,120.751061,9.922626e-10
C0FA40,臺中電廠,2025-02-04,24.2146,120.4907,2.8697743e-06
C2G9A0,畜試所彰化,2025-02-04,23.86045,120.557964,2.5360942e-09
C0H9C0,合歡山,2025-02-04,24.143442,121.272547,2.878699e-08
C0X060,下營,2025-02-04,23.22695,120.256261,9.593014e-09
G2M350,農試溪口農場,2025-02-04,23.58565,120.408111,8.928993e-09
C0U860,頭城,2025-02-04,24.85323,121.8308,4.2322226e-09
C0R580,南州,2025-02-04,22.48591,120.50274,4.0477772e-09
C0D430,峨眉,2025-02-04,24.6905,121.017189,7.909744e-09
C0G780,秀水,2025-02-04,24.03405,120.503869,3.8774388e-08
72N100,臺南農改場,2025-02-04,23.0605,120.342194,3.1951184e-09
C0S900,蘭嶼高中,2025-02-04,22.04909,121.51214,0.9925937
467540,大武,2025-02-04,22.355675,120.903789,1.7383888e-07
C1F9W0,德基,2025-02-04,24.254783,121.190261,9.407361e-09
C1Z120,壽豐,2025-02-04,23.870853,121.508081,8.469488e-09
C0W160,烏坵,2025-02-04,24.9944,119.44956,0.00033564918
C1I240,外大坪,2025-02-04,23.958697,120.917931,1.2608427e-09
C1I550,國六W023K,2025-02-04,23.979067,120.867742,9.704497e-10
C0R870,興海,2025-02-04,21.9752,120.8439,0.9999482
C0R140,瑪家,2025-02-04,22.682903,120.686639,1.009545e-09
C0A530,坪林,2025-02-04,24.938183,121.70975,1.8887217e-08
C0X260,後壁,2025-02-04,23.366358,120.362326,6.4080843e-09
C0Z230,和平,2025-02-04,24.30717,121.77007,1.5427828e-08
C0G770,福興,2025-02-04,24.041289,120.437669,5.2262195e-08
C0H9A0,神木村,2025-02-04,23.532742,120.843667,5.120941e-09
C0I460,南投,2025-02-04,23.911469,120.687331,5.795859e-10
C0I480,梅峰,2025-02-04,24.085272,121.173572,8.50335e-09
C1V570,吉東,2025-02-04,22.85422,120.5454,4.3169038e-10
C2D740,屯原,2025-02-04,24.067969,121.209389,7.3302897e-09
C2A560,福山,2025-02-04,24.776203,121.502811,1.3226762e-08
C0AH30,五分山,2025-02-04,25.07125,121.780794,2.5396194e-08
C0FA10,松柏,2025-02-04,24.429115,120.617482,2.1047488e-05
72S200,東改班鳩分場,2025-02-04,22.829528,121.077694,1.6611835e-06
72HA00,中改埔里分場,2025-02-04,23.903208,120.963364,1.2420767e-09
C2H9W0,大坪頂農水,2025-02-04,24.043122,120.932781,1.8599886e-09
C0C650,平鎮,2025-02-04,24.897503,121.214636,1.2664953e-08
C0S930,延平,2025-02-04,22.902581,121.084058,5.1366243e-08
C0UA60,樟樹山,2025-02-04,24.41393,121.78325,7.901858e-09
C1S670,摩天,2025-02-04,23.199503,121.027,3.305031e-08
C0V630,茄萣,2025-02-04,22.906642,120.182608,3.801108e-08
466940,基隆,2025-02-04,25.133314,121.740475,9.074467e-07
C0X050,東河,2025-02-04,23.296598,120.385608,1.1240635e-09
C0R770,保力,2025-02-04,22.071122,120.764111,0.9952333
G2L020,農試嘉義分所,2025-02-04,23.485028,120.473806,9.016819e-10
C0X240,關子嶺,2025-02-04,23.331169,120.508025,8.22475e-10
C0I380,集集,2025-02-04,23.828206,120.801467,7.6288365e-10
466990,花蓮,2025-02-04,23.975128,121.613275,6.264147e-08
C1V220,小關山,2025-02-04,23.154217,120.813603,5.986895e-09
C1F9G1,慶福山,2025-02-04,24.180853,120.848378,2.0362472e-09
C0Z250,瑞穗林道,2025-02-04,23.49284,121.30688,5.846282e-08
C0D590,新豐,2025-02-04,24.87068,120.97721,0.0014138314
C0A870,五指山,2025-02-04,25.132153,121.608692,1.8992992e-08
C0UA50,西帽山,2025-02-04,24.555361,121.802628,8.050902e-09
C0X160,仁德,2025-02-04,22.968258,120.257689,8.3255784e-09
C1H971,六分寮,2025-02-04,23.92507,120.6378,9.238925e-10
C0W120,西嶼,2025-02-04,23.5626,119.468436,0.95369726
C0G650,員林,2025-02-04,23.946503,120.585597,1.6294031e-09
C0AD50,鶯歌,2025-02-04,24.951533,121.346294,1.4666321e-08
C2H9Q0,北東眼山,2025-02-04,24.120939,121.189303,1.2667441e-08
C2H9T0,名間竹圍,2025-02-04,23.859914,120.637572,8.5554047e-10
C0S990,山豬窟,2025-02-04,22.318619,120.857372,7.986867e-08
72Q010,高雄農改,2025-02-04,22.709333,120.525889,1.256066e-09
C0X190,安平,2025-02-04,22.993161,120.152181,1.1130639e-08
C0K400,斗六,2025-02-04,23.720583,120.541127,2.5255757e-09
12J990,口湖工作站,2025-02-04,23.589978,120.180394,3.047259e-07
C0O830,北寮,2025-02-04,23.079561,120.495008,3.939209e-10
C1D410,白蘭,2025-02-04,24.579364,121.079947,9.793514e-09
C0S970,加津林,2025-02-04,22.416211,120.926942,1.5007286e-07
C0D700,關西,2025-02-04,24.7977,121.1732,6.3640764e-09
C0M810,里佳,2025-02-04,23.389125,120.716647,4.3751713e-09
C0U750,龜山島,2025-02-04,24.841667,121.953133,0.34641984
C0R810,內獅,2025-02-04,22.305064,120.642986,0.01592306
C1M390,龍美,2025-02-04,23.406728,120.654417,3.1968983e-09
C2FB60,頭櫃山,2025-02-04,24.129842,120.858925,3.3089018e-09
C1H840,國三N238K,2025-02-04,23.841008,120.707711,7.81264e-10
CAQ030,崎峰國小,2025-02-04,22.42565,120.49521,4.0477772e-09
C2E520,大湖,2025-02-04,24.414939,120.870872,6.010717e-09
467530,阿里山,2025-02-04,23.508208,120.813242,1.5659278e-08
C1E691,南湖,2025-02-04,24.40135,120.837533,6.589354e-09
C0FA30,梧棲,2025-02-04,24.256003,120.523381,1.477806e-06
C1V231,高中,2025-02-04,23.134911,120.716711,1.4472267e-09
C0F9V0,新社,2025-02-04,24.200172,120.815806,2.4004296e-09
C0H890,埔里,2025-02-04,23.972169,120.952425,1.106396e-09
C0R690,墾丁,2025-02-04,21.966756,120.810269,0.999982
C0F0D0,審馬陣,2025-02-04,24.381675,121.4203,2.1093857e-08
C2W030,金門農試所,2025-02-04,24.448431,118.451786,1.7031599e-07
C0R820,白鷺,2025-02-04,22.454275,120.666219,1.603389e-09
U2H480,臺大溪頭,2025-02-04,23.670306,120.798194,3.228191e-09
C1V190,南天池,2025-02-04,23.27403,120.91176,1.0632199e-08
K2E360,苗栗農改場,2025-02-04,24.495722,120.829111,2.9915984e-08
CAJ050,海口故事園區,2025-02-04,23.57543,120.14121,3.047259e-07
C2H9D0,三隻寮,2025-02-04,24.093078,120.861578,1.905434e-09
C0O990,媽廟,2025-02-04,22.99175,120.293525,3.3081382e-09
C0D480,打鐵坑,2025-02-04,24.849664,121.150789,1.3443281e-08
C0Z220,和平林道,2025-02-04,24.343922,121.656317,8.777561e-09
C0TA10,花蓮漁港,2025-02-04,23.995322,121.638331,6.638961e-08
72C440,桃園農改場,2025-02-04,24.950944,121.030583,4.801281e-07
C1E711,馬拉邦山,2025-02-04,24.367306,120.901656,5.6318856e-09
C0SB20,富岡,2025-02-04,22.792467,121.192669,0.00029047835
C0D560,竹東,2025-02-04,24.767147,121.057881,6.661536e-09
C0F9U0,南屯,2025-02-04,24.137006,120.637969,4.86841e-07
C0M720,番路,2025-02-04,23.464657,120.554156,1.0693348e-09
C0F0A0,雪山圈谷,2025-02-04,24.388594,121.236339,3.0101777e-08
C1A9N0,四十份,2025-02-04,24.934158,121.593283,1.668963e-07
C0U760,東澳,2025-02-04,24.52196,121.83318,1.31563365e-08
C0X230,鹽水,2025-02-04,23.272621,120.247641,1.799562e-08
C2H9H0,苗改南投蜂場,2025-02-04,23.852589,120.693481,7.2875167e-10
C0R950,萬隆國小,2025-02-04,22.507667,120.587817,1.2782894e-09
467540,大武,2025-02-04,22.35572,120.90374,1.7383888e-07
C0V370,古亭坑,2025-02-04,22.893178,120.401947,7.904582e-10
C1I340,新興橋,2025-02-04,23.563333,120.868728,2.3168163e-09
C0SA80,土坂,2025-02-04,22.453108,120.887572,3.6951384e-08
C0R160,鹽埔,2025-02-04,22.739558,120.530778,1.256066e-09
C0AC40,大屯山,2025-02-04,25.175675,121.522408,5.953488e-08
466850,五分山雷達站,2025-02-04,25.071182,121.781205,2.5866086e-08
C2H9L0,馬烈霸,2025-02-04,24.1512,121.201772,1.2466936e-08
C1AI50,國三N016K,2025-02-04,25.034164,121.619664,2.9789916e-08
C1V600,藤枝,2025-02-04,23.071961,120.757042,4.4276565e-09
C1E601,南勢,2025-02-04,24.572486,120.734842,0.00025511318
C0Z180,新城,2025-02-04,24.03946,121.60454,6.1492706e-08
C0O980,新市,2025-02-04,23.061614,120.298197,3.3218017e-09
C0K420,西螺,2025-02-04,23.800407,120.467394,1.0303725e-08
C0Z050,佳心,2025-02-04,23.34567,121.21316,1.3421581e-08
C0AD30,蘆洲,2025-02-04,25.086594,121.472331,3.224236e-08
C0V610,梓官,2025-02-04,22.760558,120.267211,6.187201e-08
K2F750,種苗改良場,2025-02-04,24.225972,120.800917,2.1825126e-09
C0UA80,大溪漁港,2025-02-04,24.941801,121.902955,1.9921462e-08
C1AI60,國一39K邊坡,2025-02-04,25.064361,121.383836,1.7002878e-05
C0W150,金寧,2025-02-04,24.457703,118.328989,1.5675212e-07
C0R960,內埔,2025-02-04,22.608483,120.570714,8.6411095e-10
V2C250,八德合作社,2025-02-04,24.93775,121.266389,1.3144548e-08
C2H9S0,龍南,2025-02-04,23.953536,120.833183,2.2081468e-09
C0AH40,平等,2025-02-04,25.129142,121.577086,1.5389945e-08
C0R540,佳冬,2025-02-04,22.419456,120.552375,3.2872578e-08
466950,彭佳嶼,2025-02-04,25.627975,122.079744,0.9999706
C0A890,雙溪,2025-02-04,25.036003,121.864242,0.00072150846
C0C480,桃園,2025-02-04,24.992425,121.323172,2.987339e-08
C0AH50,林口,2025-02-04,25.072181,121.38084,6.866611e-06
A2K360,水試臺西試驗場,2025-02-04,23.717231,120.190522,4.6900414e-07
B2N890,畜試所,2025-02-04,23.058972,120.336406,3.1951184e-09
C2M960,外寮,2025-02-04,23.562643,120.665688,2.9910376e-09
C0F9S0,烏日,2025-02-04,24.107058,120.624103,4.3031445e-09
C0C490,八德,2025-02-04,24.928708,121.283289,1.3111145e-08
C0R190,赤山,2025-02-04,22.592333,120.614306,8.637386e-10
C0T820,天祥,2025-02-04,24.179597,121.495639,3.4836646e-08
C1F9E1,龍安,2025-02-04,24.1605,120.831961,1.7420864e-09
C0V820,小林,2025-02-04,23.148408,120.63325,7.876198e-10
C2G870,芳苑,2025-02-04,23.922303,120.320025,0.015879238
C0E850,大河,2025-02-04,24.618069,120.948578,8.62404e-09
C1U670,寒溪,2025-02-04,24.634,121.71691,2.7473388e-09
C0N020,城西,2025-02-04,23.0568,120.0956,1.1130617e-08
C1Z110,三棧,2025-02-04,24.11557,121.60501,3.384653e-08
C0R280,檳榔,2025-02-04,22.076078,120.836777,5.4720576e-06
C2H9J0,中台,2025-02-04,23.9996,120.938739,1.20939e-09
C0F9L0,后里,2025-02-04,24.310436,120.729725,1.5451121e-08
467441,高雄,2025-02-04,22.730432,120.312516,5.4990863e-08
C0D540,橫山,2025-02-04,24.71116,121.11693,3.5719803e-09
C1D420,太閣南,2025-02-04,24.632808,121.160575,6.169545e-09
C1E770,公館,2025-02-04,24.526914,120.830806,3.7380754e-08
CAN130,水試所海水繁養殖中心,2025-02-04,23.120802,120.07968,1.02294926e-07
C1I430,翠華,2025-02-04,24.191961,121.224339,1.1278825e-08
C1M400,菜瓜坪,2025-02-04,23.251928,120.576103,9.607237e-10
C0G730,二林,2025-02-04,23.903325,120.376081,2.9979272e-08
72M360,南改義竹分場,2025-02-04,23.360694,120.279361,1.5365542e-08
V2K620,麥寮合作社,2025-02-04,23.753836,120.294783,6.085317e-09
C0Z070,舞鶴,2025-02-04,23.46811,121.37407,4.0919694e-09
C0B040,大武崙,2025-02-04,25.166676,121.706993,6.663705e-07
C1Z030,紅葉,2025-02-04,23.493119,121.338806,5.34329e-09
C1I050,丹大,2025-02-04,23.753747,121.141147,1.0023792e-08
C0I080,信義,2025-02-04,23.689694,120.851036,1.0706349e-09
C2M920,朴子農改,2025-02-04,23.469889,120.259383,9.282931e-09
C2A880,福隆,2025-02-04,25.017842,121.942083,4.4497042e-08
C0Z160,鳳林,2025-02-04,23.746114,121.453411,5.314191e-09
C0V210,復興,2025-02-04,23.222403,120.806089,1.2234079e-09
C0H990,昆陽,2025-02-04,24.121322,121.273642,2.2269823e-08
C0R741,獅子,2025-02-04,22.202308,120.705236,0.017121615
C0S710,鹿野,2025-02-04,22.917711,121.122994,7.857206e-09
C0I530,小奇萊,2025-02-04,24.131764,121.295717,2.3351355e-08
C2K630,荷苞,2025-02-04,23.657717,120.595144,9.622624e-10
C0Z080,富源,2025-02-04,23.587642,121.378225,7.234036e-09
467441,高雄,2025-02-04,22.7304,120.3125,5.4990863e-08
C0SB10,美和,2025-02-04,22.682078,121.060236,3.7026149e-09
C2K620,馬光農場,2025-02-04,23.721453,120.378864,1.2908861e-08
C1I140,卡奈托灣,2025-02-04,23.754364,121.087872,4.393326e-09
C0I520,玉山風口,2025-02-04,23.470489,120.955994,3.467979e-08
C1G691,下水埔,2025-02-04,23.816114,120.5676,2.78357e-09
C0X110,臺南市南區,2025-02-04,22.961189,120.188378,8.3299465e-09
C0V680,仁武,2025-02-04,22.701083,120.347722,9.2090966e-05
C2G840,北斗,2025-02-04,23.877586,120.514222,1.2305604e-08
C0R900,竹坑,2025-02-04,22.1385,120.7022,0.9990549
C0K250,崙背,2025-02-04,23.75555,120.318925,6.085317e-09
C0G860,社頭,2025-02-04,23.897647,120.5862,2.5278457e-09
C0X150,安定,2025-02-04,23.102614,120.227839,1.4206303e-08
C0R590,里港,2025-02-04,22.77919,120.49459,5.895491e-10
C0E610,馬都安,2025-02-04,24.451272,120.930192,6.8098522e-09
C0E550,明德,2025-02-04,24.583486,120.885411,4.586262e-08
C0R150,三地門,2025-02-04,22.709889,120.639944,5.525597e-10
C0G910,花壇,2025-02-04,24.032076,120.549461,3.4153267e-08
C1D400,鳥嘴山,2025-02-04,24.71909,121.28387,5.0901883e-09
C0K500,元長,2025-02-04,23.64981,120.315024,4.264489e-09
C0F0B0,石岡,2025-02-04,24.276061,120.777644,1.3630574e-08
C2V250,甲仙,2025-02-04,23.080106,120.591758,5.202355e-10
C0SA20,金崙山,2025-02-04,22.567419,120.959667,1.116617e-08
C0V350,溪埔,2025-02-04,22.738578,120.446797,8.228453e-10
C0M660,溪口,2025-02-04,23.604131,120.403569,8.928993e-09
C1S880,壽卡,2025-02-04,22.238911,120.858903,4.7009138e-07
72D680,桃改新埔分場,2025-02-04,24.834444,121.066111,2.1746668e-07
