站號,站名,日期,lat,lon,BLBTSLS
K2F750,種苗繁殖,2025-02-04,24.225972,120.800917,2.1825126e-09
C0R170,屏東,2025-02-04,22.660269,120.494072,1.2137993e-09
467990,馬祖,2025-02-04,26.169269,119.923419,2.0523306e-07
C2E540,後龍,2025-02-04,24.606489,120.783933,2.9319438e-07
467300,東吉島,2025-02-04,23.25695,119.667467,0.925945
G2F820,農業試驗所,2025-02-04,24.031261,120.688133,1.8122469e-09
467410,臺南,2025-02-04,22.993239,120.204772,1.014698e-08
C0V310,美濃,2025-02-04,22.898742,120.519153,4.230114e-10
E2S960,林試太麻里2,2025-02-04,22.598014,120.989761,5.089499e-09
72C440,桃園農改,2025-02-04,24.950944,121.030583,4.801281e-07
C1H860,瑞岩,2025-02-04,24.123772,121.18345,1.02724655e-08
72G600,臺中農改,2025-02-04,24.003028,120.534389,3.8774388e-08
72N100,臺南農改,2025-02-04,23.0605,120.342194,3.1951184e-09
72T250,花蓮農改,2025-02-04,23.975222,121.563889,5.8360545e-08
467620,蘭嶼,2025-02-04,22.036969,121.558339,0.5054264
K2E360,苗栗農改,2025-02-04,24.495722,120.829111,2.9915984e-08
467050,新屋,2025-02-04,25.006744,121.047486,1.9991969e-05
467550,玉山,2025-02-04,23.487614,120.959522,3.3252775e-08
466881,新北,2025-02-04,24.9593,121.52,1.1189782e-06
467540,大武,2025-02-04,22.355675,120.903789,1.7383888e-07
72Q010,高雄農改,2025-02-04,22.709333,120.525889,1.256066e-09
U2H480,臺大溪頭,2025-02-04,23.670306,120.798194,3.228191e-09
C0Z180,新城,2025-02-04,24.03946,121.60454,6.1492706e-08
B2N890,畜試所,2025-02-04,23.058972,120.336406,3.1951184e-09
467441,高雄,2025-02-04,22.7304,120.3125,5.4990863e-08
