站號,站名,日期,lat,lon,BLBTSLS
C0R710,龍磐,2025-05-24,21.931672,120.838942,0.19087148
C1F9D1,白毛台,2025-05-24,24.158325,120.886933,7.0041466e-08
C0G940,竹塘,2025-05-24,23.848253,120.386764,0.27173385
467590,恆春,2025-05-24,22.003897,120.746339,0.17808351
C1O850,環湖,2025-05-24,23.148617,120.418633,0.99583155
C0U710,太平山,2025-05-24,24.505486,121.525656,4.548964e-09
C0E820,獅潭,2025-05-24,24.539133,120.920042,0.010030389
C0V880,興達,2025-05-24,22.8778,120.2127,0.92658234
C0S890,關山,2025-05-24,23.0395,121.175017,0.83289033
C0SB30,新蘭,2025-05-24,22.869214,121.223228,0.43848327
C2R970,屏科大,2025-05-24,22.648275,120.619247,0.9983174
C1Z130,銅門,2025-05-24,23.965694,121.492842,0.28968403
C0AD40,土城,2025-05-24,24.973208,121.445169,0.9980708
CAN140,六官養殖協會,2025-05-24,23.22881,120.29962,0.99943686
C0X180,山上,2025-05-24,23.0757,120.363253,0.9963954
C0F9Z0,雪山東峰,2025-05-24,24.388792,121.268675,4.045824e-09
C1M480,獨立山,2025-05-24,23.537022,120.607797,9.292269e-08
C0X220,學甲,2025-05-24,23.230367,120.182187,0.9956859
467650,日月潭,2025-05-24,23.881325,120.90805,3.947931e-08
C0K600,箔子寮,2025-05-24,23.6197,120.14,0.10615649
C0G830,埤頭,2025-05-24,23.866003,120.452806,0.09204611
C0S950,七塊厝,2025-05-24,22.954453,121.229922,4.353553e-06
467110,金門,2025-05-24,24.407306,118.289281,0.004486423
C0AH80,深坑,2025-05-24,25.002703,121.628328,0.99792725
C0A970,三貂角,2025-05-24,25.007606,122.002058,0.41005814
C2D730,寶山農場,2025-05-24,24.732444,120.976153,3.6546015e-07
C0K430,褒忠,2025-05-24,23.690938,120.303634,0.19597092
467480,嘉義,2025-05-24,23.495925,120.432906,0.9994558
C0V400,阿公店,2025-05-24,22.804194,120.355528,0.99827135
C0E960,觀霧分站,2025-05-24,24.505781,121.113921,1.2137391e-09
467550,玉山,2025-05-24,23.48718,120.95943,6.6208496e-09
C0R440,大漢山,2025-05-24,22.405264,120.753181,1.6937909e-09
C0K280,四湖,2025-05-24,23.630414,120.227125,0.6754173
C1F9B1,桐林,2025-05-24,24.066172,120.735194,0.99103
C2H9U0,鳳鵬,2025-05-24,23.763919,120.788061,0.0001266154
C0K390,土庫,2025-05-24,23.679029,120.395574,0.88628274
C1I450,望鄉山,2025-05-24,23.594153,120.944286,2.6804075e-09
C0E910,海埔,2025-05-24,24.648767,120.772435,0.77574563
B2E890,畜試北區分所,2025-05-24,24.527806,120.770972,0.00096047734
C0R750,四林格山,2025-05-24,22.076989,120.802439,0.9898954
C0F0C0,中坑,2025-05-24,24.248517,120.903319,9.1353997e-10
C1I121,大鞍,2025-05-24,23.678381,120.760017,1.0884786e-09
72U480,花改蘭陽分場,2025-05-24,24.686306,121.716583,0.99516207
C0A770,科教館,2025-05-24,25.096356,121.516507,0.9968986
C0AJ60,六塊厝,2025-05-24,25.24,121.4481,0.0001253448
C0R620,墾雷,2025-05-24,21.900836,120.855269,0.7560482
467420,永康,2025-05-24,23.038386,120.2367,0.9983501
C0I410,名間,2025-05-24,23.837053,120.701447,0.9964572
A2C560,農工中心,2025-05-24,24.985917,121.239833,3.9143806e-06
C0V740,旗山,2025-05-24,22.888614,120.483597,0.99894166
C0Z061,玉里,2025-05-24,23.3215,121.339656,4.111481e-05
C0S840,南田,2025-05-24,22.279725,120.889208,0.08300498
C1I470,杉林溪,2025-05-24,23.639517,120.786444,1.128407e-09
C1X040,東原,2025-05-24,23.291597,120.463822,0.9928154
C0R660,枋寮,2025-05-24,22.367722,120.590647,0.16654748
C1R120,上德文,2025-05-24,22.763272,120.704442,2.1269924e-08
C0K450,大埤,2025-05-24,23.646074,120.431537,0.99228376
C0UA00,土場,2025-05-24,24.576533,121.495333,0.6067867
467080,宜蘭,2025-05-24,24.763975,121.756528,0.9321212
C0N030,四草,2025-05-24,23.0235,120.1116,0.9533586
467410,臺南,2025-05-24,22.99328,120.20492,0.9478601
C0V650,彌陀,2025-05-24,22.783806,120.246361,0.9943197
C0D660,新竹市東區,2025-05-24,24.798681,120.986942,2.7793203e-07
82S580,茶改東部分場,2025-05-24,22.907694,121.130139,0.00019130323
C0SB40,興隆,2025-05-24,22.913661,121.257469,0.23214355
467050,新屋,2025-05-24,25.006725,121.047492,2.5479669e-05
C0C710,大溪永福,2025-05-24,24.892936,121.324975,0.998971
C0FA20,溫寮,2025-05-24,24.372177,120.583125,0.26094273
C0V640,湖內,2025-05-24,22.887139,120.2445,0.9335223
C0R910,下寮,2025-05-24,22.3929,120.5548,0.16654748
C0Z020,明里,2025-05-24,23.208717,121.262342,0.00010155912
C0M770,嘉義梅山,2025-05-24,23.585398,120.555587,0.98684704
C0C660,楊梅,2025-05-24,24.912375,121.143047,3.044452e-06
C1E511,新開,2025-05-24,24.347703,120.827019,0.21173508
G2F820,農試所(霧峰),2025-05-24,24.031261,120.688133,0.98608994
C1I070,和社,2025-05-24,23.591131,120.888861,0.00016678474
C0TA80,立霧山,2025-05-24,24.183258,121.641899,2.5175403e-08
C2F000,大肚,2025-05-24,24.15295,120.572117,0.999197
C1S850,豐南,2025-05-24,23.122139,121.262389,7.850933e-08
C2A920,富貴角,2025-05-24,25.263783,121.565258,8.5924916e-07
CAH030,茶改場竹圍站,2025-05-24,23.860083,120.637528,0.0015318046
C0T960,光復,2025-05-24,23.660694,121.424964,0.9044464
C0F9M0,豐原,2025-05-24,24.254322,120.720692,0.99735236
C0R720,旭海,2025-05-24,22.205403,120.887614,0.81680024
C0V710,苓雅,2025-05-24,22.622742,120.330669,0.9980809
C0C740,觀音工業區,2025-05-24,25.064764,121.114856,8.085823e-05
CAC040,拉拉山,2025-05-24,24.699317,121.427133,4.4882387e-09
C0V790,萬山,2025-05-24,22.905944,120.688056,0.9994768
U2HA30,臺大和社,2025-05-24,23.590856,120.888864,0.00016678474
C0AJ90,澳底,2025-05-24,25.0552,121.9253,0.63916445
C0Z100,東華,2025-05-24,23.89525,121.549833,0.99674565
C0G970,三豐,2025-05-24,23.882,120.2895,0.032066047
V2K610,大庄合作社,2025-05-24,23.8068,120.367939,0.10231873
C0V900,汕尾,2025-05-24,22.4782,120.4151,0.9749932
C1R630,龍泉,2025-05-24,22.66701,120.59091,0.9932761
C1AC50,關渡,2025-05-24,25.133486,121.469331,0.58614814
C0C800,四稜,2025-05-24,24.64733,121.4293,8.109684e-09
C0F9I0,神岡,2025-05-24,24.272481,120.658314,0.9960546
C0K460,斗南,2025-05-24,23.678734,120.478359,0.992912
C2O810,曾文,2025-05-24,23.219681,120.497328,0.9977483
467280,後龍,2025-05-24,24.648563,120.831834,0.49194178
C1F9J1,清水林,2025-05-24,24.071242,120.820419,7.387303e-09
C2A650,火燒寮,2025-05-24,25.002719,121.742892,0.14620052
466930,竹子湖,2025-05-24,25.162078,121.544547,3.285127e-08
C1I220,樟湖,2025-05-24,23.905333,120.846983,3.209778e-09
C0I390,仁愛,2025-05-24,24.022122,121.132206,1.839831e-09
C0Z300,東里,2025-05-24,23.26853,121.30547,0.0015113228
C1V590,新發,2025-05-24,23.057019,120.646064,0.0025946023
C0K510,水林,2025-05-24,23.572924,120.24597,0.95617855
72S590,東改賓朗果園,2025-05-24,22.813889,121.071278,4.6392924e-07
82A750,茶改北部分場,2025-05-24,24.955778,121.631222,0.017356299
C1A750,石碇服務區,2025-05-24,25.00872,121.646242,0.95155096
C0X300,鹿寮,2025-05-24,23.386047,120.477331,0.99795103
G2AI50,關渡,2025-05-24,25.11575,121.492,0.010386937
C0K590,雲林東勢,2025-05-24,23.674192,120.255721,0.62800807
C0A570,桶後,2025-05-24,24.848222,121.597992,0.3092084
C1S800,華源,2025-05-24,22.657883,121.02325,0.41976136
C0G720,溪州,2025-05-24,23.851589,120.499093,0.08167214
C1V160,達卡努瓦,2025-05-24,23.279811,120.705319,1.7712457e-09
C2M410,馬頭山,2025-05-24,23.324361,120.582017,0.93735754
C0V850,蚵仔寮,2025-05-24,22.7256,120.2527,0.9935334
C0S740,池上,2025-05-24,23.119628,121.209469,5.2015275e-07
C1V390,尖山,2025-05-24,22.813153,120.367789,0.99850833
C0AH70,松山,2025-05-24,25.04871,121.55042,0.9968233
C0N010,鯤鯓國小,2025-05-24,23.1879,120.0889,0.9786861
C0R550,新埤,2025-05-24,22.467947,120.582894,0.9826301
C0SA60,知本（水試所）,2025-05-24,22.702394,121.082761,0.97931343
C0T9I0,豐濱,2025-05-24,23.583897,121.514806,0.7915157
C0UB00,淡江大學蘭陽校園,2025-05-24,24.823239,121.730383,0.08490371
C0W240,九宮,2025-05-24,24.423753,118.240186,0.0059178732
C0T9N0,富里,2025-05-24,23.171639,121.249378,3.2417477e-06
U2HA50,臺大竹山,2025-05-24,23.756972,120.681556,0.991854
C0V840,鳳鼻頭,2025-05-24,22.5083,120.3591,0.9974263
C0X140,西港,2025-05-24,23.125608,120.203108,0.9992134
72D080,桃改五峰分場,2025-05-24,24.612194,121.157167,1.2421738e-09
C2H9P0,伊拿谷,2025-05-24,23.963211,121.088264,4.730149e-08
C2H9F0,柑林,2025-05-24,24.018658,120.847072,0.54781854
C0TA20,加灣,2025-05-24,24.082025,121.608944,0.0055699563
C0V530,阿蓮,2025-05-24,22.883208,120.327508,0.9913787
C0FB30,八仙山苗圃,2025-05-24,24.192719,121.001366,1.0742452e-09
C1O880,關山,2025-05-24,23.173397,120.594092,0.9914105
C0E791,卓蘭,2025-05-24,24.3126,120.8244,0.99389005
C1I030,武界,2025-05-24,23.913225,121.052483,2.522876e-08
C0R520,崁頂,2025-05-24,22.514781,120.506914,0.997992
C0R341,牡丹,2025-05-24,22.130036,120.792639,0.9785433
C0R930,萬丹,2025-05-24,22.5885,120.4851,0.9991922
C0S760,紅石,2025-05-24,23.069131,121.126219,7.0975146e-09
C2C410,中央大學,2025-05-24,24.967652,121.185165,3.1699976e-06
C1M610,石磐龍,2025-05-24,23.496606,120.663506,6.892369e-10
C0C790,東眼山,2025-05-24,24.8284,121.40888,2.3523146e-08
C0UA10,鴛鴦湖,2025-05-24,24.590269,121.412228,4.7125956e-09
V2C260,八德蔬果,2025-05-24,24.978508,121.281819,0.37166154
C0R800,丹路,2025-05-24,22.204481,120.750989,0.8529163
C0G920,永靖,2025-05-24,23.924703,120.547533,0.032206204
C2M950,太和,2025-05-24,23.538372,120.702961,5.150924e-10
C1A630,下盆,2025-05-24,24.771003,121.538622,0.00050714717
B2N890,畜產試驗所,2025-05-24,23.058972,120.336406,0.9994379
C0UA30,白嶺,2025-05-24,24.527819,121.519031,2.1311295e-09
C1V580,溪南(特生中心),2025-05-24,23.084972,120.788475,5.317626e-10
C1T970,大農,2025-05-24,23.615233,121.413331,0.2198991
C0R650,竹田,2025-05-24,22.58486,120.54344,0.9971704
C1H900,清流,2025-05-24,24.080775,120.962997,1.929241e-09
C1C510,水尾,2025-05-24,24.940081,121.087161,4.6824928e-07
C0F9X0,大雅(中科園區),2025-05-24,24.21528,120.62445,0.9994693
C0SB60,白守蓮,2025-05-24,23.126769,121.401914,0.50022197
C0O970,虎頭埤,2025-05-24,23.021375,120.347878,0.9958632
C0C730,中大臨海站,2025-05-24,24.966126,121.008581,4.1990115e-05
C0X250,新營,2025-05-24,23.310689,120.316681,0.99932325
C0V700,三民,2025-05-24,22.645017,120.311233,0.97062194
C0U870,大礁溪,2025-05-24,24.791042,121.675047,0.0025760739
C0E870,高鐵苗栗,2025-05-24,24.60725,120.826094,0.5788899
A2K570,古坑花卉中心,2025-05-24,23.63353,120.55239,0.8632094
C0TA30,鹽寮,2025-05-24,23.845606,121.592664,0.9974043
C0M860,新美,2025-05-24,23.338017,120.683169,1.891122e-05
C1E701,八卦,2025-05-24,24.491756,120.927619,2.997937e-09
C0I420,國姓,2025-05-24,24.037803,120.855072,0.17836267
C2D720,關西工作站,2025-05-24,24.757275,121.184792,1.917211e-05
C0S960,香蘭,2025-05-24,22.587569,120.993375,0.9765088
467620,蘭嶼,2025-05-24,22.0369,121.55843,0.99995774
C0R260,春日,2025-05-24,22.370361,120.628306,0.15407974
72G600,臺中農改場,2025-05-24,24.003028,120.534389,0.065586396
C0Z210,瑞穗,2025-05-24,23.5239,121.39021,0.7286051
C0M820,達邦,2025-05-24,23.453994,120.749517,9.093156e-10
C0V860,南寮,2025-05-24,22.7616,120.2339,0.9935334
C0G740,大城,2025-05-24,23.852487,120.320935,0.02839754
C0R920,塭仔,2025-05-24,22.4169,120.5197,0.17341655
C0R470,高樹,2025-05-24,22.826389,120.600806,0.9986846
C0R680,佳樂水,2025-05-24,21.993578,120.861633,0.11025937
C1O870,大棟山,2025-05-24,23.31157,120.52226,9.403877e-10
C0D360,梅花,2025-05-24,24.678347,121.208558,5.8102312e-08
C0Z190,富世,2025-05-24,24.14743,121.6297,0.00029857043
C0AI10,屈尺,2025-05-24,24.92184,121.54475,0.9984836
B2U990,畜試東區分所,2025-05-24,24.669039,121.832561,0.9981111
C0SB80,長濱漁港,2025-05-24,23.313644,121.459994,0.02175366
C0TA50,和仁,2025-05-24,24.241394,121.712472,0.003642618
C0R240,來義,2025-05-24,22.527306,120.625111,0.99942994
C0V910,大樹,2025-05-24,22.684645,120.432803,0.99912333
C1R610,西大武山,2025-05-24,22.617719,120.7322,2.5549907e-09
C0G900,線西,2025-05-24,24.143358,120.443536,0.7334796
C0M700,竹崎,2025-05-24,23.526178,120.555508,0.9979493
C2E880,三義,2025-05-24,24.405478,120.749819,5.863916e-08
C0C720,竹圍,2025-05-24,25.112692,121.239824,0.010386015
C0F9P0,清水,2025-05-24,24.312297,120.562242,0.8818965
C0Z150,吉安光華,2025-05-24,23.930925,121.595153,0.96936667
C0FA80,小雪山天池,2025-05-24,24.28025,121.02627,2.3407307e-09
467300,東吉島,2025-05-24,23.25727,119.66762,0.060987346
C1D640,外坪(五指山),2025-05-24,24.644447,121.090961,5.9977645e-09
C0F9O0,潭子,2025-05-24,24.213106,120.703933,0.9988564
C2H9R0,卓社,2025-05-24,23.887894,121.000086,1.2689247e-09
72T250,花蓮農改場,2025-05-24,23.975222,121.563889,0.7687415
C0E780,銅鑼,2025-05-24,24.489681,120.790853,3.600843e-06
C1T950,太安,2025-05-24,23.666719,121.370128,1.10714836e-07
C0E830,苑裡,2025-05-24,24.439714,120.653053,0.1375527
467270,田中,2025-05-24,23.873803,120.581286,0.9988509
C0SA10,檳榔四格山,2025-05-24,22.810031,121.109308,9.407651e-08
C1T830,布洛灣,2025-05-24,24.17184,121.57127,0.025181878
C0F970,大坑,2025-05-24,24.173142,120.722289,0.99374115
C1U920,思源,2025-05-24,24.393125,121.347214,1.1072446e-09
C0A931,三和,2025-05-24,25.233153,121.595236,0.28229964
C0I010,廬山,2025-05-24,24.033311,121.181808,9.888109e-10
C2M940,日野賀,2025-05-24,23.434056,120.727169,6.3602507e-10
C0R860,鼻頭,2025-05-24,22.1043,120.8979,0.89410883
C0UB20,壯圍,2025-05-24,24.7359,121.8163,0.99712986
C0R790,九棚,2025-05-24,22.14195,120.889281,0.9698993
C0W110,東莒,2025-05-24,25.9652,119.98069,2.1763858e-06
C1U930,粉鳥林,2025-05-24,24.497088,121.842479,0.7202169
C1I211,蘆竹湳,2025-05-24,23.934019,120.811994,2.6163183e-05
C0S830,長濱,2025-05-24,23.286817,121.411975,9.403477e-07
C1F9F1,伯公龍,2025-05-24,24.272392,120.849047,0.12967949
C0UB90,太平山莊,2025-05-24,24.494171,121.536209,4.5983213e-09
C0E810,西湖,2025-05-24,24.562947,120.7485,0.05319748
C1I440,新高口,2025-05-24,23.478744,120.878939,8.608932e-10
C0O840,王爺宮,2025-05-24,23.222064,120.40085,0.99889374
C0T9G0,鳳林山,2025-05-24,23.735269,121.420131,7.993632e-06
C0X080,佳里,2025-05-24,23.173039,120.145086,0.9786861
C0FB70,大甲溪埔,2025-05-24,24.370625,120.620067,0.18545426
C0Z310,清水斷崖,2025-05-24,24.218294,121.689142,9.2783805e-05
C0M680,太保,2025-05-24,23.455062,120.331455,0.9995784
C1S820,金峰,2025-05-24,22.590969,120.933236,0.4746636
C0AD10,八里,2025-05-24,25.150211,121.403947,0.010386015
C2K240,草嶺,2025-05-24,23.59555,120.693461,8.45928e-10
C1SA70,都蘭,2025-05-24,22.87794,121.226881,0.23214355
C0K440,二崙,2025-05-24,23.772797,120.408944,0.07343762
C1A760,坪林交控,2025-05-24,24.94284,121.713442,0.0544849
C0F9N0,大里,2025-05-24,24.092464,120.701378,0.9918154
C0SA90,達仁林場,2025-05-24,22.264347,120.823972,0.9834709
C1R290,石門山,2025-05-24,22.112611,120.756597,0.98497486
42HA10,萬大發電廠,2025-05-24,23.978875,121.139639,2.7166005e-09
C0R890,山海,2025-05-24,21.9878,120.7091,0.13217409
C0T9A0,月眉山,2025-05-24,23.809928,121.539828,0.0009250164
C0AC70,信義,2025-05-24,25.037822,121.564597,0.9968233
C0K560,棋山,2025-05-24,23.68645,120.603417,0.9055218
C2FB50,出雲,2025-05-24,24.206469,120.902794,6.631184e-10
C1Z240,中平林道,2025-05-24,23.42115,121.26763,1.1624275e-08
U2H480,溪頭,2025-05-24,23.670306,120.798194,5.9372207e-10
C0M880,好美里,2025-05-24,23.3364,120.138,0.9983991
C0T9E0,大坑,2025-05-24,23.880628,121.581981,0.0057212072
C0K530,臺西,2025-05-24,23.701547,120.197559,0.8000392
C1E900,國一N128K,2025-05-24,24.560997,120.844186,0.04490773
C0AJ50,水湳洞,2025-05-24,25.123695,121.862238,0.9953438
C0AI20,白沙灣,2025-05-24,25.283128,121.519058,9.068116e-05
C2V310,美濃,2025-05-24,22.898792,120.51907,0.99886113
C0A860,大坪,2025-05-24,25.165914,121.632969,0.0070660026
C1U850,觀音海岸,2025-05-24,24.38319,121.77856,2.6658302e-06
C2K610,草嶺石壁,2025-05-24,23.602469,120.707731,7.778872e-10
C0U950,鶯子嶺,2025-05-24,24.89754,121.79244,5.601752e-08
C0O900,善化,2025-05-24,23.112883,120.297219,0.9993635
C0K550,蔦松,2025-05-24,23.514319,120.229736,0.95432705
E2P980,林試六龜中心,2025-05-24,22.991703,120.645722,0.9987799
C0E590,通霄,2025-05-24,24.471892,120.704622,0.0006366914
C1I310,西巒,2025-05-24,23.754486,120.883956,8.66736e-09
C0A550,泰平,2025-05-24,24.971197,121.823711,0.20578937
C0I360,水里,2025-05-24,23.812553,120.849792,0.039099883
C0R830,高士,2025-05-24,22.121825,120.836781,0.98559904
C1I101,溪頭,2025-05-24,23.661789,120.807647,1.3280119e-09
C0AJ20,野柳,2025-05-24,25.20703,121.690021,0.99837506
C0B060,暖暖,2025-05-24,25.0957,121.7403,0.9978388
C1H920,長豐,2025-05-24,24.102039,120.879897,6.9953185e-09
C0V360,內門,2025-05-24,22.975481,120.466769,0.9955841
C0R850,林邊,2025-05-24,22.4634,120.5339,0.97825503
C0E930,龍鳳,2025-05-24,24.700034,120.859125,5.903974e-05
C0U910,冬山,2025-05-24,24.63373,121.7937,0.9981111
C1E721,泰安,2025-05-24,24.489017,120.968036,4.837175e-10
82H320,茶改中部分場,2025-05-24,23.875611,120.913583,1.2675281e-06
C0M750,布袋,2025-05-24,23.380878,120.167789,0.9980818
C1S860,利嘉,2025-05-24,22.809417,121.050528,1.7399047e-07
E2S980,林試太麻里1,2025-05-24,22.598922,120.980044,0.9291992
C0X170,關廟,2025-05-24,22.963017,120.327797,0.9958303
C0V720,林園,2025-05-24,22.507747,120.394511,0.9975403
C1I510,線浸林道,2025-05-24,23.761508,120.832956,2.2998217e-09
C0D690,外湖,2025-05-24,24.917735,120.968711,7.512262e-06
C0C750,新興坑尾,2025-05-24,25.0061,121.0971,5.590871e-06
B2Q810,畜試南區分所,2025-05-24,21.945583,120.802167,0.10822567
C0S790,金崙,2025-05-24,22.538122,120.966875,0.12577385
C0AH90,福山植物園,2025-05-24,24.760717,121.58135,0.00025544493
C0I540,奇萊稜線,2025-05-24,24.109231,121.326456,3.771094e-09
C0M850,表湖,2025-05-24,23.24186,120.64166,8.351114e-07
C0S770,大溪山,2025-05-24,22.478475,120.943325,2.634868e-06
C0AG80,中和,2025-05-24,24.991622,121.491792,0.9980708
C0T790,大禹嶺,2025-05-24,24.186117,121.316086,1.4834214e-09
C0T9B0,水源,2025-05-24,23.991861,121.537169,2.3654943e-06
C0R840,牡丹池山,2025-05-24,22.168389,120.841225,0.99761623
C1I131,桶頭,2025-05-24,23.641944,120.654117,0.99422735
CAL110,布袋國中,2025-05-24,23.35893,120.18026,0.9980818
467571,新竹,2025-05-24,24.827853,121.014219,7.9067735e-07
C0Z290,赤柯山,2025-05-24,23.36893,121.38293,2.1474232e-08
C0X280,將軍,2025-05-24,23.214999,120.13577,0.99576354
C0S690,太麻里,2025-05-24,22.60902,120.98533,5.2159914e-05
C0U880,北關,2025-05-24,24.9072,121.8734,0.35559484
C0G810,埔心,2025-05-24,23.947633,120.525456,0.032206204
C0U970,大福,2025-05-24,24.80064,121.81389,0.94332314
C2H9N0,仁愛東眼,2025-05-24,24.026875,121.1205,1.0158923e-09
C1E670,南礦,2025-05-24,24.538278,121.002836,6.295931e-10
C0M520,東後寮,2025-05-24,23.369908,120.248065,0.9981828
C1E461,松安,2025-05-24,24.397972,120.986022,4.9018545e-10
C2N160,西拉雅風管處,2025-05-24,23.189481,120.335297,0.9991641
C2M970,碧湖,2025-05-24,23.568632,120.624165,1.4015262e-09
C0A640,石碇,2025-05-24,24.993969,121.662917,0.42396882
E2S960,林試太麻里2,2025-05-24,22.598,120.99775,0.9809589
C0F9Y0,桃山,2025-05-24,24.432739,121.303808,4.360509e-09
C1I020,萬大,2025-05-24,23.979817,121.132261,1.7974615e-09
C0U940,羅東,2025-05-24,24.68184,121.74934,0.99583817
C0M650,朴子,2025-05-24,23.43463,120.23902,0.9976315
C1I500,大尖山,2025-05-24,23.858572,120.994889,1.4445516e-09
C0FB40,中橫21.6k,2025-05-24,24.2499,121.1455,7.175191e-10
C0G820,田尾,2025-05-24,23.901669,120.509389,0.032206204
E2K600,四湖植物園,2025-05-24,23.676986,120.163433,0.6754173
C0S730,綠島,2025-05-24,22.6672,121.47533,0.9289842
12Q970,東港工作站,2025-05-24,22.479997,120.466058,0.97500014
C0E430,南庄,2025-05-24,24.601775,121.000214,0.0049432507
C1TA00,太魯閣,2025-05-24,24.15773,121.6236,9.7654214e-05
466920,臺北,2025-05-24,25.037658,121.514853,0.9968233
C0R600,舊泰武,2025-05-24,22.588194,120.664944,4.843702e-05
C1I260,北坑,2025-05-24,23.9246,121.006903,1.906391e-06
466910,鞍部,2025-05-24,25.182586,121.529731,3.3047896e-09
C1I230,九份二山,2025-05-24,23.961944,120.845,2.4533895e-07
C2A660,瑞芳,2025-05-24,25.113169,121.801147,0.990384
C0R270,琉球嶼,2025-05-24,22.332244,120.362236,0.0040643415
C1T990,高寮,2025-05-24,23.394239,121.356808,0.002952975
C0G620,芬園,2025-05-24,24.015678,120.6213,0.97201586
C1Z140,荖溪,2025-05-24,23.890575,121.45964,4.2755918e-08
C1I201,中心崙,2025-05-24,23.728722,120.712097,1.6231166e-08
C1I400,凌霄,2025-05-24,24.018778,121.004456,1.0366504e-09
C1M640,十字,2025-05-24,23.492153,120.753683,3.4474318e-10
G2P820,農試鳳山分所,2025-05-24,22.646611,120.356083,0.9778868
C0Z270,蕃薯寮,2025-05-24,23.73835,121.540108,0.07490253
C0FB10,出雲山苗圃,2025-05-24,24.23105,120.90475,9.1353997e-10
C0F9Q0,外埔,2025-05-24,24.347817,120.705686,0.1832988
C0K580,高鐵雲林,2025-05-24,23.737456,120.417944,0.56112194
C2I090,鳳凰,2025-05-24,23.728081,120.787347,1.3923313e-09
C0U990,員山,2025-05-24,24.74435,121.72247,0.9968718
C0V770,大社,2025-05-24,22.730306,120.346639,0.9946783
C0X120,麻豆,2025-05-24,23.183289,120.248611,0.9994392
C0C670,龍潭,2025-05-24,24.870056,121.221389,0.0006668443
C0D680,香山濕地,2025-05-24,24.783581,120.914988,9.905925e-07
C0S980,勝林山,2025-05-24,22.430439,120.8938,1.4656029e-08
C0V730,大寮,2025-05-24,22.605614,120.395717,0.99819255
C0R570,麟洛,2025-05-24,22.65078,120.52719,0.99873537
C2M930,石卓,2025-05-24,23.478744,120.702264,4.6601956e-10
C0G9B0,和美,2025-05-24,24.105169,120.492131,0.44866985
CAG100,王功漁港,2025-05-24,23.96824,120.32586,0.054293413
C0X290,北門,2025-05-24,23.267772,120.125481,0.99576354
C2F930,大甲,2025-05-24,24.347667,120.640403,0.096919686
C0D650,湖口,2025-05-24,24.904794,121.043628,5.622856e-07
C0E420,竹南,2025-05-24,24.708978,120.888897,1.6497801e-05
C0U780,五結,2025-05-24,24.68637,121.79794,0.99712986
C1I250,鯉潭,2025-05-24,23.961922,120.991131,3.2273052e-05
C0R130,阿禮,2025-05-24,22.742908,120.743678,1.3532905e-09
C0X100,臺南市北區,2025-05-24,23.010394,120.194228,0.94977546
C0S920,金峰嘉蘭,2025-05-24,22.594789,120.960825,0.92640233
C0V490,新興,2025-05-24,22.627422,120.298803,0.9980809
C0F9K0,大安,2025-05-24,24.345061,120.588025,0.21830012
467290,古坑,2025-05-24,23.633639,120.551889,0.8632094
C2E970,八甲,2025-05-24,24.535811,120.795983,1.1497547e-05
C0V440,鳳山,2025-05-24,22.646653,120.356122,0.9778868
C1T940,大觀,2025-05-24,23.714206,121.373133,0.0017254123
C0E740,造橋,2025-05-24,24.637056,120.864778,0.5788899
C0R100,尾寮山,2025-05-24,22.833111,120.683889,1.3680653e-09
A2K630,臺大雲林校區,2025-05-24,23.730628,120.423903,0.5658118
467990,馬祖,2025-05-24,26.169467,119.923158,4.268849e-07
C0D580,寶山,2025-05-24,24.735006,121.025192,0.00031427224
E2P990,林試扇平站,2025-05-24,22.9677,120.6857,0.0004301897
C0AI30,三重,2025-05-24,25.057328,121.500629,0.9968986
C0AH00,汐止,2025-05-24,25.066881,121.658778,0.9968233
C1Z040,立山,2025-05-24,23.443356,121.327375,0.01252102
466881,新北,2025-05-24,24.959207,121.525196,0.9980012
C0W130,花嶼,2025-05-24,23.40007,119.32276,0.99006146
C0A950,鼻頭角,2025-05-24,25.129036,121.923372,0.9980857
C0K470,林內,2025-05-24,23.748675,120.609642,0.98315185
C2F990,摩天嶺,2025-05-24,24.322458,120.936819,1.0162547e-09
82C160,茶改場,2025-05-24,24.908472,121.185333,6.221032e-07
C0Z320,清水林道,2025-05-24,23.27125,121.188272,4.6775878e-07
C0R760,南仁湖,2025-05-24,22.084681,120.863353,0.98497486
C0M670,大林,2025-05-24,23.600616,120.45841,0.99666077
C0M800,茶山,2025-05-24,23.299075,120.664767,0.043261677
C0A9C0,天母,2025-05-24,25.117494,121.537169,0.90275025
72K220,南改斗南分場,2025-05-24,23.634556,120.477333,0.992912
72AI40,桃改樹林分場,2025-05-24,24.944503,121.386972,0.86280906
C0S910,蘭嶼燈塔,2025-05-24,22.081197,121.503117,0.9958609
C0B050,八斗子,2025-05-24,25.144754,121.79167,0.9951195
C0U900,內城,2025-05-24,24.71813,121.68766,0.9924343
C0X320,柳營,2025-05-24,23.253328,120.375253,0.9966729
C0M790,新港,2025-05-24,23.553269,120.345728,0.9967775
C0F9T0,西屯,2025-05-24,24.179494,120.641275,0.99416804
C0E950,松安,2025-05-24,24.39792,120.98599,4.9018545e-10
C0SA30,都歷,2025-05-24,23.020333,121.323642,0.99943304
C0C620,蘆竹,2025-05-24,25.084275,121.265767,0.0012755133
C0R730,大坪頂,2025-05-24,22.024633,120.69355,0.80538106
C0AJ40,石門,2025-05-24,25.273672,121.601198,2.8188101e-06
C0E750,苗栗,2025-05-24,24.564569,120.824575,0.075321704
C0T870,鯉魚潭,2025-05-24,23.935639,121.508944,0.47166988
C1V170,排雲,2025-05-24,23.463619,120.954147,4.880698e-09
C2H950,中寮,2025-05-24,23.884447,120.766406,0.99308413
C0R350,貓鼻頭,2025-05-24,21.921774,120.7358,0.9109089
C0V660,岡山,2025-05-24,22.797078,120.294958,0.9943447
C1H941,雙冬,2025-05-24,23.967378,120.802189,8.391206e-07
C0AJ70,田寮,2025-05-24,25.2698,121.4886,0.000120608
C0AI00,五股,2025-05-24,25.07445,121.42728,0.0058829673
C0Z280,德武,2025-05-24,23.47426,121.41071,0.0046267896
C0R700,枋山,2025-05-24,22.246844,120.661086,0.13054453
C0C460,復興,2025-05-24,24.820208,121.352281,0.00010010839
E2H360,蓮華池,2025-05-24,23.918333,120.885278,6.172184e-08
C0M640,中埔,2025-05-24,23.42538,120.5229,0.9981707
C0W140,金沙,2025-05-24,24.488292,118.408778,0.00090199284
C2A540,四堵,2025-05-24,24.8926,121.745736,0.026082285
C0ACA0,新莊,2025-05-24,25.051478,121.446756,0.9942751
C0R220,潮州,2025-05-24,22.534361,120.54,0.99820566
U2HA40,臺大內茅埔,2025-05-24,23.689722,120.851117,5.0589257e-05
467490,臺中,2025-05-24,24.145736,120.684075,0.9882145
C0UB60,明池,2025-05-24,24.650688,121.475277,8.187737e-09
C0U960,翠峰湖,2025-05-24,24.510856,121.608044,2.7151448e-09
E2HA20,林試畢祿溪站,2025-05-24,24.226944,121.308522,1.0382176e-09
C0V890,前鎮,2025-05-24,22.5718,120.3117,0.997837
C1F941,雪嶺,2025-05-24,24.280586,121.026642,2.3407307e-09
C2H9E0,國姓南港,2025-05-24,23.911108,120.846556,2.7026617e-09
C0AC80,文山,2025-05-24,25.00235,121.575728,0.99792725
C0F9R0,龍井,2025-05-24,24.184536,120.528972,0.7046153
C0M760,民雄,2025-05-24,23.551754,120.428457,0.996482
C0UA40,西德山,2025-05-24,24.560647,121.752608,3.7720365e-09
C1T920,中興,2025-05-24,23.769503,121.498653,0.9974574
C0D550,雪霸,2025-05-24,24.526972,121.11605,8.7479723e-10
C2F860,梨山,2025-05-24,24.247522,121.243669,1.0775306e-09
C0R320,車城,2025-05-24,22.0744,120.716247,0.110676855
C1S870,南美山,2025-05-24,23.15025,121.382333,4.210251e-06
C0B020,基隆嶼,2025-05-24,25.19141,121.78391,0.8186945
C1U501,牛鬥,2025-05-24,24.637836,121.573656,0.004232393
C0M730,嘉義市東區,2025-05-24,23.457673,120.460531,0.9985596
C0S700,知本,2025-05-24,22.684866,121.005642,3.765971e-06
C1N001,沙崙,2025-05-24,22.935472,120.309406,0.99543285
C0V760,橋頭,2025-05-24,22.757806,120.30575,0.99402803
C0G960,福寶,2025-05-24,24.0443,120.3814,0.504669
C0X210,白河,2025-05-24,23.347466,120.414427,0.99763304
C0S810,東河,2025-05-24,22.972672,121.303986,0.9750081
C2R170,屏東,2025-05-24,22.66027,120.49403,0.99873537
C0R670,楓港,2025-05-24,22.190131,120.692156,0.30750296
C0FA50,霧峰,2025-05-24,24.0419,120.6995,0.98496044
C0UB10,蘇澳,2025-05-24,24.5969,121.8571,0.9967429
C0G950,防潮門,2025-05-24,24.1835,120.4871,0.7046153
C0M740,六腳,2025-05-24,23.492871,120.290625,0.99842745
C1R250,力里,2025-05-24,22.428117,120.629228,0.9667935
C0K330,虎尾,2025-05-24,23.719183,120.442036,0.48082182
C2FA00,烏石坑,2025-05-24,24.273503,120.947617,1.1081193e-09
C0V620,永安,2025-05-24,22.82315,120.236856,0.9943197
C1I330,楓樹林,2025-05-24,23.986803,121.076117,1.2642285e-09
C0W200,湖西,2025-05-24,23.596314,119.67275,0.25988457
72Q010,高雄農改場,2025-05-24,22.709333,120.525889,0.9978269
C0SA40,瑞和,2025-05-24,22.974361,121.156697,0.12198623
C0C680,龜山,2025-05-24,25.02846,121.38656,0.0002942249
C2V260,月眉,2025-05-24,22.971003,120.539853,0.99889505
C0V450,鳳森,2025-05-24,22.545064,120.392592,0.99811983
C0FA90,小雪山林道,2025-05-24,24.29515,121.03651,3.8188666e-09
C0U720,南山,2025-05-24,24.43742,121.38167,2.7651723e-08
A2N290,臺南蘭花園區,2025-05-24,23.340258,120.379661,0.9995663
C0R560,新園,2025-05-24,22.5434,120.461558,0.9975403
C0U890,三星,2025-05-24,24.66812,121.65302,0.51858926
C1V300,御油山,2025-05-24,23.001983,120.715364,4.9038934e-10
C0U600,礁溪,2025-05-24,24.817539,121.765608,0.6001512
C1T980,龍澗,2025-05-24,24.023289,121.411328,1.3747126e-08
C0D670,海天一線,2025-05-24,24.831986,120.914438,3.3361064e-07
C0SA00,歷坵,2025-05-24,22.520969,120.89185,3.364926e-06
C0M710,東石,2025-05-24,23.458927,120.15385,0.61998683
C0M780,鹿草,2025-05-24,23.41134,120.30835,0.99749583
C0U520,雙連埤,2025-05-24,24.753033,121.641303,0.0021483765
C0B010,七堵,2025-05-24,25.094819,121.71713,0.99750996
C0R480,長治,2025-05-24,22.693128,120.542622,0.9992044
C1V830,國三S383K,2025-05-24,22.781967,120.426475,0.9994804
12Q980,恆春工作站,2025-05-24,22.079678,120.714425,0.110676855
C1O940,東山服務區,2025-05-24,23.286016,120.398472,0.99434286
C1U840,東澳嶺,2025-05-24,24.5378,121.8485,2.9232774e-07
C1D630,飛鳳山,2025-05-24,24.766464,121.119178,6.020524e-07
C0S940,石寧山,2025-05-24,23.223772,121.406639,0.017517574
C0K410,北港,2025-05-24,23.573957,120.292802,0.9455765
C2M620,瑞里,2025-05-24,23.545133,120.675197,5.5007804e-10
C0SB70,小港漁港,2025-05-24,23.158558,121.400431,0.042071268
C2O950,安南,2025-05-24,23.076694,120.144861,0.8416865
C0F0E0,南湖圈谷,2025-05-24,24.363714,121.444667,8.842524e-09
467610,成功,2025-05-24,23.097486,121.373428,0.5008187
C0G890,伸港,2025-05-24,24.148933,120.484403,0.7346356
C2E540,龍溪,2025-05-24,24.606489,120.783933,0.70038825
C1V200,梅山,2025-05-24,23.268447,120.823556,1.9557808e-08
C0T9H0,加路蘭山,2025-05-24,23.682947,121.5274,4.2217036e-07
C2O930,玉井,2025-05-24,23.126042,120.46055,0.9963954
C1F911,新伯公,2025-05-24,24.221361,120.841069,0.59385216
C0R490,九如,2025-05-24,22.7405,120.490503,0.9976574
C0X200,左鎮,2025-05-24,23.056758,120.408522,0.9956866
C0FA60,鞍馬山工作站,2025-05-24,24.267064,121.000793,1.6866822e-09
C0SB50,叭嗡嗡,2025-05-24,23.047062,121.343223,0.9997205
C1F891,稍來,2025-05-24,24.265689,121.001142,1.5791872e-09
72N240,七股研究中心,2025-05-24,23.081672,120.062894,0.82912576
C0C700,中壢,2025-05-24,24.977661,121.256375,0.11260546
C0M690,水上,2025-05-24,23.419734,120.388909,0.99957055
C0V690,鼓山,2025-05-24,22.623325,120.275575,0.9980809
C0O860,大內,2025-05-24,23.11885,120.36083,0.999415
C0Z200,萬榮,2025-05-24,23.709219,121.420106,0.9777814
C0T9D0,和中,2025-05-24,24.26676,121.74103,0.9809695
C1O921,楠西,2025-05-24,23.183511,120.484083,0.99670106
C0AJ30,淡水觀海,2025-05-24,25.184591,121.408616,0.0043291217
C0V810,左營,2025-05-24,22.67491,120.28491,0.97062194
C0UA70,桃源谷,2025-05-24,24.962606,121.888875,0.018966386
C0X130,官田,2025-05-24,23.193217,120.315422,0.999112
C1H000,翠峰,2025-05-24,24.109397,121.205211,1.065739e-09
C0UA90,石城,2025-05-24,24.980444,121.951214,0.55752873
C1E681,南勢山,2025-05-24,24.421669,120.923831,9.313341e-10
C0A9F0,內湖,2025-05-24,25.079422,121.57545,0.9968233
C0K291,宜梧,2025-05-24,23.536281,120.169329,0.95409054
C1K540,口湖,2025-05-24,23.585344,120.180517,0.105828375
C0R780,滿州,2025-05-24,22.024403,120.839892,0.2107032
C0V870,文安,2025-05-24,22.8025,120.2164,0.99347293
C0U650,玉蘭,2025-05-24,24.675286,121.587061,0.0002629155
C0R640,東港,2025-05-24,22.46247,120.44074,0.97500014
C0AJ80,板橋,2025-05-24,25.0107,121.4489,0.9980502
C0S660,下馬,2025-05-24,23.150427,121.070312,4.5779505e-08
C1H9B1,阿眉,2025-05-24,24.1263,120.994672,1.1969543e-09
C0UA20,多加屯,2025-05-24,24.368614,121.373189,1.9299882e-09
C0E730,頭份,2025-05-24,24.688247,120.912206,2.4196066e-05
72V140,高改旗南分場,2025-05-24,22.857861,120.516667,0.99886113
C0K480,莿桐,2025-05-24,23.761192,120.502372,0.9994995
C0U980,坪林石牌,2025-05-24,24.86478,121.77396,0.0017189148
C0T900,西林,2025-05-24,23.8119,121.441458,0.84143126
C1I150,青雲,2025-05-24,23.793361,120.949378,5.240012e-05
467350,澎湖,2025-05-24,23.565503,119.563094,0.979726
C0G800,埔鹽,2025-05-24,24.000394,120.431683,0.039466456
C0H960,草屯,2025-05-24,23.973672,120.68085,0.97392696
C1V780,多納林道,2025-05-24,22.888028,120.737917,1.1860957e-09
C0E920,通霄漁港,2025-05-24,24.498589,120.673876,0.0013196146
C0Z330,安通山,2025-05-24,23.290728,121.348528,1.0174383e-08
C0AH10,永和,2025-05-24,25.01125,121.508111,0.9980502
C0AK10,太平里,2025-05-24,25.134937,121.364899,0.009628217
C2G640,鹿港,2025-05-24,24.0753,120.430481,0.504669
C1E890,國三N149K,2025-05-24,24.463414,120.680019,0.10563569
C1R110,口社,2025-05-24,22.770111,120.645222,0.9968373
C1M870,國三N285K,2025-05-24,23.550319,120.505833,0.97203946
C1E480,鳳美,2025-05-24,24.554803,121.034747,1.457438e-08
C0M530,奮起湖,2025-05-24,23.493903,120.699253,5.1344745e-10
C0C590,觀音,2025-05-24,25.027072,121.153317,1.4642021e-05
C0T9M0,靜浦,2025-05-24,23.455167,121.495028,0.91871136
C2H9M0,發祥,2025-05-24,24.154094,121.164517,1.3688275e-09
C0AI40,石牌,2025-05-24,25.115597,121.513139,0.9165369
C1F871,上谷關,2025-05-24,24.203483,121.018644,8.1978896e-10
C2H9G0,百勝,2025-05-24,24.051142,120.909361,1.0145412e-05
C0G880,二水,2025-05-24,23.810742,120.6173,0.9985742
C0R940,加祿堂,2025-05-24,22.3363,120.6217,0.95986414
C0W220,北竿,2025-05-24,26.220358,119.974881,9.1697257e-07
C0O960,崎頂,2025-05-24,22.959547,120.369317,0.9972395
C0TA40,秀林,2025-05-24,24.302864,121.731144,1.85584e-08
C0S750,向陽,2025-05-24,23.248397,120.986133,1.0518693e-09
C0T9F0,水璉,2025-05-24,23.797131,121.542514,0.23362224
C1M600,頭凍,2025-05-24,23.406364,120.603339,1.4147888e-09
467660,臺東,2025-05-24,22.752211,121.154586,0.63117564
C1D380,新埔,2025-05-24,24.84745,121.03834,1.5526017e-07
C2G980,田頭村,2025-05-24,23.8263,120.444175,0.07343762
C0V750,路竹,2025-05-24,22.854997,120.259439,0.9427365
C0N050,蚵寮,2025-05-24,23.301,120.1104,0.9983991
72M700,南改鹿草分場,2025-05-24,23.416869,120.283061,0.9976467
C1SA50,利嘉林道,2025-05-24,22.82325,121.009389,1.3885998e-09
C0UB70,太平山中間站,2025-05-24,24.542003,121.513453,7.794396e-09
C0A940,金山,2025-05-24,25.223628,121.643967,0.9982039
C1V340,大津,2025-05-24,22.888322,120.645986,0.9981262
C0W180,七美,2025-05-24,23.219333,119.444892,0.56651366
C1F9C1,白冷,2025-05-24,24.182844,120.929889,0.005923756
K2E710,苗改生物防治研究中心,2025-05-24,24.422861,120.871833,0.00013483352
C0N040,蘆竹溝,2025-05-24,23.2344,120.0961,0.99576354
C0D760,大坪苗圃,2025-05-24,24.5362,121.1108,6.9142786e-10
C2W230,畜試所澎湖,2025-05-24,23.628342,119.513206,0.9947189
C0R880,後壁湖,2025-05-24,21.9457,120.7457,0.14120233
C1I280,埔中,2025-05-24,23.820778,120.642594,2.400311e-06
467790,墾丁雷達站,2025-05-24,21.948235,120.808028,0.11325821
C0W190,望安,2025-05-24,23.380564,119.494075,0.93239963
C0Z170,卓溪,2025-05-24,23.3443,121.3029,0.00011925727
C0F850,東勢,2025-05-24,24.246428,120.833047,0.999318
466900,淡水,2025-05-24,25.164889,121.448906,0.009628217
C0I370,魚池,2025-05-24,23.895703,120.94135,1.0000268e-07
C0C630,大溪,2025-05-24,24.882853,121.265547,0.008323276
C0A520,山佳,2025-05-24,24.974944,121.402008,0.999163
C0I110,竹山,2025-05-24,23.761225,120.688156,0.99879664
82H840,茶改南部分場,2025-05-24,23.762528,120.7405,9.16213e-06
C0G660,溪湖,2025-05-24,23.94835,120.479122,0.038689554
C1T800,洛韶,2025-05-24,24.204558,121.453956,1.5117052e-08
C1T810,慈恩,2025-05-24,24.192044,121.388386,6.9323963e-10
C1E451,象鼻,2025-05-24,24.368617,120.940228,5.976672e-09
C0AC60,三峽,2025-05-24,24.939025,121.369728,0.79089415
C0I490,萬大林道,2025-05-24,23.928228,121.091411,9.450735e-10
C1I290,豐丘,2025-05-24,23.668178,120.887417,5.689983e-10
C1I320,奧萬大,2025-05-24,23.952956,121.178556,1.1111606e-09
C2M910,嘉義大學,2025-05-24,23.471325,120.485903,0.9985449
C0U770,南澳,2025-05-24,24.44935,121.81022,0.032951668
C0A980,社子,2025-05-24,25.109508,121.469681,0.010246164
C0V800,六龜,2025-05-24,22.997889,120.633583,0.99883556
C1G9D0,國一S218K,2025-05-24,23.890641,120.493253,0.09204611
C0E570,白沙屯,2025-05-24,24.549447,120.696803,0.07879727
C2F9A0,中竹林,2025-05-24,24.103556,120.751061,0.42965055
C0FA40,臺中電廠,2025-05-24,24.2146,120.4907,0.7046153
C2G9A0,畜試所彰化,2025-05-24,23.86045,120.557964,0.9988509
C0H9C0,合歡山,2025-05-24,24.143442,121.272547,3.8382835e-09
C0X060,下營,2025-05-24,23.22695,120.256261,0.99943686
G2M350,農試溪口農場,2025-05-24,23.58565,120.408111,0.99633396
C0U860,頭城,2025-05-24,24.85323,121.8308,0.65595955
C0R580,南州,2025-05-24,22.48591,120.50274,0.97500014
C0D430,峨眉,2025-05-24,24.6905,121.017189,3.6546015e-07
C0G780,秀水,2025-05-24,24.03405,120.503869,0.06563883
72N100,臺南農改場,2025-05-24,23.0605,120.342194,0.9994372
C0S900,蘭嶼高中,2025-05-24,22.04909,121.51214,0.9047586
C1F9W0,德基,2025-05-24,24.254783,121.190261,1.1197816e-09
C1Z120,壽豐,2025-05-24,23.870853,121.508081,0.99674565
C0W160,烏坵,2025-05-24,24.9944,119.44956,8.908394e-06
C1I240,外大坪,2025-05-24,23.958697,120.917931,1.0129866e-05
C1I550,國六W023K,2025-05-24,23.979067,120.867742,0.00065238867
C0R870,興海,2025-05-24,21.9752,120.8439,0.1082257
C0R140,瑪家,2025-05-24,22.682903,120.686639,5.212596e-05
C0A530,坪林,2025-05-24,24.938183,121.70975,0.035860248
C0X260,後壁,2025-05-24,23.366358,120.362326,0.9995663
C0Z230,和平,2025-05-24,24.30717,121.77007,0.9854214
C0G770,福興,2025-05-24,24.041289,120.437669,0.039225016
C0H9A0,神木村,2025-05-24,23.532742,120.843667,3.4643524e-10
C0I460,南投,2025-05-24,23.911469,120.687331,0.99666333
C0I480,梅峰,2025-05-24,24.085272,121.173572,7.715319e-10
C1V570,吉東,2025-05-24,22.85422,120.5454,0.99897367
C2D740,屯原,2025-05-24,24.067969,121.209389,6.778747e-10
C2A560,福山,2025-05-24,24.776203,121.502811,0.020116989
C0AH30,五分山,2025-05-24,25.07125,121.780794,8.720024e-09
C0FA10,松柏,2025-05-24,24.429115,120.617482,0.16466787
72S200,東改班鳩分場,2025-05-24,22.829528,121.077694,2.2299785e-06
72HA00,中改埔里分場,2025-05-24,23.903208,120.963364,2.1788208e-07
C2H9W0,大坪頂農水,2025-05-24,24.043122,120.932781,6.3356023e-09
C0C650,平鎮,2025-05-24,24.897503,121.214636,0.0011762158
C0S930,延平,2025-05-24,22.902581,121.084058,1.3137115e-05
C0UA60,樟樹山,2025-05-24,24.41393,121.78325,0.0024879859
C1S670,摩天,2025-05-24,23.199503,121.027,5.902965e-09
C0V630,茄萣,2025-05-24,22.906642,120.182608,0.92658234
466940,基隆,2025-05-24,25.133314,121.740475,0.99532306
C0X050,東河,2025-05-24,23.296598,120.385608,0.9929335
C0R770,保力,2025-05-24,22.071122,120.764111,0.36903265
G2L020,農試嘉義分所,2025-05-24,23.485028,120.473806,0.9969624
C0X240,關子嶺,2025-05-24,23.331169,120.508025,0.016632503
C0I380,集集,2025-05-24,23.828206,120.801467,0.061806135
466990,花蓮,2025-05-24,23.975128,121.613275,0.7950176
C1V220,小關山,2025-05-24,23.154217,120.813603,7.911098e-10
C1F9G1,慶福山,2025-05-24,24.180853,120.848378,5.3185003e-09
C0FB20,雪山橋,2025-05-24,24.23192,120.9786,1.409679e-09
C0Z250,瑞穗林道,2025-05-24,23.49284,121.30688,1.0728002e-08
C0D590,新豐,2025-05-24,24.87068,120.97721,3.700019e-08
C0A870,五指山,2025-05-24,25.132153,121.608692,1.14451275e-08
C0UA50,西帽山,2025-05-24,24.555361,121.802628,2.193665e-08
C0X160,仁德,2025-05-24,22.968258,120.257689,0.9764256
C1H971,六分寮,2025-05-24,23.92507,120.6378,0.00018383015
C0W120,西嶼,2025-05-24,23.5626,119.468436,0.99324405
C0G650,員林,2025-05-24,23.946503,120.585597,0.9977755
C0AD50,鶯歌,2025-05-24,24.951533,121.346294,0.6678232
C2H9Q0,北東眼山,2025-05-24,24.120939,121.189303,1.1522772e-09
C2H9T0,名間竹圍,2025-05-24,23.859914,120.637572,0.0015318046
C0S990,山豬窟,2025-05-24,22.318619,120.857372,0.92490333
C0X190,安平,2025-05-24,22.993161,120.152181,0.94977546
C0K400,斗六,2025-05-24,23.720583,120.541127,0.9991348
12J990,口湖工作站,2025-05-24,23.589978,120.180394,0.10615649
C0O830,北寮,2025-05-24,23.079561,120.495008,0.99835825
C1D410,白蘭,2025-05-24,24.579364,121.079947,6.5627725e-10
C0S970,加津林,2025-05-24,22.416211,120.926942,0.39443755
C0D700,關西,2025-05-24,24.7977,121.1732,4.2337917e-05
C0M810,里佳,2025-05-24,23.389125,120.716647,7.5241985e-10
C0U750,龜山島,2025-05-24,24.841667,121.953133,0.00026347535
C0R810,內獅,2025-05-24,22.305064,120.642986,0.95316684
C1M390,龍美,2025-05-24,23.406728,120.654417,8.907097e-10
C2FB60,頭櫃山,2025-05-24,24.129842,120.858925,9.1292335e-10
C1H840,國三N238K,2025-05-24,23.841008,120.707711,0.016808854
CAQ030,崎峰國小,2025-05-24,22.42565,120.49521,0.97500014
C2E520,大湖,2025-05-24,24.414939,120.870872,2.1567987e-05
467530,阿里山,2025-05-24,23.508208,120.813242,1.0449723e-09
C1E691,南湖,2025-05-24,24.40135,120.837533,4.78595e-09
C0FA30,梧棲,2025-05-24,24.256003,120.523381,0.8818965
C1V231,高中,2025-05-24,23.134911,120.716711,1.329415e-06
C0AK30,硬漢嶺,2025-05-24,25.136097,121.426372,7.009439e-08
C0F9V0,新社,2025-05-24,24.200172,120.815806,0.12925862
C0H890,埔里,2025-05-24,23.972169,120.952425,1.1963524e-05
C0R690,墾丁,2025-05-24,21.966756,120.810269,0.4800048
C0F0D0,審馬陣,2025-05-24,24.381675,121.4203,3.0183973e-09
C2W030,金門農試所,2025-05-24,24.448431,118.451786,0.010674278
C0R820,白鷺,2025-05-24,22.454275,120.666219,3.5371024e-05
C0FB00,大雪山,2025-05-24,24.254668,121.007374,1.4034629e-09
C1V190,南天池,2025-05-24,23.27403,120.91176,1.0597088e-09
C0E940,雪見,2025-05-24,24.42595,121.01347,8.2452156e-10
K2E360,苗栗農改場,2025-05-24,24.495722,120.829111,8.9356836e-05
CAJ050,海口故事園區,2025-05-24,23.57543,120.14121,0.10615649
C2H9D0,三隻寮,2025-05-24,24.093078,120.861578,5.4091114e-09
C0O990,媽廟,2025-05-24,22.99175,120.293525,0.9985327
C0D480,打鐵坑,2025-05-24,24.849664,121.150789,0.00052929384
C0Z220,和平林道,2025-05-24,24.343922,121.656317,0.00032791894
C0TA10,花蓮漁港,2025-05-24,23.995322,121.638331,0.81398654
72C440,桃園農改場,2025-05-24,24.950944,121.030583,1.9496988e-06
C1E711,馬拉邦山,2025-05-24,24.367306,120.901656,4.411783e-09
C0SB20,富岡,2025-05-24,22.792467,121.192669,0.47140568
C0D560,竹東,2025-05-24,24.767147,121.057881,9.259756e-05
C0F9U0,南屯,2025-05-24,24.137006,120.637969,0.9935316
C0M720,番路,2025-05-24,23.464657,120.554156,0.99600726
C0F0A0,雪山圈谷,2025-05-24,24.388594,121.236339,5.5850102e-09
C1A9N0,四十份,2025-05-24,24.934158,121.593283,0.0009827234
C0U760,東澳,2025-05-24,24.52196,121.83318,0.6112027
C0X230,鹽水,2025-05-24,23.272621,120.247641,0.99853355
C2H9H0,苗改南投蜂場,2025-05-24,23.852589,120.693481,0.9973881
C0R950,萬隆國小,2025-05-24,22.507667,120.587817,0.9989603
467540,大武,2025-05-24,22.35572,120.90374,0.40789467
C0V370,古亭坑,2025-05-24,22.893178,120.401947,0.9980721
C1I340,新興橋,2025-05-24,23.563333,120.868728,4.1021124e-09
C0SA80,土坂,2025-05-24,22.453108,120.887572,0.15636812
C0R160,鹽埔,2025-05-24,22.739558,120.530778,0.9978269
C0AC40,大屯山,2025-05-24,25.175675,121.522408,1.6886136e-09
466850,五分山雷達站,2025-05-24,25.071182,121.781205,7.764749e-09
C2H9L0,馬烈霸,2025-05-24,24.1512,121.201772,1.1306217e-09
C1AI50,國三N016K,2025-05-24,25.034164,121.619664,0.99648744
C1V600,藤枝,2025-05-24,23.071961,120.757042,4.9053717e-10
C1E601,南勢,2025-05-24,24.572486,120.734842,0.0120841395
C0O980,新市,2025-05-24,23.061614,120.298197,0.9993635
C0K420,西螺,2025-05-24,23.800407,120.467394,0.042439345
C0Z050,佳心,2025-05-24,23.34567,121.21316,7.954819e-08
C0AD30,蘆洲,2025-05-24,25.086594,121.472331,0.9968986
C0V610,梓官,2025-05-24,22.760558,120.267211,0.99402803
K2F750,種苗改良場,2025-05-24,24.225972,120.800917,0.32162708
C0UA80,大溪漁港,2025-05-24,24.941801,121.902955,0.32736954
C1AI60,國一39K邊坡,2025-05-24,25.064361,121.383836,0.001442267
C0W150,金寧,2025-05-24,24.457703,118.328989,0.008093321
C0R960,內埔,2025-05-24,22.608483,120.570714,0.99777234
V2C250,八德合作社,2025-05-24,24.93775,121.266389,0.04167835
C2H9S0,龍南,2025-05-24,23.953536,120.833183,1.4831215e-09
C0AH40,平等,2025-05-24,25.129142,121.577086,0.000102813574
C0R540,佳冬,2025-05-24,22.419456,120.552375,0.16654748
466950,彭佳嶼,2025-05-24,25.627975,122.079744,0.9993417
C0A890,雙溪,2025-05-24,25.036003,121.864242,0.62220633
C0C480,桃園,2025-05-24,24.992425,121.323172,0.48443285
C0AH50,林口,2025-05-24,25.072181,121.38084,8.561297e-05
A2K360,水試臺西試驗場,2025-05-24,23.717231,120.190522,0.8025152
C2M960,外寮,2025-05-24,23.562643,120.665688,1.0537569e-09
C0F9S0,烏日,2025-05-24,24.107058,120.624103,0.9909777
C0C490,八德,2025-05-24,24.928708,121.283289,0.031217385
C0R190,赤山,2025-05-24,22.592333,120.614306,0.9979981
C0T820,天祥,2025-05-24,24.179597,121.495639,0.008350821
C1F9E1,龍安,2025-05-24,24.1605,120.831961,0.0014133039
C0V820,小林,2025-05-24,23.148408,120.63325,0.50242764
C2G870,芳苑,2025-05-24,23.922303,120.320025,0.04734553
C0E850,大河,2025-05-24,24.618069,120.948578,0.0023942934
C1U670,寒溪,2025-05-24,24.634,121.71691,0.97927433
C0N020,城西,2025-05-24,23.0568,120.0956,0.94977546
C1Z110,三棧,2025-05-24,24.11557,121.60501,1.4663541e-05
C0R280,檳榔,2025-05-24,22.076078,120.836777,0.97806025
C2H9J0,中台,2025-05-24,23.9996,120.938739,9.4450274e-07
C0F9L0,后里,2025-05-24,24.310436,120.729725,0.9973213
467441,高雄,2025-05-24,22.730432,120.312516,0.99465644
C0Z180,新城,2025-05-24,24.040486,121.604878,0.7847236
C0D540,橫山,2025-05-24,24.71116,121.11693,8.451702e-06
C1D420,太閣南,2025-05-24,24.632808,121.160575,5.8856737e-09
C1E770,公館,2025-05-24,24.526914,120.830806,0.00096047734
CAN130,水試所海水繁養殖中心,2025-05-24,23.120802,120.07968,0.82912576
C1I430,翠華,2025-05-24,24.191961,121.224339,9.79549e-10
C1M400,菜瓜坪,2025-05-24,23.251928,120.576103,0.20064549
C0G730,二林,2025-05-24,23.903325,120.376081,0.08924441
72M360,南改義竹分場,2025-05-24,23.360694,120.279361,0.9981849
V2K620,麥寮合作社,2025-05-24,23.753836,120.294783,0.19597092
C0Z070,舞鶴,2025-05-24,23.46811,121.37407,0.00052960217
C0B040,大武崙,2025-05-24,25.166676,121.706993,0.9952011
C1Z030,紅葉,2025-05-24,23.493119,121.338806,0.02512774
C1I050,丹大,2025-05-24,23.753747,121.141147,1.5139262e-09
C0I080,信義,2025-05-24,23.689694,120.851036,5.0589257e-05
C0D750,樂山林道6k,2025-05-24,24.49999,121.08773,1.9178639e-09
C2M920,朴子農改,2025-05-24,23.469889,120.259383,0.9976315
C2A880,福隆,2025-05-24,25.017842,121.942083,0.58506054
C0Z160,鳳林,2025-05-24,23.746114,121.453411,0.99600947
C0UB80,翠峰林道6K,2025-05-24,24.49773,121.568625,4.834853e-09
C0V210,復興,2025-05-24,23.222403,120.806089,1.0331954e-06
C0H990,昆陽,2025-05-24,24.121322,121.273642,2.7227993e-09
C0R741,獅子,2025-05-24,22.202308,120.705236,0.87020683
C0S710,鹿野,2025-05-24,22.917711,121.122994,1.3788355e-05
C0I530,小奇萊,2025-05-24,24.131764,121.295717,2.9844214e-09
C0FA70,大雪山埡口,2025-05-24,24.26867,121.03062,2.282351e-09
C2K630,荷苞,2025-05-24,23.657717,120.595144,0.9650458
C0Z080,富源,2025-05-24,23.587642,121.378225,0.35255077
C0SB10,美和,2025-05-24,22.682078,121.060236,0.97931343
C2K620,馬光農場,2025-05-24,23.721453,120.378864,0.6780429
C1I140,卡奈托灣,2025-05-24,23.754364,121.087872,5.253108e-10
C0I520,玉山風口,2025-05-24,23.470489,120.955994,7.691594e-09
C1G691,下水埔,2025-05-24,23.816114,120.5676,0.9994835
C0X110,臺南市南區,2025-05-24,22.961189,120.188378,0.9764148
C0V680,仁武,2025-05-24,22.701083,120.347722,0.97062194
C2G840,北斗,2025-05-24,23.877586,120.514222,0.08107521
C0R900,竹坑,2025-05-24,22.1385,120.7022,0.11184977
C0K250,崙背,2025-05-24,23.75555,120.318925,0.19638234
C0G860,社頭,2025-05-24,23.897647,120.5862,0.9989167
C0X150,安定,2025-05-24,23.102614,120.227839,0.9992134
C0R590,里港,2025-05-24,22.77919,120.49459,0.9992865
C0E610,馬都安,2025-05-24,24.451272,120.930192,3.320136e-09
C0E550,明德,2025-05-24,24.583486,120.885411,0.018463638
C0R150,三地門,2025-05-24,22.709889,120.639944,0.996326
C0G910,花壇,2025-05-24,24.032076,120.549461,0.042038936
C1D400,鳥嘴山,2025-05-24,24.71909,121.28387,6.6650565e-09
C0K500,元長,2025-05-24,23.64981,120.315024,0.651619
C0F0B0,石岡,2025-05-24,24.276061,120.777644,0.99615574
C2V250,甲仙,2025-05-24,23.080106,120.591758,0.9910439
C0SA20,金崙山,2025-05-24,22.567419,120.959667,1.19297985e-08
C0V350,溪埔,2025-05-24,22.738578,120.446797,0.99897784
C0M660,溪口,2025-05-24,23.604131,120.403569,0.99633396
C1S880,壽卡,2025-05-24,22.238911,120.858903,0.9870343
72D680,桃改新埔分場,2025-05-24,24.834444,121.066111,1.9245437e-07
