站號,站名,日期,lat,lon,BLBTSLS
CAH030,茶改場竹圍站,2025-12-21,23.860083,120.637528,3.1363685e-09
V2K610,大庄合作社,2025-12-21,23.8068,120.367939,2.3699142e-08
G2AI50,關渡,2025-12-21,25.11575,121.492,1.3134969e-09
V2C260,八德蔬果,2025-12-21,24.978508,121.281819,1.4379048e-09
A2K570,古坑花卉中心,2025-12-21,23.63353,120.55239,0.990612
467571,新竹,2025-12-21,24.827853,121.014219,3.5329049e-09
C0E430,南庄,2025-12-21,24.601775,121.000214,6.8948864e-08
C0E420,竹南,2025-12-21,24.708978,120.888897,0.97422767
C0M530,奮起湖,2025-12-21,23.493903,120.699253,4.418739e-09
C0C590,觀音,2025-12-21,25.027072,121.153317,0.17345394
C0M810,里佳,2025-12-21,23.389125,120.716647,4.417239e-09
V2C250,八德合作社,2025-12-21,24.93775,121.266389,1.199363e-09
