站號,站名,日期,lat,lon,BLBTSLS
C0R710,龍磐,2025-12-27,21.931672,120.838942,0.10743571
C1F9D1,白毛台,2025-12-27,24.158325,120.886933,1.3357855e-09
C0G940,竹塘,2025-12-27,23.848253,120.386764,7.96613e-08
467590,恆春,2025-12-27,22.003897,120.746339,0.9213552
C1O850,環湖,2025-12-27,23.148617,120.418633,3.513089e-09
C0U710,太平山,2025-12-27,24.505486,121.525656,1.9549118e-08
C0E820,獅潭,2025-12-27,24.539133,120.920042,2.4222173e-08
C2SD70,二層坪,2025-12-27,22.94105,121.16838,3.8689634e-09
C0V880,興達,2025-12-27,22.8778,120.2127,1.0615243e-07
C0S890,關山,2025-12-27,23.0395,121.175017,3.9132853e-09
C0SB30,新蘭,2025-12-27,22.869214,121.223228,7.603245e-09
C2R970,屏科大,2025-12-27,22.648275,120.619247,8.333184e-10
C1Z130,銅門,2025-12-27,23.965694,121.492842,7.2512347e-09
C0AD40,土城,2025-12-27,24.973208,121.445169,0.000716752
CAN140,六官養殖協會,2025-12-27,23.22881,120.29962,6.278224e-05
C0X180,山上,2025-12-27,23.0757,120.363253,2.2161053e-08
C0F9Z0,雪山東峰,2025-12-27,24.388792,121.268675,2.169498e-08
C1M480,獨立山,2025-12-27,23.537022,120.607797,9.2469465e-10
C0X220,學甲,2025-12-27,23.230367,120.182187,8.695074e-06
467650,日月潭,2025-12-27,23.881325,120.90805,1.6338876e-09
C0K600,箔子寮,2025-12-27,23.6197,120.14,0.00013490398
C0G830,埤頭,2025-12-27,23.866003,120.452806,7.91817e-08
C0S950,七塊厝,2025-12-27,22.954453,121.229922,3.5420473e-09
467110,金門,2025-12-27,24.407306,118.289281,1.646675e-08
C0AH80,深坑,2025-12-27,25.002703,121.628328,3.7266286e-06
C0A970,三貂角,2025-12-27,25.007606,122.002058,1.0518787e-06
C2D730,寶山農場,2025-12-27,24.732444,120.976153,0.0022944086
C0K430,褒忠,2025-12-27,23.690938,120.303634,3.799948e-06
467480,嘉義,2025-12-27,23.495925,120.432906,1.3734041e-07
C0V400,阿公店,2025-12-27,22.804194,120.355528,5.508072e-08
C0E960,觀霧分站,2025-12-27,24.505781,121.113921,9.133767e-09
467550,玉山,2025-12-27,23.48718,120.95943,2.785526e-08
C0R440,大漢山,2025-12-27,22.405264,120.753181,2.5174346e-08
C0SD30,東清國小,2025-12-27,22.057128,121.564922,0.9841428
C1F9B1,桐林,2025-12-27,24.066172,120.735194,4.948923e-09
C2H9U0,鳳鵬,2025-12-27,23.763919,120.788061,1.2187592e-09
C0K390,土庫,2025-12-27,23.679029,120.395574,9.0904244e-08
C1I450,望鄉山,2025-12-27,23.594153,120.944286,1.6023291e-08
C0E910,海埔,2025-12-27,24.648767,120.772435,1.2512745e-06
B2E890,畜試北區分所,2025-12-27,24.527806,120.770972,5.9412255e-08
C0R750,四林格山,2025-12-27,22.076989,120.802439,0.6175644
C0F0C0,中坑,2025-12-27,24.248517,120.903319,1.8620936e-09
C1I121,大鞍,2025-12-27,23.678381,120.760017,3.6077423e-09
C2G9E0,移民庄,2025-12-27,23.9784,120.40283,1.2954597e-07
72U480,花改蘭陽分場,2025-12-27,24.686306,121.716583,4.5270827e-09
C0A770,科教館,2025-12-27,25.096356,121.516507,0.0013944316
C0AJ60,六塊厝,2025-12-27,25.24,121.4481,0.93187165
C0R620,墾雷,2025-12-27,21.900836,120.855269,0.9530787
467420,永康,2025-12-27,23.038386,120.2367,6.893827e-07
C2M530,奮起湖,2025-12-27,23.493903,120.699253,3.094288e-09
C0I410,名間,2025-12-27,23.837053,120.701447,2.9353069e-09
A2C560,農工中心,2025-12-27,24.985917,121.239833,0.3157725
C0V740,旗山,2025-12-27,22.888614,120.483597,1.2865127e-09
C0Z061,玉里,2025-12-27,23.3215,121.339656,1.2473096e-08
C0S840,南田,2025-12-27,22.279725,120.889208,0.9397611
C1I470,杉林溪,2025-12-27,23.639517,120.786444,4.5784376e-09
C1X040,東原,2025-12-27,23.291597,120.463822,2.201599e-09
C0R660,枋寮,2025-12-27,22.367722,120.590647,6.926218e-08
C1R120,上德文,2025-12-27,22.763272,120.704442,1.8005223e-09
C0K450,大埤,2025-12-27,23.646074,120.431537,6.046907e-08
C0UA00,土場,2025-12-27,24.576533,121.495333,5.673849e-09
467080,宜蘭,2025-12-27,24.763975,121.756528,4.687638e-09
C0N030,四草,2025-12-27,23.0235,120.1116,1.0398184e-06
467410,臺南,2025-12-27,22.99328,120.20492,7.9677005e-07
C0V650,彌陀,2025-12-27,22.783806,120.246361,2.6189647e-07
C0D660,新竹市東區,2025-12-27,24.798681,120.986942,0.031892706
82S580,茶改東部分場,2025-12-27,22.907694,121.130139,4.8812008e-09
C0SB40,興隆,2025-12-27,22.913661,121.257469,7.0591453e-09
467050,新屋,2025-12-27,25.006725,121.047492,0.6403612
C0C710,大溪永福,2025-12-27,24.892936,121.324975,0.055913754
C0FA20,溫寮,2025-12-27,24.372177,120.583125,5.323174e-06
C0V640,湖內,2025-12-27,22.887139,120.2445,7.347875e-08
C0R910,下寮,2025-12-27,22.3929,120.5548,6.926218e-08
C0Z020,明里,2025-12-27,23.208717,121.262342,1.0987081e-08
C0M770,嘉義梅山,2025-12-27,23.585398,120.555587,1.2593051e-08
C0C660,楊梅,2025-12-27,24.912375,121.143047,0.29482654
C0SD40,牛頭山,2025-12-27,22.676661,121.506944,0.1785792
C1E511,新開,2025-12-27,24.347703,120.827019,2.6883484e-09
G2F820,農試所(霧峰),2025-12-27,24.031261,120.688133,1.2088948e-08
C2M990,大巃頂,2025-12-27,23.5547,120.61439,1.5944808e-09
C1I070,和社,2025-12-27,23.591131,120.888861,9.195186e-10
C2E990,新坪頂,2025-12-27,24.30201,120.8574,1.584851e-09
C0TA80,立霧山,2025-12-27,24.183258,121.641899,2.2884285e-08
C2F000,大肚,2025-12-27,24.15295,120.572117,3.6249588e-09
C1S850,豐南,2025-12-27,23.122139,121.262389,4.7766116e-09
C2M9B0,西興,2025-12-27,23.2428,120.57617,1.5033572e-09
C2A920,富貴角,2025-12-27,25.263783,121.565258,0.88674486
CAH030,茶改場竹圍站,2025-12-27,23.860083,120.637528,9.719928e-10
C0T960,光復,2025-12-27,23.660694,121.424964,4.0704538e-09
C0F9M0,豐原,2025-12-27,24.254322,120.720692,6.2875696e-09
C0R720,旭海,2025-12-27,22.205403,120.887614,0.5228741
C0V710,苓雅,2025-12-27,22.622742,120.330669,2.4580105e-09
C0C740,觀音工業區,2025-12-27,25.064764,121.114856,0.80047894
CAC040,拉拉山,2025-12-27,24.699317,121.427133,2.9966866e-08
C0V790,萬山,2025-12-27,22.905944,120.688056,1.6339531e-09
U2HA30,臺大和社,2025-12-27,23.590856,120.888864,9.195186e-10
C2H9K0,屯原,2025-12-27,24.067969,121.209389,7.2380386e-09
C0AJ90,澳底,2025-12-27,25.0552,121.9253,6.0854118e-06
C0Z100,東華,2025-12-27,23.89525,121.549833,7.2408692e-09
C0G970,三豐,2025-12-27,23.882,120.2895,0.10339978
V2K610,大庄合作社,2025-12-27,23.8068,120.367939,2.1596634e-06
C0V900,汕尾,2025-12-27,22.4782,120.4151,0.00019555366
C1R630,龍泉,2025-12-27,22.66701,120.59091,1.0349099e-09
C1AC50,關渡,2025-12-27,25.133486,121.469331,0.27455887
C0C800,四稜,2025-12-27,24.64733,121.4293,2.4451479e-08
C0F9I0,神岡,2025-12-27,24.272481,120.658314,1.2420772e-08
C0K460,斗南,2025-12-27,23.678734,120.478359,4.9717833e-08
C2O810,曾文,2025-12-27,23.219681,120.497328,2.9105316e-09
467280,後龍,2025-12-27,24.648563,120.831834,4.0493816e-07
C1F9J1,清水林,2025-12-27,24.071242,120.820419,8.9165986e-10
C2A650,火燒寮,2025-12-27,25.002719,121.742892,1.8435209e-07
466930,竹子湖,2025-12-27,25.162078,121.544547,9.720935e-07
C1I220,樟湖,2025-12-27,23.905333,120.846983,1.8481208e-09
C0I390,仁愛,2025-12-27,24.022122,121.132206,1.8845683e-09
C0Z300,東里,2025-12-27,23.26853,121.30547,1.2513009e-08
C1V590,新發,2025-12-27,23.057019,120.646064,1.8871185e-09
C0K510,水林,2025-12-27,23.572924,120.24597,2.7659571e-05
72S590,東改賓朗果園,2025-12-27,22.813889,121.071278,6.683171e-09
82A750,茶改北部分場,2025-12-27,24.955778,121.631222,9.3289586e-08
C1A750,石碇服務區,2025-12-27,25.00872,121.646242,7.5286575e-06
C0X300,鹿寮,2025-12-27,23.386047,120.477331,1.4705227e-08
G2AI50,關渡,2025-12-27,25.11575,121.492,0.23508322
C0K590,雲林東勢,2025-12-27,23.674192,120.255721,8.39945e-06
C2K310,港尾布雞,2025-12-27,23.74834,120.38439,7.210071e-08
C0A570,桶後,2025-12-27,24.848222,121.597992,3.5651347e-08
C1S800,華源,2025-12-27,22.657883,121.02325,1.7838104e-07
C0G720,溪州,2025-12-27,23.851589,120.499093,6.700239e-08
C1V160,達卡努瓦,2025-12-27,23.279811,120.705319,2.407174e-09
C2M410,馬頭山,2025-12-27,23.324361,120.582017,1.7157191e-09
C0V850,蚵仔寮,2025-12-27,22.7256,120.2527,3.443218e-06
C0S740,池上,2025-12-27,23.119628,121.209469,1.2614952e-08
C1V390,尖山,2025-12-27,22.813153,120.367789,2.5823446e-08
C0AH70,松山,2025-12-27,25.04871,121.55042,0.00081546087
C0N010,鯤鯓國小,2025-12-27,23.1879,120.0889,3.9560714e-06
C0R550,新埤,2025-12-27,22.467947,120.582894,5.7248493e-05
C0SA60,知本（水試所）,2025-12-27,22.702394,121.082761,1.2205613e-06
C0T9I0,豐濱,2025-12-27,23.583897,121.514806,4.8473185e-09
C0UB00,淡江大學蘭陽校園,2025-12-27,24.823239,121.730383,1.5588888e-08
C0W240,九宮,2025-12-27,24.423753,118.240186,3.5748564e-09
C0T9N0,富里,2025-12-27,23.171639,121.249378,1.2918073e-08
U2HA50,臺大竹山,2025-12-27,23.756972,120.681556,1.2559732e-08
C0V840,鳳鼻頭,2025-12-27,22.5083,120.3591,8.4962046e-08
C0X140,西港,2025-12-27,23.125608,120.203108,0.0014931897
72D080,桃改五峰分場,2025-12-27,24.612194,121.157167,4.2502055e-09
C2H9P0,伊拿谷,2025-12-27,23.963211,121.088264,1.365435e-09
C2K250,崙背,2025-12-27,23.75553,120.31893,3.7933655e-06
C2H9F0,柑林,2025-12-27,24.018658,120.847072,1.1825018e-09
C0TA20,加灣,2025-12-27,24.082025,121.608944,5.1287046e-08
C0V530,阿蓮,2025-12-27,22.883208,120.327508,4.088851e-08
C0FB30,八仙山苗圃,2025-12-27,24.192719,121.001366,1.7963888e-09
C1O880,關山,2025-12-27,23.173397,120.594092,1.1590398e-09
C0E791,卓蘭,2025-12-27,24.3126,120.8244,2.6903644e-09
C1I030,武界,2025-12-27,23.913225,121.052483,1.4095365e-09
C0R520,崁頂,2025-12-27,22.514781,120.506914,4.2440913e-08
C0R341,牡丹,2025-12-27,22.130036,120.792639,0.56715614
C0R930,萬丹,2025-12-27,22.5885,120.4851,9.797908e-08
C0S760,紅石,2025-12-27,23.069131,121.126219,1.5854807e-08
C2C410,中央大學,2025-12-27,24.967652,121.185165,0.29180402
C1M610,石磐龍,2025-12-27,23.496606,120.663506,2.208509e-09
C0C790,東眼山,2025-12-27,24.8284,121.40888,3.298884e-08
C0UA10,鴛鴦湖,2025-12-27,24.590269,121.412228,1.3988163e-08
V2C260,八德蔬果,2025-12-27,24.978508,121.281819,0.12909456
C0R800,丹路,2025-12-27,22.204481,120.750989,0.7979818
C0G920,永靖,2025-12-27,23.924703,120.547533,1.3672593e-07
C2M950,太和,2025-12-27,23.538372,120.702961,3.0557312e-09
C1A630,下盆,2025-12-27,24.771003,121.538622,1.6435937e-08
B2N890,畜產試驗所,2025-12-27,23.058972,120.336406,2.3716457e-05
C0UA30,白嶺,2025-12-27,24.527819,121.519031,1.2618681e-08
C1V580,溪南(特生中心),2025-12-27,23.084972,120.788475,6.2101106e-09
C1T970,大農,2025-12-27,23.615233,121.413331,4.691949e-09
C0R650,竹田,2025-12-27,22.58486,120.54344,5.205693e-09
C1H900,清流,2025-12-27,24.080775,120.962997,1.3658752e-09
C1C510,水尾,2025-12-27,24.940081,121.087161,0.3817526
C2N170,茅港尾,2025-12-27,23.2061,120.2624,6.316977e-05
C0F9X0,大雅(中科園區),2025-12-27,24.21528,120.62445,3.591315e-08
C0SB60,白守蓮,2025-12-27,23.126769,121.401914,2.1443494e-08
C0O970,虎頭埤,2025-12-27,23.021375,120.347878,9.384977e-09
C0C730,中大臨海站,2025-12-27,24.966126,121.008581,0.24788773
C0X250,新營,2025-12-27,23.310689,120.316681,3.686251e-05
C0V700,三民,2025-12-27,22.645017,120.311233,4.721982e-08
C0U870,大礁溪,2025-12-27,24.791042,121.675047,1.2009453e-08
C0E870,高鐵苗栗,2025-12-27,24.60725,120.826094,6.78207e-07
A2K570,古坑花卉中心,2025-12-27,23.63353,120.55239,2.571242e-08
C0TA30,鹽寮,2025-12-27,23.845606,121.592664,7.7399225e-09
C0M860,新美,2025-12-27,23.338017,120.683169,2.5868738e-09
C1E701,八卦,2025-12-27,24.491756,120.927619,1.9815156e-09
C2TA90,加納納,2025-12-27,23.466421,121.359867,6.6334644e-09
C0I420,國姓,2025-12-27,24.037803,120.855072,1.0703246e-09
C2D720,關西工作站,2025-12-27,24.757275,121.184792,0.0002591264
C0S960,香蘭,2025-12-27,22.587569,120.993375,6.302206e-05
467620,蘭嶼,2025-12-27,22.0369,121.55843,0.2790587
C0R260,春日,2025-12-27,22.370361,120.628306,2.3154524e-08
72G600,臺中農改場,2025-12-27,24.003028,120.534389,2.172163e-07
C0Z210,瑞穗,2025-12-27,23.5239,121.39021,7.836881e-09
C0M820,達邦,2025-12-27,23.453994,120.749517,2.0935402e-09
C0V860,南寮,2025-12-27,22.7616,120.2339,3.4470752e-06
C0G740,大城,2025-12-27,23.852487,120.320935,0.08655733
C0R920,塭仔,2025-12-27,22.4169,120.5197,8.288996e-08
C0R470,高樹,2025-12-27,22.826389,120.600806,8.0371204e-10
C0R680,佳樂水,2025-12-27,21.993578,120.861633,0.21130568
C1O870,大棟山,2025-12-27,23.31157,120.52226,3.0935798e-09
C0D360,梅花,2025-12-27,24.678347,121.208558,3.6822353e-08
C0Z190,富世,2025-12-27,24.14743,121.6297,1.0178284e-08
C0AI10,屈尺,2025-12-27,24.92184,121.54475,0.00028129318
B2U990,畜試東區分所,2025-12-27,24.669039,121.832561,6.910182e-09
C0SB80,長濱漁港,2025-12-27,23.313644,121.459994,1.7717097e-08
C0TA50,和仁,2025-12-27,24.241394,121.712472,1.3478584e-08
C0V910,大樹,2025-12-27,22.684645,120.432803,4.1745154e-09
C1R610,西大武山,2025-12-27,22.617719,120.7322,2.2367734e-08
C0G900,線西,2025-12-27,24.143358,120.443536,3.2442123e-05
C0M700,竹崎,2025-12-27,23.526178,120.555508,9.683609e-09
C2E880,三義,2025-12-27,24.405478,120.749819,2.3134956e-09
C0C720,竹圍,2025-12-27,25.112692,121.239824,0.7232413
C0F9P0,清水,2025-12-27,24.312297,120.562242,3.6716563e-06
C0Z150,吉安光華,2025-12-27,23.930925,121.595153,1.2243633e-08
C0FA80,小雪山天池,2025-12-27,24.28025,121.02627,1.4684038e-08
467300,東吉島,2025-12-27,23.25727,119.66762,0.9040156
C1D640,外坪(五指山),2025-12-27,24.644447,121.090961,1.1094014e-08
C2R9A0,高士國小,2025-12-27,22.12553,120.84653,0.734598
C0F9O0,潭子,2025-12-27,24.213106,120.703933,1.4670461e-08
C2H9R0,卓社,2025-12-27,23.887894,121.000086,2.1792141e-09
72T250,花蓮農改場,2025-12-27,23.975222,121.563889,3.9495802e-08
C0E780,銅鑼,2025-12-27,24.489681,120.790853,2.095259e-08
C1T950,太安,2025-12-27,23.666719,121.370128,1.6758348e-08
C0E830,苑裡,2025-12-27,24.439714,120.653053,2.1630233e-06
467270,田中,2025-12-27,23.873803,120.581286,3.3070865e-08
C0SA10,檳榔四格山,2025-12-27,22.810031,121.109308,5.591939e-09
C1T830,布洛灣,2025-12-27,24.17184,121.57127,4.190496e-08
C0F970,大坑,2025-12-27,24.173142,120.722289,3.4914077e-08
C1U920,思源,2025-12-27,24.393125,121.347214,1.6996916e-08
C2H9Y0,松茗,2025-12-27,23.8167,120.650765,1.0554686e-09
C0A931,三和,2025-12-27,25.233153,121.595236,0.000528686
C0I010,廬山,2025-12-27,24.033311,121.181808,4.474733e-09
C2M940,日野賀,2025-12-27,23.434056,120.727169,2.6362657e-09
C0R860,鼻頭,2025-12-27,22.1043,120.8979,0.60920024
C0UB20,壯圍,2025-12-27,24.7359,121.8163,4.588106e-09
C0R790,九棚,2025-12-27,22.14195,120.889281,0.50722235
C0W110,東莒,2025-12-27,25.9652,119.98069,0.0076627634
C1U930,粉鳥林,2025-12-27,24.497088,121.842479,1.09147695e-08
C1I211,蘆竹湳,2025-12-27,23.934019,120.811994,7.4470563e-10
C0S830,長濱,2025-12-27,23.286817,121.411975,9.779496e-09
C1F9F1,伯公龍,2025-12-27,24.272392,120.849047,1.926307e-09
C0UB90,太平山莊,2025-12-27,24.494171,121.536209,1.9751509e-08
C0E810,西湖,2025-12-27,24.562947,120.7485,4.0704394e-06
C1I440,新高口,2025-12-27,23.478744,120.878939,1.0496592e-08
C0O840,王爺宮,2025-12-27,23.222064,120.40085,6.3075327e-09
C0T9G0,鳳林山,2025-12-27,23.735269,121.420131,7.3359545e-09
C0X080,佳里,2025-12-27,23.173039,120.145086,3.9560714e-06
C0FB70,大甲溪埔,2025-12-27,24.370625,120.620067,2.6717223e-06
C0Z310,清水斷崖,2025-12-27,24.218294,121.689142,1.1819837e-08
C0M680,太保,2025-12-27,23.455062,120.331455,2.371306e-06
C1S820,金峰,2025-12-27,22.590969,120.933236,9.891548e-07
C0AD10,八里,2025-12-27,25.150211,121.403947,0.7447836
C2K240,草嶺,2025-12-27,23.59555,120.693461,2.2407565e-09
C1SA70,都蘭,2025-12-27,22.87794,121.226881,7.057516e-09
C0K440,二崙,2025-12-27,23.772797,120.408944,7.202649e-08
C1A760,坪林交控,2025-12-27,24.94284,121.713442,2.464324e-07
C0F9N0,大里,2025-12-27,24.092464,120.701378,9.554704e-09
C0SA90,達仁林場,2025-12-27,22.264347,120.823972,5.430812e-07
C1R290,石門山,2025-12-27,22.112611,120.756597,0.7041564
42HA10,萬大發電廠,2025-12-27,23.978875,121.139639,1.9341708e-09
C0R890,山海,2025-12-27,21.9878,120.7091,0.098666415
C0T9A0,月眉山,2025-12-27,23.809928,121.539828,6.1503234e-09
C0AC70,信義,2025-12-27,25.037822,121.564597,0.00070733455
C0K560,棋山,2025-12-27,23.68645,120.603417,1.7803952e-08
C2FB50,出雲,2025-12-27,24.206469,120.902794,2.0913533e-09
C1Z240,中平林道,2025-12-27,23.42115,121.26763,2.8885992e-08
U2H480,溪頭,2025-12-27,23.670306,120.798194,2.138777e-09
C0M880,好美里,2025-12-27,23.3364,120.138,3.916113e-06
C0T9E0,大坑,2025-12-27,23.880628,121.581981,5.1996003e-09
C0K530,臺西,2025-12-27,23.701547,120.197559,0.00015586267
C1E900,國一N128K,2025-12-27,24.560997,120.844186,1.2904916e-07
C0AJ50,水湳洞,2025-12-27,25.123695,121.862238,4.0652187e-05
C0AI20,白沙灣,2025-12-27,25.283128,121.519058,0.93063194
C2V310,美濃,2025-12-27,22.898792,120.51907,1.3060373e-09
C0A860,大坪,2025-12-27,25.165914,121.632969,2.5712404e-07
C1U850,觀音海岸,2025-12-27,24.38319,121.77856,6.1591985e-09
C2K610,草嶺石壁,2025-12-27,23.602469,120.707731,2.2970994e-09
C0U950,鶯子嶺,2025-12-27,24.89754,121.79244,3.232216e-08
C0O900,善化,2025-12-27,23.112883,120.297219,8.44681e-05
C0K550,蔦松,2025-12-27,23.514319,120.229736,0.00012845622
E2P980,林試六龜中心,2025-12-27,22.991703,120.645722,5.8615734e-10
C0E590,通霄,2025-12-27,24.471892,120.704622,2.253121e-06
C1I310,西巒,2025-12-27,23.754486,120.883956,2.7653924e-09
C0A550,泰平,2025-12-27,24.971197,121.823711,8.2133134e-08
C0I360,水里,2025-12-27,23.812553,120.849792,1.6002085e-09
C0R830,高士,2025-12-27,22.121825,120.836781,0.6740759
C1I101,溪頭,2025-12-27,23.661789,120.807647,5.0544404e-09
C0AJ20,野柳,2025-12-27,25.20703,121.690021,0.14145376
C0B060,暖暖,2025-12-27,25.0957,121.7403,4.8968877e-06
C1H920,長豐,2025-12-27,24.102039,120.879897,1.1175497e-09
C2S9B0,利吉,2025-12-27,22.86246,121.15486,5.3226206e-09
C0V360,內門,2025-12-27,22.975481,120.466769,1.2146979e-09
C0R850,林邊,2025-12-27,22.4634,120.5339,0.00012657061
C0E930,龍鳳,2025-12-27,24.700034,120.859125,0.023485523
C0U910,冬山,2025-12-27,24.63373,121.7937,6.910182e-09
C1E721,泰安,2025-12-27,24.489017,120.968036,3.2590066e-09
82H320,茶改中部分場,2025-12-27,23.875611,120.913583,1.3392423e-09
C0M750,布袋,2025-12-27,23.380878,120.167789,0.00040042633
C1S860,利嘉,2025-12-27,22.809417,121.050528,1.5849183e-08
E2S980,林試太麻里1,2025-12-27,22.598922,120.980044,9.699233e-06
C0X170,關廟,2025-12-27,22.963017,120.327797,3.015907e-08
C0V720,林園,2025-12-27,22.507747,120.394511,7.589831e-08
C1I510,線浸林道,2025-12-27,23.761508,120.832956,1.9858326e-09
C0D690,外湖,2025-12-27,24.917735,120.968711,0.14665861
C0C750,新興坑尾,2025-12-27,25.0061,121.0971,0.6565267
B2Q810,畜試南區分所,2025-12-27,21.945583,120.802167,0.19784752
C0S790,金崙,2025-12-27,22.538122,120.966875,9.236966e-07
C0AH90,福山植物園,2025-12-27,24.760717,121.58135,2.6180574e-08
C0I540,奇萊稜線,2025-12-27,24.109231,121.326456,3.1753874e-08
C0M850,表湖,2025-12-27,23.24186,120.64166,1.6159306e-09
C0S770,大溪山,2025-12-27,22.478475,120.943325,6.21873e-07
C0AG80,中和,2025-12-27,24.991622,121.491792,0.00070587604
C0T790,大禹嶺,2025-12-27,24.186117,121.316086,1.5454365e-08
C0T9B0,水源,2025-12-27,23.991861,121.537169,1.3296879e-08
C0R840,牡丹池山,2025-12-27,22.168389,120.841225,8.1892296e-07
C1I131,桶頭,2025-12-27,23.641944,120.654117,3.4875054e-09
CAL110,布袋國中,2025-12-27,23.35893,120.18026,0.000100085286
C2M9D0,何竹子腳,2025-12-27,23.53641,120.38203,1.9380496e-07
467571,新竹,2025-12-27,24.827853,121.014219,0.06898215
C0Z290,赤柯山,2025-12-27,23.36893,121.38293,1.2308797e-08
C0X280,將軍,2025-12-27,23.214999,120.13577,1.0199582e-05
C0S690,太麻里,2025-12-27,22.60902,120.98533,3.266987e-08
C0U880,北關,2025-12-27,24.9072,121.8734,2.4871936e-06
CAW010,東引,2025-12-27,26.3588,120.4836,0.6504679
C0G810,埔心,2025-12-27,23.947633,120.525456,1.6427246e-07
C0U970,大福,2025-12-27,24.80064,121.81389,4.9227884e-09
C2H9N0,仁愛東眼,2025-12-27,24.026875,121.1205,2.9284286e-09
C1E670,南礦,2025-12-27,24.538278,121.002836,3.3582155e-09
C0M520,東後寮,2025-12-27,23.369908,120.248065,7.55837e-05
C1E461,松安,2025-12-27,24.397972,120.986022,2.4081155e-09
C2N160,西拉雅風管處,2025-12-27,23.189481,120.335297,8.426512e-06
C2M970,碧湖,2025-12-27,23.568632,120.624165,1.5718399e-09
C0A640,石碇,2025-12-27,24.993969,121.662917,4.289335e-07
E2S960,林試太麻里2,2025-12-27,22.598,120.99775,7.713529e-05
C0F9Y0,桃山,2025-12-27,24.432739,121.303808,2.4384832e-08
C1I020,萬大,2025-12-27,23.979817,121.132261,1.900447e-09
C2UC20,長嶺,2025-12-27,24.70894,121.61162,1.3365915e-08
C0U940,羅東,2025-12-27,24.68184,121.74934,4.5691726e-09
C0M650,朴子,2025-12-27,23.43463,120.23902,0.00041459547
C1I500,大尖山,2025-12-27,23.858572,120.994889,7.131575e-09
C0FB40,中橫21.6k,2025-12-27,24.2499,121.1455,2.4621116e-09
C0G820,田尾,2025-12-27,23.901669,120.509389,1.6427246e-07
E2K600,四湖植物園,2025-12-27,23.676986,120.163433,0.0003801289
C0S730,綠島,2025-12-27,22.6672,121.47533,0.71777034
12Q970,東港工作站,2025-12-27,22.479997,120.466058,0.00019553145
C1TA00,太魯閣,2025-12-27,24.15773,121.6236,9.608965e-09
466920,臺北,2025-12-27,25.037658,121.514853,0.00081546005
C0R600,舊泰武,2025-12-27,22.588194,120.664944,2.7831293e-09
C1I260,北坑,2025-12-27,23.9246,121.006903,1.3158489e-09
466910,鞍部,2025-12-27,25.182586,121.529731,2.92277e-07
C1I230,九份二山,2025-12-27,23.961944,120.845,9.326246e-10
C2M810,里佳,2025-12-27,23.389125,120.716647,3.359183e-09
C2A660,瑞芳,2025-12-27,25.113169,121.801147,4.832813e-06
C0R270,琉球嶼,2025-12-27,22.332244,120.362236,2.6440253e-07
C2V580,瑞山,2025-12-27,22.90304,120.43424,1.2263095e-09
C1T990,高寮,2025-12-27,23.394239,121.356808,1.089634e-08
C0G620,芬園,2025-12-27,24.015678,120.6213,1.1221832e-08
C1Z140,荖溪,2025-12-27,23.890575,121.45964,1.9042906e-08
C1I201,中心崙,2025-12-27,23.728722,120.712097,1.3331435e-09
C1I400,凌霄,2025-12-27,24.018778,121.004456,2.800494e-09
C1M640,十字,2025-12-27,23.492153,120.753683,3.374563e-09
G2P820,農試鳳山分所,2025-12-27,22.646611,120.356083,3.2987142e-08
C0Z270,蕃薯寮,2025-12-27,23.73835,121.540108,6.4988614e-09
C2E420,竹南,2025-12-27,24.70898,120.88897,0.013218978
C0FB10,出雲山苗圃,2025-12-27,24.23105,120.90475,1.8622569e-09
C0F9Q0,外埔,2025-12-27,24.347817,120.705686,1.4858178e-08
C0K580,高鐵雲林,2025-12-27,23.737456,120.417944,6.379964e-08
C2I090,鳳凰,2025-12-27,23.728081,120.787347,1.4723378e-09
C0U990,員山,2025-12-27,24.74435,121.72247,4.560953e-09
C0V770,大社,2025-12-27,22.730306,120.346639,1.5312403e-06
C0X120,麻豆,2025-12-27,23.183289,120.248611,0.0002088592
C0C670,龍潭,2025-12-27,24.870056,121.221389,4.390762e-06
C0D680,香山濕地,2025-12-27,24.783581,120.914988,0.049759414
C0S980,勝林山,2025-12-27,22.430439,120.8938,1.881122e-07
C0V730,大寮,2025-12-27,22.605614,120.395717,3.113067e-08
C0R570,麟洛,2025-12-27,22.65078,120.52719,1.5325053e-09
C2M930,石卓,2025-12-27,23.478744,120.702264,3.9870747e-09
C0G9B0,和美,2025-12-27,24.105169,120.492131,6.72409e-08
CAG100,王功漁港,2025-12-27,23.96824,120.32586,0.08876661
C0X290,北門,2025-12-27,23.267772,120.125481,1.0202432e-05
C2F930,大甲,2025-12-27,24.347667,120.640403,8.2709924e-08
C0D650,湖口,2025-12-27,24.904794,121.043628,0.108651474
C0U780,五結,2025-12-27,24.68637,121.79794,4.587327e-09
C1I250,鯉潭,2025-12-27,23.961922,120.991131,1.2525946e-09
C0R130,阿禮,2025-12-27,22.742908,120.743678,2.1805777e-09
C0X100,臺南市北區,2025-12-27,23.010394,120.194228,1.3366231e-06
C0S920,金峰嘉蘭,2025-12-27,22.594789,120.960825,8.589915e-06
C0V490,新興,2025-12-27,22.627422,120.298803,2.4502964e-09
C0F9K0,大安,2025-12-27,24.345061,120.588025,3.0658875e-06
467290,古坑,2025-12-27,23.633639,120.551889,2.571242e-08
C2E970,八甲,2025-12-27,24.535811,120.795983,2.1056394e-08
C0V440,鳳山,2025-12-27,22.646653,120.356122,3.2987142e-08
C1T940,大觀,2025-12-27,23.714206,121.373133,6.9295045e-09
C0E740,造橋,2025-12-27,24.637056,120.864778,6.745516e-07
C0R100,尾寮山,2025-12-27,22.833111,120.683889,1.980012e-09
A2K630,臺大雲林校區,2025-12-27,23.730628,120.423903,6.082616e-08
467990,馬祖,2025-12-27,26.169467,119.923158,1.1035639e-06
C0D580,寶山,2025-12-27,24.735006,121.025192,0.023821292
E2P990,林試扇平站,2025-12-27,22.9677,120.6857,3.0984515e-09
C0AI30,三重,2025-12-27,25.057328,121.500629,0.0013944316
C0AH00,汐止,2025-12-27,25.066881,121.658778,1.425366e-05
C1Z040,立山,2025-12-27,23.443356,121.327375,1.3943491e-08
466881,新北,2025-12-27,24.959207,121.525196,0.00040421882
C0W130,花嶼,2025-12-27,23.40007,119.32276,0.44215834
C0A950,鼻頭角,2025-12-27,25.129036,121.923372,0.00043878448
C0K470,林內,2025-12-27,23.748675,120.609642,1.3445614e-08
C2F990,摩天嶺,2025-12-27,24.322458,120.936819,1.4014193e-09
C2E430,南庄,2025-12-27,24.601775,121.000214,1.5262602e-05
82C160,茶改場,2025-12-27,24.908472,121.185333,0.21401864
C2TB60,南安,2025-12-27,23.29818,121.26157,1.1176888e-08
C0Z320,清水林道,2025-12-27,23.27125,121.188272,1.028821e-08
C0R760,南仁湖,2025-12-27,22.084681,120.863353,0.7045061
C0M670,大林,2025-12-27,23.600616,120.45841,1.294558e-07
C0M800,茶山,2025-12-27,23.299075,120.664767,1.6772345e-09
C0A9C0,天母,2025-12-27,25.117494,121.537169,0.0045069596
72K220,南改斗南分場,2025-12-27,23.634556,120.477333,4.5579725e-08
72AI40,桃改樹林分場,2025-12-27,24.944503,121.386972,0.045951176
C0S910,蘭嶼燈塔,2025-12-27,22.081197,121.503117,0.9179563
C0B050,八斗子,2025-12-27,25.144754,121.79167,8.1221755e-05
C0U900,內城,2025-12-27,24.71813,121.68766,4.5143214e-09
C0X320,柳營,2025-12-27,23.253328,120.375253,3.2018676e-08
C0M790,新港,2025-12-27,23.553269,120.345728,2.5146566e-05
C0F9T0,西屯,2025-12-27,24.179494,120.641275,4.1477072e-08
C0E950,松安,2025-12-27,24.39792,120.98599,2.4081155e-09
C0SA30,都歷,2025-12-27,23.020333,121.323642,4.930447e-09
C0C620,蘆竹,2025-12-27,25.084275,121.265767,0.61833376
C0R730,大坪頂,2025-12-27,22.024633,120.69355,0.82054085
C0AJ40,石門,2025-12-27,25.273672,121.601198,0.90852493
C0E750,苗栗,2025-12-27,24.564569,120.824575,1.5125812e-07
C0T870,鯉魚潭,2025-12-27,23.935639,121.508944,7.5583495e-09
C1V170,排雲,2025-12-27,23.463619,120.954147,2.9092675e-08
C2H950,中寮,2025-12-27,23.884447,120.766406,1.569611e-09
C0R350,貓鼻頭,2025-12-27,21.921774,120.7358,0.19869429
C0V660,岡山,2025-12-27,22.797078,120.294958,2.6198265e-07
C1H941,雙冬,2025-12-27,23.967378,120.802189,7.6933354e-10
C0AJ70,田寮,2025-12-27,25.2698,121.4886,0.93093425
C0AI00,五股,2025-12-27,25.07445,121.42728,6.0580136e-05
C0Z280,德武,2025-12-27,23.47426,121.41071,6.932056e-09
C2RA10,大新,2025-12-27,22.67558,120.57788,1.0491362e-09
C0R700,枋山,2025-12-27,22.246844,120.661086,0.8033623
C0C460,復興,2025-12-27,24.820208,121.352281,1.2613862e-07
C2K300,鹿南,2025-12-27,23.63855,120.3636,3.3524275e-06
E2H360,蓮華池,2025-12-27,23.918333,120.885278,1.3480146e-09
C0M640,中埔,2025-12-27,23.42538,120.5229,4.745473e-09
C0W140,金沙,2025-12-27,24.488292,118.408778,1.0633781e-08
C2A540,四堵,2025-12-27,24.8926,121.745736,1.0079778e-07
C0ACA0,新莊,2025-12-27,25.051478,121.446756,0.0013049148
C0R220,潮州,2025-12-27,22.534361,120.54,3.2977766e-08
U2HA40,臺大內茅埔,2025-12-27,23.689722,120.851117,1.2558193e-09
467490,臺中,2025-12-27,24.145736,120.684075,1.520095e-07
C0UB60,明池,2025-12-27,24.650688,121.475277,2.4504798e-08
C0U960,翠峰湖,2025-12-27,24.510856,121.608044,1.8213546e-08
E2HA20,林試畢祿溪站,2025-12-27,24.226944,121.308522,9.416409e-09
C2M9A0,大華,2025-12-27,23.4824,120.67491,2.0223827e-09
C0V890,前鎮,2025-12-27,22.5718,120.3117,2.7637577e-09
C1F941,雪嶺,2025-12-27,24.280586,121.026642,1.4684038e-08
C2H9E0,國姓南港,2025-12-27,23.911108,120.846556,1.9389281e-09
C0AC80,文山,2025-12-27,25.00235,121.575728,0.00019681914
C0F9R0,龍井,2025-12-27,24.184536,120.528972,7.688005e-06
C0M760,民雄,2025-12-27,23.551754,120.428457,1.4875836e-07
C0UA40,西德山,2025-12-27,24.560647,121.752608,1.539796e-08
C2TA70,赤科坪,2025-12-27,23.39885,121.39168,1.2117458e-08
C1T920,中興,2025-12-27,23.769503,121.498653,7.859545e-09
C0D550,雪霸,2025-12-27,24.526972,121.11605,7.513489e-09
C2F860,梨山,2025-12-27,24.247522,121.243669,9.71517e-09
C0R320,車城,2025-12-27,22.0744,120.716247,0.11251206
C1S870,南美山,2025-12-27,23.15025,121.382333,1.8750999e-08
C0B020,基隆嶼,2025-12-27,25.19141,121.78391,0.0007710677
C1U501,牛鬥,2025-12-27,24.637836,121.573656,1.1650179e-08
C0M730,嘉義市東區,2025-12-27,23.457673,120.460531,3.4053095e-08
C2R990,泰武,2025-12-27,22.60686,120.69765,5.6946976e-09
C0S700,知本,2025-12-27,22.684866,121.005642,1.613917e-08
C1N001,沙崙,2025-12-27,22.935472,120.309406,2.7418277e-08
C0V760,橋頭,2025-12-27,22.757806,120.30575,1.9319891e-06
C0G960,福寶,2025-12-27,24.0443,120.3814,8.455852e-08
C0X210,白河,2025-12-27,23.347466,120.414427,8.166198e-09
C0S810,東河,2025-12-27,22.972672,121.303986,1.0744322e-08
C2R170,屏東,2025-12-27,22.66027,120.49403,1.5323621e-09
C0R670,楓港,2025-12-27,22.190131,120.692156,0.9024091
C0FA50,霧峰,2025-12-27,24.0419,120.6995,1.0885351e-08
C0UB10,蘇澳,2025-12-27,24.5969,121.8571,1.3058784e-08
C0G950,防潮門,2025-12-27,24.1835,120.4871,7.857561e-06
C0M740,六腳,2025-12-27,23.492871,120.290625,0.00014364191
C1R250,力里,2025-12-27,22.428117,120.629228,4.2918675e-08
C0K330,虎尾,2025-12-27,23.719183,120.442036,5.3869673e-08
C2FA00,烏石坑,2025-12-27,24.273503,120.947617,1.3850869e-09
C0V620,永安,2025-12-27,22.82315,120.236856,2.6189647e-07
C1I330,楓樹林,2025-12-27,23.986803,121.076117,2.2265907e-09
C0W200,湖西,2025-12-27,23.596314,119.67275,0.5557946
72Q010,高雄農改場,2025-12-27,22.709333,120.525889,1.2535912e-09
C0SA40,瑞和,2025-12-27,22.974361,121.156697,4.008387e-09
C0C680,龜山,2025-12-27,25.02846,121.38656,1.7057984e-05
C2V260,月眉,2025-12-27,22.971003,120.539853,7.964512e-10
C0V450,鳳森,2025-12-27,22.545064,120.392592,1.9706878e-08
C0FA90,小雪山林道,2025-12-27,24.29515,121.03651,1.9005894e-08
C0U720,南山,2025-12-27,24.43742,121.38167,1.404034e-08
A2N290,臺南蘭花園區,2025-12-27,23.340258,120.379661,4.5548784e-08
C0R560,新園,2025-12-27,22.5434,120.461558,7.589831e-08
C0U890,三星,2025-12-27,24.66812,121.65302,8.748678e-09
C1V300,御油山,2025-12-27,23.001983,120.715364,6.799145e-09
C0U600,礁溪,2025-12-27,24.817539,121.765608,3.388923e-08
C1T980,龍澗,2025-12-27,24.023289,121.411328,2.8967152e-08
C0D670,海天一線,2025-12-27,24.831986,120.914438,0.6895474
C0SA00,歷坵,2025-12-27,22.520969,120.89185,7.619377e-08
C0M710,東石,2025-12-27,23.458927,120.15385,0.00017980172
C0M780,鹿草,2025-12-27,23.41134,120.30835,0.000188719
C0U520,雙連埤,2025-12-27,24.753033,121.641303,1.20151356e-08
C0B010,七堵,2025-12-27,25.094819,121.71713,1.4663737e-05
C0R480,長治,2025-12-27,22.693128,120.542622,3.495837e-09
C1V830,國三S383K,2025-12-27,22.781967,120.426475,1.6027958e-09
12Q980,恆春工作站,2025-12-27,22.079678,120.714425,0.11254863
C1O940,東山服務區,2025-12-27,23.286016,120.398472,2.3401425e-08
C1U840,東澳嶺,2025-12-27,24.5378,121.8485,1.4827772e-08
C1D630,飛鳳山,2025-12-27,24.766464,121.119178,1.9987101e-07
C0S940,石寧山,2025-12-27,23.223772,121.406639,1.3308322e-08
C0K410,北港,2025-12-27,23.573957,120.292802,1.9114768e-05
C2M620,瑞里,2025-12-27,23.545133,120.675197,2.6748355e-09
C0SB70,小港漁港,2025-12-27,23.158558,121.400431,2.8074695e-08
C2O950,安南,2025-12-27,23.076694,120.144861,1.1915721e-06
C0F0E0,南湖圈谷,2025-12-27,24.363714,121.444667,4.2918675e-08
467610,成功,2025-12-27,23.097486,121.373428,4.2167784e-08
C0G890,伸港,2025-12-27,24.148933,120.484403,2.9791576e-05
C2E540,龍溪,2025-12-27,24.606489,120.783933,7.713515e-07
C1V200,梅山,2025-12-27,23.268447,120.823556,1.9333408e-09
C0T9H0,加路蘭山,2025-12-27,23.682947,121.5274,8.349464e-09
C2O930,玉井,2025-12-27,23.126042,120.46055,3.2728105e-09
C1F911,新伯公,2025-12-27,24.221361,120.841069,2.2754398e-09
C0R490,九如,2025-12-27,22.7405,120.490503,1.2822476e-09
C0X200,左鎮,2025-12-27,23.056758,120.408522,4.8757762e-09
C2TB50,麻汝,2025-12-27,23.42554,121.39358,6.6003225e-09
C0FA60,鞍馬山工作站,2025-12-27,24.267064,121.000793,9.62663e-09
C0SB50,叭嗡嗡,2025-12-27,23.047062,121.343223,5.844997e-09
C1F891,稍來,2025-12-27,24.265689,121.001142,9.20263e-09
C2M9C0,紫雲,2025-12-27,23.494914,120.540253,1.805496e-08
72N240,七股研究中心,2025-12-27,23.081672,120.062894,1.5303746e-06
C0C700,中壢,2025-12-27,24.977661,121.256375,0.07452889
C0M690,水上,2025-12-27,23.419734,120.388909,1.0795084e-07
C0V690,鼓山,2025-12-27,22.623325,120.275575,2.450376e-09
C0O860,大內,2025-12-27,23.11885,120.36083,4.16375e-05
C0Z200,萬榮,2025-12-27,23.709219,121.420106,7.3103097e-09
C0T9D0,和中,2025-12-27,24.26676,121.74103,9.67925e-09
C2S9A0,北份子寮,2025-12-27,22.78561,121.07813,1.6374326e-08
C1O921,楠西,2025-12-27,23.183511,120.484083,2.9064098e-09
C0AJ30,淡水觀海,2025-12-27,25.184591,121.408616,0.6728454
C0V810,左營,2025-12-27,22.67491,120.28491,4.72282e-08
C0UA70,桃源谷,2025-12-27,24.962606,121.888875,5.9586796e-08
C0X130,官田,2025-12-27,23.193217,120.315422,1.3251455e-05
C1H000,翠峰,2025-12-27,24.109397,121.205211,1.8225188e-08
C0UA90,石城,2025-12-27,24.980444,121.951214,2.9021487e-06
C1E681,南勢山,2025-12-27,24.421669,120.923831,1.5825432e-09
C0A9F0,內湖,2025-12-27,25.079422,121.57545,0.00081546005
C0K291,宜梧,2025-12-27,23.536281,120.169329,0.00016592327
C1K540,口湖,2025-12-27,23.585344,120.180517,0.00013600962
C0R780,滿州,2025-12-27,22.024403,120.839892,0.9353515
C0V870,文安,2025-12-27,22.8025,120.2164,3.3069892e-07
C0U650,玉蘭,2025-12-27,24.675286,121.587061,1.3155734e-08
C0R640,東港,2025-12-27,22.46247,120.44074,0.00019553145
C0AJ80,板橋,2025-12-27,25.0107,121.4489,0.0009476434
C0S660,下馬,2025-12-27,23.150427,121.070312,6.9808834e-09
C2N190,烏樹,2025-12-27,23.32393,120.36989,0.00031068097
C1H9B1,阿眉,2025-12-27,24.1263,120.994672,5.0302718e-09
C0UA20,多加屯,2025-12-27,24.368614,121.373189,1.5621719e-08
C0E730,頭份,2025-12-27,24.688247,120.912206,0.014306651
72V140,高改旗南分場,2025-12-27,22.857861,120.516667,1.1870892e-09
C0K480,莿桐,2025-12-27,23.761192,120.502372,2.3329896e-08
C0U980,坪林石牌,2025-12-27,24.86478,121.77396,1.4098518e-08
C0T900,西林,2025-12-27,23.8119,121.441458,6.3533667e-09
C1I150,青雲,2025-12-27,23.793361,120.949378,7.8483203e-10
C2E980,和興,2025-12-27,24.505319,120.923016,2.0906872e-09
467350,澎湖,2025-12-27,23.565503,119.563094,0.4178545
C0G800,埔鹽,2025-12-27,24.000394,120.431683,1.2318631e-07
C0H960,草屯,2025-12-27,23.973672,120.68085,7.833489e-09
C1V780,多納林道,2025-12-27,22.888028,120.737917,2.2394617e-09
C0E920,通霄漁港,2025-12-27,24.498589,120.673876,6.9294874e-06
C0Z330,安通山,2025-12-27,23.290728,121.348528,8.110116e-09
C0AH10,永和,2025-12-27,25.01125,121.508111,0.0013014829
C0AK10,太平里,2025-12-27,25.134937,121.364899,0.74175483
C2G640,鹿港,2025-12-27,24.0753,120.430481,8.455852e-08
C1E890,國三N149K,2025-12-27,24.463414,120.680019,6.4776344e-07
C1R110,口社,2025-12-27,22.770111,120.645222,1.1512951e-09
C1M870,國三N285K,2025-12-27,23.550319,120.505833,2.7703035e-08
C1E480,鳳美,2025-12-27,24.554803,121.034747,2.428767e-09
C0T9M0,靜浦,2025-12-27,23.455167,121.495028,8.855892e-09
C2H9M0,發祥,2025-12-27,24.154094,121.164517,2.8007077e-09
C2G9C0,埔南,2025-12-27,23.99124,120.46969,1.18699965e-07
C0AI40,石牌,2025-12-27,25.115597,121.513139,0.007052139
C1F871,上谷關,2025-12-27,24.203483,121.018644,1.9203565e-09
C2H9G0,百勝,2025-12-27,24.051142,120.909361,1.3591911e-09
C0G880,二水,2025-12-27,23.810742,120.6173,5.1460165e-09
C0R940,加祿堂,2025-12-27,22.3363,120.6217,2.2214074e-06
C0W220,北竿,2025-12-27,26.220358,119.974881,1.3411863e-05
C0O960,崎頂,2025-12-27,22.959547,120.369317,7.2691955e-09
C0TA40,秀林,2025-12-27,24.302864,121.731144,1.5921387e-08
C0S750,向陽,2025-12-27,23.248397,120.986133,1.3166503e-08
C0T9F0,水璉,2025-12-27,23.797131,121.542514,6.0029945e-09
C1M600,頭凍,2025-12-27,23.406364,120.603339,1.5837541e-09
467660,臺東,2025-12-27,22.752211,121.154586,0.0001477094
C1D380,新埔,2025-12-27,24.84745,121.03834,0.053172443
C2G980,田頭村,2025-12-27,23.8263,120.444175,7.220778e-08
C0V750,路竹,2025-12-27,22.854997,120.259439,1.8383575e-07
C0N050,蚵寮,2025-12-27,23.301,120.1104,3.89218e-06
C2X060,下營,2025-12-27,23.226806,120.256291,6.316977e-05
72M700,南改鹿草分場,2025-12-27,23.416869,120.283061,0.00041175913
C1SA50,利嘉林道,2025-12-27,22.82325,121.009389,2.9645888e-08
C0UB70,太平山中間站,2025-12-27,24.542003,121.513453,8.983932e-09
C0A940,金山,2025-12-27,25.223628,121.643967,0.10188784
C1V340,大津,2025-12-27,22.888322,120.645986,8.4337287e-10
C0W180,七美,2025-12-27,23.219333,119.444892,0.6537245
C1F9C1,白冷,2025-12-27,24.182844,120.929889,1.3949389e-09
K2E710,苗改生物防治研究中心,2025-12-27,24.422861,120.871833,5.870236e-09
C0N040,蘆竹溝,2025-12-27,23.2344,120.0961,1.02133845e-05
C0TB40,崇德,2025-12-27,24.166144,121.657414,1.1261499e-08
C0D760,大坪苗圃,2025-12-27,24.5362,121.1108,3.971947e-09
C2W230,畜試所澎湖,2025-12-27,23.628342,119.513206,0.46449703
C0R880,後壁湖,2025-12-27,21.9457,120.7457,0.09663638
C1I280,埔中,2025-12-27,23.820778,120.642594,1.0517208e-09
467790,墾丁雷達站,2025-12-27,21.948235,120.808028,0.2858957
C0W190,望安,2025-12-27,23.380564,119.494075,0.7182579
C0Z170,卓溪,2025-12-27,23.3443,121.3029,8.505962e-09
C0F850,東勢,2025-12-27,24.246428,120.833047,2.7551943e-09
466900,淡水,2025-12-27,25.164889,121.448906,0.74189544
C0I370,魚池,2025-12-27,23.895703,120.94135,1.4078868e-09
C0C630,大溪,2025-12-27,24.882853,121.265547,0.3528819
C0A520,山佳,2025-12-27,24.974944,121.402008,0.00067842996
C0I110,竹山,2025-12-27,23.761225,120.688156,6.05332e-09
82H840,茶改南部分場,2025-12-27,23.762528,120.7405,1.1030078e-09
C2SD80,再來山,2025-12-27,23.34371,121.44122,9.885492e-09
C0G660,溪湖,2025-12-27,23.94835,120.479122,2.1227375e-07
C1T800,洛韶,2025-12-27,24.204558,121.453956,2.1943054e-08
C1T810,慈恩,2025-12-27,24.192044,121.388386,1.5526188e-08
C1E451,象鼻,2025-12-27,24.368617,120.940228,1.8550215e-09
C0AC60,三峽,2025-12-27,24.939025,121.369728,0.36841792
C0I490,萬大林道,2025-12-27,23.928228,121.091411,3.5708425e-09
C1I290,豐丘,2025-12-27,23.668178,120.887417,3.5590997e-09
C1I320,奧萬大,2025-12-27,23.952956,121.178556,2.9644234e-09
C2M910,嘉義大學,2025-12-27,23.471325,120.485903,1.4101073e-08
C0U770,南澳,2025-12-27,24.44935,121.81022,1.1253147e-08
C2TB30,吉安,2025-12-27,23.94538,121.54803,9.168343e-09
C0A980,社子,2025-12-27,25.109508,121.469681,0.24723776
C0V800,六龜,2025-12-27,22.997889,120.633583,6.004687e-10
C1G9D0,國一S218K,2025-12-27,23.890641,120.493253,2.860646e-07
C0E570,白沙屯,2025-12-27,24.549447,120.696803,1.4268458e-05
C2F9A0,中竹林,2025-12-27,24.103556,120.751061,1.0282556e-09
C0FA40,臺中電廠,2025-12-27,24.2146,120.4907,7.688005e-06
C2G9A0,畜試所彰化,2025-12-27,23.86045,120.557964,3.3186435e-08
C0H9C0,合歡山,2025-12-27,24.143442,121.272547,2.3114238e-08
G2M350,農試溪口農場,2025-12-27,23.58565,120.408111,1.8847385e-07
C0U860,頭城,2025-12-27,24.85323,121.8308,3.6675367e-08
C0R580,南州,2025-12-27,22.48591,120.50274,0.00019553145
C0D430,峨眉,2025-12-27,24.6905,121.017189,0.0021025934
C0G780,秀水,2025-12-27,24.03405,120.503869,2.1984826e-07
72N100,臺南農改場,2025-12-27,23.0605,120.342194,2.3669367e-05
C0S900,蘭嶼高中,2025-12-27,22.04909,121.51214,0.977753
C2TA60,六十石,2025-12-27,23.22477,121.31861,1.01309094e-08
C1F9W0,德基,2025-12-27,24.254783,121.190261,7.174661e-09
C2M980,安和,2025-12-27,23.51377,120.31593,7.8272235e-05
C1Z120,壽豐,2025-12-27,23.870853,121.508081,7.240883e-09
C0W160,烏坵,2025-12-27,24.9944,119.44956,0.98022115
C1I240,外大坪,2025-12-27,23.958697,120.917931,1.2536391e-09
C1I550,國六W023K,2025-12-27,23.979067,120.867742,8.669802e-10
C0R870,興海,2025-12-27,21.9752,120.8439,0.19591954
C0R140,瑪家,2025-12-27,22.682903,120.686639,1.6100699e-09
C0A530,坪林,2025-12-27,24.938183,121.70975,1.4461354e-07
C0X260,後壁,2025-12-27,23.366358,120.362326,3.4746605e-05
C0Z230,和平,2025-12-27,24.30717,121.77007,7.4431408e-09
C0G770,福興,2025-12-27,24.041289,120.437669,1.2954597e-07
C0H9A0,神木村,2025-12-27,23.532742,120.843667,3.5049368e-09
C0I460,南投,2025-12-27,23.911469,120.687331,3.742525e-09
C0I480,梅峰,2025-12-27,24.085272,121.173572,8.254442e-09
C1V570,吉東,2025-12-27,22.85422,120.5454,1.0815272e-09
C2A560,福山,2025-12-27,24.776203,121.502811,3.2860104e-08
C0AH30,五分山,2025-12-27,25.07125,121.780794,3.5925893e-08
C0FA10,松柏,2025-12-27,24.429115,120.617482,3.4651537e-06
72S200,東改班鳩分場,2025-12-27,22.829528,121.077694,7.660423e-09
72HA00,中改埔里分場,2025-12-27,23.903208,120.963364,1.3278801e-09
C2H9W0,大坪頂農水,2025-12-27,24.043122,120.932781,1.1283942e-09
C0C650,平鎮,2025-12-27,24.897503,121.214636,0.076412074
C0S930,延平,2025-12-27,22.902581,121.084058,4.2705692e-09
C0UA60,樟樹山,2025-12-27,24.41393,121.78325,2.0104226e-08
C2UC10,出水溪,2025-12-27,24.615822,121.652253,6.832946e-09
C1S670,摩天,2025-12-27,23.199503,121.027,1.4998067e-08
C2C590,觀音,2025-12-27,25.027072,121.153317,0.799075
C0V630,茄萣,2025-12-27,22.906642,120.182608,1.0615243e-07
466940,基隆,2025-12-27,25.133314,121.740475,7.204127e-05
C0X050,東河,2025-12-27,23.296598,120.385608,3.073174e-08
C0R770,保力,2025-12-27,22.071122,120.764111,0.7838339
G2L020,農試嘉義分所,2025-12-27,23.485028,120.473806,3.440112e-08
C0X240,關子嶺,2025-12-27,23.331169,120.508025,1.378222e-09
C0I380,集集,2025-12-27,23.828206,120.801467,1.6751851e-09
466990,花蓮,2025-12-27,23.975128,121.613275,5.499212e-08
C1V220,小關山,2025-12-27,23.154217,120.813603,6.514238e-09
C1F9G1,慶福山,2025-12-27,24.180853,120.848378,1.3286301e-09
C0FB20,雪山橋,2025-12-27,24.23192,120.9786,8.4654825e-09
C0Z250,瑞穗林道,2025-12-27,23.49284,121.30688,2.688078e-08
C0D590,新豐,2025-12-27,24.87068,120.97721,0.17760782
C0A870,五指山,2025-12-27,25.132153,121.608692,5.547234e-07
C0UA50,西帽山,2025-12-27,24.555361,121.802628,1.2473263e-08
C2R980,竹田國中,2025-12-27,22.61532,120.52412,5.2010485e-09
C0X160,仁德,2025-12-27,22.968258,120.257689,7.3359786e-07
C1H971,六分寮,2025-12-27,23.92507,120.6378,9.105218e-10
C0W120,西嶼,2025-12-27,23.5626,119.468436,0.40391994
C0G650,員林,2025-12-27,23.946503,120.585597,2.1499359e-07
C0AD50,鶯歌,2025-12-27,24.951533,121.346294,0.34876955
C2H9Q0,北東眼山,2025-12-27,24.120939,121.189303,8.891265e-09
C2H9T0,名間竹圍,2025-12-27,23.859914,120.637572,9.720948e-10
C0S990,山豬窟,2025-12-27,22.318619,120.857372,6.375858e-07
C0X190,安平,2025-12-27,22.993161,120.152181,1.337003e-06
C0K400,斗六,2025-12-27,23.720583,120.541127,2.566548e-08
12J990,口湖工作站,2025-12-27,23.589978,120.180394,0.00013490398
C0O830,北寮,2025-12-27,23.079561,120.495008,1.0981063e-09
C1D410,白蘭,2025-12-27,24.579364,121.079947,3.5969412e-09
C0S970,加津林,2025-12-27,22.416211,120.926942,0.10541521
C0D700,關西,2025-12-27,24.7977,121.1732,0.00047372017
C0U750,龜山島,2025-12-27,24.841667,121.953133,3.283592e-08
C0R810,內獅,2025-12-27,22.305064,120.642986,3.0305218e-06
C1M390,龍美,2025-12-27,23.406728,120.654417,2.475343e-09
C2K290,崙內,2025-12-27,23.69525,120.35601,3.7802204e-06
C2FB60,頭櫃山,2025-12-27,24.129842,120.858925,1.7895082e-09
C1H840,國三N238K,2025-12-27,23.841008,120.707711,1.009963e-09
CAQ030,崎峰國小,2025-12-27,22.42565,120.49521,0.00019553145
C2E520,大湖,2025-12-27,24.414939,120.870872,4.7064064e-09
467530,阿里山,2025-12-27,23.508208,120.813242,1.0864008e-08
C1E691,南湖,2025-12-27,24.40135,120.837533,1.7244723e-09
C0FA30,梧棲,2025-12-27,24.256003,120.523381,3.6716563e-06
C1V231,高中,2025-12-27,23.134911,120.716711,1.7132763e-09
C0AK30,硬漢嶺,2025-12-27,25.136097,121.426372,1.4209943e-06
C0F9V0,新社,2025-12-27,24.200172,120.815806,1.5778053e-09
C0H890,埔里,2025-12-27,23.972169,120.952425,1.4361232e-09
C0R690,墾丁,2025-12-27,21.966756,120.810269,0.9271086
C0SD20,富山,2025-12-27,22.822383,121.190825,1.2535536e-08
C0F0D0,審馬陣,2025-12-27,24.381675,121.4203,2.4842505e-08
C2W030,金門農試所,2025-12-27,24.448431,118.451786,1.715406e-08
C0R820,白鷺,2025-12-27,22.454275,120.666219,3.3148333e-09
C0FB00,大雪山,2025-12-27,24.254668,121.007374,1.06827125e-08
C1V190,南天池,2025-12-27,23.27403,120.91176,1.3998064e-08
C0E940,雪見,2025-12-27,24.42595,121.01347,7.100886e-09
K2E360,苗栗農改場,2025-12-27,24.495722,120.829111,4.234332e-08
CAJ050,海口故事園區,2025-12-27,23.57543,120.14121,0.00013585045
C2K280,四湖,2025-12-27,23.6304,120.22717,0.00042266215
C2H9D0,三隻寮,2025-12-27,24.093078,120.861578,7.485892e-10
C0O990,媽廟,2025-12-27,22.99175,120.293525,4.517842e-07
C0D480,打鐵坑,2025-12-27,24.849664,121.150789,3.2682233e-06
C0Z220,和平林道,2025-12-27,24.343922,121.656317,5.718251e-09
C0TA10,花蓮漁港,2025-12-27,23.995322,121.638331,1.4717438e-05
72C440,桃園農改場,2025-12-27,24.950944,121.030583,0.14187774
C1E711,馬拉邦山,2025-12-27,24.367306,120.901656,1.8914896e-09
C0SB20,富岡,2025-12-27,22.792467,121.192669,1.397678e-07
C0D560,竹東,2025-12-27,24.767147,121.057881,0.007380141
C0F9U0,南屯,2025-12-27,24.137006,120.637969,1.3147626e-07
C2SD60,明峰,2025-12-27,22.8671,121.11825,3.9242503e-09
C0M720,番路,2025-12-27,23.464657,120.554156,2.4220268e-09
C0F0A0,雪山圈谷,2025-12-27,24.388594,121.236339,3.177035e-08
C1A9N0,四十份,2025-12-27,24.934158,121.593283,2.4513898e-07
C0U760,東澳,2025-12-27,24.52196,121.83318,1.0533193e-08
C0X230,鹽水,2025-12-27,23.272621,120.247641,3.2403723e-06
C2H9H0,苗改南投蜂場,2025-12-27,23.852589,120.693481,3.3454677e-09
C2TB70,達谷寮,2025-12-27,23.38,121.35968,9.821555e-09
C0R950,萬隆國小,2025-12-27,22.507667,120.587817,1.6911029e-08
467540,大武,2025-12-27,22.35572,120.90374,0.08463988
C0V370,古亭坑,2025-12-27,22.893178,120.401947,1.4530102e-09
C1I340,新興橋,2025-12-27,23.563333,120.868728,1.7685451e-09
C0SA80,土坂,2025-12-27,22.453108,120.887572,8.1987084e-05
C0R160,鹽埔,2025-12-27,22.739558,120.530778,1.2536486e-09
C0AC40,大屯山,2025-12-27,25.175675,121.522408,1.2218396e-07
466850,五分山雷達站,2025-12-27,25.071182,121.781205,3.531849e-08
C2H9L0,馬烈霸,2025-12-27,24.1512,121.201772,7.836328e-09
C1AI50,國三N016K,2025-12-27,25.034164,121.619664,0.00028746077
C2V920,匏子寮,2025-12-27,23.04905,120.55319,6.483296e-10
C1V600,藤枝,2025-12-27,23.071961,120.757042,5.562759e-09
C1E601,南勢,2025-12-27,24.572486,120.734842,3.655187e-07
C0O980,新市,2025-12-27,23.061614,120.298197,8.353204e-05
C0K420,西螺,2025-12-27,23.800407,120.467394,5.9593727e-08
C0Z050,佳心,2025-12-27,23.34567,121.21316,1.18409345e-08
C0AD30,蘆洲,2025-12-27,25.086594,121.472331,0.0011944768
C0V610,梓官,2025-12-27,22.760558,120.267211,1.933307e-06
K2F750,種苗改良場,2025-12-27,24.225972,120.800917,1.8132773e-09
C0UA80,大溪漁港,2025-12-27,24.941801,121.902955,2.0762568e-06
C1AI60,國一39K邊坡,2025-12-27,25.064361,121.383836,3.3802953e-05
C0W150,金寧,2025-12-27,24.457703,118.328989,1.8345231e-08
C0R960,內埔,2025-12-27,22.608483,120.570714,4.5045674e-09
V2C250,八德合作社,2025-12-27,24.93775,121.266389,0.23234752
C2H9S0,龍南,2025-12-27,23.953536,120.833183,1.9254032e-09
C0AH40,平等,2025-12-27,25.129142,121.577086,8.764314e-06
C0R540,佳冬,2025-12-27,22.419456,120.552375,6.932879e-08
466950,彭佳嶼,2025-12-27,25.627975,122.079744,0.9951751
C0A890,雙溪,2025-12-27,25.036003,121.864242,2.9033004e-06
C0C480,桃園,2025-12-27,24.992425,121.323172,0.13579477
C0AH50,林口,2025-12-27,25.072181,121.38084,1.2817949e-05
A2K360,水試臺西試驗場,2025-12-27,23.717231,120.190522,0.00023210078
C2M960,外寮,2025-12-27,23.562643,120.665688,2.0906472e-09
C0F9S0,烏日,2025-12-27,24.107058,120.624103,3.425132e-08
C2N180,鹿陶洋,2025-12-27,23.14325,120.48352,2.9064098e-09
C0C490,八德,2025-12-27,24.928708,121.283289,0.20878854
C0R190,赤山,2025-12-27,22.592333,120.614306,4.2952726e-09
C0T820,天祥,2025-12-27,24.179597,121.495639,3.0152574e-08
C1F9E1,龍安,2025-12-27,24.1605,120.831961,1.540415e-09
C2SD50,順那,2025-12-27,23.04166,121.29332,4.2197774e-09
C0V820,小林,2025-12-27,23.148408,120.63325,1.0413491e-09
C2G870,芳苑,2025-12-27,23.922303,120.320025,0.16624072
C0E850,大河,2025-12-27,24.618069,120.948578,0.0037597066
C1U670,寒溪,2025-12-27,24.634,121.71691,6.7337895e-09
C0N020,城西,2025-12-27,23.0568,120.0956,1.3358699e-06
C1Z110,三棧,2025-12-27,24.11557,121.60501,2.468856e-08
C0R280,檳榔,2025-12-27,22.076078,120.836777,0.75889975
C2H9J0,中台,2025-12-27,23.9996,120.938739,1.2420293e-09
C0F9L0,后里,2025-12-27,24.310436,120.729725,5.053303e-09
467441,高雄,2025-12-27,22.730432,120.312516,1.5275108e-06
C0Z180,新城,2025-12-27,24.040486,121.604878,5.318341e-08
C0D540,橫山,2025-12-27,24.71116,121.11693,0.001197453
C1D420,太閣南,2025-12-27,24.632808,121.160575,8.414645e-09
C1E770,公館,2025-12-27,24.526914,120.830806,5.9412255e-08
CAN130,水試所海水繁養殖中心,2025-12-27,23.120802,120.07968,1.4497369e-06
C1I430,翠華,2025-12-27,24.191961,121.224339,1.089925e-08
C1M400,菜瓜坪,2025-12-27,23.251928,120.576103,1.5253869e-09
C0G730,二林,2025-12-27,23.903325,120.376081,1.7612841e-07
72M360,南改義竹分場,2025-12-27,23.360694,120.279361,7.526142e-05
V2K620,麥寮合作社,2025-12-27,23.753836,120.294783,4.7687536e-06
C0Z070,舞鶴,2025-12-27,23.46811,121.37407,6.5944588e-09
C0B040,大武崙,2025-12-27,25.166676,121.706993,2.4040331e-05
C1Z030,紅葉,2025-12-27,23.493119,121.338806,6.751666e-09
C1I050,丹大,2025-12-27,23.753747,121.141147,1.6659234e-08
C0I080,信義,2025-12-27,23.689694,120.851036,1.2558193e-09
C2TB80,庄子底,2025-12-27,23.71794,121.49438,7.73613e-09
C0D750,樂山林道6k,2025-12-27,24.49999,121.08773,1.1767245e-08
C2M920,朴子農改,2025-12-27,23.469889,120.259383,0.00041887793
C2A880,福隆,2025-12-27,25.017842,121.942083,3.2222124e-06
C0Z160,鳳林,2025-12-27,23.746114,121.453411,7.577519e-09
C0UB80,翠峰林道6K,2025-12-27,24.49773,121.568625,2.0588248e-08
C0V210,復興,2025-12-27,23.222403,120.806089,1.8384945e-09
C0H990,昆陽,2025-12-27,24.121322,121.273642,2.7388172e-08
C0R741,獅子,2025-12-27,22.202308,120.705236,0.9688652
C0S710,鹿野,2025-12-27,22.917711,121.122994,3.5296113e-09
C0I530,小奇萊,2025-12-27,24.131764,121.295717,2.7328268e-08
C0FA70,大雪山埡口,2025-12-27,24.26867,121.03062,1.4478873e-08
C2K630,荷苞,2025-12-27,23.657717,120.595144,7.828202e-09
C0Z080,富源,2025-12-27,23.587642,121.378225,1.1213958e-08
C2M9E0,旺來山,2025-12-27,23.555153,120.486463,2.1623716e-08
C0SB10,美和,2025-12-27,22.682078,121.060236,1.1365572e-06
C2K620,馬光農場,2025-12-27,23.721453,120.378864,7.210071e-08
C1I140,卡奈托灣,2025-12-27,23.754364,121.087872,4.32991e-09
C0I520,玉山風口,2025-12-27,23.470489,120.955994,3.050579e-08
C1G691,下水埔,2025-12-27,23.816114,120.5676,1.6791175e-08
C0X110,臺南市南區,2025-12-27,22.961189,120.188378,7.2583015e-07
C0V680,仁武,2025-12-27,22.701083,120.347722,4.7245045e-08
C2G840,北斗,2025-12-27,23.877586,120.514222,2.5711253e-07
C2TB90,長橋,2025-12-27,23.6874,121.46186,4.135319e-09
C0R900,竹坑,2025-12-27,22.1385,120.7022,0.8561188
C0G860,社頭,2025-12-27,23.897647,120.5862,1.5190994e-07
C0X150,安定,2025-12-27,23.102614,120.227839,0.0011282428
C0R590,里港,2025-12-27,22.77919,120.49459,2.2206657e-09
C0E610,馬都安,2025-12-27,24.451272,120.930192,1.3393802e-09
C0E550,明德,2025-12-27,24.583486,120.885411,1.0709544e-07
C0R150,三地門,2025-12-27,22.709889,120.639944,1.1726731e-09
C0G910,花壇,2025-12-27,24.032076,120.549461,1.307059e-07
C1D400,鳥嘴山,2025-12-27,24.71909,121.28387,1.33617855e-08
C0K500,元長,2025-12-27,23.64981,120.315024,1.0103227e-05
C0F0B0,石岡,2025-12-27,24.276061,120.777644,3.385058e-09
C2V250,甲仙,2025-12-27,23.080106,120.591758,6.983917e-10
C0SA20,金崙山,2025-12-27,22.567419,120.959667,1.453471e-08
C0V350,溪埔,2025-12-27,22.738578,120.446797,2.4745264e-09
C0M660,溪口,2025-12-27,23.604131,120.403569,1.8738453e-07
C1S880,壽卡,2025-12-27,22.238911,120.858903,6.133592e-07
72D680,桃改新埔分場,2025-12-27,24.834444,121.066111,0.057456084
