站號,站名,日期,lat,lon,BLBTSLS
C0R710,龍磐,2025-03-26,21.931672,120.838942,0.99986696
C1F9D1,白毛台,2025-03-26,24.158325,120.886933,2.0862219e-09
C0G940,竹塘,2025-03-26,23.848253,120.386764,5.757939e-07
467590,恆春,2025-03-26,22.003897,120.746339,0.46461314
C1O850,環湖,2025-03-26,23.148617,120.418633,5.8504596e-10
C0U710,太平山,2025-03-26,24.505486,121.525656,2.7173998e-08
C0E820,獅潭,2025-03-26,24.539133,120.920042,1.0056174e-08
C0V880,興達,2025-03-26,22.8778,120.2127,9.131027e-10
C0S890,關山,2025-03-26,23.0395,121.175017,2.7286013e-09
C0SB30,新蘭,2025-03-26,22.869214,121.223228,3.404327e-09
C2R970,屏科大,2025-03-26,22.648275,120.619247,1.6219984e-09
K2F750,種苗繁殖,2025-03-26,24.225972,120.800917,5.9730367e-09
C1Z130,銅門,2025-03-26,23.965694,121.492842,3.9214223e-09
C0AD40,土城,2025-03-26,24.973208,121.445169,4.529155e-06
CAN140,六官養殖協會,2025-03-26,23.22881,120.29962,5.701466e-10
C0X180,山上,2025-03-26,23.0757,120.363253,5.881878e-10
C0F9Z0,雪山東峰,2025-03-26,24.388792,121.268675,3.9929976e-08
C1M480,獨立山,2025-03-26,23.537022,120.607797,2.8022251e-09
C0X220,學甲,2025-03-26,23.230367,120.182187,5.8180607e-08
467650,日月潭,2025-03-26,23.881325,120.90805,5.3404774e-09
C0K600,箔子寮,2025-03-26,23.6197,120.14,0.00011345789
C0G830,埤頭,2025-03-26,23.866003,120.452806,1.4777065e-08
C0S950,七塊厝,2025-03-26,22.954453,121.229922,3.6984436e-09
467110,金門,2025-03-26,24.407306,118.289281,1.3794562e-08
C0AH80,深坑,2025-03-26,25.002703,121.628328,3.651877e-06
467990,馬祖,2025-03-26,26.169269,119.923419,8.619222e-09
C0A970,三貂角,2025-03-26,25.007606,122.002058,6.1148495e-07
C2D730,寶山農場,2025-03-26,24.732444,120.976153,7.7490455e-07
C0K430,褒忠,2025-03-26,23.690938,120.303634,6.275744e-09
467480,嘉義,2025-03-26,23.495925,120.432906,7.341578e-10
C2E540,後龍,2025-03-26,24.606489,120.783933,0.7259817
C0V400,阿公店,2025-03-26,22.804194,120.355528,8.651334e-10
467550,玉山,2025-03-26,23.48718,120.95943,4.7226848e-08
C0R440,大漢山,2025-03-26,22.405264,120.753181,1.8736518e-08
C0K280,四湖,2025-03-26,23.630414,120.227125,4.432532e-06
C1F9B1,桐林,2025-03-26,24.066172,120.735194,1.0994727e-09
C2H9U0,鳳鵬,2025-03-26,23.763919,120.788061,1.2251079e-09
C0K390,土庫,2025-03-26,23.679029,120.395574,1.5558294e-08
C1I450,望鄉山,2025-03-26,23.594153,120.944286,2.9158228e-08
C0E910,海埔,2025-03-26,24.648767,120.772435,0.11398182
B2E890,畜試北區分所,2025-03-26,24.527806,120.770972,2.4528084e-08
C0R750,四林格山,2025-03-26,22.076989,120.802439,1.0778878e-06
C0F0C0,中坑,2025-03-26,24.248517,120.903319,4.802611e-09
C1I121,大鞍,2025-03-26,23.678381,120.760017,1.07790115e-08
72U480,花改蘭陽分場,2025-03-26,24.686306,121.716583,6.2490835e-09
C0A770,科教館,2025-03-26,25.096356,121.516507,4.463858e-08
C0AJ60,六塊厝,2025-03-26,25.24,121.4481,0.71685517
C0R620,墾雷,2025-03-26,21.900836,120.855269,0.91811776
467420,永康,2025-03-26,23.038386,120.2367,7.2396644e-10
467300,東吉島,2025-03-26,23.25695,119.667467,0.9999944
C0I410,名間,2025-03-26,23.837053,120.701447,1.1391286e-09
A2C560,農工中心,2025-03-26,24.985917,121.239833,1.101251e-06
C0V740,旗山,2025-03-26,22.888614,120.483597,1.1043614e-09
C0Z061,玉里,2025-03-26,23.3215,121.339656,5.049006e-09
C0S840,南田,2025-03-26,22.279725,120.889208,1.27183055e-08
C1I470,杉林溪,2025-03-26,23.639517,120.786444,1.2746526e-08
C1X040,東原,2025-03-26,23.291597,120.463822,1.0841874e-09
C0R660,枋寮,2025-03-26,22.367722,120.590647,1.01435575e-07
C1R120,上德文,2025-03-26,22.763272,120.704442,3.616023e-09
C0K450,大埤,2025-03-26,23.646074,120.431537,2.962801e-09
C0UA00,土場,2025-03-26,24.576533,121.495333,5.518585e-09
467080,宜蘭,2025-03-26,24.763975,121.756528,8.341203e-09
C0N030,四草,2025-03-26,23.0235,120.1116,7.0621986e-10
467410,臺南,2025-03-26,22.99328,120.20492,7.9135426e-10
C0V650,彌陀,2025-03-26,22.783806,120.246361,1.3136797e-09
C0D660,新竹市東區,2025-03-26,24.798681,120.986942,0.007909806
82S580,茶改東部分場,2025-03-26,22.907694,121.130139,3.713266e-09
C0SB40,興隆,2025-03-26,22.913661,121.257469,3.4394996e-09
467050,新屋,2025-03-26,25.006725,121.047492,0.12083776
C0C710,大溪永福,2025-03-26,24.892936,121.324975,1.327916e-06
C0FA20,溫寮,2025-03-26,24.372177,120.583125,1.0844475e-06
C0V640,湖內,2025-03-26,22.887139,120.2445,9.0563235e-10
C0R910,下寮,2025-03-26,22.3929,120.5548,1.0151261e-07
C0Z020,明里,2025-03-26,23.208717,121.262342,5.479902e-09
C0M770,嘉義梅山,2025-03-26,23.585398,120.555587,1.7303964e-09
G2F820,農業試驗所,2025-03-26,24.031261,120.688133,0.2850422
C0C660,楊梅,2025-03-26,24.912375,121.143047,6.4089877e-06
C1E511,新開,2025-03-26,24.347703,120.827019,5.2889617e-09
G2F820,農試所(霧峰),2025-03-26,24.031261,120.688133,1.2756443e-09
C1I070,和社,2025-03-26,23.591131,120.888861,1.04390105e-08
C2F000,大肚,2025-03-26,24.15295,120.572117,1.0837347e-09
C1S850,豐南,2025-03-26,23.122139,121.262389,4.512221e-09
C2A920,富貴角,2025-03-26,25.263783,121.565258,0.13360673
CAH030,茶改場竹圍站,2025-03-26,23.860083,120.637528,1.1652684e-09
C0T960,光復,2025-03-26,23.660694,121.424964,3.5318672e-09
C0F9M0,豐原,2025-03-26,24.254322,120.720692,9.03459e-09
C0R720,旭海,2025-03-26,22.205403,120.887614,8.474352e-09
C0V710,苓雅,2025-03-26,22.622742,120.330669,9.438323e-10
C0C740,觀音工業區,2025-03-26,25.064764,121.114856,0.15691343
CAC040,拉拉山,2025-03-26,24.699317,121.427133,2.3618007e-08
C0V790,萬山,2025-03-26,22.905944,120.688056,1.2927852e-09
U2HA30,臺大和社,2025-03-26,23.590856,120.888864,1.04390105e-08
C0AJ90,澳底,2025-03-26,25.0552,121.9253,0.06891077
C0Z100,東華,2025-03-26,23.89525,121.549833,3.6608814e-09
C0G970,三豐,2025-03-26,23.882,120.2895,5.9655645e-06
V2K610,大庄合作社,2025-03-26,23.8068,120.367939,2.7575195e-08
C0V900,汕尾,2025-03-26,22.4782,120.4151,1.4039295e-08
C1R630,龍泉,2025-03-26,22.66701,120.59091,1.6011183e-09
C1AC50,關渡,2025-03-26,25.133486,121.469331,6.273521e-08
C0F9I0,神岡,2025-03-26,24.272481,120.658314,1.3618516e-08
C0K460,斗南,2025-03-26,23.678734,120.478359,2.927669e-09
467410,臺南,2025-03-26,22.993239,120.204772,0.00032766204
C2O810,曾文,2025-03-26,23.219681,120.497328,8.907895e-10
467280,後龍,2025-03-26,24.648563,120.831834,0.047830075
C1F9J1,清水林,2025-03-26,24.071242,120.820419,2.9793936e-09
C2A650,火燒寮,2025-03-26,25.002719,121.742892,1.7143256e-07
466930,竹子湖,2025-03-26,25.162078,121.544547,2.7051541e-08
C1I220,樟湖,2025-03-26,23.905333,120.846983,5.6267853e-09
C0I390,仁愛,2025-03-26,24.022122,121.132206,6.8112813e-09
C0Z300,東里,2025-03-26,23.26853,121.30547,5.220389e-09
C1V590,新發,2025-03-26,23.057019,120.646064,5.147803e-09
C0K510,水林,2025-03-26,23.572924,120.24597,1.0514606e-08
72S590,東改賓朗果園,2025-03-26,22.813889,121.071278,1.03351585e-08
82A750,茶改北部分場,2025-03-26,24.955778,121.631222,1.360211e-08
C1A750,石碇服務區,2025-03-26,25.00872,121.646242,5.5665416e-05
C0X300,鹿寮,2025-03-26,23.386047,120.477331,1.2018293e-09
G2AI50,關渡,2025-03-26,25.11575,121.492,0.005697792
C0K590,雲林東勢,2025-03-26,23.674192,120.255721,5.7355316e-09
C0A570,桶後,2025-03-26,24.848222,121.597992,3.9994594e-09
C1S800,華源,2025-03-26,22.657883,121.02325,4.8581663e-09
C0G720,溪州,2025-03-26,23.851589,120.499093,1.42852095e-08
C1V160,達卡努瓦,2025-03-26,23.279811,120.705319,4.9021285e-09
C2M410,馬頭山,2025-03-26,23.324361,120.582017,1.0326168e-09
C0V850,蚵仔寮,2025-03-26,22.7256,120.2527,1.1054341e-09
C0S740,池上,2025-03-26,23.119628,121.209469,5.4127542e-09
C1V390,尖山,2025-03-26,22.813153,120.367789,8.730487e-10
C0AH70,松山,2025-03-26,25.04871,121.55042,4.3518366e-08
C0N010,鯤鯓國小,2025-03-26,23.1879,120.0889,4.588572e-08
C0R550,新埤,2025-03-26,22.467947,120.582894,1.2284662e-08
C0SA60,知本（水試所）,2025-03-26,22.702394,121.082761,4.694169e-09
C0T9I0,豐濱,2025-03-26,23.583897,121.514806,5.205266e-09
C0UB00,淡江大學蘭陽校園,2025-03-26,24.823239,121.730383,5.7933858e-09
C0W240,九宮,2025-03-26,24.423753,118.240186,1.3945566e-08
C0T9N0,富里,2025-03-26,23.171639,121.249378,5.7435123e-09
U2HA50,臺大竹山,2025-03-26,23.756972,120.681556,1.3302833e-09
C0V840,鳳鼻頭,2025-03-26,22.5083,120.3591,7.581114e-10
C0X140,西港,2025-03-26,23.125608,120.203108,8.2291746e-10
72D080,桃改五峰分場,2025-03-26,24.612194,121.157167,1.2273912e-08
C2H9P0,伊拿谷,2025-03-26,23.963211,121.088264,4.1863877e-09
C2H9F0,柑林,2025-03-26,24.018658,120.847072,1.315874e-09
C0TA20,加灣,2025-03-26,24.082025,121.608944,1.5976354e-08
C0V530,阿蓮,2025-03-26,22.883208,120.327508,5.465807e-10
C1O880,關山,2025-03-26,23.173397,120.594092,8.0884693e-10
C0E791,卓蘭,2025-03-26,24.3126,120.8244,3.6188381e-09
C1I030,武界,2025-03-26,23.913225,121.052483,4.3223274e-09
C0R520,崁頂,2025-03-26,22.514781,120.506914,2.5804134e-09
C0R341,牡丹,2025-03-26,22.130036,120.792639,3.6757215e-09
C0R930,萬丹,2025-03-26,22.5885,120.4851,1.284e-09
C0S760,紅石,2025-03-26,23.069131,121.126219,2.6779201e-08
C2C410,中央大學,2025-03-26,24.967652,121.185165,9.275718e-07
C1M610,石磐龍,2025-03-26,23.496606,120.663506,5.890649e-09
C0UA10,鴛鴦湖,2025-03-26,24.590269,121.412228,2.2873943e-08
V2C260,八德蔬果,2025-03-26,24.978508,121.281819,1.5665184e-07
C0R800,丹路,2025-03-26,22.204481,120.750989,3.6116186e-09
C0G920,永靖,2025-03-26,23.924703,120.547533,3.1772032e-09
C2M950,太和,2025-03-26,23.538372,120.702961,7.640199e-09
C1A630,下盆,2025-03-26,24.771003,121.538622,5.582731e-09
B2N890,畜產試驗所,2025-03-26,23.058972,120.336406,6.716751e-10
C0UA30,白嶺,2025-03-26,24.527819,121.519031,1.9575086e-08
C1V580,溪南(特生中心),2025-03-26,23.084972,120.788475,1.0541151e-08
C1T970,大農,2025-03-26,23.615233,121.413331,5.4161005e-09
E2S960,林試太麻里2,2025-03-26,22.598014,120.989761,1.4387881e-07
C0R650,竹田,2025-03-26,22.58486,120.54344,1.6309173e-09
C1H900,清流,2025-03-26,24.080775,120.962997,3.5325882e-09
C1C510,水尾,2025-03-26,24.940081,121.087161,0.099344626
C0F9X0,大雅(中科園區),2025-03-26,24.21528,120.62445,2.5364715e-09
C0SB60,白守蓮,2025-03-26,23.126769,121.401914,4.9510755e-09
C0O970,虎頭埤,2025-03-26,23.021375,120.347878,6.80363e-10
C0C730,中大臨海站,2025-03-26,24.966126,121.008581,0.18478964
C0X250,新營,2025-03-26,23.310689,120.316681,5.3645277e-10
C0V700,三民,2025-03-26,22.645017,120.311233,3.9693573e-09
C0U870,大礁溪,2025-03-26,24.791042,121.675047,6.5378383e-09
C0E870,高鐵苗栗,2025-03-26,24.60725,120.826094,3.6498826e-05
A2K570,古坑花卉中心,2025-03-26,23.63353,120.55239,1.4424895e-09
C0TA30,鹽寮,2025-03-26,23.845606,121.592664,3.5765342e-09
C0M860,新美,2025-03-26,23.338017,120.683169,1.974532e-09
C1E701,八卦,2025-03-26,24.491756,120.927619,9.907937e-09
C0I420,國姓,2025-03-26,24.037803,120.855072,1.3662818e-09
C2D720,關西工作站,2025-03-26,24.757275,121.184792,1.4028247e-07
C0S960,香蘭,2025-03-26,22.587569,120.993375,9.900059e-09
467620,蘭嶼,2025-03-26,22.0369,121.55843,0.9999911
C0R260,春日,2025-03-26,22.370361,120.628306,6.1775076e-08
72G600,臺中農改場,2025-03-26,24.003028,120.534389,2.7280862e-09
C0Z210,瑞穗,2025-03-26,23.5239,121.39021,5.57289e-09
C0M820,達邦,2025-03-26,23.453994,120.749517,4.563851e-09
C0V860,南寮,2025-03-26,22.7616,120.2339,1.104789e-09
C0G740,大城,2025-03-26,23.852487,120.320935,4.3832606e-06
C0R920,塭仔,2025-03-26,22.4169,120.5197,1.089358e-07
C0R470,高樹,2025-03-26,22.826389,120.600806,1.4018524e-09
C0R680,佳樂水,2025-03-26,21.993578,120.861633,0.9998984
C1O870,大棟山,2025-03-26,23.31157,120.52226,6.0669825e-09
C0D360,梅花,2025-03-26,24.678347,121.208558,2.852464e-08
C0Z190,富世,2025-03-26,24.14743,121.6297,7.621074e-09
C0AI10,屈尺,2025-03-26,24.92184,121.54475,5.1919527e-05
B2U990,畜試東區分所,2025-03-26,24.669039,121.832561,3.0857832e-09
C0SB80,長濱漁港,2025-03-26,23.313644,121.459994,4.616547e-09
C0R240,來義,2025-03-26,22.527306,120.625111,2.4499132e-09
C0V910,大樹,2025-03-26,22.684645,120.432803,9.546538e-10
C1R610,西大武山,2025-03-26,22.617719,120.7322,2.1598078e-08
C0G900,線西,2025-03-26,24.143358,120.443536,9.2160185e-08
C0M700,竹崎,2025-03-26,23.526178,120.555508,1.510491e-09
C2E880,三義,2025-03-26,24.405478,120.749819,6.365023e-09
C0C720,竹圍,2025-03-26,25.112692,121.239824,0.005735522
C0F9P0,清水,2025-03-26,24.312297,120.562242,6.771697e-07
C0Z150,吉安光華,2025-03-26,23.930925,121.595153,3.339857e-09
467300,東吉島,2025-03-26,23.25727,119.66762,0.9999932
C1D640,外坪(五指山),2025-03-26,24.644447,121.090961,8.633026e-09
C0F9O0,潭子,2025-03-26,24.213106,120.703933,3.6613632e-09
C2H9R0,卓社,2025-03-26,23.887894,121.000086,6.6324777e-09
72T250,花蓮農改場,2025-03-26,23.975222,121.563889,4.260237e-09
C0E780,銅鑼,2025-03-26,24.489681,120.790853,2.1830173e-08
C1T950,太安,2025-03-26,23.666719,121.370128,1.0946564e-08
C0E830,苑裡,2025-03-26,24.439714,120.653053,1.4037563e-06
467270,田中,2025-03-26,23.873803,120.581286,2.9505185e-09
C0SA10,檳榔四格山,2025-03-26,22.810031,121.109308,9.498701e-09
C1T830,布洛灣,2025-03-26,24.17184,121.57127,1.06262785e-08
C0F970,大坑,2025-03-26,24.173142,120.722289,1.8794206e-09
C1U920,思源,2025-03-26,24.393125,121.347214,1.3536165e-08
C0A931,三和,2025-03-26,25.233153,121.595236,1.2473792e-07
C0I010,廬山,2025-03-26,24.033311,121.181808,1.1597567e-08
C2M940,日野賀,2025-03-26,23.434056,120.727169,5.7168332e-09
C0R860,鼻頭,2025-03-26,22.1043,120.8979,2.0735836e-06
C0UB20,壯圍,2025-03-26,24.7359,121.8163,6.1615366e-09
C0R790,九棚,2025-03-26,22.14195,120.889281,1.2728304e-08
C0W110,東莒,2025-03-26,25.9652,119.98069,3.6352844e-08
C1U930,粉鳥林,2025-03-26,24.497088,121.842479,2.5371394e-09
C1I211,蘆竹湳,2025-03-26,23.934019,120.811994,2.1955269e-09
C0S830,長濱,2025-03-26,23.286817,121.411975,5.589923e-09
C1F9F1,伯公龍,2025-03-26,24.272392,120.849047,2.4714557e-09
C0E810,西湖,2025-03-26,24.562947,120.7485,0.99717355
C1I440,新高口,2025-03-26,23.478744,120.878939,2.2311575e-08
C0O840,王爺宮,2025-03-26,23.222064,120.40085,7.1827766e-10
C0T9G0,鳳林山,2025-03-26,23.735269,121.420131,1.0561921e-08
C0X080,佳里,2025-03-26,23.173039,120.145086,4.5873467e-08
C0FB70,大甲溪埔,2025-03-26,24.370625,120.620067,6.388128e-07
C0Z310,清水斷崖,2025-03-26,24.218294,121.689142,6.12353e-09
C0M680,太保,2025-03-26,23.455062,120.331455,6.7113726e-10
C1S820,金峰,2025-03-26,22.590969,120.933236,9.799812e-09
C0AD10,八里,2025-03-26,25.150211,121.403947,0.0058347033
C2K240,草嶺,2025-03-26,23.59555,120.693461,5.405677e-09
C1SA70,都蘭,2025-03-26,22.87794,121.226881,3.4400114e-09
C0K440,二崙,2025-03-26,23.772797,120.408944,1.5926519e-08
C1A760,坪林交控,2025-03-26,24.94284,121.713442,4.678315e-08
C0F9N0,大里,2025-03-26,24.092464,120.701378,1.3875752e-09
C0SA90,達仁林場,2025-03-26,22.264347,120.823972,1.3931209e-08
C1R290,石門山,2025-03-26,22.112611,120.756597,1.7336884e-05
42HA10,萬大發電廠,2025-03-26,23.978875,121.139639,5.355278e-09
C0R890,山海,2025-03-26,21.9878,120.7091,0.99950397
C0T9A0,月眉山,2025-03-26,23.809928,121.539828,6.409478e-09
C0AC70,信義,2025-03-26,25.037822,121.564597,4.3710614e-08
C0K560,棋山,2025-03-26,23.68645,120.603417,1.4470086e-09
C2FB50,出雲,2025-03-26,24.206469,120.902794,3.57025e-09
C1Z240,中平林道,2025-03-26,23.42115,121.26763,1.5305753e-08
U2H480,溪頭,2025-03-26,23.670306,120.798194,5.1531472e-09
C0M880,好美里,2025-03-26,23.3364,120.138,2.673944e-08
C0T9E0,大坑,2025-03-26,23.880628,121.581981,5.470211e-09
C0K530,臺西,2025-03-26,23.701547,120.197559,2.4034812e-06
C1E900,國一N128K,2025-03-26,24.560997,120.844186,8.04179e-08
C0AJ50,水湳洞,2025-03-26,25.123695,121.862238,0.091315486
C0AI20,白沙灣,2025-03-26,25.283128,121.519058,0.6579967
C2V310,美濃,2025-03-26,22.898792,120.51907,1.101242e-09
C0A860,大坪,2025-03-26,25.165914,121.632969,2.258138e-08
C1U850,觀音海岸,2025-03-26,24.38319,121.77856,9.0501295e-09
C2K610,草嶺石壁,2025-03-26,23.602469,120.707731,5.5787392e-09
C0U950,鶯子嶺,2025-03-26,24.89754,121.79244,1.6885341e-08
C0O900,善化,2025-03-26,23.112883,120.297219,6.650957e-10
C0K550,蔦松,2025-03-26,23.514319,120.229736,1.3588885e-08
E2P980,林試六龜中心,2025-03-26,22.991703,120.645722,1.0109035e-09
C0E590,通霄,2025-03-26,24.471892,120.704622,1.19685e-05
C1I310,西巒,2025-03-26,23.754486,120.883956,6.156755e-09
C0A550,泰平,2025-03-26,24.971197,121.823711,1.6287856e-08
C0I360,水里,2025-03-26,23.812553,120.849792,1.0618271e-09
C0R830,高士,2025-03-26,22.121825,120.836781,6.1964815e-06
C1I101,溪頭,2025-03-26,23.661789,120.807647,1.1568625e-08
C0AJ20,野柳,2025-03-26,25.20703,121.690021,2.7948587e-07
C0B060,暖暖,2025-03-26,25.0957,121.7403,1.6600876e-06
C1H920,長豐,2025-03-26,24.102039,120.879897,3.3592278e-09
C0V360,內門,2025-03-26,22.975481,120.466769,1.0981754e-09
C0R850,林邊,2025-03-26,22.4634,120.5339,1.3479072e-08
C0E930,龍鳳,2025-03-26,24.700034,120.859125,0.39193052
C0U910,冬山,2025-03-26,24.63373,121.7937,3.0857832e-09
C1E721,泰安,2025-03-26,24.489017,120.968036,8.024993e-09
82H320,茶改中部分場,2025-03-26,23.875611,120.913583,4.5641295e-09
C0M750,布袋,2025-03-26,23.380878,120.167789,6.2489525e-09
C1S860,利嘉,2025-03-26,22.809417,121.050528,9.612081e-09
72C440,桃園農改,2025-03-26,24.950944,121.030583,9.433484e-06
E2S980,林試太麻里1,2025-03-26,22.598922,120.980044,9.841095e-09
C0X170,關廟,2025-03-26,22.963017,120.327797,8.9131974e-10
C0V720,林園,2025-03-26,22.507747,120.394511,1.1768586e-09
C1I510,線浸林道,2025-03-26,23.761508,120.832956,8.063751e-09
C0D690,外湖,2025-03-26,24.917735,120.968711,0.6305043
C0C750,新興坑尾,2025-03-26,25.0061,121.0971,0.041916743
B2Q810,畜試南區分所,2025-03-26,21.945583,120.802167,0.9998916
C0S790,金崙,2025-03-26,22.538122,120.966875,8.347028e-09
C0AH90,福山植物園,2025-03-26,24.760717,121.58135,8.920499e-09
C0I540,奇萊稜線,2025-03-26,24.109231,121.326456,4.2988972e-08
C0M850,表湖,2025-03-26,23.24186,120.64166,2.1881439e-09
C0S770,大溪山,2025-03-26,22.478475,120.943325,9.251397e-09
C0AG80,中和,2025-03-26,24.991622,121.491792,4.5295565e-06
C0T790,大禹嶺,2025-03-26,24.186117,121.316086,2.7860148e-08
C0T9B0,水源,2025-03-26,23.991861,121.537169,7.1437865e-09
C0R840,牡丹池山,2025-03-26,22.168389,120.841225,1.6375076e-08
C1I131,桶頭,2025-03-26,23.641944,120.654117,1.2746495e-09
CAL110,布袋國中,2025-03-26,23.35893,120.18026,8.319832e-09
467571,新竹,2025-03-26,24.827853,121.014219,0.09866685
C0Z290,赤柯山,2025-03-26,23.36893,121.38293,2.4278695e-08
C0X280,將軍,2025-03-26,23.214999,120.13577,6.620676e-08
C0S690,太麻里,2025-03-26,22.60902,120.98533,2.3152182e-08
C0U880,北關,2025-03-26,24.9072,121.8734,3.2164128e-06
C1H860,瑞岩,2025-03-26,24.123772,121.18345,1.7975312e-08
C0G810,埔心,2025-03-26,23.947633,120.525456,3.170677e-09
C0U970,大福,2025-03-26,24.80064,121.81389,8.283335e-09
C2H9N0,仁愛東眼,2025-03-26,24.026875,121.1205,1.0470717e-08
C1E670,南礦,2025-03-26,24.538278,121.002836,7.7583096e-09
C0M520,東後寮,2025-03-26,23.369908,120.248065,7.745874e-09
C1E461,松安,2025-03-26,24.397972,120.986022,8.650102e-09
72G600,臺中農改,2025-03-26,24.003028,120.534389,1.3211189e-06
C2N160,西拉雅風管處,2025-03-26,23.189481,120.335297,5.2783977e-10
C2M970,碧湖,2025-03-26,23.568632,120.624165,4.809541e-09
C0A640,石碇,2025-03-26,24.993969,121.662917,1.2637076e-07
E2S960,林試太麻里2,2025-03-26,22.598,120.99775,9.923256e-09
C0F9Y0,桃山,2025-03-26,24.432739,121.303808,4.1391402e-08
C1I020,萬大,2025-03-26,23.979817,121.132261,6.888732e-09
C0U940,羅東,2025-03-26,24.68184,121.74934,6.1888974e-09
C0M650,朴子,2025-03-26,23.43463,120.23902,2.8987919e-09
C1I500,大尖山,2025-03-26,23.858572,120.994889,1.5260222e-08
C0G820,田尾,2025-03-26,23.901669,120.509389,3.1715965e-09
E2K600,四湖植物園,2025-03-26,23.676986,120.163433,4.3086557e-06
C0S730,綠島,2025-03-26,22.6672,121.47533,0.8987598
12Q970,東港工作站,2025-03-26,22.479997,120.466058,1.4059875e-08
C0E430,南庄,2025-03-26,24.601775,121.000214,1.0049942e-08
C1TA00,太魯閣,2025-03-26,24.15773,121.6236,7.70913e-09
466920,臺北,2025-03-26,25.037658,121.514853,4.3518366e-08
C0R600,舊泰武,2025-03-26,22.588194,120.664944,3.7333354e-09
C1I260,北坑,2025-03-26,23.9246,121.006903,2.2949054e-09
466910,鞍部,2025-03-26,25.182586,121.529731,4.728327e-08
C1I230,九份二山,2025-03-26,23.961944,120.845,3.8329797e-09
C2A660,瑞芳,2025-03-26,25.113169,121.801147,0.027686732
C0R270,琉球嶼,2025-03-26,22.332244,120.362236,7.6500015e-08
C1T990,高寮,2025-03-26,23.394239,121.356808,5.811481e-09
C0G620,芬園,2025-03-26,24.015678,120.6213,1.1605882e-09
C1Z140,荖溪,2025-03-26,23.890575,121.45964,2.4940876e-08
C1I201,中心崙,2025-03-26,23.728722,120.712097,2.1720599e-09
C1I400,凌霄,2025-03-26,24.018778,121.004456,1.0243332e-08
C1M640,十字,2025-03-26,23.492153,120.753683,1.16349e-08
G2P820,農試鳳山分所,2025-03-26,22.646611,120.356083,4.349503e-09
C0Z270,蕃薯寮,2025-03-26,23.73835,121.540108,5.866005e-09
C0F9Q0,外埔,2025-03-26,24.347817,120.705686,2.0511973e-08
C0K580,高鐵雲林,2025-03-26,23.737456,120.417944,1.6242252e-08
C2I090,鳳凰,2025-03-26,23.728081,120.787347,3.513357e-09
C0U990,員山,2025-03-26,24.74435,121.72247,6.204724e-09
C0V770,大社,2025-03-26,22.730306,120.346639,1.1003644e-09
C0X120,麻豆,2025-03-26,23.183289,120.248611,6.3368444e-10
C0C670,龍潭,2025-03-26,24.870056,121.221389,1.3010869e-07
C0D680,香山濕地,2025-03-26,24.783581,120.914988,0.015305658
C0S980,勝林山,2025-03-26,22.430439,120.8938,1.1786428e-08
C0V730,大寮,2025-03-26,22.605614,120.395717,1.7417973e-09
C0R570,麟洛,2025-03-26,22.65078,120.52719,1.1001734e-09
C2M930,石卓,2025-03-26,23.478744,120.702264,1.0646445e-08
C0G9B0,和美,2025-03-26,24.105169,120.492131,2.0811159e-08
CAG100,王功漁港,2025-03-26,23.96824,120.32586,0.00015266685
C0X290,北門,2025-03-26,23.267772,120.125481,6.60845e-08
C2F930,大甲,2025-03-26,24.347667,120.640403,1.9538071e-07
C0D650,湖口,2025-03-26,24.904794,121.043628,0.120080434
C0E420,竹南,2025-03-26,24.708978,120.888897,0.12380068
C0U780,五結,2025-03-26,24.68637,121.79794,6.1659806e-09
C1I250,鯉潭,2025-03-26,23.961922,120.991131,4.021773e-09
C0R130,阿禮,2025-03-26,22.742908,120.743678,4.656431e-09
C0X100,臺南市北區,2025-03-26,23.010394,120.194228,7.935822e-10
C0S920,金峰嘉蘭,2025-03-26,22.594789,120.960825,9.743098e-09
C0V490,新興,2025-03-26,22.627422,120.298803,9.427402e-10
C0F9K0,大安,2025-03-26,24.345061,120.588025,7.1642364e-07
72N100,臺南農改,2025-03-26,23.0605,120.342194,0.0001336928
467290,古坑,2025-03-26,23.633639,120.551889,1.4424895e-09
C2E970,八甲,2025-03-26,24.535811,120.795983,5.284709e-08
C0V440,鳳山,2025-03-26,22.646653,120.356122,4.349503e-09
C1T940,大觀,2025-03-26,23.714206,121.373133,7.097528e-09
72T250,花蓮農改,2025-03-26,23.975222,121.563889,7.0878644e-07
C0E740,造橋,2025-03-26,24.637056,120.864778,0.0669232
C0R100,尾寮山,2025-03-26,22.833111,120.683889,5.2216036e-09
A2K630,臺大雲林校區,2025-03-26,23.730628,120.423903,1.6244234e-08
467990,馬祖,2025-03-26,26.169467,119.923158,1.2462681e-08
C0D580,寶山,2025-03-26,24.735006,121.025192,2.065149e-08
E2P990,林試扇平站,2025-03-26,22.9677,120.6857,4.3502495e-09
C0AI30,三重,2025-03-26,25.057328,121.500629,4.463858e-08
C0AH00,汐止,2025-03-26,25.066881,121.658778,4.3518366e-08
C1Z040,立山,2025-03-26,23.443356,121.327375,1.5543463e-08
466881,新北,2025-03-26,24.959207,121.525196,4.411707e-06
C0W130,花嶼,2025-03-26,23.40007,119.32276,0.99998194
C0A950,鼻頭角,2025-03-26,25.129036,121.923372,0.98025894
C0K470,林內,2025-03-26,23.748675,120.609642,1.3023705e-09
C2F990,摩天嶺,2025-03-26,24.322458,120.936819,3.5714691e-09
82C160,茶改場,2025-03-26,24.908472,121.185333,2.4739625e-06
C0Z320,清水林道,2025-03-26,23.27125,121.188272,1.8454518e-08
C0R760,南仁湖,2025-03-26,22.084681,120.863353,1.7196968e-05
C0M670,大林,2025-03-26,23.600616,120.45841,1.6539705e-09
C0M800,茶山,2025-03-26,23.299075,120.664767,1.662951e-09
C0A9C0,天母,2025-03-26,25.117494,121.537169,7.212038e-08
72K220,南改斗南分場,2025-03-26,23.634556,120.477333,2.9387408e-09
72AI40,桃改樹林分場,2025-03-26,24.944503,121.386972,0.09737278
C0S910,蘭嶼燈塔,2025-03-26,22.081197,121.503117,0.9998718
C0B050,八斗子,2025-03-26,25.144754,121.79167,0.13324095
C0U900,內城,2025-03-26,24.71813,121.68766,6.2772525e-09
C0X320,柳營,2025-03-26,23.253328,120.375253,6.008777e-10
C0M790,新港,2025-03-26,23.553269,120.345728,6.624778e-09
C0F9T0,西屯,2025-03-26,24.179494,120.641275,2.1490572e-09
C0SA30,都歷,2025-03-26,23.020333,121.323642,2.2449445e-09
C0C620,蘆竹,2025-03-26,25.084275,121.265767,0.010419287
C0R730,大坪頂,2025-03-26,22.024633,120.69355,0.79591894
C0AJ40,石門,2025-03-26,25.273672,121.601198,0.20122734
C0E750,苗栗,2025-03-26,24.564569,120.824575,8.6029324e-08
C0T870,鯉魚潭,2025-03-26,23.935639,121.508944,3.778207e-09
C1V170,排雲,2025-03-26,23.463619,120.954147,4.012374e-08
C2H950,中寮,2025-03-26,23.884447,120.766406,8.6212887e-10
C0R350,貓鼻頭,2025-03-26,21.921774,120.7358,0.9998522
C0V660,岡山,2025-03-26,22.797078,120.294958,1.3123148e-09
C1H941,雙冬,2025-03-26,23.967378,120.802189,2.341731e-09
C0AJ70,田寮,2025-03-26,25.2698,121.4886,0.70016843
C0AI00,五股,2025-03-26,25.07445,121.42728,6.603146e-08
C0Z280,德武,2025-03-26,23.47426,121.41071,5.1565197e-09
C0R700,枋山,2025-03-26,22.246844,120.661086,0.3636502
C0C460,復興,2025-03-26,24.820208,121.352281,3.9104446e-08
E2H360,蓮華池,2025-03-26,23.918333,120.885278,2.5804283e-09
C0M640,中埔,2025-03-26,23.42538,120.5229,1.8430235e-09
C0W140,金沙,2025-03-26,24.488292,118.408778,5.9058816e-09
C2A540,四堵,2025-03-26,24.8926,121.745736,4.4119954e-08
C0ACA0,新莊,2025-03-26,25.051478,121.446756,8.904167e-08
C0R220,潮州,2025-03-26,22.534361,120.54,2.6051548e-09
U2HA40,臺大內茅埔,2025-03-26,23.689722,120.851117,2.8533005e-09
467490,臺中,2025-03-26,24.145736,120.684075,7.2729917e-10
C0U960,翠峰湖,2025-03-26,24.510856,121.608044,2.973525e-08
E2HA20,林試畢祿溪站,2025-03-26,24.226944,121.308522,2.3245413e-08
C0V890,前鎮,2025-03-26,22.5718,120.3117,9.43989e-10
467620,蘭嶼,2025-03-26,22.036969,121.558339,0.99999744
C1F941,雪嶺,2025-03-26,24.280586,121.026642,2.910533e-08
C2H9E0,國姓南港,2025-03-26,23.911108,120.846556,5.8484315e-09
C0AC80,文山,2025-03-26,25.00235,121.575728,3.6559645e-06
C0F9R0,龍井,2025-03-26,24.184536,120.528972,4.774232e-07
C0M760,民雄,2025-03-26,23.551754,120.428457,1.6551477e-09
C0UA40,西德山,2025-03-26,24.560647,121.752608,1.2742101e-08
C1T920,中興,2025-03-26,23.769503,121.498653,3.9763894e-09
C0D550,雪霸,2025-03-26,24.526972,121.11605,1.6870919e-08
C2F860,梨山,2025-03-26,24.247522,121.243669,2.3736916e-08
C0R320,車城,2025-03-26,22.0744,120.716247,0.9970502
C1S870,南美山,2025-03-26,23.15025,121.382333,5.750714e-09
C0B020,基隆嶼,2025-03-26,25.19141,121.78391,0.99610424
C1U501,牛鬥,2025-03-26,24.637836,121.573656,5.079675e-09
C0M730,嘉義市東區,2025-03-26,23.457673,120.460531,1.1028164e-09
C0S700,知本,2025-03-26,22.684866,121.005642,1.13064385e-08
C1N001,沙崙,2025-03-26,22.935472,120.309406,8.858471e-10
C0V760,橋頭,2025-03-26,22.757806,120.30575,1.1092739e-09
C0G960,福寶,2025-03-26,24.0443,120.3814,2.1275524e-08
C0X210,白河,2025-03-26,23.347466,120.414427,7.8600504e-10
C0S810,東河,2025-03-26,22.972672,121.303986,3.0601655e-08
C2R170,屏東,2025-03-26,22.66027,120.49403,1.0997895e-09
C0R670,楓港,2025-03-26,22.190131,120.692156,1.2444818e-08
C0FA50,霧峰,2025-03-26,24.0419,120.6995,1.2875561e-09
C0UB10,蘇澳,2025-03-26,24.5969,121.8571,2.1814264e-09
C0G950,防潮門,2025-03-26,24.1835,120.4871,4.783849e-07
C0M740,六腳,2025-03-26,23.492871,120.290625,5.429919e-09
C1R250,力里,2025-03-26,22.428117,120.629228,6.409123e-09
C0K330,虎尾,2025-03-26,23.719183,120.442036,1.5982115e-08
C2FA00,烏石坑,2025-03-26,24.273503,120.947617,3.496637e-09
C0V620,永安,2025-03-26,22.82315,120.236856,1.3136797e-09
C1I330,楓樹林,2025-03-26,23.986803,121.076117,8.023478e-09
C0W200,湖西,2025-03-26,23.596314,119.67275,0.99998415
72Q010,高雄農改場,2025-03-26,22.709333,120.525889,1.1926518e-09
C0SA40,瑞和,2025-03-26,22.974361,121.156697,2.7372387e-09
C0C680,龜山,2025-03-26,25.02846,121.38656,9.388614e-08
C2V260,月眉,2025-03-26,22.971003,120.539853,1.212388e-09
C0V450,鳳森,2025-03-26,22.545064,120.392592,1.1954006e-09
C0U720,南山,2025-03-26,24.43742,121.38167,1.3089007e-08
A2N290,臺南蘭花園區,2025-03-26,23.340258,120.379661,5.451928e-10
C0R560,新園,2025-03-26,22.5434,120.461558,1.1768586e-09
C0U890,三星,2025-03-26,24.66812,121.65302,4.1246766e-09
C1V300,御油山,2025-03-26,23.001983,120.715364,1.0119844e-08
C0U600,礁溪,2025-03-26,24.817539,121.765608,1.4312674e-08
C1T980,龍澗,2025-03-26,24.023289,121.411328,3.344334e-08
C0D670,海天一線,2025-03-26,24.831986,120.914438,0.99110574
C0SA00,歷坵,2025-03-26,22.520969,120.89185,9.248839e-09
C0M710,東石,2025-03-26,23.458927,120.15385,1.297957e-08
C0M780,鹿草,2025-03-26,23.41134,120.30835,2.7981233e-09
C0U520,雙連埤,2025-03-26,24.753033,121.641303,6.555607e-09
C0B010,七堵,2025-03-26,25.094819,121.71713,3.653563e-06
C0R480,長治,2025-03-26,22.693128,120.542622,9.584177e-10
C1V830,國三S383K,2025-03-26,22.781967,120.426475,1.1710882e-09
12Q980,恆春工作站,2025-03-26,22.079678,120.714425,0.9970518
C1O940,東山服務區,2025-03-26,23.286016,120.398472,5.935896e-10
C1U840,東澳嶺,2025-03-26,24.5378,121.8485,7.891646e-09
C1D630,飛鳳山,2025-03-26,24.766464,121.119178,2.0659723e-08
C0S940,石寧山,2025-03-26,23.223772,121.406639,5.066515e-09
C0K410,北港,2025-03-26,23.573957,120.292802,1.0206765e-08
C2M620,瑞里,2025-03-26,23.545133,120.675197,6.8381354e-09
C0SB70,小港漁港,2025-03-26,23.158558,121.400431,5.2786215e-09
C2O950,安南,2025-03-26,23.076694,120.144861,1.578439e-07
C0F0E0,南湖圈谷,2025-03-26,24.363714,121.444667,4.745774e-08
467610,成功,2025-03-26,23.097486,121.373428,4.7366293e-09
C0G890,伸港,2025-03-26,24.148933,120.484403,9.217284e-08
C2E540,龍溪,2025-03-26,24.606489,120.783933,5.1300198e-05
C1V200,梅山,2025-03-26,23.268447,120.823556,3.3833538e-09
C0T9H0,加路蘭山,2025-03-26,23.682947,121.5274,1.6187943e-08
C2O930,玉井,2025-03-26,23.126042,120.46055,5.649894e-10
C1F911,新伯公,2025-03-26,24.221361,120.841069,1.7357349e-09
C0R490,九如,2025-03-26,22.7405,120.490503,1.1854058e-09
C0X200,左鎮,2025-03-26,23.056758,120.408522,1.1468373e-09
C0SB50,叭嗡嗡,2025-03-26,23.047062,121.343223,2.052711e-09
C1F891,稍來,2025-03-26,24.265689,121.001142,1.8584222e-08
72N240,七股研究中心,2025-03-26,23.081672,120.062894,7.239574e-08
C0C700,中壢,2025-03-26,24.977661,121.256375,1.347692e-07
C0M690,水上,2025-03-26,23.419734,120.388909,6.711309e-10
C0V690,鼓山,2025-03-26,22.623325,120.275575,9.462567e-10
C0O860,大內,2025-03-26,23.11885,120.36083,6.715252e-10
C0Z200,萬榮,2025-03-26,23.709219,121.420106,4.8488533e-09
C0T9D0,和中,2025-03-26,24.26676,121.74103,6.837692e-09
C1O921,楠西,2025-03-26,23.183511,120.484083,5.945244e-10
C0AJ30,淡水觀海,2025-03-26,25.184591,121.408616,4.792705e-05
C0V810,左營,2025-03-26,22.67491,120.28491,4.6937574e-09
C0UA70,桃源谷,2025-03-26,24.962606,121.888875,1.0830491e-08
C0X130,官田,2025-03-26,23.193217,120.315422,5.281711e-10
C1H000,翠峰,2025-03-26,24.109397,121.205211,2.1734245e-08
C0UA90,石城,2025-03-26,24.980444,121.951214,1.3499484e-06
C1E681,南勢山,2025-03-26,24.421669,120.923831,1.0625752e-08
C0A9F0,內湖,2025-03-26,25.079422,121.57545,4.3518366e-08
C0K291,宜梧,2025-03-26,23.536281,120.169329,1.3583935e-08
C1K540,口湖,2025-03-26,23.585344,120.180517,0.00011349231
C0R780,滿州,2025-03-26,22.024403,120.839892,0.29412946
C0V870,文安,2025-03-26,22.8025,120.2164,1.3284122e-09
C0U650,玉蘭,2025-03-26,24.675286,121.587061,5.7582543e-09
C0R640,東港,2025-03-26,22.46247,120.44074,1.4052878e-08
K2E360,苗栗農改,2025-03-26,24.495722,120.829111,9.03511e-08
C0AJ80,板橋,2025-03-26,25.0107,121.4489,5.3403505e-06
C0S660,下馬,2025-03-26,23.150427,121.070312,1.6438413e-08
C1H9B1,阿眉,2025-03-26,24.1263,120.994672,1.7489224e-08
C0UA20,多加屯,2025-03-26,24.368614,121.373189,2.3616746e-08
C0E730,頭份,2025-03-26,24.688247,120.912206,0.19325632
72V140,高改旗南分場,2025-03-26,22.857861,120.516667,1.1246426e-09
C0K480,莿桐,2025-03-26,23.761192,120.502372,3.8833576e-09
C0U980,坪林石牌,2025-03-26,24.86478,121.77396,7.583331e-09
C0T900,西林,2025-03-26,23.8119,121.441458,4.50976e-09
C1I150,青雲,2025-03-26,23.793361,120.949378,2.0025799e-09
467350,澎湖,2025-03-26,23.565503,119.563094,0.99998987
C0G800,埔鹽,2025-03-26,24.000394,120.431683,2.2655627e-08
C0H960,草屯,2025-03-26,23.973672,120.68085,1.3234956e-09
C1V780,多納林道,2025-03-26,22.888028,120.737917,4.071347e-09
C0E920,通霄漁港,2025-03-26,24.498589,120.673876,9.4724044e-07
C0Z330,安通山,2025-03-26,23.290728,121.348528,7.1217197e-09
C0AH10,永和,2025-03-26,25.01125,121.508111,5.2882006e-06
C0AK10,太平里,2025-03-26,25.134937,121.364899,0.0048954887
C2G640,鹿港,2025-03-26,24.0753,120.430481,2.1281814e-08
C1E890,國三N149K,2025-03-26,24.463414,120.680019,0.00012470984
C1R110,口社,2025-03-26,22.770111,120.645222,1.9499133e-09
C1M870,國三N285K,2025-03-26,23.550319,120.505833,1.7126196e-09
467050,新屋,2025-03-26,25.006744,121.047486,1.8946115e-05
C1E480,鳳美,2025-03-26,24.554803,121.034747,8.924515e-09
C0M530,奮起湖,2025-03-26,23.493903,120.699253,7.749968e-09
C0C590,觀音,2025-03-26,25.027072,121.153317,0.060229212
C0T9M0,靜浦,2025-03-26,23.455167,121.495028,4.6873785e-09
C2H9M0,發祥,2025-03-26,24.154094,121.164517,9.513007e-09
C0AI40,石牌,2025-03-26,25.115597,121.513139,7.338967e-08
C1F871,上谷關,2025-03-26,24.203483,121.018644,3.254528e-09
C2H9G0,百勝,2025-03-26,24.051142,120.909361,2.026986e-09
C0G880,二水,2025-03-26,23.810742,120.6173,1.1471655e-09
C0R940,加祿堂,2025-03-26,22.3363,120.6217,8.465386e-09
C0W220,北竿,2025-03-26,26.220358,119.974881,9.124051e-09
C0O960,崎頂,2025-03-26,22.959547,120.369317,9.078374e-10
C0S750,向陽,2025-03-26,23.248397,120.986133,1.8642126e-08
C0T9F0,水璉,2025-03-26,23.797131,121.542514,5.007374e-09
C1M600,頭凍,2025-03-26,23.406364,120.603339,5.4707536e-09
467660,臺東,2025-03-26,22.752211,121.154586,6.819643e-08
C1D380,新埔,2025-03-26,24.84745,121.03834,0.18233009
C2G980,田頭村,2025-03-26,23.8263,120.444175,1.5923604e-08
C0V750,路竹,2025-03-26,22.854997,120.259439,2.108713e-09
C0N050,蚵寮,2025-03-26,23.301,120.1104,2.6734954e-08
72M700,南改鹿草分場,2025-03-26,23.416869,120.283061,2.900202e-09
C1SA50,利嘉林道,2025-03-26,22.82325,121.009389,8.254047e-09
467550,玉山,2025-03-26,23.487614,120.959522,5.6334997e-08
C0A940,金山,2025-03-26,25.223628,121.643967,2.5760855e-07
C1V340,大津,2025-03-26,22.888322,120.645986,1.8893118e-09
C0W180,七美,2025-03-26,23.219333,119.444892,0.999991
C1F9C1,白冷,2025-03-26,24.182844,120.929889,2.265419e-09
K2E710,苗改生物防治研究中心,2025-03-26,24.422861,120.871833,1.1904454e-08
C0N040,蘆竹溝,2025-03-26,23.2344,120.0961,6.608085e-08
C2W230,畜試所澎湖,2025-03-26,23.628342,119.513206,0.99999094
C0R880,後壁湖,2025-03-26,21.9457,120.7457,0.9995226
C1I280,埔中,2025-03-26,23.820778,120.642594,1.6667997e-09
467790,墾丁雷達站,2025-03-26,21.948235,120.808028,0.9999112
C0W190,望安,2025-03-26,23.380564,119.494075,0.9999907
466881,新北,2025-03-26,24.9593,121.52,0.8792253
C0Z170,卓溪,2025-03-26,23.3443,121.3029,4.996498e-09
C0F850,東勢,2025-03-26,24.246428,120.833047,2.1443485e-09
466900,淡水,2025-03-26,25.164889,121.448906,0.004897428
C0I370,魚池,2025-03-26,23.895703,120.94135,2.3098448e-09
C0C630,大溪,2025-03-26,24.882853,121.265547,1.8392062e-07
C0A520,山佳,2025-03-26,24.974944,121.402008,1.77304e-05
C0I110,竹山,2025-03-26,23.761225,120.688156,1.2079423e-09
82H840,茶改南部分場,2025-03-26,23.762528,120.7405,1.3012036e-09
C0G660,溪湖,2025-03-26,23.94835,120.479122,3.186367e-09
C1T800,洛韶,2025-03-26,24.204558,121.453956,1.9126883e-08
C1T810,慈恩,2025-03-26,24.192044,121.388386,1.5330091e-08
C1E451,象鼻,2025-03-26,24.368617,120.940228,1.05737525e-08
C0AC60,三峽,2025-03-26,24.939025,121.369728,7.930682e-05
C0I490,萬大林道,2025-03-26,23.928228,121.091411,9.839274e-09
C1I290,豐丘,2025-03-26,23.668178,120.887417,6.7516144e-09
C1I320,奧萬大,2025-03-26,23.952956,121.178556,6.254354e-09
C2M910,嘉義大學,2025-03-26,23.471325,120.485903,1.7730067e-09
C0U770,南澳,2025-03-26,24.44935,121.81022,4.28372e-09
C0A980,社子,2025-03-26,25.109508,121.469681,0.006531633
C0V800,六龜,2025-03-26,22.997889,120.633583,9.954606e-10
C1G9D0,國一S218K,2025-03-26,23.890641,120.493253,4.873619e-09
C0E570,白沙屯,2025-03-26,24.549447,120.696803,0.8561746
C2F9A0,中竹林,2025-03-26,24.103556,120.751061,1.3153421e-09
C0FA40,臺中電廠,2025-03-26,24.2146,120.4907,4.7739456e-07
C2G9A0,畜試所彰化,2025-03-26,23.86045,120.557964,2.9493088e-09
C0H9C0,合歡山,2025-03-26,24.143442,121.272547,4.0286697e-08
C0X060,下營,2025-03-26,23.22695,120.256261,5.697694e-10
G2M350,農試溪口農場,2025-03-26,23.58565,120.408111,1.6597284e-09
C0U860,頭城,2025-03-26,24.85323,121.8308,1.442061e-08
C0R580,南州,2025-03-26,22.48591,120.50274,1.4052878e-08
C0D430,峨眉,2025-03-26,24.6905,121.017189,7.886425e-07
C0G780,秀水,2025-03-26,24.03405,120.503869,2.7259224e-09
72N100,臺南農改場,2025-03-26,23.0605,120.342194,6.7263667e-10
C0S900,蘭嶼高中,2025-03-26,22.04909,121.51214,0.9994015
467540,大武,2025-03-26,22.355675,120.903789,1.8355178e-07
C1F9W0,德基,2025-03-26,24.254783,121.190261,1.7874113e-08
C1Z120,壽豐,2025-03-26,23.870853,121.508081,3.6608814e-09
C0W160,烏坵,2025-03-26,24.9944,119.44956,7.9014063e-07
C1I240,外大坪,2025-03-26,23.958697,120.917931,4.079454e-09
C1I550,國六W023K,2025-03-26,23.979067,120.867742,1.304984e-09
C0R870,興海,2025-03-26,21.9752,120.8439,0.99989164
C0R140,瑪家,2025-03-26,22.682903,120.686639,3.5887864e-09
C0A530,坪林,2025-03-26,24.938183,121.70975,4.225135e-08
C0X260,後壁,2025-03-26,23.366358,120.362326,5.5236477e-10
C0Z230,和平,2025-03-26,24.30717,121.77007,6.9293327e-09
C0G770,福興,2025-03-26,24.041289,120.437669,2.266319e-08
C0H9A0,神木村,2025-03-26,23.532742,120.843667,1.6041087e-08
C0I460,南投,2025-03-26,23.911469,120.687331,9.412633e-10
C0I480,梅峰,2025-03-26,24.085272,121.173572,1.8179637e-08
C1V570,吉東,2025-03-26,22.85422,120.5454,1.131858e-09
C2D740,屯原,2025-03-26,24.067969,121.209389,1.772328e-08
C2A560,福山,2025-03-26,24.776203,121.502811,1.0565729e-08
C0AH30,五分山,2025-03-26,25.07125,121.780794,3.209878e-08
C0FA10,松柏,2025-03-26,24.429115,120.617482,2.552738e-06
72S200,東改班鳩分場,2025-03-26,22.829528,121.077694,1.0840081e-08
72HA00,中改埔里分場,2025-03-26,23.903208,120.963364,2.4521947e-09
C2H9W0,大坪頂農水,2025-03-26,24.043122,120.932781,3.3689358e-09
C0C650,平鎮,2025-03-26,24.897503,121.214636,1.3655513e-06
C0S930,延平,2025-03-26,22.902581,121.084058,3.895643e-09
C0UA60,樟樹山,2025-03-26,24.41393,121.78325,8.7413055e-09
C1S670,摩天,2025-03-26,23.199503,121.027,3.1092455e-08
C0V630,茄萣,2025-03-26,22.906642,120.182608,9.139164e-10
466940,基隆,2025-03-26,25.133314,121.740475,0.11594021
C0X050,東河,2025-03-26,23.296598,120.385608,5.841907e-10
C0R770,保力,2025-03-26,22.071122,120.764111,0.92637336
G2L020,農試嘉義分所,2025-03-26,23.485028,120.473806,1.4806851e-09
C0X240,關子嶺,2025-03-26,23.331169,120.508025,1.1823236e-09
C0I380,集集,2025-03-26,23.828206,120.801467,1.0489942e-09
466990,花蓮,2025-03-26,23.975128,121.613275,4.2173154e-09
C1V220,小關山,2025-03-26,23.154217,120.813603,1.2514298e-08
C1F9G1,慶福山,2025-03-26,24.180853,120.848378,3.3099812e-09
C0Z250,瑞穗林道,2025-03-26,23.49284,121.30688,1.5328833e-08
C0D590,新豐,2025-03-26,24.87068,120.97721,0.58286613
C0A870,五指山,2025-03-26,25.132153,121.608692,2.8479029e-08
C0UA50,西帽山,2025-03-26,24.555361,121.802628,9.984218e-09
C0X160,仁德,2025-03-26,22.968258,120.257689,6.2988137e-10
C1H971,六分寮,2025-03-26,23.92507,120.6378,1.5208171e-09
C0W120,西嶼,2025-03-26,23.5626,119.468436,0.9999901
C0G650,員林,2025-03-26,23.946503,120.585597,8.280866e-10
C0AD50,鶯歌,2025-03-26,24.951533,121.346294,2.6450809e-05
C2H9Q0,北東眼山,2025-03-26,24.120939,121.189303,2.0314223e-08
C2H9T0,名間竹圍,2025-03-26,23.859914,120.637572,1.1654729e-09
C0S990,山豬窟,2025-03-26,22.318619,120.857372,1.1444254e-08
72Q010,高雄農改,2025-03-26,22.709333,120.525889,4.982337e-09
C0X190,安平,2025-03-26,22.993161,120.152181,7.9401524e-10
C0K400,斗六,2025-03-26,23.720583,120.541127,2.9198395e-09
12J990,口湖工作站,2025-03-26,23.589978,120.180394,0.00011345789
C0O830,北寮,2025-03-26,23.079561,120.495008,1.1080749e-09
C1D410,白蘭,2025-03-26,24.579364,121.079947,8.727079e-09
C0S970,加津林,2025-03-26,22.416211,120.926942,1.1678166e-08
C0D700,關西,2025-03-26,24.7977,121.1732,1.3264196e-07
C0M810,里佳,2025-03-26,23.389125,120.716647,8.584751e-09
C0U750,龜山島,2025-03-26,24.841667,121.953133,2.5373341e-05
C0R810,內獅,2025-03-26,22.305064,120.642986,8.61416e-09
C1M390,龍美,2025-03-26,23.406728,120.654417,6.623123e-09
C2FB60,頭櫃山,2025-03-26,24.129842,120.858925,4.766473e-09
C1H840,國三N238K,2025-03-26,23.841008,120.707711,1.0774464e-09
CAQ030,崎峰國小,2025-03-26,22.42565,120.49521,1.4052878e-08
C2E520,大湖,2025-03-26,24.414939,120.870872,5.089664e-09
467530,阿里山,2025-03-26,23.508208,120.813242,2.6064681e-08
C1E691,南湖,2025-03-26,24.40135,120.837533,8.757393e-09
C0FA30,梧棲,2025-03-26,24.256003,120.523381,6.771697e-07
C1V231,高中,2025-03-26,23.134911,120.716711,1.8415688e-09
C0F9V0,新社,2025-03-26,24.200172,120.815806,1.9872308e-09
C0H890,埔里,2025-03-26,23.972169,120.952425,1.6278374e-09
C0R690,墾丁,2025-03-26,21.966756,120.810269,0.99927
C0F0D0,審馬陣,2025-03-26,24.381675,121.4203,4.000026e-08
C2W030,金門農試所,2025-03-26,24.448431,118.451786,1.4185455e-08
C0R820,白鷺,2025-03-26,22.454275,120.666219,6.100413e-09
U2H480,臺大溪頭,2025-03-26,23.670306,120.798194,6.4322934e-09
C1V190,南天池,2025-03-26,23.27403,120.91176,2.102088e-08
K2E360,苗栗農改場,2025-03-26,24.495722,120.829111,2.3312682e-08
CAJ050,海口故事園區,2025-03-26,23.57543,120.14121,0.00011345789
C2H9D0,三隻寮,2025-03-26,24.093078,120.861578,3.4359064e-09
C0O990,媽廟,2025-03-26,22.99175,120.293525,7.3131373e-10
C0D480,打鐵坑,2025-03-26,24.849664,121.150789,1.263739e-07
C0Z220,和平林道,2025-03-26,24.343922,121.656317,6.7229067e-09
C0TA10,花蓮漁港,2025-03-26,23.995322,121.638331,4.1816075e-09
72C440,桃園農改場,2025-03-26,24.950944,121.030583,0.3528186
C1E711,馬拉邦山,2025-03-26,24.367306,120.901656,6.3247e-09
C0SB20,富岡,2025-03-26,22.792467,121.192669,1.853583e-08
C0D560,竹東,2025-03-26,24.767147,121.057881,1.5315075e-07
C0F9U0,南屯,2025-03-26,24.137006,120.637969,2.0024387e-09
C0M720,番路,2025-03-26,23.464657,120.554156,1.5850989e-09
C0F0A0,雪山圈谷,2025-03-26,24.388594,121.236339,4.7294183e-08
C1A9N0,四十份,2025-03-26,24.934158,121.593283,3.5839726e-08
C0U760,東澳,2025-03-26,24.52196,121.83318,2.5819347e-09
C0X230,鹽水,2025-03-26,23.272621,120.247641,2.3145736e-08
C2H9H0,苗改南投蜂場,2025-03-26,23.852589,120.693481,1.1225659e-09
C0R950,萬隆國小,2025-03-26,22.507667,120.587817,2.5069065e-09
467540,大武,2025-03-26,22.35572,120.90374,1.2045516e-08
C0V370,古亭坑,2025-03-26,22.893178,120.401947,1.0026004e-09
C1I340,新興橋,2025-03-26,23.563333,120.868728,3.912718e-09
C0SA80,土坂,2025-03-26,22.453108,120.887572,8.617759e-09
C0R160,鹽埔,2025-03-26,22.739558,120.530778,1.1952752e-09
C0AC40,大屯山,2025-03-26,25.175675,121.522408,5.5931363e-08
466850,五分山雷達站,2025-03-26,25.071182,121.781205,3.2296217e-08
C2H9L0,馬烈霸,2025-03-26,24.1512,121.201772,2.1772001e-08
C1AI50,國三N016K,2025-03-26,25.034164,121.619664,4.0823828e-08
C1V600,藤枝,2025-03-26,23.071961,120.757042,1.1197522e-08
C1E601,南勢,2025-03-26,24.572486,120.734842,0.9673735
C0Z180,新城,2025-03-26,24.03946,121.60454,4.2468264e-09
C0O980,新市,2025-03-26,23.061614,120.298197,6.655513e-10
C0K420,西螺,2025-03-26,23.800407,120.467394,1.6238195e-08
C0Z050,佳心,2025-03-26,23.34567,121.21316,2.2941448e-08
C0AD30,蘆洲,2025-03-26,25.086594,121.472331,4.5237098e-08
C0V610,梓官,2025-03-26,22.760558,120.267211,1.1149587e-09
K2F750,種苗改良場,2025-03-26,24.225972,120.800917,1.8415653e-09
C0UA80,大溪漁港,2025-03-26,24.941801,121.902955,5.7933224e-08
C1AI60,國一39K邊坡,2025-03-26,25.064361,121.383836,9.732384e-08
C0W150,金寧,2025-03-26,24.457703,118.328989,1.4076432e-08
C0R960,內埔,2025-03-26,22.608483,120.570714,1.6166644e-09
V2C250,八德合作社,2025-03-26,24.93775,121.266389,3.1512257e-06
C2H9S0,龍南,2025-03-26,23.953536,120.833183,3.4336594e-09
C0AH40,平等,2025-03-26,25.129142,121.577086,2.3115208e-08
C0R540,佳冬,2025-03-26,22.419456,120.552375,9.938507e-08
466950,彭佳嶼,2025-03-26,25.627975,122.079744,0.9999854
C0A890,雙溪,2025-03-26,25.036003,121.864242,0.7360868
C0C480,桃園,2025-03-26,24.992425,121.323172,1.616558e-07
C0AH50,林口,2025-03-26,25.072181,121.38084,9.963751e-08
A2K360,水試臺西試驗場,2025-03-26,23.717231,120.190522,2.8428262e-06
B2N890,畜試所,2025-03-26,23.058972,120.336406,0.00019565492
C2M960,外寮,2025-03-26,23.562643,120.665688,5.031001e-09
C0F9S0,烏日,2025-03-26,24.107058,120.624103,8.7247937e-10
C0C490,八德,2025-03-26,24.928708,121.283289,3.024744e-06
C0R190,赤山,2025-03-26,22.592333,120.614306,1.6291638e-09
C0T820,天祥,2025-03-26,24.179597,121.495639,1.17101955e-08
C1F9E1,龍安,2025-03-26,24.1605,120.831961,1.9163793e-09
C0V820,小林,2025-03-26,23.148408,120.63325,9.822918e-10
C2G870,芳苑,2025-03-26,23.922303,120.320025,0.00011209593
C0E850,大河,2025-03-26,24.618069,120.948578,1.2196341e-08
C1U670,寒溪,2025-03-26,24.634,121.71691,3.3560192e-09
C0N020,城西,2025-03-26,23.0568,120.0956,7.045851e-10
C1Z110,三棧,2025-03-26,24.11557,121.60501,2.5582738e-08
C0R280,檳榔,2025-03-26,22.076078,120.836777,0.00011352099
C2H9J0,中台,2025-03-26,23.9996,120.938739,2.5842406e-09
C0F9L0,后里,2025-03-26,24.310436,120.729725,2.7893046e-09
467441,高雄,2025-03-26,22.730432,120.312516,1.0999489e-09
C0D540,橫山,2025-03-26,24.71116,121.11693,2.0593786e-08
C1D420,太閣南,2025-03-26,24.632808,121.160575,1.6915545e-08
C1E770,公館,2025-03-26,24.526914,120.830806,2.4528084e-08
CAN130,水試所海水繁養殖中心,2025-03-26,23.120802,120.07968,7.0553796e-08
C1I430,翠華,2025-03-26,24.191961,121.224339,2.1660043e-08
C1M400,菜瓜坪,2025-03-26,23.251928,120.576103,1.40987e-09
C0G730,二林,2025-03-26,23.903325,120.376081,5.479131e-08
72M360,南改義竹分場,2025-03-26,23.360694,120.279361,7.750781e-09
V2K620,麥寮合作社,2025-03-26,23.753836,120.294783,6.3102523e-09
C0Z070,舞鶴,2025-03-26,23.46811,121.37407,5.3400395e-09
C0B040,大武崙,2025-03-26,25.166676,121.706993,0.06613445
C1Z030,紅葉,2025-03-26,23.493119,121.338806,5.891469e-09
C1I050,丹大,2025-03-26,23.753747,121.141147,2.358717e-08
C0I080,信義,2025-03-26,23.689694,120.851036,2.8533005e-09
C2M920,朴子農改,2025-03-26,23.469889,120.259383,2.9161717e-09
C2A880,福隆,2025-03-26,25.017842,121.942083,1.4644512e-06
C0Z160,鳳林,2025-03-26,23.746114,121.453411,4.692504e-09
C0V210,復興,2025-03-26,23.222403,120.806089,2.0081874e-09
C0H990,昆陽,2025-03-26,24.121322,121.273642,3.1356166e-08
C0R741,獅子,2025-03-26,22.202308,120.705236,3.9801074e-09
C0S710,鹿野,2025-03-26,22.917711,121.122994,3.4963636e-09
C0I530,小奇萊,2025-03-26,24.131764,121.295717,3.248545e-08
C2K630,荷苞,2025-03-26,23.657717,120.595144,1.4684451e-09
C0Z080,富源,2025-03-26,23.587642,121.378225,1.0106533e-08
467441,高雄,2025-03-26,22.7304,120.3125,0.9986838
C0SB10,美和,2025-03-26,22.682078,121.060236,4.6954587e-09
C2K620,馬光農場,2025-03-26,23.721453,120.378864,1.6987679e-08
C1I140,卡奈托灣,2025-03-26,23.754364,121.087872,1.11685345e-08
C0I520,玉山風口,2025-03-26,23.470489,120.955994,4.906162e-08
C1G691,下水埔,2025-03-26,23.816114,120.5676,3.7870382e-09
C0X110,臺南市南區,2025-03-26,22.961189,120.188378,6.2918976e-10
C0V680,仁武,2025-03-26,22.701083,120.347722,4.6957003e-09
C2G840,北斗,2025-03-26,23.877586,120.514222,4.7532818e-09
C0R900,竹坑,2025-03-26,22.1385,120.7022,2.7739874e-05
C0K250,崙背,2025-03-26,23.75555,120.318925,6.276486e-09
C0G860,社頭,2025-03-26,23.897647,120.5862,1.2944581e-09
C0X150,安定,2025-03-26,23.102614,120.227839,9.613543e-10
C0R590,里港,2025-03-26,22.77919,120.49459,1.1300827e-09
C0E610,馬都安,2025-03-26,24.451272,120.930192,9.106699e-09
C0E550,明德,2025-03-26,24.583486,120.885411,7.979604e-08
C0R150,三地門,2025-03-26,22.709889,120.639944,1.9405821e-09
C0G910,花壇,2025-03-26,24.032076,120.549461,2.6904978e-09
C1D400,鳥嘴山,2025-03-26,24.71909,121.28387,1.3416999e-08
C0K500,元長,2025-03-26,23.64981,120.315024,5.759935e-09
C0F0B0,石岡,2025-03-26,24.276061,120.777644,2.8353326e-09
C2V250,甲仙,2025-03-26,23.080106,120.591758,7.806384e-10
C0SA20,金崙山,2025-03-26,22.567419,120.959667,1.1403508e-08
C0V350,溪埔,2025-03-26,22.738578,120.446797,1.0010336e-09
C0M660,溪口,2025-03-26,23.604131,120.403569,1.6601748e-09
C1S880,壽卡,2025-03-26,22.238911,120.858903,1.3902462e-08
72D680,桃改新埔分場,2025-03-26,24.834444,121.066111,0.20132563
