站號,站名,日期,lat,lon,BLBTSLS
C0R710,龍磐,2025-07-31,21.931672,120.838942,0.0014005443
C1F9D1,白毛台,2025-07-31,24.158325,120.886933,0.9967142
C0G940,竹塘,2025-07-31,23.848253,120.386764,0.08263766
467590,恆春,2025-07-31,22.003897,120.746339,0.0012164987
C1O850,環湖,2025-07-31,23.148617,120.418633,0.24819732
C0U710,太平山,2025-07-31,24.505486,121.525656,5.1725095e-08
C0E820,獅潭,2025-07-31,24.539133,120.920042,0.00504938
C0V880,興達,2025-07-31,22.8778,120.2127,0.03941842
C0S890,關山,2025-07-31,23.0395,121.175017,0.02148644
C0SB30,新蘭,2025-07-31,22.869214,121.223228,0.038594767
C2R970,屏科大,2025-07-31,22.648275,120.619247,0.05303792
C1Z130,銅門,2025-07-31,23.965694,121.492842,0.026796814
C0AD40,土城,2025-07-31,24.973208,121.445169,0.0060577285
CAN140,六官養殖協會,2025-07-31,23.22881,120.29962,0.066596925
C0X180,山上,2025-07-31,23.0757,120.363253,0.06088996
C0F9Z0,雪山東峰,2025-07-31,24.388792,121.268675,2.98971e-08
C1M480,獨立山,2025-07-31,23.537022,120.607797,0.9994863
C0X220,學甲,2025-07-31,23.230367,120.182187,0.06613388
467650,日月潭,2025-07-31,23.881325,120.90805,0.9933028
C0K600,箔子寮,2025-07-31,23.6197,120.14,0.14595535
C0G830,埤頭,2025-07-31,23.866003,120.452806,0.082213834
C0S950,七塊厝,2025-07-31,22.954453,121.229922,0.46659264
467110,金門,2025-07-31,24.407306,118.289281,0.0029989136
C0AH80,深坑,2025-07-31,25.002703,121.628328,0.00510318
C0A970,三貂角,2025-07-31,25.007606,122.002058,0.05962378
C2D730,寶山農場,2025-07-31,24.732444,120.976153,0.0062752976
C0K430,褒忠,2025-07-31,23.690938,120.303634,0.019421805
467480,嘉義,2025-07-31,23.495925,120.432906,0.1751752
C0V400,阿公店,2025-07-31,22.804194,120.355528,0.0077901394
C0E960,觀霧分站,2025-07-31,24.505781,121.113921,3.1867575e-08
467550,玉山,2025-07-31,23.48718,120.95943,4.1688757e-08
C0R440,大漢山,2025-07-31,22.405264,120.753181,4.38642e-08
C0K280,四湖,2025-07-31,23.630414,120.227125,0.019881653
C1F9B1,桐林,2025-07-31,24.066172,120.735194,0.008987934
C2H9U0,鳳鵬,2025-07-31,23.763919,120.788061,0.10886136
C0K390,土庫,2025-07-31,23.679029,120.395574,0.08103684
C1I450,望鄉山,2025-07-31,23.594153,120.944286,2.6446171e-08
C0E910,海埔,2025-07-31,24.648767,120.772435,0.016399156
B2E890,畜試北區分所,2025-07-31,24.527806,120.770972,0.013102779
C0R750,四林格山,2025-07-31,22.076989,120.802439,0.9778898
C0F0C0,中坑,2025-07-31,24.248517,120.903319,0.9979305
C1I121,大鞍,2025-07-31,23.678381,120.760017,3.1187164e-07
72U480,花改蘭陽分場,2025-07-31,24.686306,121.716583,0.021049926
C0A770,科教館,2025-07-31,25.096356,121.516507,0.0067410613
C0AJ60,六塊厝,2025-07-31,25.24,121.4481,0.0067926557
C0R620,墾雷,2025-07-31,21.900836,120.855269,0.0011970738
467420,永康,2025-07-31,23.038386,120.2367,0.040822305
C0I410,名間,2025-07-31,23.837053,120.701447,0.11498625
A2C560,農工中心,2025-07-31,24.985917,121.239833,0.0029375749
C0V740,旗山,2025-07-31,22.888614,120.483597,0.008903457
C0Z061,玉里,2025-07-31,23.3215,121.339656,0.01372272
C0S840,南田,2025-07-31,22.279725,120.889208,0.006659727
C1I470,杉林溪,2025-07-31,23.639517,120.786444,5.629547e-08
C1X040,東原,2025-07-31,23.291597,120.463822,0.14099088
C0R660,枋寮,2025-07-31,22.367722,120.590647,0.006607867
C1R120,上德文,2025-07-31,22.763272,120.704442,0.962177
C0K450,大埤,2025-07-31,23.646074,120.431537,0.08874364
C0UA00,土場,2025-07-31,24.576533,121.495333,0.9930982
467080,宜蘭,2025-07-31,24.763975,121.756528,0.018070064
C0N030,四草,2025-07-31,23.0235,120.1116,0.06431018
467410,臺南,2025-07-31,22.99328,120.20492,0.045201063
C0V650,彌陀,2025-07-31,22.783806,120.246361,0.006589126
C0D660,新竹市東區,2025-07-31,24.798681,120.986942,0.01436858
82S580,茶改東部分場,2025-07-31,22.907694,121.130139,0.014437211
C0SB40,興隆,2025-07-31,22.913661,121.257469,0.02901341
467050,新屋,2025-07-31,25.006725,121.047492,0.0050316546
C0C710,大溪永福,2025-07-31,24.892936,121.324975,0.0027825427
C0FA20,溫寮,2025-07-31,24.372177,120.583125,0.014268641
C0V640,湖內,2025-07-31,22.887139,120.2445,0.039147664
C0R910,下寮,2025-07-31,22.3929,120.5548,0.006593634
C0Z020,明里,2025-07-31,23.208717,121.262342,0.023015423
C0M770,嘉義梅山,2025-07-31,23.585398,120.555587,0.10974548
C0C660,楊梅,2025-07-31,24.912375,121.143047,0.0027619638
C1E511,新開,2025-07-31,24.347703,120.827019,0.09139671
G2F820,農試所(霧峰),2025-07-31,24.031261,120.688133,0.010839518
C1I070,和社,2025-07-31,23.591131,120.888861,0.99858826
C0TA80,立霧山,2025-07-31,24.183258,121.641899,0.5413977
C2F000,大肚,2025-07-31,24.15295,120.572117,0.065424964
C1S850,豐南,2025-07-31,23.122139,121.262389,0.7502704
C2A920,富貴角,2025-07-31,25.263783,121.565258,0.006748639
CAH030,茶改場竹圍站,2025-07-31,23.860083,120.637528,0.21462384
C0T960,光復,2025-07-31,23.660694,121.424964,0.02666517
C0F9M0,豐原,2025-07-31,24.254322,120.720692,0.011530889
C0R720,旭海,2025-07-31,22.205403,120.887614,0.0076227896
C0V710,苓雅,2025-07-31,22.622742,120.330669,0.0068451324
C0C740,觀音工業區,2025-07-31,25.064764,121.114856,0.0063555436
CAC040,拉拉山,2025-07-31,24.699317,121.427133,8.63863e-08
C0V790,萬山,2025-07-31,22.905944,120.688056,0.7170284
U2HA30,臺大和社,2025-07-31,23.590856,120.888864,0.99858826
C0AJ90,澳底,2025-07-31,25.0552,121.9253,0.018522846
C0Z100,東華,2025-07-31,23.89525,121.549833,0.19013233
C0G970,三豐,2025-07-31,23.882,120.2895,0.020547263
V2K610,大庄合作社,2025-07-31,23.8068,120.367939,0.01973728
C0V900,汕尾,2025-07-31,22.4782,120.4151,0.006544282
C1R630,龍泉,2025-07-31,22.66701,120.59091,0.02577189
C1AC50,關渡,2025-07-31,25.133486,121.469331,0.004795709
C0C800,四稜,2025-07-31,24.64733,121.4293,0.01393307
C0F9I0,神岡,2025-07-31,24.272481,120.658314,0.011070677
C0K460,斗南,2025-07-31,23.678734,120.478359,0.097867556
C2O810,曾文,2025-07-31,23.219681,120.497328,0.054256275
467280,後龍,2025-07-31,24.648563,120.831834,0.015237407
C1F9J1,清水林,2025-07-31,24.071242,120.820419,0.99931735
C2A650,火燒寮,2025-07-31,25.002719,121.742892,0.98539543
466930,竹子湖,2025-07-31,25.162078,121.544547,0.9998339
C1I220,樟湖,2025-07-31,23.905333,120.846983,0.032145415
C0I390,仁愛,2025-07-31,24.022122,121.132206,0.0032991215
C0Z300,東里,2025-07-31,23.26853,121.30547,0.013692838
C1V590,新發,2025-07-31,23.057019,120.646064,0.9946
C0K510,水林,2025-07-31,23.572924,120.24597,0.14701892
72S590,東改賓朗果園,2025-07-31,22.813889,121.071278,0.13024043
82A750,茶改北部分場,2025-07-31,24.955778,121.631222,0.9996832
C1A750,石碇服務區,2025-07-31,25.00872,121.646242,0.004974893
C0X300,鹿寮,2025-07-31,23.386047,120.477331,0.122500345
G2AI50,關渡,2025-07-31,25.11575,121.492,0.0067949663
C0K590,雲林東勢,2025-07-31,23.674192,120.255721,0.019627852
C0A570,桶後,2025-07-31,24.848222,121.597992,0.88257617
C1S800,華源,2025-07-31,22.657883,121.02325,0.014823653
C0G720,溪州,2025-07-31,23.851589,120.499093,0.098703675
C1V160,達卡努瓦,2025-07-31,23.279811,120.705319,0.12537192
C2M410,馬頭山,2025-07-31,23.324361,120.582017,0.15309754
C0V850,蚵仔寮,2025-07-31,22.7256,120.2527,0.0064284406
C0S740,池上,2025-07-31,23.119628,121.209469,0.10488587
C1V390,尖山,2025-07-31,22.813153,120.367789,0.009672345
C0AH70,松山,2025-07-31,25.04871,121.55042,0.0060777934
C0N010,鯤鯓國小,2025-07-31,23.1879,120.0889,0.06695784
C0R550,新埤,2025-07-31,22.467947,120.582894,0.006271047
C0SA60,知本（水試所）,2025-07-31,22.702394,121.082761,0.09945652
C0T9I0,豐濱,2025-07-31,23.583897,121.514806,0.024478812
C0UB00,淡江大學蘭陽校園,2025-07-31,24.823239,121.730383,0.9991102
C0W240,九宮,2025-07-31,24.423753,118.240186,0.0031970418
C0T9N0,富里,2025-07-31,23.171639,121.249378,0.044775233
U2HA50,臺大竹山,2025-07-31,23.756972,120.681556,0.10798205
C0V840,鳳鼻頭,2025-07-31,22.5083,120.3591,0.0064284406
C0X140,西港,2025-07-31,23.125608,120.203108,0.06704942
72D080,桃改五峰分場,2025-07-31,24.612194,121.157167,0.52686155
C2H9P0,伊拿谷,2025-07-31,23.963211,121.088264,0.9992968
C2H9F0,柑林,2025-07-31,24.018658,120.847072,0.061629068
C0TA20,加灣,2025-07-31,24.082025,121.608944,0.29342717
C0V530,阿蓮,2025-07-31,22.883208,120.327508,0.045944594
C0FB30,八仙山苗圃,2025-07-31,24.192719,121.001366,0.9993337
C1O880,關山,2025-07-31,23.173397,120.594092,0.16412276
C0E791,卓蘭,2025-07-31,24.3126,120.8244,0.099126935
C1I030,武界,2025-07-31,23.913225,121.052483,0.9990321
C0R520,崁頂,2025-07-31,22.514781,120.506914,0.0064549767
C0R341,牡丹,2025-07-31,22.130036,120.792639,0.030711113
C0R930,萬丹,2025-07-31,22.5885,120.4851,0.0064507024
C0S760,紅石,2025-07-31,23.069131,121.126219,9.18557e-08
C2C410,中央大學,2025-07-31,24.967652,121.185165,0.0028478021
C1M610,石磐龍,2025-07-31,23.496606,120.663506,0.1266205
C0C790,東眼山,2025-07-31,24.8284,121.40888,0.7849913
C0UA10,鴛鴦湖,2025-07-31,24.590269,121.412228,6.325499e-08
V2C260,八德蔬果,2025-07-31,24.978508,121.281819,0.0029678193
C0R800,丹路,2025-07-31,22.204481,120.750989,0.0077488213
C0G920,永靖,2025-07-31,23.924703,120.547533,0.01829198
C2M950,太和,2025-07-31,23.538372,120.702961,3.8728416e-07
C1A630,下盆,2025-07-31,24.771003,121.538622,0.96046174
B2N890,畜產試驗所,2025-07-31,23.058972,120.336406,0.04929648
C0UA30,白嶺,2025-07-31,24.527819,121.519031,1.4827357e-06
C1V580,溪南(特生中心),2025-07-31,23.084972,120.788475,4.144473e-08
C1T970,大農,2025-07-31,23.615233,121.413331,0.027117059
C0R650,竹田,2025-07-31,22.58486,120.54344,0.006388475
C1H900,清流,2025-07-31,24.080775,120.962997,0.99928164
C1C510,水尾,2025-07-31,24.940081,121.087161,0.0031239425
C0F9X0,大雅(中科園區),2025-07-31,24.21528,120.62445,0.007658011
C0SB60,白守蓮,2025-07-31,23.126769,121.401914,0.09740524
C0O970,虎頭埤,2025-07-31,23.021375,120.347878,0.061528865
C0C730,中大臨海站,2025-07-31,24.966126,121.008581,0.0067172
C0X250,新營,2025-07-31,23.310689,120.316681,0.069891825
C0V700,三民,2025-07-31,22.645017,120.311233,0.0068451324
C0U870,大礁溪,2025-07-31,24.791042,121.675047,0.9997807
C0E870,高鐵苗栗,2025-07-31,24.60725,120.826094,0.013178763
A2K570,古坑花卉中心,2025-07-31,23.63353,120.55239,0.12214935
C0TA30,鹽寮,2025-07-31,23.845606,121.592664,0.29342717
C0M860,新美,2025-07-31,23.338017,120.683169,0.9988815
C1E701,八卦,2025-07-31,24.491756,120.927619,0.9985422
C0I420,國姓,2025-07-31,24.037803,120.855072,0.06968389
C2D720,關西工作站,2025-07-31,24.757275,121.184792,0.0049925656
C0S960,香蘭,2025-07-31,22.587569,120.993375,0.0066659437
467620,蘭嶼,2025-07-31,22.0369,121.55843,0.6994278
C0R260,春日,2025-07-31,22.370361,120.628306,0.0062452913
72G600,臺中農改場,2025-07-31,24.003028,120.534389,0.019478224
C0Z210,瑞穗,2025-07-31,23.5239,121.39021,0.03129802
C0M820,達邦,2025-07-31,23.453994,120.749517,0.99924266
C0V860,南寮,2025-07-31,22.7616,120.2339,0.006270087
C0G740,大城,2025-07-31,23.852487,120.320935,0.019611748
C0R920,塭仔,2025-07-31,22.4169,120.5197,0.006544282
C0R470,高樹,2025-07-31,22.826389,120.600806,0.039632097
C0R680,佳樂水,2025-07-31,21.993578,120.861633,0.0012115154
C1O870,大棟山,2025-07-31,23.31157,120.52226,0.00038750513
C0D360,梅花,2025-07-31,24.678347,121.208558,0.99985576
C0Z190,富世,2025-07-31,24.14743,121.6297,0.024742646
C0AI10,屈尺,2025-07-31,24.92184,121.54475,0.0050985967
B2U990,畜試東區分所,2025-07-31,24.669039,121.832561,0.017937476
C0SB80,長濱漁港,2025-07-31,23.313644,121.459994,0.0641757
C0TA50,和仁,2025-07-31,24.241394,121.712472,0.022172567
C0R240,來義,2025-07-31,22.527306,120.625111,0.0065356414
C0V910,大樹,2025-07-31,22.684645,120.432803,0.021580439
C1R610,西大武山,2025-07-31,22.617719,120.7322,3.7622378e-08
C0G900,線西,2025-07-31,24.143358,120.443536,0.014272129
C0M700,竹崎,2025-07-31,23.526178,120.555508,0.13019885
C2E880,三義,2025-07-31,24.405478,120.749819,0.88133526
C0C720,竹圍,2025-07-31,25.112692,121.239824,0.0067571653
C0F9P0,清水,2025-07-31,24.312297,120.562242,0.014131246
C0Z150,吉安光華,2025-07-31,23.930925,121.595153,0.42351234
C0FA80,小雪山天池,2025-07-31,24.28025,121.02627,2.3638783e-08
467300,東吉島,2025-07-31,23.25727,119.66762,0.0018642048
C1D640,外坪(五指山),2025-07-31,24.644447,121.090961,0.9959551
C0F9O0,潭子,2025-07-31,24.213106,120.703933,0.01104034
C2H9R0,卓社,2025-07-31,23.887894,121.000086,5.2429812e-05
72T250,花蓮農改場,2025-07-31,23.975222,121.563889,0.1878776
C0E780,銅鑼,2025-07-31,24.489681,120.790853,0.01121863
C1T950,太安,2025-07-31,23.666719,121.370128,0.9598088
C0E830,苑裡,2025-07-31,24.439714,120.653053,0.013161164
467270,田中,2025-07-31,23.873803,120.581286,0.09958692
C0SA10,檳榔四格山,2025-07-31,22.810031,121.109308,0.32140896
C1T830,布洛灣,2025-07-31,24.17184,121.57127,0.95952195
C0F970,大坑,2025-07-31,24.173142,120.722289,0.011610274
C1U920,思源,2025-07-31,24.393125,121.347214,3.417171e-08
C0A931,三和,2025-07-31,25.233153,121.595236,0.009599731
C0I010,廬山,2025-07-31,24.033311,121.181808,1.876288e-07
C2M940,日野賀,2025-07-31,23.434056,120.727169,0.007677465
C0R860,鼻頭,2025-07-31,22.1043,120.8979,0.0010566108
C0UB20,壯圍,2025-07-31,24.7359,121.8163,0.017810868
C0R790,九棚,2025-07-31,22.14195,120.889281,0.005608031
C0W110,東莒,2025-07-31,25.9652,119.98069,0.027228449
C1U930,粉鳥林,2025-07-31,24.497088,121.842479,0.02189334
C1I211,蘆竹湳,2025-07-31,23.934019,120.811994,0.99458206
C0S830,長濱,2025-07-31,23.286817,121.411975,0.04528212
C1F9F1,伯公龍,2025-07-31,24.272392,120.849047,0.5369047
C0UB90,太平山莊,2025-07-31,24.494171,121.536209,4.893256e-08
C0E810,西湖,2025-07-31,24.562947,120.7485,0.014899021
C1I440,新高口,2025-07-31,23.478744,120.878939,2.157531e-08
C0O840,王爺宮,2025-07-31,23.222064,120.40085,0.053569887
C0T9G0,鳳林山,2025-07-31,23.735269,121.420131,0.9914976
C0X080,佳里,2025-07-31,23.173039,120.145086,0.06661359
C0FB70,大甲溪埔,2025-07-31,24.370625,120.620067,0.013025884
C0Z310,清水斷崖,2025-07-31,24.218294,121.689142,0.037442856
C0M680,太保,2025-07-31,23.455062,120.331455,0.15543234
C1S820,金峰,2025-07-31,22.590969,120.933236,0.0061393343
C0AD10,八里,2025-07-31,25.150211,121.403947,0.006244907
C2K240,草嶺,2025-07-31,23.59555,120.693461,0.036815066
C1SA70,都蘭,2025-07-31,22.87794,121.226881,0.028871447
C0K440,二崙,2025-07-31,23.772797,120.408944,0.0818202
C1A760,坪林交控,2025-07-31,24.94284,121.713442,0.8849839
C0F9N0,大里,2025-07-31,24.092464,120.701378,0.10969756
C0SA90,達仁林場,2025-07-31,22.264347,120.823972,0.9854672
C1R290,石門山,2025-07-31,22.112611,120.756597,0.41437805
42HA10,萬大發電廠,2025-07-31,23.978875,121.139639,0.9598088
C0R890,山海,2025-07-31,21.9878,120.7091,0.0012892553
C0T9A0,月眉山,2025-07-31,23.809928,121.539828,0.9904162
C0AC70,信義,2025-07-31,25.037822,121.564597,0.006058576
C0K560,棋山,2025-07-31,23.68645,120.603417,0.12356041
C2FB50,出雲,2025-07-31,24.206469,120.902794,0.49727356
C1Z240,中平林道,2025-07-31,23.42115,121.26763,0.9567462
U2H480,溪頭,2025-07-31,23.670306,120.798194,0.0003738491
C0M880,好美里,2025-07-31,23.3364,120.138,0.06661359
C0T9E0,大坑,2025-07-31,23.880628,121.581981,0.896678
C0K530,臺西,2025-07-31,23.701547,120.197559,0.019748036
C1E900,國一N128K,2025-07-31,24.560997,120.844186,0.013514077
C0AJ50,水湳洞,2025-07-31,25.123695,121.862238,0.006053504
C0AI20,白沙灣,2025-07-31,25.283128,121.519058,0.006053504
C2V310,美濃,2025-07-31,22.898792,120.51907,0.008207267
C0A860,大坪,2025-07-31,25.165914,121.632969,0.9993523
C1U850,觀音海岸,2025-07-31,24.38319,121.77856,0.9997885
C2K610,草嶺石壁,2025-07-31,23.602469,120.707731,0.0015844663
C0U950,鶯子嶺,2025-07-31,24.89754,121.79244,0.0004361119
C0O900,善化,2025-07-31,23.112883,120.297219,0.040716946
C0K550,蔦松,2025-07-31,23.514319,120.229736,0.14674488
E2P980,林試六龜中心,2025-07-31,22.991703,120.645722,0.43399972
C0E590,通霄,2025-07-31,24.471892,120.704622,0.01436858
C1I310,西巒,2025-07-31,23.754486,120.883956,0.87499124
C0A550,泰平,2025-07-31,24.971197,121.823711,0.9996777
C0I360,水里,2025-07-31,23.812553,120.849792,0.19378306
C0R830,高士,2025-07-31,22.121825,120.836781,0.88240826
C1I101,溪頭,2025-07-31,23.661789,120.807647,3.1604266e-08
C0AJ20,野柳,2025-07-31,25.20703,121.690021,0.0060777934
C0B060,暖暖,2025-07-31,25.0957,121.7403,0.0049810098
C1H920,長豐,2025-07-31,24.102039,120.879897,0.99941736
C0V360,內門,2025-07-31,22.975481,120.466769,0.035474196
C0R850,林邊,2025-07-31,22.4634,120.5339,0.0064591705
C0E930,龍鳳,2025-07-31,24.700034,120.859125,0.016716009
C0U910,冬山,2025-07-31,24.63373,121.7937,0.017937476
C1E721,泰安,2025-07-31,24.489017,120.968036,8.570256e-07
82H320,茶改中部分場,2025-07-31,23.875611,120.913583,0.99944675
C0M750,布袋,2025-07-31,23.380878,120.167789,0.14207721
C1S860,利嘉,2025-07-31,22.809417,121.050528,0.9891179
E2S980,林試太麻里1,2025-07-31,22.598922,120.980044,0.004925822
C0X170,關廟,2025-07-31,22.963017,120.327797,0.054743145
C0V720,林園,2025-07-31,22.507747,120.394511,0.006462326
C1I510,線浸林道,2025-07-31,23.761508,120.832956,1.4469798e-05
C0D690,外湖,2025-07-31,24.917735,120.968711,0.0068830797
C0C750,新興坑尾,2025-07-31,25.0061,121.0971,0.0035823889
B2Q810,畜試南區分所,2025-07-31,21.945583,120.802167,0.001249804
C0S790,金崙,2025-07-31,22.538122,120.966875,0.008618087
C0AH90,福山植物園,2025-07-31,24.760717,121.58135,0.9943016
C0I540,奇萊稜線,2025-07-31,24.109231,121.326456,2.316433e-08
C0M850,表湖,2025-07-31,23.24186,120.64166,0.999792
C0S770,大溪山,2025-07-31,22.478475,120.943325,0.3106009
C0AG80,中和,2025-07-31,24.991622,121.491792,0.0060569537
C0T790,大禹嶺,2025-07-31,24.186117,121.316086,2.5246377e-08
C0T9B0,水源,2025-07-31,23.991861,121.537169,0.9694235
C0R840,牡丹池山,2025-07-31,22.168389,120.841225,0.97640455
C1I131,桶頭,2025-07-31,23.641944,120.654117,0.21761912
CAL110,布袋國中,2025-07-31,23.35893,120.18026,0.06477405
467571,新竹,2025-07-31,24.827853,121.014219,0.015293647
C0Z290,赤柯山,2025-07-31,23.36893,121.38293,0.99650913
C0X280,將軍,2025-07-31,23.214999,120.13577,0.06695784
C0S690,太麻里,2025-07-31,22.60902,120.98533,0.98168844
C0U880,北關,2025-07-31,24.9072,121.8734,0.0067410613
C0G810,埔心,2025-07-31,23.947633,120.525456,0.018979
C0U970,大福,2025-07-31,24.80064,121.81389,0.01711679
C2H9N0,仁愛東眼,2025-07-31,24.026875,121.1205,1.2407642e-06
C1E670,南礦,2025-07-31,24.538278,121.002836,0.0012457853
C0M520,東後寮,2025-07-31,23.369908,120.248065,0.06613388
C1E461,松安,2025-07-31,24.397972,120.986022,8.1220915e-06
C2N160,西拉雅風管處,2025-07-31,23.189481,120.335297,0.07819672
C2M970,碧湖,2025-07-31,23.568632,120.624165,0.9976574
C0A640,石碇,2025-07-31,24.993969,121.662917,0.8878339
E2S960,林試太麻里2,2025-07-31,22.598,120.99775,0.006646465
C0F9Y0,桃山,2025-07-31,24.432739,121.303808,3.182609e-08
C1I020,萬大,2025-07-31,23.979817,121.132261,0.0018929619
C0U940,羅東,2025-07-31,24.68184,121.74934,0.019053845
C0M650,朴子,2025-07-31,23.43463,120.23902,0.14701892
C1I500,大尖山,2025-07-31,23.858572,120.994889,2.1542577e-08
C0FB40,中橫21.6k,2025-07-31,24.2499,121.1455,5.226791e-06
C0G820,田尾,2025-07-31,23.901669,120.509389,0.01912592
E2K600,四湖植物園,2025-07-31,23.676986,120.163433,0.019416405
C0S730,綠島,2025-07-31,22.6672,121.47533,0.017044622
12Q970,東港工作站,2025-07-31,22.479997,120.466058,0.006607867
C0E430,南庄,2025-07-31,24.601775,121.000214,0.0052409
C1TA00,太魯閣,2025-07-31,24.15773,121.6236,0.03193735
466920,臺北,2025-07-31,25.037658,121.514853,0.0060777934
C0R600,舊泰武,2025-07-31,22.588194,120.664944,0.99183106
C1I260,北坑,2025-07-31,23.9246,121.006903,0.9973885
466910,鞍部,2025-07-31,25.182586,121.529731,0.39507702
C1I230,九份二山,2025-07-31,23.961944,120.845,0.9994608
C2A660,瑞芳,2025-07-31,25.113169,121.801147,0.0047742436
C0R270,琉球嶼,2025-07-31,22.332244,120.362236,0.006222655
C1T990,高寮,2025-07-31,23.394239,121.356808,0.037205297
C0G620,芬園,2025-07-31,24.015678,120.6213,0.01911381
C1Z140,荖溪,2025-07-31,23.890575,121.45964,0.9944462
C1I201,中心崙,2025-07-31,23.728722,120.712097,0.9988759
C1I400,凌霄,2025-07-31,24.018778,121.004456,2.4855574e-06
C1M640,十字,2025-07-31,23.492153,120.753683,1.4519921e-07
G2P820,農試鳳山分所,2025-07-31,22.646611,120.356083,0.0075676627
C0Z270,蕃薯寮,2025-07-31,23.73835,121.540108,0.387745
C0FB10,出雲山苗圃,2025-07-31,24.23105,120.90475,0.99788123
C0F9Q0,外埔,2025-07-31,24.347817,120.705686,0.011266993
C0K580,高鐵雲林,2025-07-31,23.737456,120.417944,0.0818202
C2I090,鳳凰,2025-07-31,23.728081,120.787347,0.99927986
C0U990,員山,2025-07-31,24.74435,121.72247,0.01859257
C0V770,大社,2025-07-31,22.730306,120.346639,0.0069982563
C0X120,麻豆,2025-07-31,23.183289,120.248611,0.06704942
C0C670,龍潭,2025-07-31,24.870056,121.221389,0.0054930244
C0D680,香山濕地,2025-07-31,24.783581,120.914988,0.016408226
C0S980,勝林山,2025-07-31,22.430439,120.8938,0.90327644
C0V730,大寮,2025-07-31,22.605614,120.395717,0.006271047
C0R570,麟洛,2025-07-31,22.65078,120.52719,0.022220632
C2M930,石卓,2025-07-31,23.478744,120.702264,1.6712565e-07
C0G9B0,和美,2025-07-31,24.105169,120.492131,0.019240566
CAG100,王功漁港,2025-07-31,23.96824,120.32586,0.019748036
C0X290,北門,2025-07-31,23.267772,120.125481,0.06477405
C2F930,大甲,2025-07-31,24.347667,120.640403,0.009955524
C0D650,湖口,2025-07-31,24.904794,121.043628,0.0033003623
C0E420,竹南,2025-07-31,24.708978,120.888897,0.015281882
C0U780,五結,2025-07-31,24.68637,121.79794,0.017937476
C1I250,鯉潭,2025-07-31,23.961922,120.991131,0.99941736
C0R130,阿禮,2025-07-31,22.742908,120.743678,0.060327016
C0X100,臺南市北區,2025-07-31,23.010394,120.194228,0.03941842
C0S920,金峰嘉蘭,2025-07-31,22.594789,120.960825,0.004925148
C0V490,新興,2025-07-31,22.627422,120.298803,0.006680791
C0F9K0,大安,2025-07-31,24.345061,120.588025,0.013190186
467290,古坑,2025-07-31,23.633639,120.551889,0.12214935
C2E970,八甲,2025-07-31,24.535811,120.795983,0.010830453
C0V440,鳳山,2025-07-31,22.646653,120.356122,0.0075676627
C1T940,大觀,2025-07-31,23.714206,121.373133,0.99302495
C0E740,造橋,2025-07-31,24.637056,120.864778,0.015670834
C0R100,尾寮山,2025-07-31,22.833111,120.683889,0.059980027
A2K630,臺大雲林校區,2025-07-31,23.730628,120.423903,0.08763497
467990,馬祖,2025-07-31,26.169467,119.923158,0.16817226
C0D580,寶山,2025-07-31,24.735006,121.025192,0.005359716
E2P990,林試扇平站,2025-07-31,22.9677,120.6857,0.9981038
C0AI30,三重,2025-07-31,25.057328,121.500629,0.0067410613
C0AH00,汐止,2025-07-31,25.066881,121.658778,0.0060777934
C1Z040,立山,2025-07-31,23.443356,121.327375,0.98120075
466881,新北,2025-07-31,24.959207,121.525196,0.005476456
C0W130,花嶼,2025-07-31,23.40007,119.32276,0.0022860896
C0A950,鼻頭角,2025-07-31,25.129036,121.923372,0.018046694
C0K470,林內,2025-07-31,23.748675,120.609642,0.12359474
C2F990,摩天嶺,2025-07-31,24.322458,120.936819,0.98487127
82C160,茶改場,2025-07-31,24.908472,121.185333,0.0029811491
C0Z320,清水林道,2025-07-31,23.27125,121.188272,0.99528724
C0R760,南仁湖,2025-07-31,22.084681,120.863353,0.48001832
C0M670,大林,2025-07-31,23.600616,120.45841,0.18613704
C0M800,茶山,2025-07-31,23.299075,120.664767,0.93905836
C0A9C0,天母,2025-07-31,25.117494,121.537169,0.0060569537
72K220,南改斗南分場,2025-07-31,23.634556,120.477333,0.09535743
72AI40,桃改樹林分場,2025-07-31,24.944503,121.386972,0.0055129956
C0S910,蘭嶼燈塔,2025-07-31,22.081197,121.503117,0.18174714
C0B050,八斗子,2025-07-31,25.144754,121.79167,0.0067926557
C0U900,內城,2025-07-31,24.71813,121.68766,0.023604652
C0X320,柳營,2025-07-31,23.253328,120.375253,0.1751752
C0M790,新港,2025-07-31,23.553269,120.345728,0.15305056
C0F9T0,西屯,2025-07-31,24.179494,120.641275,0.009955524
C0E950,松安,2025-07-31,24.39792,120.98599,8.1220915e-06
C0SA30,都歷,2025-07-31,23.020333,121.323642,0.022765314
C0C620,蘆竹,2025-07-31,25.084275,121.265767,0.0056119706
C0R730,大坪頂,2025-07-31,22.024633,120.69355,0.0020147958
C0AJ40,石門,2025-07-31,25.273672,121.601198,0.0052734567
C0E750,苗栗,2025-07-31,24.564569,120.824575,0.013827702
C0T870,鯉魚潭,2025-07-31,23.935639,121.508944,0.025569579
C1V170,排雲,2025-07-31,23.463619,120.954147,3.7241627e-08
C2H950,中寮,2025-07-31,23.884447,120.766406,0.007554205
C0R350,貓鼻頭,2025-07-31,21.921774,120.7358,0.001227079
C0V660,岡山,2025-07-31,22.797078,120.294958,0.0066696447
C1H941,雙冬,2025-07-31,23.967378,120.802189,0.9980054
C0AJ70,田寮,2025-07-31,25.2698,121.4886,0.0061813067
C0AI00,五股,2025-07-31,25.07445,121.42728,0.002791402
C0Z280,德武,2025-07-31,23.47426,121.41071,0.030051036
C0R700,枋山,2025-07-31,22.246844,120.661086,0.006462326
C0C460,復興,2025-07-31,24.820208,121.352281,0.9997867
E2H360,蓮華池,2025-07-31,23.918333,120.885278,0.9991657
C0M640,中埔,2025-07-31,23.42538,120.5229,0.13403988
C0W140,金沙,2025-07-31,24.488292,118.408778,0.0038356308
C2A540,四堵,2025-07-31,24.8926,121.745736,0.9989469
C0ACA0,新莊,2025-07-31,25.051478,121.446756,0.006191508
C0R220,潮州,2025-07-31,22.534361,120.54,0.00642728
U2HA40,臺大內茅埔,2025-07-31,23.689722,120.851117,0.9874218
467490,臺中,2025-07-31,24.145736,120.684075,0.010236318
C0UB60,明池,2025-07-31,24.650688,121.475277,0.044780757
C0U960,翠峰湖,2025-07-31,24.510856,121.608044,5.827901e-08
E2HA20,林試畢祿溪站,2025-07-31,24.226944,121.308522,2.8164477e-08
C0V890,前鎮,2025-07-31,22.5718,120.3117,0.006589126
C1F941,雪嶺,2025-07-31,24.280586,121.026642,2.3638783e-08
C2H9E0,國姓南港,2025-07-31,23.911108,120.846556,0.0033665006
C0AC80,文山,2025-07-31,25.00235,121.575728,0.005090145
C0F9R0,龍井,2025-07-31,24.184536,120.528972,0.01412879
C0M760,民雄,2025-07-31,23.551754,120.428457,0.17977862
C0UA40,西德山,2025-07-31,24.560647,121.752608,0.3543549
C1T920,中興,2025-07-31,23.769503,121.498653,0.07849324
C0D550,雪霸,2025-07-31,24.526972,121.11605,3.2227483e-08
C2F860,梨山,2025-07-31,24.247522,121.243669,2.7169333e-08
C0R320,車城,2025-07-31,22.0744,120.716247,0.0012880524
C1S870,南美山,2025-07-31,23.15025,121.382333,0.03508154
C0B020,基隆嶼,2025-07-31,25.19141,121.78391,0.0060556885
C1U501,牛鬥,2025-07-31,24.637836,121.573656,0.9784335
C0M730,嘉義市東區,2025-07-31,23.457673,120.460531,0.18053763
C0S700,知本,2025-07-31,22.684866,121.005642,0.9854672
C1N001,沙崙,2025-07-31,22.935472,120.309406,0.04801637
C0V760,橋頭,2025-07-31,22.757806,120.30575,0.006680791
C0G960,福寶,2025-07-31,24.0443,120.3814,0.018963018
C0X210,白河,2025-07-31,23.347466,120.414427,0.1919308
C0S810,東河,2025-07-31,22.972672,121.303986,0.039478775
C2R170,屏東,2025-07-31,22.66027,120.49403,0.021644289
C0R670,楓港,2025-07-31,22.190131,120.692156,0.006479635
C0FA50,霧峰,2025-07-31,24.0419,120.6995,0.010279579
C0UB10,蘇澳,2025-07-31,24.5969,121.8571,0.021918759
C0G950,防潮門,2025-07-31,24.1835,120.4871,0.014272975
C0M740,六腳,2025-07-31,23.492871,120.290625,0.1476489
C1R250,力里,2025-07-31,22.428117,120.629228,0.006504732
C0K330,虎尾,2025-07-31,23.719183,120.442036,0.090117134
C2FA00,烏石坑,2025-07-31,24.273503,120.947617,0.99270976
C0V620,永安,2025-07-31,22.82315,120.236856,0.006589126
C1I330,楓樹林,2025-07-31,23.986803,121.076117,0.00051840354
C0W200,湖西,2025-07-31,23.596314,119.67275,0.0014268408
72Q010,高雄農改場,2025-07-31,22.709333,120.525889,0.022983044
C0SA40,瑞和,2025-07-31,22.974361,121.156697,0.015419954
C0C680,龜山,2025-07-31,25.02846,121.38656,0.9483375
C2V260,月眉,2025-07-31,22.971003,120.539853,0.05303792
C0V450,鳳森,2025-07-31,22.545064,120.392592,0.0061670337
C0FA90,小雪山林道,2025-07-31,24.29515,121.03651,2.6736585e-08
C0U720,南山,2025-07-31,24.43742,121.38167,0.073528446
A2N290,臺南蘭花園區,2025-07-31,23.340258,120.379661,0.17056513
C0R560,新園,2025-07-31,22.5434,120.461558,0.006462326
C0U890,三星,2025-07-31,24.66812,121.65302,0.07641424
C1V300,御油山,2025-07-31,23.001983,120.715364,4.685298e-08
C0U600,礁溪,2025-07-31,24.817539,121.765608,0.019421969
C1T980,龍澗,2025-07-31,24.023289,121.411328,2.559835e-05
C0D670,海天一線,2025-07-31,24.831986,120.914438,0.016716009
C0SA00,歷坵,2025-07-31,22.520969,120.89185,0.88055354
C0M710,東石,2025-07-31,23.458927,120.15385,0.14086227
C0M780,鹿草,2025-07-31,23.41134,120.30835,0.15595219
C0U520,雙連埤,2025-07-31,24.753033,121.641303,0.9997883
C0B010,七堵,2025-07-31,25.094819,121.71713,0.005584952
C0R480,長治,2025-07-31,22.693128,120.542622,0.02479304
C1V830,國三S383K,2025-07-31,22.781967,120.426475,0.050581165
12Q980,恆春工作站,2025-07-31,22.079678,120.714425,0.0012891975
C1O940,東山服務區,2025-07-31,23.286016,120.398472,0.1951026
C1U840,東澳嶺,2025-07-31,24.5378,121.8485,0.9993872
C1D630,飛鳳山,2025-07-31,24.766464,121.119178,0.3372626
C0S940,石寧山,2025-07-31,23.223772,121.406639,0.014836038
C0K410,北港,2025-07-31,23.573957,120.292802,0.14904888
C2M620,瑞里,2025-07-31,23.545133,120.675197,4.9309147e-06
C0SB70,小港漁港,2025-07-31,23.158558,121.400431,0.08296532
C2O950,安南,2025-07-31,23.076694,120.144861,0.0377525
C0F0E0,南湖圈谷,2025-07-31,24.363714,121.444667,5.0850765e-08
467610,成功,2025-07-31,23.097486,121.373428,0.060547274
C0G890,伸港,2025-07-31,24.148933,120.484403,0.014124114
C2E540,龍溪,2025-07-31,24.606489,120.783933,0.013763625
C1V200,梅山,2025-07-31,23.268447,120.823556,0.99820656
C0T9H0,加路蘭山,2025-07-31,23.682947,121.5274,0.9989675
C2O930,玉井,2025-07-31,23.126042,120.46055,0.24025539
C1F911,新伯公,2025-07-31,24.221361,120.841069,0.17288941
C0R490,九如,2025-07-31,22.7405,120.490503,0.022657253
C0X200,左鎮,2025-07-31,23.056758,120.408522,0.008691457
C0FA60,鞍馬山工作站,2025-07-31,24.267064,121.000793,2.6696735e-08
C0SB50,叭嗡嗡,2025-07-31,23.047062,121.343223,0.08610124
C1F891,稍來,2025-07-31,24.265689,121.001142,2.8165337e-08
72N240,七股研究中心,2025-07-31,23.081672,120.062894,0.06446681
C0C700,中壢,2025-07-31,24.977661,121.256375,0.002852518
C0M690,水上,2025-07-31,23.419734,120.388909,0.17231525
C0V690,鼓山,2025-07-31,22.623325,120.275575,0.0066499487
C0O860,大內,2025-07-31,23.11885,120.36083,0.045756806
C0Z200,萬榮,2025-07-31,23.709219,121.420106,0.025409006
C0T9D0,和中,2025-07-31,24.26676,121.74103,0.021914382
C1O921,楠西,2025-07-31,23.183511,120.484083,0.32734513
C0AJ30,淡水觀海,2025-07-31,25.184591,121.408616,0.0067949663
C0V810,左營,2025-07-31,22.67491,120.28491,0.0068561463
C0UA70,桃源谷,2025-07-31,24.962606,121.888875,0.9998119
C0X130,官田,2025-07-31,23.193217,120.315422,0.07090246
C1H000,翠峰,2025-07-31,24.109397,121.205211,2.3782052e-08
C0UA90,石城,2025-07-31,24.980444,121.951214,0.019978195
C1E681,南勢山,2025-07-31,24.421669,120.923831,0.9988443
C0A9F0,內湖,2025-07-31,25.079422,121.57545,0.0060777934
C0K291,宜梧,2025-07-31,23.536281,120.169329,0.14207716
C1K540,口湖,2025-07-31,23.585344,120.180517,0.1403319
C0R780,滿州,2025-07-31,22.024403,120.839892,0.0011997244
C0V870,文安,2025-07-31,22.8025,120.2164,0.0064284406
C0U650,玉蘭,2025-07-31,24.675286,121.587061,0.9996795
C0R640,東港,2025-07-31,22.46247,120.44074,0.006593634
C0AJ80,板橋,2025-07-31,25.0107,121.4489,0.006058576
C0S660,下馬,2025-07-31,23.150427,121.070312,0.9986201
C1H9B1,阿眉,2025-07-31,24.1263,120.994672,1.0198945e-07
C0UA20,多加屯,2025-07-31,24.368614,121.373189,2.4320919e-08
C0E730,頭份,2025-07-31,24.688247,120.912206,0.015283481
72V140,高改旗南分場,2025-07-31,22.857861,120.516667,0.024249224
C0K480,莿桐,2025-07-31,23.761192,120.502372,0.09822864
C0U980,坪林石牌,2025-07-31,24.86478,121.77396,0.9998143
C0T900,西林,2025-07-31,23.8119,121.441458,0.029061742
C1I150,青雲,2025-07-31,23.793361,120.949378,0.82996386
467350,澎湖,2025-07-31,23.565503,119.563094,0.001941173
C0G800,埔鹽,2025-07-31,24.000394,120.431683,0.01918181
C0H960,草屯,2025-07-31,23.973672,120.68085,0.009602317
C1V780,多納林道,2025-07-31,22.888028,120.737917,0.032568153
C0E920,通霄漁港,2025-07-31,24.498589,120.673876,0.014272129
C0Z330,安通山,2025-07-31,23.290728,121.348528,0.746749
C0AH10,永和,2025-07-31,25.01125,121.508111,0.00619199
C0AK10,太平里,2025-07-31,25.134937,121.364899,0.0061813067
C2G640,鹿港,2025-07-31,24.0753,120.430481,0.01900841
C1E890,國三N149K,2025-07-31,24.463414,120.680019,0.013170734
C1R110,口社,2025-07-31,22.770111,120.645222,0.05303792
C1M870,國三N285K,2025-07-31,23.550319,120.505833,0.12206849
C1E480,鳳美,2025-07-31,24.554803,121.034747,0.9647269
C0M530,奮起湖,2025-07-31,23.493903,120.699253,3.5466198e-07
C0C590,觀音,2025-07-31,25.027072,121.153317,0.0034045647
C0T9M0,靜浦,2025-07-31,23.455167,121.495028,0.057519965
C2H9M0,發祥,2025-07-31,24.154094,121.164517,0.0005246256
C0AI40,石牌,2025-07-31,25.115597,121.513139,0.0060777934
C1F871,上谷關,2025-07-31,24.203483,121.018644,0.99129283
C2H9G0,百勝,2025-07-31,24.051142,120.909361,0.42459792
C0G880,二水,2025-07-31,23.810742,120.6173,0.119765356
C0R940,加祿堂,2025-07-31,22.3363,120.6217,0.006479635
C0W220,北竿,2025-07-31,26.220358,119.974881,0.3007823
C0O960,崎頂,2025-07-31,22.959547,120.369317,0.08752485
C0TA40,秀林,2025-07-31,24.302864,121.731144,0.99688053
C0S750,向陽,2025-07-31,23.248397,120.986133,2.1532841e-08
C0T9F0,水璉,2025-07-31,23.797131,121.542514,0.15363638
C1M600,頭凍,2025-07-31,23.406364,120.603339,0.99920386
467660,臺東,2025-07-31,22.752211,121.154586,0.08610124
C1D380,新埔,2025-07-31,24.84745,121.03834,0.006282536
C2G980,田頭村,2025-07-31,23.8263,120.444175,0.08120981
C0V750,路竹,2025-07-31,22.854997,120.259439,0.007030083
C0N050,蚵寮,2025-07-31,23.301,120.1104,0.06477405
72M700,南改鹿草分場,2025-07-31,23.416869,120.283061,0.14813367
C1SA50,利嘉林道,2025-07-31,22.82325,121.009389,1.8176215e-05
C0UB70,太平山中間站,2025-07-31,24.542003,121.513453,0.68036294
C0A940,金山,2025-07-31,25.223628,121.643967,0.0054970062
C1V340,大津,2025-07-31,22.888322,120.645986,0.08165298
C0W180,七美,2025-07-31,23.219333,119.444892,0.0020889752
C1F9C1,白冷,2025-07-31,24.182844,120.929889,0.9952435
K2E710,苗改生物防治研究中心,2025-07-31,24.422861,120.871833,0.0078211455
C0N040,蘆竹溝,2025-07-31,23.2344,120.0961,0.06459458
C0D760,大坪苗圃,2025-07-31,24.5362,121.1108,8.456584e-07
C2W230,畜試所澎湖,2025-07-31,23.628342,119.513206,0.0013440306
C0R880,後壁湖,2025-07-31,21.9457,120.7457,0.0013129121
C1I280,埔中,2025-07-31,23.820778,120.642594,0.7085553
467790,墾丁雷達站,2025-07-31,21.948235,120.808028,0.0012195001
C0W190,望安,2025-07-31,23.380564,119.494075,0.0021943883
C0Z170,卓溪,2025-07-31,23.3443,121.3029,0.013867456
C0F850,東勢,2025-07-31,24.246428,120.833047,0.12610088
466900,淡水,2025-07-31,25.164889,121.448906,0.0060777934
C0I370,魚池,2025-07-31,23.895703,120.94135,0.99905545
C0C630,大溪,2025-07-31,24.882853,121.265547,0.002864093
C0A520,山佳,2025-07-31,24.974944,121.402008,0.005608975
C0I110,竹山,2025-07-31,23.761225,120.688156,0.11144992
82H840,茶改南部分場,2025-07-31,23.762528,120.7405,0.24363175
C0G660,溪湖,2025-07-31,23.94835,120.479122,0.018848125
C1T800,洛韶,2025-07-31,24.204558,121.453956,0.0003766492
C1T810,慈恩,2025-07-31,24.192044,121.388386,3.4123186e-08
C1E451,象鼻,2025-07-31,24.368617,120.940228,0.9988089
C0AC60,三峽,2025-07-31,24.939025,121.369728,0.003995719
C0I490,萬大林道,2025-07-31,23.928228,121.091411,1.0675343e-07
C1I290,豐丘,2025-07-31,23.668178,120.887417,1.29625e-05
C1I320,奧萬大,2025-07-31,23.952956,121.178556,0.00031390242
C2M910,嘉義大學,2025-07-31,23.471325,120.485903,0.110208355
C0U770,南澳,2025-07-31,24.44935,121.81022,0.021944514
C0A980,社子,2025-07-31,25.109508,121.469681,0.0067926557
C0V800,六龜,2025-07-31,22.997889,120.633583,0.34792852
C1G9D0,國一S218K,2025-07-31,23.890641,120.493253,0.019012446
C0E570,白沙屯,2025-07-31,24.549447,120.696803,0.014272975
C2F9A0,中竹林,2025-07-31,24.103556,120.751061,0.3075271
C0FA40,臺中電廠,2025-07-31,24.2146,120.4907,0.014124114
C2G9A0,畜試所彰化,2025-07-31,23.86045,120.557964,0.098728985
C0H9C0,合歡山,2025-07-31,24.143442,121.272547,3.3971162e-08
C0X060,下營,2025-07-31,23.22695,120.256261,0.06695784
G2M350,農試溪口農場,2025-07-31,23.58565,120.408111,0.15595219
C0U860,頭城,2025-07-31,24.85323,121.8308,0.018046709
C0R580,南州,2025-07-31,22.48591,120.50274,0.006593634
C0D430,峨眉,2025-07-31,24.6905,121.017189,0.006199629
C0G780,秀水,2025-07-31,24.03405,120.503869,0.019448616
72N100,臺南農改場,2025-07-31,23.0605,120.342194,0.0483746
C0S900,蘭嶼高中,2025-07-31,22.04909,121.51214,0.39948633
C1F9W0,德基,2025-07-31,24.254783,121.190261,1.1293291e-08
C1Z120,壽豐,2025-07-31,23.870853,121.508081,0.19013233
C0W160,烏坵,2025-07-31,24.9944,119.44956,0.00848313
C1I240,外大坪,2025-07-31,23.958697,120.917931,0.9994309
C1I550,國六W023K,2025-07-31,23.979067,120.867742,0.1351842
C0R870,興海,2025-07-31,21.9752,120.8439,0.0012511738
C0R140,瑪家,2025-07-31,22.682903,120.686639,0.9979296
C0A530,坪林,2025-07-31,24.938183,121.70975,0.99635637
C0X260,後壁,2025-07-31,23.366358,120.362326,0.073613696
C0Z230,和平,2025-07-31,24.30717,121.77007,0.022305014
C0G770,福興,2025-07-31,24.041289,120.437669,0.019094154
C0H9A0,神木村,2025-07-31,23.532742,120.843667,7.607281e-08
C0I460,南投,2025-07-31,23.911469,120.687331,0.009955524
C0I480,梅峰,2025-07-31,24.085272,121.173572,2.9867863e-08
C1V570,吉東,2025-07-31,22.85422,120.5454,0.028016005
C2D740,屯原,2025-07-31,24.067969,121.209389,1.9293743e-08
C2A560,福山,2025-07-31,24.776203,121.502811,0.9996597
C0AH30,五分山,2025-07-31,25.07125,121.780794,0.9997252
C0FA10,松柏,2025-07-31,24.429115,120.617482,0.014272129
72S200,東改班鳩分場,2025-07-31,22.829528,121.077694,0.04528212
72HA00,中改埔里分場,2025-07-31,23.903208,120.963364,0.99876785
C2H9W0,大坪頂農水,2025-07-31,24.043122,120.932781,0.9994208
C0C650,平鎮,2025-07-31,24.897503,121.214636,0.0029831382
C0S930,延平,2025-07-31,22.902581,121.084058,0.03344775
C0UA60,樟樹山,2025-07-31,24.41393,121.78325,0.99981624
C1S670,摩天,2025-07-31,23.199503,121.027,1.3786571e-07
C0V630,茄萣,2025-07-31,22.906642,120.182608,0.0396798
466940,基隆,2025-07-31,25.133314,121.740475,0.0067921546
C0X050,東河,2025-07-31,23.296598,120.385608,0.1751752
C0R770,保力,2025-07-31,22.071122,120.764111,0.0012534065
G2L020,農試嘉義分所,2025-07-31,23.485028,120.473806,0.12303948
C0X240,關子嶺,2025-07-31,23.331169,120.508025,0.7544791
C0I380,集集,2025-07-31,23.828206,120.801467,0.19337414
466990,花蓮,2025-07-31,23.975128,121.613275,0.4211079
C1V220,小關山,2025-07-31,23.154217,120.813603,2.3539888e-08
C1F9G1,慶福山,2025-07-31,24.180853,120.848378,0.9990194
C0FB20,雪山橋,2025-07-31,24.23192,120.9786,3.465559e-08
C0Z250,瑞穗林道,2025-07-31,23.49284,121.30688,0.9856155
C0D590,新豐,2025-07-31,24.87068,120.97721,0.005359716
C0A870,五指山,2025-07-31,25.132153,121.608692,0.99970436
C0UA50,西帽山,2025-07-31,24.555361,121.802628,0.9995153
C0X160,仁德,2025-07-31,22.968258,120.257689,0.040822323
C1H971,六分寮,2025-07-31,23.92507,120.6378,0.5796347
C0W120,西嶼,2025-07-31,23.5626,119.468436,0.0019483811
C0G650,員林,2025-07-31,23.946503,120.585597,0.019165292
C0AD50,鶯歌,2025-07-31,24.951533,121.346294,0.0034090215
C2H9Q0,北東眼山,2025-07-31,24.120939,121.189303,1.9745519e-08
C2H9T0,名間竹圍,2025-07-31,23.859914,120.637572,0.21523772
C0S990,山豬窟,2025-07-31,22.318619,120.857372,0.40911618
C0X190,安平,2025-07-31,22.993161,120.152181,0.040061936
C0K400,斗六,2025-07-31,23.720583,120.541127,0.11206394
12J990,口湖工作站,2025-07-31,23.589978,120.180394,0.14595535
C0O830,北寮,2025-07-31,23.079561,120.495008,0.055267293
C1D410,白蘭,2025-07-31,24.579364,121.079947,9.033118e-06
C0S970,加津林,2025-07-31,22.416211,120.926942,0.0066659437
C0D700,關西,2025-07-31,24.7977,121.1732,0.002747217
C0M810,里佳,2025-07-31,23.389125,120.716647,3.476354e-07
C0U750,龜山島,2025-07-31,24.841667,121.953133,0.9768016
C0R810,內獅,2025-07-31,22.305064,120.642986,0.006462326
C1M390,龍美,2025-07-31,23.406728,120.654417,0.022991756
C2FB60,頭櫃山,2025-07-31,24.129842,120.858925,0.095161825
C1H840,國三N238K,2025-07-31,23.841008,120.707711,0.19811204
CAQ030,崎峰國小,2025-07-31,22.42565,120.49521,0.006593634
C2E520,大湖,2025-07-31,24.414939,120.870872,0.089049
467530,阿里山,2025-07-31,23.508208,120.813242,2.129229e-08
C1E691,南湖,2025-07-31,24.40135,120.837533,0.99926007
C0FA30,梧棲,2025-07-31,24.256003,120.523381,0.014125362
C1V231,高中,2025-07-31,23.134911,120.716711,0.9998057
C0AK30,硬漢嶺,2025-07-31,25.136097,121.426372,0.99985427
C0F9V0,新社,2025-07-31,24.200172,120.815806,0.9066634
C0H890,埔里,2025-07-31,23.972169,120.952425,0.24197862
C0R690,墾丁,2025-07-31,21.966756,120.810269,0.008615744
C0F0D0,審馬陣,2025-07-31,24.381675,121.4203,3.848079e-08
C2W030,金門農試所,2025-07-31,24.448431,118.451786,0.003657274
C0R820,白鷺,2025-07-31,22.454275,120.666219,0.9975853
C0FB00,大雪山,2025-07-31,24.254668,121.007374,2.6505557e-08
C1V190,南天池,2025-07-31,23.27403,120.91176,2.144292e-08
C0E940,雪見,2025-07-31,24.42595,121.01347,3.0917235e-08
K2E360,苗栗農改場,2025-07-31,24.495722,120.829111,0.011907564
CAJ050,海口故事園區,2025-07-31,23.57543,120.14121,0.14086227
C2H9D0,三隻寮,2025-07-31,24.093078,120.861578,0.999455
C0O990,媽廟,2025-07-31,22.99175,120.293525,0.045917023
C0D480,打鐵坑,2025-07-31,24.849664,121.150789,0.0054196673
C0Z220,和平林道,2025-07-31,24.343922,121.656317,0.99986255
C0TA10,花蓮漁港,2025-07-31,23.995322,121.638331,0.44486138
72C440,桃園農改場,2025-07-31,24.950944,121.030583,0.0040762485
C1E711,馬拉邦山,2025-07-31,24.367306,120.901656,0.9942544
C0SB20,富岡,2025-07-31,22.792467,121.192669,0.0820848
C0D560,竹東,2025-07-31,24.767147,121.057881,0.005624611
C0F9U0,南屯,2025-07-31,24.137006,120.637969,0.017971367
C0M720,番路,2025-07-31,23.464657,120.554156,0.19454758
C0F0A0,雪山圈谷,2025-07-31,24.388594,121.236339,3.824919e-08
C1A9N0,四十份,2025-07-31,24.934158,121.593283,0.99972945
C0U760,東澳,2025-07-31,24.52196,121.83318,0.022391038
C0X230,鹽水,2025-07-31,23.272621,120.247641,0.06613388
C2H9H0,苗改南投蜂場,2025-07-31,23.852589,120.693481,0.10974548
C0R950,萬隆國小,2025-07-31,22.507667,120.587817,0.0062444657
467540,大武,2025-07-31,22.35572,120.90374,0.0072759544
C0V370,古亭坑,2025-07-31,22.893178,120.401947,0.0100667225
C1I340,新興橋,2025-07-31,23.563333,120.868728,0.9956726
C0SA80,土坂,2025-07-31,22.453108,120.887572,0.0050154175
C0R160,鹽埔,2025-07-31,22.739558,120.530778,0.024019737
C0AC40,大屯山,2025-07-31,25.175675,121.522408,3.853239e-06
466850,五分山雷達站,2025-07-31,25.071182,121.781205,0.99969643
C2H9L0,馬烈霸,2025-07-31,24.1512,121.201772,1.1074268e-08
C1AI50,國三N016K,2025-07-31,25.034164,121.619664,0.0052068704
C1V600,藤枝,2025-07-31,23.071961,120.757042,1.7707492e-07
C1E601,南勢,2025-07-31,24.572486,120.734842,0.011913759
C0O980,新市,2025-07-31,23.061614,120.298197,0.040822305
C0K420,西螺,2025-07-31,23.800407,120.467394,0.097513594
C0Z050,佳心,2025-07-31,23.34567,121.21316,0.99829704
C0AD30,蘆洲,2025-07-31,25.086594,121.472331,0.006193175
C0V610,梓官,2025-07-31,22.760558,120.267211,0.0066499487
K2F750,種苗改良場,2025-07-31,24.225972,120.800917,0.40794656
C0UA80,大溪漁港,2025-07-31,24.941801,121.902955,0.01859257
C1AI60,國一39K邊坡,2025-07-31,25.064361,121.383836,0.81760824
C0W150,金寧,2025-07-31,24.457703,118.328989,0.0033638396
C0R960,內埔,2025-07-31,22.608483,120.570714,0.006283584
V2C250,八德合作社,2025-07-31,24.93775,121.266389,0.0027293689
C2H9S0,龍南,2025-07-31,23.953536,120.833183,0.9850802
C0AH40,平等,2025-07-31,25.129142,121.577086,0.99971014
C0R540,佳冬,2025-07-31,22.419456,120.552375,0.006446884
466950,彭佳嶼,2025-07-31,25.627975,122.079744,0.063161395
C0A890,雙溪,2025-07-31,25.036003,121.864242,0.005174794
C0C480,桃園,2025-07-31,24.992425,121.323172,0.0030770325
C0AH50,林口,2025-07-31,25.072181,121.38084,0.98058516
A2K360,水試臺西試驗場,2025-07-31,23.717231,120.190522,0.02057713
C2M960,外寮,2025-07-31,23.562643,120.665688,0.9772187
C0F9S0,烏日,2025-07-31,24.107058,120.624103,0.01829198
C0C490,八德,2025-07-31,24.928708,121.283289,0.002751677
C0R190,赤山,2025-07-31,22.592333,120.614306,0.0062177326
C0T820,天祥,2025-07-31,24.179597,121.495639,0.99974966
C1F9E1,龍安,2025-07-31,24.1605,120.831961,0.96938705
C0V820,小林,2025-07-31,23.148408,120.63325,0.9578887
C2G870,芳苑,2025-07-31,23.922303,120.320025,0.019823913
C0E850,大河,2025-07-31,24.618069,120.948578,0.013016293
C1U670,寒溪,2025-07-31,24.634,121.71691,0.06823857
C0N020,城西,2025-07-31,23.0568,120.0956,0.06695784
C1Z110,三棧,2025-07-31,24.11557,121.60501,0.9987118
C0R280,檳榔,2025-07-31,22.076078,120.836777,0.00555957
C2H9J0,中台,2025-07-31,23.9996,120.938739,0.99020845
C0F9L0,后里,2025-07-31,24.310436,120.729725,0.060247075
467441,高雄,2025-07-31,22.730432,120.312516,0.0068561463
C0Z180,新城,2025-07-31,24.040486,121.604878,0.28460416
C0D540,橫山,2025-07-31,24.71116,121.11693,0.005112485
C1D420,太閣南,2025-07-31,24.632808,121.160575,0.01393307
C1E770,公館,2025-07-31,24.526914,120.830806,0.013102779
CAN130,水試所海水繁養殖中心,2025-07-31,23.120802,120.07968,0.06431018
C1I430,翠華,2025-07-31,24.191961,121.224339,2.3920668e-08
C1M400,菜瓜坪,2025-07-31,23.251928,120.576103,0.93395156
C0G730,二林,2025-07-31,23.903325,120.376081,0.019448616
72M360,南改義竹分場,2025-07-31,23.360694,120.279361,0.07068802
V2K620,麥寮合作社,2025-07-31,23.753836,120.294783,0.01990401
C0Z070,舞鶴,2025-07-31,23.46811,121.37407,0.07228312
C0B040,大武崙,2025-07-31,25.166676,121.706993,0.0054970062
C1Z030,紅葉,2025-07-31,23.493119,121.338806,0.029925933
C1I050,丹大,2025-07-31,23.753747,121.141147,2.1514245e-08
C0I080,信義,2025-07-31,23.689694,120.851036,0.9874218
C0D750,樂山林道6k,2025-07-31,24.49999,121.08773,2.4115272e-08
C2M920,朴子農改,2025-07-31,23.469889,120.259383,0.14879026
C2A880,福隆,2025-07-31,25.017842,121.942083,0.01859257
C0Z160,鳳林,2025-07-31,23.746114,121.453411,0.03851935
C0UB80,翠峰林道6K,2025-07-31,24.49773,121.568625,3.983109e-08
C0V210,復興,2025-07-31,23.222403,120.806089,0.99981225
C0H990,昆陽,2025-07-31,24.121322,121.273642,2.8611606e-08
C0R741,獅子,2025-07-31,22.202308,120.705236,0.0062580984
C0S710,鹿野,2025-07-31,22.917711,121.122994,0.3643966
C0I530,小奇萊,2025-07-31,24.131764,121.295717,2.9666817e-08
C0FA70,大雪山埡口,2025-07-31,24.26867,121.03062,2.3813417e-08
C2K630,荷苞,2025-07-31,23.657717,120.595144,0.11144992
C0Z080,富源,2025-07-31,23.587642,121.378225,0.30217877
C0SB10,美和,2025-07-31,22.682078,121.060236,0.097307876
C2K620,馬光農場,2025-07-31,23.721453,120.378864,0.08263766
C1I140,卡奈托灣,2025-07-31,23.754364,121.087872,1.6766277e-08
C0I520,玉山風口,2025-07-31,23.470489,120.955994,4.2026226e-08
C1G691,下水埔,2025-07-31,23.816114,120.5676,0.11435841
C0X110,臺南市南區,2025-07-31,22.961189,120.188378,0.04053446
C0V680,仁武,2025-07-31,22.701083,120.347722,0.0069982563
C2G840,北斗,2025-07-31,23.877586,120.514222,0.01917507
C0R900,竹坑,2025-07-31,22.1385,120.7022,0.006479635
C0K250,崙背,2025-07-31,23.75555,120.318925,0.019611733
C0G860,社頭,2025-07-31,23.897647,120.5862,0.01884997
C0X150,安定,2025-07-31,23.102614,120.227839,0.0396798
C0R590,里港,2025-07-31,22.77919,120.49459,0.023898356
C0E610,馬都安,2025-07-31,24.451272,120.930192,0.9995009
C0E550,明德,2025-07-31,24.583486,120.885411,0.013208856
C0R150,三地門,2025-07-31,22.709889,120.639944,0.050581165
C0G910,花壇,2025-07-31,24.032076,120.549461,0.018979
C1D400,鳥嘴山,2025-07-31,24.71909,121.28387,0.99954784
C0K500,元長,2025-07-31,23.64981,120.315024,0.019421805
C0F0B0,石岡,2025-07-31,24.276061,120.777644,0.06968389
C2V250,甲仙,2025-07-31,23.080106,120.591758,0.5091044
C0SA20,金崙山,2025-07-31,22.567419,120.959667,0.9364434
C0V350,溪埔,2025-07-31,22.738578,120.446797,0.022220632
C0M660,溪口,2025-07-31,23.604131,120.403569,0.15675174
C1S880,壽卡,2025-07-31,22.238911,120.858903,0.9746129
72D680,桃改新埔分場,2025-07-31,24.834444,121.066111,0.0064516934
