站號,站名,日期,lat,lon,BLBTSLS
K2F750,種苗繁殖,2025-03-22,24.225972,120.800917,7.0872876e-09
467990,馬祖,2025-03-22,26.169269,119.923419,1.4818498e-08
C2E540,後龍,2025-03-22,24.606489,120.783933,1.1082371e-05
467300,東吉島,2025-03-22,23.25695,119.667467,0.99943775
G2F820,農業試驗所,2025-03-22,24.031261,120.688133,2.6154007e-06
467410,臺南,2025-03-22,22.993239,120.204772,2.3022834e-07
E2S960,林試太麻里2,2025-03-22,22.598014,120.989761,7.860887e-07
72C440,桃園農改,2025-03-22,24.950944,121.030583,2.5436924e-07
C1H860,瑞岩,2025-03-22,24.123772,121.18345,7.6569755e-09
72G600,臺中農改,2025-03-22,24.003028,120.534389,1.2231278e-07
72N100,臺南農改,2025-03-22,23.0605,120.342194,1.2554935e-07
72T250,花蓮農改,2025-03-22,23.975222,121.563889,2.4000357e-07
467620,蘭嶼,2025-03-22,22.036969,121.558339,0.9998692
K2E360,苗栗農改,2025-03-22,24.495722,120.829111,8.952444e-08
467050,新屋,2025-03-22,25.006744,121.047486,2.867928e-07
467550,玉山,2025-03-22,23.487614,120.959522,4.46966e-08
466881,新北,2025-03-22,24.9593,121.52,1.1810421e-07
467540,大武,2025-03-22,22.355675,120.903789,1.0431079e-06
72Q010,高雄農改,2025-03-22,22.709333,120.525889,1.8144778e-09
U2H480,臺大溪頭,2025-03-22,23.670306,120.798194,3.2532557e-09
C0Z180,新城,2025-03-22,24.03946,121.60454,1.7280918e-08
B2N890,畜試所,2025-03-22,23.058972,120.336406,1.5235754e-07
467441,高雄,2025-03-22,22.7304,120.3125,3.92954e-06
