站號,站名,日期,lat,lon,BLBTSLS
C0R710,龍磐,2025-11-06,21.931672,120.838942,0.8579776
C1F9D1,白毛台,2025-11-06,24.158325,120.886933,1.7063365e-09
C0G940,竹塘,2025-11-06,23.848253,120.386764,0.87741596
467590,恆春,2025-11-06,22.003897,120.746339,0.96178836
C1O850,環湖,2025-11-06,23.148617,120.418633,5.445062e-05
C0U710,太平山,2025-11-06,24.505486,121.525656,5.375195e-08
C0E820,獅潭,2025-11-06,24.539133,120.920042,3.898343e-08
C2SD70,二層坪,2025-11-06,22.94105,121.16838,0.9280711
C0V880,興達,2025-11-06,22.8778,120.2127,0.99141157
C0S890,關山,2025-11-06,23.0395,121.175017,0.023225753
C0SB30,新蘭,2025-11-06,22.869214,121.223228,0.43809074
C2R970,屏科大,2025-11-06,22.648275,120.619247,0.9997183
C1Z130,銅門,2025-11-06,23.965694,121.492842,0.44794193
C0AD40,土城,2025-11-06,24.973208,121.445169,0.0018346363
CAN140,六官養殖協會,2025-11-06,23.22881,120.29962,0.9950733
C0X180,山上,2025-11-06,23.0757,120.363253,0.09168397
C0F9Z0,雪山東峰,2025-11-06,24.388792,121.268675,1.10985425e-08
C1M480,獨立山,2025-11-06,23.537022,120.607797,9.506672e-10
C0X220,學甲,2025-11-06,23.230367,120.182187,0.9683301
467650,日月潭,2025-11-06,23.881325,120.90805,2.7508886e-09
A2K570,古坑(花卉中心),2025-11-06,23.633531,120.552392,0.016283838
C0K600,箔子寮,2025-11-06,23.6197,120.14,0.34855548
C0G830,埤頭,2025-11-06,23.866003,120.452806,0.999714
C0S950,七塊厝,2025-11-06,22.954453,121.229922,3.2494456e-06
467110,金門,2025-11-06,24.407306,118.289281,0.9998532
C0AH80,深坑,2025-11-06,25.002703,121.628328,0.9968108
C0A970,三貂角,2025-11-06,25.007606,122.002058,0.022981156
C2D730,寶山農場,2025-11-06,24.732444,120.976153,0.25537732
C0K430,褒忠,2025-11-06,23.690938,120.303634,0.99542695
467480,嘉義,2025-11-06,23.495925,120.432906,0.9986957
C0V400,阿公店,2025-11-06,22.804194,120.355528,0.9552973
C0E960,觀霧分站,2025-11-06,24.505781,121.113921,4.678054e-09
467550,玉山,2025-11-06,23.48718,120.95943,1.6162582e-08
C0R440,大漢山,2025-11-06,22.405264,120.753181,3.4566007e-08
C0SD30,東清國小,2025-11-06,22.057128,121.564922,0.9848741
C0K280,四湖,2025-11-06,23.630414,120.227125,0.27428314
C1F9B1,桐林,2025-11-06,24.066172,120.735194,0.0006483631
C2H9U0,鳳鵬,2025-11-06,23.763919,120.788061,2.3731671e-07
C0K390,土庫,2025-11-06,23.679029,120.395574,0.9993995
C1I450,望鄉山,2025-11-06,23.594153,120.944286,7.764616e-09
C0E910,海埔,2025-11-06,24.648767,120.772435,0.006768917
B2E890,畜試北區分所,2025-11-06,24.527806,120.770972,0.0148347495
C0R750,四林格山,2025-11-06,22.076989,120.802439,0.9144856
C0F0C0,中坑,2025-11-06,24.248517,120.903319,1.4644845e-09
C1I121,大鞍,2025-11-06,23.678381,120.760017,3.134658e-09
C2G9E0,移民庄,2025-11-06,23.9784,120.40283,0.9791311
72U480,花改蘭陽分場,2025-11-06,24.686306,121.716583,5.6230838e-09
C0A770,科教館,2025-11-06,25.096356,121.516507,7.047752e-05
C0AJ60,六塊厝,2025-11-06,25.24,121.4481,0.99876887
C0R620,墾雷,2025-11-06,21.900836,120.855269,0.8746702
467420,永康,2025-11-06,23.038386,120.2367,0.99849254
C2M530,奮起湖,2025-11-06,23.493903,120.699253,1.9340085e-09
C0I410,名間,2025-11-06,23.837053,120.701447,6.270452e-05
A2C560,農工中心,2025-11-06,24.985917,121.239833,0.9997841
C0V740,旗山,2025-11-06,22.888614,120.483597,0.9994926
C0Z061,玉里,2025-11-06,23.3215,121.339656,4.91282e-08
C0S840,南田,2025-11-06,22.279725,120.889208,0.19931611
C1I470,杉林溪,2025-11-06,23.639517,120.786444,3.7412904e-09
C1X040,東原,2025-11-06,23.291597,120.463822,1.12196105e-07
C0R660,枋寮,2025-11-06,22.367722,120.590647,0.36210114
C1R120,上德文,2025-11-06,22.763272,120.704442,9.3943795e-09
C0K450,大埤,2025-11-06,23.646074,120.431537,0.99913216
C0UA00,土場,2025-11-06,24.576533,121.495333,0.0012523864
467080,宜蘭,2025-11-06,24.763975,121.756528,3.1771061e-09
C0N030,四草,2025-11-06,23.0235,120.1116,0.8405062
467410,臺南,2025-11-06,22.99328,120.20492,0.9531732
C0V650,彌陀,2025-11-06,22.783806,120.246361,0.99854255
C0D660,新竹市東區,2025-11-06,24.798681,120.986942,0.0030629172
82S580,茶改東部分場,2025-11-06,22.907694,121.130139,0.9822205
C0SB40,興隆,2025-11-06,22.913661,121.257469,0.3536439
467050,新屋,2025-11-06,25.006725,121.047492,0.062065233
C0C710,大溪永福,2025-11-06,24.892936,121.324975,0.66157943
C0FA20,溫寮,2025-11-06,24.372177,120.583125,0.014924678
C0V640,湖內,2025-11-06,22.887139,120.2445,0.99141157
C0R910,下寮,2025-11-06,22.3929,120.5548,0.9997614
C0Z020,明里,2025-11-06,23.208717,121.262342,0.00022280139
C0M770,嘉義梅山,2025-11-06,23.585398,120.555587,0.49935332
C0C660,楊梅,2025-11-06,24.912375,121.143047,0.99932146
C0SD40,牛頭山,2025-11-06,22.676661,121.506944,0.6938106
C1E511,新開,2025-11-06,24.347703,120.827019,5.9268285e-08
G2F820,農試所(霧峰),2025-11-06,24.031261,120.688133,0.0024237717
C2M990,大巃頂,2025-11-06,23.5547,120.61439,1.9563433e-09
C1I070,和社,2025-11-06,23.591131,120.888861,4.0745083e-09
C2E990,新坪頂,2025-11-06,24.30201,120.8574,1.0429652e-09
C0TA80,立霧山,2025-11-06,24.183258,121.641899,2.4635625e-07
C2F000,大肚,2025-11-06,24.15295,120.572117,0.036774963
C1S850,豐南,2025-11-06,23.122139,121.262389,4.4286214e-08
C2M9B0,西興,2025-11-06,23.2428,120.57617,3.315567e-09
C2A920,富貴角,2025-11-06,25.263783,121.565258,0.998918
CAH030,茶改場竹圍站,2025-11-06,23.860083,120.637528,2.6334058e-07
C0T960,光復,2025-11-06,23.660694,121.424964,7.37968e-07
C0F9M0,豐原,2025-11-06,24.254322,120.720692,1.3735324e-07
C0R720,旭海,2025-11-06,22.205403,120.887614,0.14658429
C0V710,苓雅,2025-11-06,22.622742,120.330669,0.8367035
C0C740,觀音工業區,2025-11-06,25.064764,121.114856,0.0429831
CAC040,拉拉山,2025-11-06,24.699317,121.427133,1.55251e-07
C0V790,萬山,2025-11-06,22.905944,120.688056,0.12690647
U2HA30,臺大和社,2025-11-06,23.590856,120.888864,4.0745083e-09
C2H9K0,屯原,2025-11-06,24.067969,121.209389,2.140503e-09
C0AJ90,澳底,2025-11-06,25.0552,121.9253,0.0595821
C0Z100,東華,2025-11-06,23.89525,121.549833,0.740459
C0G970,三豐,2025-11-06,23.882,120.2895,0.3124232
V2K610,大庄合作社,2025-11-06,23.8068,120.367939,0.9494038
C0V900,汕尾,2025-11-06,22.4782,120.4151,0.9994961
C1R630,龍泉,2025-11-06,22.66701,120.59091,0.9997183
C1AC50,關渡,2025-11-06,25.133486,121.469331,7.863386e-06
C0C800,四稜,2025-11-06,24.64733,121.4293,5.235644e-07
C0F9I0,神岡,2025-11-06,24.272481,120.658314,7.1372233e-06
C0K460,斗南,2025-11-06,23.678734,120.478359,0.99913216
C2O810,曾文,2025-11-06,23.219681,120.497328,4.945241e-07
467280,後龍,2025-11-06,24.648563,120.831834,0.008281069
C1F9J1,清水林,2025-11-06,24.071242,120.820419,6.5982925e-10
C2A650,火燒寮,2025-11-06,25.002719,121.742892,0.0033867997
466930,竹子湖,2025-11-06,25.162078,121.544547,1.2582847e-08
C1I220,樟湖,2025-11-06,23.905333,120.846983,2.1510953e-09
C0I390,仁愛,2025-11-06,24.022122,121.132206,7.2019823e-10
C0Z300,東里,2025-11-06,23.26853,121.30547,3.820748e-08
C1V590,新發,2025-11-06,23.057019,120.646064,1.87569e-08
C0K510,水林,2025-11-06,23.572924,120.24597,0.97729135
72S590,東改賓朗果園,2025-11-06,22.813889,121.071278,0.86248577
82A750,茶改北部分場,2025-11-06,24.955778,121.631222,0.0008487505
C1A750,石碇服務區,2025-11-06,25.00872,121.646242,0.7879578
C0X300,鹿寮,2025-11-06,23.386047,120.477331,0.9951108
G2AI50,關渡,2025-11-06,25.11575,121.492,0.005102432
C0K590,雲林東勢,2025-11-06,23.674192,120.255721,0.99680656
C2K310,港尾布雞,2025-11-06,23.74834,120.38439,0.99966365
C0A570,桶後,2025-11-06,24.848222,121.597992,0.021764101
C1S800,華源,2025-11-06,22.657883,121.02325,0.12824565
C0G720,溪州,2025-11-06,23.851589,120.499093,0.999714
C1V160,達卡努瓦,2025-11-06,23.279811,120.705319,2.050797e-09
C2M410,馬頭山,2025-11-06,23.324361,120.582017,5.1170434e-07
C0V850,蚵仔寮,2025-11-06,22.7256,120.2527,0.998436
C0S740,池上,2025-11-06,23.119628,121.209469,6.0955936e-06
C1V390,尖山,2025-11-06,22.813153,120.367789,0.9552973
C0AH70,松山,2025-11-06,25.04871,121.55042,7.047752e-05
C0N010,鯤鯓國小,2025-11-06,23.1879,120.0889,0.89116615
C0R550,新埤,2025-11-06,22.467947,120.582894,0.41091532
C0SA60,知本（水試所）,2025-11-06,22.702394,121.082761,0.0621641
C0T9I0,豐濱,2025-11-06,23.583897,121.514806,0.0063316217
C0UB00,淡江大學蘭陽校園,2025-11-06,24.823239,121.730383,1.2337219e-07
C0W240,九宮,2025-11-06,24.423753,118.240186,0.9998381
C0T9N0,富里,2025-11-06,23.171639,121.249378,2.457988e-05
U2HA50,臺大竹山,2025-11-06,23.756972,120.681556,0.0012063697
C0V840,鳳鼻頭,2025-11-06,22.5083,120.3591,0.9995217
C0X140,西港,2025-11-06,23.125608,120.203108,0.9662172
72D080,桃改五峰分場,2025-11-06,24.612194,121.157167,1.96412e-09
C2H9P0,伊拿谷,2025-11-06,23.963211,121.088264,7.4786566e-10
C2K250,崙背,2025-11-06,23.75553,120.31893,0.99542695
C2H9F0,柑林,2025-11-06,24.018658,120.847072,2.375919e-09
C0TA20,加灣,2025-11-06,24.082025,121.608944,0.9985957
C0V530,阿蓮,2025-11-06,22.883208,120.327508,0.99875665
C0FB30,八仙山苗圃,2025-11-06,24.192719,121.001366,1.5165504e-09
C1O880,關山,2025-11-06,23.173397,120.594092,2.6436185e-08
C0E791,卓蘭,2025-11-06,24.3126,120.8244,3.3364845e-08
C1I030,武界,2025-11-06,23.913225,121.052483,1.1470319e-09
C0R520,崁頂,2025-11-06,22.514781,120.506914,0.9995999
C0R341,牡丹,2025-11-06,22.130036,120.792639,0.48966902
C0R930,萬丹,2025-11-06,22.5885,120.4851,0.99840915
C0S760,紅石,2025-11-06,23.069131,121.126219,2.839615e-08
C2C410,中央大學,2025-11-06,24.967652,121.185165,0.9997841
C1M610,石磐龍,2025-11-06,23.496606,120.663506,1.8527478e-09
C0C790,東眼山,2025-11-06,24.8284,121.40888,5.334461e-06
C0UA10,鴛鴦湖,2025-11-06,24.590269,121.412228,1.0656505e-07
V2C260,八德蔬果,2025-11-06,24.978508,121.281819,0.9953341
C0R800,丹路,2025-11-06,22.204481,120.750989,0.098828286
C0G920,永靖,2025-11-06,23.924703,120.547533,0.99936295
C2M950,太和,2025-11-06,23.538372,120.702961,1.935525e-09
C1A630,下盆,2025-11-06,24.771003,121.538622,2.41671e-05
B2N890,畜產試驗所,2025-11-06,23.058972,120.336406,0.99908614
C0UA30,白嶺,2025-11-06,24.527819,121.519031,6.7098945e-08
467571,新竹,2025-11-06,24.828575,121.01455,0.010757396
C1V580,溪南(特生中心),2025-11-06,23.084972,120.788475,2.7743101e-09
C1T970,大農,2025-11-06,23.615233,121.413331,2.1218327e-07
C0R650,竹田,2025-11-06,22.58486,120.54344,0.99984705
C1H900,清流,2025-11-06,24.080775,120.962997,6.924533e-10
C1C510,水尾,2025-11-06,24.940081,121.087161,0.16469564
C2N170,茅港尾,2025-11-06,23.2061,120.2624,0.9950733
C0F9X0,大雅(中科園區),2025-11-06,24.21528,120.62445,0.00020943572
C0SB60,白守蓮,2025-11-06,23.126769,121.401914,0.09840572
C0O970,虎頭埤,2025-11-06,23.021375,120.347878,0.3515771
C0C730,中大臨海站,2025-11-06,24.966126,121.008581,0.041845232
C0X250,新營,2025-11-06,23.310689,120.316681,0.99154747
C0V700,三民,2025-11-06,22.645017,120.311233,0.99989855
C0U870,大礁溪,2025-11-06,24.791042,121.675047,6.418864e-08
C0E870,高鐵苗栗,2025-11-06,24.60725,120.826094,0.008281069
A2K570,古坑花卉中心,2025-11-06,23.63353,120.55239,0.49165857
C0TA30,鹽寮,2025-11-06,23.845606,121.592664,0.85188633
C0M860,新美,2025-11-06,23.338017,120.683169,1.6243359e-09
C1E701,八卦,2025-11-06,24.491756,120.927619,3.850096e-09
C2TA90,加納納,2025-11-06,23.466421,121.359867,0.0006537395
C0I420,國姓,2025-11-06,24.037803,120.855072,1.9949096e-09
C2D720,關西工作站,2025-11-06,24.757275,121.184792,0.9949372
C0S960,香蘭,2025-11-06,22.587569,120.993375,0.53858304
467620,蘭嶼,2025-11-06,22.0369,121.55843,0.7186006
C0R260,春日,2025-11-06,22.370361,120.628306,0.35294852
72G600,臺中農改場,2025-11-06,24.003028,120.534389,0.9994881
C0Z210,瑞穗,2025-11-06,23.5239,121.39021,0.0124424985
C0M820,達邦,2025-11-06,23.453994,120.749517,1.3267257e-09
C0V860,南寮,2025-11-06,22.7616,120.2339,0.99843484
C0G740,大城,2025-11-06,23.852487,120.320935,0.3124232
C0R920,塭仔,2025-11-06,22.4169,120.5197,0.9997614
C0R470,高樹,2025-11-06,22.826389,120.600806,0.99965197
C0R680,佳樂水,2025-11-06,21.993578,120.861633,0.8579776
C1O870,大棟山,2025-11-06,23.31157,120.52226,1.143731e-09
C0D360,梅花,2025-11-06,24.678347,121.208558,3.3947072e-07
C0Z190,富世,2025-11-06,24.14743,121.6297,0.9997825
C0AI10,屈尺,2025-11-06,24.92184,121.54475,0.0008558448
B2U990,畜試東區分所,2025-11-06,24.669039,121.832561,5.0396175e-06
C0SB80,長濱漁港,2025-11-06,23.313644,121.459994,0.002387508
C0TA50,和仁,2025-11-06,24.241394,121.712472,0.41589966
C0V910,大樹,2025-11-06,22.684645,120.432803,0.99930817
C1R610,西大武山,2025-11-06,22.617719,120.7322,7.3469746e-09
C0G900,線西,2025-11-06,24.143358,120.443536,0.7433935
C0M700,竹崎,2025-11-06,23.526178,120.555508,0.87777966
C2E880,三義,2025-11-06,24.405478,120.749819,7.12099e-08
C0C720,竹圍,2025-11-06,25.112692,121.239824,0.9893715
C0F9P0,清水,2025-11-06,24.312297,120.562242,0.30364993
C0Z150,吉安光華,2025-11-06,23.930925,121.595153,0.98984146
C0FA80,小雪山天池,2025-11-06,24.28025,121.02627,1.023308e-08
467300,東吉島,2025-11-06,23.25727,119.66762,0.9915995
C1D640,外坪(五指山),2025-11-06,24.644447,121.090961,5.037684e-09
C2R9A0,高士國小,2025-11-06,22.12553,120.84653,0.48966902
C0F9O0,潭子,2025-11-06,24.213106,120.703933,1.3735324e-07
C2H9R0,卓社,2025-11-06,23.887894,121.000086,1.0998482e-09
72T250,花蓮農改場,2025-11-06,23.975222,121.563889,0.9826096
C0E780,銅鑼,2025-11-06,24.489681,120.790853,0.0148347495
C1T950,太安,2025-11-06,23.666719,121.370128,1.05745436e-07
C0E830,苑裡,2025-11-06,24.439714,120.653053,0.0045673866
467270,田中,2025-11-06,23.873803,120.581286,0.49755025
C0SA10,檳榔四格山,2025-11-06,22.810031,121.109308,0.3847251
C1T830,布洛灣,2025-11-06,24.17184,121.57127,0.99335265
C0F970,大坑,2025-11-06,24.173142,120.722289,0.00090830325
C1U920,思源,2025-11-06,24.393125,121.347214,4.093189e-08
C2H9Y0,松茗,2025-11-06,23.8167,120.650765,3.2988776e-08
C0A931,三和,2025-11-06,25.233153,121.595236,0.0014243834
C0I010,廬山,2025-11-06,24.033311,121.181808,1.3830042e-09
C2M940,日野賀,2025-11-06,23.434056,120.727169,2.2226105e-09
C0R860,鼻頭,2025-11-06,22.1043,120.8979,0.29944062
C0UB20,壯圍,2025-11-06,24.7359,121.8163,4.64793e-09
C0R790,九棚,2025-11-06,22.14195,120.889281,0.25461993
C0W110,東莒,2025-11-06,25.9652,119.98069,0.9960346
C1U930,粉鳥林,2025-11-06,24.497088,121.842479,0.0029331218
C1I211,蘆竹湳,2025-11-06,23.934019,120.811994,4.349434e-10
C0S830,長濱,2025-11-06,23.286817,121.411975,1.452116e-08
C1F9F1,伯公龍,2025-11-06,24.272392,120.849047,3.9156074e-09
C0UB90,太平山莊,2025-11-06,24.494171,121.536209,5.3454535e-08
C0E810,西湖,2025-11-06,24.562947,120.7485,0.838265
C1I440,新高口,2025-11-06,23.478744,120.878939,4.045755e-09
C0O840,王爺宮,2025-11-06,23.222064,120.40085,0.9995359
C0T9G0,鳳林山,2025-11-06,23.735269,121.420131,7.9656337e-07
C0X080,佳里,2025-11-06,23.173039,120.145086,0.9082888
C0FB70,大甲溪埔,2025-11-06,24.370625,120.620067,0.014924678
C0Z310,清水斷崖,2025-11-06,24.218294,121.689142,0.0039520385
C0M680,太保,2025-11-06,23.455062,120.331455,0.9986912
C1S820,金峰,2025-11-06,22.590969,120.933236,0.8910456
C0AD10,八里,2025-11-06,25.150211,121.403947,0.9976042
C2K240,草嶺,2025-11-06,23.59555,120.693461,2.3465598e-09
C1SA70,都蘭,2025-11-06,22.87794,121.226881,0.5001014
C0K440,二崙,2025-11-06,23.772797,120.408944,0.99955577
C1A760,坪林交控,2025-11-06,24.94284,121.713442,0.1526729
C0F9N0,大里,2025-11-06,24.092464,120.701378,0.00051033776
C0SA90,達仁林場,2025-11-06,22.264347,120.823972,0.9873852
C1R290,石門山,2025-11-06,22.112611,120.756597,0.7361252
42HA10,萬大發電廠,2025-11-06,23.978875,121.139639,7.658666e-10
C0R890,山海,2025-11-06,21.9878,120.7091,0.96178836
C0T9A0,月眉山,2025-11-06,23.809928,121.539828,1.5794202e-08
C0AC70,信義,2025-11-06,25.037822,121.564597,0.0011174531
C0K560,棋山,2025-11-06,23.68645,120.603417,0.051367406
C2FB50,出雲,2025-11-06,24.206469,120.902794,1.3441608e-09
C1Z240,中平林道,2025-11-06,23.42115,121.26763,3.2176447e-07
U2H480,溪頭,2025-11-06,23.670306,120.798194,1.8618095e-09
C0M880,好美里,2025-11-06,23.3364,120.138,0.96919054
C0T9E0,大坑,2025-11-06,23.880628,121.581981,5.4915233e-07
C0K530,臺西,2025-11-06,23.701547,120.197559,0.5441216
C1E900,國一N128K,2025-11-06,24.560997,120.844186,0.035886493
C0AJ50,水湳洞,2025-11-06,25.123695,121.862238,0.0512617
C0AI20,白沙灣,2025-11-06,25.283128,121.519058,0.9989462
C2V310,美濃,2025-11-06,22.898792,120.51907,0.9994926
C0A860,大坪,2025-11-06,25.165914,121.632969,1.1116519e-05
C1U850,觀音海岸,2025-11-06,24.38319,121.77856,4.1087214e-09
C2K610,草嶺石壁,2025-11-06,23.602469,120.707731,2.3050828e-09
C0U950,鶯子嶺,2025-11-06,24.89754,121.79244,1.0807342e-07
C0O900,善化,2025-11-06,23.112883,120.297219,0.99908614
C0K550,蔦松,2025-11-06,23.514319,120.229736,0.45628384
E2P980,林試六龜中心,2025-11-06,22.991703,120.645722,0.9974519
C0E590,通霄,2025-11-06,24.471892,120.704622,0.004160213
C1I310,西巒,2025-11-06,23.754486,120.883956,1.3503872e-09
C0A550,泰平,2025-11-06,24.971197,121.823711,6.808156e-05
C0I360,水里,2025-11-06,23.812553,120.849792,4.434181e-09
C0R830,高士,2025-11-06,22.121825,120.836781,0.834083
C1I101,溪頭,2025-11-06,23.661789,120.807647,3.9889687e-09
C0AJ20,野柳,2025-11-06,25.20703,121.690021,0.99291676
C0B060,暖暖,2025-11-06,25.0957,121.7403,0.89308053
C1H920,長豐,2025-11-06,24.102039,120.879897,1.2813847e-09
C2S9B0,利吉,2025-11-06,22.86246,121.15486,0.9822205
C0V360,內門,2025-11-06,22.975481,120.466769,1.2072956e-05
C0R850,林邊,2025-11-06,22.4634,120.5339,0.9993294
C0E930,龍鳳,2025-11-06,24.700034,120.859125,0.2403438
C0U910,冬山,2025-11-06,24.63373,121.7937,5.0396175e-06
C1E721,泰安,2025-11-06,24.489017,120.968036,3.3513625e-09
82H320,茶改中部分場,2025-11-06,23.875611,120.913583,4.5468473e-09
C0M750,布袋,2025-11-06,23.380878,120.167789,0.4325736
C1S860,利嘉,2025-11-06,22.809417,121.050528,1.1008859e-07
E2S980,林試太麻里1,2025-11-06,22.598922,120.980044,0.70020187
C0X170,關廟,2025-11-06,22.963017,120.327797,0.9991337
C0V720,林園,2025-11-06,22.507747,120.394511,0.99937826
C1I510,線浸林道,2025-11-06,23.761508,120.832956,1.3916808e-09
C0D690,外湖,2025-11-06,24.917735,120.968711,0.7572147
C0C750,新興坑尾,2025-11-06,25.0061,121.0971,0.31246287
B2Q810,畜試南區分所,2025-11-06,21.945583,120.802167,0.8579776
C0S790,金崙,2025-11-06,22.538122,120.966875,0.8368819
C0AH90,福山植物園,2025-11-06,24.760717,121.58135,4.7490657e-06
C0I540,奇萊稜線,2025-11-06,24.109231,121.326456,2.050192e-08
C0M850,表湖,2025-11-06,23.24186,120.64166,9.4937205e-09
C0S770,大溪山,2025-11-06,22.478475,120.943325,0.51057744
C0AG80,中和,2025-11-06,24.991622,121.491792,0.0018346363
C0T790,大禹嶺,2025-11-06,24.186117,121.316086,8.541127e-09
C0T9B0,水源,2025-11-06,23.991861,121.537169,4.7449458e-07
C0R840,牡丹池山,2025-11-06,22.168389,120.841225,0.7552766
C1I131,桶頭,2025-11-06,23.641944,120.654117,0.005985596
CAL110,布袋國中,2025-11-06,23.35893,120.18026,0.96919054
C2M9D0,何竹子腳,2025-11-06,23.53641,120.38203,0.9986957
467571,新竹,2025-11-06,24.827853,121.014219,0.010757396
C0Z290,赤柯山,2025-11-06,23.36893,121.38293,2.4406283e-08
C0X280,將軍,2025-11-06,23.214999,120.13577,0.9634186
C0S690,太麻里,2025-11-06,22.60902,120.98533,3.2058815e-06
C0U880,北關,2025-11-06,24.9072,121.8734,0.048562884
CAW010,東引,2025-11-06,26.3588,120.4836,0.9858354
C0G810,埔心,2025-11-06,23.947633,120.525456,0.99936295
C0U970,大福,2025-11-06,24.80064,121.81389,3.1771061e-09
C2H9N0,仁愛東眼,2025-11-06,24.026875,121.1205,7.911792e-10
C1E670,南礦,2025-11-06,24.538278,121.002836,3.4133907e-09
C0M520,東後寮,2025-11-06,23.369908,120.248065,0.97002006
C1E461,松安,2025-11-06,24.397972,120.986022,1.3670507e-09
C2N160,西拉雅風管處,2025-11-06,23.189481,120.335297,0.99951875
C2M970,碧湖,2025-11-06,23.568632,120.624165,1.9467212e-09
C0A640,石碇,2025-11-06,24.993969,121.662917,0.15209426
E2S960,林試太麻里2,2025-11-06,22.598,120.99775,0.5331968
C0F9Y0,桃山,2025-11-06,24.432739,121.303808,1.8006848e-08
C1I020,萬大,2025-11-06,23.979817,121.132261,7.187217e-10
C2UC20,長嶺,2025-11-06,24.70894,121.61162,5.4743515e-07
C0U940,羅東,2025-11-06,24.68184,121.74934,5.6230838e-09
C0M650,朴子,2025-11-06,23.43463,120.23902,0.99390304
C1I500,大尖山,2025-11-06,23.858572,120.994889,1.9195143e-09
C0FB40,中橫21.6k,2025-11-06,24.2499,121.1455,2.8850353e-09
C0G820,田尾,2025-11-06,23.901669,120.509389,0.99936295
E2K600,四湖植物園,2025-11-06,23.676986,120.163433,0.27340543
C0S730,綠島,2025-11-06,22.6672,121.47533,0.50806975
12Q970,東港工作站,2025-11-06,22.479997,120.466058,0.9993294
C0E430,南庄,2025-11-06,24.601775,121.000214,1.1170222e-07
C1TA00,太魯閣,2025-11-06,24.15773,121.6236,0.99978256
466920,臺北,2025-11-06,25.037658,121.514853,7.047752e-05
C0R600,舊泰武,2025-11-06,22.588194,120.664944,5.010278e-09
C1I260,北坑,2025-11-06,23.9246,121.006903,7.0808155e-09
466910,鞍部,2025-11-06,25.182586,121.529731,5.0876086e-08
C1I230,九份二山,2025-11-06,23.961944,120.845,6.810511e-10
C2M810,里佳,2025-11-06,23.389125,120.716647,2.4851496e-09
C2A660,瑞芳,2025-11-06,25.113169,121.801147,0.9624197
C0R270,琉球嶼,2025-11-06,22.332244,120.362236,3.525362e-06
C2V580,瑞山,2025-11-06,22.90304,120.43424,0.0012082428
C1T990,高寮,2025-11-06,23.394239,121.356808,9.989114e-06
C0G620,芬園,2025-11-06,24.015678,120.6213,0.00017652805
C1Z140,荖溪,2025-11-06,23.890575,121.45964,2.3587647e-07
C1I201,中心崙,2025-11-06,23.728722,120.712097,3.816027e-09
C1I400,凌霄,2025-11-06,24.018778,121.004456,8.1139184e-10
C1M640,十字,2025-11-06,23.492153,120.753683,3.774865e-09
G2P820,農試鳳山分所,2025-11-06,22.646611,120.356083,0.8367035
C0Z270,蕃薯寮,2025-11-06,23.73835,121.540108,2.4254673e-08
C2E420,竹南,2025-11-06,24.70898,120.88897,0.24034375
C0FB10,出雲山苗圃,2025-11-06,24.23105,120.90475,1.4754977e-09
C0F9Q0,外埔,2025-11-06,24.347817,120.705686,3.7899405e-05
C0K580,高鐵雲林,2025-11-06,23.737456,120.417944,0.99966365
C2I090,鳳凰,2025-11-06,23.728081,120.787347,1.4492543e-09
C0U990,員山,2025-11-06,24.74435,121.72247,5.6230838e-09
C0V770,大社,2025-11-06,22.730306,120.346639,0.99985516
C0X120,麻豆,2025-11-06,23.183289,120.248611,0.9947644
C0C670,龍潭,2025-11-06,24.870056,121.221389,0.9979291
C0D680,香山濕地,2025-11-06,24.783581,120.914988,0.7572147
C0S980,勝林山,2025-11-06,22.430439,120.8938,9.690846e-06
C0V730,大寮,2025-11-06,22.605614,120.395717,0.8367035
C0R570,麟洛,2025-11-06,22.65078,120.52719,0.99780756
C2M930,石卓,2025-11-06,23.478744,120.702264,3.7455887e-09
C0G9B0,和美,2025-11-06,24.105169,120.492131,0.87220234
CAG100,王功漁港,2025-11-06,23.96824,120.32586,0.18813553
C0X290,北門,2025-11-06,23.267772,120.125481,0.9633983
C2F930,大甲,2025-11-06,24.347667,120.640403,0.014924678
C0D650,湖口,2025-11-06,24.904794,121.043628,0.16469564
C0E420,竹南,2025-11-06,24.708978,120.888897,0.1211186
C0U780,五結,2025-11-06,24.68637,121.79794,5.0396175e-06
C1I250,鯉潭,2025-11-06,23.961922,120.991131,2.4749889e-09
C0R130,阿禮,2025-11-06,22.742908,120.743678,3.7775156e-09
C0X100,臺南市北區,2025-11-06,23.010394,120.194228,0.9531732
C0S920,金峰嘉蘭,2025-11-06,22.594789,120.960825,0.72472906
C0V490,新興,2025-11-06,22.627422,120.298803,0.9998801
C0F9K0,大安,2025-11-06,24.345061,120.588025,0.014924678
467290,古坑,2025-11-06,23.633639,120.551889,0.016283838
C2E970,八甲,2025-11-06,24.535811,120.795983,0.035886493
C0V440,鳳山,2025-11-06,22.646653,120.356122,0.8367035
C1T940,大觀,2025-11-06,23.714206,121.373133,1.9208557e-08
C0E740,造橋,2025-11-06,24.637056,120.864778,0.008281069
C0R100,尾寮山,2025-11-06,22.833111,120.683889,2.8641511e-09
A2K630,臺大雲林校區,2025-11-06,23.730628,120.423903,0.99966365
467990,馬祖,2025-11-06,26.169467,119.923158,0.97279626
C0D580,寶山,2025-11-06,24.735006,121.025192,0.4912391
E2P990,林試扇平站,2025-11-06,22.9677,120.6857,1.9706578e-08
C0AI30,三重,2025-11-06,25.057328,121.500629,7.047752e-05
C0AH00,汐止,2025-11-06,25.066881,121.658778,0.9827483
C1Z040,立山,2025-11-06,23.443356,121.327375,3.981461e-07
466881,新北,2025-11-06,24.959207,121.525196,0.0020536564
C0W130,花嶼,2025-11-06,23.40007,119.32276,0.9955949
C0A950,鼻頭角,2025-11-06,25.129036,121.923372,0.0595821
C0K470,林內,2025-11-06,23.748675,120.609642,0.051367406
C2F990,摩天嶺,2025-11-06,24.322458,120.936819,1.4178738e-09
C2E430,南庄,2025-11-06,24.601775,121.000214,0.031754848
82C160,茶改場,2025-11-06,24.908472,121.185333,0.99932146
C2TB60,南安,2025-11-06,23.29818,121.26157,2.2763611e-08
C0Z320,清水林道,2025-11-06,23.27125,121.188272,3.5774164e-08
C0R760,南仁湖,2025-11-06,22.084681,120.863353,0.7361252
C0M670,大林,2025-11-06,23.600616,120.45841,0.99899423
C0M800,茶山,2025-11-06,23.299075,120.664767,2.7792941e-09
C0A9C0,天母,2025-11-06,25.117494,121.537169,0.0009900555
72K220,南改斗南分場,2025-11-06,23.634556,120.477333,0.99913216
72AI40,桃改樹林分場,2025-11-06,24.944503,121.386972,1.3323645e-05
C0S910,蘭嶼燈塔,2025-11-06,22.081197,121.503117,0.94376445
C0B050,八斗子,2025-11-06,25.144754,121.79167,0.99362034
C0U900,內城,2025-11-06,24.71813,121.68766,6.573813e-09
C0X320,柳營,2025-11-06,23.253328,120.375253,0.9995359
C0M790,新港,2025-11-06,23.553269,120.345728,0.998655
C0F9T0,西屯,2025-11-06,24.179494,120.641275,0.00020943572
C0E950,松安,2025-11-06,24.39792,120.98599,1.3670507e-09
C0SA30,都歷,2025-11-06,23.020333,121.323642,0.35636535
C0C620,蘆竹,2025-11-06,25.084275,121.265767,0.9981798
C0R730,大坪頂,2025-11-06,22.024633,120.69355,0.12428861
C0AJ40,石門,2025-11-06,25.273672,121.601198,0.99911535
C0E750,苗栗,2025-11-06,24.564569,120.824575,0.035886493
C0T870,鯉魚潭,2025-11-06,23.935639,121.508944,0.72633934
C1V170,排雲,2025-11-06,23.463619,120.954147,1.3657717e-08
C2H950,中寮,2025-11-06,23.884447,120.766406,3.5233445e-08
C0R350,貓鼻頭,2025-11-06,21.921774,120.7358,0.9653314
C0V660,岡山,2025-11-06,22.797078,120.294958,0.99863064
C1H941,雙冬,2025-11-06,23.967378,120.802189,8.683737e-10
C0AJ70,田寮,2025-11-06,25.2698,121.4886,0.9988995
C0AI00,五股,2025-11-06,25.07445,121.42728,8.430108e-07
C0Z280,德武,2025-11-06,23.47426,121.41071,0.002352662
C2RA10,大新,2025-11-06,22.67558,120.57788,0.9997183
C0R700,枋山,2025-11-06,22.246844,120.661086,0.12321151
C0C460,復興,2025-11-06,24.820208,121.352281,0.72552276
C2K300,鹿南,2025-11-06,23.63855,120.3636,0.9993995
E2H360,蓮華池,2025-11-06,23.918333,120.885278,9.02754e-10
C0M640,中埔,2025-11-06,23.42538,120.5229,0.89557123
C0W140,金沙,2025-11-06,24.488292,118.408778,0.99985015
C2A540,四堵,2025-11-06,24.8926,121.745736,0.00047936122
C0ACA0,新莊,2025-11-06,25.051478,121.446756,3.7205475e-05
C0R220,潮州,2025-11-06,22.534361,120.54,0.9995999
U2HA40,臺大內茅埔,2025-11-06,23.689722,120.851117,2.6071643e-08
467490,臺中,2025-11-06,24.145736,120.684075,0.00090830325
C0UB60,明池,2025-11-06,24.650688,121.475277,5.3555215e-07
C0U960,翠峰湖,2025-11-06,24.510856,121.608044,5.462394e-08
E2HA20,林試畢祿溪站,2025-11-06,24.226944,121.308522,4.336878e-09
C2M9A0,大華,2025-11-06,23.4824,120.67491,1.3349959e-09
C0V890,前鎮,2025-11-06,22.5718,120.3117,0.9074038
C1F941,雪嶺,2025-11-06,24.280586,121.026642,1.023308e-08
C2H9E0,國姓南港,2025-11-06,23.911108,120.846556,2.0948825e-09
C0AC80,文山,2025-11-06,25.00235,121.575728,0.9968108
C0F9R0,龍井,2025-11-06,24.184536,120.528972,0.8734203
C0M760,民雄,2025-11-06,23.551754,120.428457,0.99899423
C0UA40,西德山,2025-11-06,24.560647,121.752608,1.033804e-07
C2TA70,赤科坪,2025-11-06,23.39885,121.39168,4.781445e-08
C1T920,中興,2025-11-06,23.769503,121.498653,7.8602774e-05
C0D550,雪霸,2025-11-06,24.526972,121.11605,3.5711083e-09
C2F860,梨山,2025-11-06,24.247522,121.243669,6.4527903e-09
C0R320,車城,2025-11-06,22.0744,120.716247,0.14641343
C1S870,南美山,2025-11-06,23.15025,121.382333,0.004774477
C0B020,基隆嶼,2025-11-06,25.19141,121.78391,0.99242306
C1U501,牛鬥,2025-11-06,24.637836,121.573656,0.055235118
C0M730,嘉義市東區,2025-11-06,23.457673,120.460531,0.99076736
C2R990,泰武,2025-11-06,22.60686,120.69765,9.093789e-08
C0S700,知本,2025-11-06,22.684866,121.005642,5.639305e-07
C1N001,沙崙,2025-11-06,22.935472,120.309406,0.9991337
C0V760,橋頭,2025-11-06,22.757806,120.30575,0.99985516
C0G960,福寶,2025-11-06,24.0443,120.3814,0.97865367
C0X210,白河,2025-11-06,23.347466,120.414427,0.9951108
C0S810,東河,2025-11-06,22.972672,121.303986,0.3588122
C2R170,屏東,2025-11-06,22.66027,120.49403,0.99780756
C0R670,楓港,2025-11-06,22.190131,120.692156,0.1400336
C0FA50,霧峰,2025-11-06,24.0419,120.6995,0.00051033776
C0UB10,蘇澳,2025-11-06,24.5969,121.8571,7.2480198e-06
C0G950,防潮門,2025-11-06,24.1835,120.4871,0.77261
C0M740,六腳,2025-11-06,23.492871,120.290625,0.99756503
C1R250,力里,2025-11-06,22.428117,120.629228,0.31318703
C0K330,虎尾,2025-11-06,23.719183,120.442036,0.99966365
C2FA00,烏石坑,2025-11-06,24.273503,120.947617,1.4301669e-09
C0V620,永安,2025-11-06,22.82315,120.236856,0.99863064
C1I330,楓樹林,2025-11-06,23.986803,121.076117,7.202175e-10
C0W200,湖西,2025-11-06,23.596314,119.67275,0.99767363
72Q010,高雄農改場,2025-11-06,22.709333,120.525889,0.99869424
C0SA40,瑞和,2025-11-06,22.974361,121.156697,0.9280711
C0C680,龜山,2025-11-06,25.02846,121.38656,1.973214e-07
C2V260,月眉,2025-11-06,22.971003,120.539853,0.999065
C0V450,鳳森,2025-11-06,22.545064,120.392592,0.99937826
C0FA90,小雪山林道,2025-11-06,24.29515,121.03651,1.4012276e-08
C0U720,南山,2025-11-06,24.43742,121.38167,2.1961168e-07
A2N290,臺南蘭花園區,2025-11-06,23.340258,120.379661,0.999419
C0R560,新園,2025-11-06,22.5434,120.461558,0.99937826
C0U890,三星,2025-11-06,24.66812,121.65302,5.1034386e-09
C1V300,御油山,2025-11-06,23.001983,120.715364,2.7256624e-09
C0U600,礁溪,2025-11-06,24.817539,121.765608,3.1771061e-09
C1T980,龍澗,2025-11-06,24.023289,121.411328,2.0296703e-07
C0D670,海天一線,2025-11-06,24.831986,120.914438,0.7005496
C0SA00,歷坵,2025-11-06,22.520969,120.89185,0.16553025
C0M710,東石,2025-11-06,23.458927,120.15385,0.43999267
C0M780,鹿草,2025-11-06,23.41134,120.30835,0.99390304
C0U520,雙連埤,2025-11-06,24.753033,121.641303,2.7508514e-07
C0B010,七堵,2025-11-06,25.094819,121.71713,0.99186945
C0R480,長治,2025-11-06,22.693128,120.542622,0.99965537
C1V830,國三S383K,2025-11-06,22.781967,120.426475,0.9993569
12Q980,恆春工作站,2025-11-06,22.079678,120.714425,0.14641343
C1O940,東山服務區,2025-11-06,23.286016,120.398472,0.999419
C1U840,東澳嶺,2025-11-06,24.5378,121.8485,4.30313e-08
C1D630,飛鳳山,2025-11-06,24.766464,121.119178,3.2164128e-06
C0S940,石寧山,2025-11-06,23.223772,121.406639,0.01674012
C0K410,北港,2025-11-06,23.573957,120.292802,0.97729135
C2M620,瑞里,2025-11-06,23.545133,120.675197,1.8527478e-09
C0SB70,小港漁港,2025-11-06,23.158558,121.400431,0.07969521
C2O950,安南,2025-11-06,23.076694,120.144861,0.85536784
C0F0E0,南湖圈谷,2025-11-06,24.363714,121.444667,2.0567837e-08
467610,成功,2025-11-06,23.097486,121.373428,0.26441565
C0G890,伸港,2025-11-06,24.148933,120.484403,0.77261
C2E540,龍溪,2025-11-06,24.606489,120.783933,0.035886493
C1V200,梅山,2025-11-06,23.268447,120.823556,2.8752296e-09
C0T9H0,加路蘭山,2025-11-06,23.682947,121.5274,1.1778922e-08
C2O930,玉井,2025-11-06,23.126042,120.46055,5.445062e-05
C1F911,新伯公,2025-11-06,24.221361,120.841069,1.3953096e-08
C0R490,九如,2025-11-06,22.7405,120.490503,0.99869424
C0X200,左鎮,2025-11-06,23.056758,120.408522,0.09168397
C2TB50,麻汝,2025-11-06,23.42554,121.39358,0.002352662
C0FA60,鞍馬山工作站,2025-11-06,24.267064,121.000793,5.234547e-09
C0SB50,叭嗡嗡,2025-11-06,23.047062,121.343223,0.22615515
C1F891,稍來,2025-11-06,24.265689,121.001142,5.0344373e-09
C2M9C0,紫雲,2025-11-06,23.494914,120.540253,0.97616804
72N240,七股研究中心,2025-11-06,23.081672,120.062894,0.8405062
C0C700,中壢,2025-11-06,24.977661,121.256375,0.9953341
C0M690,水上,2025-11-06,23.419734,120.388909,0.9986912
C0V690,鼓山,2025-11-06,22.623325,120.275575,0.9998801
C0O860,大內,2025-11-06,23.11885,120.36083,0.99951875
C0Z200,萬榮,2025-11-06,23.709219,121.420106,5.897172e-08
C0T9D0,和中,2025-11-06,24.26676,121.74103,0.41589966
C2S9A0,北份子寮,2025-11-06,22.78561,121.07813,0.10959683
C1O921,楠西,2025-11-06,23.183511,120.484083,5.445062e-05
C0AJ30,淡水觀海,2025-11-06,25.184591,121.408616,0.9976042
C0V810,左營,2025-11-06,22.67491,120.28491,0.99989855
C0UA70,桃源谷,2025-11-06,24.962606,121.888875,1.6568059e-07
C0X130,官田,2025-11-06,23.193217,120.315422,0.99951875
C1H000,翠峰,2025-11-06,24.109397,121.205211,5.5200164e-09
C0UA90,石城,2025-11-06,24.980444,121.951214,0.04992284
C1E681,南勢山,2025-11-06,24.421669,120.923831,1.3565726e-09
C0A9F0,內湖,2025-11-06,25.079422,121.57545,0.0011174531
C0K291,宜梧,2025-11-06,23.536281,120.169329,0.34725767
C1K540,口湖,2025-11-06,23.585344,120.180517,0.34855548
C0R780,滿州,2025-11-06,22.024403,120.839892,0.23936875
C0V870,文安,2025-11-06,22.8025,120.2164,0.998436
C0U650,玉蘭,2025-11-06,24.675286,121.587061,5.2711647e-07
C0R640,東港,2025-11-06,22.46247,120.44074,0.9995217
C0AJ80,板橋,2025-11-06,25.0107,121.4489,0.0018346363
C0S660,下馬,2025-11-06,23.150427,121.070312,2.5294385e-08
C2N190,烏樹,2025-11-06,23.32393,120.36989,0.999419
C1H9B1,阿眉,2025-11-06,24.1263,120.994672,3.6543446e-09
C0UA20,多加屯,2025-11-06,24.368614,121.373189,9.698433e-09
C0E730,頭份,2025-11-06,24.688247,120.912206,0.24034375
72V140,高改旗南分場,2025-11-06,22.857861,120.516667,0.9994926
C0K480,莿桐,2025-11-06,23.761192,120.502372,0.99860686
C0U980,坪林石牌,2025-11-06,24.86478,121.77396,1.973872e-06
C0T900,西林,2025-11-06,23.8119,121.441458,4.709763e-07
C1I150,青雲,2025-11-06,23.793361,120.949378,3.1977705e-09
C2E980,和興,2025-11-06,24.505319,120.923016,8.999248e-09
467350,澎湖,2025-11-06,23.565503,119.563094,0.9982964
C0G800,埔鹽,2025-11-06,24.000394,120.431683,0.982789
C0H960,草屯,2025-11-06,23.973672,120.68085,2.9229568e-07
C1V780,多納林道,2025-11-06,22.888028,120.737917,1.893233e-09
C0E920,通霄漁港,2025-11-06,24.498589,120.673876,0.004160213
C0Z330,安通山,2025-11-06,23.290728,121.348528,5.125573e-09
C0AH10,永和,2025-11-06,25.01125,121.508111,0.0018346363
C0AK10,太平里,2025-11-06,25.134937,121.364899,0.9993763
C2G640,鹿港,2025-11-06,24.0753,120.430481,0.87220234
C1E890,國三N149K,2025-11-06,24.463414,120.680019,0.004160213
C1R110,口社,2025-11-06,22.770111,120.645222,0.99874914
C1M870,國三N285K,2025-11-06,23.550319,120.505833,0.97616804
C1E480,鳳美,2025-11-06,24.554803,121.034747,7.03687e-09
C0M530,奮起湖,2025-11-06,23.493903,120.699253,1.9340085e-09
C0C590,觀音,2025-11-06,25.027072,121.153317,0.0417408
C0T9M0,靜浦,2025-11-06,23.455167,121.495028,0.021180985
C2H9M0,發祥,2025-11-06,24.154094,121.164517,1.0346948e-09
C2G9C0,埔南,2025-11-06,23.99124,120.46969,0.982789
C0AI40,石牌,2025-11-06,25.115597,121.513139,0.0011174531
C1F871,上谷關,2025-11-06,24.203483,121.018644,1.429237e-09
C2H9G0,百勝,2025-11-06,24.051142,120.909361,1.3513225e-09
C0G880,二水,2025-11-06,23.810742,120.6173,0.0160195
C0R940,加祿堂,2025-11-06,22.3363,120.6217,0.12321151
C0W220,北竿,2025-11-06,26.220358,119.974881,0.99677473
C0O960,崎頂,2025-11-06,22.959547,120.369317,0.9991337
C0TA40,秀林,2025-11-06,24.302864,121.731144,7.7689e-08
C0S750,向陽,2025-11-06,23.248397,120.986133,3.902723e-09
C0T9F0,水璉,2025-11-06,23.797131,121.542514,9.251136e-08
C1M600,頭凍,2025-11-06,23.406364,120.603339,1.3198505e-09
467660,臺東,2025-11-06,22.752211,121.154586,0.06747992
C1D380,新埔,2025-11-06,24.84745,121.03834,0.010757396
C2G980,田頭村,2025-11-06,23.8263,120.444175,0.99955577
C0V750,路竹,2025-11-06,22.854997,120.259439,0.99863064
C0N050,蚵寮,2025-11-06,23.301,120.1104,0.9633983
C2X060,下營,2025-11-06,23.226806,120.256291,0.9950734
72M700,南改鹿草分場,2025-11-06,23.416869,120.283061,0.99390304
C1SA50,利嘉林道,2025-11-06,22.82325,121.009389,3.395937e-08
C0UB70,太平山中間站,2025-11-06,24.542003,121.513453,8.731259e-07
C0A940,金山,2025-11-06,25.223628,121.643967,0.7537915
C1V340,大津,2025-11-06,22.888322,120.645986,0.99963266
C0W180,七美,2025-11-06,23.219333,119.444892,0.99350643
C1F9C1,白冷,2025-11-06,24.182844,120.929889,1.8348896e-09
K2E710,苗改生物防治研究中心,2025-11-06,24.422861,120.871833,5.6943314e-08
C0N040,蘆竹溝,2025-11-06,23.2344,120.0961,0.9633983
C0TB40,崇德,2025-11-06,24.166144,121.657414,0.99965006
C0D760,大坪苗圃,2025-11-06,24.5362,121.1108,3.2983662e-09
C2W230,畜試所澎湖,2025-11-06,23.628342,119.513206,0.9970071
C0R880,後壁湖,2025-11-06,21.9457,120.7457,0.96178836
C1I280,埔中,2025-11-06,23.820778,120.642594,2.5013719e-08
467790,墾丁雷達站,2025-11-06,21.948235,120.808028,0.8579776
C0W190,望安,2025-11-06,23.380564,119.494075,0.9970417
C0Z170,卓溪,2025-11-06,23.3443,121.3029,2.610778e-07
C0F850,東勢,2025-11-06,24.246428,120.833047,4.919684e-08
466900,淡水,2025-11-06,25.164889,121.448906,0.4634911
C0I370,魚池,2025-11-06,23.895703,120.94135,7.9312523e-10
C0C630,大溪,2025-11-06,24.882853,121.265547,0.9987423
C0A520,山佳,2025-11-06,24.974944,121.402008,1.9925923e-05
C0I110,竹山,2025-11-06,23.761225,120.688156,0.0013608808
82H840,茶改南部分場,2025-11-06,23.762528,120.7405,3.2505628e-07
C2SD80,再來山,2025-11-06,23.34371,121.44122,8.3747e-08
C0G660,溪湖,2025-11-06,23.94835,120.479122,0.99936295
C1T800,洛韶,2025-11-06,24.204558,121.453956,2.0871028e-07
C1T810,慈恩,2025-11-06,24.192044,121.388386,8.34749e-09
C1E451,象鼻,2025-11-06,24.368617,120.940228,1.3565726e-09
C0AC60,三峽,2025-11-06,24.939025,121.369728,1.1429482e-05
C0I490,萬大林道,2025-11-06,23.928228,121.091411,9.66847e-10
C1I290,豐丘,2025-11-06,23.668178,120.887417,2.669097e-09
C1I320,奧萬大,2025-11-06,23.952956,121.178556,7.1297757e-10
C2M910,嘉義大學,2025-11-06,23.471325,120.485903,0.99076736
C0U770,南澳,2025-11-06,24.44935,121.81022,0.0029331218
C2TB30,吉安,2025-11-06,23.94538,121.54803,0.96123064
C0A980,社子,2025-11-06,25.109508,121.469681,0.7672017
C0V800,六龜,2025-11-06,22.997889,120.633583,0.9981154
C1G9D0,國一S218K,2025-11-06,23.890641,120.493253,0.999714
C0E570,白沙屯,2025-11-06,24.549447,120.696803,0.838265
C2F9A0,中竹林,2025-11-06,24.103556,120.751061,2.3360933e-08
C0FA40,臺中電廠,2025-11-06,24.2146,120.4907,0.78022087
C2G9A0,畜試所彰化,2025-11-06,23.86045,120.557964,0.49755025
C0H9C0,合歡山,2025-11-06,24.143442,121.272547,1.4098841e-08
C0X060,下營,2025-11-06,23.22695,120.256261,0.99594146
G2M350,農試溪口農場,2025-11-06,23.58565,120.408111,0.99899423
C0U860,頭城,2025-11-06,24.85323,121.8308,0.002639892
C0R580,南州,2025-11-06,22.48591,120.50274,0.9993294
C0D430,峨眉,2025-11-06,24.6905,121.017189,0.5276473
C0G780,秀水,2025-11-06,24.03405,120.503869,0.9994881
72N100,臺南農改場,2025-11-06,23.0605,120.342194,0.99908614
C0S900,蘭嶼高中,2025-11-06,22.04909,121.51214,0.9736536
C2TA60,六十石,2025-11-06,23.22477,121.31861,2.4048576e-08
C1F9W0,德基,2025-11-06,24.254783,121.190261,5.489149e-09
C2M980,安和,2025-11-06,23.51377,120.31593,0.99756503
C1Z120,壽豐,2025-11-06,23.870853,121.508081,0.740459
C0W160,烏坵,2025-11-06,24.9944,119.44956,0.99003726
C1I240,外大坪,2025-11-06,23.958697,120.917931,7.246005e-10
C1I550,國六W023K,2025-11-06,23.979067,120.867742,1.2252784e-09
C0R870,興海,2025-11-06,21.9752,120.8439,0.8579776
C0R140,瑪家,2025-11-06,22.682903,120.686639,1.7545522e-08
C0A530,坪林,2025-11-06,24.938183,121.70975,0.011069618
C0X260,後壁,2025-11-06,23.366358,120.362326,0.99737453
C0Z230,和平,2025-11-06,24.30717,121.77007,0.011508024
C0G770,福興,2025-11-06,24.041289,120.437669,0.982789
C0H9A0,神木村,2025-11-06,23.532742,120.843667,3.5372403e-09
C0I460,南投,2025-11-06,23.911469,120.687331,2.9229568e-07
C0I480,梅峰,2025-11-06,24.085272,121.173572,2.8815486e-09
C1V570,吉東,2025-11-06,22.85422,120.5454,0.99965197
C2D740,屯原,2025-11-06,24.067969,121.209389,2.4697215e-09
C2A560,福山,2025-11-06,24.776203,121.502811,7.967442e-07
C0AH30,五分山,2025-11-06,25.07125,121.780794,4.0044347e-07
C0FA10,松柏,2025-11-06,24.429115,120.617482,0.0045673866
72S200,東改班鳩分場,2025-11-06,22.829528,121.077694,0.89929205
72HA00,中改埔里分場,2025-11-06,23.903208,120.963364,8.1972956e-10
C2H9W0,大坪頂農水,2025-11-06,24.043122,120.932781,7.9071455e-10
C0C650,平鎮,2025-11-06,24.897503,121.214636,0.9979291
C0S930,延平,2025-11-06,22.902581,121.084058,0.9842948
C0UA60,樟樹山,2025-11-06,24.41393,121.78325,5.295563e-09
C2UC10,出水溪,2025-11-06,24.615822,121.652253,7.1013746e-06
C1S670,摩天,2025-11-06,23.199503,121.027,3.153851e-08
C2C590,觀音,2025-11-06,25.027072,121.153317,0.0429831
C0V630,茄萣,2025-11-06,22.906642,120.182608,0.99141157
466940,基隆,2025-11-06,25.133314,121.740475,0.9933254
C0X050,東河,2025-11-06,23.296598,120.385608,0.999419
C0R770,保力,2025-11-06,22.071122,120.764111,0.13602842
G2L020,農試嘉義分所,2025-11-06,23.485028,120.473806,0.99076736
C0X240,關子嶺,2025-11-06,23.331169,120.508025,1.1219632e-07
C0I380,集集,2025-11-06,23.828206,120.801467,6.0313425e-09
466990,花蓮,2025-11-06,23.975128,121.613275,0.9985957
C1V220,小關山,2025-11-06,23.154217,120.813603,2.427058e-09
C1F9G1,慶福山,2025-11-06,24.180853,120.848378,1.0995084e-09
C0FB20,雪山橋,2025-11-06,24.23192,120.9786,4.327029e-09
C0Z250,瑞穗林道,2025-11-06,23.49284,121.30688,5.0070565e-07
C0D590,新豐,2025-11-06,24.87068,120.97721,0.7005496
C0A870,五指山,2025-11-06,25.132153,121.608692,5.190566e-08
C0UA50,西帽山,2025-11-06,24.555361,121.802628,4.3379803e-08
C2R980,竹田國中,2025-11-06,22.61532,120.52412,0.99984705
C0X160,仁德,2025-11-06,22.968258,120.257689,0.99430114
C1H971,六分寮,2025-11-06,23.92507,120.6378,5.6834883e-09
C0W120,西嶼,2025-11-06,23.5626,119.468436,0.9962812
C0G650,員林,2025-11-06,23.946503,120.585597,0.00012880847
C0AD50,鶯歌,2025-11-06,24.951533,121.346294,0.9987656
C2H9Q0,北東眼山,2025-11-06,24.120939,121.189303,4.487742e-09
C2H9T0,名間竹圍,2025-11-06,23.859914,120.637572,2.6334084e-07
C0S990,山豬窟,2025-11-06,22.318619,120.857372,0.9642804
C0X190,安平,2025-11-06,22.993161,120.152181,0.9265796
C0K400,斗六,2025-11-06,23.720583,120.541127,0.99860686
12J990,口湖工作站,2025-11-06,23.589978,120.180394,0.34855548
C0O830,北寮,2025-11-06,23.079561,120.495008,5.5702304e-07
C1D410,白蘭,2025-11-06,24.579364,121.079947,3.4295489e-09
C0S970,加津林,2025-11-06,22.416211,120.926942,0.8418577
C0D700,關西,2025-11-06,24.7977,121.1732,0.9940585
C0M810,里佳,2025-11-06,23.389125,120.716647,2.4851496e-09
C0U750,龜山島,2025-11-06,24.841667,121.953133,0.00013447463
C0R810,內獅,2025-11-06,22.305064,120.642986,0.12321151
C1M390,龍美,2025-11-06,23.406728,120.654417,2.2380184e-09
C2K290,崙內,2025-11-06,23.69525,120.35601,0.9993995
C2FB60,頭櫃山,2025-11-06,24.129842,120.858925,1.3349424e-09
C1H840,國三N238K,2025-11-06,23.841008,120.707711,4.359141e-06
CAQ030,崎峰國小,2025-11-06,22.42565,120.49521,0.9993294
C2E520,大湖,2025-11-06,24.414939,120.870872,5.6943314e-08
467530,阿里山,2025-11-06,23.508208,120.813242,6.160091e-09
C1E691,南湖,2025-11-06,24.40135,120.837533,9.025491e-10
C0FA30,梧棲,2025-11-06,24.256003,120.523381,0.8734203
C1V231,高中,2025-11-06,23.134911,120.716711,2.060628e-08
C0AK30,硬漢嶺,2025-11-06,25.136097,121.426372,2.0841348e-08
C0F9V0,新社,2025-11-06,24.200172,120.815806,2.1963895e-09
C0H890,埔里,2025-11-06,23.972169,120.952425,1.3296669e-09
C0R690,墾丁,2025-11-06,21.966756,120.810269,0.63982826
C0SD20,富山,2025-11-06,22.822383,121.190825,0.13358693
C0F0D0,審馬陣,2025-11-06,24.381675,121.4203,1.4375846e-08
C2W030,金門農試所,2025-11-06,24.448431,118.451786,0.9998455
C0R820,白鷺,2025-11-06,22.454275,120.666219,0.0030341134
C0FB00,大雪山,2025-11-06,24.254668,121.007374,5.2530105e-09
C1V190,南天池,2025-11-06,23.27403,120.91176,3.8978354e-09
C0E940,雪見,2025-11-06,24.42595,121.01347,3.8738515e-09
K2E360,苗栗農改場,2025-11-06,24.495722,120.829111,0.029414337
CAJ050,海口故事園區,2025-11-06,23.57543,120.14121,0.34855554
C2K280,四湖,2025-11-06,23.6304,120.22717,0.27340543
C2H9D0,三隻寮,2025-11-06,24.093078,120.861578,6.184045e-10
C0O990,媽廟,2025-11-06,22.99175,120.293525,0.99849254
C0D480,打鐵坑,2025-11-06,24.849664,121.150789,0.9899142
C0Z220,和平林道,2025-11-06,24.343922,121.656317,9.157316e-09
C0TA10,花蓮漁港,2025-11-06,23.995322,121.638331,0.998489
72C440,桃園農改場,2025-11-06,24.950944,121.030583,0.16469564
C1E711,馬拉邦山,2025-11-06,24.367306,120.901656,6.047651e-10
C0SB20,富岡,2025-11-06,22.792467,121.192669,0.14553007
C0D560,竹東,2025-11-06,24.767147,121.057881,0.16990215
C0F9U0,南屯,2025-11-06,24.137006,120.637969,0.99957114
C2SD60,明峰,2025-11-06,22.8671,121.11825,0.9822205
C0M720,番路,2025-11-06,23.464657,120.554156,3.0303715e-06
C0F0A0,雪山圈谷,2025-11-06,24.388594,121.236339,1.5222488e-08
C1A9N0,四十份,2025-11-06,24.934158,121.593283,0.0015993015
C0U760,東澳,2025-11-06,24.52196,121.83318,0.002435414
C0X230,鹽水,2025-11-06,23.272621,120.247641,0.9718219
C2H9H0,苗改南投蜂場,2025-11-06,23.852589,120.693481,6.270452e-05
C2TB70,達谷寮,2025-11-06,23.38,121.35968,8.7416765e-08
C0R950,萬隆國小,2025-11-06,22.507667,120.587817,0.37179407
467540,大武,2025-11-06,22.35572,120.90374,0.20449786
C0V370,古亭坑,2025-11-06,22.893178,120.401947,0.0012082428
C1I340,新興橋,2025-11-06,23.563333,120.868728,3.4530208e-09
C0SA80,土坂,2025-11-06,22.453108,120.887572,0.79324836
C0R160,鹽埔,2025-11-06,22.739558,120.530778,0.99869424
C0AC40,大屯山,2025-11-06,25.175675,121.522408,2.6769905e-08
466850,五分山雷達站,2025-11-06,25.071182,121.781205,3.819965e-07
C2H9L0,馬烈霸,2025-11-06,24.1512,121.201772,4.487742e-09
C1AI50,國三N016K,2025-11-06,25.034164,121.619664,0.913503
C2V920,匏子寮,2025-11-06,23.04905,120.55319,0.32733807
C1V600,藤枝,2025-11-06,23.071961,120.757042,2.5408247e-09
C1E601,南勢,2025-11-06,24.572486,120.734842,0.838265
C0O980,新市,2025-11-06,23.061614,120.298197,0.99908614
C0K420,西螺,2025-11-06,23.800407,120.467394,0.99955577
C0Z050,佳心,2025-11-06,23.34567,121.21316,2.0600385e-08
C0AD30,蘆洲,2025-11-06,25.086594,121.472331,0.00018825282
C0V610,梓官,2025-11-06,22.760558,120.267211,0.99854255
K2F750,種苗改良場,2025-11-06,24.225972,120.800917,2.1963895e-09
C0UA80,大溪漁港,2025-11-06,24.941801,121.902955,0.015617246
C1AI60,國一39K邊坡,2025-11-06,25.064361,121.383836,4.1713182e-07
C0W150,金寧,2025-11-06,24.457703,118.328989,0.9998532
C0R960,內埔,2025-11-06,22.608483,120.570714,0.99984705
V2C250,八德合作社,2025-11-06,24.93775,121.266389,0.9987423
C2H9S0,龍南,2025-11-06,23.953536,120.833183,6.871603e-10
C0AH40,平等,2025-11-06,25.129142,121.577086,2.869774e-08
C0R540,佳冬,2025-11-06,22.419456,120.552375,0.99977577
466950,彭佳嶼,2025-11-06,25.627975,122.079744,0.64207405
C0A890,雙溪,2025-11-06,25.036003,121.864242,0.03488713
C0C480,桃園,2025-11-06,24.992425,121.323172,0.9953341
C0AH50,林口,2025-11-06,25.072181,121.38084,1.2349037e-07
A2K360,水試臺西試驗場,2025-11-06,23.717231,120.190522,0.5441216
C2M960,外寮,2025-11-06,23.562643,120.665688,1.9147535e-09
C0F9S0,烏日,2025-11-06,24.107058,120.624103,0.99957114
C2N180,鹿陶洋,2025-11-06,23.14325,120.48352,5.445062e-05
C0C490,八德,2025-11-06,24.928708,121.283289,0.9987423
C0R190,赤山,2025-11-06,22.592333,120.614306,0.9998912
C0T820,天祥,2025-11-06,24.179597,121.495639,0.0037199622
C1F9E1,龍安,2025-11-06,24.1605,120.831961,1.8962685e-09
C2SD50,順那,2025-11-06,23.04166,121.29332,0.35485435
C0V820,小林,2025-11-06,23.148408,120.63325,9.973931e-06
C2G870,芳苑,2025-11-06,23.922303,120.320025,0.18813553
C0E850,大河,2025-11-06,24.618069,120.948578,0.8759709
C1U670,寒溪,2025-11-06,24.634,121.71691,5.290162e-09
C0N020,城西,2025-11-06,23.0568,120.0956,0.8441306
C1Z110,三棧,2025-11-06,24.11557,121.60501,1.576343e-05
C0R280,檳榔,2025-11-06,22.076078,120.836777,0.48966902
C2H9J0,中台,2025-11-06,23.9996,120.938739,7.9071455e-10
C0F9L0,后里,2025-11-06,24.310436,120.729725,4.2013482e-08
467441,高雄,2025-11-06,22.730432,120.312516,0.99985516
C0Z180,新城,2025-11-06,24.040486,121.604878,0.9987009
C0D540,橫山,2025-11-06,24.71116,121.11693,0.28446198
C1D420,太閣南,2025-11-06,24.632808,121.160575,9.229507e-09
C1E770,公館,2025-11-06,24.526914,120.830806,0.04872701
CAN130,水試所海水繁養殖中心,2025-11-06,23.120802,120.07968,0.8405062
C1I430,翠華,2025-11-06,24.191961,121.224339,7.850226e-09
C1M400,菜瓜坪,2025-11-06,23.251928,120.576103,3.315567e-09
C0G730,二林,2025-11-06,23.903325,120.376081,0.87741596
72M360,南改義竹分場,2025-11-06,23.360694,120.279361,0.97002006
V2K620,麥寮合作社,2025-11-06,23.753836,120.294783,0.99542695
C0Z070,舞鶴,2025-11-06,23.46811,121.37407,0.00035110675
C0B040,大武崙,2025-11-06,25.166676,121.706993,0.99094564
C1Z030,紅葉,2025-11-06,23.493119,121.338806,0.0016239008
C1I050,丹大,2025-11-06,23.753747,121.141147,5.742428e-09
C0I080,信義,2025-11-06,23.689694,120.851036,2.6071643e-08
C2TB80,庄子底,2025-11-06,23.71794,121.49438,4.4909893e-07
C0D750,樂山林道6k,2025-11-06,24.49999,121.08773,4.9750253e-09
C2M920,朴子農改,2025-11-06,23.469889,120.259383,0.99390304
C2A880,福隆,2025-11-06,25.017842,121.942083,0.0595821
C0Z160,鳳林,2025-11-06,23.746114,121.453411,3.2766948e-07
C0UB80,翠峰林道6K,2025-11-06,24.49773,121.568625,5.2323035e-08
C0V210,復興,2025-11-06,23.222403,120.806089,1.2855493e-08
C0H990,昆陽,2025-11-06,24.121322,121.273642,1.0872507e-08
C0R741,獅子,2025-11-06,22.202308,120.705236,0.1272685
C0S710,鹿野,2025-11-06,22.917711,121.122994,0.11017008
C0I530,小奇萊,2025-11-06,24.131764,121.295717,1.1451678e-08
C0FA70,大雪山埡口,2025-11-06,24.26867,121.03062,1.008214e-08
C2K630,荷苞,2025-11-06,23.657717,120.595144,0.016283838
C0Z080,富源,2025-11-06,23.587642,121.378225,4.0939236e-07
C2M9E0,旺來山,2025-11-06,23.555153,120.486463,0.97616804
C0SB10,美和,2025-11-06,22.682078,121.060236,0.06731046
C2K620,馬光農場,2025-11-06,23.721453,120.378864,0.99966365
C1I140,卡奈托灣,2025-11-06,23.754364,121.087872,9.198694e-10
C0I520,玉山風口,2025-11-06,23.470489,120.955994,1.629494e-08
C1G691,下水埔,2025-11-06,23.816114,120.5676,0.99380285
C0X110,臺南市南區,2025-11-06,22.961189,120.188378,0.9947867
C0V680,仁武,2025-11-06,22.701083,120.347722,0.99985516
C2G840,北斗,2025-11-06,23.877586,120.514222,0.999714
C2TB90,長橋,2025-11-06,23.6874,121.46186,2.6342246e-07
C0R900,竹坑,2025-11-06,22.1385,120.7022,0.14003353
C0K250,崙背,2025-11-06,23.75555,120.318925,0.99457484
C0G860,社頭,2025-11-06,23.897647,120.5862,0.49755025
C0X150,安定,2025-11-06,23.102614,120.227839,0.9662172
C0R590,里港,2025-11-06,22.77919,120.49459,0.99961543
C0E610,馬都安,2025-11-06,24.451272,120.930192,1.8322247e-09
C0E550,明德,2025-11-06,24.583486,120.885411,1.4234698e-05
C0R150,三地門,2025-11-06,22.709889,120.639944,0.9997186
C0G910,花壇,2025-11-06,24.032076,120.549461,0.9994881
C1D400,鳥嘴山,2025-11-06,24.71909,121.28387,3.035865e-08
C0K500,元長,2025-11-06,23.64981,120.315024,0.99680656
C0F0B0,石岡,2025-11-06,24.276061,120.777644,4.2013482e-08
C2V250,甲仙,2025-11-06,23.080106,120.591758,0.23458259
C0SA20,金崙山,2025-11-06,22.567419,120.959667,2.9017473e-08
C0V350,溪埔,2025-11-06,22.738578,120.446797,0.9993569
C0M660,溪口,2025-11-06,23.604131,120.403569,0.99899423
C1S880,壽卡,2025-11-06,22.238911,120.858903,0.52576935
72D680,桃改新埔分場,2025-11-06,24.834444,121.066111,0.010757396
