站號,站名,日期,lat,lon,BlastGRU-TW
C0R710,龍磐,2025-12-10,21.931672,120.838942,0.005354426
C1F9D1,白毛台,2025-12-10,24.158325,120.886933,0.015189212
C0G940,竹塘,2025-12-10,23.848253,120.386764,0.0029706329
467590,恆春,2025-12-10,22.003897,120.746339,0.2087214
C1O850,環湖,2025-12-10,23.148617,120.418633,0.30357295
C0U710,太平山,2025-12-10,24.505486,121.525656,0.0011735299
C0E820,獅潭,2025-12-10,24.539133,120.920042,0.018767932
C0V880,興達,2025-12-10,22.8778,120.2127,0.045935113
C0S890,關山,2025-12-10,23.0395,121.175017,0.0014521402
C0SB30,新蘭,2025-12-10,22.869214,121.223228,0.0032845826
C2R970,屏科大,2025-12-10,22.648275,120.619247,0.114642955
C1Z130,銅門,2025-12-10,23.965694,121.492842,0.0035555705
C0AD40,土城,2025-12-10,24.973208,121.445169,0.0004784799
CAN140,六官養殖協會,2025-12-10,23.22881,120.29962,0.048597652
C0X180,山上,2025-12-10,23.0757,120.363253,0.1628512
C0F9Z0,雪山東峰,2025-12-10,24.388792,121.268675,0.0004612848
C1M480,獨立山,2025-12-10,23.537022,120.607797,0.01167802
C0X220,學甲,2025-12-10,23.230367,120.182187,0.006572641
467650,日月潭,2025-12-10,23.881325,120.90805,0.048614882
C0K600,箔子寮,2025-12-10,23.6197,120.14,0.004807806
C0G830,埤頭,2025-12-10,23.866003,120.452806,0.035596177
C0S950,七塊厝,2025-12-10,22.954453,121.229922,0.00053537014
467110,金門,2025-12-10,24.407306,118.289281,0.0010177662
C0AH80,深坑,2025-12-10,25.002703,121.628328,0.00035953385
C0A970,三貂角,2025-12-10,25.007606,122.002058,0.35848632
C2D730,寶山農場,2025-12-10,24.732444,120.976153,0.00055736536
C0K430,褒忠,2025-12-10,23.690938,120.303634,0.02131836
467480,嘉義,2025-12-10,23.495925,120.432906,0.053976536
C0V400,阿公店,2025-12-10,22.804194,120.355528,0.16288705
C0E960,觀霧分站,2025-12-10,24.505781,121.113921,0.0033542423
467550,玉山,2025-12-10,23.48718,120.95943,0.00032426455
C0R440,大漢山,2025-12-10,22.405264,120.753181,0.0005973248
C0SD30,東清國小,2025-12-10,22.057128,121.564922,0.024211626
C1F9B1,桐林,2025-12-10,24.066172,120.735194,0.065924585
C2H9U0,鳳鵬,2025-12-10,23.763919,120.788061,0.03600133
C0K390,土庫,2025-12-10,23.679029,120.395574,0.064892605
C1I450,望鄉山,2025-12-10,23.594153,120.944286,0.0004515383
C0E910,海埔,2025-12-10,24.648767,120.772435,0.000748576
B2E890,畜試北區分所,2025-12-10,24.527806,120.770972,0.009582714
C0R750,四林格山,2025-12-10,22.076989,120.802439,0.001425949
C0F0C0,中坑,2025-12-10,24.248517,120.903319,0.0076812445
C1I121,大鞍,2025-12-10,23.678381,120.760017,0.0074268472
72U480,花改蘭陽分場,2025-12-10,24.686306,121.716583,0.14654808
C0A770,科教館,2025-12-10,25.096356,121.516507,0.00042976465
C0AJ60,六塊厝,2025-12-10,25.24,121.4481,0.00030921737
C0R620,墾雷,2025-12-10,21.900836,120.855269,0.004588808
467420,永康,2025-12-10,23.038386,120.2367,0.1678715
C0I410,名間,2025-12-10,23.837053,120.701447,0.05338605
A2C560,農工中心,2025-12-10,24.985917,121.239833,0.000279051
C0V740,旗山,2025-12-10,22.888614,120.483597,0.2954365
C0Z061,玉里,2025-12-10,23.3215,121.339656,0.0036445998
C0S840,南田,2025-12-10,22.279725,120.889208,0.08391424
C1I470,杉林溪,2025-12-10,23.639517,120.786444,0.0048409444
C1X040,東原,2025-12-10,23.291597,120.463822,0.31406623
C0R660,枋寮,2025-12-10,22.367722,120.590647,0.039693814
C1R120,上德文,2025-12-10,22.763272,120.704442,0.024111453
C0K450,大埤,2025-12-10,23.646074,120.431537,0.050828874
C0UA00,土場,2025-12-10,24.576533,121.495333,0.26310965
467080,宜蘭,2025-12-10,24.763975,121.756528,0.053754497
C0N030,四草,2025-12-10,23.0235,120.1116,0.054592017
467410,臺南,2025-12-10,22.99328,120.20492,0.045492344
C0V650,彌陀,2025-12-10,22.783806,120.246361,0.055357512
C0D660,新竹市東區,2025-12-10,24.798681,120.986942,0.0010769324
82S580,茶改東部分場,2025-12-10,22.907694,121.130139,0.0009101385
C0SB40,興隆,2025-12-10,22.913661,121.257469,0.0027457075
467050,新屋,2025-12-10,25.006725,121.047492,6.784624e-05
C0C710,大溪永福,2025-12-10,24.892936,121.324975,0.00060981506
C0FA20,溫寮,2025-12-10,24.372177,120.583125,0.005511798
C0V640,湖內,2025-12-10,22.887139,120.2445,0.042786766
C0R910,下寮,2025-12-10,22.3929,120.5548,0.03987599
C0Z020,明里,2025-12-10,23.208717,121.262342,0.0043053506
C0M770,嘉義梅山,2025-12-10,23.585398,120.555587,0.041005414
C0C660,楊梅,2025-12-10,24.912375,121.143047,0.00055706734
C0SD40,牛頭山,2025-12-10,22.676661,121.506944,0.001045722
C1E511,新開,2025-12-10,24.347703,120.827019,0.056833528
G2F820,農試所(霧峰),2025-12-10,24.031261,120.688133,0.250266
C2M990,大巃頂,2025-12-10,23.5547,120.61439,0.02493953
C1I070,和社,2025-12-10,23.591131,120.888861,0.052682422
C2E990,新坪頂,2025-12-10,24.30201,120.8574,0.011926996
C0TA80,立霧山,2025-12-10,24.183258,121.641899,0.0019603737
C2F000,大肚,2025-12-10,24.15295,120.572117,0.005639245
C1S850,豐南,2025-12-10,23.122139,121.262389,0.00083046954
C2A920,富貴角,2025-12-10,25.263783,121.565258,0.00017393164
CAH030,茶改場竹圍站,2025-12-10,23.860083,120.637528,0.14273174
C0T960,光復,2025-12-10,23.660694,121.424964,0.0009105445
C0F9M0,豐原,2025-12-10,24.254322,120.720692,0.041425005
C0R720,旭海,2025-12-10,22.205403,120.887614,0.03996635
C0V710,苓雅,2025-12-10,22.622742,120.330669,0.15127334
C0C740,觀音工業區,2025-12-10,25.064764,121.114856,2.780991e-05
CAC040,拉拉山,2025-12-10,24.699317,121.427133,0.0037213394
C0V790,萬山,2025-12-10,22.905944,120.688056,0.22545089
U2HA30,臺大和社,2025-12-10,23.590856,120.888864,0.052682422
C2H9K0,屯原,2025-12-10,24.067969,121.209389,0.0009993525
C0AJ90,澳底,2025-12-10,25.0552,121.9253,0.34257388
C0Z100,東華,2025-12-10,23.89525,121.549833,0.019262034
C0G970,三豐,2025-12-10,23.882,120.2895,0.005477014
V2K610,大庄合作社,2025-12-10,23.8068,120.367939,0.01275914
C0V900,汕尾,2025-12-10,22.4782,120.4151,0.12584582
C1R630,龍泉,2025-12-10,22.66701,120.59091,0.12279287
C1AC50,關渡,2025-12-10,25.133486,121.469331,0.0005683072
C0C800,四稜,2025-12-10,24.64733,121.4293,0.002718117
C0F9I0,神岡,2025-12-10,24.272481,120.658314,0.025386289
C0K460,斗南,2025-12-10,23.678734,120.478359,0.049255013
C2O810,曾文,2025-12-10,23.219681,120.497328,0.37578377
467280,後龍,2025-12-10,24.648563,120.831834,0.0009294669
C1F9J1,清水林,2025-12-10,24.071242,120.820419,0.025461854
C2A650,火燒寮,2025-12-10,25.002719,121.742892,0.15458357
466930,竹子湖,2025-12-10,25.162078,121.544547,0.024580695
C1I220,樟湖,2025-12-10,23.905333,120.846983,0.010152081
C0I390,仁愛,2025-12-10,24.022122,121.132206,0.009836192
C0Z300,東里,2025-12-10,23.26853,121.30547,0.0063375225
C1V590,新發,2025-12-10,23.057019,120.646064,0.09161307
C0K510,水林,2025-12-10,23.572924,120.24597,0.025250219
72S590,東改賓朗果園,2025-12-10,22.813889,121.071278,0.00048667527
82A750,茶改北部分場,2025-12-10,24.955778,121.631222,0.2884718
C1A750,石碇服務區,2025-12-10,25.00872,121.646242,0.0005043896
C0X300,鹿寮,2025-12-10,23.386047,120.477331,0.065708674
G2AI50,關渡,2025-12-10,25.11575,121.492,0.00010029902
C0K590,雲林東勢,2025-12-10,23.674192,120.255721,0.028844848
C0A570,桶後,2025-12-10,24.848222,121.597992,0.033045217
C1S800,華源,2025-12-10,22.657883,121.02325,0.021534484
C0G720,溪州,2025-12-10,23.851589,120.499093,0.03474078
C1V160,達卡努瓦,2025-12-10,23.279811,120.705319,0.012212181
C2M410,馬頭山,2025-12-10,23.324361,120.582017,0.5932945
C0V850,蚵仔寮,2025-12-10,22.7256,120.2527,0.08133201
C0S740,池上,2025-12-10,23.119628,121.209469,0.0004140267
C1V390,尖山,2025-12-10,22.813153,120.367789,0.16738354
C0AH70,松山,2025-12-10,25.04871,121.55042,0.00040615242
C0N010,鯤鯓國小,2025-12-10,23.1879,120.0889,0.006944187
C0R550,新埤,2025-12-10,22.467947,120.582894,0.114983544
C0SA60,知本（水試所）,2025-12-10,22.702394,121.082761,0.035006337
C0T9I0,豐濱,2025-12-10,23.583897,121.514806,0.0011320174
C0UB00,淡江大學蘭陽校園,2025-12-10,24.823239,121.730383,0.013807282
C0W240,九宮,2025-12-10,24.423753,118.240186,0.0009777752
C0T9N0,富里,2025-12-10,23.171639,121.249378,0.0009365929
U2HA50,臺大竹山,2025-12-10,23.756972,120.681556,0.050476667
C0V840,鳳鼻頭,2025-12-10,22.5083,120.3591,0.11246165
C0X140,西港,2025-12-10,23.125608,120.203108,0.07821091
72D080,桃改五峰分場,2025-12-10,24.612194,121.157167,0.0030025397
C2H9P0,伊拿谷,2025-12-10,23.963211,121.088264,0.035734635
C2K250,崙背,2025-12-10,23.75553,120.31893,0.021379184
C2H9F0,柑林,2025-12-10,24.018658,120.847072,0.18588425
C0TA20,加灣,2025-12-10,24.082025,121.608944,0.0010555811
C0V530,阿蓮,2025-12-10,22.883208,120.327508,0.21170662
C0FB30,八仙山苗圃,2025-12-10,24.192719,121.001366,0.009564515
C1O880,關山,2025-12-10,23.173397,120.594092,0.47075513
C0E791,卓蘭,2025-12-10,24.3126,120.8244,0.039807726
C1I030,武界,2025-12-10,23.913225,121.052483,0.030221064
C0R520,崁頂,2025-12-10,22.514781,120.506914,0.13242935
C0R341,牡丹,2025-12-10,22.130036,120.792639,0.044963382
C0R930,萬丹,2025-12-10,22.5885,120.4851,0.18479013
C0S760,紅石,2025-12-10,23.069131,121.126219,0.00080686907
C2C410,中央大學,2025-12-10,24.967652,121.185165,0.000283472
C1M610,石磐龍,2025-12-10,23.496606,120.663506,0.013873561
C0C790,東眼山,2025-12-10,24.8284,121.40888,0.03000912
C0UA10,鴛鴦湖,2025-12-10,24.590269,121.412228,0.0016063674
V2C260,八德蔬果,2025-12-10,24.978508,121.281819,0.0004269561
C0R800,丹路,2025-12-10,22.204481,120.750989,0.09314511
C0G920,永靖,2025-12-10,23.924703,120.547533,0.02181561
C2M950,太和,2025-12-10,23.538372,120.702961,0.0048287683
C1A630,下盆,2025-12-10,24.771003,121.538622,0.02455061
B2N890,畜產試驗所,2025-12-10,23.058972,120.336406,0.2102211
C0UA30,白嶺,2025-12-10,24.527819,121.519031,0.0035094535
C1V580,溪南(特生中心),2025-12-10,23.084972,120.788475,0.0037180101
C1T970,大農,2025-12-10,23.615233,121.413331,0.00077323616
C0R650,竹田,2025-12-10,22.58486,120.54344,0.15238173
C1H900,清流,2025-12-10,24.080775,120.962997,0.031604324
C1C510,水尾,2025-12-10,24.940081,121.087161,0.00018741518
C2N170,茅港尾,2025-12-10,23.2061,120.2624,0.048540793
C0F9X0,大雅(中科園區),2025-12-10,24.21528,120.62445,0.009628149
C0SB60,白守蓮,2025-12-10,23.126769,121.401914,0.0028508068
C0O970,虎頭埤,2025-12-10,23.021375,120.347878,0.34469166
C0C730,中大臨海站,2025-12-10,24.966126,121.008581,6.84886e-05
C0X250,新營,2025-12-10,23.310689,120.316681,0.034984652
C0V700,三民,2025-12-10,22.645017,120.311233,0.0539989
C0U870,大礁溪,2025-12-10,24.791042,121.675047,0.008795635
C0E870,高鐵苗栗,2025-12-10,24.60725,120.826094,0.0031979508
A2K570,古坑花卉中心,2025-12-10,23.63353,120.55239,0.031083334
C0TA30,鹽寮,2025-12-10,23.845606,121.592664,0.024154328
C0M860,新美,2025-12-10,23.338017,120.683169,0.43691212
C1E701,八卦,2025-12-10,24.491756,120.927619,0.015022493
C2TA90,加納納,2025-12-10,23.466421,121.359867,0.00097555254
C0I420,國姓,2025-12-10,24.037803,120.855072,0.19701548
C2D720,關西工作站,2025-12-10,24.757275,121.184792,0.0012564643
C0S960,香蘭,2025-12-10,22.587569,120.993375,0.20789455
467620,蘭嶼,2025-12-10,22.0369,121.55843,0.0014878899
C0R260,春日,2025-12-10,22.370361,120.628306,0.032806013
72G600,臺中農改場,2025-12-10,24.003028,120.534389,0.01336308
C0Z210,瑞穗,2025-12-10,23.5239,121.39021,0.0018157734
C0M820,達邦,2025-12-10,23.453994,120.749517,0.027634423
C0V860,南寮,2025-12-10,22.7616,120.2339,0.081844196
C0G740,大城,2025-12-10,23.852487,120.320935,0.005226347
C0R920,塭仔,2025-12-10,22.4169,120.5197,0.040140428
C0R470,高樹,2025-12-10,22.826389,120.600806,0.14481372
C0R680,佳樂水,2025-12-10,21.993578,120.861633,0.062557176
C1O870,大棟山,2025-12-10,23.31157,120.52226,0.015923224
C0D360,梅花,2025-12-10,24.678347,121.208558,0.015527809
C0Z190,富世,2025-12-10,24.14743,121.6297,0.0006038944
C0AI10,屈尺,2025-12-10,24.92184,121.54475,0.0022600407
B2U990,畜試東區分所,2025-12-10,24.669039,121.832561,0.7946262
C0SB80,長濱漁港,2025-12-10,23.313644,121.459994,0.010280361
C0TA50,和仁,2025-12-10,24.241394,121.712472,0.002033089
C0V910,大樹,2025-12-10,22.684645,120.432803,0.19945276
C1R610,西大武山,2025-12-10,22.617719,120.7322,0.0005374859
C0G900,線西,2025-12-10,24.143358,120.443536,0.0027262892
C0M700,竹崎,2025-12-10,23.526178,120.555508,0.0312262
C2E880,三義,2025-12-10,24.405478,120.749819,0.012305869
C0C720,竹圍,2025-12-10,25.112692,121.239824,9.879353e-05
C0F9P0,清水,2025-12-10,24.312297,120.562242,0.0049642706
C0Z150,吉安光華,2025-12-10,23.930925,121.595153,0.023876108
C0FA80,小雪山天池,2025-12-10,24.28025,121.02627,0.0010087304
467300,東吉島,2025-12-10,23.25727,119.66762,0.00086814724
C1D640,外坪(五指山),2025-12-10,24.644447,121.090961,0.026140388
C0F9O0,潭子,2025-12-10,24.213106,120.703933,0.012431967
C2H9R0,卓社,2025-12-10,23.887894,121.000086,0.006676868
72T250,花蓮農改場,2025-12-10,23.975222,121.563889,0.011277993
C0E780,銅鑼,2025-12-10,24.489681,120.790853,0.011124448
C1T950,太安,2025-12-10,23.666719,121.370128,0.0049447473
C0E830,苑裡,2025-12-10,24.439714,120.653053,0.0057083317
467270,田中,2025-12-10,23.873803,120.581286,0.054920748
C0SA10,檳榔四格山,2025-12-10,22.810031,121.109308,0.0004347362
C1T830,布洛灣,2025-12-10,24.17184,121.57127,0.17205647
C0F970,大坑,2025-12-10,24.173142,120.722289,0.007214131
C1U920,思源,2025-12-10,24.393125,121.347214,0.0017701708
C2H9Y0,松茗,2025-12-10,23.8167,120.650765,0.08361898
C0A931,三和,2025-12-10,25.233153,121.595236,0.0036829894
C0I010,廬山,2025-12-10,24.033311,121.181808,0.0022690692
C2M940,日野賀,2025-12-10,23.434056,120.727169,0.009371239
C0R860,鼻頭,2025-12-10,22.1043,120.8979,0.08629116
C0UB20,壯圍,2025-12-10,24.7359,121.8163,0.15634803
C0R790,九棚,2025-12-10,22.14195,120.889281,0.10772465
C0W110,東莒,2025-12-10,25.9652,119.98069,0.0006028481
C1U930,粉鳥林,2025-12-10,24.497088,121.842479,0.85354376
C1I211,蘆竹湳,2025-12-10,23.934019,120.811994,0.16846704
C0S830,長濱,2025-12-10,23.286817,121.411975,0.0018431189
C1F9F1,伯公龍,2025-12-10,24.272392,120.849047,0.012591499
C0UB90,太平山莊,2025-12-10,24.494171,121.536209,0.0011554786
C0E810,西湖,2025-12-10,24.562947,120.7485,0.0014580096
C1I440,新高口,2025-12-10,23.478744,120.878939,0.0007199627
C0O840,王爺宮,2025-12-10,23.222064,120.40085,0.11013746
C0T9G0,鳳林山,2025-12-10,23.735269,121.420131,0.0014818389
C0X080,佳里,2025-12-10,23.173039,120.145086,0.0069448445
C0FB70,大甲溪埔,2025-12-10,24.370625,120.620067,0.005942114
C0Z310,清水斷崖,2025-12-10,24.218294,121.689142,0.0010877807
C0M680,太保,2025-12-10,23.455062,120.331455,0.06314212
C1S820,金峰,2025-12-10,22.590969,120.933236,0.13928203
C0AD10,八里,2025-12-10,25.150211,121.403947,9.822044e-05
C2K240,草嶺,2025-12-10,23.59555,120.693461,0.01335055
C1SA70,都蘭,2025-12-10,22.87794,121.226881,0.0027455962
C0K440,二崙,2025-12-10,23.772797,120.408944,0.060462557
C1A760,坪林交控,2025-12-10,24.94284,121.713442,0.13283332
C0F9N0,大里,2025-12-10,24.092464,120.701378,0.08448298
C0SA90,達仁林場,2025-12-10,22.264347,120.823972,0.012299327
C1R290,石門山,2025-12-10,22.112611,120.756597,0.0036978794
42HA10,萬大發電廠,2025-12-10,23.978875,121.139639,0.011005201
C0R890,山海,2025-12-10,21.9878,120.7091,0.0038162123
C0T9A0,月眉山,2025-12-10,23.809928,121.539828,0.0005608043
C0AC70,信義,2025-12-10,25.037822,121.564597,0.0004018743
C0K560,棋山,2025-12-10,23.68645,120.603417,0.032530654
C2FB50,出雲,2025-12-10,24.206469,120.902794,0.035003453
C1Z240,中平林道,2025-12-10,23.42115,121.26763,0.016819341
U2H480,溪頭,2025-12-10,23.670306,120.798194,0.012162126
C0M880,好美里,2025-12-10,23.3364,120.138,0.008117572
C0T9E0,大坑,2025-12-10,23.880628,121.581981,0.0006567533
C0K530,臺西,2025-12-10,23.701547,120.197559,0.009353954
C1E900,國一N128K,2025-12-10,24.560997,120.844186,0.005539361
C0AJ50,水湳洞,2025-12-10,25.123695,121.862238,0.0042770794
C0AI20,白沙灣,2025-12-10,25.283128,121.519058,0.0002713064
C2V310,美濃,2025-12-10,22.898792,120.51907,0.29568526
C0A860,大坪,2025-12-10,25.165914,121.632969,0.057501704
C1U850,觀音海岸,2025-12-10,24.38319,121.77856,0.0023449622
C2K610,草嶺石壁,2025-12-10,23.602469,120.707731,0.011185651
C0U950,鶯子嶺,2025-12-10,24.89754,121.79244,0.006671851
C0O900,善化,2025-12-10,23.112883,120.297219,0.20837343
C0K550,蔦松,2025-12-10,23.514319,120.229736,0.012138014
E2P980,林試六龜中心,2025-12-10,22.991703,120.645722,0.21966583
C0E590,通霄,2025-12-10,24.471892,120.704622,0.007974706
C1I310,西巒,2025-12-10,23.754486,120.883956,0.03257425
C0A550,泰平,2025-12-10,24.971197,121.823711,0.2256253
C0I360,水里,2025-12-10,23.812553,120.849792,0.05616455
C0R830,高士,2025-12-10,22.121825,120.836781,0.0026032103
C1I101,溪頭,2025-12-10,23.661789,120.807647,0.0019393186
C0AJ20,野柳,2025-12-10,25.20703,121.690021,0.0077143717
C0B060,暖暖,2025-12-10,25.0957,121.7403,0.0007632167
C1H920,長豐,2025-12-10,24.102039,120.879897,0.029537901
C0V360,內門,2025-12-10,22.975481,120.466769,0.21804158
C0R850,林邊,2025-12-10,22.4634,120.5339,0.12118655
C0E930,龍鳳,2025-12-10,24.700034,120.859125,0.00045608607
C0U910,冬山,2025-12-10,24.63373,121.7937,0.7946262
C1E721,泰安,2025-12-10,24.489017,120.968036,0.0061735343
82H320,茶改中部分場,2025-12-10,23.875611,120.913583,0.15999535
C0M750,布袋,2025-12-10,23.380878,120.167789,0.015046664
C1S860,利嘉,2025-12-10,22.809417,121.050528,0.085851654
E2S980,林試太麻里1,2025-12-10,22.598922,120.980044,0.17936526
C0X170,關廟,2025-12-10,22.963017,120.327797,0.31737992
C0V720,林園,2025-12-10,22.507747,120.394511,0.1604505
C1I510,線浸林道,2025-12-10,23.761508,120.832956,0.008561459
C0D690,外湖,2025-12-10,24.917735,120.968711,0.0001560258
C0C750,新興坑尾,2025-12-10,25.0061,121.0971,7.076028e-05
B2Q810,畜試南區分所,2025-12-10,21.945583,120.802167,0.073001646
C0S790,金崙,2025-12-10,22.538122,120.966875,0.09734516
C0AH90,福山植物園,2025-12-10,24.760717,121.58135,0.043271087
C0I540,奇萊稜線,2025-12-10,24.109231,121.326456,0.0004223446
C0M850,表湖,2025-12-10,23.24186,120.64166,0.031930596
C0S770,大溪山,2025-12-10,22.478475,120.943325,0.046753213
C0AG80,中和,2025-12-10,24.991622,121.491792,0.00047619347
C0T790,大禹嶺,2025-12-10,24.186117,121.316086,0.0007799679
C0T9B0,水源,2025-12-10,23.991861,121.537169,0.0007461787
C0R840,牡丹池山,2025-12-10,22.168389,120.841225,0.009752807
C1I131,桶頭,2025-12-10,23.641944,120.654117,0.03589055
CAL110,布袋國中,2025-12-10,23.35893,120.18026,0.015118241
467571,新竹,2025-12-10,24.827853,121.014219,0.0015757297
C0Z290,赤柯山,2025-12-10,23.36893,121.38293,0.0010552648
C0X280,將軍,2025-12-10,23.214999,120.13577,0.007025607
C0S690,太麻里,2025-12-10,22.60902,120.98533,0.0035371904
C0U880,北關,2025-12-10,24.9072,121.8734,0.032625724
CAW010,東引,2025-12-10,26.3588,120.4836,0.0012840988
C0G810,埔心,2025-12-10,23.947633,120.525456,0.021225926
C0U970,大福,2025-12-10,24.80064,121.81389,0.054696508
C2H9N0,仁愛東眼,2025-12-10,24.026875,121.1205,0.0033026077
C1E670,南礦,2025-12-10,24.538278,121.002836,0.015898423
C0M520,東後寮,2025-12-10,23.369908,120.248065,0.014126258
C1E461,松安,2025-12-10,24.397972,120.986022,0.006725285
C2N160,西拉雅風管處,2025-12-10,23.189481,120.335297,0.17967163
C2M970,碧湖,2025-12-10,23.568632,120.624165,0.026456077
C0A640,石碇,2025-12-10,24.993969,121.662917,0.02610959
E2S960,林試太麻里2,2025-12-10,22.598,120.99775,0.21871886
C0F9Y0,桃山,2025-12-10,24.432739,121.303808,0.0003436928
C1I020,萬大,2025-12-10,23.979817,121.132261,0.0093526915
C2UC20,長嶺,2025-12-10,24.70894,121.61162,0.050187573
C0U940,羅東,2025-12-10,24.68184,121.74934,0.14965282
C0M650,朴子,2025-12-10,23.43463,120.23902,0.037107937
C1I500,大尖山,2025-12-10,23.858572,120.994889,0.0008918854
C0FB40,中橫21.6k,2025-12-10,24.2499,121.1455,0.0019906692
C0G820,田尾,2025-12-10,23.901669,120.509389,0.021383306
E2K600,四湖植物園,2025-12-10,23.676986,120.163433,0.01061383
C0S730,綠島,2025-12-10,22.6672,121.47533,0.00087922876
12Q970,東港工作站,2025-12-10,22.479997,120.466058,0.12353001
C0E430,南庄,2025-12-10,24.601775,121.000214,0.019058403
C1TA00,太魯閣,2025-12-10,24.15773,121.6236,0.00047929242
466920,臺北,2025-12-10,25.037658,121.514853,0.00040615242
C0R600,舊泰武,2025-12-10,22.588194,120.664944,0.09659152
C1I260,北坑,2025-12-10,23.9246,121.006903,0.11349753
466910,鞍部,2025-12-10,25.182586,121.529731,0.008758845
C1I230,九份二山,2025-12-10,23.961944,120.845,0.053366702
C2A660,瑞芳,2025-12-10,25.113169,121.801147,0.002249302
C0R270,琉球嶼,2025-12-10,22.332244,120.362236,0.17551403
C1T990,高寮,2025-12-10,23.394239,121.356808,0.0054701385
C0G620,芬園,2025-12-10,24.015678,120.6213,0.33827305
C1Z140,荖溪,2025-12-10,23.890575,121.45964,0.013536758
C1I201,中心崙,2025-12-10,23.728722,120.712097,0.04510062
C1I400,凌霄,2025-12-10,24.018778,121.004456,0.0036264583
C1M640,十字,2025-12-10,23.492153,120.753683,0.0033470371
G2P820,農試鳳山分所,2025-12-10,22.646611,120.356083,0.050616395
C0Z270,蕃薯寮,2025-12-10,23.73835,121.540108,0.0015103668
C0FB10,出雲山苗圃,2025-12-10,24.23105,120.90475,0.0076505174
C0F9Q0,外埔,2025-12-10,24.347817,120.705686,0.032693855
C0K580,高鐵雲林,2025-12-10,23.737456,120.417944,0.073222384
C2I090,鳳凰,2025-12-10,23.728081,120.787347,0.087936595
C0U990,員山,2025-12-10,24.74435,121.72247,0.15280798
C0V770,大社,2025-12-10,22.730306,120.346639,0.07911985
C0X120,麻豆,2025-12-10,23.183289,120.248611,0.07038447
C0C670,龍潭,2025-12-10,24.870056,121.221389,0.0013525834
C0D680,香山濕地,2025-12-10,24.783581,120.914988,0.00073050027
C0S980,勝林山,2025-12-10,22.430439,120.8938,0.0061084926
C0V730,大寮,2025-12-10,22.605614,120.395717,0.21215259
C0R570,麟洛,2025-12-10,22.65078,120.52719,0.20843385
C2M930,石卓,2025-12-10,23.478744,120.702264,0.0032317333
C0G9B0,和美,2025-12-10,24.105169,120.492131,0.0015837967
CAG100,王功漁港,2025-12-10,23.96824,120.32586,0.0042649326
C0X290,北門,2025-12-10,23.267772,120.125481,0.007024832
C2F930,大甲,2025-12-10,24.347667,120.640403,0.005810394
C0D650,湖口,2025-12-10,24.904794,121.043628,0.00018147657
C0E420,竹南,2025-12-10,24.708978,120.888897,0.00060956954
C0U780,五結,2025-12-10,24.68637,121.79794,0.15618064
C1I250,鯉潭,2025-12-10,23.961922,120.991131,0.0453136
C0R130,阿禮,2025-12-10,22.742908,120.743678,0.0065298453
C0X100,臺南市北區,2025-12-10,23.010394,120.194228,0.0521393
C0S920,金峰嘉蘭,2025-12-10,22.594789,120.960825,0.17565784
C0V490,新興,2025-12-10,22.627422,120.298803,0.15287605
C0F9K0,大安,2025-12-10,24.345061,120.588025,0.0058794715
467290,古坑,2025-12-10,23.633639,120.551889,0.031083334
C2E970,八甲,2025-12-10,24.535811,120.795983,0.007814931
C0V440,鳳山,2025-12-10,22.646653,120.356122,0.050616395
C1T940,大觀,2025-12-10,23.714206,121.373133,0.000629635
C0E740,造橋,2025-12-10,24.637056,120.864778,0.0008505255
C0R100,尾寮山,2025-12-10,22.833111,120.683889,0.0064084404
A2K630,臺大雲林校區,2025-12-10,23.730628,120.423903,0.073468864
467990,馬祖,2025-12-10,26.169467,119.923158,0.0013955894
C0D580,寶山,2025-12-10,24.735006,121.025192,0.00074287876
E2P990,林試扇平站,2025-12-10,22.9677,120.6857,0.47482795
C0AI30,三重,2025-12-10,25.057328,121.500629,0.00042976465
C0AH00,汐止,2025-12-10,25.066881,121.658778,0.00040615242
C1Z040,立山,2025-12-10,23.443356,121.327375,0.004304243
466881,新北,2025-12-10,24.959207,121.525196,0.00041420752
C0W130,花嶼,2025-12-10,23.40007,119.32276,0.0006131548
C0A950,鼻頭角,2025-12-10,25.129036,121.923372,0.013327523
C0K470,林內,2025-12-10,23.748675,120.609642,0.040838357
C2F990,摩天嶺,2025-12-10,24.322458,120.936819,0.045183122
82C160,茶改場,2025-12-10,24.908472,121.185333,0.00071242295
C0Z320,清水林道,2025-12-10,23.27125,121.188272,0.0028686845
C0R760,南仁湖,2025-12-10,22.084681,120.863353,0.0036976598
C0M670,大林,2025-12-10,23.600616,120.45841,0.055421945
C0M800,茶山,2025-12-10,23.299075,120.664767,0.75982594
C0A9C0,天母,2025-12-10,25.117494,121.537169,0.00096757495
72K220,南改斗南分場,2025-12-10,23.634556,120.477333,0.04762901
72AI40,桃改樹林分場,2025-12-10,24.944503,121.386972,0.0009899617
C0S910,蘭嶼燈塔,2025-12-10,22.081197,121.503117,0.0038894282
C0B050,八斗子,2025-12-10,25.144754,121.79167,0.005331568
C0U900,內城,2025-12-10,24.71813,121.68766,0.13987619
C0X320,柳營,2025-12-10,23.253328,120.375253,0.20815521
C0M790,新港,2025-12-10,23.553269,120.345728,0.03354964
C0F9T0,西屯,2025-12-10,24.179494,120.641275,0.00751233
C0E950,松安,2025-12-10,24.39792,120.98599,0.006725285
C0SA30,都歷,2025-12-10,23.020333,121.323642,0.0044767004
C0C620,蘆竹,2025-12-10,25.084275,121.265767,0.00012174013
C0R730,大坪頂,2025-12-10,22.024633,120.69355,0.0029455156
C0AJ40,石門,2025-12-10,25.273672,121.601198,0.00016474233
C0E750,苗栗,2025-12-10,24.564569,120.824575,0.0053534126
C0T870,鯉魚潭,2025-12-10,23.935639,121.508944,0.0051193484
C1V170,排雲,2025-12-10,23.463619,120.954147,0.00032430168
C2H950,中寮,2025-12-10,23.884447,120.766406,0.018033072
C0R350,貓鼻頭,2025-12-10,21.921774,120.7358,0.0016356459
C0V660,岡山,2025-12-10,22.797078,120.294958,0.054705236
C1H941,雙冬,2025-12-10,23.967378,120.802189,0.094894774
C0AJ70,田寮,2025-12-10,25.2698,121.4886,0.00028597726
C0AI00,五股,2025-12-10,25.07445,121.42728,0.00019663323
C0Z280,德武,2025-12-10,23.47426,121.41071,0.0012604689
C2RA10,大新,2025-12-10,22.67558,120.57788,0.12449462
C0R700,枋山,2025-12-10,22.246844,120.661086,0.015698692
C0C460,復興,2025-12-10,24.820208,121.352281,0.09059215
C2K300,鹿南,2025-12-10,23.63855,120.3636,0.059214782
E2H360,蓮華池,2025-12-10,23.918333,120.885278,0.04225963
C0M640,中埔,2025-12-10,23.42538,120.5229,0.05192223
C0W140,金沙,2025-12-10,24.488292,118.408778,0.0013670991
C2A540,四堵,2025-12-10,24.8926,121.745736,0.19277324
C0ACA0,新莊,2025-12-10,25.051478,121.446756,0.00062140945
C0R220,潮州,2025-12-10,22.534361,120.54,0.12865853
U2HA40,臺大內茅埔,2025-12-10,23.689722,120.851117,0.64051795
467490,臺中,2025-12-10,24.145736,120.684075,0.01755256
C0UB60,明池,2025-12-10,24.650688,121.475277,0.0027670907
C0U960,翠峰湖,2025-12-10,24.510856,121.608044,0.0016298674
E2HA20,林試畢祿溪站,2025-12-10,24.226944,121.308522,0.0015777234
C0V890,前鎮,2025-12-10,22.5718,120.3117,0.15364279
C1F941,雪嶺,2025-12-10,24.280586,121.026642,0.0010087304
C2H9E0,國姓南港,2025-12-10,23.911108,120.846556,0.008823328
C0AC80,文山,2025-12-10,25.00235,121.575728,0.00035274416
C0F9R0,龍井,2025-12-10,24.184536,120.528972,0.0031524773
C0M760,民雄,2025-12-10,23.551754,120.428457,0.058709204
C0UA40,西德山,2025-12-10,24.560647,121.752608,0.011224289
C2TA70,赤科坪,2025-12-10,23.39885,121.39168,0.0011418756
C1T920,中興,2025-12-10,23.769503,121.498653,0.013888306
C0D550,雪霸,2025-12-10,24.526972,121.11605,0.003301534
C2F860,梨山,2025-12-10,24.247522,121.243669,0.0015062691
C0R320,車城,2025-12-10,22.0744,120.716247,0.0010753534
C1S870,南美山,2025-12-10,23.15025,121.382333,0.00097527105
C0B020,基隆嶼,2025-12-10,25.19141,121.78391,6.709884e-05
C1U501,牛鬥,2025-12-10,24.637836,121.573656,0.2861443
C0M730,嘉義市東區,2025-12-10,23.457673,120.460531,0.04349134
C2R990,泰武,2025-12-10,22.60686,120.69765,0.00946759
C0S700,知本,2025-12-10,22.684866,121.005642,0.037353054
C1N001,沙崙,2025-12-10,22.935472,120.309406,0.31364202
C0V760,橋頭,2025-12-10,22.757806,120.30575,0.08006093
C0G960,福寶,2025-12-10,24.0443,120.3814,0.0015121102
C0X210,白河,2025-12-10,23.347466,120.414427,0.064069584
C0S810,東河,2025-12-10,22.972672,121.303986,0.00029860483
C2R170,屏東,2025-12-10,22.66027,120.49403,0.2098265
C0R670,楓港,2025-12-10,22.190131,120.692156,0.009727056
C0FA50,霧峰,2025-12-10,24.0419,120.6995,0.2428207
C0UB10,蘇澳,2025-12-10,24.5969,121.8571,0.93085736
C0G950,防潮門,2025-12-10,24.1835,120.4871,0.0030749403
C0M740,六腳,2025-12-10,23.492871,120.290625,0.05008974
C1R250,力里,2025-12-10,22.428117,120.629228,0.10072966
C0K330,虎尾,2025-12-10,23.719183,120.442036,0.07075877
C2FA00,烏石坑,2025-12-10,24.273503,120.947617,0.050812166
C0V620,永安,2025-12-10,22.82315,120.236856,0.055357512
C1I330,楓樹林,2025-12-10,23.986803,121.076117,0.0069110803
C0W200,湖西,2025-12-10,23.596314,119.67275,0.00064849254
72Q010,高雄農改場,2025-12-10,22.709333,120.525889,0.15689372
C0SA40,瑞和,2025-12-10,22.974361,121.156697,0.0011309463
C0C680,龜山,2025-12-10,25.02846,121.38656,0.010072717
C2V260,月眉,2025-12-10,22.971003,120.539853,0.16776986
C0V450,鳳森,2025-12-10,22.545064,120.392592,0.14419214
C0FA90,小雪山林道,2025-12-10,24.29515,121.03651,0.0007714009
C0U720,南山,2025-12-10,24.43742,121.38167,0.0075466596
A2N290,臺南蘭花園區,2025-12-10,23.340258,120.379661,0.04783797
C0R560,新園,2025-12-10,22.5434,120.461558,0.16045073
C0U890,三星,2025-12-10,24.66812,121.65302,0.56953055
C1V300,御油山,2025-12-10,23.001983,120.715364,0.0030186612
C0U600,礁溪,2025-12-10,24.817539,121.765608,0.21136552
C1T980,龍澗,2025-12-10,24.023289,121.411328,0.005873042
C0D670,海天一線,2025-12-10,24.831986,120.914438,0.00082742365
C0SA00,歷坵,2025-12-10,22.520969,120.89185,0.040783238
C0M710,東石,2025-12-10,23.458927,120.15385,0.0033824728
C0M780,鹿草,2025-12-10,23.41134,120.30835,0.035328418
C0U520,雙連埤,2025-12-10,24.753033,121.641303,0.008406926
C0B010,七堵,2025-12-10,25.094819,121.71713,0.0011227583
C0R480,長治,2025-12-10,22.693128,120.542622,0.19455978
C1V830,國三S383K,2025-12-10,22.781967,120.426475,0.33808482
12Q980,恆春工作站,2025-12-10,22.079678,120.714425,0.0010709378
C1O940,東山服務區,2025-12-10,23.286016,120.398472,0.10372874
C1U840,東澳嶺,2025-12-10,24.5378,121.8485,0.0720415
C1D630,飛鳳山,2025-12-10,24.766464,121.119178,0.02016982
C0S940,石寧山,2025-12-10,23.223772,121.406639,0.008504955
C0K410,北港,2025-12-10,23.573957,120.292802,0.023846725
C2M620,瑞里,2025-12-10,23.545133,120.675197,0.0069913934
C0SB70,小港漁港,2025-12-10,23.158558,121.400431,0.00877932
C2O950,安南,2025-12-10,23.076694,120.144861,0.0050093764
C0F0E0,南湖圈谷,2025-12-10,24.363714,121.444667,0.00043508195
467610,成功,2025-12-10,23.097486,121.373428,0.0019668562
C0G890,伸港,2025-12-10,24.148933,120.484403,0.0027895202
C2E540,龍溪,2025-12-10,24.606489,120.783933,0.0029973967
C1V200,梅山,2025-12-10,23.268447,120.823556,0.15263799
C0T9H0,加路蘭山,2025-12-10,23.682947,121.5274,0.0013071445
C2O930,玉井,2025-12-10,23.126042,120.46055,0.25761864
C1F911,新伯公,2025-12-10,24.221361,120.841069,0.009443923
C0R490,九如,2025-12-10,22.7405,120.490503,0.15708521
C0X200,左鎮,2025-12-10,23.056758,120.408522,0.29828557
C0FA60,鞍馬山工作站,2025-12-10,24.267064,121.000793,0.0011671103
C0SB50,叭嗡嗡,2025-12-10,23.047062,121.343223,0.009016747
C1F891,稍來,2025-12-10,24.265689,121.001142,0.001222822
72N240,七股研究中心,2025-12-10,23.081672,120.062894,0.005024045
C0C700,中壢,2025-12-10,24.977661,121.256375,0.00043255687
C0M690,水上,2025-12-10,23.419734,120.388909,0.06212996
C0V690,鼓山,2025-12-10,22.623325,120.275575,0.15343858
C0O860,大內,2025-12-10,23.11885,120.36083,0.20989688
C0Z200,萬榮,2025-12-10,23.709219,121.420106,0.007640088
C0T9D0,和中,2025-12-10,24.26676,121.74103,0.106561884
C1O921,楠西,2025-12-10,23.183511,120.484083,0.3096019
C0AJ30,淡水觀海,2025-12-10,25.184591,121.408616,0.0012964711
C0V810,左營,2025-12-10,22.67491,120.28491,0.053827457
C0UA70,桃源谷,2025-12-10,24.962606,121.888875,0.0083693145
C0X130,官田,2025-12-10,23.193217,120.315422,0.1806536
C1H000,翠峰,2025-12-10,24.109397,121.205211,0.0008747657
C0UA90,石城,2025-12-10,24.980444,121.951214,0.40268564
C1E681,南勢山,2025-12-10,24.421669,120.923831,0.0033297765
C0A9F0,內湖,2025-12-10,25.079422,121.57545,0.00040615242
C0K291,宜梧,2025-12-10,23.536281,120.169329,0.012021773
C1K540,口湖,2025-12-10,23.585344,120.180517,0.0047664037
C0R780,滿州,2025-12-10,22.024403,120.839892,0.16294257
C0V870,文安,2025-12-10,22.8025,120.2164,0.057168756
C0U650,玉蘭,2025-12-10,24.675286,121.587061,0.046276923
C0R640,東港,2025-12-10,22.46247,120.44074,0.12412082
C0AJ80,板橋,2025-12-10,25.0107,121.4489,0.0005055158
C0S660,下馬,2025-12-10,23.150427,121.070312,0.0007768884
C1H9B1,阿眉,2025-12-10,24.1263,120.994672,0.001831694
C0UA20,多加屯,2025-12-10,24.368614,121.373189,0.00082287315
C0E730,頭份,2025-12-10,24.688247,120.912206,0.00058081426
72V140,高改旗南分場,2025-12-10,22.857861,120.516667,0.34189224
C0K480,莿桐,2025-12-10,23.761192,120.502372,0.059423313
C0U980,坪林石牌,2025-12-10,24.86478,121.77396,0.0053655277
C0T900,西林,2025-12-10,23.8119,121.441458,0.004177562
C1I150,青雲,2025-12-10,23.793361,120.949378,0.21872993
C2E980,和興,2025-12-10,24.505319,120.923016,0.056537706
467350,澎湖,2025-12-10,23.565503,119.563094,0.0006086717
C0G800,埔鹽,2025-12-10,24.000394,120.431683,0.0018329893
C0H960,草屯,2025-12-10,23.973672,120.68085,0.21701233
C1V780,多納林道,2025-12-10,22.888028,120.737917,0.019446053
C0E920,通霄漁港,2025-12-10,24.498589,120.673876,0.007116993
C0Z330,安通山,2025-12-10,23.290728,121.348528,0.00095367664
C0AH10,永和,2025-12-10,25.01125,121.508111,0.00051440374
C0AK10,太平里,2025-12-10,25.134937,121.364899,9.615604e-05
C2G640,鹿港,2025-12-10,24.0753,120.430481,0.0015222091
C1E890,國三N149K,2025-12-10,24.463414,120.680019,0.003955524
C1R110,口社,2025-12-10,22.770111,120.645222,0.108700246
C1M870,國三N285K,2025-12-10,23.550319,120.505833,0.038419783
C1E480,鳳美,2025-12-10,24.554803,121.034747,0.11014566
C0M530,奮起湖,2025-12-10,23.493903,120.699253,0.004698881
C0C590,觀音,2025-12-10,25.027072,121.153317,2.969712e-05
C0T9M0,靜浦,2025-12-10,23.455167,121.495028,0.0041233087
C2H9M0,發祥,2025-12-10,24.154094,121.164517,0.0048873764
C0AI40,石牌,2025-12-10,25.115597,121.513139,0.0010277814
C1F871,上谷關,2025-12-10,24.203483,121.018644,0.052920107
C2H9G0,百勝,2025-12-10,24.051142,120.909361,0.05118185
C0G880,二水,2025-12-10,23.810742,120.6173,0.021016901
C0R940,加祿堂,2025-12-10,22.3363,120.6217,0.014086694
C0W220,北竿,2025-12-10,26.220358,119.974881,0.0013980697
C0O960,崎頂,2025-12-10,22.959547,120.369317,0.315884
C0TA40,秀林,2025-12-10,24.302864,121.731144,0.0062992647
C0S750,向陽,2025-12-10,23.248397,120.986133,0.001289499
C0T9F0,水璉,2025-12-10,23.797131,121.542514,0.0018587632
C1M600,頭凍,2025-12-10,23.406364,120.603339,0.023366602
467660,臺東,2025-12-10,22.752211,121.154586,0.0037256693
C1D380,新埔,2025-12-10,24.84745,121.03834,0.0005923943
C2G980,田頭村,2025-12-10,23.8263,120.444175,0.06031338
C0V750,路竹,2025-12-10,22.854997,120.259439,0.043112166
C0N050,蚵寮,2025-12-10,23.301,120.1104,0.008114048
C2X060,下營,2025-12-10,23.226806,120.256291,0.04855665
72M700,南改鹿草分場,2025-12-10,23.416869,120.283061,0.03728007
C1SA50,利嘉林道,2025-12-10,22.82325,121.009389,0.005182692
C0UB70,太平山中間站,2025-12-10,24.542003,121.513453,0.008828225
C0A940,金山,2025-12-10,25.223628,121.643967,0.0065891445
C1V340,大津,2025-12-10,22.888322,120.645986,0.11175145
C0W180,七美,2025-12-10,23.219333,119.444892,0.0007658592
C1F9C1,白冷,2025-12-10,24.182844,120.929889,0.009028949
K2E710,苗改生物防治研究中心,2025-12-10,24.422861,120.871833,0.07331302
C0N040,蘆竹溝,2025-12-10,23.2344,120.0961,0.007026412
C0TB40,崇德,2025-12-10,24.166144,121.657414,0.0008639671
C0D760,大坪苗圃,2025-12-10,24.5362,121.1108,0.0077266637
C2W230,畜試所澎湖,2025-12-10,23.628342,119.513206,0.0004828095
C0R880,後壁湖,2025-12-10,21.9457,120.7457,0.004334
C1I280,埔中,2025-12-10,23.820778,120.642594,0.08699722
467790,墾丁雷達站,2025-12-10,21.948235,120.808028,0.03254562
C0W190,望安,2025-12-10,23.380564,119.494075,0.0005738269
C0Z170,卓溪,2025-12-10,23.3443,121.3029,0.0013312567
C0F850,東勢,2025-12-10,24.246428,120.833047,0.011375267
466900,淡水,2025-12-10,25.164889,121.448906,9.606458e-05
C0I370,魚池,2025-12-10,23.895703,120.94135,0.06659409
C0C630,大溪,2025-12-10,24.882853,121.265547,0.0005190799
C0A520,山佳,2025-12-10,24.974944,121.402008,0.00061911566
C0I110,竹山,2025-12-10,23.761225,120.688156,0.025387295
82H840,茶改南部分場,2025-12-10,23.762528,120.7405,0.04347368
C0G660,溪湖,2025-12-10,23.94835,120.479122,0.021544952
C1T800,洛韶,2025-12-10,24.204558,121.453956,0.00064546656
C1T810,慈恩,2025-12-10,24.192044,121.388386,0.0018489461
C1E451,象鼻,2025-12-10,24.368617,120.940228,0.0034431708
C0AC60,三峽,2025-12-10,24.939025,121.369728,0.0007540518
C0I490,萬大林道,2025-12-10,23.928228,121.091411,0.0017960528
C1I290,豐丘,2025-12-10,23.668178,120.887417,0.008643136
C1I320,奧萬大,2025-12-10,23.952956,121.178556,0.0062429314
C2M910,嘉義大學,2025-12-10,23.471325,120.485903,0.047588475
C0U770,南澳,2025-12-10,24.44935,121.81022,0.11916036
C2TB30,吉安,2025-12-10,23.94538,121.54803,0.011739544
C0A980,社子,2025-12-10,25.109508,121.469681,0.000101198624
C0V800,六龜,2025-12-10,22.997889,120.633583,0.21179183
C1G9D0,國一S218K,2025-12-10,23.890641,120.493253,0.028472615
C0E570,白沙屯,2025-12-10,24.549447,120.696803,0.0033138304
C2F9A0,中竹林,2025-12-10,24.103556,120.751061,0.07884325
C0FA40,臺中電廠,2025-12-10,24.2146,120.4907,0.0031690388
C2G9A0,畜試所彰化,2025-12-10,23.86045,120.557964,0.054691
C0H9C0,合歡山,2025-12-10,24.143442,121.272547,0.0004804401
G2M350,農試溪口農場,2025-12-10,23.58565,120.408111,0.058634073
C0U860,頭城,2025-12-10,24.85323,121.8308,0.20815161
C0R580,南州,2025-12-10,22.48591,120.50274,0.12412082
C0D430,峨眉,2025-12-10,24.6905,121.017189,0.00056134147
C0G780,秀水,2025-12-10,24.03405,120.503869,0.013281021
72N100,臺南農改場,2025-12-10,23.0605,120.342194,0.21021219
C0S900,蘭嶼高中,2025-12-10,22.04909,121.51214,0.018359907
C2TA60,六十石,2025-12-10,23.22477,121.31861,0.0012138815
C1F9W0,德基,2025-12-10,24.254783,121.190261,0.0015208914
C2M980,安和,2025-12-10,23.51377,120.31593,0.04742553
C1Z120,壽豐,2025-12-10,23.870853,121.508081,0.019262034
C0W160,烏坵,2025-12-10,24.9944,119.44956,0.0004697821
C1I240,外大坪,2025-12-10,23.958697,120.917931,0.03998595
C1I550,國六W023K,2025-12-10,23.979067,120.867742,0.12020843
C0R870,興海,2025-12-10,21.9752,120.8439,0.07291877
C0R140,瑪家,2025-12-10,22.682903,120.686639,0.35487586
C0A530,坪林,2025-12-10,24.938183,121.70975,0.08285905
C0X260,後壁,2025-12-10,23.366358,120.362326,0.0447229
C0Z230,和平,2025-12-10,24.30717,121.77007,0.11533078
C0G770,福興,2025-12-10,24.041289,120.437669,0.0018165204
C0H9A0,神木村,2025-12-10,23.532742,120.843667,0.003179002
C0I460,南投,2025-12-10,23.911469,120.687331,0.19669262
C0I480,梅峰,2025-12-10,24.085272,121.173572,0.0010802248
C1V570,吉東,2025-12-10,22.85422,120.5454,0.33571032
C2A560,福山,2025-12-10,24.776203,121.502811,0.16672581
C0AH30,五分山,2025-12-10,25.07125,121.780794,0.015753826
C0FA10,松柏,2025-12-10,24.429115,120.617482,0.005536643
72S200,東改班鳩分場,2025-12-10,22.829528,121.077694,0.00057055685
72HA00,中改埔里分場,2025-12-10,23.903208,120.963364,0.0662403
C2H9W0,大坪頂農水,2025-12-10,24.043122,120.932781,0.02747726
C0C650,平鎮,2025-12-10,24.897503,121.214636,0.00080077007
C0S930,延平,2025-12-10,22.902581,121.084058,0.00065827754
C0UA60,樟樹山,2025-12-10,24.41393,121.78325,0.04179029
C2UC10,出水溪,2025-12-10,24.615822,121.652253,0.030658968
C1S670,摩天,2025-12-10,23.199503,121.027,0.0010194669
C0V630,茄萣,2025-12-10,22.906642,120.182608,0.045835402
466940,基隆,2025-12-10,25.133314,121.740475,0.004999219
C0X050,東河,2025-12-10,23.296598,120.385608,0.10465357
C0R770,保力,2025-12-10,22.071122,120.764111,0.009868857
G2L020,農試嘉義分所,2025-12-10,23.485028,120.473806,0.030892767
C0X240,關子嶺,2025-12-10,23.331169,120.508025,0.5137761
C0I380,集集,2025-12-10,23.828206,120.801467,0.05072059
466990,花蓮,2025-12-10,23.975128,121.613275,0.015008438
C1V220,小關山,2025-12-10,23.154217,120.813603,0.0026522318
C1F9G1,慶福山,2025-12-10,24.180853,120.848378,0.014661953
C0FB20,雪山橋,2025-12-10,24.23192,120.9786,0.0019957782
C0Z250,瑞穗林道,2025-12-10,23.49284,121.30688,0.016756272
C0D590,新豐,2025-12-10,24.87068,120.97721,0.00075112097
C0A870,五指山,2025-12-10,25.132153,121.608692,0.018212976
C0UA50,西帽山,2025-12-10,24.555361,121.802628,0.030723551
C2R980,竹田國中,2025-12-10,22.61532,120.52412,0.14994755
C0X160,仁德,2025-12-10,22.968258,120.257689,0.12264888
C1H971,六分寮,2025-12-10,23.92507,120.6378,0.2217611
C0W120,西嶼,2025-12-10,23.5626,119.468436,0.0005842912
C0G650,員林,2025-12-10,23.946503,120.585597,0.18721682
C0AD50,鶯歌,2025-12-10,24.951533,121.346294,0.0007026233
C2H9Q0,北東眼山,2025-12-10,24.120939,121.189303,0.0012088398
C2H9T0,名間竹圍,2025-12-10,23.859914,120.637572,0.14376728
C0S990,山豬窟,2025-12-10,22.318619,120.857372,0.04605732
C0X190,安平,2025-12-10,22.993161,120.152181,0.051956743
C0K400,斗六,2025-12-10,23.720583,120.541127,0.078069635
12J990,口湖工作站,2025-12-10,23.589978,120.180394,0.004807806
C0O830,北寮,2025-12-10,23.079561,120.495008,0.23524417
C1D410,白蘭,2025-12-10,24.579364,121.079947,0.010957644
C0S970,加津林,2025-12-10,22.416211,120.926942,0.12674515
C0D700,關西,2025-12-10,24.7977,121.1732,0.0006438019
C0M810,里佳,2025-12-10,23.389125,120.716647,0.0036936428
C0U750,龜山島,2025-12-10,24.841667,121.953133,0.0007782429
C0R810,內獅,2025-12-10,22.305064,120.642986,0.014116959
C1M390,龍美,2025-12-10,23.406728,120.654417,0.008488004
C2K290,崙內,2025-12-10,23.69525,120.35601,0.02157385
C2FB60,頭櫃山,2025-12-10,24.129842,120.858925,0.009057237
C1H840,國三N238K,2025-12-10,23.841008,120.707711,0.12696591
CAQ030,崎峰國小,2025-12-10,22.42565,120.49521,0.12412082
C2E520,大湖,2025-12-10,24.414939,120.870872,0.09641578
467530,阿里山,2025-12-10,23.508208,120.813242,0.0009132618
C1E691,南湖,2025-12-10,24.40135,120.837533,0.0073582395
C0FA30,梧棲,2025-12-10,24.256003,120.523381,0.0049446602
C1V231,高中,2025-12-10,23.134911,120.716711,0.025685828
C0AK30,硬漢嶺,2025-12-10,25.136097,121.426372,0.02836138
C0F9V0,新社,2025-12-10,24.200172,120.815806,0.0123711135
C0H890,埔里,2025-12-10,23.972169,120.952425,0.061669547
C0R690,墾丁,2025-12-10,21.966756,120.810269,0.0037124043
C0SD20,富山,2025-12-10,22.822383,121.190825,0.0053666625
C0F0D0,審馬陣,2025-12-10,24.381675,121.4203,0.00033541903
C2W030,金門農試所,2025-12-10,24.448431,118.451786,0.0008291877
C0R820,白鷺,2025-12-10,22.454275,120.666219,0.18922278
C0FB00,大雪山,2025-12-10,24.254668,121.007374,0.001534373
C1V190,南天池,2025-12-10,23.27403,120.91176,0.0010337825
C0E940,雪見,2025-12-10,24.42595,121.01347,0.0011157703
K2E360,苗栗農改場,2025-12-10,24.495722,120.829111,0.010266074
CAJ050,海口故事園區,2025-12-10,23.57543,120.14121,0.004788759
C2K280,四湖,2025-12-10,23.6304,120.22717,0.010552457
C2H9D0,三隻寮,2025-12-10,24.093078,120.861578,0.024165018
C0O990,媽廟,2025-12-10,22.99175,120.293525,0.16709152
C0D480,打鐵坑,2025-12-10,24.849664,121.150789,0.0013856329
C0Z220,和平林道,2025-12-10,24.343922,121.656317,0.0011914559
C0TA10,花蓮漁港,2025-12-10,23.995322,121.638331,0.017734878
72C440,桃園農改場,2025-12-10,24.950944,121.030583,0.00016351364
C1E711,馬拉邦山,2025-12-10,24.367306,120.901656,0.01390806
C0SB20,富岡,2025-12-10,22.792467,121.192669,0.0043321974
C0D560,竹東,2025-12-10,24.767147,121.057881,0.0009836269
C0F9U0,南屯,2025-12-10,24.137006,120.637969,0.007324623
C0M720,番路,2025-12-10,23.464657,120.554156,0.032271717
C0F0A0,雪山圈谷,2025-12-10,24.388594,121.236339,0.0004350832
C1A9N0,四十份,2025-12-10,24.934158,121.593283,0.081873156
C0U760,東澳,2025-12-10,24.52196,121.83318,0.84736466
C0X230,鹽水,2025-12-10,23.272621,120.247641,0.00764955
C2H9H0,苗改南投蜂場,2025-12-10,23.852589,120.693481,0.052598685
C0R950,萬隆國小,2025-12-10,22.507667,120.587817,0.12083425
467540,大武,2025-12-10,22.35572,120.90374,0.13103157
C0V370,古亭坑,2025-12-10,22.893178,120.401947,0.21846327
C1I340,新興橋,2025-12-10,23.563333,120.868728,0.017758077
C0SA80,土坂,2025-12-10,22.453108,120.887572,0.0907524
C0R160,鹽埔,2025-12-10,22.739558,120.530778,0.15537535
C0AC40,大屯山,2025-12-10,25.175675,121.522408,0.004513288
466850,五分山雷達站,2025-12-10,25.071182,121.781205,0.015279822
C2H9L0,馬烈霸,2025-12-10,24.1512,121.201772,0.0014165322
C1AI50,國三N016K,2025-12-10,25.034164,121.619664,0.00032648526
C1V600,藤枝,2025-12-10,23.071961,120.757042,0.0035189744
C1E601,南勢,2025-12-10,24.572486,120.734842,0.0026600244
C0O980,新市,2025-12-10,23.061614,120.298197,0.20823471
C0K420,西螺,2025-12-10,23.800407,120.467394,0.059220627
C0Z050,佳心,2025-12-10,23.34567,121.21316,0.0012791546
C0AD30,蘆洲,2025-12-10,25.086594,121.472331,0.00042182676
C0V610,梓官,2025-12-10,22.760558,120.267211,0.08038727
K2F750,種苗改良場,2025-12-10,24.225972,120.800917,0.0117108
C0UA80,大溪漁港,2025-12-10,24.941801,121.902955,0.26213002
C1AI60,國一39K邊坡,2025-12-10,25.064361,121.383836,0.009828195
C0W150,金寧,2025-12-10,24.457703,118.328989,0.00087493693
C0R960,內埔,2025-12-10,22.608483,120.570714,0.14849958
V2C250,八德合作社,2025-12-10,24.93775,121.266389,0.0006746121
C2H9S0,龍南,2025-12-10,23.953536,120.833183,0.0144521175
C0AH40,平等,2025-12-10,25.129142,121.577086,0.0505917
C0R540,佳冬,2025-12-10,22.419456,120.552375,0.039097857
466950,彭佳嶼,2025-12-10,25.627975,122.079744,8.077399e-05
C0A890,雙溪,2025-12-10,25.036003,121.864242,0.0054440415
C0C480,桃園,2025-12-10,24.992425,121.323172,0.00042752057
C0AH50,林口,2025-12-10,25.072181,121.38084,0.010040101
A2K360,水試臺西試驗場,2025-12-10,23.717231,120.190522,0.009556438
C2M960,外寮,2025-12-10,23.562643,120.665688,0.019311689
C0F9S0,烏日,2025-12-10,24.107058,120.624103,0.0812144
C0C490,八德,2025-12-10,24.928708,121.283289,0.00067960063
C0R190,赤山,2025-12-10,22.592333,120.614306,0.14581783
C0T820,天祥,2025-12-10,24.179597,121.495639,0.03498601
C1F9E1,龍安,2025-12-10,24.1605,120.831961,0.017196417
C0V820,小林,2025-12-10,23.148408,120.63325,0.28793633
C2G870,芳苑,2025-12-10,23.922303,120.320025,0.0041981856
C0E850,大河,2025-12-10,24.618069,120.948578,0.0055019166
C1U670,寒溪,2025-12-10,24.634,121.71691,0.743889
C0N020,城西,2025-12-10,23.0568,120.0956,0.051426183
C1Z110,三棧,2025-12-10,24.11557,121.60501,0.033696357
C0R280,檳榔,2025-12-10,22.076078,120.836777,0.009140227
C2H9J0,中台,2025-12-10,23.9996,120.938739,0.18217151
C0F9L0,后里,2025-12-10,24.310436,120.729725,0.058241934
467441,高雄,2025-12-10,22.730432,120.312516,0.07972807
C0Z180,新城,2025-12-10,24.040486,121.604878,0.013429292
C0D540,橫山,2025-12-10,24.71116,121.11693,0.0010814186
C1D420,太閣南,2025-12-10,24.632808,121.160575,0.0016022347
C1E770,公館,2025-12-10,24.526914,120.830806,0.009582714
CAN130,水試所海水繁養殖中心,2025-12-10,23.120802,120.07968,0.005023509
C1I430,翠華,2025-12-10,24.191961,121.224339,0.0012076573
C1M400,菜瓜坪,2025-12-10,23.251928,120.576103,0.71389645
C0G730,二林,2025-12-10,23.903325,120.376081,0.002523489
72M360,南改義竹分場,2025-12-10,23.360694,120.279361,0.013497819
V2K620,麥寮合作社,2025-12-10,23.753836,120.294783,0.021167807
C0Z070,舞鶴,2025-12-10,23.46811,121.37407,0.0008813281
C0B040,大武崙,2025-12-10,25.166676,121.706993,0.0036596553
C1Z030,紅葉,2025-12-10,23.493119,121.338806,0.0009133744
C1I050,丹大,2025-12-10,23.753747,121.141147,0.00061563443
C0I080,信義,2025-12-10,23.689694,120.851036,0.64051795
C0D750,樂山林道6k,2025-12-10,24.49999,121.08773,0.0022093307
C2M920,朴子農改,2025-12-10,23.469889,120.259383,0.036896247
C2A880,福隆,2025-12-10,25.017842,121.942083,0.4050341
C0Z160,鳳林,2025-12-10,23.746114,121.453411,0.011062548
C0UB80,翠峰林道6K,2025-12-10,24.49773,121.568625,0.0021449735
C0V210,復興,2025-12-10,23.222403,120.806089,0.117226966
C0H990,昆陽,2025-12-10,24.121322,121.273642,0.000609965
C0R741,獅子,2025-12-10,22.202308,120.705236,0.21688232
C0S710,鹿野,2025-12-10,22.917711,121.122994,0.00055128644
C0I530,小奇萊,2025-12-10,24.131764,121.295717,0.000588112
C0FA70,大雪山埡口,2025-12-10,24.26867,121.03062,0.0010202681
C2K630,荷苞,2025-12-10,23.657717,120.595144,0.038294673
C0Z080,富源,2025-12-10,23.587642,121.378225,0.007790773
C0SB10,美和,2025-12-10,22.682078,121.060236,0.03508907
C2K620,馬光農場,2025-12-10,23.721453,120.378864,0.0761007
C1I140,卡奈托灣,2025-12-10,23.754364,121.087872,0.0022563192
C0I520,玉山風口,2025-12-10,23.470489,120.955994,0.00035118774
C1G691,下水埔,2025-12-10,23.816114,120.5676,0.057484496
C0X110,臺南市南區,2025-12-10,22.961189,120.188378,0.12302503
C0V680,仁武,2025-12-10,22.701083,120.347722,0.05331711
C2G840,北斗,2025-12-10,23.877586,120.514222,0.02754295
C0R900,竹坑,2025-12-10,22.1385,120.7022,0.0012710782
C0G860,社頭,2025-12-10,23.897647,120.5862,0.046834856
C0X150,安定,2025-12-10,23.102614,120.227839,0.07720962
C0R590,里港,2025-12-10,22.77919,120.49459,0.34190065
C0E610,馬都安,2025-12-10,24.451272,120.930192,0.0057600774
C0E550,明德,2025-12-10,24.583486,120.885411,0.0057302904
C0R150,三地門,2025-12-10,22.709889,120.639944,0.10880996
C0G910,花壇,2025-12-10,24.032076,120.549461,0.012747097
C1D400,鳥嘴山,2025-12-10,24.71909,121.28387,0.0053616124
C0K500,元長,2025-12-10,23.64981,120.315024,0.030366117
C0F0B0,石岡,2025-12-10,24.276061,120.777644,0.058001153
C2V250,甲仙,2025-12-10,23.080106,120.591758,0.37608072
C0SA20,金崙山,2025-12-10,22.567419,120.959667,0.0016984165
C0V350,溪埔,2025-12-10,22.738578,120.446797,0.2344977
C0M660,溪口,2025-12-10,23.604131,120.403569,0.058784414
C1S880,壽卡,2025-12-10,22.238911,120.858903,0.014439077
72D680,桃改新埔分場,2025-12-10,24.834444,121.066111,0.00055124855
