站號,站名,日期,lat,lon,BLBTSLS
C0R710,龍磐,2025-10-28,21.931672,120.838942,0.9416204
C1F9D1,白毛台,2025-10-28,24.158325,120.886933,0.00038852126
C0G940,竹塘,2025-10-28,23.848253,120.386764,0.99593914
467590,恆春,2025-10-28,22.003897,120.746339,0.16581468
C1O850,環湖,2025-10-28,23.148617,120.418633,0.73028696
C0U710,太平山,2025-10-28,24.505486,121.525656,1.0960127e-07
C0E820,獅潭,2025-10-28,24.539133,120.920042,0.3011984
C0V880,興達,2025-10-28,22.8778,120.2127,0.5687503
C0S890,關山,2025-10-28,23.0395,121.175017,0.23223533
C0SB30,新蘭,2025-10-28,22.869214,121.223228,0.3228492
C2R970,屏科大,2025-10-28,22.648275,120.619247,0.6921235
C1Z130,銅門,2025-10-28,23.965694,121.492842,0.8858587
C0AD40,土城,2025-10-28,24.973208,121.445169,0.9599985
CAN140,六官養殖協會,2025-10-28,23.22881,120.29962,0.61466026
C0X180,山上,2025-10-28,23.0757,120.363253,0.66059434
C0F9Z0,雪山東峰,2025-10-28,24.388792,121.268675,3.931497e-08
C1M480,獨立山,2025-10-28,23.537022,120.607797,1.4883514e-07
C0X220,學甲,2025-10-28,23.230367,120.182187,0.33275163
467650,日月潭,2025-10-28,23.881325,120.90805,1.7823421e-08
C0K600,箔子寮,2025-10-28,23.6197,120.14,0.995269
C0G830,埤頭,2025-10-28,23.866003,120.452806,0.9657188
C0S950,七塊厝,2025-10-28,22.954453,121.229922,0.00016714963
467110,金門,2025-10-28,24.407306,118.289281,0.99998754
C0AH80,深坑,2025-10-28,25.002703,121.628328,0.9554972
C0A970,三貂角,2025-10-28,25.007606,122.002058,0.96562415
C2D730,寶山農場,2025-10-28,24.732444,120.976153,0.45274362
C0K430,褒忠,2025-10-28,23.690938,120.303634,0.87209046
467480,嘉義,2025-10-28,23.495925,120.432906,0.9089871
C0V400,阿公店,2025-10-28,22.804194,120.355528,0.0007528103
C0E960,觀霧分站,2025-10-28,24.505781,121.113921,1.7302678e-07
467550,玉山,2025-10-28,23.48718,120.95943,1.8809601e-08
C0R440,大漢山,2025-10-28,22.405264,120.753181,2.7446008e-08
C0K280,四湖,2025-10-28,23.630414,120.227125,0.99714583
C1F9B1,桐林,2025-10-28,24.066172,120.735194,0.9967569
C2H9U0,鳳鵬,2025-10-28,23.763919,120.788061,0.9921952
C0K390,土庫,2025-10-28,23.679029,120.395574,0.5603563
C1I450,望鄉山,2025-10-28,23.594153,120.944286,8.420569e-09
C0E910,海埔,2025-10-28,24.648767,120.772435,0.67379063
B2E890,畜試北區分所,2025-10-28,24.527806,120.770972,0.2051783
C0R750,四林格山,2025-10-28,22.076989,120.802439,0.90425307
C0F0C0,中坑,2025-10-28,24.248517,120.903319,5.1116338e-08
C1I121,大鞍,2025-10-28,23.678381,120.760017,3.5201315e-09
72U480,花改蘭陽分場,2025-10-28,24.686306,121.716583,1.0860404e-06
C0A770,科教館,2025-10-28,25.096356,121.516507,0.87171257
C0AJ60,六塊厝,2025-10-28,25.24,121.4481,0.6536497
C0R620,墾雷,2025-10-28,21.900836,120.855269,0.96222013
467420,永康,2025-10-28,23.038386,120.2367,0.4422074
C0I410,名間,2025-10-28,23.837053,120.701447,0.90383655
A2C560,農工中心,2025-10-28,24.985917,121.239833,0.57506734
C0V740,旗山,2025-10-28,22.888614,120.483597,0.6360493
C0Z061,玉里,2025-10-28,23.3215,121.339656,0.0039315326
C0S840,南田,2025-10-28,22.279725,120.889208,0.07603936
C1I470,杉林溪,2025-10-28,23.639517,120.786444,3.2574095e-09
C1X040,東原,2025-10-28,23.291597,120.463822,0.9991256
C0R660,枋寮,2025-10-28,22.367722,120.590647,0.0058539887
C1R120,上德文,2025-10-28,22.763272,120.704442,4.457264e-08
C0K450,大埤,2025-10-28,23.646074,120.431537,0.5504604
C0UA00,土場,2025-10-28,24.576533,121.495333,0.9665079
467080,宜蘭,2025-10-28,24.763975,121.756528,5.1045998e-05
C0N030,四草,2025-10-28,23.0235,120.1116,0.31010514
467410,臺南,2025-10-28,22.99328,120.20492,0.34224296
C0V650,彌陀,2025-10-28,22.783806,120.246361,0.5226509
C0D660,新竹市東區,2025-10-28,24.798681,120.986942,0.5155812
82S580,茶改東部分場,2025-10-28,22.907694,121.130139,0.4080164
C0SB40,興隆,2025-10-28,22.913661,121.257469,0.3529513
467050,新屋,2025-10-28,25.006725,121.047492,0.78864014
C0C710,大溪永福,2025-10-28,24.892936,121.324975,0.937862
C0FA20,溫寮,2025-10-28,24.372177,120.583125,0.94048643
C0V640,湖內,2025-10-28,22.887139,120.2445,0.5859301
C0R910,下寮,2025-10-28,22.3929,120.5548,0.0058539887
C0Z020,明里,2025-10-28,23.208717,121.262342,0.0016930011
C0M770,嘉義梅山,2025-10-28,23.585398,120.555587,0.4711289
C0C660,楊梅,2025-10-28,24.912375,121.143047,0.76741636
C1E511,新開,2025-10-28,24.347703,120.827019,0.015207883
G2F820,農試所(霧峰),2025-10-28,24.031261,120.688133,0.9304242
C1I070,和社,2025-10-28,23.591131,120.888861,0.008277127
C0TA80,立霧山,2025-10-28,24.183258,121.641899,5.3435545e-09
C2F000,大肚,2025-10-28,24.15295,120.572117,0.99628377
C1S850,豐南,2025-10-28,23.122139,121.262389,1.133482e-06
C2A920,富貴角,2025-10-28,25.263783,121.565258,0.38083112
CAH030,茶改場竹圍站,2025-10-28,23.860083,120.637528,0.99843675
C0T960,光復,2025-10-28,23.660694,121.424964,0.04528908
C0F9M0,豐原,2025-10-28,24.254322,120.720692,0.025363024
C0R720,旭海,2025-10-28,22.205403,120.887614,0.14673534
C0V710,苓雅,2025-10-28,22.622742,120.330669,0.0071152714
C0C740,觀音工業區,2025-10-28,25.064764,121.114856,0.95510036
CAC040,拉拉山,2025-10-28,24.699317,121.427133,2.1656674e-06
C0V790,萬山,2025-10-28,22.905944,120.688056,0.9931501
U2HA30,臺大和社,2025-10-28,23.590856,120.888864,0.008277127
C2H9K0,屯原,2025-10-28,24.067969,121.209389,2.8968367e-08
C0AJ90,澳底,2025-10-28,25.0552,121.9253,0.25997305
C0Z100,東華,2025-10-28,23.89525,121.549833,0.96087456
C0G970,三豐,2025-10-28,23.882,120.2895,0.9366817
V2K610,大庄合作社,2025-10-28,23.8068,120.367939,0.9744097
C0V900,汕尾,2025-10-28,22.4782,120.4151,0.6102926
C1R630,龍泉,2025-10-28,22.66701,120.59091,0.28889993
C1AC50,關渡,2025-10-28,25.133486,121.469331,0.60737693
C0C800,四稜,2025-10-28,24.64733,121.4293,6.5779004e-06
C0F9I0,神岡,2025-10-28,24.272481,120.658314,0.9954836
C0K460,斗南,2025-10-28,23.678734,120.478359,0.5581964
C2O810,曾文,2025-10-28,23.219681,120.497328,0.99751544
467280,後龍,2025-10-28,24.648563,120.831834,0.6412455
C1F9J1,清水林,2025-10-28,24.071242,120.820419,4.2672805e-06
C2A650,火燒寮,2025-10-28,25.002719,121.742892,0.523215
466930,竹子湖,2025-10-28,25.162078,121.544547,0.06561247
C1I220,樟湖,2025-10-28,23.905333,120.846983,2.1998863e-09
C0I390,仁愛,2025-10-28,24.022122,121.132206,2.2991122e-08
C0Z300,東里,2025-10-28,23.26853,121.30547,0.04617805
C1V590,新發,2025-10-28,23.057019,120.646064,3.513111e-08
C0K510,水林,2025-10-28,23.572924,120.24597,0.51700395
72S590,東改賓朗果園,2025-10-28,22.813889,121.071278,0.09659332
82A750,茶改北部分場,2025-10-28,24.955778,121.631222,0.862603
C1A750,石碇服務區,2025-10-28,25.00872,121.646242,0.6155936
C0X300,鹿寮,2025-10-28,23.386047,120.477331,0.6420001
G2AI50,關渡,2025-10-28,25.11575,121.492,0.6412082
C0K590,雲林東勢,2025-10-28,23.674192,120.255721,0.77217776
C0A570,桶後,2025-10-28,24.848222,121.597992,1.1966959e-05
C1S800,華源,2025-10-28,22.657883,121.02325,0.97190624
C0G720,溪州,2025-10-28,23.851589,120.499093,0.97169554
C1V160,達卡努瓦,2025-10-28,23.279811,120.705319,2.968684e-09
C2M410,馬頭山,2025-10-28,23.324361,120.582017,0.9990209
C0V850,蚵仔寮,2025-10-28,22.7256,120.2527,0.0025079194
C0S740,池上,2025-10-28,23.119628,121.209469,0.6061094
C1V390,尖山,2025-10-28,22.813153,120.367789,0.000444442
C0AH70,松山,2025-10-28,25.04871,121.55042,0.8739777
C0N010,鯤鯓國小,2025-10-28,23.1879,120.0889,0.31114402
C0R550,新埤,2025-10-28,22.467947,120.582894,0.58864325
C0SA60,知本（水試所）,2025-10-28,22.702394,121.082761,0.6956253
C0T9I0,豐濱,2025-10-28,23.583897,121.514806,4.1321247e-05
C0UB00,淡江大學蘭陽校園,2025-10-28,24.823239,121.730383,3.6639783e-06
C0W240,九宮,2025-10-28,24.423753,118.240186,0.9999874
C0T9N0,富里,2025-10-28,23.171639,121.249378,0.17339712
U2HA50,臺大竹山,2025-10-28,23.756972,120.681556,0.5652393
C0V840,鳳鼻頭,2025-10-28,22.5083,120.3591,0.0035385552
C0X140,西港,2025-10-28,23.125608,120.203108,0.3935144
72D080,桃改五峰分場,2025-10-28,24.612194,121.157167,1.6425992e-06
C2H9P0,伊拿谷,2025-10-28,23.963211,121.088264,1.5653008e-08
C2H9F0,柑林,2025-10-28,24.018658,120.847072,0.9982875
C0TA20,加灣,2025-10-28,24.082025,121.608944,8.266261e-05
C0V530,阿蓮,2025-10-28,22.883208,120.327508,0.7282277
C0FB30,八仙山苗圃,2025-10-28,24.192719,121.001366,8.097198e-08
C1O880,關山,2025-10-28,23.173397,120.594092,0.56658995
C0E791,卓蘭,2025-10-28,24.3126,120.8244,0.0008764639
C1I030,武界,2025-10-28,23.913225,121.052483,1.0310173e-08
C0R520,崁頂,2025-10-28,22.514781,120.506914,0.9447688
C0R341,牡丹,2025-10-28,22.130036,120.792639,0.46247026
C0R930,萬丹,2025-10-28,22.5885,120.4851,0.5986615
C0S760,紅石,2025-10-28,23.069131,121.126219,4.662154e-09
C2C410,中央大學,2025-10-28,24.967652,121.185165,0.57872206
C1M610,石磐龍,2025-10-28,23.496606,120.663506,1.7531706e-08
C0C790,東眼山,2025-10-28,24.8284,121.40888,0.00301321
C0UA10,鴛鴦湖,2025-10-28,24.590269,121.412228,3.584725e-07
V2C260,八德蔬果,2025-10-28,24.978508,121.281819,0.95493144
C0R800,丹路,2025-10-28,22.204481,120.750989,0.10998466
C0G920,永靖,2025-10-28,23.924703,120.547533,0.9699632
C2M950,太和,2025-10-28,23.538372,120.702961,7.2160664e-09
C1A630,下盆,2025-10-28,24.771003,121.538622,1.4499496e-07
B2N890,畜產試驗所,2025-10-28,23.058972,120.336406,0.5450151
C0UA30,白嶺,2025-10-28,24.527819,121.519031,1.6163482e-06
C1V580,溪南(特生中心),2025-10-28,23.084972,120.788475,3.2997254e-09
C1T970,大農,2025-10-28,23.615233,121.413331,4.609745e-06
C0R650,竹田,2025-10-28,22.58486,120.54344,0.9119382
C1H900,清流,2025-10-28,24.080775,120.962997,8.744775e-09
C1C510,水尾,2025-10-28,24.940081,121.087161,0.52290595
C0F9X0,大雅(中科園區),2025-10-28,24.21528,120.62445,0.99871486
C0SB60,白守蓮,2025-10-28,23.126769,121.401914,0.3291336
C0O970,虎頭埤,2025-10-28,23.021375,120.347878,0.07825049
C0C730,中大臨海站,2025-10-28,24.966126,121.008581,0.8000797
C0X250,新營,2025-10-28,23.310689,120.316681,0.64461976
C0V700,三民,2025-10-28,22.645017,120.311233,0.0034246792
C0U870,大礁溪,2025-10-28,24.791042,121.675047,2.0790473e-07
C0E870,高鐵苗栗,2025-10-28,24.60725,120.826094,0.65538615
A2K570,古坑花卉中心,2025-10-28,23.63353,120.55239,0.4347267
C0TA30,鹽寮,2025-10-28,23.845606,121.592664,0.951673
C0M860,新美,2025-10-28,23.338017,120.683169,5.280866e-05
C1E701,八卦,2025-10-28,24.491756,120.927619,0.0010421292
C0I420,國姓,2025-10-28,24.037803,120.855072,0.99866456
C2D720,關西工作站,2025-10-28,24.757275,121.184792,0.77734464
C0S960,香蘭,2025-10-28,22.587569,120.993375,0.45450783
467620,蘭嶼,2025-10-28,22.0369,121.55843,0.8923224
C0R260,春日,2025-10-28,22.370361,120.628306,0.006472076
72G600,臺中農改場,2025-10-28,24.003028,120.534389,0.99254674
C0Z210,瑞穗,2025-10-28,23.5239,121.39021,0.00035997832
C0M820,達邦,2025-10-28,23.453994,120.749517,1.2059286e-08
C0V860,南寮,2025-10-28,22.7616,120.2339,0.0025079194
C0G740,大城,2025-10-28,23.852487,120.320935,0.93615097
C0R920,塭仔,2025-10-28,22.4169,120.5197,0.006106501
C0R470,高樹,2025-10-28,22.826389,120.600806,0.9114812
C0R680,佳樂水,2025-10-28,21.993578,120.861633,0.7233239
C1O870,大棟山,2025-10-28,23.31157,120.52226,1.9705666e-09
C0D360,梅花,2025-10-28,24.678347,121.208558,0.15130825
C0Z190,富世,2025-10-28,24.14743,121.6297,2.6331816e-05
C0AI10,屈尺,2025-10-28,24.92184,121.54475,0.93712527
B2U990,畜試東區分所,2025-10-28,24.669039,121.832561,1.9584354e-07
C0SB80,長濱漁港,2025-10-28,23.313644,121.459994,0.57590556
C0TA50,和仁,2025-10-28,24.241394,121.712472,2.7628982e-07
C0V910,大樹,2025-10-28,22.684645,120.432803,0.059069593
C1R610,西大武山,2025-10-28,22.617719,120.7322,1.41673375e-08
C0G900,線西,2025-10-28,24.143358,120.443536,0.99776536
C0M700,竹崎,2025-10-28,23.526178,120.555508,0.6089135
C2E880,三義,2025-10-28,24.405478,120.749819,5.976094e-05
C0C720,竹圍,2025-10-28,25.112692,121.239824,0.64023775
C0F9P0,清水,2025-10-28,24.312297,120.562242,0.9882811
C0Z150,吉安光華,2025-10-28,23.930925,121.595153,0.33232942
C0FA80,小雪山天池,2025-10-28,24.28025,121.02627,2.2300258e-08
467300,東吉島,2025-10-28,23.25727,119.66762,0.97408086
C1D640,外坪(五指山),2025-10-28,24.644447,121.090961,0.023945073
C0F9O0,潭子,2025-10-28,24.213106,120.703933,0.9149149
C2H9R0,卓社,2025-10-28,23.887894,121.000086,2.7210822e-08
72T250,花蓮農改場,2025-10-28,23.975222,121.563889,0.19496721
C0E780,銅鑼,2025-10-28,24.489681,120.790853,0.14795627
C1T950,太安,2025-10-28,23.666719,121.370128,1.0811544e-08
C0E830,苑裡,2025-10-28,24.439714,120.653053,0.9106745
467270,田中,2025-10-28,23.873803,120.581286,0.9203586
C0SA10,檳榔四格山,2025-10-28,22.810031,121.109308,0.009032273
C1T830,布洛灣,2025-10-28,24.17184,121.57127,1.4498088e-06
C0F970,大坑,2025-10-28,24.173142,120.722289,0.9969387
C1U920,思源,2025-10-28,24.393125,121.347214,2.9871167e-08
C0A931,三和,2025-10-28,25.233153,121.595236,0.9291165
C0I010,廬山,2025-10-28,24.033311,121.181808,2.670747e-09
C2M940,日野賀,2025-10-28,23.434056,120.727169,4.891005e-09
C0R860,鼻頭,2025-10-28,22.1043,120.8979,0.13972157
C0UB20,壯圍,2025-10-28,24.7359,121.8163,1.8202002e-06
C0R790,九棚,2025-10-28,22.14195,120.889281,0.32200432
C0W110,東莒,2025-10-28,25.9652,119.98069,0.99941784
C1U930,粉鳥林,2025-10-28,24.497088,121.842479,0.1268139
C1I211,蘆竹湳,2025-10-28,23.934019,120.811994,0.017583381
C0S830,長濱,2025-10-28,23.286817,121.411975,7.4411664e-06
C1F9F1,伯公龍,2025-10-28,24.272392,120.849047,0.007528609
C0UB90,太平山莊,2025-10-28,24.494171,121.536209,1.0804374e-07
C0E810,西湖,2025-10-28,24.562947,120.7485,0.89172256
C1I440,新高口,2025-10-28,23.478744,120.878939,7.427088e-09
C0O840,王爺宮,2025-10-28,23.222064,120.40085,0.97697484
C0T9G0,鳳林山,2025-10-28,23.735269,121.420131,3.313272e-09
C0X080,佳里,2025-10-28,23.173039,120.145086,0.3111347
C0FB70,大甲溪埔,2025-10-28,24.370625,120.620067,0.9404831
C0Z310,清水斷崖,2025-10-28,24.218294,121.689142,6.268449e-08
C0M680,太保,2025-10-28,23.455062,120.331455,0.8464766
C1S820,金峰,2025-10-28,22.590969,120.933236,0.9580985
C0AD10,八里,2025-10-28,25.150211,121.403947,0.64023775
C2K240,草嶺,2025-10-28,23.59555,120.693461,1.2251599e-08
C1SA70,都蘭,2025-10-28,22.87794,121.226881,0.3529513
C0K440,二崙,2025-10-28,23.772797,120.408944,0.9634936
C1A760,坪林交控,2025-10-28,24.94284,121.713442,0.9104001
C0F9N0,大里,2025-10-28,24.092464,120.701378,0.99288577
C0SA90,達仁林場,2025-10-28,22.264347,120.823972,0.9599481
C1R290,石門山,2025-10-28,22.112611,120.756597,0.6754844
42HA10,萬大發電廠,2025-10-28,23.978875,121.139639,1.932257e-09
C0R890,山海,2025-10-28,21.9878,120.7091,0.9340014
C0T9A0,月眉山,2025-10-28,23.809928,121.539828,4.173785e-08
C0AC70,信義,2025-10-28,25.037822,121.564597,0.8739777
C0K560,棋山,2025-10-28,23.68645,120.603417,0.46484852
C2FB50,出雲,2025-10-28,24.206469,120.902794,1.7682627e-08
C1Z240,中平林道,2025-10-28,23.42115,121.26763,4.2457188e-08
U2H480,溪頭,2025-10-28,23.670306,120.798194,3.1007394e-09
C0M880,好美里,2025-10-28,23.3364,120.138,0.35569036
C0T9E0,大坑,2025-10-28,23.880628,121.581981,1.09746625e-05
C0K530,臺西,2025-10-28,23.701547,120.197559,0.9980696
C1E900,國一N128K,2025-10-28,24.560997,120.844186,0.36472526
C0AJ50,水湳洞,2025-10-28,25.123695,121.862238,0.05281649
C0AI20,白沙灣,2025-10-28,25.283128,121.519058,0.64483863
C2V310,美濃,2025-10-28,22.898792,120.51907,0.6157456
C0A860,大坪,2025-10-28,25.165914,121.632969,0.6725153
C1U850,觀音海岸,2025-10-28,24.38319,121.77856,2.3916517e-08
C2K610,草嶺石壁,2025-10-28,23.602469,120.707731,1.0944935e-08
C0U950,鶯子嶺,2025-10-28,24.89754,121.79244,3.641923e-06
C0O900,善化,2025-10-28,23.112883,120.297219,0.516238
C0K550,蔦松,2025-10-28,23.514319,120.229736,0.3866035
E2P980,林試六龜中心,2025-10-28,22.991703,120.645722,0.9974153
C0E590,通霄,2025-10-28,24.471892,120.704622,0.6726789
C1I310,西巒,2025-10-28,23.754486,120.883956,2.0358403e-08
C0A550,泰平,2025-10-28,24.971197,121.823711,0.9180473
C0I360,水里,2025-10-28,23.812553,120.849792,0.99755555
C0R830,高士,2025-10-28,22.121825,120.836781,0.7754646
C1I101,溪頭,2025-10-28,23.661789,120.807647,2.863179e-09
C0AJ20,野柳,2025-10-28,25.20703,121.690021,0.27337715
C0B060,暖暖,2025-10-28,25.0957,121.7403,0.22943556
C1H920,長豐,2025-10-28,24.102039,120.879897,3.0636028e-07
C0V360,內門,2025-10-28,22.975481,120.466769,0.007605542
C0R850,林邊,2025-10-28,22.4634,120.5339,0.59862316
C0E930,龍鳳,2025-10-28,24.700034,120.859125,0.87029195
C0U910,冬山,2025-10-28,24.63373,121.7937,1.9584354e-07
C1E721,泰安,2025-10-28,24.489017,120.968036,2.4638755e-06
82H320,茶改中部分場,2025-10-28,23.875611,120.913583,1.2076013e-07
C0M750,布袋,2025-10-28,23.380878,120.167789,0.39563617
C1S860,利嘉,2025-10-28,22.809417,121.050528,9.041358e-05
E2S980,林試太麻里1,2025-10-28,22.598922,120.980044,0.6330036
C0X170,關廟,2025-10-28,22.963017,120.327797,0.25337625
C0V720,林園,2025-10-28,22.507747,120.394511,0.0035053403
C1I510,線浸林道,2025-10-28,23.761508,120.832956,5.59941e-09
C0D690,外湖,2025-10-28,24.917735,120.968711,0.59829307
C0C750,新興坑尾,2025-10-28,25.0061,121.0971,0.7620506
B2Q810,畜試南區分所,2025-10-28,21.945583,120.802167,0.74041504
C0S790,金崙,2025-10-28,22.538122,120.966875,0.9058774
C0AH90,福山植物園,2025-10-28,24.760717,121.58135,3.4903453e-05
C0I540,奇萊稜線,2025-10-28,24.109231,121.326456,3.969435e-08
C0M850,表湖,2025-10-28,23.24186,120.64166,3.1773624e-08
C0S770,大溪山,2025-10-28,22.478475,120.943325,0.7936839
C0AG80,中和,2025-10-28,24.991622,121.491792,0.96002674
C0T790,大禹嶺,2025-10-28,24.186117,121.316086,3.5915207e-08
C0T9B0,水源,2025-10-28,23.991861,121.537169,0.0001533865
C0R840,牡丹池山,2025-10-28,22.168389,120.841225,0.9417512
C1I131,桶頭,2025-10-28,23.641944,120.654117,0.88906866
CAL110,布袋國中,2025-10-28,23.35893,120.18026,0.39563617
467571,新竹,2025-10-28,24.827853,121.014219,0.5290302
C0Z290,赤柯山,2025-10-28,23.36893,121.38293,1.24695765e-08
C0X280,將軍,2025-10-28,23.214999,120.13577,0.32793254
C0S690,太麻里,2025-10-28,22.60902,120.98533,0.0077706696
C0U880,北關,2025-10-28,24.9072,121.8734,0.9868307
C0G810,埔心,2025-10-28,23.947633,120.525456,0.9699632
C0U970,大福,2025-10-28,24.80064,121.81389,7.973275e-05
C2H9N0,仁愛東眼,2025-10-28,24.026875,121.1205,3.2665741e-09
C1E670,南礦,2025-10-28,24.538278,121.002836,3.2002793e-06
C0M520,東後寮,2025-10-28,23.369908,120.248065,0.40660194
C1E461,松安,2025-10-28,24.397972,120.986022,1.03959565e-07
C2N160,西拉雅風管處,2025-10-28,23.189481,120.335297,0.66223896
C2M970,碧湖,2025-10-28,23.568632,120.624165,2.5145553e-08
C0A640,石碇,2025-10-28,24.993969,121.662917,0.8598934
E2S960,林試太麻里2,2025-10-28,22.598,120.99775,0.43507385
C0F9Y0,桃山,2025-10-28,24.432739,121.303808,7.29726e-08
C1I020,萬大,2025-10-28,23.979817,121.132261,2.1408063e-08
C0U940,羅東,2025-10-28,24.68184,121.74934,1.2493583e-06
C0M650,朴子,2025-10-28,23.43463,120.23902,0.48295826
C1I500,大尖山,2025-10-28,23.858572,120.994889,4.8611044e-09
C0FB40,中橫21.6k,2025-10-28,24.2499,121.1455,3.1992284e-09
C0G820,田尾,2025-10-28,23.901669,120.509389,0.9699632
E2K600,四湖植物園,2025-10-28,23.676986,120.163433,0.99714583
C0S730,綠島,2025-10-28,22.6672,121.47533,0.96168673
12Q970,東港工作站,2025-10-28,22.479997,120.466058,0.6102926
C0E430,南庄,2025-10-28,24.601775,121.000214,0.30730143
C1TA00,太魯閣,2025-10-28,24.15773,121.6236,6.054638e-06
466920,臺北,2025-10-28,25.037658,121.514853,0.8739777
C0R600,舊泰武,2025-10-28,22.588194,120.664944,9.039899e-09
C1I260,北坑,2025-10-28,23.9246,121.006903,0.00061734655
466910,鞍部,2025-10-28,25.182586,121.529731,0.028954428
C1I230,九份二山,2025-10-28,23.961944,120.845,4.7792565e-08
C2A660,瑞芳,2025-10-28,25.113169,121.801147,0.060789343
C0R270,琉球嶼,2025-10-28,22.332244,120.362236,7.853696e-06
C1T990,高寮,2025-10-28,23.394239,121.356808,0.10309822
C0G620,芬園,2025-10-28,24.015678,120.6213,0.94562095
C1Z140,荖溪,2025-10-28,23.890575,121.45964,6.3623045e-09
C1I201,中心崙,2025-10-28,23.728722,120.712097,2.1097025e-05
C1I400,凌霄,2025-10-28,24.018778,121.004456,3.5588688e-09
C1M640,十字,2025-10-28,23.492153,120.753683,1.2578935e-08
G2P820,農試鳳山分所,2025-10-28,22.646611,120.356083,0.0032647515
C0Z270,蕃薯寮,2025-10-28,23.73835,121.540108,3.703436e-08
C0FB10,出雲山苗圃,2025-10-28,24.23105,120.90475,5.1116338e-08
C0F9Q0,外埔,2025-10-28,24.347817,120.705686,0.967545
C0K580,高鐵雲林,2025-10-28,23.737456,120.417944,0.8404021
C2I090,鳳凰,2025-10-28,23.728081,120.787347,8.652082e-09
C0U990,員山,2025-10-28,24.74435,121.72247,1.5663064e-06
C0V770,大社,2025-10-28,22.730306,120.346639,0.0021480364
C0X120,麻豆,2025-10-28,23.183289,120.248611,0.48751158
C0C670,龍潭,2025-10-28,24.870056,121.221389,0.50453275
C0D680,香山濕地,2025-10-28,24.783581,120.914988,0.5408266
C0S980,勝林山,2025-10-28,22.430439,120.8938,0.023769343
C0V730,大寮,2025-10-28,22.605614,120.395717,0.0069239708
C0R570,麟洛,2025-10-28,22.65078,120.52719,0.9393931
C2M930,石卓,2025-10-28,23.478744,120.702264,6.8727597e-09
C0G9B0,和美,2025-10-28,24.105169,120.492131,0.99838823
CAG100,王功漁港,2025-10-28,23.96824,120.32586,0.9412831
C0X290,北門,2025-10-28,23.267772,120.125481,0.32793254
C2F930,大甲,2025-10-28,24.347667,120.640403,0.94195396
C0D650,湖口,2025-10-28,24.904794,121.043628,0.5304709
C0E420,竹南,2025-10-28,24.708978,120.888897,0.84989446
C0U780,五結,2025-10-28,24.68637,121.79794,1.8202002e-06
C1I250,鯉潭,2025-10-28,23.961922,120.991131,1.0901392e-06
C0R130,阿禮,2025-10-28,22.742908,120.743678,6.6566206e-09
C0X100,臺南市北區,2025-10-28,23.010394,120.194228,0.31983575
C0S920,金峰嘉蘭,2025-10-28,22.594789,120.960825,0.6571329
C0V490,新興,2025-10-28,22.627422,120.298803,0.0071152714
C0F9K0,大安,2025-10-28,24.345061,120.588025,0.9410118
467290,古坑,2025-10-28,23.633639,120.551889,0.4347267
C2E970,八甲,2025-10-28,24.535811,120.795983,0.2858761
C0V440,鳳山,2025-10-28,22.646653,120.356122,0.0032647515
C1T940,大觀,2025-10-28,23.714206,121.373133,5.880299e-09
C0E740,造橋,2025-10-28,24.637056,120.864778,0.6551525
C0R100,尾寮山,2025-10-28,22.833111,120.683889,1.06133555e-08
A2K630,臺大雲林校區,2025-10-28,23.730628,120.423903,0.8404807
467990,馬祖,2025-10-28,26.169467,119.923158,0.9998992
C0D580,寶山,2025-10-28,24.735006,121.025192,0.8149696
E2P990,林試扇平站,2025-10-28,22.9677,120.6857,3.9449316e-07
C0AI30,三重,2025-10-28,25.057328,121.500629,0.87171257
C0AH00,汐止,2025-10-28,25.066881,121.658778,0.8739777
C1Z040,立山,2025-10-28,23.443356,121.327375,9.19306e-06
466881,新北,2025-10-28,24.959207,121.525196,0.9583015
C0W130,花嶼,2025-10-28,23.40007,119.32276,0.9794302
C0A950,鼻頭角,2025-10-28,25.129036,121.923372,0.08561171
C0K470,林內,2025-10-28,23.748675,120.609642,0.56338674
C2F990,摩天嶺,2025-10-28,24.322458,120.936819,1.4696262e-07
82C160,茶改場,2025-10-28,24.908472,121.185333,0.81119996
C0Z320,清水林道,2025-10-28,23.27125,121.188272,1.2922021e-07
C0R760,南仁湖,2025-10-28,22.084681,120.863353,0.6754845
C0M670,大林,2025-10-28,23.600616,120.45841,0.7367683
C0M800,茶山,2025-10-28,23.299075,120.664767,0.18586378
C0A9C0,天母,2025-10-28,25.117494,121.537169,0.5272592
72K220,南改斗南分場,2025-10-28,23.634556,120.477333,0.55831844
72AI40,桃改樹林分場,2025-10-28,24.944503,121.386972,0.7660177
C0S910,蘭嶼燈塔,2025-10-28,22.081197,121.503117,0.93863404
C0B050,八斗子,2025-10-28,25.144754,121.79167,0.056921497
C0U900,內城,2025-10-28,24.71813,121.68766,7.7542865e-07
C0X320,柳營,2025-10-28,23.253328,120.375253,0.8789214
C0M790,新港,2025-10-28,23.553269,120.345728,0.6539574
C0F9T0,西屯,2025-10-28,24.179494,120.641275,0.99904007
C0E950,松安,2025-10-28,24.39792,120.98599,1.03959565e-07
C0SA30,都歷,2025-10-28,23.020333,121.323642,0.78354293
C0C620,蘆竹,2025-10-28,25.084275,121.265767,0.81801414
C0R730,大坪頂,2025-10-28,22.024633,120.69355,0.08937901
C0AJ40,石門,2025-10-28,25.273672,121.601198,0.51838464
C0E750,苗栗,2025-10-28,24.564569,120.824575,0.3693829
C0T870,鯉魚潭,2025-10-28,23.935639,121.508944,0.91868734
C1V170,排雲,2025-10-28,23.463619,120.954147,3.4761115e-08
C2H950,中寮,2025-10-28,23.884447,120.766406,0.9395743
C0R350,貓鼻頭,2025-10-28,21.921774,120.7358,0.9668328
C0V660,岡山,2025-10-28,22.797078,120.294958,0.5226509
C1H941,雙冬,2025-10-28,23.967378,120.802189,0.00017534336
C0AJ70,田寮,2025-10-28,25.2698,121.4886,0.6471176
C0AI00,五股,2025-10-28,25.07445,121.42728,0.549779
C0Z280,德武,2025-10-28,23.47426,121.41071,8.846264e-05
C0R700,枋山,2025-10-28,22.246844,120.661086,0.059280656
C0C460,復興,2025-10-28,24.820208,121.352281,0.61799383
E2H360,蓮華池,2025-10-28,23.918333,120.885278,5.3111557e-06
C0M640,中埔,2025-10-28,23.42538,120.5229,0.79329765
C0W140,金沙,2025-10-28,24.488292,118.408778,0.9999845
C2A540,四堵,2025-10-28,24.8926,121.745736,0.065954745
C0ACA0,新莊,2025-10-28,25.051478,121.446756,0.91100127
C0R220,潮州,2025-10-28,22.534361,120.54,0.9507656
U2HA40,臺大內茅埔,2025-10-28,23.689722,120.851117,0.70637167
467490,臺中,2025-10-28,24.145736,120.684075,0.99586827
C0UB60,明池,2025-10-28,24.650688,121.475277,7.1635995e-06
C0U960,翠峰湖,2025-10-28,24.510856,121.608044,2.618468e-07
E2HA20,林試畢祿溪站,2025-10-28,24.226944,121.308522,3.1756297e-08
C0V890,前鎮,2025-10-28,22.5718,120.3117,0.007002631
C1F941,雪嶺,2025-10-28,24.280586,121.026642,2.2300258e-08
C2H9E0,國姓南港,2025-10-28,23.911108,120.846556,1.967716e-09
C0AC80,文山,2025-10-28,25.00235,121.575728,0.9554972
C0F9R0,龍井,2025-10-28,24.184536,120.528972,0.99692583
C0M760,民雄,2025-10-28,23.551754,120.428457,0.71385324
C0UA40,西德山,2025-10-28,24.560647,121.752608,1.5149448e-05
C1T920,中興,2025-10-28,23.769503,121.498653,0.9587705
C0D550,雪霸,2025-10-28,24.526972,121.11605,3.893517e-07
C2F860,梨山,2025-10-28,24.247522,121.243669,2.992517e-08
C0R320,車城,2025-10-28,22.0744,120.716247,0.20309977
C1S870,南美山,2025-10-28,23.15025,121.382333,0.17389244
C0B020,基隆嶼,2025-10-28,25.19141,121.78391,0.6639802
C1U501,牛鬥,2025-10-28,24.637836,121.573656,4.645368e-06
C0M730,嘉義市東區,2025-10-28,23.457673,120.460531,0.5712674
C0S700,知本,2025-10-28,22.684866,121.005642,0.00030632457
C1N001,沙崙,2025-10-28,22.935472,120.309406,0.25732878
C0V760,橋頭,2025-10-28,22.757806,120.30575,0.0023603444
C0G960,福寶,2025-10-28,24.0443,120.3814,0.99837965
C0X210,白河,2025-10-28,23.347466,120.414427,0.55382484
C0S810,東河,2025-10-28,22.972672,121.303986,0.33869064
C2R170,屏東,2025-10-28,22.66027,120.49403,0.93931764
C0R670,楓港,2025-10-28,22.190131,120.692156,0.08273177
C0FA50,霧峰,2025-10-28,24.0419,120.6995,0.93044436
C0UB10,蘇澳,2025-10-28,24.5969,121.8571,0.56863046
C0G950,防潮門,2025-10-28,24.1835,120.4871,0.99692583
C0M740,六腳,2025-10-28,23.492871,120.290625,0.5463627
C1R250,力里,2025-10-28,22.428117,120.629228,0.001884826
C0K330,虎尾,2025-10-28,23.719183,120.442036,0.8696634
C2FA00,烏石坑,2025-10-28,24.273503,120.947617,2.0141768e-07
C0V620,永安,2025-10-28,22.82315,120.236856,0.5226509
C1I330,楓樹林,2025-10-28,23.986803,121.076117,7.627372e-09
C0W200,湖西,2025-10-28,23.596314,119.67275,0.9880953
72Q010,高雄農改場,2025-10-28,22.709333,120.525889,0.98200196
C0SA40,瑞和,2025-10-28,22.974361,121.156697,0.56303036
C0C680,龜山,2025-10-28,25.02846,121.38656,0.65909994
C2V260,月眉,2025-10-28,22.971003,120.539853,0.37919745
C0V450,鳳森,2025-10-28,22.545064,120.392592,0.0027350984
C0FA90,小雪山林道,2025-10-28,24.29515,121.03651,2.2785505e-08
C0U720,南山,2025-10-28,24.43742,121.38167,1.6125131e-07
A2N290,臺南蘭花園區,2025-10-28,23.340258,120.379661,0.7103496
C0R560,新園,2025-10-28,22.5434,120.461558,0.0035053403
C0U890,三星,2025-10-28,24.66812,121.65302,0.0020675322
C1V300,御油山,2025-10-28,23.001983,120.715364,4.1358237e-09
C0U600,礁溪,2025-10-28,24.817539,121.765608,0.9393683
C1T980,龍澗,2025-10-28,24.023289,121.411328,9.831264e-09
C0D670,海天一線,2025-10-28,24.831986,120.914438,0.9140817
C0SA00,歷坵,2025-10-28,22.520969,120.89185,0.9894457
C0M710,東石,2025-10-28,23.458927,120.15385,0.60426164
C0M780,鹿草,2025-10-28,23.41134,120.30835,0.51329255
C0U520,雙連埤,2025-10-28,24.753033,121.641303,1.9580003e-07
C0B010,七堵,2025-10-28,25.094819,121.71713,0.23898467
C0R480,長治,2025-10-28,22.693128,120.542622,0.05880202
C1V830,國三S383K,2025-10-28,22.781967,120.426475,0.9627817
12Q980,恆春工作站,2025-10-28,22.079678,120.714425,0.20309977
C1O940,東山服務區,2025-10-28,23.286016,120.398472,0.89997506
C1U840,東澳嶺,2025-10-28,24.5378,121.8485,5.164604e-07
C1D630,飛鳳山,2025-10-28,24.766464,121.119178,0.774242
C0S940,石寧山,2025-10-28,23.223772,121.406639,0.18431732
C0K410,北港,2025-10-28,23.573957,120.292802,0.5332237
C2M620,瑞里,2025-10-28,23.545133,120.675197,9.354685e-09
C0SB70,小港漁港,2025-10-28,23.158558,121.400431,0.03842564
C2O950,安南,2025-10-28,23.076694,120.144861,0.30227548
C0F0E0,南湖圈谷,2025-10-28,24.363714,121.444667,5.3851593e-08
467610,成功,2025-10-28,23.097486,121.373428,0.3327783
C0G890,伸港,2025-10-28,24.148933,120.484403,0.99776226
C2E540,龍溪,2025-10-28,24.606489,120.783933,0.6599074
C1V200,梅山,2025-10-28,23.268447,120.823556,2.8751542e-08
C0T9H0,加路蘭山,2025-10-28,23.682947,121.5274,2.6209042e-09
C2O930,玉井,2025-10-28,23.126042,120.46055,0.66059434
C1F911,新伯公,2025-10-28,24.221361,120.841069,0.9181011
C0R490,九如,2025-10-28,22.7405,120.490503,0.9813057
C0X200,左鎮,2025-10-28,23.056758,120.408522,0.07943858
C0FA60,鞍馬山工作站,2025-10-28,24.267064,121.000793,5.3722404e-09
C0SB50,叭嗡嗡,2025-10-28,23.047062,121.343223,0.84219456
C1F891,稍來,2025-10-28,24.265689,121.001142,5.275139e-09
72N240,七股研究中心,2025-10-28,23.081672,120.062894,0.2965049
C0C700,中壢,2025-10-28,24.977661,121.256375,0.9575277
C0M690,水上,2025-10-28,23.419734,120.388909,0.8699218
C0V690,鼓山,2025-10-28,22.623325,120.275575,0.0071333777
C0O860,大內,2025-10-28,23.11885,120.36083,0.5317079
C0Z200,萬榮,2025-10-28,23.709219,121.420106,3.3388038e-05
C0T9D0,和中,2025-10-28,24.26676,121.74103,0.7415585
C1O921,楠西,2025-10-28,23.183511,120.484083,0.7965668
C0AJ30,淡水觀海,2025-10-28,25.184591,121.408616,0.43798524
C0V810,左營,2025-10-28,22.67491,120.28491,0.0034246792
C0UA70,桃源谷,2025-10-28,24.962606,121.888875,0.7048923
C0X130,官田,2025-10-28,23.193217,120.315422,0.61366814
C1H000,翠峰,2025-10-28,24.109397,121.205211,3.9137948e-08
C0UA90,石城,2025-10-28,24.980444,121.951214,0.96557784
C1E681,南勢山,2025-10-28,24.421669,120.923831,6.9175435e-08
C0A9F0,內湖,2025-10-28,25.079422,121.57545,0.8739777
C0K291,宜梧,2025-10-28,23.536281,120.169329,0.3866035
C1K540,口湖,2025-10-28,23.585344,120.180517,0.99526405
C0R780,滿州,2025-10-28,22.024403,120.839892,0.15742949
C0V870,文安,2025-10-28,22.8025,120.2164,0.5126411
C0U650,玉蘭,2025-10-28,24.675286,121.587061,9.878887e-07
C0R640,東港,2025-10-28,22.46247,120.44074,0.6102926
C0AJ80,板橋,2025-10-28,25.0107,121.4489,0.96034855
C0S660,下馬,2025-10-28,23.150427,121.070312,4.031752e-08
C1H9B1,阿眉,2025-10-28,24.1263,120.994672,2.991945e-09
C0UA20,多加屯,2025-10-28,24.368614,121.373189,5.1380844e-08
C0E730,頭份,2025-10-28,24.688247,120.912206,0.85574347
72V140,高改旗南分場,2025-10-28,22.857861,120.516667,0.6157456
C0K480,莿桐,2025-10-28,23.761192,120.502372,0.7978681
C0U980,坪林石牌,2025-10-28,24.86478,121.77396,6.217527e-07
C0T900,西林,2025-10-28,23.8119,121.441458,0.028630685
C1I150,青雲,2025-10-28,23.793361,120.949378,0.82001734
467350,澎湖,2025-10-28,23.565503,119.563094,0.98808455
C0G800,埔鹽,2025-10-28,24.000394,120.431683,0.99829125
C0H960,草屯,2025-10-28,23.973672,120.68085,0.94543254
C1V780,多納林道,2025-10-28,22.888028,120.737917,1.7187334e-08
C0E920,通霄漁港,2025-10-28,24.498589,120.673876,0.725826
C0Z330,安通山,2025-10-28,23.290728,121.348528,3.957717e-08
C0AH10,永和,2025-10-28,25.01125,121.508111,0.96034855
C0AK10,太平里,2025-10-28,25.134937,121.364899,0.64003867
C2G640,鹿港,2025-10-28,24.0753,120.430481,0.99837965
C1E890,國三N149K,2025-10-28,24.463414,120.680019,0.9020586
C1R110,口社,2025-10-28,22.770111,120.645222,0.22464532
C1M870,國三N285K,2025-10-28,23.550319,120.505833,0.40252134
C1E480,鳳美,2025-10-28,24.554803,121.034747,0.038788877
C0M530,奮起湖,2025-10-28,23.493903,120.699253,7.1536586e-09
C0C590,觀音,2025-10-28,25.027072,121.153317,0.9432655
C0T9M0,靜浦,2025-10-28,23.455167,121.495028,0.07799873
C2H9M0,發祥,2025-10-28,24.154094,121.164517,1.06510996e-07
C0AI40,石牌,2025-10-28,25.115597,121.513139,0.5243348
C1F871,上谷關,2025-10-28,24.203483,121.018644,3.827006e-08
C2H9G0,百勝,2025-10-28,24.051142,120.909361,0.99260694
C0G880,二水,2025-10-28,23.810742,120.6173,0.530874
C0R940,加祿堂,2025-10-28,22.3363,120.6217,0.08984529
C0W220,北竿,2025-10-28,26.220358,119.974881,0.9999036
C0O960,崎頂,2025-10-28,22.959547,120.369317,0.2545726
C0TA40,秀林,2025-10-28,24.302864,121.731144,1.05359454e-08
C0S750,向陽,2025-10-28,23.248397,120.986133,6.978088e-09
C0T9F0,水璉,2025-10-28,23.797131,121.542514,0.00011791032
C1M600,頭凍,2025-10-28,23.406364,120.603339,1.3743979e-08
467660,臺東,2025-10-28,22.752211,121.154586,0.015087842
C1D380,新埔,2025-10-28,24.84745,121.03834,0.48096287
C2G980,田頭村,2025-10-28,23.8263,120.444175,0.9634936
C0V750,路竹,2025-10-28,22.854997,120.259439,0.59912163
C0N050,蚵寮,2025-10-28,23.301,120.1104,0.35569036
72M700,南改鹿草分場,2025-10-28,23.416869,120.283061,0.47340205
C1SA50,利嘉林道,2025-10-28,22.82325,121.009389,5.2770137e-08
C0UB70,太平山中間站,2025-10-28,24.542003,121.513453,0.6347873
C0A940,金山,2025-10-28,25.223628,121.643967,0.32843614
C1V340,大津,2025-10-28,22.888322,120.645986,0.9593625
C0W180,七美,2025-10-28,23.219333,119.444892,0.9494589
C1F9C1,白冷,2025-10-28,24.182844,120.929889,4.3925e-06
K2E710,苗改生物防治研究中心,2025-10-28,24.422861,120.871833,0.11333659
C0N040,蘆竹溝,2025-10-28,23.2344,120.0961,0.32793254
C0D760,大坪苗圃,2025-10-28,24.5362,121.1108,5.940494e-07
C2W230,畜試所澎湖,2025-10-28,23.628342,119.513206,0.98979795
C0R880,後壁湖,2025-10-28,21.9457,120.7457,0.93725705
C1I280,埔中,2025-10-28,23.820778,120.642594,0.8144013
467790,墾丁雷達站,2025-10-28,21.948235,120.808028,0.67522025
C0W190,望安,2025-10-28,23.380564,119.494075,0.96341807
C0Z170,卓溪,2025-10-28,23.3443,121.3029,0.00052677473
C0F850,東勢,2025-10-28,24.246428,120.833047,0.0039421082
466900,淡水,2025-10-28,25.164889,121.448906,0.64003867
C0I370,魚池,2025-10-28,23.895703,120.94135,8.659041e-07
C0C630,大溪,2025-10-28,24.882853,121.265547,0.46416384
C0A520,山佳,2025-10-28,24.974944,121.402008,0.972624
C0I110,竹山,2025-10-28,23.761225,120.688156,0.6270819
82H840,茶改南部分場,2025-10-28,23.762528,120.7405,0.9574738
C0G660,溪湖,2025-10-28,23.94835,120.479122,0.9636123
C1T800,洛韶,2025-10-28,24.204558,121.453956,5.249485e-09
C1T810,慈恩,2025-10-28,24.192044,121.388386,3.4355022e-08
C1E451,象鼻,2025-10-28,24.368617,120.940228,1.4536346e-08
C0AC60,三峽,2025-10-28,24.939025,121.369728,0.79126805
C0I490,萬大林道,2025-10-28,23.928228,121.091411,3.1609795e-09
C1I290,豐丘,2025-10-28,23.668178,120.887417,2.6751312e-09
C1I320,奧萬大,2025-10-28,23.952956,121.178556,9.49776e-09
C2M910,嘉義大學,2025-10-28,23.471325,120.485903,0.6188141
C0U770,南澳,2025-10-28,24.44935,121.81022,6.730397e-06
C0A980,社子,2025-10-28,25.109508,121.469681,0.65107304
C0V800,六龜,2025-10-28,22.997889,120.633583,0.99725586
C1G9D0,國一S218K,2025-10-28,23.890641,120.493253,0.9657188
C0E570,白沙屯,2025-10-28,24.549447,120.696803,0.9040675
C2F9A0,中竹林,2025-10-28,24.103556,120.751061,0.99832755
C0FA40,臺中電廠,2025-10-28,24.2146,120.4907,0.99692583
C2G9A0,畜試所彰化,2025-10-28,23.86045,120.557964,0.9156811
C0H9C0,合歡山,2025-10-28,24.143442,121.272547,3.0625653e-08
C0X060,下營,2025-10-28,23.22695,120.256261,0.61466026
G2M350,農試溪口農場,2025-10-28,23.58565,120.408111,0.6803699
C0U860,頭城,2025-10-28,24.85323,121.8308,0.94562674
C0R580,南州,2025-10-28,22.48591,120.50274,0.6102926
C0D430,峨眉,2025-10-28,24.6905,121.017189,0.4527765
C0G780,秀水,2025-10-28,24.03405,120.503869,0.99254674
72N100,臺南農改場,2025-10-28,23.0605,120.342194,0.5450151
C0S900,蘭嶼高中,2025-10-28,22.04909,121.51214,0.9635035
C1F9W0,德基,2025-10-28,24.254783,121.190261,5.6503597e-09
C1Z120,壽豐,2025-10-28,23.870853,121.508081,0.96087456
C0W160,烏坵,2025-10-28,24.9944,119.44956,0.9960674
C1I240,外大坪,2025-10-28,23.958697,120.917931,5.54807e-07
C1I550,國六W023K,2025-10-28,23.979067,120.867742,0.9992301
C0R870,興海,2025-10-28,21.9752,120.8439,0.74041504
C0R140,瑪家,2025-10-28,22.682903,120.686639,9.423347e-08
C0A530,坪林,2025-10-28,24.938183,121.70975,0.4479448
C0X260,後壁,2025-10-28,23.366358,120.362326,0.710241
C0Z230,和平,2025-10-28,24.30717,121.77007,0.7667979
C0G770,福興,2025-10-28,24.041289,120.437669,0.99829125
C0H9A0,神木村,2025-10-28,23.532742,120.843667,1.2048227e-08
C0I460,南投,2025-10-28,23.911469,120.687331,0.9767035
C0I480,梅峰,2025-10-28,24.085272,121.173572,2.0944439e-08
C1V570,吉東,2025-10-28,22.85422,120.5454,0.6619639
C2D740,屯原,2025-10-28,24.067969,121.209389,2.8968367e-08
C2A560,福山,2025-10-28,24.776203,121.502811,0.1405776
C0AH30,五分山,2025-10-28,25.07125,121.780794,0.26644742
C0FA10,松柏,2025-10-28,24.429115,120.617482,0.91552365
72S200,東改班鳩分場,2025-10-28,22.829528,121.077694,0.13870823
72HA00,中改埔里分場,2025-10-28,23.903208,120.963364,3.956638e-05
C2H9W0,大坪頂農水,2025-10-28,24.043122,120.932781,2.4086802e-07
C0C650,平鎮,2025-10-28,24.897503,121.214636,0.8994412
C0S930,延平,2025-10-28,22.902581,121.084058,0.49421576
C0UA60,樟樹山,2025-10-28,24.41393,121.78325,2.5767415e-06
C1S670,摩天,2025-10-28,23.199503,121.027,4.3435833e-09
C0V630,茄萣,2025-10-28,22.906642,120.182608,0.5687503
466940,基隆,2025-10-28,25.133314,121.740475,0.054590777
C0X050,東河,2025-10-28,23.296598,120.385608,0.8747524
C0R770,保力,2025-10-28,22.071122,120.764111,0.09405066
G2L020,農試嘉義分所,2025-10-28,23.485028,120.473806,0.4600394
C0X240,關子嶺,2025-10-28,23.331169,120.508025,0.99519193
C0I380,集集,2025-10-28,23.828206,120.801467,0.9976412
466990,花蓮,2025-10-28,23.975128,121.613275,0.18253705
C1V220,小關山,2025-10-28,23.154217,120.813603,3.22078e-09
C1F9G1,慶福山,2025-10-28,24.180853,120.848378,2.878e-07
C0FB20,雪山橋,2025-10-28,24.23192,120.9786,1.0023639e-08
C0Z250,瑞穗林道,2025-10-28,23.49284,121.30688,5.2194753e-08
C0D590,新豐,2025-10-28,24.87068,120.97721,0.83032876
C0A870,五指山,2025-10-28,25.132153,121.608692,0.017835103
C0UA50,西帽山,2025-10-28,24.555361,121.802628,0.04789171
C0X160,仁德,2025-10-28,22.968258,120.257689,0.46307123
C1H971,六分寮,2025-10-28,23.92507,120.6378,0.9986127
C0W120,西嶼,2025-10-28,23.5626,119.468436,0.9888465
C0G650,員林,2025-10-28,23.946503,120.585597,0.9560179
C0AD50,鶯歌,2025-10-28,24.951533,121.346294,0.82315
C2H9Q0,北東眼山,2025-10-28,24.120939,121.189303,8.210366e-09
C2H9T0,名間竹圍,2025-10-28,23.859914,120.637572,0.99843675
C0S990,山豬窟,2025-10-28,22.318619,120.857372,0.9015467
C0X190,安平,2025-10-28,22.993161,120.152181,0.31993225
C0K400,斗六,2025-10-28,23.720583,120.541127,0.6943798
12J990,口湖工作站,2025-10-28,23.589978,120.180394,0.995269
C0O830,北寮,2025-10-28,23.079561,120.495008,0.3543529
C1D410,白蘭,2025-10-28,24.579364,121.079947,1.1957463e-06
C0S970,加津林,2025-10-28,22.416211,120.926942,0.27651703
C0D700,關西,2025-10-28,24.7977,121.1732,0.7665088
C0M810,里佳,2025-10-28,23.389125,120.716647,3.8715693e-09
C0U750,龜山島,2025-10-28,24.841667,121.953133,0.011694056
C0R810,內獅,2025-10-28,22.305064,120.642986,0.08980481
C1M390,龍美,2025-10-28,23.406728,120.654417,5.938039e-09
C2FB60,頭櫃山,2025-10-28,24.129842,120.858925,6.983587e-09
C1H840,國三N238K,2025-10-28,23.841008,120.707711,0.99861604
CAQ030,崎峰國小,2025-10-28,22.42565,120.49521,0.6102926
C2E520,大湖,2025-10-28,24.414939,120.870872,0.06202647
467530,阿里山,2025-10-28,23.508208,120.813242,8.719026e-09
C1E691,南湖,2025-10-28,24.40135,120.837533,1.5702348e-05
C0FA30,梧棲,2025-10-28,24.256003,120.523381,0.9882811
C1V231,高中,2025-10-28,23.134911,120.716711,3.0510043e-07
C0AK30,硬漢嶺,2025-10-28,25.136097,121.426372,0.10273592
C0F9V0,新社,2025-10-28,24.200172,120.815806,0.0017269463
C0H890,埔里,2025-10-28,23.972169,120.952425,0.9991916
C0R690,墾丁,2025-10-28,21.966756,120.810269,0.24495977
C0F0D0,審馬陣,2025-10-28,24.381675,121.4203,5.1154373e-08
C2W030,金門農試所,2025-10-28,24.448431,118.451786,0.9999875
C0R820,白鷺,2025-10-28,22.454275,120.666219,1.434103e-07
C0FB00,大雪山,2025-10-28,24.254668,121.007374,3.0119523e-08
C1V190,南天池,2025-10-28,23.27403,120.91176,1.1992286e-08
C0E940,雪見,2025-10-28,24.42595,121.01347,3.0555876e-07
K2E360,苗栗農改場,2025-10-28,24.495722,120.829111,0.1884563
CAJ050,海口故事園區,2025-10-28,23.57543,120.14121,0.99526405
C2H9D0,三隻寮,2025-10-28,24.093078,120.861578,1.4608577e-07
C0O990,媽廟,2025-10-28,22.99175,120.293525,0.45916533
C0D480,打鐵坑,2025-10-28,24.849664,121.150789,0.5059257
C0Z220,和平林道,2025-10-28,24.343922,121.656317,3.540131e-08
C0TA10,花蓮漁港,2025-10-28,23.995322,121.638331,0.17518505
72C440,桃園農改場,2025-10-28,24.950944,121.030583,0.5621036
C1E711,馬拉邦山,2025-10-28,24.367306,120.901656,1.1536103e-08
C0SB20,富岡,2025-10-28,22.792467,121.192669,0.06292419
C0D560,竹東,2025-10-28,24.767147,121.057881,0.75464684
C0F9U0,南屯,2025-10-28,24.137006,120.637969,0.9989799
C0M720,番路,2025-10-28,23.464657,120.554156,0.9131853
C0F0A0,雪山圈谷,2025-10-28,24.388594,121.236339,5.771408e-08
C1A9N0,四十份,2025-10-28,24.934158,121.593283,0.67828643
C0U760,東澳,2025-10-28,24.52196,121.83318,0.10665302
C0X230,鹽水,2025-10-28,23.272621,120.247641,0.36664465
C2H9H0,苗改南投蜂場,2025-10-28,23.852589,120.693481,0.8752113
C0R950,萬隆國小,2025-10-28,22.507667,120.587817,0.9665665
467540,大武,2025-10-28,22.35572,120.90374,0.23534898
C0V370,古亭坑,2025-10-28,22.893178,120.401947,0.0027788288
C1I340,新興橋,2025-10-28,23.563333,120.868728,1.2064248e-07
C0SA80,土坂,2025-10-28,22.453108,120.887572,0.57667315
C0R160,鹽埔,2025-10-28,22.739558,120.530778,0.9828956
C0AC40,大屯山,2025-10-28,25.175675,121.522408,2.9485727e-05
466850,五分山雷達站,2025-10-28,25.071182,121.781205,0.2410307
C2H9L0,馬烈霸,2025-10-28,24.1512,121.201772,8.367783e-09
C1AI50,國三N016K,2025-10-28,25.034164,121.619664,0.88698125
C1V600,藤枝,2025-10-28,23.071961,120.757042,3.4751548e-09
C1E601,南勢,2025-10-28,24.572486,120.734842,0.8476121
C0O980,新市,2025-10-28,23.061614,120.298197,0.516238
C0K420,西螺,2025-10-28,23.800407,120.467394,0.9704328
C0Z050,佳心,2025-10-28,23.34567,121.21316,2.1849003e-08
C0AD30,蘆洲,2025-10-28,25.086594,121.472331,0.87171257
C0V610,梓官,2025-10-28,22.760558,120.267211,0.0023603444
K2F750,種苗改良場,2025-10-28,24.225972,120.800917,0.24054688
C0UA80,大溪漁港,2025-10-28,24.941801,121.902955,0.98668677
C1AI60,國一39K邊坡,2025-10-28,25.064361,121.383836,0.594404
C0W150,金寧,2025-10-28,24.457703,118.328989,0.99998766
C0R960,內埔,2025-10-28,22.608483,120.570714,0.91895777
V2C250,八德合作社,2025-10-28,24.93775,121.266389,0.8818667
C2H9S0,龍南,2025-10-28,23.953536,120.833183,3.3913654e-09
C0AH40,平等,2025-10-28,25.129142,121.577086,0.4733037
C0R540,佳冬,2025-10-28,22.419456,120.552375,0.0058539887
466950,彭佳嶼,2025-10-28,25.627975,122.079744,0.9396974
C0A890,雙溪,2025-10-28,25.036003,121.864242,0.33399132
C0C480,桃園,2025-10-28,24.992425,121.323172,0.953633
C0AH50,林口,2025-10-28,25.072181,121.38084,0.70808
A2K360,水試臺西試驗場,2025-10-28,23.717231,120.190522,0.9981924
C2M960,外寮,2025-10-28,23.562643,120.665688,1.8476566e-08
C0F9S0,烏日,2025-10-28,24.107058,120.624103,0.98833567
C0C490,八德,2025-10-28,24.928708,121.283289,0.8837192
C0R190,赤山,2025-10-28,22.592333,120.614306,0.92226386
C0T820,天祥,2025-10-28,24.179597,121.495639,2.927637e-08
C1F9E1,龍安,2025-10-28,24.1605,120.831961,0.97279143
C0V820,小林,2025-10-28,23.148408,120.63325,4.7297028e-05
C2G870,芳苑,2025-10-28,23.922303,120.320025,0.9409509
C0E850,大河,2025-10-28,24.618069,120.948578,0.29692122
C1U670,寒溪,2025-10-28,24.634,121.71691,1.0308544e-07
C0N020,城西,2025-10-28,23.0568,120.0956,0.3198358
C1Z110,三棧,2025-10-28,24.11557,121.60501,7.954633e-09
C0R280,檳榔,2025-10-28,22.076078,120.836777,0.4768608
C2H9J0,中台,2025-10-28,23.9996,120.938739,0.078881875
C0F9L0,后里,2025-10-28,24.310436,120.729725,0.012382613
467441,高雄,2025-10-28,22.730432,120.312516,0.0021483838
C0Z180,新城,2025-10-28,24.040486,121.604878,0.18672094
C0D540,橫山,2025-10-28,24.71116,121.11693,0.80159444
C1D420,太閣南,2025-10-28,24.632808,121.160575,5.849874e-07
C1E770,公館,2025-10-28,24.526914,120.830806,0.2051783
CAN130,水試所海水繁養殖中心,2025-10-28,23.120802,120.07968,0.2965049
C1I430,翠華,2025-10-28,24.191961,121.224339,4.190632e-08
C1M400,菜瓜坪,2025-10-28,23.251928,120.576103,0.0035755562
C0G730,二林,2025-10-28,23.903325,120.376081,0.9961242
72M360,南改義竹分場,2025-10-28,23.360694,120.279361,0.40660194
V2K620,麥寮合作社,2025-10-28,23.753836,120.294783,0.87209046
C0Z070,舞鶴,2025-10-28,23.46811,121.37407,6.6096627e-06
C0B040,大武崙,2025-10-28,25.166676,121.706993,0.052679315
C1Z030,紅葉,2025-10-28,23.493119,121.338806,6.9991643e-06
C1I050,丹大,2025-10-28,23.753747,121.141147,2.3457911e-08
C0I080,信義,2025-10-28,23.689694,120.851036,0.70637167
C0D750,樂山林道6k,2025-10-28,24.49999,121.08773,9.873869e-08
C2M920,朴子農改,2025-10-28,23.469889,120.259383,0.48295826
C2A880,福隆,2025-10-28,25.017842,121.942083,0.9644674
C0Z160,鳳林,2025-10-28,23.746114,121.453411,0.0010179897
C0UB80,翠峰林道6K,2025-10-28,24.49773,121.568625,1.0208559e-07
C0V210,復興,2025-10-28,23.222403,120.806089,3.744666e-07
C0H990,昆陽,2025-10-28,24.121322,121.273642,3.581697e-08
C0R741,獅子,2025-10-28,22.202308,120.705236,0.085078575
C0S710,鹿野,2025-10-28,22.917711,121.122994,0.001502116
C0I530,小奇萊,2025-10-28,24.131764,121.295717,3.6492203e-08
C0FA70,大雪山埡口,2025-10-28,24.26867,121.03062,2.2382585e-08
C2K630,荷苞,2025-10-28,23.657717,120.595144,0.5515554
C0Z080,富源,2025-10-28,23.587642,121.378225,6.5941845e-07
C0SB10,美和,2025-10-28,22.682078,121.060236,0.6956253
C2K620,馬光農場,2025-10-28,23.721453,120.378864,0.81971675
C1I140,卡奈托灣,2025-10-28,23.754364,121.087872,1.3829513e-09
C0I520,玉山風口,2025-10-28,23.470489,120.955994,2.1405572e-08
C1G691,下水埔,2025-10-28,23.816114,120.5676,0.83626163
C0X110,臺南市南區,2025-10-28,22.961189,120.188378,0.46227887
C0V680,仁武,2025-10-28,22.701083,120.347722,0.0034298368
C2G840,北斗,2025-10-28,23.877586,120.514222,0.97169554
C0R900,竹坑,2025-10-28,22.1385,120.7022,0.17749849
C0K250,崙背,2025-10-28,23.75555,120.318925,0.87209046
C0G860,社頭,2025-10-28,23.897647,120.5862,0.9150255
C0X150,安定,2025-10-28,23.102614,120.227839,0.3935144
C0R590,里港,2025-10-28,22.77919,120.49459,0.94330144
C0E610,馬都安,2025-10-28,24.451272,120.930192,1.7564744e-06
C0E550,明德,2025-10-28,24.583486,120.885411,0.3533342
C0R150,三地門,2025-10-28,22.709889,120.639944,0.19680803
C0G910,花壇,2025-10-28,24.032076,120.549461,0.9923478
C1D400,鳥嘴山,2025-10-28,24.71909,121.28387,0.0001467998
C0K500,元長,2025-10-28,23.64981,120.315024,0.7402974
C0F0B0,石岡,2025-10-28,24.276061,120.777644,0.0029331218
C2V250,甲仙,2025-10-28,23.080106,120.591758,0.11405176
C0SA20,金崙山,2025-10-28,22.567419,120.959667,3.608109e-08
C0V350,溪埔,2025-10-28,22.738578,120.446797,0.014316278
C0M660,溪口,2025-10-28,23.604131,120.403569,0.6803699
C1S880,壽卡,2025-10-28,22.238911,120.858903,0.9542955
72D680,桃改新埔分場,2025-10-28,24.834444,121.066111,0.48590165
