站號,站名,日期,lat,lon,BLBTSLS
C0R710,龍磐,2025-03-22,21.931672,120.838942,0.9880898
C1F9D1,白毛台,2025-03-22,24.158325,120.886933,1.7559574e-09
C0G940,竹塘,2025-03-22,23.848253,120.386764,6.6960837e-09
467590,恆春,2025-03-22,22.003897,120.746339,0.6517148
C1O850,環湖,2025-03-22,23.148617,120.418633,8.7514107e-10
C0U710,太平山,2025-03-22,24.505486,121.525656,1.5492791e-08
C0E820,獅潭,2025-03-22,24.539133,120.920042,8.284394e-09
C0V880,興達,2025-03-22,22.8778,120.2127,1.8749844e-09
C0S890,關山,2025-03-22,23.0395,121.175017,2.2404445e-09
C0SB30,新蘭,2025-03-22,22.869214,121.223228,2.327242e-09
C2R970,屏科大,2025-03-22,22.648275,120.619247,1.5033486e-09
K2F750,種苗繁殖,2025-03-22,24.225972,120.800917,7.0872876e-09
C1Z130,銅門,2025-03-22,23.965694,121.492842,4.636915e-09
C0AD40,土城,2025-03-22,24.973208,121.445169,6.1694863e-09
CAN140,六官養殖協會,2025-03-22,23.22881,120.29962,3.5975314e-09
C0X180,山上,2025-03-22,23.0757,120.363253,1.0026311e-09
C0F9Z0,雪山東峰,2025-03-22,24.388792,121.268675,2.998665e-08
C1M480,獨立山,2025-03-22,23.537022,120.607797,1.3829012e-09
C0X220,學甲,2025-03-22,23.230367,120.182187,1.5055409e-09
467650,日月潭,2025-03-22,23.881325,120.90805,3.9043315e-09
C0K600,箔子寮,2025-03-22,23.6197,120.14,3.728505e-08
C0G830,埤頭,2025-03-22,23.866003,120.452806,3.1680898e-09
C0S950,七塊厝,2025-03-22,22.954453,121.229922,2.8987532e-09
467110,金門,2025-03-22,24.407306,118.289281,6.029723e-08
C0AH80,深坑,2025-03-22,25.002703,121.628328,6.770726e-09
467990,馬祖,2025-03-22,26.169269,119.923419,1.4818498e-08
C0A970,三貂角,2025-03-22,25.007606,122.002058,3.4501109e-09
C2D730,寶山農場,2025-03-22,24.732444,120.976153,3.1907962e-08
C0K430,褒忠,2025-03-22,23.690938,120.303634,2.2271682e-09
467480,嘉義,2025-03-22,23.495925,120.432906,1.7916837e-09
C2E540,後龍,2025-03-22,24.606489,120.783933,1.1082371e-05
C0V400,阿公店,2025-03-22,22.804194,120.355528,6.586602e-09
467550,玉山,2025-03-22,23.48718,120.95943,3.1842667e-08
C0R440,大漢山,2025-03-22,22.405264,120.753181,1.0948735e-08
C0K280,四湖,2025-03-22,23.630414,120.227125,2.1643235e-08
C1F9B1,桐林,2025-03-22,24.066172,120.735194,1.9093669e-09
C2H9U0,鳳鵬,2025-03-22,23.763919,120.788061,1.1555499e-09
C0K390,土庫,2025-03-22,23.679029,120.395574,3.3363554e-09
C1I450,望鄉山,2025-03-22,23.594153,120.944286,1.44576795e-08
C0E910,海埔,2025-03-22,24.648767,120.772435,8.4528374e-08
B2E890,畜試北區分所,2025-03-22,24.527806,120.770972,7.38219e-09
C0R750,四林格山,2025-03-22,22.076989,120.802439,6.437132e-08
C0F0C0,中坑,2025-03-22,24.248517,120.903319,2.7209928e-09
C1I121,大鞍,2025-03-22,23.678381,120.760017,6.6743304e-09
72U480,花改蘭陽分場,2025-03-22,24.686306,121.716583,3.2531315e-09
C0A770,科教館,2025-03-22,25.096356,121.516507,3.6049703e-09
C0AJ60,六塊厝,2025-03-22,25.24,121.4481,4.0239698e-08
C0R620,墾雷,2025-03-22,21.900836,120.855269,0.70183855
467420,永康,2025-03-22,23.038386,120.2367,1.6520504e-09
467300,東吉島,2025-03-22,23.25695,119.667467,0.99943775
C0I410,名間,2025-03-22,23.837053,120.701447,1.5236306e-09
A2C560,農工中心,2025-03-22,24.985917,121.239833,5.7502014e-08
C0V740,旗山,2025-03-22,22.888614,120.483597,9.0114716e-10
C0Z061,玉里,2025-03-22,23.3215,121.339656,3.8111243e-09
C0S840,南田,2025-03-22,22.279725,120.889208,5.6294124e-07
C1I470,杉林溪,2025-03-22,23.639517,120.786444,7.956909e-09
C1X040,東原,2025-03-22,23.291597,120.463822,9.31949e-10
C0R660,枋寮,2025-03-22,22.367722,120.590647,1.3792055e-09
C1R120,上德文,2025-03-22,22.763272,120.704442,9.449221e-10
C0K450,大埤,2025-03-22,23.646074,120.431537,3.1524299e-09
C0UA00,土場,2025-03-22,24.576533,121.495333,4.7900324e-09
467080,宜蘭,2025-03-22,24.763975,121.756528,3.2106047e-09
C0N030,四草,2025-03-22,23.0235,120.1116,1.7773373e-09
467410,臺南,2025-03-22,22.99328,120.20492,1.5429026e-09
C0V650,彌陀,2025-03-22,22.783806,120.246361,6.8440724e-09
C0D660,新竹市東區,2025-03-22,24.798681,120.986942,2.2334764e-07
82S580,茶改東部分場,2025-03-22,22.907694,121.130139,1.9911728e-09
C0SB40,興隆,2025-03-22,22.913661,121.257469,2.2733921e-09
467050,新屋,2025-03-22,25.006725,121.047492,4.2098793e-07
C0C710,大溪永福,2025-03-22,24.892936,121.324975,2.4125484e-08
C0FA20,溫寮,2025-03-22,24.372177,120.583125,1.8776051e-08
C0V640,湖內,2025-03-22,22.887139,120.2445,1.7969439e-09
C0R910,下寮,2025-03-22,22.3929,120.5548,1.3792055e-09
C0Z020,明里,2025-03-22,23.208717,121.262342,4.5354485e-09
C0M770,嘉義梅山,2025-03-22,23.585398,120.555587,1.4747971e-09
G2F820,農業試驗所,2025-03-22,24.031261,120.688133,2.6154007e-06
C0C660,楊梅,2025-03-22,24.912375,121.143047,6.4572625e-08
C1E511,新開,2025-03-22,24.347703,120.827019,3.1639955e-09
G2F820,農試所(霧峰),2025-03-22,24.031261,120.688133,1.9226802e-09
C1I070,和社,2025-03-22,23.591131,120.888861,2.970723e-09
C2F000,大肚,2025-03-22,24.15295,120.572117,1.3503769e-09
C1S850,豐南,2025-03-22,23.122139,121.262389,2.838774e-09
C2A920,富貴角,2025-03-22,25.263783,121.565258,3.87084e-08
CAH030,茶改場竹圍站,2025-03-22,23.860083,120.637528,1.2180295e-09
C0T960,光復,2025-03-22,23.660694,121.424964,1.5538653e-09
C0F9M0,豐原,2025-03-22,24.254322,120.720692,1.4506121e-09
C0R720,旭海,2025-03-22,22.205403,120.887614,1.1392751e-07
C0V710,苓雅,2025-03-22,22.622742,120.330669,5.7206946e-09
C0C740,觀音工業區,2025-03-22,25.064764,121.114856,1.892209e-07
CAC040,拉拉山,2025-03-22,24.699317,121.427133,1.8179707e-08
C0V790,萬山,2025-03-22,22.905944,120.688056,6.3780237e-10
U2HA30,臺大和社,2025-03-22,23.590856,120.888864,2.970723e-09
C0AJ90,澳底,2025-03-22,25.0552,121.9253,6.101833e-09
C0Z100,東華,2025-03-22,23.89525,121.549833,3.5200243e-09
C0G970,三豐,2025-03-22,23.882,120.2895,3.3044168e-07
V2K610,大庄合作社,2025-03-22,23.8068,120.367939,4.5187405e-09
C0V900,汕尾,2025-03-22,22.4782,120.4151,5.8102505e-09
C1R630,龍泉,2025-03-22,22.66701,120.59091,2.2700732e-09
C1AC50,關渡,2025-03-22,25.133486,121.469331,5.4185803e-09
C0F9I0,神岡,2025-03-22,24.272481,120.658314,2.3839402e-09
C0K460,斗南,2025-03-22,23.678734,120.478359,3.1382417e-09
467410,臺南,2025-03-22,22.993239,120.204772,2.3022834e-07
C2O810,曾文,2025-03-22,23.219681,120.497328,7.704099e-10
467280,後龍,2025-03-22,24.648563,120.831834,8.054008e-08
C1F9J1,清水林,2025-03-22,24.071242,120.820419,2.7235214e-09
C2A650,火燒寮,2025-03-22,25.002719,121.742892,3.958168e-09
466930,竹子湖,2025-03-22,25.162078,121.544547,6.099017e-09
C1I220,樟湖,2025-03-22,23.905333,120.846983,4.2398822e-09
C0I390,仁愛,2025-03-22,24.022122,121.132206,4.9162017e-09
C0Z300,東里,2025-03-22,23.26853,121.30547,4.4530304e-09
C1V590,新發,2025-03-22,23.057019,120.646064,1.3012681e-09
C0K510,水林,2025-03-22,23.572924,120.24597,2.8706595e-09
72S590,東改賓朗果園,2025-03-22,22.813889,121.071278,1.4536256e-09
82A750,茶改北部分場,2025-03-22,24.955778,121.631222,5.7294525e-09
C1A750,石碇服務區,2025-03-22,25.00872,121.646242,5.7176406e-09
C0X300,鹿寮,2025-03-22,23.386047,120.477331,1.202031e-09
G2AI50,關渡,2025-03-22,25.11575,121.492,3.3417322e-08
C0K590,雲林東勢,2025-03-22,23.674192,120.255721,2.5936029e-09
C0A570,桶後,2025-03-22,24.848222,121.597992,3.0732838e-09
C1S800,華源,2025-03-22,22.657883,121.02325,1.3687028e-08
C0G720,溪州,2025-03-22,23.851589,120.499093,3.1752463e-09
C1V160,達卡努瓦,2025-03-22,23.279811,120.705319,2.8301403e-09
C2M410,馬頭山,2025-03-22,23.324361,120.582017,9.1823565e-10
C0V850,蚵仔寮,2025-03-22,22.7256,120.2527,2.742267e-08
C0S740,池上,2025-03-22,23.119628,121.209469,5.147224e-09
C1V390,尖山,2025-03-22,22.813153,120.367789,4.297387e-09
C0AH70,松山,2025-03-22,25.04871,121.55042,3.6154644e-09
C0N010,鯤鯓國小,2025-03-22,23.1879,120.0889,5.0846185e-09
C0R550,新埤,2025-03-22,22.467947,120.582894,4.308565e-09
C0SA60,知本（水試所）,2025-03-22,22.702394,121.082761,1.9369812e-08
C0T9I0,豐濱,2025-03-22,23.583897,121.514806,2.4457625e-09
C0UB00,淡江大學蘭陽校園,2025-03-22,24.823239,121.730383,3.3324885e-09
C0W240,九宮,2025-03-22,24.423753,118.240186,6.0650876e-08
C0T9N0,富里,2025-03-22,23.171639,121.249378,6.613996e-09
U2HA50,臺大竹山,2025-03-22,23.756972,120.681556,1.2505369e-09
C0V840,鳳鼻頭,2025-03-22,22.5083,120.3591,2.8473148e-09
C0X140,西港,2025-03-22,23.125608,120.203108,9.9040065e-09
72D080,桃改五峰分場,2025-03-22,24.612194,121.157167,9.177179e-09
C2H9P0,伊拿谷,2025-03-22,23.963211,121.088264,3.3176417e-09
C2H9F0,柑林,2025-03-22,24.018658,120.847072,1.5391463e-09
C0TA20,加灣,2025-03-22,24.082025,121.608944,1.6943895e-08
C0V530,阿蓮,2025-03-22,22.883208,120.327508,1.2310181e-08
C1O880,關山,2025-03-22,23.173397,120.594092,6.3368444e-10
C0E791,卓蘭,2025-03-22,24.3126,120.8244,1.556909e-09
C1I030,武界,2025-03-22,23.913225,121.052483,3.4215908e-09
C0R520,崁頂,2025-03-22,22.514781,120.506914,2.9955194e-09
C0R341,牡丹,2025-03-22,22.130036,120.792639,6.7297233e-06
C0R930,萬丹,2025-03-22,22.5885,120.4851,1.3703662e-09
C0S760,紅石,2025-03-22,23.069131,121.126219,1.5257166e-08
C2C410,中央大學,2025-03-22,24.967652,121.185165,5.5815946e-08
C1M610,石磐龍,2025-03-22,23.496606,120.663506,3.618638e-09
C0UA10,鴛鴦湖,2025-03-22,24.590269,121.412228,1.8743346e-08
V2C260,八德蔬果,2025-03-22,24.978508,121.281819,2.1299641e-08
C0R800,丹路,2025-03-22,22.204481,120.750989,3.4891215e-07
C0G920,永靖,2025-03-22,23.924703,120.547533,2.405875e-09
C2M950,太和,2025-03-22,23.538372,120.702961,4.6608024e-09
C1A630,下盆,2025-03-22,24.771003,121.538622,4.862876e-09
B2N890,畜產試驗所,2025-03-22,23.058972,120.336406,2.1229263e-09
C0UA30,白嶺,2025-03-22,24.527819,121.519031,1.2417977e-08
C1V580,溪南(特生中心),2025-03-22,23.084972,120.788475,3.1512395e-09
C1T970,大農,2025-03-22,23.615233,121.413331,2.4950761e-09
E2S960,林試太麻里2,2025-03-22,22.598014,120.989761,7.860887e-07
C0R650,竹田,2025-03-22,22.58486,120.54344,1.8939696e-09
C1H900,清流,2025-03-22,24.080775,120.962997,3.483769e-09
C1C510,水尾,2025-03-22,24.940081,121.087161,4.1030424e-07
C0F9X0,大雅(中科園區),2025-03-22,24.21528,120.62445,2.5299343e-09
C0SB60,白守蓮,2025-03-22,23.126769,121.401914,6.3163577e-09
C0O970,虎頭埤,2025-03-22,23.021375,120.347878,2.448241e-09
C0C730,中大臨海站,2025-03-22,24.966126,121.008581,4.5809333e-07
C0X250,新營,2025-03-22,23.310689,120.316681,3.4517695e-09
C0V700,三民,2025-03-22,22.645017,120.311233,6.814465e-09
C0U870,大礁溪,2025-03-22,24.791042,121.675047,4.741049e-09
C0E870,高鐵苗栗,2025-03-22,24.60725,120.826094,8.174757e-08
A2K570,古坑花卉中心,2025-03-22,23.63353,120.55239,1.1961875e-09
C0TA30,鹽寮,2025-03-22,23.845606,121.592664,3.5364442e-09
C0M860,新美,2025-03-22,23.338017,120.683169,1.4831159e-09
C1E701,八卦,2025-03-22,24.491756,120.927619,6.656481e-09
C0I420,國姓,2025-03-22,24.037803,120.855072,1.604218e-09
C2D720,關西工作站,2025-03-22,24.757275,121.184792,3.4362884e-08
C0S960,香蘭,2025-03-22,22.587569,120.993375,2.821857e-08
467620,蘭嶼,2025-03-22,22.0369,121.55843,0.99787307
C0R260,春日,2025-03-22,22.370361,120.628306,9.596267e-10
72G600,臺中農改場,2025-03-22,24.003028,120.534389,2.3318052e-09
C0Z210,瑞穗,2025-03-22,23.5239,121.39021,2.9767977e-09
C0M820,達邦,2025-03-22,23.453994,120.749517,2.8268494e-09
C0V860,南寮,2025-03-22,22.7616,120.2339,2.742267e-08
C0G740,大城,2025-03-22,23.852487,120.320935,3.10291e-07
C0R920,塭仔,2025-03-22,22.4169,120.5197,1.437392e-09
C0R470,高樹,2025-03-22,22.826389,120.600806,6.071923e-10
C0R680,佳樂水,2025-03-22,21.993578,120.861633,0.99856675
C1O870,大棟山,2025-03-22,23.31157,120.52226,3.3084222e-09
C0D360,梅花,2025-03-22,24.678347,121.208558,9.537334e-09
C0Z190,富世,2025-03-22,24.14743,121.6297,1.2385098e-08
C0AI10,屈尺,2025-03-22,24.92184,121.54475,7.4441346e-09
B2U990,畜試東區分所,2025-03-22,24.669039,121.832561,1.1580299e-09
C0SB80,長濱漁港,2025-03-22,23.313644,121.459994,3.7071233e-09
C0R240,來義,2025-03-22,22.527306,120.625111,1.4884067e-09
C0V910,大樹,2025-03-22,22.684645,120.432803,1.6530095e-08
C1R610,西大武山,2025-03-22,22.617719,120.7322,1.3615815e-08
C0G900,線西,2025-03-22,24.143358,120.443536,8.65966e-09
C0M700,竹崎,2025-03-22,23.526178,120.555508,1.467314e-09
C2E880,三義,2025-03-22,24.405478,120.749819,5.990413e-09
C0C720,竹圍,2025-03-22,25.112692,121.239824,3.3398653e-08
C0F9P0,清水,2025-03-22,24.312297,120.562242,1.0296986e-08
C0Z150,吉安光華,2025-03-22,23.930925,121.595153,5.3227422e-09
467300,東吉島,2025-03-22,23.25727,119.66762,0.9675997
C1D640,外坪(五指山),2025-03-22,24.644447,121.090961,7.526111e-09
C0F9O0,潭子,2025-03-22,24.213106,120.703933,1.0916784e-09
C2H9R0,卓社,2025-03-22,23.887894,121.000086,3.826522e-09
72T250,花蓮農改場,2025-03-22,23.975222,121.563889,1.6437912e-08
C0E780,銅鑼,2025-03-22,24.489681,120.790853,7.6292626e-09
C1T950,太安,2025-03-22,23.666719,121.370128,1.8702956e-08
C0E830,苑裡,2025-03-22,24.439714,120.653053,4.0602977e-08
467270,田中,2025-03-22,23.873803,120.581286,2.328805e-09
C0SA10,檳榔四格山,2025-03-22,22.810031,121.109308,1.5251949e-09
C1T830,布洛灣,2025-03-22,24.17184,121.57127,2.9498953e-08
C0F970,大坑,2025-03-22,24.173142,120.722289,1.153084e-09
C1U920,思源,2025-03-22,24.393125,121.347214,6.7196764e-09
C0A931,三和,2025-03-22,25.233153,121.595236,7.9883415e-09
C0I010,廬山,2025-03-22,24.033311,121.181808,7.273287e-09
C2M940,日野賀,2025-03-22,23.434056,120.727169,3.4913057e-09
C0R860,鼻頭,2025-03-22,22.1043,120.8979,0.23793226
C0UB20,壯圍,2025-03-22,24.7359,121.8163,3.2590999e-09
C0R790,九棚,2025-03-22,22.14195,120.889281,5.6036268e-05
C0W110,東莒,2025-03-22,25.9652,119.98069,8.1411166e-08
C1U930,粉鳥林,2025-03-22,24.497088,121.842479,2.4557238e-09
C1I211,蘆竹湳,2025-03-22,23.934019,120.811994,1.387853e-09
C0S830,長濱,2025-03-22,23.286817,121.411975,4.029505e-09
C1F9F1,伯公龍,2025-03-22,24.272392,120.849047,1.5310592e-09
C0E810,西湖,2025-03-22,24.562947,120.7485,9.2968577e-07
C1I440,新高口,2025-03-22,23.478744,120.878939,1.1012005e-08
C0O840,王爺宮,2025-03-22,23.222064,120.40085,9.882604e-10
C0T9G0,鳳林山,2025-03-22,23.735269,121.420131,6.598661e-09
C0X080,佳里,2025-03-22,23.173039,120.145086,5.0846185e-09
C0FB70,大甲溪埔,2025-03-22,24.370625,120.620067,1.7837195e-08
C0Z310,清水斷崖,2025-03-22,24.218294,121.689142,1.0815133e-08
C0M680,太保,2025-03-22,23.455062,120.331455,2.2026656e-09
C1S820,金峰,2025-03-22,22.590969,120.933236,1.599718e-08
C0AD10,八里,2025-03-22,25.150211,121.403947,3.3398653e-08
C2K240,草嶺,2025-03-22,23.59555,120.693461,3.0524108e-09
C1SA70,都蘭,2025-03-22,22.87794,121.226881,2.2733921e-09
C0K440,二崙,2025-03-22,23.772797,120.408944,3.4778669e-09
C1A760,坪林交控,2025-03-22,24.94284,121.713442,2.654121e-09
C0F9N0,大里,2025-03-22,24.092464,120.701378,1.8140315e-09
C0SA90,達仁林場,2025-03-22,22.264347,120.823972,7.784267e-08
C1R290,石門山,2025-03-22,22.112611,120.756597,6.5135885e-07
42HA10,萬大發電廠,2025-03-22,23.978875,121.139639,4.822291e-09
C0R890,山海,2025-03-22,21.9878,120.7091,0.9781301
C0T9A0,月眉山,2025-03-22,23.809928,121.539828,4.3578647e-09
C0AC70,信義,2025-03-22,25.037822,121.564597,3.6154644e-09
C0K560,棋山,2025-03-22,23.68645,120.603417,1.1888611e-09
C2FB50,出雲,2025-03-22,24.206469,120.902794,3.059446e-09
C1Z240,中平林道,2025-03-22,23.42115,121.26763,1.7451537e-08
U2H480,溪頭,2025-03-22,23.670306,120.798194,3.9682067e-09
C0M880,好美里,2025-03-22,23.3364,120.138,1.4006871e-09
C0T9E0,大坑,2025-03-22,23.880628,121.581981,3.9744936e-09
C0K530,臺西,2025-03-22,23.701547,120.197559,1.0232046e-08
C1E900,國一N128K,2025-03-22,24.560997,120.844186,1.0548372e-08
C0AJ50,水湳洞,2025-03-22,25.123695,121.862238,8.004081e-09
C0AI20,白沙灣,2025-03-22,25.283128,121.519058,3.994986e-08
C2V310,美濃,2025-03-22,22.898792,120.51907,9.257711e-10
C0A860,大坪,2025-03-22,25.165914,121.632969,4.6676707e-09
C1U850,觀音海岸,2025-03-22,24.38319,121.77856,8.037217e-09
C2K610,草嶺石壁,2025-03-22,23.602469,120.707731,3.1063156e-09
C0U950,鶯子嶺,2025-03-22,24.89754,121.79244,7.031396e-09
C0O900,善化,2025-03-22,23.112883,120.297219,2.7262084e-09
C0K550,蔦松,2025-03-22,23.514319,120.229736,2.2827775e-09
E2P980,林試六龜中心,2025-03-22,22.991703,120.645722,7.519593e-10
C0E590,通霄,2025-03-22,24.471892,120.704622,2.459023e-07
C1I310,西巒,2025-03-22,23.754486,120.883956,4.2299146e-09
C0A550,泰平,2025-03-22,24.971197,121.823711,4.2905235e-09
C0I360,水里,2025-03-22,23.812553,120.849792,1.0730105e-09
C0R830,高士,2025-03-22,22.121825,120.836781,2.5370275e-07
C1I101,溪頭,2025-03-22,23.661789,120.807647,6.7209194e-09
C0AJ20,野柳,2025-03-22,25.20703,121.690021,7.0374337e-09
C0B060,暖暖,2025-03-22,25.0957,121.7403,4.098054e-09
C1H920,長豐,2025-03-22,24.102039,120.879897,2.9169116e-09
C0V360,內門,2025-03-22,22.975481,120.466769,8.5757124e-10
C0R850,林邊,2025-03-22,22.4634,120.5339,5.0749294e-09
C0E930,龍鳳,2025-03-22,24.700034,120.859125,9.4165523e-07
C0U910,冬山,2025-03-22,24.63373,121.7937,1.1580299e-09
C1E721,泰安,2025-03-22,24.489017,120.968036,6.5688246e-09
82H320,茶改中部分場,2025-03-22,23.875611,120.913583,3.4306873e-09
C0M750,布袋,2025-03-22,23.380878,120.167789,1.3098517e-09
C1S860,利嘉,2025-03-22,22.809417,121.050528,7.689731e-09
72C440,桃園農改,2025-03-22,24.950944,121.030583,2.5436924e-07
E2S980,林試太麻里1,2025-03-22,22.598922,120.980044,2.1647157e-08
C0X170,關廟,2025-03-22,22.963017,120.327797,3.9047485e-09
C0V720,林園,2025-03-22,22.507747,120.394511,2.6604514e-09
C1I510,線浸林道,2025-03-22,23.761508,120.832956,3.6990713e-09
C0D690,外湖,2025-03-22,24.917735,120.968711,6.615393e-07
C0C750,新興坑尾,2025-03-22,25.0061,121.0971,3.4140314e-07
B2Q810,畜試南區分所,2025-03-22,21.945583,120.802167,0.9982351
C0S790,金崙,2025-03-22,22.538122,120.966875,1.0120191e-08
C0AH90,福山植物園,2025-03-22,24.760717,121.58135,9.520286e-09
C0I540,奇萊稜線,2025-03-22,24.109231,121.326456,2.1214337e-08
C0M850,表湖,2025-03-22,23.24186,120.64166,1.8074658e-09
C0S770,大溪山,2025-03-22,22.478475,120.943325,9.902817e-09
C0AG80,中和,2025-03-22,24.991622,121.491792,6.1694863e-09
C0T790,大禹嶺,2025-03-22,24.186117,121.316086,1.7857756e-08
C0T9B0,水源,2025-03-22,23.991861,121.537169,9.562179e-09
C0R840,牡丹池山,2025-03-22,22.168389,120.841225,7.8606325e-07
C1I131,桶頭,2025-03-22,23.641944,120.654117,1.2454026e-09
CAL110,布袋國中,2025-03-22,23.35893,120.18026,1.3088877e-09
467571,新竹,2025-03-22,24.827853,121.014219,3.468413e-07
C0Z290,赤柯山,2025-03-22,23.36893,121.38293,1.8389864e-08
C0X280,將軍,2025-03-22,23.214999,120.13577,1.5734237e-09
C0S690,太麻里,2025-03-22,22.60902,120.98533,9.7579385e-09
C0U880,北關,2025-03-22,24.9072,121.8734,2.4051363e-09
C1H860,瑞岩,2025-03-22,24.123772,121.18345,7.6569755e-09
C0G810,埔心,2025-03-22,23.947633,120.525456,2.405875e-09
C0U970,大福,2025-03-22,24.80064,121.81389,3.252573e-09
C2H9N0,仁愛東眼,2025-03-22,24.026875,121.1205,6.5454118e-09
C1E670,南礦,2025-03-22,24.538278,121.002836,7.885341e-09
C0M520,東後寮,2025-03-22,23.369908,120.248065,1.2423633e-09
C1E461,松安,2025-03-22,24.397972,120.986022,8.105926e-09
72G600,臺中農改,2025-03-22,24.003028,120.534389,1.2231278e-07
C2N160,西拉雅風管處,2025-03-22,23.189481,120.335297,1.5603903e-09
C2M970,碧湖,2025-03-22,23.568632,120.624165,2.7629934e-09
C0A640,石碇,2025-03-22,24.993969,121.662917,6.0622054e-09
E2S960,林試太麻里2,2025-03-22,22.598,120.99775,3.004241e-08
C0F9Y0,桃山,2025-03-22,24.432739,121.303808,2.8557793e-08
C1I020,萬大,2025-03-22,23.979817,121.132261,4.9463185e-09
C0U940,羅東,2025-03-22,24.68184,121.74934,3.2658514e-09
C0M650,朴子,2025-03-22,23.43463,120.23902,2.2091957e-09
C1I500,大尖山,2025-03-22,23.858572,120.994889,8.473835e-09
C0G820,田尾,2025-03-22,23.901669,120.509389,2.405875e-09
E2K600,四湖植物園,2025-03-22,23.676986,120.163433,2.1643235e-08
C0S730,綠島,2025-03-22,22.6672,121.47533,0.01083801
12Q970,東港工作站,2025-03-22,22.479997,120.466058,5.8102505e-09
C0E430,南庄,2025-03-22,24.601775,121.000214,8.2905585e-09
C1TA00,太魯閣,2025-03-22,24.15773,121.6236,1.1988283e-08
466920,臺北,2025-03-22,25.037658,121.514853,3.6154644e-09
C0R600,舊泰武,2025-03-22,22.588194,120.664944,8.1759965e-10
C1I260,北坑,2025-03-22,23.9246,121.006903,1.4439925e-09
466910,鞍部,2025-03-22,25.182586,121.529731,1.3781596e-08
C1I230,九份二山,2025-03-22,23.961944,120.845,3.1194252e-09
C2A660,瑞芳,2025-03-22,25.113169,121.801147,7.840799e-09
C0R270,琉球嶼,2025-03-22,22.332244,120.362236,4.2526223e-09
C1T990,高寮,2025-03-22,23.394239,121.356808,3.03485e-09
C0G620,芬園,2025-03-22,24.015678,120.6213,1.9685982e-09
C1Z140,荖溪,2025-03-22,23.890575,121.45964,2.0188264e-08
C1I201,中心崙,2025-03-22,23.728722,120.712097,1.4737342e-09
C1I400,凌霄,2025-03-22,24.018778,121.004456,6.3789756e-09
C1M640,十字,2025-03-22,23.492153,120.753683,8.119558e-09
G2P820,農試鳳山分所,2025-03-22,22.646611,120.356083,5.7309606e-09
C0Z270,蕃薯寮,2025-03-22,23.73835,121.540108,5.9980616e-09
C0F9Q0,外埔,2025-03-22,24.347817,120.705686,2.7814577e-09
C0K580,高鐵雲林,2025-03-22,23.737456,120.417944,4.060017e-09
C2I090,鳳凰,2025-03-22,23.728081,120.787347,2.7675082e-09
C0U990,員山,2025-03-22,24.74435,121.72247,3.2483325e-09
C0V770,大社,2025-03-22,22.730306,120.346639,2.0032266e-08
C0X120,麻豆,2025-03-22,23.183289,120.248611,5.1491877e-09
C0C670,龍潭,2025-03-22,24.870056,121.221389,5.899017e-08
C0D680,香山濕地,2025-03-22,24.783581,120.914988,2.1342001e-07
C0S980,勝林山,2025-03-22,22.430439,120.8938,1.0968864e-08
C0V730,大寮,2025-03-22,22.605614,120.395717,4.9611337e-09
C0R570,麟洛,2025-03-22,22.65078,120.52719,1.1687341e-09
C2M930,石卓,2025-03-22,23.478744,120.702264,8.34219e-09
C0G9B0,和美,2025-03-22,24.105169,120.492131,7.330723e-09
CAG100,王功漁港,2025-03-22,23.96824,120.32586,5.265804e-07
C0X290,北門,2025-03-22,23.267772,120.125481,1.5705482e-09
C2F930,大甲,2025-03-22,24.347667,120.640403,1.4577799e-08
C0D650,湖口,2025-03-22,24.904794,121.043628,4.279092e-07
C0E420,竹南,2025-03-22,24.708978,120.888897,7.479989e-07
C0U780,五結,2025-03-22,24.68637,121.79794,3.259106e-09
C1I250,鯉潭,2025-03-22,23.961922,120.991131,2.8737492e-09
C0R130,阿禮,2025-03-22,22.742908,120.743678,1.1338568e-09
C0X100,臺南市北區,2025-03-22,23.010394,120.194228,1.6912599e-09
C0S920,金峰嘉蘭,2025-03-22,22.594789,120.960825,2.1453353e-08
C0V490,新興,2025-03-22,22.627422,120.298803,5.7206946e-09
C0F9K0,大安,2025-03-22,24.345061,120.588025,1.8210038e-08
72N100,臺南農改,2025-03-22,23.0605,120.342194,1.2554935e-07
467290,古坑,2025-03-22,23.633639,120.551889,1.1961852e-09
C2E970,八甲,2025-03-22,24.535811,120.795983,1.0077852e-08
C0V440,鳳山,2025-03-22,22.646653,120.356122,5.7309606e-09
C1T940,大觀,2025-03-22,23.714206,121.373133,6.2312067e-09
72T250,花蓮農改,2025-03-22,23.975222,121.563889,2.4000403e-07
C0E740,造橋,2025-03-22,24.637056,120.864778,8.181184e-08
C0R100,尾寮山,2025-03-22,22.833111,120.683889,1.1004001e-09
A2K630,臺大雲林校區,2025-03-22,23.730628,120.423903,4.060017e-09
467990,馬祖,2025-03-22,26.169467,119.923158,1.0975418e-07
C0D580,寶山,2025-03-22,24.735006,121.025192,1.1777978e-08
E2P990,林試扇平站,2025-03-22,22.9677,120.6857,7.011478e-10
C0AI30,三重,2025-03-22,25.057328,121.500629,3.6049703e-09
C0AH00,汐止,2025-03-22,25.066881,121.658778,3.6154644e-09
C1Z040,立山,2025-03-22,23.443356,121.327375,2.2584567e-08
466881,新北,2025-03-22,24.959207,121.525196,6.79475e-09
C0W130,花嶼,2025-03-22,23.40007,119.32276,0.9611052
C0A950,鼻頭角,2025-03-22,25.129036,121.923372,1.1603586e-08
C0K470,林內,2025-03-22,23.748675,120.609642,1.2578569e-09
C2F990,摩天嶺,2025-03-22,24.322458,120.936819,3.1192706e-09
82C160,茶改場,2025-03-22,24.908472,121.185333,5.897757e-08
C0Z320,清水林道,2025-03-22,23.27125,121.188272,1.2736561e-08
C0R760,南仁湖,2025-03-22,22.084681,120.863353,6.5135885e-07
C0M670,大林,2025-03-22,23.600616,120.45841,3.7153416e-09
C0M800,茶山,2025-03-22,23.299075,120.664767,1.3237986e-09
C0A9C0,天母,2025-03-22,25.117494,121.537169,5.25273e-09
72K220,南改斗南分場,2025-03-22,23.634556,120.477333,3.1382417e-09
72AI40,桃改樹林分場,2025-03-22,24.944503,121.386972,7.716415e-08
C0S910,蘭嶼燈塔,2025-03-22,22.081197,121.503117,0.99301255
C0B050,八斗子,2025-03-22,25.144754,121.79167,8.044855e-09
C0U900,內城,2025-03-22,24.71813,121.68766,3.262004e-09
C0X320,柳營,2025-03-22,23.253328,120.375253,1.3146899e-09
C0M790,新港,2025-03-22,23.553269,120.345728,2.7038065e-09
C0F9T0,西屯,2025-03-22,24.179494,120.641275,2.9435483e-09
C0SA30,都歷,2025-03-22,23.020333,121.323642,2.1719357e-09
C0C620,蘆竹,2025-03-22,25.084275,121.265767,4.2437108e-08
C0R730,大坪頂,2025-03-22,22.024633,120.69355,0.8874917
C0AJ40,石門,2025-03-22,25.273672,121.601198,3.8818342e-08
C0E750,苗栗,2025-03-22,24.564569,120.824575,1.0584488e-08
C0T870,鯉魚潭,2025-03-22,23.935639,121.508944,4.696677e-09
C1V170,排雲,2025-03-22,23.463619,120.954147,2.2341213e-08
C2H950,中寮,2025-03-22,23.884447,120.766406,1.5530652e-09
C0R350,貓鼻頭,2025-03-22,21.921774,120.7358,0.9723545
C0V660,岡山,2025-03-22,22.797078,120.294958,6.848695e-09
C1H941,雙冬,2025-03-22,23.967378,120.802189,1.4672861e-09
C0AJ70,田寮,2025-03-22,25.2698,121.4886,3.9806636e-08
C0AI00,五股,2025-03-22,25.07445,121.42728,1.22366055e-08
C0Z280,德武,2025-03-22,23.47426,121.41071,2.4633893e-09
C0R700,枋山,2025-03-22,22.246844,120.661086,0.061243568
C0C460,復興,2025-03-22,24.820208,121.352281,1.468247e-08
E2H360,蓮華池,2025-03-22,23.918333,120.885278,1.5881918e-09
C0M640,中埔,2025-03-22,23.42538,120.5229,1.1911422e-09
C0W140,金沙,2025-03-22,24.488292,118.408778,1.0165172e-07
C2A540,四堵,2025-03-22,24.8926,121.745736,3.0315697e-09
C0ACA0,新莊,2025-03-22,25.051478,121.446756,5.5680345e-09
C0R220,潮州,2025-03-22,22.534361,120.54,2.7789018e-09
U2HA40,臺大內茅埔,2025-03-22,23.689722,120.851117,2.1225741e-09
467490,臺中,2025-03-22,24.145736,120.684075,1.1213697e-09
C0U960,翠峰湖,2025-03-22,24.510856,121.608044,1.7946705e-08
E2HA20,林試畢祿溪站,2025-03-22,24.226944,121.308522,1.8820007e-08
C0V890,前鎮,2025-03-22,22.5718,120.3117,6.115208e-09
467620,蘭嶼,2025-03-22,22.036969,121.558339,0.9998692
C1F941,雪嶺,2025-03-22,24.280586,121.026642,2.701689e-08
C2H9E0,國姓南港,2025-03-22,23.911108,120.846556,4.403544e-09
C0AC80,文山,2025-03-22,25.00235,121.575728,6.770726e-09
C0F9R0,龍井,2025-03-22,24.184536,120.528972,1.0772516e-08
C0M760,民雄,2025-03-22,23.551754,120.428457,3.7498276e-09
C0UA40,西德山,2025-03-22,24.560647,121.752608,9.139099e-09
C1T920,中興,2025-03-22,23.769503,121.498653,3.4501635e-09
C0D550,雪霸,2025-03-22,24.526972,121.11605,1.0120519e-08
C2F860,梨山,2025-03-22,24.247522,121.243669,1.9243982e-08
C0R320,車城,2025-03-22,22.0744,120.716247,0.9956623
C1S870,南美山,2025-03-22,23.15025,121.382333,6.6776793e-09
C0B020,基隆嶼,2025-03-22,25.19141,121.78391,9.837416e-09
C1U501,牛鬥,2025-03-22,24.637836,121.573656,2.7740297e-09
C0M730,嘉義市東區,2025-03-22,23.457673,120.460531,1.2454263e-09
C0S700,知本,2025-03-22,22.684866,121.005642,8.343542e-09
C1N001,沙崙,2025-03-22,22.935472,120.309406,4.3783355e-09
C0V760,橋頭,2025-03-22,22.757806,120.30575,2.2665871e-08
C0G960,福寶,2025-03-22,24.0443,120.3814,7.2839073e-09
C0X210,白河,2025-03-22,23.347466,120.414427,1.253063e-09
C0S810,東河,2025-03-22,22.972672,121.303986,4.299223e-09
C2R170,屏東,2025-03-22,22.66027,120.49403,1.1687341e-09
C0R670,楓港,2025-03-22,22.190131,120.692156,0.8750712
C0FA50,霧峰,2025-03-22,24.0419,120.6995,1.9447097e-09
C0UB10,蘇澳,2025-03-22,24.5969,121.8571,3.0161242e-09
C0G950,防潮門,2025-03-22,24.1835,120.4871,1.0772516e-08
C0M740,六腳,2025-03-22,23.492871,120.290625,2.5362394e-09
C1R250,力里,2025-03-22,22.428117,120.629228,5.148537e-10
C0K330,虎尾,2025-03-22,23.719183,120.442036,3.949465e-09
C2FA00,烏石坑,2025-03-22,24.273503,120.947617,3.0549212e-09
C0V620,永安,2025-03-22,22.82315,120.236856,6.8440724e-09
C1I330,楓樹林,2025-03-22,23.986803,121.076117,5.46533e-09
C0W200,湖西,2025-03-22,23.596314,119.67275,0.68721515
72Q010,高雄農改場,2025-03-22,22.709333,120.525889,8.347485e-10
C0SA40,瑞和,2025-03-22,22.974361,121.156697,2.9112643e-09
C0C680,龜山,2025-03-22,25.02846,121.38656,1.2579367e-08
C2V260,月眉,2025-03-22,22.971003,120.539853,5.799442e-10
C0V450,鳳森,2025-03-22,22.545064,120.392592,1.7718033e-09
C0U720,南山,2025-03-22,24.43742,121.38167,6.2951173e-09
A2N290,臺南蘭花園區,2025-03-22,23.340258,120.379661,2.132821e-09
C0R560,新園,2025-03-22,22.5434,120.461558,2.6604514e-09
C0U890,三星,2025-03-22,24.66812,121.65302,2.461257e-09
C1V300,御油山,2025-03-22,23.001983,120.715364,2.8185958e-09
C0U600,礁溪,2025-03-22,24.817539,121.765608,2.5543085e-09
C1T980,龍澗,2025-03-22,24.023289,121.411328,2.6186767e-08
C0D670,海天一線,2025-03-22,24.831986,120.914438,1.42599965e-05
C0SA00,歷坵,2025-03-22,22.520969,120.89185,7.004117e-09
C0M710,東石,2025-03-22,23.458927,120.15385,1.0240984e-09
C0M780,鹿草,2025-03-22,23.41134,120.30835,2.074271e-09
C0U520,雙連埤,2025-03-22,24.753033,121.641303,4.7488142e-09
C0B010,七堵,2025-03-22,25.094819,121.71713,4.1069197e-09
C0R480,長治,2025-03-22,22.693128,120.542622,1.3688961e-08
C1V830,國三S383K,2025-03-22,22.781967,120.426475,1.0422015e-09
12Q980,恆春工作站,2025-03-22,22.079678,120.714425,0.9956623
C1O940,東山服務區,2025-03-22,23.286016,120.398472,1.1448593e-09
C1U840,東澳嶺,2025-03-22,24.5378,121.8485,4.8244067e-09
C1D630,飛鳳山,2025-03-22,24.766464,121.119178,1.4040259e-08
C0S940,石寧山,2025-03-22,23.223772,121.406639,4.4156554e-09
C0K410,北港,2025-03-22,23.573957,120.292802,2.802439e-09
C2M620,瑞里,2025-03-22,23.545133,120.675197,4.172963e-09
C0SB70,小港漁港,2025-03-22,23.158558,121.400431,7.1832327e-09
C2O950,安南,2025-03-22,23.076694,120.144861,5.1927915e-09
C0F0E0,南湖圈谷,2025-03-22,24.363714,121.444667,2.5265164e-08
467610,成功,2025-03-22,23.097486,121.373428,5.560998e-09
C0G890,伸港,2025-03-22,24.148933,120.484403,8.65966e-09
C2E540,龍溪,2025-03-22,24.606489,120.783933,8.346411e-08
C1V200,梅山,2025-03-22,23.268447,120.823556,1.9636444e-09
C0T9H0,加路蘭山,2025-03-22,23.682947,121.5274,1.2469719e-08
C2O930,玉井,2025-03-22,23.126042,120.46055,1.0026311e-09
C1F911,新伯公,2025-03-22,24.221361,120.841069,1.186564e-09
C0R490,九如,2025-03-22,22.7405,120.490503,8.628922e-10
C0X200,左鎮,2025-03-22,23.056758,120.408522,2.6299025e-09
C0SB50,叭嗡嗡,2025-03-22,23.047062,121.343223,2.2027413e-09
C1F891,稍來,2025-03-22,24.265689,121.001142,1.5069206e-08
72N240,七股研究中心,2025-03-22,23.081672,120.062894,6.080096e-09
C0C700,中壢,2025-03-22,24.977661,121.256375,1.9517971e-08
C0M690,水上,2025-03-22,23.419734,120.388909,2.0832436e-09
C0V690,鼓山,2025-03-22,22.623325,120.275575,5.7206946e-09
C0O860,大內,2025-03-22,23.11885,120.36083,2.3006115e-09
C0Z200,萬榮,2025-03-22,23.709219,121.420106,6.0569003e-09
C0T9D0,和中,2025-03-22,24.26676,121.74103,3.0376256e-08
C1O921,楠西,2025-03-22,23.183511,120.484083,8.020428e-10
C0AJ30,淡水觀海,2025-03-22,25.184591,121.408616,1.5044165e-08
C0V810,左營,2025-03-22,22.67491,120.28491,6.814465e-09
C0UA70,桃源谷,2025-03-22,24.962606,121.888875,4.755159e-09
C0X130,官田,2025-03-22,23.193217,120.315422,1.649692e-09
C1H000,翠峰,2025-03-22,24.109397,121.205211,1.016994e-08
C0UA90,石城,2025-03-22,24.980444,121.951214,3.3545153e-09
C1E681,南勢山,2025-03-22,24.421669,120.923831,6.0513807e-09
C0A9F0,內湖,2025-03-22,25.079422,121.57545,3.6154644e-09
C0K291,宜梧,2025-03-22,23.536281,120.169329,2.2827036e-09
C1K540,口湖,2025-03-22,23.585344,120.180517,3.728505e-08
C0R780,滿州,2025-03-22,22.024403,120.839892,0.1080488
C0V870,文安,2025-03-22,22.8025,120.2164,7.780553e-09
C0U650,玉蘭,2025-03-22,24.675286,121.587061,4.617692e-09
C0R640,東港,2025-03-22,22.46247,120.44074,5.8102505e-09
K2E360,苗栗農改,2025-03-22,24.495722,120.829111,8.952444e-08
C0AJ80,板橋,2025-03-22,25.0107,121.4489,6.236819e-09
C0S660,下馬,2025-03-22,23.150427,121.070312,1.2071759e-08
C1H9B1,阿眉,2025-03-22,24.1263,120.994672,2.0562974e-08
C0UA20,多加屯,2025-03-22,24.368614,121.373189,1.8607455e-08
C0E730,頭份,2025-03-22,24.688247,120.912206,8.108787e-07
72V140,高改旗南分場,2025-03-22,22.857861,120.516667,9.257711e-10
C0K480,莿桐,2025-03-22,23.761192,120.502372,2.1943378e-09
C0U980,坪林石牌,2025-03-22,24.86478,121.77396,4.004665e-09
C0T900,西林,2025-03-22,23.8119,121.441458,3.5430607e-09
C1I150,青雲,2025-03-22,23.793361,120.949378,1.5047859e-09
467350,澎湖,2025-03-22,23.565503,119.563094,0.90118647
C0G800,埔鹽,2025-03-22,24.000394,120.431683,6.4737717e-09
C0H960,草屯,2025-03-22,23.973672,120.68085,1.9538708e-09
C1V780,多納林道,2025-03-22,22.888028,120.737917,1.1845538e-09
C0E920,通霄漁港,2025-03-22,24.498589,120.673876,2.5089437e-07
C0Z330,安通山,2025-03-22,23.290728,121.348528,4.81503e-09
C0AH10,永和,2025-03-22,25.01125,121.508111,6.2284737e-09
C0AK10,太平里,2025-03-22,25.134937,121.364899,3.2882863e-08
C2G640,鹿港,2025-03-22,24.0753,120.430481,7.2839073e-09
C1E890,國三N149K,2025-03-22,24.463414,120.680019,3.805736e-08
C1R110,口社,2025-03-22,22.770111,120.645222,6.028959e-10
C1M870,國三N285K,2025-03-22,23.550319,120.505833,1.499494e-09
467050,新屋,2025-03-22,25.006744,121.047486,2.867928e-07
C1E480,鳳美,2025-03-22,24.554803,121.034747,7.266728e-09
C0M530,奮起湖,2025-03-22,23.493903,120.699253,4.6921103e-09
C0C590,觀音,2025-03-22,25.027072,121.153317,1.5760338e-07
C0T9M0,靜浦,2025-03-22,23.455167,121.495028,2.2933213e-09
C2H9M0,發祥,2025-03-22,24.154094,121.164517,1.541768e-08
C0AI40,石牌,2025-03-22,25.115597,121.513139,5.2601186e-09
C1F871,上谷關,2025-03-22,24.203483,121.018644,2.8005154e-09
C2H9G0,百勝,2025-03-22,24.051142,120.909361,2.1477213e-09
C0G880,二水,2025-03-22,23.810742,120.6173,1.4694201e-09
C0R940,加祿堂,2025-03-22,22.3363,120.6217,2.322737e-06
C0W220,北竿,2025-03-22,26.220358,119.974881,8.881438e-08
C0O960,崎頂,2025-03-22,22.959547,120.369317,2.1582378e-09
C0S750,向陽,2025-03-22,23.248397,120.986133,6.244961e-09
C0T9F0,水璉,2025-03-22,23.797131,121.542514,3.7349235e-09
C1M600,頭凍,2025-03-22,23.406364,120.603339,3.5923886e-09
467660,臺東,2025-03-22,22.752211,121.154586,2.2887592e-09
C1D380,新埔,2025-03-22,24.84745,121.03834,3.1436744e-07
C2G980,田頭村,2025-03-22,23.8263,120.444175,3.4778669e-09
C0V750,路竹,2025-03-22,22.854997,120.259439,1.6946246e-09
C0N050,蚵寮,2025-03-22,23.301,120.1104,1.4006871e-09
72M700,南改鹿草分場,2025-03-22,23.416869,120.283061,2.2083446e-09
C1SA50,利嘉林道,2025-03-22,22.82325,121.009389,5.5363603e-09
467550,玉山,2025-03-22,23.487614,120.959522,4.46966e-08
C0A940,金山,2025-03-22,25.223628,121.643967,7.07663e-09
C1V340,大津,2025-03-22,22.888322,120.645986,7.272451e-10
C0W180,七美,2025-03-22,23.219333,119.444892,0.9843084
C1F9C1,白冷,2025-03-22,24.182844,120.929889,1.3898982e-09
K2E710,苗改生物防治研究中心,2025-03-22,24.422861,120.871833,5.0010267e-09
C0N040,蘆竹溝,2025-03-22,23.2344,120.0961,1.5705482e-09
C2W230,畜試所澎湖,2025-03-22,23.628342,119.513206,0.8571906
C0R880,後壁湖,2025-03-22,21.9457,120.7457,0.971061
C1I280,埔中,2025-03-22,23.820778,120.642594,1.2477636e-09
467790,墾丁雷達站,2025-03-22,21.948235,120.808028,0.99916184
C0W190,望安,2025-03-22,23.380564,119.494075,0.8344881
466881,新北,2025-03-22,24.9593,121.52,1.1810421e-07
C0Z170,卓溪,2025-03-22,23.3443,121.3029,3.2634104e-09
C0F850,東勢,2025-03-22,24.246428,120.833047,1.336573e-09
466900,淡水,2025-03-22,25.164889,121.448906,3.2882863e-08
C0I370,魚池,2025-03-22,23.895703,120.94135,1.4752922e-09
C0C630,大溪,2025-03-22,24.882853,121.265547,6.6931754e-08
C0A520,山佳,2025-03-22,24.974944,121.402008,1.3878617e-08
C0I110,竹山,2025-03-22,23.761225,120.688156,1.5181885e-09
82H840,茶改南部分場,2025-03-22,23.762528,120.7405,1.2130911e-09
C0G660,溪湖,2025-03-22,23.94835,120.479122,2.4545999e-09
C1T800,洛韶,2025-03-22,24.204558,121.453956,2.0481126e-08
C1T810,慈恩,2025-03-22,24.192044,121.388386,6.2226553e-09
C1E451,象鼻,2025-03-22,24.368617,120.940228,4.241144e-09
C0AC60,三峽,2025-03-22,24.939025,121.369728,7.444323e-08
C0I490,萬大林道,2025-03-22,23.928228,121.091411,6.162735e-09
C1I290,豐丘,2025-03-22,23.668178,120.887417,4.1944603e-09
C1I320,奧萬大,2025-03-22,23.952956,121.178556,4.301085e-09
C2M910,嘉義大學,2025-03-22,23.471325,120.485903,1.2223816e-09
C0U770,南澳,2025-03-22,24.44935,121.81022,4.3342485e-09
C0A980,社子,2025-03-22,25.109508,121.469681,3.33019e-08
C0V800,六龜,2025-03-22,22.997889,120.633583,7.524873e-10
C1G9D0,國一S218K,2025-03-22,23.890641,120.493253,3.1680898e-09
C0E570,白沙屯,2025-03-22,24.549447,120.696803,1.1470411e-06
C2F9A0,中竹林,2025-03-22,24.103556,120.751061,1.360545e-09
C0FA40,臺中電廠,2025-03-22,24.2146,120.4907,1.0772516e-08
C2G9A0,畜試所彰化,2025-03-22,23.86045,120.557964,2.328805e-09
C0H9C0,合歡山,2025-03-22,24.143442,121.272547,2.6818201e-08
C0X060,下營,2025-03-22,23.22695,120.256261,3.5975314e-09
G2M350,農試溪口農場,2025-03-22,23.58565,120.408111,3.839477e-09
C0U860,頭城,2025-03-22,24.85323,121.8308,2.5515816e-09
C0R580,南州,2025-03-22,22.48591,120.50274,5.8102505e-09
C0D430,峨眉,2025-03-22,24.6905,121.017189,3.1941816e-08
C0G780,秀水,2025-03-22,24.03405,120.503869,2.3318052e-09
72N100,臺南農改場,2025-03-22,23.0605,120.342194,2.1229303e-09
C0S900,蘭嶼高中,2025-03-22,22.04909,121.51214,0.9805248
467540,大武,2025-03-22,22.355675,120.903789,1.0431079e-06
C1F9W0,德基,2025-03-22,24.254783,121.190261,1.2602566e-08
C1Z120,壽豐,2025-03-22,23.870853,121.508081,3.5200243e-09
C0W160,烏坵,2025-03-22,24.9944,119.44956,2.7497024e-06
C1I240,外大坪,2025-03-22,23.958697,120.917931,2.9061493e-09
C1I550,國六W023K,2025-03-22,23.979067,120.867742,1.2917919e-09
C0R870,興海,2025-03-22,21.9752,120.8439,0.9982351
C0R140,瑪家,2025-03-22,22.682903,120.686639,7.7771656e-10
C0A530,坪林,2025-03-22,24.938183,121.70975,2.8480698e-09
C0X260,後壁,2025-03-22,23.366358,120.362326,2.1313653e-09
C0Z230,和平,2025-03-22,24.30717,121.77007,3.1046646e-08
C0G770,福興,2025-03-22,24.041289,120.437669,6.4737717e-09
C0H9A0,神木村,2025-03-22,23.532742,120.843667,8.329629e-09
C0I460,南投,2025-03-22,23.911469,120.687331,1.5966537e-09
C0I480,梅峰,2025-03-22,24.085272,121.173572,8.927733e-09
C1V570,吉東,2025-03-22,22.85422,120.5454,8.8224544e-10
C2D740,屯原,2025-03-22,24.067969,121.209389,7.961844e-09
C2A560,福山,2025-03-22,24.776203,121.502811,8.500999e-09
C0AH30,五分山,2025-03-22,25.07125,121.780794,7.5267e-09
C0FA10,松柏,2025-03-22,24.429115,120.617482,4.181147e-08
72S200,東改班鳩分場,2025-03-22,22.829528,121.077694,1.4239202e-09
72HA00,中改埔里分場,2025-03-22,23.903208,120.963364,1.5180148e-09
C2H9W0,大坪頂農水,2025-03-22,24.043122,120.932781,2.9256817e-09
C0C650,平鎮,2025-03-22,24.897503,121.214636,5.1417018e-08
C0S930,延平,2025-03-22,22.902581,121.084058,1.9726463e-09
C0UA60,樟樹山,2025-03-22,24.41393,121.78325,9.375298e-09
C1S670,摩天,2025-03-22,23.199503,121.027,1.9395358e-08
C0V630,茄萣,2025-03-22,22.906642,120.182608,1.8749844e-09
466940,基隆,2025-03-22,25.133314,121.740475,7.969714e-09
C0X050,東河,2025-03-22,23.296598,120.385608,1.1901498e-09
C0R770,保力,2025-03-22,22.071122,120.764111,0.97771245
G2L020,農試嘉義分所,2025-03-22,23.485028,120.473806,1.5230757e-09
C0X240,關子嶺,2025-03-22,23.331169,120.508025,9.637318e-10
C0I380,集集,2025-03-22,23.828206,120.801467,1.0644389e-09
466990,花蓮,2025-03-22,23.975128,121.613275,1.7971061e-08
C1V220,小關山,2025-03-22,23.154217,120.813603,4.287824e-09
C1F9G1,慶福山,2025-03-22,24.180853,120.848378,2.0007092e-09
C0Z250,瑞穗林道,2025-03-22,23.49284,121.30688,1.901514e-08
C0D590,新豐,2025-03-22,24.87068,120.97721,3.2444138e-06
C0A870,五指山,2025-03-22,25.132153,121.608692,6.54047e-09
C0UA50,西帽山,2025-03-22,24.555361,121.802628,6.7558266e-09
C0X160,仁德,2025-03-22,22.968258,120.257689,1.9546835e-09
C1H971,六分寮,2025-03-22,23.92507,120.6378,2.2884319e-09
C0W120,西嶼,2025-03-22,23.5626,119.468436,0.8617289
C0G650,員林,2025-03-22,23.946503,120.585597,1.7336802e-09
C0AD50,鶯歌,2025-03-22,24.951533,121.346294,6.813038e-08
C2H9Q0,北東眼山,2025-03-22,24.120939,121.189303,1.5620676e-08
C2H9T0,名間竹圍,2025-03-22,23.859914,120.637572,1.2180295e-09
C0S990,山豬窟,2025-03-22,22.318619,120.857372,4.600762e-08
72Q010,高雄農改,2025-03-22,22.709333,120.525889,1.8144778e-09
C0X190,安平,2025-03-22,22.993161,120.152181,1.6912599e-09
C0K400,斗六,2025-03-22,23.720583,120.541127,2.1425495e-09
12J990,口湖工作站,2025-03-22,23.589978,120.180394,3.728505e-08
C0O830,北寮,2025-03-22,23.079561,120.495008,5.594443e-10
C1D410,白蘭,2025-03-22,24.579364,121.079947,8.465579e-09
C0S970,加津林,2025-03-22,22.416211,120.926942,1.6130791e-07
C0D700,關西,2025-03-22,24.7977,121.1732,3.4782204e-08
C0M810,里佳,2025-03-22,23.389125,120.716647,5.2195723e-09
C0U750,龜山島,2025-03-22,24.841667,121.953133,6.1378427e-09
C0R810,內獅,2025-03-22,22.305064,120.642986,3.5140974e-06
C1M390,龍美,2025-03-22,23.406728,120.654417,4.1326778e-09
C2FB60,頭櫃山,2025-03-22,24.129842,120.858925,5.244791e-09
C1H840,國三N238K,2025-03-22,23.841008,120.707711,1.1461244e-09
CAQ030,崎峰國小,2025-03-22,22.42565,120.49521,5.8102505e-09
C2E520,大湖,2025-03-22,24.414939,120.870872,5.1132987e-09
467530,阿里山,2025-03-22,23.508208,120.813242,1.5730164e-08
C1E691,南湖,2025-03-22,24.40135,120.837533,5.2374833e-09
C0FA30,梧棲,2025-03-22,24.256003,120.523381,1.0301701e-08
C1V231,高中,2025-03-22,23.134911,120.716711,1.419974e-09
C0F9V0,新社,2025-03-22,24.200172,120.815806,1.2674952e-09
C0H890,埔里,2025-03-22,23.972169,120.952425,1.412761e-09
C0R690,墾丁,2025-03-22,21.966756,120.810269,0.9651924
C0F0D0,審馬陣,2025-03-22,24.381675,121.4203,2.4809264e-08
C2W030,金門農試所,2025-03-22,24.448431,118.451786,6.18831e-08
C0R820,白鷺,2025-03-22,22.454275,120.666219,1.0895961e-09
U2H480,臺大溪頭,2025-03-22,23.670306,120.798194,3.2532494e-09
C1V190,南天池,2025-03-22,23.27403,120.91176,7.88441e-09
K2E360,苗栗農改場,2025-03-22,24.495722,120.829111,7.407946e-09
CAJ050,海口故事園區,2025-03-22,23.57543,120.14121,3.728505e-08
C2H9D0,三隻寮,2025-03-22,24.093078,120.861578,2.9709497e-09
C0O990,媽廟,2025-03-22,22.99175,120.293525,1.5130371e-09
C0D480,打鐵坑,2025-03-22,24.849664,121.150789,5.8753017e-08
C0Z220,和平林道,2025-03-22,24.343922,121.656317,7.862513e-09
C0TA10,花蓮漁港,2025-03-22,23.995322,121.638331,2.0084066e-08
72C440,桃園農改場,2025-03-22,24.950944,121.030583,5.254311e-07
C1E711,馬拉邦山,2025-03-22,24.367306,120.901656,4.3552224e-09
C0SB20,富岡,2025-03-22,22.792467,121.192669,1.6351347e-09
C0D560,竹東,2025-03-22,24.767147,121.057881,3.5150347e-08
C0F9U0,南屯,2025-03-22,24.137006,120.637969,2.991009e-09
C0M720,番路,2025-03-22,23.464657,120.554156,1.2072306e-09
C0F0A0,雪山圈谷,2025-03-22,24.388594,121.236339,3.3286852e-08
C1A9N0,四十份,2025-03-22,24.934158,121.593283,5.5155964e-09
C0U760,東澳,2025-03-22,24.52196,121.83318,2.4350288e-09
C0X230,鹽水,2025-03-22,23.272621,120.247641,1.3354899e-09
C2H9H0,苗改南投蜂場,2025-03-22,23.852589,120.693481,1.5051217e-09
C0R950,萬隆國小,2025-03-22,22.507667,120.587817,2.080833e-09
467540,大武,2025-03-22,22.35572,120.90374,2.0500264e-07
C0V370,古亭坑,2025-03-22,22.893178,120.401947,1.7270662e-09
C1I340,新興橋,2025-03-22,23.563333,120.868728,2.4319933e-09
C0SA80,土坂,2025-03-22,22.453108,120.887572,2.1114788e-08
C0R160,鹽埔,2025-03-22,22.739558,120.530778,8.347485e-10
C0AC40,大屯山,2025-03-22,25.175675,121.522408,1.7236381e-08
466850,五分山雷達站,2025-03-22,25.071182,121.781205,7.6252045e-09
C2H9L0,馬烈霸,2025-03-22,24.1512,121.201772,1.543925e-08
C1AI50,國三N016K,2025-03-22,25.034164,121.619664,3.4940104e-09
C1V600,藤枝,2025-03-22,23.071961,120.757042,2.736106e-09
C1E601,南勢,2025-03-22,24.572486,120.734842,6.5463576e-07
C0Z180,新城,2025-03-22,24.03946,121.60454,1.7280918e-08
C0O980,新市,2025-03-22,23.061614,120.298197,2.7262084e-09
C0K420,西螺,2025-03-22,23.800407,120.467394,3.4602203e-09
C0Z050,佳心,2025-03-22,23.34567,121.21316,1.8073049e-08
C0AD30,蘆洲,2025-03-22,25.086594,121.472331,3.6084924e-09
C0V610,梓官,2025-03-22,22.760558,120.267211,2.2657485e-08
K2F750,種苗改良場,2025-03-22,24.225972,120.800917,1.2170727e-09
C0UA80,大溪漁港,2025-03-22,24.941801,121.902955,2.3879039e-09
C1AI60,國一39K邊坡,2025-03-22,25.064361,121.383836,1.2433952e-08
C0W150,金寧,2025-03-22,24.457703,118.328989,6.146468e-08
C0R960,內埔,2025-03-22,22.608483,120.570714,1.8456408e-09
V2C250,八德合作社,2025-03-22,24.93775,121.266389,5.6671784e-08
C2H9S0,龍南,2025-03-22,23.953536,120.833183,2.3948048e-09
C0AH40,平等,2025-03-22,25.129142,121.577086,4.932968e-09
C0R540,佳冬,2025-03-22,22.419456,120.552375,1.2950088e-09
466950,彭佳嶼,2025-03-22,25.627975,122.079744,2.4422814e-08
C0A890,雙溪,2025-03-22,25.036003,121.864242,6.123892e-09
C0C480,桃園,2025-03-22,24.992425,121.323172,2.1390022e-08
C0AH50,林口,2025-03-22,25.072181,121.38084,1.2737047e-08
A2K360,水試臺西試驗場,2025-03-22,23.717231,120.190522,1.1420835e-08
B2N890,畜試所,2025-03-22,23.058972,120.336406,1.5235754e-07
C2M960,外寮,2025-03-22,23.562643,120.665688,2.8649598e-09
C0F9S0,烏日,2025-03-22,24.107058,120.624103,1.7810329e-09
C0C490,八德,2025-03-22,24.928708,121.283289,5.66933e-08
C0R190,赤山,2025-03-22,22.592333,120.614306,1.6919375e-09
C0T820,天祥,2025-03-22,24.179597,121.495639,2.6720016e-08
C1F9E1,龍安,2025-03-22,24.1605,120.831961,1.4396171e-09
C0V820,小林,2025-03-22,23.148408,120.63325,6.8376754e-10
C2G870,芳苑,2025-03-22,23.922303,120.320025,4.8775973e-07
C0E850,大河,2025-03-22,24.618069,120.948578,8.423783e-09
C1U670,寒溪,2025-03-22,24.634,121.71691,1.1877029e-09
C0N020,城西,2025-03-22,23.0568,120.0956,1.6912599e-09
C1Z110,三棧,2025-03-22,24.11557,121.60501,2.5358341e-08
C0R280,檳榔,2025-03-22,22.076078,120.836777,5.6457043e-06
C2H9J0,中台,2025-03-22,23.9996,120.938739,2.0996187e-09
C0F9L0,后里,2025-03-22,24.310436,120.729725,1.4698575e-09
467441,高雄,2025-03-22,22.730432,120.312516,1.9951274e-08
C0D540,橫山,2025-03-22,24.71116,121.11693,1.202027e-08
C1D420,太閣南,2025-03-22,24.632808,121.160575,1.1450935e-08
C1E770,公館,2025-03-22,24.526914,120.830806,7.38219e-09
CAN130,水試所海水繁養殖中心,2025-03-22,23.120802,120.07968,6.080096e-09
C1I430,翠華,2025-03-22,24.191961,121.224339,1.2998894e-08
C1M400,菜瓜坪,2025-03-22,23.251928,120.576103,1.0745997e-09
C0G730,二林,2025-03-22,23.903325,120.376081,8.756475e-09
72M360,南改義竹分場,2025-03-22,23.360694,120.279361,1.2423633e-09
V2K620,麥寮合作社,2025-03-22,23.753836,120.294783,2.2271682e-09
C0Z070,舞鶴,2025-03-22,23.46811,121.37407,2.5308513e-09
C0B040,大武崙,2025-03-22,25.166676,121.706993,7.586962e-09
C1Z030,紅葉,2025-03-22,23.493119,121.338806,3.0780531e-09
C1I050,丹大,2025-03-22,23.753747,121.141147,7.929804e-09
C0I080,信義,2025-03-22,23.689694,120.851036,2.1225741e-09
C2M920,朴子農改,2025-03-22,23.469889,120.259383,2.2059536e-09
C2A880,福隆,2025-03-22,25.017842,121.942083,3.3667327e-09
C0Z160,鳳林,2025-03-22,23.746114,121.453411,6.1429137e-09
C0V210,復興,2025-03-22,23.222403,120.806089,1.8375513e-09
C0H990,昆陽,2025-03-22,24.121322,121.273642,1.7143854e-08
C0R741,獅子,2025-03-22,22.202308,120.705236,1.4589464e-06
C0S710,鹿野,2025-03-22,22.917711,121.122994,2.8613827e-09
C0I530,小奇萊,2025-03-22,24.131764,121.295717,1.80041e-08
C2K630,荷苞,2025-03-22,23.657717,120.595144,1.1880791e-09
C0Z080,富源,2025-03-22,23.587642,121.378225,1.5540676e-08
467441,高雄,2025-03-22,22.7304,120.3125,3.92954e-06
C0SB10,美和,2025-03-22,22.682078,121.060236,1.9369812e-08
C2K620,馬光農場,2025-03-22,23.721453,120.378864,4.1096464e-09
C1I140,卡奈托灣,2025-03-22,23.754364,121.087872,3.160009e-09
C0I520,玉山風口,2025-03-22,23.470489,120.955994,3.281144e-08
C1G691,下水埔,2025-03-22,23.816114,120.5676,2.1683595e-09
C0X110,臺南市南區,2025-03-22,22.961189,120.188378,1.9546835e-09
C0V680,仁武,2025-03-22,22.701083,120.347722,6.8200823e-09
C2G840,北斗,2025-03-22,23.877586,120.514222,3.1752463e-09
C0R900,竹坑,2025-03-22,22.1385,120.7022,0.99505836
C0K250,崙背,2025-03-22,23.75555,120.318925,2.2271682e-09
C0G860,社頭,2025-03-22,23.897647,120.5862,2.355079e-09
C0X150,安定,2025-03-22,23.102614,120.227839,9.9040065e-09
C0R590,里港,2025-03-22,22.77919,120.49459,1.4770689e-09
C0E610,馬都安,2025-03-22,24.451272,120.930192,5.3970948e-09
C0E550,明德,2025-03-22,24.583486,120.885411,1.0560128e-08
C0R150,三地門,2025-03-22,22.709889,120.639944,6.210262e-10
C0G910,花壇,2025-03-22,24.032076,120.549461,2.3027538e-09
C1D400,鳥嘴山,2025-03-22,24.71909,121.28387,1.4194656e-08
C0K500,元長,2025-03-22,23.64981,120.315024,2.7136642e-09
C0F0B0,石岡,2025-03-22,24.276061,120.777644,1.5015833e-09
C2V250,甲仙,2025-03-22,23.080106,120.591758,5.343817e-10
C0SA20,金崙山,2025-03-22,22.567419,120.959667,9.743154e-09
C0V350,溪埔,2025-03-22,22.738578,120.446797,3.0866663e-09
C0M660,溪口,2025-03-22,23.604131,120.403569,3.839477e-09
C1S880,壽卡,2025-03-22,22.238911,120.858903,8.664041e-08
72D680,桃改新埔分場,2025-03-22,24.834444,121.066111,3.205736e-07
