站號,站名,日期,lat,lon,BLBTSLS
C0R710,龍磐,2025-02-25,21.931672,120.838942,0.99376374
C1F9D1,白毛台,2025-02-25,24.158325,120.886933,7.1754375e-10
C0G940,竹塘,2025-02-25,23.848253,120.386764,1.6622533e-09
467590,恆春,2025-02-25,22.003897,120.746339,0.976239
C1O850,環湖,2025-02-25,23.148617,120.418633,5.800504e-10
C0U710,太平山,2025-02-25,24.505486,121.525656,1.567975e-08
C0E820,獅潭,2025-02-25,24.539133,120.920042,6.205609e-10
C0V880,興達,2025-02-25,22.8778,120.2127,1.6350411e-09
C0S890,關山,2025-02-25,23.0395,121.175017,1.5687609e-09
C0SB30,新蘭,2025-02-25,22.869214,121.223228,2.0480102e-09
C2R970,屏科大,2025-02-25,22.648275,120.619247,5.295823e-10
K2F750,種苗繁殖,2025-02-25,24.225972,120.800917,5.1565563e-10
C1Z130,銅門,2025-02-25,23.965694,121.492842,6.288325e-09
C0AD40,土城,2025-02-25,24.973208,121.445169,4.4290397e-07
CAN140,六官養殖協會,2025-02-25,23.22881,120.29962,6.1561534e-10
C0X180,山上,2025-02-25,23.0757,120.363253,5.9824634e-10
C0F9Z0,雪山東峰,2025-02-25,24.388792,121.268675,1.5989311e-08
C1M480,獨立山,2025-02-25,23.537022,120.607797,1.3375446e-09
C0X220,學甲,2025-02-25,23.230367,120.182187,9.595956e-10
C0R170,屏東,2025-02-25,22.660269,120.494072,1.4652955e-08
467650,日月潭,2025-02-25,23.881325,120.90805,1.267106e-09
C0K600,箔子寮,2025-02-25,23.6197,120.14,2.436921e-08
C0G830,埤頭,2025-02-25,23.866003,120.452806,5.7752236e-10
C0S950,七塊厝,2025-02-25,22.954453,121.229922,1.77205e-09
467110,金門,2025-02-25,24.407306,118.289281,1.7486888e-08
C0AH80,深坑,2025-02-25,25.002703,121.628328,3.1393841e-07
467990,馬祖,2025-02-25,26.169269,119.923419,1.8666395e-07
C0A970,三貂角,2025-02-25,25.007606,122.002058,7.394891e-08
C2D730,寶山農場,2025-02-25,24.732444,120.976153,4.5391502e-10
C0K430,褒忠,2025-02-25,23.690938,120.303634,1.7575557e-09
467480,嘉義,2025-02-25,23.495925,120.432906,7.1342104e-10
C2E540,後龍,2025-02-25,24.606489,120.783933,7.067467e-10
C0V400,阿公店,2025-02-25,22.804194,120.355528,6.0661354e-10
467550,玉山,2025-02-25,23.48718,120.95943,3.757985e-08
C0R440,大漢山,2025-02-25,22.405264,120.753181,2.4276565e-08
C0K280,四湖,2025-02-25,23.630414,120.227125,1.922549e-08
C1F9B1,桐林,2025-02-25,24.066172,120.735194,7.7285156e-10
C2H9U0,鳳鵬,2025-02-25,23.763919,120.788061,4.963791e-10
C0K390,土庫,2025-02-25,23.679029,120.395574,9.314869e-10
C1I450,望鄉山,2025-02-25,23.594153,120.944286,1.1636187e-08
C0E910,海埔,2025-02-25,24.648767,120.772435,7.228736e-10
B2E890,畜試北區分所,2025-02-25,24.527806,120.770972,7.400556e-10
C0R750,四林格山,2025-02-25,22.076989,120.802439,7.0873702e-06
C0F0C0,中坑,2025-02-25,24.248517,120.903319,1.6460429e-09
C1I121,大鞍,2025-02-25,23.678381,120.760017,2.8457459e-09
72U480,花改蘭陽分場,2025-02-25,24.686306,121.716583,3.7511367e-09
C0A770,科教館,2025-02-25,25.096356,121.516507,1.0423654e-07
C0AJ60,六塊厝,2025-02-25,25.24,121.4481,0.105955765
C0R620,墾雷,2025-02-25,21.900836,120.855269,0.15894854
467420,永康,2025-02-25,23.038386,120.2367,1.1043466e-09
467300,東吉島,2025-02-25,23.25695,119.667467,0.9296959
C0I410,名間,2025-02-25,23.837053,120.701447,6.856743e-10
A2C560,農工中心,2025-02-25,24.985917,121.239833,8.096735e-08
C0V740,旗山,2025-02-25,22.888614,120.483597,3.6616268e-10
C0Z061,玉里,2025-02-25,23.3215,121.339656,2.3790343e-09
C0S840,南田,2025-02-25,22.279725,120.889208,0.99679697
C1I470,杉林溪,2025-02-25,23.639517,120.786444,3.5290593e-09
C1X040,東原,2025-02-25,23.291597,120.463822,8.078956e-10
C0R660,枋寮,2025-02-25,22.367722,120.590647,6.591173e-10
C1R120,上德文,2025-02-25,22.763272,120.704442,9.782327e-10
C0K450,大埤,2025-02-25,23.646074,120.431537,6.8739364e-10
C0UA00,土場,2025-02-25,24.576533,121.495333,1.035021e-08
467080,宜蘭,2025-02-25,24.763975,121.756528,4.3326613e-09
C0N030,四草,2025-02-25,23.0235,120.1116,1.5379167e-09
467410,臺南,2025-02-25,22.99328,120.20492,1.5273666e-09
C0V650,彌陀,2025-02-25,22.783806,120.246361,1.0843549e-09
C0D660,新竹市東區,2025-02-25,24.798681,120.986942,6.74901e-10
82S580,茶改東部分場,2025-02-25,22.907694,121.130139,1.8116767e-09
C0SB40,興隆,2025-02-25,22.913661,121.257469,1.996398e-09
467050,新屋,2025-02-25,25.006725,121.047492,9.522603e-05
C0C710,大溪永福,2025-02-25,24.892936,121.324975,1.5277083e-08
C0FA20,溫寮,2025-02-25,24.372177,120.583125,1.8075279e-09
C0V640,湖內,2025-02-25,22.887139,120.2445,1.6322991e-09
C0R910,下寮,2025-02-25,22.3929,120.5548,6.591186e-10
C0Z020,明里,2025-02-25,23.208717,121.262342,2.8465383e-09
C0M770,嘉義梅山,2025-02-25,23.585398,120.555587,7.245646e-10
G2F820,農業試驗所,2025-02-25,24.031261,120.688133,6.676466e-10
C0C660,楊梅,2025-02-25,24.912375,121.143047,2.7190692e-08
C1E511,新開,2025-02-25,24.347703,120.827019,4.42502e-10
G2F820,農試所(霧峰),2025-02-25,24.031261,120.688133,6.676466e-10
C1I070,和社,2025-02-25,23.591131,120.888861,1.1262912e-09
C2F000,大肚,2025-02-25,24.15295,120.572117,6.655259e-10
C1S850,豐南,2025-02-25,23.122139,121.262389,2.1574764e-09
C2A920,富貴角,2025-02-25,25.263783,121.565258,0.0004599548
CAH030,茶改場竹圍站,2025-02-25,23.860083,120.637528,5.7407606e-10
C0T960,光復,2025-02-25,23.660694,121.424964,2.2728677e-09
C0F9M0,豐原,2025-02-25,24.254322,120.720692,4.5654938e-10
C0R720,旭海,2025-02-25,22.205403,120.887614,0.03308658
C0V710,苓雅,2025-02-25,22.622742,120.330669,7.4382694e-10
C0C740,觀音工業區,2025-02-25,25.064764,121.114856,0.003187546
CAC040,拉拉山,2025-02-25,24.699317,121.427133,3.029635e-08
C0V790,萬山,2025-02-25,22.905944,120.688056,4.624706e-10
U2HA30,臺大和社,2025-02-25,23.590856,120.888864,1.1262912e-09
C0AJ90,澳底,2025-02-25,25.0552,121.9253,1.6055711e-07
C0Z100,東華,2025-02-25,23.89525,121.549833,6.282906e-09
C0G970,三豐,2025-02-25,23.882,120.2895,6.9144824e-07
V2K610,大庄合作社,2025-02-25,23.8068,120.367939,1.5968212e-09
C0V900,汕尾,2025-02-25,22.4782,120.4151,4.2642345e-10
C1R630,龍泉,2025-02-25,22.66701,120.59091,5.18968e-10
C1AC50,關渡,2025-02-25,25.133486,121.469331,6.6249704e-08
C0F9I0,神岡,2025-02-25,24.272481,120.658314,6.1260974e-10
C0K460,斗南,2025-02-25,23.678734,120.478359,6.7850986e-10
467410,臺南,2025-02-25,22.993239,120.204772,1.5273666e-09
C2O810,曾文,2025-02-25,23.219681,120.497328,7.460876e-10
467280,後龍,2025-02-25,24.648563,120.831834,7.113028e-10
C1F9J1,清水林,2025-02-25,24.071242,120.820419,7.7090817e-10
C2A650,火燒寮,2025-02-25,25.002719,121.742892,5.3781793e-08
466930,竹子湖,2025-02-25,25.162078,121.544547,2.4559029e-08
C1I220,樟湖,2025-02-25,23.905333,120.846983,1.1950381e-09
C0I390,仁愛,2025-02-25,24.022122,121.132206,1.1928383e-09
C0Z300,東里,2025-02-25,23.26853,121.30547,2.728492e-09
C0V310,美濃,2025-02-25,22.898742,120.519153,3.7034934e-07
C1V590,新發,2025-02-25,23.057019,120.646064,7.8002516e-10
C0K510,水林,2025-02-25,23.572924,120.24597,1.5219953e-09
72S590,東改賓朗果園,2025-02-25,22.813889,121.071278,1.7282789e-09
82A750,茶改北部分場,2025-02-25,24.955778,121.631222,2.9128822e-08
C1A750,石碇服務區,2025-02-25,25.00872,121.646242,6.266883e-08
C0X300,鹿寮,2025-02-25,23.386047,120.477331,9.464733e-10
G2AI50,關渡,2025-02-25,25.11575,121.492,5.622207e-07
C0K590,雲林東勢,2025-02-25,23.674192,120.255721,1.6734064e-09
C0A570,桶後,2025-02-25,24.848222,121.597992,2.3317172e-08
C1S800,華源,2025-02-25,22.657883,121.02325,1.108143e-08
C0G720,溪州,2025-02-25,23.851589,120.499093,5.7606464e-10
C1V160,達卡努瓦,2025-02-25,23.279811,120.705319,1.693891e-09
C2M410,馬頭山,2025-02-25,23.324361,120.582017,8.698988e-10
C0V850,蚵仔寮,2025-02-25,22.7256,120.2527,8.253508e-10
C0S740,池上,2025-02-25,23.119628,121.209469,4.7035975e-09
C1V390,尖山,2025-02-25,22.813153,120.367789,6.049358e-10
C0AH70,松山,2025-02-25,25.04871,121.55042,9.496748e-08
C0N010,鯤鯓國小,2025-02-25,23.1879,120.0889,1.6043159e-09
C0R550,新埤,2025-02-25,22.467947,120.582894,4.3210638e-10
C0SA60,知本（水試所）,2025-02-25,22.702394,121.082761,1.44010945e-08
C0T9I0,豐濱,2025-02-25,23.583897,121.514806,1.5759165e-09
C0UB00,淡江大學蘭陽校園,2025-02-25,24.823239,121.730383,2.2882103e-08
C0W240,九宮,2025-02-25,24.423753,118.240186,1.7686709e-08
C0T9N0,富里,2025-02-25,23.171639,121.249378,5.349653e-09
U2HA50,臺大竹山,2025-02-25,23.756972,120.681556,4.887636e-10
C0V840,鳳鼻頭,2025-02-25,22.5083,120.3591,5.0428534e-10
C0X140,西港,2025-02-25,23.125608,120.203108,8.197999e-10
72D080,桃改五峰分場,2025-02-25,24.612194,121.157167,2.6826066e-09
C2H9P0,伊拿谷,2025-02-25,23.963211,121.088264,8.6134977e-10
C2H9F0,柑林,2025-02-25,24.018658,120.847072,6.685871e-10
C0TA20,加灣,2025-02-25,24.082025,121.608944,2.1618067e-08
C0V530,阿蓮,2025-02-25,22.883208,120.327508,8.9752267e-10
C1O880,關山,2025-02-25,23.173397,120.594092,4.6711773e-10
C0E791,卓蘭,2025-02-25,24.3126,120.8244,5.079246e-10
C1I030,武界,2025-02-25,23.913225,121.052483,8.941702e-10
C0R520,崁頂,2025-02-25,22.514781,120.506914,4.038744e-10
C0R341,牡丹,2025-02-25,22.130036,120.792639,0.42306545
C0R930,萬丹,2025-02-25,22.5885,120.4851,5.2169724e-10
C0S760,紅石,2025-02-25,23.069131,121.126219,2.41703e-08
C2C410,中央大學,2025-02-25,24.967652,121.185165,7.720847e-08
C1M610,石磐龍,2025-02-25,23.496606,120.663506,2.2247992e-09
C0UA10,鴛鴦湖,2025-02-25,24.590269,121.412228,7.951432e-09
V2C260,八德蔬果,2025-02-25,24.978508,121.281819,4.1719463e-08
C0R800,丹路,2025-02-25,22.204481,120.750989,0.86587507
C0G920,永靖,2025-02-25,23.924703,120.547533,6.035897e-10
C2M950,太和,2025-02-25,23.538372,120.702961,3.038696e-09
C1A630,下盆,2025-02-25,24.771003,121.538622,1.7252136e-08
B2N890,畜產試驗所,2025-02-25,23.058972,120.336406,7.7669965e-10
C0UA30,白嶺,2025-02-25,24.527819,121.519031,1.2546946e-08
C1V580,溪南(特生中心),2025-02-25,23.084972,120.788475,3.0969802e-09
C1T970,大農,2025-02-25,23.615233,121.413331,1.663281e-09
E2S960,林試太麻里2,2025-02-25,22.598014,120.989761,2.592689e-08
C0R650,竹田,2025-02-25,22.58486,120.54344,4.5328172e-10
C1H900,清流,2025-02-25,24.080775,120.962997,1.0626132e-09
C1C510,水尾,2025-02-25,24.940081,121.087161,6.821912e-07
C0F9X0,大雅(中科園區),2025-02-25,24.21528,120.62445,6.3636e-10
C0SB60,白守蓮,2025-02-25,23.126769,121.401914,7.932437e-09
C0O970,虎頭埤,2025-02-25,23.021375,120.347878,7.331209e-10
C0C730,中大臨海站,2025-02-25,24.966126,121.008581,0.00023155192
C0X250,新營,2025-02-25,23.310689,120.316681,7.097958e-10
C0V700,三民,2025-02-25,22.645017,120.311233,1.4171169e-09
C0U870,大礁溪,2025-02-25,24.791042,121.675047,1.7235656e-08
C0E870,高鐵苗栗,2025-02-25,24.60725,120.826094,7.070582e-10
A2K570,古坑花卉中心,2025-02-25,23.63353,120.55239,6.5484307e-10
C0TA30,鹽寮,2025-02-25,23.845606,121.592664,6.296102e-09
C0M860,新美,2025-02-25,23.338017,120.683169,1.1067907e-09
C1E701,八卦,2025-02-25,24.491756,120.927619,1.6566637e-09
C0I420,國姓,2025-02-25,24.037803,120.855072,6.9292766e-10
C2D720,關西工作站,2025-02-25,24.757275,121.184792,6.950548e-10
C0S960,香蘭,2025-02-25,22.587569,120.993375,2.592689e-08
467620,蘭嶼,2025-02-25,22.0369,121.55843,0.9998967
C0R260,春日,2025-02-25,22.370361,120.628306,6.071182e-10
72G600,臺中農改場,2025-02-25,24.003028,120.534389,5.350447e-10
C0Z210,瑞穗,2025-02-25,23.5239,121.39021,1.4309691e-09
C0M820,達邦,2025-02-25,23.453994,120.749517,2.1870756e-09
C0V860,南寮,2025-02-25,22.7616,120.2339,8.2535234e-10
C0G740,大城,2025-02-25,23.852487,120.320935,6.4338485e-07
C0R920,塭仔,2025-02-25,22.4169,120.5197,6.674658e-10
C0R470,高樹,2025-02-25,22.826389,120.600806,3.8035408e-10
C0R680,佳樂水,2025-02-25,21.993578,120.861633,0.96486455
C1O870,大棟山,2025-02-25,23.31157,120.52226,2.8544e-09
C0D360,梅花,2025-02-25,24.678347,121.208558,9.0138785e-10
C0Z190,富世,2025-02-25,24.14743,121.6297,1.674445e-08
C0AI10,屈尺,2025-02-25,24.92184,121.54475,3.209878e-08
B2U990,畜試東區分所,2025-02-25,24.669039,121.832561,3.4709948e-09
C0SB80,長濱漁港,2025-02-25,23.313644,121.459994,2.1508e-09
C0R240,來義,2025-02-25,22.527306,120.625111,4.2725062e-10
C0V910,大樹,2025-02-25,22.684645,120.432803,4.518376e-10
C1R610,西大武山,2025-02-25,22.617719,120.7322,1.9890367e-08
C0G900,線西,2025-02-25,24.143358,120.443536,1.2301187e-09
C0M700,竹崎,2025-02-25,23.526178,120.555508,7.192812e-10
C2E880,三義,2025-02-25,24.405478,120.749819,6.2453753e-10
C0C720,竹圍,2025-02-25,25.112692,121.239824,5.6099583e-07
C0F9P0,清水,2025-02-25,24.312297,120.562242,1.2636933e-09
C0Z150,吉安光華,2025-02-25,23.930925,121.595153,6.5038344e-09
467300,東吉島,2025-02-25,23.25727,119.66762,0.92198235
C1D640,外坪(五指山),2025-02-25,24.644447,121.090961,1.5666678e-09
C0F9O0,潭子,2025-02-25,24.213106,120.703933,5.2300536e-10
C2H9R0,卓社,2025-02-25,23.887894,121.000086,1.521737e-09
72T250,花蓮農改場,2025-02-25,23.975222,121.563889,1.37832e-08
C0E780,銅鑼,2025-02-25,24.489681,120.790853,7.7616796e-10
C1T950,太安,2025-02-25,23.666719,121.370128,3.3234894e-08
C0E830,苑裡,2025-02-25,24.439714,120.653053,2.7781757e-09
467270,田中,2025-02-25,23.873803,120.581286,5.8302413e-10
C0SA10,檳榔四格山,2025-02-25,22.810031,121.109308,1.8168743e-09
C1T830,布洛灣,2025-02-25,24.17184,121.57127,1.4942322e-07
C0F970,大坑,2025-02-25,24.173142,120.722289,6.140662e-10
C1U920,思源,2025-02-25,24.393125,121.347214,1.1966102e-08
C0A931,三和,2025-02-25,25.233153,121.595236,3.4424983e-07
C0I010,廬山,2025-02-25,24.033311,121.181808,2.394371e-09
C2M940,日野賀,2025-02-25,23.434056,120.727169,2.7640898e-09
C0R860,鼻頭,2025-02-25,22.1043,120.8979,0.99717736
C0UB20,壯圍,2025-02-25,24.7359,121.8163,3.6784917e-09
C0R790,九棚,2025-02-25,22.14195,120.889281,0.8344242
C0W110,東莒,2025-02-25,25.9652,119.98069,3.4968065e-07
C1U930,粉鳥林,2025-02-25,24.497088,121.842479,9.226586e-09
C1I211,蘆竹湳,2025-02-25,23.934019,120.811994,6.3748373e-10
C0S830,長濱,2025-02-25,23.286817,121.411975,2.611508e-09
C1F9F1,伯公龍,2025-02-25,24.272392,120.849047,5.007505e-10
C0E810,西湖,2025-02-25,24.562947,120.7485,8.216115e-09
C1I440,新高口,2025-02-25,23.478744,120.878939,7.4216358e-09
C0O840,王爺宮,2025-02-25,23.222064,120.40085,9.525876e-10
C0T9G0,鳳林山,2025-02-25,23.735269,121.420131,1.0234681e-08
C0X080,佳里,2025-02-25,23.173039,120.145086,1.6043159e-09
C0FB70,大甲溪埔,2025-02-25,24.370625,120.620067,1.7377854e-09
C0Z310,清水斷崖,2025-02-25,24.218294,121.689142,5.6754397e-09
C0M680,太保,2025-02-25,23.455062,120.331455,6.5229755e-10
C1S820,金峰,2025-02-25,22.590969,120.933236,1.4658294e-08
C0AD10,八里,2025-02-25,25.150211,121.403947,5.6099583e-07
C2K240,草嶺,2025-02-25,23.59555,120.693461,2.5258697e-09
C1SA70,都蘭,2025-02-25,22.87794,121.226881,1.996398e-09
C0K440,二崙,2025-02-25,23.772797,120.408944,6.206757e-10
C1A760,坪林交控,2025-02-25,24.94284,121.713442,5.4600918e-08
C0F9N0,大里,2025-02-25,24.092464,120.701378,7.626247e-10
C0SA90,達仁林場,2025-02-25,22.264347,120.823972,1.17347e-06
C1R290,石門山,2025-02-25,22.112611,120.756597,0.002232964
42HA10,萬大發電廠,2025-02-25,23.978875,121.139639,1.1906244e-09
C0R890,山海,2025-02-25,21.9878,120.7091,0.9997232
C0T9A0,月眉山,2025-02-25,23.809928,121.539828,8.293642e-09
C0AC70,信義,2025-02-25,25.037822,121.564597,9.496748e-08
C0K560,棋山,2025-02-25,23.68645,120.603417,6.60789e-10
C2FB50,出雲,2025-02-25,24.206469,120.902794,1.9167996e-09
C1Z240,中平林道,2025-02-25,23.42115,121.26763,3.3664776e-08
U2H480,溪頭,2025-02-25,23.670306,120.798194,2.879642e-09
C0M880,好美里,2025-02-25,23.3364,120.138,8.589119e-10
C0T9E0,大坑,2025-02-25,23.880628,121.581981,7.1488846e-09
C0K530,臺西,2025-02-25,23.701547,120.197559,2.0221059e-08
C1E900,國一N128K,2025-02-25,24.560997,120.844186,7.163472e-10
C0AJ50,水湳洞,2025-02-25,25.123695,121.862238,2.429365e-06
C0AI20,白沙灣,2025-02-25,25.283128,121.519058,0.06027013
C2V310,美濃,2025-02-25,22.898792,120.51907,3.6420264e-10
C0A860,大坪,2025-02-25,25.165914,121.632969,2.9418379e-08
C1U850,觀音海岸,2025-02-25,24.38319,121.77856,6.856668e-09
C2K610,草嶺石壁,2025-02-25,23.602469,120.707731,2.591704e-09
C0U950,鶯子嶺,2025-02-25,24.89754,121.79244,3.4590872e-08
C0O900,善化,2025-02-25,23.112883,120.297219,7.6306556e-10
C0K550,蔦松,2025-02-25,23.514319,120.229736,1.6515684e-09
E2P980,林試六龜中心,2025-02-25,22.991703,120.645722,3.7494752e-10
C0E590,通霄,2025-02-25,24.471892,120.704622,2.202507e-08
C1I310,西巒,2025-02-25,23.754486,120.883956,1.7237423e-09
C0A550,泰平,2025-02-25,24.971197,121.823711,3.9817344e-08
C0I360,水里,2025-02-25,23.812553,120.849792,4.5193327e-10
C0R830,高士,2025-02-25,22.121825,120.836781,0.00020310933
C1I101,溪頭,2025-02-25,23.661789,120.807647,3.9448804e-09
C0AJ20,野柳,2025-02-25,25.20703,121.690021,2.4435292e-06
C0B060,暖暖,2025-02-25,25.0957,121.7403,6.248836e-08
C1H920,長豐,2025-02-25,24.102039,120.879897,8.260595e-10
C0V360,內門,2025-02-25,22.975481,120.466769,5.0633825e-10
C0R850,林邊,2025-02-25,22.4634,120.5339,4.2715284e-10
C0E930,龍鳳,2025-02-25,24.700034,120.859125,1.3812195e-09
C0U910,冬山,2025-02-25,24.63373,121.7937,3.4709948e-09
C1E721,泰安,2025-02-25,24.489017,120.968036,3.1702174e-09
82H320,茶改中部分場,2025-02-25,23.875611,120.913583,1.0700715e-09
C0M750,布袋,2025-02-25,23.380878,120.167789,8.1268353e-10
C1S860,利嘉,2025-02-25,22.809417,121.050528,1.1508126e-08
72C440,桃園農改,2025-02-25,24.950944,121.030583,1.6115429e-06
E2S980,林試太麻里1,2025-02-25,22.598922,120.980044,2.014038e-08
C0X170,關廟,2025-02-25,22.963017,120.327797,8.3545576e-10
C0V720,林園,2025-02-25,22.507747,120.394511,5.0656235e-10
C1I510,線浸林道,2025-02-25,23.761508,120.832956,1.8968656e-09
C0D690,外湖,2025-02-25,24.917735,120.968711,4.198367e-06
C0C750,新興坑尾,2025-02-25,25.0061,121.0971,2.1599748e-05
B2Q810,畜試南區分所,2025-02-25,21.945583,120.802167,0.9557709
C0S790,金崙,2025-02-25,22.538122,120.966875,2.0062204e-08
C0AH90,福山植物園,2025-02-25,24.760717,121.58135,2.4658583e-08
C0I540,奇萊稜線,2025-02-25,24.109231,121.326456,1.5921417e-08
C0M850,表湖,2025-02-25,23.24186,120.64166,8.977281e-10
C0S770,大溪山,2025-02-25,22.478475,120.943325,6.035879e-08
C0AG80,中和,2025-02-25,24.991622,121.491792,4.4290397e-07
C0T790,大禹嶺,2025-02-25,24.186117,121.316086,8.249295e-09
C0T9B0,水源,2025-02-25,23.991861,121.537169,1.1974961e-08
C0R840,牡丹池山,2025-02-25,22.168389,120.841225,1.0015393e-06
C1I131,桶頭,2025-02-25,23.641944,120.654117,8.046584e-10
CAL110,布袋國中,2025-02-25,23.35893,120.18026,8.121149e-10
467571,新竹,2025-02-25,24.827853,121.014219,1.9393434e-08
C0Z290,赤柯山,2025-02-25,23.36893,121.38293,8.262853e-09
C0X280,將軍,2025-02-25,23.214999,120.13577,9.611691e-10
C0S690,太麻里,2025-02-25,22.60902,120.98533,1.02213376e-08
C0U880,北關,2025-02-25,24.9072,121.8734,8.799524e-08
C1H860,瑞岩,2025-02-25,24.123772,121.18345,5.966e-09
C0G810,埔心,2025-02-25,23.947633,120.525456,6.0368066e-10
C0U970,大福,2025-02-25,24.80064,121.81389,4.319163e-09
C2H9N0,仁愛東眼,2025-02-25,24.026875,121.1205,1.9796305e-09
C1E670,南礦,2025-02-25,24.538278,121.002836,3.6574546e-09
C0M520,東後寮,2025-02-25,23.369908,120.248065,8.0805895e-10
C1E461,松安,2025-02-25,24.397972,120.986022,2.6875744e-09
72G600,臺中農改,2025-02-25,24.003028,120.534389,5.350447e-10
C2N160,西拉雅風管處,2025-02-25,23.189481,120.335297,7.739328e-10
C2M970,碧湖,2025-02-25,23.568632,120.624165,2.2464564e-09
C0A640,石碇,2025-02-25,24.993969,121.662917,3.746448e-08
E2S960,林試太麻里2,2025-02-25,22.598,120.99775,2.6904889e-08
C0F9Y0,桃山,2025-02-25,24.432739,121.303808,1.3622673e-08
C1I020,萬大,2025-02-25,23.979817,121.132261,1.204009e-09
C0U940,羅東,2025-02-25,24.68184,121.74934,3.7196313e-09
C0M650,朴子,2025-02-25,23.43463,120.23902,8.3604235e-10
C1I500,大尖山,2025-02-25,23.858572,120.994889,4.6959063e-09
C0G820,田尾,2025-02-25,23.901669,120.509389,6.0368066e-10
E2K600,四湖植物園,2025-02-25,23.676986,120.163433,1.9174514e-08
C0S730,綠島,2025-02-25,22.6672,121.47533,0.9669014
12Q970,東港工作站,2025-02-25,22.479997,120.466058,4.2642345e-10
C0E430,南庄,2025-02-25,24.601775,121.000214,6.126588e-10
C1TA00,太魯閣,2025-02-25,24.15773,121.6236,1.6200143e-08
466920,臺北,2025-02-25,25.037658,121.514853,9.496748e-08
C0R600,舊泰武,2025-02-25,22.588194,120.664944,1.1010257e-09
C1I260,北坑,2025-02-25,23.9246,121.006903,6.7436445e-10
466910,鞍部,2025-02-25,25.182586,121.529731,6.654986e-08
C1I230,九份二山,2025-02-25,23.961944,120.845,7.984224e-10
C2A660,瑞芳,2025-02-25,25.113169,121.801147,9.70666e-07
C0R270,琉球嶼,2025-02-25,22.332244,120.362236,1.4365869e-08
C1T990,高寮,2025-02-25,23.394239,121.356808,1.8124163e-09
C0G620,芬園,2025-02-25,24.015678,120.6213,6.788995e-10
C1Z140,荖溪,2025-02-25,23.890575,121.45964,3.7763936e-08
C1I201,中心崙,2025-02-25,23.728722,120.712097,8.38908e-10
C1I400,凌霄,2025-02-25,24.018778,121.004456,1.8941828e-09
C1M640,十字,2025-02-25,23.492153,120.753683,2.1201827e-09
G2P820,農試鳳山分所,2025-02-25,22.646611,120.356083,1.4091306e-09
C0Z270,蕃薯寮,2025-02-25,23.73835,121.540108,9.221026e-09
C0F9Q0,外埔,2025-02-25,24.347817,120.705686,6.391273e-10
C0K580,高鐵雲林,2025-02-25,23.737456,120.417944,7.913905e-10
C2I090,鳳凰,2025-02-25,23.728081,120.787347,1.4212312e-09
C0U990,員山,2025-02-25,24.74435,121.72247,3.707979e-09
C0V770,大社,2025-02-25,22.730306,120.346639,8.2591456e-10
C0X120,麻豆,2025-02-25,23.183289,120.248611,6.0892735e-10
C0C670,龍潭,2025-02-25,24.870056,121.221389,4.577302e-09
C0D680,香山濕地,2025-02-25,24.783581,120.914988,7.2520334e-10
C0S980,勝林山,2025-02-25,22.430439,120.8938,3.8426e-08
C0V730,大寮,2025-02-25,22.605614,120.395717,7.4856493e-10
C0R570,麟洛,2025-02-25,22.65078,120.52719,4.3663406e-10
C2M930,石卓,2025-02-25,23.478744,120.702264,2.5165214e-09
C0G9B0,和美,2025-02-25,24.105169,120.492131,1.3114041e-09
CAG100,王功漁港,2025-02-25,23.96824,120.32586,1.6310105e-06
C0X290,北門,2025-02-25,23.267772,120.125481,9.616385e-10
C2F930,大甲,2025-02-25,24.347667,120.640403,1.6363639e-09
C0D650,湖口,2025-02-25,24.904794,121.043628,7.854038e-07
C0E420,竹南,2025-02-25,24.708978,120.888897,1.3718202e-09
C0U780,五結,2025-02-25,24.68637,121.79794,3.6784917e-09
C1I250,鯉潭,2025-02-25,23.961922,120.991131,7.3280354e-10
C0R130,阿禮,2025-02-25,22.742908,120.743678,1.2502436e-09
C0X100,臺南市北區,2025-02-25,23.010394,120.194228,1.5332159e-09
C0S920,金峰嘉蘭,2025-02-25,22.594789,120.960825,1.95941e-08
C0V490,新興,2025-02-25,22.627422,120.298803,7.4382694e-10
C0F9K0,大安,2025-02-25,24.345061,120.588025,1.7467444e-09
72N100,臺南農改,2025-02-25,23.0605,120.342194,7.7669965e-10
467290,古坑,2025-02-25,23.633639,120.551889,6.5484307e-10
C2E970,八甲,2025-02-25,24.535811,120.795983,7.8634244e-10
C0V440,鳳山,2025-02-25,22.646653,120.356122,1.4091306e-09
C1T940,大觀,2025-02-25,23.714206,121.373133,9.939641e-09
72T250,花蓮農改,2025-02-25,23.975222,121.563889,1.37832e-08
C0E740,造橋,2025-02-25,24.637056,120.864778,7.0779355e-10
C0R100,尾寮山,2025-02-25,22.833111,120.683889,1.4312475e-09
A2K630,臺大雲林校區,2025-02-25,23.730628,120.423903,7.913905e-10
467990,馬祖,2025-02-25,26.169467,119.923158,1.9321203e-07
C0D580,寶山,2025-02-25,24.735006,121.025192,5.1550714e-10
E2P990,林試扇平站,2025-02-25,22.9677,120.6857,1.2222511e-09
C0AI30,三重,2025-02-25,25.057328,121.500629,1.0423654e-07
C0AH00,汐止,2025-02-25,25.066881,121.658778,9.496748e-08
C1Z040,立山,2025-02-25,23.443356,121.327375,6.793934e-09
466881,新北,2025-02-25,24.959207,121.525196,3.7316465e-07
C0W130,花嶼,2025-02-25,23.40007,119.32276,0.98319477
C0A950,鼻頭角,2025-02-25,25.129036,121.923372,0.40511638
C0K470,林內,2025-02-25,23.748675,120.609642,4.6776144e-10
C2F990,摩天嶺,2025-02-25,24.322458,120.936819,1.593447e-09
82C160,茶改場,2025-02-25,24.908472,121.185333,1.9959382e-08
C0Z320,清水林道,2025-02-25,23.27125,121.188272,7.2348088e-09
C0R760,南仁湖,2025-02-25,22.084681,120.863353,0.002232964
C0M670,大林,2025-02-25,23.600616,120.45841,8.1393386e-10
C0M800,茶山,2025-02-25,23.299075,120.664767,9.366392e-10
C0A9C0,天母,2025-02-25,25.117494,121.537169,1.12096856e-07
72K220,南改斗南分場,2025-02-25,23.634556,120.477333,6.7720657e-10
72AI40,桃改樹林分場,2025-02-25,24.944503,121.386972,3.226352e-08
C0S910,蘭嶼燈塔,2025-02-25,22.081197,121.503117,0.99181354
C0B050,八斗子,2025-02-25,25.144754,121.79167,3.3510019e-06
C0U900,內城,2025-02-25,24.71813,121.68766,3.7824326e-09
C0X320,柳營,2025-02-25,23.253328,120.375253,9.74378e-10
C0M790,新港,2025-02-25,23.553269,120.345728,9.667032e-10
C0F9T0,西屯,2025-02-25,24.179494,120.641275,5.842687e-10
C0SA30,都歷,2025-02-25,23.020333,121.323642,1.5949553e-09
C0C620,蘆竹,2025-02-25,25.084275,121.265767,6.233878e-07
C0R730,大坪頂,2025-02-25,22.024633,120.69355,0.9966744
C0AJ40,石門,2025-02-25,25.273672,121.601198,0.001272905
C0E750,苗栗,2025-02-25,24.564569,120.824575,7.159019e-10
C0T870,鯉魚潭,2025-02-25,23.935639,121.508944,6.2975674e-09
C1V170,排雲,2025-02-25,23.463619,120.954147,3.4000593e-08
C2H950,中寮,2025-02-25,23.884447,120.766406,7.0059036e-10
C0R350,貓鼻頭,2025-02-25,21.921774,120.7358,0.99978006
C0V660,岡山,2025-02-25,22.797078,120.294958,1.0833772e-09
C1H941,雙冬,2025-02-25,23.967378,120.802189,6.8538797e-10
C0AJ70,田寮,2025-02-25,25.2698,121.4886,0.07510488
C0AI00,五股,2025-02-25,25.07445,121.42728,3.1486998e-08
C0Z280,德武,2025-02-25,23.47426,121.41071,1.6885653e-09
C0R700,枋山,2025-02-25,22.246844,120.661086,2.0143357e-06
C0C460,復興,2025-02-25,24.820208,121.352281,4.4334367e-09
E2H360,蓮華池,2025-02-25,23.918333,120.885278,7.4923345e-10
C0M640,中埔,2025-02-25,23.42538,120.5229,8.135179e-10
C0W140,金沙,2025-02-25,24.488292,118.408778,9.090511e-08
C2A540,四堵,2025-02-25,24.8926,121.745736,4.6746308e-08
C0ACA0,新莊,2025-02-25,25.051478,121.446756,8.907836e-08
C0R220,潮州,2025-02-25,22.534361,120.54,4.0560982e-10
U2HA40,臺大內茅埔,2025-02-25,23.689722,120.851117,1.5236248e-09
467490,臺中,2025-02-25,24.145736,120.684075,6.1103084e-10
C0U960,翠峰湖,2025-02-25,24.510856,121.608044,1.8800526e-08
E2HA20,林試畢祿溪站,2025-02-25,24.226944,121.308522,8.871682e-09
C0V890,前鎮,2025-02-25,22.5718,120.3117,7.5098605e-10
467620,蘭嶼,2025-02-25,22.036969,121.558339,0.9998967
C1F941,雪嶺,2025-02-25,24.280586,121.026642,1.5637967e-08
C2H9E0,國姓南港,2025-02-25,23.911108,120.846556,1.2385022e-09
C0AC80,文山,2025-02-25,25.00235,121.575728,3.1393873e-07
C0F9R0,龍井,2025-02-25,24.184536,120.528972,1.1680478e-09
C0M760,民雄,2025-02-25,23.551754,120.428457,8.1949036e-10
C0UA40,西德山,2025-02-25,24.560647,121.752608,1.886666e-08
C1T920,中興,2025-02-25,23.769503,121.498653,7.752585e-09
C0D550,雪霸,2025-02-25,24.526972,121.11605,3.926137e-09
C2F860,梨山,2025-02-25,24.247522,121.243669,9.165074e-09
C0R320,車城,2025-02-25,22.0744,120.716247,0.9721594
C1S870,南美山,2025-02-25,23.15025,121.382333,5.386122e-09
C0B020,基隆嶼,2025-02-25,25.19141,121.78391,0.98908055
C1U501,牛鬥,2025-02-25,24.637836,121.573656,9.874638e-09
C0M730,嘉義市東區,2025-02-25,23.457673,120.460531,7.5748124e-10
C0S700,知本,2025-02-25,22.684866,121.005642,8.359583e-09
C1N001,沙崙,2025-02-25,22.935472,120.309406,8.283599e-10
C0V760,橋頭,2025-02-25,22.757806,120.30575,8.214528e-10
C0G960,福寶,2025-02-25,24.0443,120.3814,1.3142135e-09
C0X210,白河,2025-02-25,23.347466,120.414427,9.324752e-10
C0S810,東河,2025-02-25,22.972672,121.303986,6.477292e-09
C2R170,屏東,2025-02-25,22.66027,120.49403,4.3663406e-10
C0R670,楓港,2025-02-25,22.190131,120.692156,0.96302193
C0FA50,霧峰,2025-02-25,24.0419,120.6995,6.7384887e-10
C0UB10,蘇澳,2025-02-25,24.5969,121.8571,1.374107e-08
C0G950,防潮門,2025-02-25,24.1835,120.4871,1.1680478e-09
C0M740,六腳,2025-02-25,23.492871,120.290625,9.118305e-10
C1R250,力里,2025-02-25,22.428117,120.629228,6.723211e-10
C0K330,虎尾,2025-02-25,23.719183,120.442036,7.957178e-10
C2FA00,烏石坑,2025-02-25,24.273503,120.947617,1.5541143e-09
C0V620,永安,2025-02-25,22.82315,120.236856,1.0843549e-09
C1I330,楓樹林,2025-02-25,23.986803,121.076117,1.4402378e-09
C0W200,湖西,2025-02-25,23.596314,119.67275,0.94131804
72Q010,高雄農改場,2025-02-25,22.709333,120.525889,3.8515408e-10
C0SA40,瑞和,2025-02-25,22.974361,121.156697,1.5705512e-09
C0C680,龜山,2025-02-25,25.02846,121.38656,2.54607e-08
C2V260,月眉,2025-02-25,22.971003,120.539853,3.3476108e-10
C0V450,鳳森,2025-02-25,22.545064,120.392592,5.191818e-10
C0U720,南山,2025-02-25,24.43742,121.38167,9.742001e-09
A2N290,臺南蘭花園區,2025-02-25,23.340258,120.379661,6.594531e-10
C0R560,新園,2025-02-25,22.5434,120.461558,5.0656235e-10
C0U890,三星,2025-02-25,24.66812,121.65302,9.4366e-09
C1V300,御油山,2025-02-25,23.001983,120.715364,3.3434455e-09
C0U600,礁溪,2025-02-25,24.817539,121.765608,2.7085152e-08
C1T980,龍澗,2025-02-25,24.023289,121.411328,5.844543e-08
C0D670,海天一線,2025-02-25,24.831986,120.914438,0.00010664088
C0SA00,歷坵,2025-02-25,22.520969,120.89185,1.4341065e-08
C0M710,東石,2025-02-25,23.458927,120.15385,1.6219643e-09
C0M780,鹿草,2025-02-25,23.41134,120.30835,8.3632784e-10
C0U520,雙連埤,2025-02-25,24.753033,121.641303,1.7284083e-08
C0B010,七堵,2025-02-25,25.094819,121.71713,7.735439e-08
C0R480,長治,2025-02-25,22.693128,120.542622,4.555543e-10
C1V830,國三S383K,2025-02-25,22.781967,120.426475,4.1527928e-10
12Q980,恆春工作站,2025-02-25,22.079678,120.714425,0.9721594
C1O940,東山服務區,2025-02-25,23.286016,120.398472,1.1034055e-09
C1U840,東澳嶺,2025-02-25,24.5378,121.8485,1.7445679e-08
C1D630,飛鳳山,2025-02-25,24.766464,121.119178,1.1192883e-09
C0S940,石寧山,2025-02-25,23.223772,121.406639,2.7423965e-09
C0K410,北港,2025-02-25,23.573957,120.292802,1.5202836e-09
C2M620,瑞里,2025-02-25,23.545133,120.675197,2.6705125e-09
C0SB70,小港漁港,2025-02-25,23.158558,121.400431,7.1473982e-09
C2O950,安南,2025-02-25,23.076694,120.144861,2.826375e-09
C0F0E0,南湖圈谷,2025-02-25,24.363714,121.444667,3.2956702e-08
467610,成功,2025-02-25,23.097486,121.373428,7.371089e-09
C0G890,伸港,2025-02-25,24.148933,120.484403,1.2292485e-09
C2E540,龍溪,2025-02-25,24.606489,120.783933,7.067467e-10
C1V200,梅山,2025-02-25,23.268447,120.823556,1.1806313e-09
C0T9H0,加路蘭山,2025-02-25,23.682947,121.5274,1.03133e-08
C2O930,玉井,2025-02-25,23.126042,120.46055,6.092875e-10
C1F911,新伯公,2025-02-25,24.221361,120.841069,4.756944e-10
C0R490,九如,2025-02-25,22.7405,120.490503,3.7922257e-10
C0X200,左鎮,2025-02-25,23.056758,120.408522,7.2876555e-10
C0SB50,叭嗡嗡,2025-02-25,23.047062,121.343223,1.6999792e-09
C1F891,稍來,2025-02-25,24.265689,121.001142,8.912353e-09
72N240,七股研究中心,2025-02-25,23.081672,120.062894,2.8236e-09
C0C700,中壢,2025-02-25,24.977661,121.256375,3.6304133e-08
C0M690,水上,2025-02-25,23.419734,120.388909,6.5160244e-10
C0V690,鼓山,2025-02-25,22.623325,120.275575,7.441902e-10
C0O860,大內,2025-02-25,23.11885,120.36083,7.688964e-10
C0Z200,萬榮,2025-02-25,23.709219,121.420106,9.157246e-09
C0T9D0,和中,2025-02-25,24.26676,121.74103,3.427234e-09
C1O921,楠西,2025-02-25,23.183511,120.484083,5.8571586e-10
C0AJ30,淡水觀海,2025-02-25,25.184591,121.408616,4.2645383e-06
C0V810,左營,2025-02-25,22.67491,120.28491,1.4171169e-09
C0UA70,桃源谷,2025-02-25,24.962606,121.888875,3.781648e-08
C0X130,官田,2025-02-25,23.193217,120.315422,7.7127e-10
C1H000,翠峰,2025-02-25,24.109397,121.205211,6.4819266e-09
C0UA90,石城,2025-02-25,24.980444,121.951214,8.545774e-08
C1E681,南勢山,2025-02-25,24.421669,120.923831,1.2927038e-09
C0A9F0,內湖,2025-02-25,25.079422,121.57545,9.496748e-08
C0K291,宜梧,2025-02-25,23.536281,120.169329,1.6515684e-09
C1K540,口湖,2025-02-25,23.585344,120.180517,2.436921e-08
C0R780,滿州,2025-02-25,22.024403,120.839892,0.9815886
C0V870,文安,2025-02-25,22.8025,120.2164,1.0835279e-09
C0U650,玉蘭,2025-02-25,24.675286,121.587061,1.6064234e-08
C0R640,東港,2025-02-25,22.46247,120.44074,4.2642345e-10
K2E360,苗栗農改,2025-02-25,24.495722,120.829111,7.4961654e-10
C0AJ80,板橋,2025-02-25,25.0107,121.4489,4.6484155e-07
C0S660,下馬,2025-02-25,23.150427,121.070312,8.004081e-09
C1H9B1,阿眉,2025-02-25,24.1263,120.994672,8.06395e-09
C0UA20,多加屯,2025-02-25,24.368614,121.373189,6.3819448e-09
C0E730,頭份,2025-02-25,24.688247,120.912206,1.374822e-09
72V140,高改旗南分場,2025-02-25,22.857861,120.516667,3.6420264e-10
C0K480,莿桐,2025-02-25,23.761192,120.502372,4.9800736e-10
C0U980,坪林石牌,2025-02-25,24.86478,121.77396,2.2479362e-08
C0T900,西林,2025-02-25,23.8119,121.441458,7.3433464e-09
C1I150,青雲,2025-02-25,23.793361,120.949378,5.594678e-10
467350,澎湖,2025-02-25,23.565503,119.563094,0.959962
C0G800,埔鹽,2025-02-25,24.000394,120.431683,1.3700996e-09
C0H960,草屯,2025-02-25,23.973672,120.68085,6.761392e-10
C1V780,多納林道,2025-02-25,22.888028,120.737917,1.5931554e-09
C0E920,通霄漁港,2025-02-25,24.498589,120.673876,2.5374357e-08
C0Z330,安通山,2025-02-25,23.290728,121.348528,3.3340397e-09
C0AH10,永和,2025-02-25,25.01125,121.508111,4.6484155e-07
C0AK10,太平里,2025-02-25,25.134937,121.364899,5.146098e-07
C2G640,鹿港,2025-02-25,24.0753,120.430481,1.3127104e-09
C1E890,國三N149K,2025-02-25,24.463414,120.680019,2.6457407e-09
C1R110,口社,2025-02-25,22.770111,120.645222,5.3591687e-10
C1M870,國三N285K,2025-02-25,23.550319,120.505833,7.0028977e-10
467050,新屋,2025-02-25,25.006744,121.047486,9.522603e-05
C1E480,鳳美,2025-02-25,24.554803,121.034747,1.3482923e-09
C0M530,奮起湖,2025-02-25,23.493903,120.699253,3.0830711e-09
C0C590,觀音,2025-02-25,25.027072,121.153317,0.00011734233
C0T9M0,靜浦,2025-02-25,23.455167,121.495028,1.4957948e-09
C2H9M0,發祥,2025-02-25,24.154094,121.164517,5.277444e-09
C0AI40,石牌,2025-02-25,25.115597,121.513139,1.1392523e-07
C1F871,上谷關,2025-02-25,24.203483,121.018644,1.7134887e-09
C2H9G0,百勝,2025-02-25,24.051142,120.909361,5.4392457e-10
C0G880,二水,2025-02-25,23.810742,120.6173,4.210425e-10
C0R940,加祿堂,2025-02-25,22.3363,120.6217,3.7026027e-08
C0W220,北竿,2025-02-25,26.220358,119.974881,3.4751508e-07
C0O960,崎頂,2025-02-25,22.959547,120.369317,8.686553e-10
C0S750,向陽,2025-02-25,23.248397,120.986133,4.9546465e-09
C0T9F0,水璉,2025-02-25,23.797131,121.542514,7.4653785e-09
C1M600,頭凍,2025-02-25,23.406364,120.603339,1.4982361e-09
467660,臺東,2025-02-25,22.752211,121.154586,3.1288298e-08
C1D380,新埔,2025-02-25,24.84745,121.03834,1.1732709e-08
C2G980,田頭村,2025-02-25,23.8263,120.444175,6.207361e-10
C0V750,路竹,2025-02-25,22.854997,120.259439,1.6359488e-09
C0N050,蚵寮,2025-02-25,23.301,120.1104,8.589119e-10
72M700,南改鹿草分場,2025-02-25,23.416869,120.283061,8.3563106e-10
C1SA50,利嘉林道,2025-02-25,22.82325,121.009389,1.6763975e-08
467550,玉山,2025-02-25,23.487614,120.959522,3.634598e-08
C0A940,金山,2025-02-25,25.223628,121.643967,2.0401278e-06
C1V340,大津,2025-02-25,22.888322,120.645986,3.683819e-10
C0W180,七美,2025-02-25,23.219333,119.444892,0.9776401
C1F9C1,白冷,2025-02-25,24.182844,120.929889,6.53604e-10
K2E710,苗改生物防治研究中心,2025-02-25,24.422861,120.871833,4.642833e-10
C0N040,蘆竹溝,2025-02-25,23.2344,120.0961,9.616385e-10
C2W230,畜試所澎湖,2025-02-25,23.628342,119.513206,0.9701066
C0R880,後壁湖,2025-02-25,21.9457,120.7457,0.9997014
C1I280,埔中,2025-02-25,23.820778,120.642594,5.536854e-10
467790,墾丁雷達站,2025-02-25,21.948235,120.808028,0.985401
C0W190,望安,2025-02-25,23.380564,119.494075,0.97296524
466881,新北,2025-02-25,24.9593,121.52,3.9065347e-07
C0Z170,卓溪,2025-02-25,23.3443,121.3029,1.989032e-09
C0F850,東勢,2025-02-25,24.246428,120.833047,6.472164e-10
466900,淡水,2025-02-25,25.164889,121.448906,5.146098e-07
C0I370,魚池,2025-02-25,23.895703,120.94135,7.827869e-10
C0C630,大溪,2025-02-25,24.882853,121.265547,5.403213e-09
C0A520,山佳,2025-02-25,24.974944,121.402008,1.4557342e-07
C0I110,竹山,2025-02-25,23.761225,120.688156,4.4444834e-10
82H840,茶改南部分場,2025-02-25,23.762528,120.7405,5.2936827e-10
C0G660,溪湖,2025-02-25,23.94835,120.479122,6.010095e-10
C1T800,洛韶,2025-02-25,24.204558,121.453956,4.095821e-08
C1T810,慈恩,2025-02-25,24.192044,121.388386,3.9783843e-09
C1E451,象鼻,2025-02-25,24.368617,120.940228,1.1273744e-09
C0AC60,三峽,2025-02-25,24.939025,121.369728,2.865628e-08
C0I490,萬大林道,2025-02-25,23.928228,121.091411,2.3537003e-09
C1I290,豐丘,2025-02-25,23.668178,120.887417,3.0675154e-09
C1I320,奧萬大,2025-02-25,23.952956,121.178556,1.3133565e-09
C2M910,嘉義大學,2025-02-25,23.471325,120.485903,7.719764e-10
C0U770,南澳,2025-02-25,24.44935,121.81022,8.093118e-09
C0A980,社子,2025-02-25,25.109508,121.469681,6.2569876e-07
C0V800,六龜,2025-02-25,22.997889,120.633583,3.6925138e-10
C1G9D0,國一S218K,2025-02-25,23.890641,120.493253,5.7752236e-10
C0E570,白沙屯,2025-02-25,24.549447,120.696803,9.38113e-09
C2F9A0,中竹林,2025-02-25,24.103556,120.751061,5.306379e-10
C0FA40,臺中電廠,2025-02-25,24.2146,120.4907,1.1680478e-09
C2G9A0,畜試所彰化,2025-02-25,23.86045,120.557964,5.8302413e-10
C0H9C0,合歡山,2025-02-25,24.143442,121.272547,1.5293555e-08
C0X060,下營,2025-02-25,23.22695,120.256261,6.1561534e-10
G2M350,農試溪口農場,2025-02-25,23.58565,120.408111,8.176262e-10
C0U860,頭城,2025-02-25,24.85323,121.8308,2.7188566e-08
C0R580,南州,2025-02-25,22.48591,120.50274,4.2642345e-10
C0D430,峨眉,2025-02-25,24.6905,121.017189,4.5368997e-10
C0G780,秀水,2025-02-25,24.03405,120.503869,5.350855e-10
72N100,臺南農改場,2025-02-25,23.0605,120.342194,7.7669965e-10
C0S900,蘭嶼高中,2025-02-25,22.04909,121.51214,0.70941496
467540,大武,2025-02-25,22.355675,120.903789,0.00050060236
C1F9W0,德基,2025-02-25,24.254783,121.190261,6.983867e-09
C1Z120,壽豐,2025-02-25,23.870853,121.508081,6.282906e-09
C0W160,烏坵,2025-02-25,24.9944,119.44956,7.454251e-05
C1I240,外大坪,2025-02-25,23.958697,120.917931,7.3920914e-10
C1I550,國六W023K,2025-02-25,23.979067,120.867742,5.5800353e-10
C0R870,興海,2025-02-25,21.9752,120.8439,0.9556738
C0R140,瑪家,2025-02-25,22.682903,120.686639,9.056496e-10
C0A530,坪林,2025-02-25,24.938183,121.70975,4.9529007e-08
C0X260,後壁,2025-02-25,23.366358,120.362326,6.594531e-10
C0Z230,和平,2025-02-25,24.30717,121.77007,3.4141134e-09
C0G770,福興,2025-02-25,24.041289,120.437669,1.3700996e-09
C0H9A0,神木村,2025-02-25,23.532742,120.843667,2.188027e-09
C0I460,南投,2025-02-25,23.911469,120.687331,7.7014395e-10
C0I480,梅峰,2025-02-25,24.085272,121.173572,3.9082653e-09
C1V570,吉東,2025-02-25,22.85422,120.5454,3.6633033e-10
C2D740,屯原,2025-02-25,24.067969,121.209389,3.334892e-09
C2A560,福山,2025-02-25,24.776203,121.502811,2.5266804e-08
C0AH30,五分山,2025-02-25,25.07125,121.780794,2.4584242e-08
C0FA10,松柏,2025-02-25,24.429115,120.617482,3.009263e-09
72S200,東改班鳩分場,2025-02-25,22.829528,121.077694,1.6926444e-09
72HA00,中改埔里分場,2025-02-25,23.903208,120.963364,7.135204e-10
C2H9W0,大坪頂農水,2025-02-25,24.043122,120.932781,8.301551e-10
C0C650,平鎮,2025-02-25,24.897503,121.214636,1.304559e-08
C0S930,延平,2025-02-25,22.902581,121.084058,1.8200722e-09
C0UA60,樟樹山,2025-02-25,24.41393,121.78325,2.4098949e-08
C1S670,摩天,2025-02-25,23.199503,121.027,2.6229706e-08
C0V630,茄萣,2025-02-25,22.906642,120.182608,1.6350411e-09
466940,基隆,2025-02-25,25.133314,121.740475,2.966792e-06
C0X050,東河,2025-02-25,23.296598,120.385608,1.1094601e-09
C0R770,保力,2025-02-25,22.071122,120.764111,0.99963164
G2L020,農試嘉義分所,2025-02-25,23.485028,120.473806,6.8307016e-10
C0X240,關子嶺,2025-02-25,23.331169,120.508025,9.804106e-10
C0I380,集集,2025-02-25,23.828206,120.801467,4.4733567e-10
466990,花蓮,2025-02-25,23.975128,121.613275,1.4389233e-08
C1V220,小關山,2025-02-25,23.154217,120.813603,3.119568e-09
C1F9G1,慶福山,2025-02-25,24.180853,120.848378,8.875164e-10
C0Z250,瑞穗林道,2025-02-25,23.49284,121.30688,3.6976978e-08
C0D590,新豐,2025-02-25,24.87068,120.97721,3.7484426e-06
C0A870,五指山,2025-02-25,25.132153,121.608692,2.4433671e-08
C0UA50,西帽山,2025-02-25,24.555361,121.802628,1.5609597e-08
C0X160,仁德,2025-02-25,22.968258,120.257689,1.3230413e-09
C1H971,六分寮,2025-02-25,23.92507,120.6378,1.0543177e-09
C0W120,西嶼,2025-02-25,23.5626,119.468436,0.9756602
C0G650,員林,2025-02-25,23.946503,120.585597,6.694688e-10
C0AD50,鶯歌,2025-02-25,24.951533,121.346294,2.5357375e-08
C2H9Q0,北東眼山,2025-02-25,24.120939,121.189303,7.552729e-09
C2H9T0,名間竹圍,2025-02-25,23.859914,120.637572,5.7407606e-10
C0S990,山豬窟,2025-02-25,22.318619,120.857372,2.129958e-06
72Q010,高雄農改,2025-02-25,22.709333,120.525889,3.8515408e-10
C0X190,安平,2025-02-25,22.993161,120.152181,1.5322366e-09
C0K400,斗六,2025-02-25,23.720583,120.541127,5.252066e-10
12J990,口湖工作站,2025-02-25,23.589978,120.180394,2.436921e-08
C0O830,北寮,2025-02-25,23.079561,120.495008,4.2665696e-10
C1D410,白蘭,2025-02-25,24.579364,121.079947,4.0546078e-09
C0S970,加津林,2025-02-25,22.416211,120.926942,0.0002539573
C0D700,關西,2025-02-25,24.7977,121.1732,7.049763e-10
C0M810,里佳,2025-02-25,23.389125,120.716647,2.5648244e-09
C0U750,龜山島,2025-02-25,24.841667,121.953133,3.2002517e-06
C0R810,內獅,2025-02-25,22.305064,120.642986,4.3137554e-08
C1M390,龍美,2025-02-25,23.406728,120.654417,1.8791482e-09
C2FB60,頭櫃山,2025-02-25,24.129842,120.858925,2.0677768e-09
C1H840,國三N238K,2025-02-25,23.841008,120.707711,5.368274e-10
CAQ030,崎峰國小,2025-02-25,22.42565,120.49521,4.2642345e-10
C2E520,大湖,2025-02-25,24.414939,120.870872,4.7885224e-10
467530,阿里山,2025-02-25,23.508208,120.813242,8.455413e-09
C1E691,南湖,2025-02-25,24.40135,120.837533,9.448681e-10
C0FA30,梧棲,2025-02-25,24.256003,120.523381,1.2636933e-09
C1V231,高中,2025-02-25,23.134911,120.716711,7.843397e-10
C0AK30,硬漢嶺,2025-02-25,25.136097,121.426372,2.4819865e-08
C0F9V0,新社,2025-02-25,24.200172,120.815806,5.560242e-10
C0H890,埔里,2025-02-25,23.972169,120.952425,6.154181e-10
C0R690,墾丁,2025-02-25,21.966756,120.810269,0.9997229
C0F0D0,審馬陣,2025-02-25,24.381675,121.4203,1.0348848e-08
C2W030,金門農試所,2025-02-25,24.448431,118.451786,1.8154203e-08
C0R820,白鷺,2025-02-25,22.454275,120.666219,8.4246454e-10
U2H480,臺大溪頭,2025-02-25,23.670306,120.798194,2.879642e-09
C1V190,南天池,2025-02-25,23.27403,120.91176,6.6537518e-09
K2E360,苗栗農改場,2025-02-25,24.495722,120.829111,7.4961654e-10
CAJ050,海口故事園區,2025-02-25,23.57543,120.14121,2.436921e-08
C2H9D0,三隻寮,2025-02-25,24.093078,120.861578,8.478373e-10
C0O990,媽廟,2025-02-25,22.99175,120.293525,1.1081995e-09
C0D480,打鐵坑,2025-02-25,24.849664,121.150789,4.6063446e-09
C0Z220,和平林道,2025-02-25,24.343922,121.656317,6.1729586e-09
C0TA10,花蓮漁港,2025-02-25,23.995322,121.638331,1.4757687e-08
72C440,桃園農改場,2025-02-25,24.950944,121.030583,1.6115429e-06
C1E711,馬拉邦山,2025-02-25,24.367306,120.901656,1.1825559e-09
C0SB20,富岡,2025-02-25,22.792467,121.192669,2.1956859e-09
C0D560,竹東,2025-02-25,24.767147,121.057881,7.172208e-10
C0F9U0,南屯,2025-02-25,24.137006,120.637969,5.6854915e-10
C0M720,番路,2025-02-25,23.464657,120.554156,8.564548e-10
C0F0A0,雪山圈谷,2025-02-25,24.388594,121.236339,1.6469984e-08
C1A9N0,四十份,2025-02-25,24.934158,121.593283,2.1352072e-08
C0U760,東澳,2025-02-25,24.52196,121.83318,9.272101e-09
C0X230,鹽水,2025-02-25,23.272621,120.247641,8.611165e-10
C2H9H0,苗改南投蜂場,2025-02-25,23.852589,120.693481,6.741535e-10
C0R950,萬隆國小,2025-02-25,22.507667,120.587817,4.1473072e-10
467540,大武,2025-02-25,22.35572,120.90374,0.00050060236
C0V370,古亭坑,2025-02-25,22.893178,120.401947,5.4821575e-10
C1I340,新興橋,2025-02-25,23.563333,120.868728,1.9794493e-09
C0SA80,土坂,2025-02-25,22.453108,120.887572,2.1890074e-07
C0R160,鹽埔,2025-02-25,22.739558,120.530778,3.8515408e-10
C0AC40,大屯山,2025-02-25,25.175675,121.522408,5.6156377e-08
466850,五分山雷達站,2025-02-25,25.071182,121.781205,2.449877e-08
C2H9L0,馬烈霸,2025-02-25,24.1512,121.201772,7.4200788e-09
C1AI50,國三N016K,2025-02-25,25.034164,121.619664,8.047574e-08
C1V600,藤枝,2025-02-25,23.071961,120.757042,2.6682367e-09
C1E601,南勢,2025-02-25,24.572486,120.734842,6.549858e-09
C0Z180,新城,2025-02-25,24.03946,121.60454,1.4070821e-08
C0O980,新市,2025-02-25,23.061614,120.298197,7.6306556e-10
C0K420,西螺,2025-02-25,23.800407,120.467394,6.2276156e-10
C0Z050,佳心,2025-02-25,23.34567,121.21316,7.4679845e-09
C0AD30,蘆洲,2025-02-25,25.086594,121.472331,9.977519e-08
C0V610,梓官,2025-02-25,22.760558,120.267211,8.214528e-10
K2F750,種苗改良場,2025-02-25,24.225972,120.800917,5.1565563e-10
C0UA80,大溪漁港,2025-02-25,24.941801,121.902955,8.621659e-08
C1AI60,國一39K邊坡,2025-02-25,25.064361,121.383836,2.7887687e-08
C0W150,金寧,2025-02-25,24.457703,118.328989,1.7955402e-08
C0R960,內埔,2025-02-25,22.608483,120.570714,4.595986e-10
V2C250,八德合作社,2025-02-25,24.93775,121.266389,1.6490166e-08
C2H9S0,龍南,2025-02-25,23.953536,120.833183,1.2539548e-09
C0AH40,平等,2025-02-25,25.129142,121.577086,2.7674252e-08
C0R540,佳冬,2025-02-25,22.419456,120.552375,6.588823e-10
466950,彭佳嶼,2025-02-25,25.627975,122.079744,0.9997564
C0A890,雙溪,2025-02-25,25.036003,121.864242,1.2798652e-07
C0C480,桃園,2025-02-25,24.992425,121.323172,4.2670948e-08
C0AH50,林口,2025-02-25,25.072181,121.38084,2.3746606e-08
A2K360,水試臺西試驗場,2025-02-25,23.717231,120.190522,2.1432495e-08
B2N890,畜試所,2025-02-25,23.058972,120.336406,7.7669965e-10
C2M960,外寮,2025-02-25,23.562643,120.665688,2.3464075e-09
C0F9S0,烏日,2025-02-25,24.107058,120.624103,7.6265816e-10
C0C490,八德,2025-02-25,24.928708,121.283289,1.6425092e-08
C0R190,赤山,2025-02-25,22.592333,120.614306,4.5749257e-10
C0T820,天祥,2025-02-25,24.179597,121.495639,1.0183356e-07
C1F9E1,龍安,2025-02-25,24.1605,120.831961,5.7411764e-10
C0V820,小林,2025-02-25,23.148408,120.63325,5.534721e-10
C2G870,芳苑,2025-02-25,23.922303,120.320025,1.52784e-06
C0E850,大河,2025-02-25,24.618069,120.948578,5.061712e-10
C1U670,寒溪,2025-02-25,24.634,121.71691,3.7238053e-09
C0N020,城西,2025-02-25,23.0568,120.0956,1.535519e-09
C1Z110,三棧,2025-02-25,24.11557,121.60501,7.883525e-08
C0R280,檳榔,2025-02-25,22.076078,120.836777,0.3471546
C2H9J0,中台,2025-02-25,23.9996,120.938739,6.473003e-10
C0F9L0,后里,2025-02-25,24.310436,120.729725,4.6456675e-10
467441,高雄,2025-02-25,22.730432,120.312516,8.2591456e-10
C0Z180,新城,2025-02-25,24.040486,121.604878,1.4063416e-08
C0D540,橫山,2025-02-25,24.71116,121.11693,5.052327e-10
C1D420,太閣南,2025-02-25,24.632808,121.160575,3.4567635e-09
C1E770,公館,2025-02-25,24.526914,120.830806,7.400542e-10
CAN130,水試所海水繁養殖中心,2025-02-25,23.120802,120.07968,2.8235947e-09
C1I430,翠華,2025-02-25,24.191961,121.224339,5.252449e-09
C1M400,菜瓜坪,2025-02-25,23.251928,120.576103,7.3771333e-10
C0G730,二林,2025-02-25,23.903325,120.376081,1.7725875e-09
72M360,南改義竹分場,2025-02-25,23.360694,120.279361,8.0805895e-10
V2K620,麥寮合作社,2025-02-25,23.753836,120.294783,1.7586589e-09
C0Z070,舞鶴,2025-02-25,23.46811,121.37407,1.7983154e-09
C0B040,大武崙,2025-02-25,25.166676,121.706993,1.9850154e-06
C1Z030,紅葉,2025-02-25,23.493119,121.338806,1.5286664e-09
C1I050,丹大,2025-02-25,23.753747,121.141147,4.823772e-09
C0I080,信義,2025-02-25,23.689694,120.851036,1.5236248e-09
C2M920,朴子農改,2025-02-25,23.469889,120.259383,8.3604235e-10
C2A880,福隆,2025-02-25,25.017842,121.942083,8.682951e-08
C0Z160,鳳林,2025-02-25,23.746114,121.453411,9.183167e-09
C0V210,復興,2025-02-25,23.222403,120.806089,1.0736655e-09
C0H990,昆陽,2025-02-25,24.121322,121.273642,1.26540876e-08
C0R741,獅子,2025-02-25,22.202308,120.705236,0.9961272
C0S710,鹿野,2025-02-25,22.917711,121.122994,1.7144597e-09
C0I530,小奇萊,2025-02-25,24.131764,121.295717,1.3415592e-08
C2K630,荷苞,2025-02-25,23.657717,120.595144,6.826404e-10
C0Z080,富源,2025-02-25,23.587642,121.378225,6.8083326e-09
467441,高雄,2025-02-25,22.7304,120.3125,8.2591456e-10
C0SB10,美和,2025-02-25,22.682078,121.060236,1.44010945e-08
C2K620,馬光農場,2025-02-25,23.721453,120.378864,7.8678347e-10
C1I140,卡奈托灣,2025-02-25,23.754364,121.087872,1.7337793e-09
C0I520,玉山風口,2025-02-25,23.470489,120.955994,3.5197107e-08
C1G691,下水埔,2025-02-25,23.816114,120.5676,4.982297e-10
C0X110,臺南市南區,2025-02-25,22.961189,120.188378,1.3230413e-09
C0V680,仁武,2025-02-25,22.701083,120.347722,1.4161441e-09
C2G840,北斗,2025-02-25,23.877586,120.514222,5.7606464e-10
C0R900,竹坑,2025-02-25,22.1385,120.7022,0.9691217
C0K250,崙背,2025-02-25,23.75555,120.318925,1.7575557e-09
C0G860,社頭,2025-02-25,23.897647,120.5862,5.8236727e-10
C0X150,安定,2025-02-25,23.102614,120.227839,8.2020657e-10
C0R590,里港,2025-02-25,22.77919,120.49459,3.9815326e-10
C0E610,馬都安,2025-02-25,24.451272,120.930192,1.015499e-09
C0E550,明德,2025-02-25,24.583486,120.885411,7.229274e-10
C0R150,三地門,2025-02-25,22.709889,120.639944,5.348671e-10
C0G910,花壇,2025-02-25,24.032076,120.549461,5.4098104e-10
C1D400,鳥嘴山,2025-02-25,24.71909,121.28387,2.779066e-09
C0K500,元長,2025-02-25,23.64981,120.315024,1.6698481e-09
C0F0B0,石岡,2025-02-25,24.276061,120.777644,4.865601e-10
C2V250,甲仙,2025-02-25,23.080106,120.591758,4.913059e-10
C0SA20,金崙山,2025-02-25,22.567419,120.959667,1.1065146e-08
C0V350,溪埔,2025-02-25,22.738578,120.446797,4.7991383e-10
C0M660,溪口,2025-02-25,23.604131,120.403569,8.176262e-10
C1S880,壽卡,2025-02-25,22.238911,120.858903,1.3904977e-06
72D680,桃改新埔分場,2025-02-25,24.834444,121.066111,1.229575e-08
