站號,站名,日期,lat,lon,BLBTSLS
C0R710,龍磐,2025-11-17,21.931672,120.838942,0.99857104
C0G940,竹塘,2025-11-17,23.848253,120.386764,0.9615456
467590,恆春,2025-11-17,22.003897,120.746339,0.9988831
C0U710,太平山,2025-11-17,24.505486,121.525656,4.886606e-08
C0E820,獅潭,2025-11-17,24.539133,120.920042,0.9985481
C0V880,興達,2025-11-17,22.8778,120.2127,0.76232815
C0S890,關山,2025-11-17,23.0395,121.175017,0.9994739
C0SB30,新蘭,2025-11-17,22.869214,121.223228,0.97915435
C0AD40,土城,2025-11-17,24.973208,121.445169,0.9942503
C0X180,山上,2025-11-17,23.0757,120.363253,0.82323647
C0F9Z0,雪山東峰,2025-11-17,24.388792,121.268675,3.696626e-08
C0X220,學甲,2025-11-17,23.230367,120.182187,0.8495886
467650,日月潭,2025-11-17,23.881325,120.90805,0.98326194
C0K600,箔子寮,2025-11-17,23.6197,120.14,0.8989015
C0G830,埤頭,2025-11-17,23.866003,120.452806,0.9644395
C0S950,七塊厝,2025-11-17,22.954453,121.229922,0.9999108
467110,金門,2025-11-17,24.407306,118.289281,0.9999127
C0AH80,深坑,2025-11-17,25.002703,121.628328,0.9927839
C0A970,三貂角,2025-11-17,25.007606,122.002058,0.99869174
C0K430,褒忠,2025-11-17,23.690938,120.303634,0.99924123
467480,嘉義,2025-11-17,23.495925,120.432906,0.88686574
C0V400,阿公店,2025-11-17,22.804194,120.355528,0.76569855
C0E960,觀霧分站,2025-11-17,24.505781,121.113921,1.958405e-08
467550,玉山,2025-11-17,23.48718,120.95943,3.5001687e-08
C0R440,大漢山,2025-11-17,22.405264,120.753181,6.482591e-07
C0K280,四湖,2025-11-17,23.630414,120.227125,0.9992574
C0K390,土庫,2025-11-17,23.679029,120.395574,0.96409065
C0E910,海埔,2025-11-17,24.648767,120.772435,0.99991935
C0R750,四林格山,2025-11-17,22.076989,120.802439,0.9876364
C0F0C0,中坑,2025-11-17,24.248517,120.903319,0.99984556
C0A770,科教館,2025-11-17,25.096356,121.516507,0.9949875
C0AJ60,六塊厝,2025-11-17,25.24,121.4481,0.99502695
C0R620,墾雷,2025-11-17,21.900836,120.855269,0.99883986
467420,永康,2025-11-17,23.038386,120.2367,0.77103096
C0I410,名間,2025-11-17,23.837053,120.701447,0.9972222
C0V740,旗山,2025-11-17,22.888614,120.483597,0.7782851
C0Z061,玉里,2025-11-17,23.3215,121.339656,0.99862206
C0S840,南田,2025-11-17,22.279725,120.889208,0.3602982
C0R660,枋寮,2025-11-17,22.367722,120.590647,0.8660357
C0K450,大埤,2025-11-17,23.646074,120.431537,0.9656616
C0UA00,土場,2025-11-17,24.576533,121.495333,0.24034835
467080,宜蘭,2025-11-17,24.763975,121.756528,0.98743206
C0N030,四草,2025-11-17,23.0235,120.1116,0.8533301
467410,臺南,2025-11-17,22.99328,120.20492,0.77764976
C0V650,彌陀,2025-11-17,22.783806,120.246361,0.7522324
C0D660,新竹市東區,2025-11-17,24.798681,120.986942,0.9999124
C0SB40,興隆,2025-11-17,22.913661,121.257469,0.9852462
467050,新屋,2025-11-17,25.006725,121.047492,0.99870443
C0C710,大溪永福,2025-11-17,24.892936,121.324975,0.9964472
C0FA20,溫寮,2025-11-17,24.372177,120.583125,0.9999776
C0V640,湖內,2025-11-17,22.887139,120.2445,0.7716228
C0R910,下寮,2025-11-17,22.3929,120.5548,0.8659061
C0Z020,明里,2025-11-17,23.208717,121.262342,0.9994855
C0M770,嘉義梅山,2025-11-17,23.585398,120.555587,0.9966593
C0C660,楊梅,2025-11-17,24.912375,121.143047,0.9954029
C1E511,新開,2025-11-17,24.347703,120.827019,0.9591041
C0TA80,立霧山,2025-11-17,24.183258,121.641899,1.2251242e-07
C0T960,光復,2025-11-17,23.660694,121.424964,0.9999777
C0F9M0,豐原,2025-11-17,24.254322,120.720692,0.9998228
C0R720,旭海,2025-11-17,22.205403,120.887614,0.994043
C0V710,苓雅,2025-11-17,22.622742,120.330669,0.75551534
C0C740,觀音工業區,2025-11-17,25.064764,121.114856,0.9988125
C0V790,萬山,2025-11-17,22.905944,120.688056,0.99967897
C0AJ90,澳底,2025-11-17,25.0552,121.9253,0.98800945
C0Z100,東華,2025-11-17,23.89525,121.549833,0.9999712
C0G970,三豐,2025-11-17,23.882,120.2895,0.9992782
C0V900,汕尾,2025-11-17,22.4782,120.4151,0.86452985
C1AC50,關渡,2025-11-17,25.133486,121.469331,0.987772
C0C800,四稜,2025-11-17,24.64733,121.4293,2.1359206e-07
C0F9I0,神岡,2025-11-17,24.272481,120.658314,0.99986124
C0K460,斗南,2025-11-17,23.678734,120.478359,0.96724033
467280,後龍,2025-11-17,24.648563,120.831834,0.99991494
466930,竹子湖,2025-11-17,25.162078,121.544547,0.99997914
C0I390,仁愛,2025-11-17,24.022122,121.132206,0.11893778
C0Z300,東里,2025-11-17,23.26853,121.30547,0.99897224
C0K510,水林,2025-11-17,23.572924,120.24597,0.8958406
C1A750,石碇服務區,2025-11-17,25.00872,121.646242,0.9907903
C0X300,鹿寮,2025-11-17,23.386047,120.477331,0.98043776
C0K590,雲林東勢,2025-11-17,23.674192,120.255721,0.99923676
C0A570,桶後,2025-11-17,24.848222,121.597992,0.989091
C0G720,溪州,2025-11-17,23.851589,120.499093,0.9674616
C0V850,蚵仔寮,2025-11-17,22.7256,120.2527,0.7457096
C0S740,池上,2025-11-17,23.119628,121.209469,0.99975926
C0AH70,松山,2025-11-17,25.04871,121.55042,0.99469113
C0N010,鯤鯓國小,2025-11-17,23.1879,120.0889,0.8530336
C0R550,新埤,2025-11-17,22.467947,120.582894,0.882196
C0SA60,知本（水試所）,2025-11-17,22.702394,121.082761,0.88080853
C0T9I0,豐濱,2025-11-17,23.583897,121.514806,0.99997616
C0UB00,淡江大學蘭陽校園,2025-11-17,24.823239,121.730383,0.23947518
C0W240,九宮,2025-11-17,24.423753,118.240186,0.9999128
C0T9N0,富里,2025-11-17,23.171639,121.249378,0.999641
C0V840,鳳鼻頭,2025-11-17,22.5083,120.3591,0.7457096
C0X140,西港,2025-11-17,23.125608,120.203108,0.84947467
C0TA20,加灣,2025-11-17,24.082025,121.608944,0.99996656
C0V530,阿蓮,2025-11-17,22.883208,120.327508,0.7867194
C0FB30,八仙山苗圃,2025-11-17,24.192719,121.001366,0.9998942
C0E791,卓蘭,2025-11-17,24.3126,120.8244,0.96637523
C0R520,崁頂,2025-11-17,22.514781,120.506914,0.8681344
C0R341,牡丹,2025-11-17,22.130036,120.792639,0.9996156
C0R930,萬丹,2025-11-17,22.5885,120.4851,0.8735019
C0S760,紅石,2025-11-17,23.069131,121.126219,5.3508803e-08
C0C790,東眼山,2025-11-17,24.8284,121.40888,1.8351397e-05
C0UA10,鴛鴦湖,2025-11-17,24.590269,121.412228,4.137412e-08
C0R800,丹路,2025-11-17,22.204481,120.750989,0.9837483
C0G920,永靖,2025-11-17,23.924703,120.547533,0.9947089
C1A630,下盆,2025-11-17,24.771003,121.538622,0.9999826
C0UA30,白嶺,2025-11-17,24.527819,121.519031,1.2096253e-07
C0R650,竹田,2025-11-17,22.58486,120.54344,0.87112916
C1C510,水尾,2025-11-17,24.940081,121.087161,0.997591
C0F9X0,大雅(中科園區),2025-11-17,24.21528,120.62445,0.9999796
C0SB60,白守蓮,2025-11-17,23.126769,121.401914,0.8897008
C0O970,虎頭埤,2025-11-17,23.021375,120.347878,0.8236896
C0C730,中大臨海站,2025-11-17,24.966126,121.008581,0.9988972
C0X250,新營,2025-11-17,23.310689,120.316681,0.84416676
C0V700,三民,2025-11-17,22.645017,120.311233,0.75551534
C0U870,大礁溪,2025-11-17,24.791042,121.675047,0.0012216996
C0E870,高鐵苗栗,2025-11-17,24.60725,120.826094,0.9999775
C0TA30,鹽寮,2025-11-17,23.845606,121.592664,0.99996656
C0M860,新美,2025-11-17,23.338017,120.683169,0.99944574
C1E701,八卦,2025-11-17,24.491756,120.927619,0.99964255
C0I420,國姓,2025-11-17,24.037803,120.855072,0.99589324
C0S960,香蘭,2025-11-17,22.587569,120.993375,0.3859589
467620,蘭嶼,2025-11-17,22.0369,121.55843,0.9991898
C0R260,春日,2025-11-17,22.370361,120.628306,0.9137424
C0Z210,瑞穗,2025-11-17,23.5239,121.39021,0.99997765
C0M820,達邦,2025-11-17,23.453994,120.749517,0.15614346
C0V860,南寮,2025-11-17,22.7616,120.2339,0.7446029
C0G740,大城,2025-11-17,23.852487,120.320935,0.99924046
C0R920,塭仔,2025-11-17,22.4169,120.5197,0.86452985
C0R470,高樹,2025-11-17,22.826389,120.600806,0.99949855
C0R680,佳樂水,2025-11-17,21.993578,120.861633,0.9988781
C0D360,梅花,2025-11-17,24.678347,121.208558,0.99999034
C0Z190,富世,2025-11-17,24.14743,121.6297,0.99986887
C0AI10,屈尺,2025-11-17,24.92184,121.54475,0.99217623
C0SB80,長濱漁港,2025-11-17,23.313644,121.459994,0.94434315
C0TA50,和仁,2025-11-17,24.241394,121.712472,0.9998736
C0V910,大樹,2025-11-17,22.684645,120.432803,0.9974417
C0G900,線西,2025-11-17,24.143358,120.443536,0.9999776
C0M700,竹崎,2025-11-17,23.526178,120.555508,0.9941908
C0C720,竹圍,2025-11-17,25.112692,121.239824,0.99485856
C0F9P0,清水,2025-11-17,24.312297,120.562242,0.9999774
C0Z150,吉安光華,2025-11-17,23.930925,121.595153,0.99996454
C0FA80,小雪山天池,2025-11-17,24.28025,121.02627,1.9799486e-08
467300,東吉島,2025-11-17,23.25727,119.66762,0.99974465
C1D640,外坪(五指山),2025-11-17,24.644447,121.090961,0.9999294
C0F9O0,潭子,2025-11-17,24.213106,120.703933,0.9998676
C0E780,銅鑼,2025-11-17,24.489681,120.790853,0.99987537
C0E830,苑裡,2025-11-17,24.439714,120.653053,0.99997765
467270,田中,2025-11-17,23.873803,120.581286,0.9715035
C0SA10,檳榔四格山,2025-11-17,22.810031,121.109308,0.9998828
C0F970,大坑,2025-11-17,24.173142,120.722289,0.999887
C0A931,三和,2025-11-17,25.233153,121.595236,0.9094667
C0I010,廬山,2025-11-17,24.033311,121.181808,4.4259867e-08
C0R860,鼻頭,2025-11-17,22.1043,120.8979,0.99687386
C0UB20,壯圍,2025-11-17,24.7359,121.8163,0.9828301
C0R790,九棚,2025-11-17,22.14195,120.889281,0.98597145
C0W110,東莒,2025-11-17,25.9652,119.98069,0.9994865
C0S830,長濱,2025-11-17,23.286817,121.411975,0.99964154
C0UB90,太平山莊,2025-11-17,24.494171,121.536209,4.828045e-08
C0E810,西湖,2025-11-17,24.562947,120.7485,0.99991417
C0O840,王爺宮,2025-11-17,23.222064,120.40085,0.9970888
C0T9G0,鳳林山,2025-11-17,23.735269,121.420131,4.3816108e-05
C0X080,佳里,2025-11-17,23.173039,120.145086,0.853167
C0FB70,大甲溪埔,2025-11-17,24.370625,120.620067,0.99997795
C0Z310,清水斷崖,2025-11-17,24.218294,121.689142,0.99985427
C0M680,太保,2025-11-17,23.455062,120.331455,0.88870966
C0AD10,八里,2025-11-17,25.150211,121.403947,0.9947051
C0K440,二崙,2025-11-17,23.772797,120.408944,0.9642691
C1A760,坪林交控,2025-11-17,24.94284,121.713442,0.9999652
C0F9N0,大里,2025-11-17,24.092464,120.701378,0.9786322
C0SA90,達仁林場,2025-11-17,22.264347,120.823972,0.99979246
C0R890,山海,2025-11-17,21.9878,120.7091,0.9989242
C0T9A0,月眉山,2025-11-17,23.809928,121.539828,0.00065012096
C0AC70,信義,2025-11-17,25.037822,121.564597,0.99428964
C0K560,棋山,2025-11-17,23.68645,120.603417,0.99027485
C0M880,好美里,2025-11-17,23.3364,120.138,0.853167
C0T9E0,大坑,2025-11-17,23.880628,121.581981,0.024313208
C0K530,臺西,2025-11-17,23.701547,120.197559,0.99925834
C0AJ50,水湳洞,2025-11-17,25.123695,121.862238,0.9942964
C0AI20,白沙灣,2025-11-17,25.283128,121.519058,0.9942964
C0A860,大坪,2025-11-17,25.165914,121.632969,0.9999941
C0U950,鶯子嶺,2025-11-17,24.89754,121.79244,5.7746897e-06
C0O900,善化,2025-11-17,23.112883,120.297219,0.7634225
C0K550,蔦松,2025-11-17,23.514319,120.229736,0.8986824
C0E590,通霄,2025-11-17,24.471892,120.704622,0.9999124
C0A550,泰平,2025-11-17,24.971197,121.823711,0.99999386
C0I360,水里,2025-11-17,23.812553,120.849792,0.99978286
C0R830,高士,2025-11-17,22.121825,120.836781,0.9952315
C0AJ20,野柳,2025-11-17,25.20703,121.690021,0.99469113
C0B060,暖暖,2025-11-17,25.0957,121.7403,0.9908439
C0V360,內門,2025-11-17,22.975481,120.466769,0.9994172
C0R850,林邊,2025-11-17,22.4634,120.5339,0.8682265
C0E930,龍鳳,2025-11-17,24.700034,120.859125,0.99992126
C0U910,冬山,2025-11-17,24.63373,121.7937,0.9835145
C0M750,布袋,2025-11-17,23.380878,120.167789,0.89906293
C0X170,關廟,2025-11-17,22.963017,120.327797,0.80092573
C0V720,林園,2025-11-17,22.507747,120.394511,0.8684454
C0D690,外湖,2025-11-17,24.917735,120.968711,0.9988972
C0C750,新興坑尾,2025-11-17,25.0061,121.0971,0.99819785
C0S790,金崙,2025-11-17,22.538122,120.966875,0.99507934
C0AH90,福山植物園,2025-11-17,24.760717,121.58135,0.99994755
C0I540,奇萊稜線,2025-11-17,24.109231,121.326456,3.205155e-08
C0M850,表湖,2025-11-17,23.24186,120.64166,0.9930117
C0S770,大溪山,2025-11-17,22.478475,120.943325,0.9998057
C0AG80,中和,2025-11-17,24.991622,121.491792,0.9942467
C0T790,大禹嶺,2025-11-17,24.186117,121.316086,2.140149e-08
C0T9B0,水源,2025-11-17,23.991861,121.537169,0.00017260433
C0R840,牡丹池山,2025-11-17,22.168389,120.841225,0.99979985
467571,新竹,2025-11-17,24.827853,121.014219,0.9999148
C0Z290,赤柯山,2025-11-17,23.36893,121.38293,3.9498934e-07
C0X280,將軍,2025-11-17,23.214999,120.13577,0.8530336
C0S690,太麻里,2025-11-17,22.60902,120.98533,0.9948852
C0U880,北關,2025-11-17,24.9072,121.8734,0.9949875
C0G810,埔心,2025-11-17,23.947633,120.525456,0.99502987
C0U970,大福,2025-11-17,24.80064,121.81389,0.97943246
C1E670,南礦,2025-11-17,24.538278,121.002836,0.27170974
C0M520,東後寮,2025-11-17,23.369908,120.248065,0.8495886
C1E461,松安,2025-11-17,24.397972,120.986022,0.008803296
C0A640,石碇,2025-11-17,24.993969,121.662917,0.9999657
C0F9Y0,桃山,2025-11-17,24.432739,121.303808,3.859936e-08
C0U940,羅東,2025-11-17,24.68184,121.74934,0.98930204
C0M650,朴子,2025-11-17,23.43463,120.23902,0.8958406
C0FB40,中橫21.6k,2025-11-17,24.2499,121.1455,1.3743238e-07
C0G820,田尾,2025-11-17,23.901669,120.509389,0.9949967
C0S730,綠島,2025-11-17,22.6672,121.47533,0.9968483
C0E430,南庄,2025-11-17,24.601775,121.000214,0.9983065
466920,臺北,2025-11-17,25.037658,121.514853,0.99469113
C0R600,舊泰武,2025-11-17,22.588194,120.664944,0.18803361
466910,鞍部,2025-11-17,25.182586,121.529731,0.9917095
C0R270,琉球嶼,2025-11-17,22.332244,120.362236,0.9243347
C0G620,芬園,2025-11-17,24.015678,120.6213,0.9927873
C0Z270,蕃薯寮,2025-11-17,23.73835,121.540108,0.97541016
C0FB10,出雲山苗圃,2025-11-17,24.23105,120.90475,0.99984294
C0F9Q0,外埔,2025-11-17,24.347817,120.705686,0.9998814
C0K580,高鐵雲林,2025-11-17,23.737456,120.417944,0.9642691
C0U990,員山,2025-11-17,24.74435,121.72247,0.98835605
C0V770,大社,2025-11-17,22.730306,120.346639,0.75831825
C0X120,麻豆,2025-11-17,23.183289,120.248611,0.84947467
C0C670,龍潭,2025-11-17,24.870056,121.221389,0.99799526
C0D680,香山濕地,2025-11-17,24.783581,120.914988,0.99991876
C0S980,勝林山,2025-11-17,22.430439,120.8938,0.999933
C0V730,大寮,2025-11-17,22.605614,120.395717,0.882196
C0R570,麟洛,2025-11-17,22.65078,120.52719,0.99752784
C0G9B0,和美,2025-11-17,24.105169,120.492131,0.9952538
C0X290,北門,2025-11-17,23.267772,120.125481,0.8530968
C0D650,湖口,2025-11-17,24.904794,121.043628,0.9978928
C0E420,竹南,2025-11-17,24.708978,120.888897,0.999915
C0U780,五結,2025-11-17,24.68637,121.79794,0.9835145
C0R130,阿禮,2025-11-17,22.742908,120.743678,0.99969107
C0X100,臺南市北區,2025-11-17,23.010394,120.194228,0.76232815
C0S920,金峰嘉蘭,2025-11-17,22.594789,120.960825,0.8656647
C0V490,新興,2025-11-17,22.627422,120.298803,0.75367236
C0F9K0,大安,2025-11-17,24.345061,120.588025,0.99997777
467290,古坑,2025-11-17,23.633639,120.551889,0.9868615
C0V440,鳳山,2025-11-17,22.646653,120.356122,0.76483524
C0E740,造橋,2025-11-17,24.637056,120.864778,0.9999175
C0R100,尾寮山,2025-11-17,22.833111,120.683889,0.9996901
467990,馬祖,2025-11-17,26.169467,119.923158,0.999979
C0D580,寶山,2025-11-17,24.735006,121.025192,0.99914944
C0AI30,三重,2025-11-17,25.057328,121.500629,0.9949875
C0AH00,汐止,2025-11-17,25.066881,121.658778,0.99469113
466881,新北,2025-11-17,24.959207,121.525196,0.9937788
C0W130,花嶼,2025-11-17,23.40007,119.32276,0.99958247
C0A950,鼻頭角,2025-11-17,25.129036,121.923372,0.9846687
C0K470,林內,2025-11-17,23.748675,120.609642,0.9851303
C0Z320,清水林道,2025-11-17,23.27125,121.188272,0.00025213888
C0R760,南仁湖,2025-11-17,22.084681,120.863353,0.9964195
C0M670,大林,2025-11-17,23.600616,120.45841,0.88247406
C0M800,茶山,2025-11-17,23.299075,120.664767,0.9997466
C0A9C0,天母,2025-11-17,25.117494,121.537169,0.9942467
C0S910,蘭嶼燈塔,2025-11-17,22.081197,121.503117,0.99913657
C0B050,八斗子,2025-11-17,25.144754,121.79167,0.99502695
C0U900,內城,2025-11-17,24.71813,121.68766,0.9947304
C0X320,柳營,2025-11-17,23.253328,120.375253,0.88686574
C0M790,新港,2025-11-17,23.553269,120.345728,0.8951271
C0F9T0,西屯,2025-11-17,24.179494,120.641275,0.9999788
C0E950,松安,2025-11-17,24.39792,120.98599,0.008803296
C0SA30,都歷,2025-11-17,23.020333,121.323642,0.99302465
C0C620,蘆竹,2025-11-17,25.084275,121.265767,0.9940616
C0R730,大坪頂,2025-11-17,22.024633,120.69355,0.99823326
C0AJ40,石門,2025-11-17,25.273672,121.601198,0.9811001
C0E750,苗栗,2025-11-17,24.564569,120.824575,0.9999108
C0T870,鯉魚潭,2025-11-17,23.935639,121.508944,0.99997544
C0R350,貓鼻頭,2025-11-17,21.921774,120.7358,0.99888724
C0V660,岡山,2025-11-17,22.797078,120.294958,0.7535245
C0AJ70,田寮,2025-11-17,25.2698,121.4886,0.9946948
C0AI00,五股,2025-11-17,25.07445,121.42728,0.99460953
C0Z280,德武,2025-11-17,23.47426,121.41071,0.9999624
C0R700,枋山,2025-11-17,22.246844,120.661086,0.8684454
C0C460,復興,2025-11-17,24.820208,121.352281,0.9999933
C0M640,中埔,2025-11-17,23.42538,120.5229,0.99429286
C0W140,金沙,2025-11-17,24.488292,118.408778,0.99992883
C0ACA0,新莊,2025-11-17,25.051478,121.446756,0.99472016
C0R220,潮州,2025-11-17,22.534361,120.54,0.87220806
467490,臺中,2025-11-17,24.145736,120.684075,0.9999788
C0UB60,明池,2025-11-17,24.650688,121.475277,2.2077967e-07
C0U960,翠峰湖,2025-11-17,24.510856,121.608044,5.0025935e-08
C0V890,前鎮,2025-11-17,22.5718,120.3117,0.7522324
C0AC80,文山,2025-11-17,25.00235,121.575728,0.9922571
C0F9R0,龍井,2025-11-17,24.184536,120.528972,0.99997747
C0M760,民雄,2025-11-17,23.551754,120.428457,0.8821499
C0UA40,西德山,2025-11-17,24.560647,121.752608,2.502129e-07
C0D550,雪霸,2025-11-17,24.526972,121.11605,3.272419e-08
C0R320,車城,2025-11-17,22.0744,120.716247,0.9989256
C0B020,基隆嶼,2025-11-17,25.19141,121.78391,0.99427515
C0M730,嘉義市東區,2025-11-17,23.457673,120.460531,0.8827791
C0S700,知本,2025-11-17,22.684866,121.005642,0.99979246
C0V760,橋頭,2025-11-17,22.757806,120.30575,0.75367236
C0G960,福寶,2025-11-17,24.0443,120.3814,0.9955526
C0X210,白河,2025-11-17,23.347466,120.414427,0.8757315
C0S810,東河,2025-11-17,22.972672,121.303986,0.97672695
C0R670,楓港,2025-11-17,22.190131,120.692156,0.8685265
C0FA50,霧峰,2025-11-17,24.0419,120.6995,0.99997884
C0UB10,蘇澳,2025-11-17,24.5969,121.8571,0.99987566
C0G950,防潮門,2025-11-17,24.1835,120.4871,0.9999776
C0M740,六腳,2025-11-17,23.492871,120.290625,0.89548504
C0K330,虎尾,2025-11-17,23.719183,120.442036,0.9663064
C0V620,永安,2025-11-17,22.82315,120.236856,0.7522324
C0W200,湖西,2025-11-17,23.596314,119.67275,0.999555
C0SA40,瑞和,2025-11-17,22.974361,121.156697,0.9992758
C0C680,龜山,2025-11-17,25.02846,121.38656,0.999975
C0V450,鳳森,2025-11-17,22.545064,120.392592,0.91335005
C0FA90,小雪山林道,2025-11-17,24.29515,121.03651,2.2885507e-08
C0U720,南山,2025-11-17,24.43742,121.38167,2.278777e-07
C0R560,新園,2025-11-17,22.5434,120.461558,0.8684454
C0U890,三星,2025-11-17,24.66812,121.65302,0.99907386
C0U600,礁溪,2025-11-17,24.817539,121.765608,0.99032706
C0D670,海天一線,2025-11-17,24.831986,120.914438,0.99992126
C0SA00,歷坵,2025-11-17,22.520969,120.89185,0.9998205
C0M710,東石,2025-11-17,23.458927,120.15385,0.8989049
C0M780,鹿草,2025-11-17,23.41134,120.30835,0.88848597
C0U520,雙連埤,2025-11-17,24.753033,121.641303,0.001013016
C0B010,七堵,2025-11-17,25.094819,121.71713,0.99406964
C0R480,長治,2025-11-17,22.693128,120.542622,0.99857885
C1D630,飛鳳山,2025-11-17,24.766464,121.119178,0.9999836
C0S940,石寧山,2025-11-17,23.223772,121.406639,0.9979763
C0K410,北港,2025-11-17,23.573957,120.292802,0.8955813
C0SB70,小港漁港,2025-11-17,23.158558,121.400431,0.9168644
C0F0E0,南湖圈谷,2025-11-17,24.363714,121.444667,5.6328442e-08
467610,成功,2025-11-17,23.097486,121.373428,0.9514424
C0G890,伸港,2025-11-17,24.148933,120.484403,0.99997747
C0T9H0,加路蘭山,2025-11-17,23.682947,121.5274,2.3564046e-06
C0R490,九如,2025-11-17,22.7405,120.490503,0.998079
C0X200,左鎮,2025-11-17,23.056758,120.408522,0.77960205
C0FA60,鞍馬山工作站,2025-11-17,24.267064,121.000793,1.8881634e-08
C0SB50,叭嗡嗡,2025-11-17,23.047062,121.343223,0.9016459
C0C700,中壢,2025-11-17,24.977661,121.256375,0.99662685
C0M690,水上,2025-11-17,23.419734,120.388909,0.8874056
C0V690,鼓山,2025-11-17,22.623325,120.275575,0.7529892
C0O860,大內,2025-11-17,23.11885,120.36083,0.7864595
C0Z200,萬榮,2025-11-17,23.709219,121.420106,0.99997544
C0T9D0,和中,2025-11-17,24.26676,121.74103,0.99987626
C0AJ30,淡水觀海,2025-11-17,25.184591,121.408616,0.99501073
C0V810,左營,2025-11-17,22.67491,120.28491,0.75593114
C0UA70,桃源谷,2025-11-17,24.962606,121.888875,0.0002865149
C0X130,官田,2025-11-17,23.193217,120.315422,0.84421855
C0UA90,石城,2025-11-17,24.980444,121.951214,0.9906112
C1E681,南勢山,2025-11-17,24.421669,120.923831,0.99987185
C0A9F0,內湖,2025-11-17,25.079422,121.57545,0.99469113
C0K291,宜梧,2025-11-17,23.536281,120.169329,0.89906293
C0R780,滿州,2025-11-17,22.024403,120.839892,0.9988426
C0V870,文安,2025-11-17,22.8025,120.2164,0.7457096
C0U650,玉蘭,2025-11-17,24.675286,121.587061,0.010104862
C0R640,東港,2025-11-17,22.46247,120.44074,0.8659061
C0AJ80,板橋,2025-11-17,25.0107,121.4489,0.99428964
C0S660,下馬,2025-11-17,23.150427,121.070312,5.451597e-06
C0UA20,多加屯,2025-11-17,24.368614,121.373189,2.049668e-08
C0E730,頭份,2025-11-17,24.688247,120.912206,0.9999147
C0K480,莿桐,2025-11-17,23.761192,120.502372,0.97112966
C0U980,坪林石牌,2025-11-17,24.86478,121.77396,9.210238e-05
C0T900,西林,2025-11-17,23.8119,121.441458,0.99996454
467350,澎湖,2025-11-17,23.565503,119.563094,0.9993131
C0G800,埔鹽,2025-11-17,24.000394,120.431683,0.99525744
C0H960,草屯,2025-11-17,23.973672,120.68085,0.9999787
C0E920,通霄漁港,2025-11-17,24.498589,120.673876,0.9999776
C0Z330,安通山,2025-11-17,23.290728,121.348528,0.99993557
C0AH10,永和,2025-11-17,25.01125,121.508111,0.994696
C0AK10,太平里,2025-11-17,25.134937,121.364899,0.9946948
C1E480,鳳美,2025-11-17,24.554803,121.034747,0.99998164
C0M530,奮起湖,2025-11-17,23.493903,120.699253,5.069166e-08
C0C590,觀音,2025-11-17,25.027072,121.153317,0.99802154
C0T9M0,靜浦,2025-11-17,23.455167,121.495028,0.9999771
C0AI40,石牌,2025-11-17,25.115597,121.513139,0.99469113
C0G880,二水,2025-11-17,23.810742,120.6173,0.98457205
C0R940,加祿堂,2025-11-17,22.3363,120.6217,0.8685265
C0W220,北竿,2025-11-17,26.220358,119.974881,0.9999615
C0O960,崎頂,2025-11-17,22.959547,120.369317,0.89057124
C0TA40,秀林,2025-11-17,24.302864,121.731144,3.140082e-07
C0S750,向陽,2025-11-17,23.248397,120.986133,1.6870661e-08
C0T9F0,水璉,2025-11-17,23.797131,121.542514,0.9995532
467660,臺東,2025-11-17,22.752211,121.154586,0.9016459
C1D380,新埔,2025-11-17,24.84745,121.03834,0.999355
C0V750,路竹,2025-11-17,22.854997,120.259439,0.7595146
C0N050,蚵寮,2025-11-17,23.301,120.1104,0.8530968
C0UB70,太平山中間站,2025-11-17,24.542003,121.513453,1.653642e-05
C0A940,金山,2025-11-17,25.223628,121.643967,0.99382406
C0W180,七美,2025-11-17,23.219333,119.444892,0.99925095
C0N040,蘆竹溝,2025-11-17,23.2344,120.0961,0.8531833
C0D760,大坪苗圃,2025-11-17,24.5362,121.1108,0.00013378003
C0R880,後壁湖,2025-11-17,21.9457,120.7457,0.99894804
467790,墾丁雷達站,2025-11-17,21.948235,120.808028,0.9987944
C0W190,望安,2025-11-17,23.380564,119.494075,0.99925464
C0Z170,卓溪,2025-11-17,23.3443,121.3029,0.99910855
C0F850,東勢,2025-11-17,24.246428,120.833047,0.98686355
466900,淡水,2025-11-17,25.164889,121.448906,0.99469113
C0I370,魚池,2025-11-17,23.895703,120.94135,0.9998796
C0C630,大溪,2025-11-17,24.882853,121.265547,0.99302363
C0A520,山佳,2025-11-17,24.974944,121.402008,0.9939941
C0I110,竹山,2025-11-17,23.761225,120.688156,0.9967391
C0G660,溪湖,2025-11-17,23.94835,120.479122,0.99509096
C1E451,象鼻,2025-11-17,24.368617,120.940228,0.99986744
C0AC60,三峽,2025-11-17,24.939025,121.369728,0.9984107
C0I490,萬大林道,2025-11-17,23.928228,121.091411,3.3596844e-08
C0U770,南澳,2025-11-17,24.44935,121.81022,0.99987566
C0A980,社子,2025-11-17,25.109508,121.469681,0.99502695
C0V800,六龜,2025-11-17,22.997889,120.633583,0.99947256
C0E570,白沙屯,2025-11-17,24.549447,120.696803,0.9999776
C0FA40,臺中電廠,2025-11-17,24.2146,120.4907,0.99997747
C0H9C0,合歡山,2025-11-17,24.143442,121.272547,2.9238144e-08
C0X060,下營,2025-11-17,23.22695,120.256261,0.8530336
C0U860,頭城,2025-11-17,24.85323,121.8308,0.9846687
C0R580,南州,2025-11-17,22.48591,120.50274,0.8659061
C0D430,峨眉,2025-11-17,24.6905,121.017189,0.9993273
C0G780,秀水,2025-11-17,24.03405,120.503869,0.99522185
C0S900,蘭嶼高中,2025-11-17,22.04909,121.51214,0.9991695
C0W160,烏坵,2025-11-17,24.9944,119.44956,0.9992426
C0R870,興海,2025-11-17,21.9752,120.8439,0.9989382
C0R140,瑪家,2025-11-17,22.682903,120.686639,0.9697943
C0A530,坪林,2025-11-17,24.938183,121.70975,0.99998873
C0X260,後壁,2025-11-17,23.366358,120.362326,0.8482838
C0Z230,和平,2025-11-17,24.30717,121.77007,0.99987566
C0G770,福興,2025-11-17,24.041289,120.437669,0.99553823
C0H9A0,神木村,2025-11-17,23.532742,120.843667,3.6439687e-08
C0I460,南投,2025-11-17,23.911469,120.687331,0.9999788
C0I480,梅峰,2025-11-17,24.085272,121.173572,1.9227288e-08
C0AH30,五分山,2025-11-17,25.07125,121.780794,0.00018418439
C0FA10,松柏,2025-11-17,24.429115,120.617482,0.9999776
C0C650,平鎮,2025-11-17,24.897503,121.214636,0.9922571
C0S930,延平,2025-11-17,22.902581,121.084058,0.99959844
C0UA60,樟樹山,2025-11-17,24.41393,121.78325,0.00012010681
C0V630,茄萣,2025-11-17,22.906642,120.182608,0.76244485
466940,基隆,2025-11-17,25.133314,121.740475,0.9949942
C0X050,東河,2025-11-17,23.296598,120.385608,0.88686574
C0R770,保力,2025-11-17,22.071122,120.764111,0.9986862
C0X240,關子嶺,2025-11-17,23.331169,120.508025,0.99968386
C0I380,集集,2025-11-17,23.828206,120.801467,0.99970686
466990,花蓮,2025-11-17,23.975128,121.613275,0.9999648
C0FB20,雪山橋,2025-11-17,24.23192,120.9786,2.0220904e-08
C0Z250,瑞穗林道,2025-11-17,23.49284,121.30688,0.0022457424
C0D590,新豐,2025-11-17,24.87068,120.97721,0.99914944
C0A870,五指山,2025-11-17,25.132153,121.608692,0.9999328
C0UA50,西帽山,2025-11-17,24.555361,121.802628,7.519721e-05
C0X160,仁德,2025-11-17,22.968258,120.257689,0.77103096
C0W120,西嶼,2025-11-17,23.5626,119.468436,0.99929744
C0G650,員林,2025-11-17,23.946503,120.585597,0.9949899
C0AD50,鶯歌,2025-11-17,24.951533,121.346294,0.9980637
C0S990,山豬窟,2025-11-17,22.318619,120.857372,0.9998148
C0X190,安平,2025-11-17,22.993161,120.152181,0.7625164
C0K400,斗六,2025-11-17,23.720583,120.541127,0.97340983
C0O830,北寮,2025-11-17,23.079561,120.495008,0.99968666
C1D410,白蘭,2025-11-17,24.579364,121.079947,0.009522262
C0S970,加津林,2025-11-17,22.416211,120.926942,0.3859589
C0D700,關西,2025-11-17,24.7977,121.1732,0.99574137
C0M810,里佳,2025-11-17,23.389125,120.716647,4.976954e-08
C0U750,龜山島,2025-11-17,24.841667,121.953133,0.8160617
C0R810,內獅,2025-11-17,22.305064,120.642986,0.8684454
467530,阿里山,2025-11-17,23.508208,120.813242,1.7196975e-08
C1E691,南湖,2025-11-17,24.40135,120.837533,0.99995804
C0FA30,梧棲,2025-11-17,24.256003,120.523381,0.9999774
C0AK30,硬漢嶺,2025-11-17,25.136097,121.426372,0.9999859
C0F9V0,新社,2025-11-17,24.200172,120.815806,0.9996352
C0H890,埔里,2025-11-17,23.972169,120.952425,0.9966036
C0R690,墾丁,2025-11-17,21.966756,120.810269,0.99762887
C0F0D0,審馬陣,2025-11-17,24.381675,121.4203,6.5176465e-08
C0R820,白鷺,2025-11-17,22.454275,120.666219,0.9996937
C0FB00,大雪山,2025-11-17,24.254668,121.007374,1.8824855e-08
C0E940,雪見,2025-11-17,24.42595,121.01347,3.2455226e-08
C0O990,媽廟,2025-11-17,22.99175,120.293525,0.7781728
C0D480,打鐵坑,2025-11-17,24.849664,121.150789,0.9978937
C0Z220,和平林道,2025-11-17,24.343922,121.656317,1.722285e-05
C0TA10,花蓮漁港,2025-11-17,23.995322,121.638331,0.99996
C1E711,馬拉邦山,2025-11-17,24.367306,120.901656,0.9847936
C0SB20,富岡,2025-11-17,22.792467,121.192669,0.9173128
C0D560,竹東,2025-11-17,24.767147,121.057881,0.9991915
C0F9U0,南屯,2025-11-17,24.137006,120.637969,0.9940514
C0M720,番路,2025-11-17,23.464657,120.554156,0.999119
C0F0A0,雪山圈谷,2025-11-17,24.388594,121.236339,4.451767e-08
C1A9N0,四十份,2025-11-17,24.934158,121.593283,0.9999937
C0U760,東澳,2025-11-17,24.52196,121.83318,0.999873
C0X230,鹽水,2025-11-17,23.272621,120.247641,0.8495886
C0R950,萬隆國小,2025-11-17,22.507667,120.587817,0.8991778
467540,大武,2025-11-17,22.35572,120.90374,0.32906282
C0V370,古亭坑,2025-11-17,22.893178,120.401947,0.7915552
C0SA80,土坂,2025-11-17,22.453108,120.887572,0.9705449
C0R160,鹽埔,2025-11-17,22.739558,120.530778,0.99853075
C0AC40,大屯山,2025-11-17,25.175675,121.522408,0.019252326
466850,五分山雷達站,2025-11-17,25.071182,121.781205,0.00014160796
C1AI50,國三N016K,2025-11-17,25.034164,121.619664,0.99302673
C1E601,南勢,2025-11-17,24.572486,120.734842,0.9998977
C0O980,新市,2025-11-17,23.061614,120.298197,0.77103096
C0K420,西螺,2025-11-17,23.800407,120.467394,0.96647257
C0Z050,佳心,2025-11-17,23.34567,121.21316,1.4772324e-06
C0AD30,蘆洲,2025-11-17,25.086594,121.472331,0.9947114
C0V610,梓官,2025-11-17,22.760558,120.267211,0.7529892
C0UA80,大溪漁港,2025-11-17,24.941801,121.902955,0.98835605
C1AI60,國一39K邊坡,2025-11-17,25.064361,121.383836,0.9999563
C0W150,金寧,2025-11-17,24.457703,118.328989,0.99992174
C0R960,內埔,2025-11-17,22.608483,120.570714,0.8831631
C0AH40,平等,2025-11-17,25.129142,121.577086,0.99999374
C0R540,佳冬,2025-11-17,22.419456,120.552375,0.8677136
466950,彭佳嶼,2025-11-17,25.627975,122.079744,0.9997853
C0A890,雙溪,2025-11-17,25.036003,121.864242,0.99286586
C0C480,桃園,2025-11-17,24.992425,121.323172,0.99734163
C0AH50,林口,2025-11-17,25.072181,121.38084,0.999982
C0F9S0,烏日,2025-11-17,24.107058,120.624103,0.9947089
C0C490,八德,2025-11-17,24.928708,121.283289,0.99566203
C0R190,赤山,2025-11-17,22.592333,120.614306,0.88553506
C0T820,天祥,2025-11-17,24.179597,121.495639,0.00014878188
C0V820,小林,2025-11-17,23.148408,120.63325,0.99975634
C0E850,大河,2025-11-17,24.618069,120.948578,0.99990344
C0N020,城西,2025-11-17,23.0568,120.0956,0.8530336
C0R280,檳榔,2025-11-17,22.076078,120.836777,0.99769425
C0F9L0,后里,2025-11-17,24.310436,120.729725,0.9859343
467441,高雄,2025-11-17,22.730432,120.312516,0.75593114
C0Z180,新城,2025-11-17,24.040486,121.604878,0.9999695
C0D540,橫山,2025-11-17,24.71116,121.11693,0.99836856
C1D420,太閣南,2025-11-17,24.632808,121.160575,2.1359206e-07
C0G730,二林,2025-11-17,23.903325,120.376081,0.99522185
C0Z070,舞鶴,2025-11-17,23.46811,121.37407,0.9999062
C0B040,大武崙,2025-11-17,25.166676,121.706993,0.99382406
C0I080,信義,2025-11-17,23.689694,120.851036,0.9999182
C0D750,樂山林道6k,2025-11-17,24.49999,121.08773,1.8804759e-08
C0Z160,鳳林,2025-11-17,23.746114,121.453411,0.9999781
C0UB80,翠峰林道6K,2025-11-17,24.49773,121.568625,2.0904011e-08
C0V210,復興,2025-11-17,23.222403,120.806089,0.9840584
C0H990,昆陽,2025-11-17,24.121322,121.273642,2.4637897e-08
C0R741,獅子,2025-11-17,22.202308,120.705236,0.9151308
C0S710,鹿野,2025-11-17,22.917711,121.122994,0.9998872
C0I530,小奇萊,2025-11-17,24.131764,121.295717,2.5487715e-08
C0FA70,大雪山埡口,2025-11-17,24.26867,121.03062,1.9769336e-08
C0Z080,富源,2025-11-17,23.587642,121.378225,0.99286866
C0SB10,美和,2025-11-17,22.682078,121.060236,0.89111525
C0I520,玉山風口,2025-11-17,23.470489,120.955994,3.530455e-08
C0X110,臺南市南區,2025-11-17,22.961189,120.188378,0.76285726
C0V680,仁武,2025-11-17,22.701083,120.347722,0.75831825
C0R900,竹坑,2025-11-17,22.1385,120.7022,0.8685265
C0K250,崙背,2025-11-17,23.75555,120.318925,0.99924046
C0G860,社頭,2025-11-17,23.897647,120.5862,0.99468863
C0X150,安定,2025-11-17,23.102614,120.227839,0.76244485
C0R590,里港,2025-11-17,22.77919,120.49459,0.99852496
C0E610,馬都安,2025-11-17,24.451272,120.930192,0.9999473
C0E550,明德,2025-11-17,24.583486,120.885411,0.9999059
C0R150,三地門,2025-11-17,22.709889,120.639944,0.99964726
C0G910,花壇,2025-11-17,24.032076,120.549461,0.99502987
C1D400,鳥嘴山,2025-11-17,24.71909,121.28387,0.99994254
C0K500,元長,2025-11-17,23.64981,120.315024,0.99924123
C0F0B0,石岡,2025-11-17,24.276061,120.777644,0.99589324
C0SA20,金崙山,2025-11-17,22.567419,120.959667,0.99993443
C0V350,溪埔,2025-11-17,22.738578,120.446797,0.99752784
C0M660,溪口,2025-11-17,23.604131,120.403569,0.8883436
