站號,站名,日期,lat,lon,BlastGRU-TW
12J990,口湖工作站,2025-01-13,23.589978,120.180394,0.0006147247
12Q970,東港工作站,2025-01-13,22.479997,120.466058,0.020287426
12Q980,恆春工作站,2025-01-13,22.079678,120.714425,9.220159e-05
466881,新北,2025-01-13,24.9593,121.52,0.0016880175
466900,淡水,2025-01-13,25.164889,121.448906,0.001347567
466920,臺北,2025-01-13,25.037658,121.514853,0.001874272
466940,基隆,2025-01-13,25.133314,121.740475,0.009793319
466990,花蓮,2025-01-13,23.975128,121.613275,0.0051693325
467050,新屋,2025-01-13,25.006744,121.047486,0.0003433604
467080,宜蘭,2025-01-13,24.763975,121.756528,0.005677569
467270,田中,2025-01-13,23.873803,120.581286,0.0024934236
467280,後龍,2025-01-13,24.648563,120.831834,0.00053238607
467290,古坑,2025-01-13,23.633639,120.551889,0.0062955823
467300,東吉島,2025-01-13,23.25695,119.667467,0.00050840434
467350,澎湖,2025-01-13,23.565503,119.563094,0.00049691455
467410,臺南,2025-01-13,22.993239,120.204772,0.0011230754
467420,永康,2025-01-13,23.038386,120.2367,0.0033974096
467441,高雄,2025-01-13,22.7304,120.3125,0.008887709
467480,嘉義,2025-01-13,23.495925,120.432906,0.0017326634
467490,臺中,2025-01-13,24.145736,120.684075,0.0024676837
467540,大武,2025-01-13,22.355675,120.903789,0.053425383
467571,新竹,2025-01-13,24.827853,121.014219,0.0004774245
467590,恆春,2025-01-13,22.003897,120.746339,0.0025852006
467610,成功,2025-01-13,23.097486,121.373428,0.0013050105
467620,蘭嶼,2025-01-13,22.036969,121.558339,0.00044948488
467660,臺東,2025-01-13,22.752211,121.154586,0.007087544
467790,墾丁雷達站,2025-01-13,21.948235,120.808028,0.0010283107
72AI40,桃改樹林分場,2025-01-13,24.944503,121.386972,0.0013332462
72C440,桃園農改,2025-01-13,24.950944,121.030583,0.00033647995
72C440,桃園農改場,2025-01-13,24.950944,121.030583,0.0003364801
72D680,桃改新埔分場,2025-01-13,24.834444,121.066111,0.00061194313
72G600,臺中農改,2025-01-13,24.003028,120.534389,0.0009093354
72G600,臺中農改場,2025-01-13,24.003028,120.534389,0.0009093354
72K220,南改斗南分場,2025-01-13,23.634556,120.477333,0.0026789785
72M360,南改義竹分場,2025-01-13,23.360694,120.279361,0.0008059685
72M700,南改鹿草分場,2025-01-13,23.416869,120.283061,0.0009229902
72N100,臺南農改,2025-01-13,23.0605,120.342194,0.00576655
72N100,臺南農改場,2025-01-13,23.0605,120.342194,0.005766553
72N240,七股研究中心,2025-01-13,23.081672,120.062894,0.00078292796
72Q010,高雄農改,2025-01-13,22.709333,120.525889,0.015839934
72Q010,高雄農改場,2025-01-13,22.709333,120.525889,0.015839934
72S200,東改班鳩分場,2025-01-13,22.829528,121.077694,0.0012474392
72S590,東改賓朗果園,2025-01-13,22.813889,121.071278,0.0010791091
72T250,花蓮農改,2025-01-13,23.975222,121.563889,0.004170906
72T250,花蓮農改場,2025-01-13,23.975222,121.563889,0.004170906
72U480,花改蘭陽分場,2025-01-13,24.686306,121.716583,0.046923596
72V140,高改旗南分場,2025-01-13,22.857861,120.516667,0.04066816
82A750,茶改北部分場,2025-01-13,24.955778,121.631222,0.0016662547
82C160,茶改場,2025-01-13,24.908472,121.185333,0.0005711377
82H840,茶改南部分場,2025-01-13,23.762528,120.7405,0.0077909506
82S580,茶改東部分場,2025-01-13,22.907694,121.130139,0.0013344212
A2C560,農工中心,2025-01-13,24.985917,121.239833,0.0006851635
A2K360,水試臺西試驗場,2025-01-13,23.717231,120.190522,0.000676861
A2K570,古坑花卉中心,2025-01-13,23.63353,120.55239,0.006295579
A2K630,臺大雲林校區,2025-01-13,23.730628,120.423903,0.0011745285
A2N290,臺南蘭花園區,2025-01-13,23.340258,120.379661,0.0017640676
B2E890,畜試北區分所,2025-01-13,24.527806,120.770972,0.0005247444
B2N890,畜產試驗所,2025-01-13,23.058972,120.336406,0.0057934644
B2N890,畜試所,2025-01-13,23.058972,120.336406,0.0057934644
B2Q810,畜試南區分所,2025-01-13,21.945583,120.802167,0.0011555501
B2U990,畜試東區分所,2025-01-13,24.669039,121.832561,0.22343762
C0A520,山佳,2025-01-13,24.974944,121.402008,0.0010659209
C0A530,坪林,2025-01-13,24.938183,121.70975,0.002707671
C0A550,泰平,2025-01-13,24.971197,121.823711,0.003037434
C0A570,桶後,2025-01-13,24.848222,121.597992,0.0061236583
C0A640,石碇,2025-01-13,24.993969,121.662917,0.0013985411
C0A770,科教館,2025-01-13,25.096356,121.516507,0.0020947573
C0A860,大坪,2025-01-13,25.165914,121.632969,0.0012973215
C0A890,雙溪,2025-01-13,25.036003,121.864242,0.003150078
C0A931,三和,2025-01-13,25.233153,121.595236,0.002192371
C0A940,金山,2025-01-13,25.223628,121.643967,0.010028827
C0A950,鼻頭角,2025-01-13,25.129036,121.923372,0.0014971136
C0A970,三貂角,2025-01-13,25.007606,122.002058,0.0094054835
C0A980,社子,2025-01-13,25.109508,121.469681,0.0014660731
C0A9C0,天母,2025-01-13,25.117494,121.537169,0.0019836815
C0A9F0,內湖,2025-01-13,25.079422,121.57545,0.0018742739
C0AC60,三峽,2025-01-13,24.939025,121.369728,0.0012765487
C0AC70,信義,2025-01-13,25.037822,121.564597,0.001874272
C0AC80,文山,2025-01-13,25.00235,121.575728,0.0015147519
C0ACA0,新莊,2025-01-13,25.051478,121.446756,0.0015555398
C0AD10,八里,2025-01-13,25.150211,121.403947,0.0012021924
C0AD30,蘆洲,2025-01-13,25.086594,121.472331,0.002069747
C0AD40,土城,2025-01-13,24.973208,121.445169,0.0017919034
C0AD50,鶯歌,2025-01-13,24.951533,121.346294,0.001199325
C0AG80,中和,2025-01-13,24.991622,121.491792,0.0017919034
C0AH00,汐止,2025-01-13,25.066881,121.658778,0.001874272
C0AH10,永和,2025-01-13,25.01125,121.508111,0.0018778034
C0AH40,平等,2025-01-13,25.129142,121.577086,0.0011345056
C0AH50,林口,2025-01-13,25.072181,121.38084,0.0007054587
C0AH70,松山,2025-01-13,25.04871,121.55042,0.0018742739
C0AH80,深坑,2025-01-13,25.002703,121.628328,0.0015124717
C0AI00,五股,2025-01-13,25.07445,121.42728,0.0007725927
C0AI10,屈尺,2025-01-13,24.92184,121.54475,0.0038034047
C0AI20,白沙灣,2025-01-13,25.283128,121.519058,0.0015518279
C0AI30,三重,2025-01-13,25.057328,121.500629,0.0019321974
C0AI40,石牌,2025-01-13,25.115597,121.513139,0.002053166
C0AJ20,野柳,2025-01-13,25.20703,121.690021,0.010032415
C0AJ30,淡水觀海,2025-01-13,25.184591,121.408616,0.0024193206
C0AJ40,石門,2025-01-13,25.273672,121.601198,0.0009888046
C0AJ50,水湳洞,2025-01-13,25.123695,121.862238,0.0037106974
C0AJ60,六塊厝,2025-01-13,25.24,121.4481,0.0016488362
C0AJ70,田寮,2025-01-13,25.2698,121.4886,0.0016008501
C0AJ80,板橋,2025-01-13,25.0107,121.4489,0.0018778034
C0AJ90,澳底,2025-01-13,25.0552,121.9253,0.0039042744
C0B010,七堵,2025-01-13,25.094819,121.71713,0.0026931087
C0B020,基隆嶼,2025-01-13,25.19141,121.78391,0.0012403978
C0B040,大武崙,2025-01-13,25.166676,121.706993,0.007943137
C0B050,八斗子,2025-01-13,25.144754,121.79167,0.010357741
C0B060,暖暖,2025-01-13,25.0957,121.7403,0.0021818588
C0C460,復興,2025-01-13,24.820208,121.352281,0.0012077648
C0C480,桃園,2025-01-13,24.992425,121.323172,0.00088824064
C0C490,八德,2025-01-13,24.928708,121.283289,0.0006964364
C0C590,觀音,2025-01-13,25.027072,121.153317,0.0003887713
C0C620,蘆竹,2025-01-13,25.084275,121.265767,0.00040418142
C0C630,大溪,2025-01-13,24.882853,121.265547,0.00080880435
C0C650,平鎮,2025-01-13,24.897503,121.214636,0.0006382041
C0C660,楊梅,2025-01-13,24.912375,121.143047,0.00060641894
C0C670,龍潭,2025-01-13,24.870056,121.221389,0.00074216304
C0C680,龜山,2025-01-13,25.02846,121.38656,0.00047964774
C0C700,中壢,2025-01-13,24.977661,121.256375,0.0007098148
C0C710,大溪永福,2025-01-13,24.892936,121.324975,0.0015972985
C0C720,竹圍,2025-01-13,25.112692,121.239824,0.00057816226
C0C730,中大臨海站,2025-01-13,24.966126,121.008581,0.00035149438
C0C740,觀音工業區,2025-01-13,25.064764,121.114856,0.00036087274
C0C750,新興坑尾,2025-01-13,25.0061,121.0971,0.0003925302
C0D430,峨眉,2025-01-13,24.6905,121.017189,0.0003593642
C0D480,打鐵坑,2025-01-13,24.849664,121.150789,0.0007378117
C0D540,橫山,2025-01-13,24.71116,121.11693,0.00066593935
C0D560,竹東,2025-01-13,24.767147,121.057881,0.00051130913
C0D580,寶山,2025-01-13,24.735006,121.025192,0.0005300968
C0D590,新豐,2025-01-13,24.87068,120.97721,0.0003968439
C0D650,湖口,2025-01-13,24.904794,121.043628,0.00044064008
C0D660,新竹市東區,2025-01-13,24.798681,120.986942,0.00040500565
C0D670,海天一線,2025-01-13,24.831986,120.914438,0.00032071784
C0D680,香山濕地,2025-01-13,24.783581,120.914988,0.00041696863
C0D690,外湖,2025-01-13,24.917735,120.968711,0.00047717654
C0D700,關西,2025-01-13,24.7977,121.1732,0.00072404183
C0E420,竹南,2025-01-13,24.708978,120.888897,0.000374554
C0E430,南庄,2025-01-13,24.601775,121.000214,0.00082621543
C0E550,明德,2025-01-13,24.583486,120.885411,0.00058714557
C0E590,通霄,2025-01-13,24.471892,120.704622,0.00043929924
C0E730,頭份,2025-01-13,24.688247,120.912206,0.00037577376
C0E740,造橋,2025-01-13,24.637056,120.864778,0.00053447863
C0E750,苗栗,2025-01-13,24.564569,120.824575,0.0005965437
C0E780,銅鑼,2025-01-13,24.489681,120.790853,0.00048053445
C0E791,卓蘭,2025-01-13,24.3126,120.8244,0.0009744216
C0E810,西湖,2025-01-13,24.562947,120.7485,0.00032657682
C0E820,獅潭,2025-01-13,24.539133,120.920042,0.0008394735
C0E830,苑裡,2025-01-13,24.439714,120.653053,0.0003359945
C0E850,大河,2025-01-13,24.618069,120.948578,0.00078471715
C0E870,高鐵苗栗,2025-01-13,24.60725,120.826094,0.0005339055
C0E910,海埔,2025-01-13,24.648767,120.772435,0.00035761204
C0E920,通霄漁港,2025-01-13,24.498589,120.673876,0.00037622935
C0E930,龍鳳,2025-01-13,24.700034,120.859125,0.00037820247
C0F0B0,石岡,2025-01-13,24.276061,120.777644,0.0013702688
C0F850,東勢,2025-01-13,24.246428,120.833047,0.00082592544
C0F970,大坑,2025-01-13,24.173142,120.722289,0.0025471044
C0F9I0,神岡,2025-01-13,24.272481,120.658314,0.00072735484
C0F9K0,大安,2025-01-13,24.345061,120.588025,0.00034361647
C0F9L0,后里,2025-01-13,24.310436,120.729725,0.0016157327
C0F9M0,豐原,2025-01-13,24.254322,120.720692,0.0017509734
C0F9N0,大里,2025-01-13,24.092464,120.701378,0.0030427782
C0F9O0,潭子,2025-01-13,24.213106,120.703933,0.0017994944
C0F9P0,清水,2025-01-13,24.312297,120.562242,0.0004379677
C0F9Q0,外埔,2025-01-13,24.347817,120.705686,0.00071690674
C0F9R0,龍井,2025-01-13,24.184536,120.528972,0.0006102933
C0F9S0,烏日,2025-01-13,24.107058,120.624103,0.0034963738
C0F9T0,西屯,2025-01-13,24.179494,120.641275,0.0013037396
C0F9U0,南屯,2025-01-13,24.137006,120.637969,0.0014189071
C0F9X0,大雅(中科園區),2025-01-13,24.21528,120.62445,0.00072403357
C0FA10,松柏,2025-01-13,24.429115,120.617482,0.00034699432
C0FA20,溫寮,2025-01-13,24.372177,120.583125,0.00034698387
C0FA30,梧棲,2025-01-13,24.256003,120.523381,0.0004379677
C0FA40,臺中電廠,2025-01-13,24.2146,120.4907,0.00043930887
C0FA50,霧峰,2025-01-13,24.0419,120.6995,0.0027343882
C0G620,芬園,2025-01-13,24.015678,120.6213,0.0031645647
C0G650,員林,2025-01-13,23.946503,120.585597,0.0022223059
C0G660,溪湖,2025-01-13,23.94835,120.479122,0.0010577781
C0G720,溪州,2025-01-13,23.851589,120.499093,0.0016186779
C0G730,二林,2025-01-13,23.903325,120.376081,0.0006472706
C0G740,大城,2025-01-13,23.852487,120.320935,0.00074521505
C0G770,福興,2025-01-13,24.041289,120.437669,0.0005892703
C0G780,秀水,2025-01-13,24.03405,120.503869,0.0009127181
C0G800,埔鹽,2025-01-13,24.000394,120.431683,0.00058877235
C0G810,埔心,2025-01-13,23.947633,120.525456,0.0010364965
C0G820,田尾,2025-01-13,23.901669,120.509389,0.0018970935
C0G830,埤頭,2025-01-13,23.866003,120.452806,0.0016598469
C0G860,社頭,2025-01-13,23.897647,120.5862,0.0025740797
C0G880,二水,2025-01-13,23.810742,120.6173,0.006913463
C0G890,伸港,2025-01-13,24.148933,120.484403,0.00060103915
C0G900,線西,2025-01-13,24.143358,120.443536,0.00060158875
C0G910,花壇,2025-01-13,24.032076,120.549461,0.00087640795
C0G920,永靖,2025-01-13,23.924703,120.547533,0.0018970935
C0G940,竹塘,2025-01-13,23.848253,120.386764,0.00065738516
C0G950,防潮門,2025-01-13,24.1835,120.4871,0.0006102933
C0G960,福寶,2025-01-13,24.0443,120.3814,0.0005277004
C0G970,三豐,2025-01-13,23.882,120.2895,0.00065431086
C0H890,埔里,2025-01-13,23.972169,120.952425,0.006987078
C0H960,草屯,2025-01-13,23.973672,120.68085,0.0032356253
C0I110,竹山,2025-01-13,23.761225,120.688156,0.004241775
C0I360,水里,2025-01-13,23.812553,120.849792,0.014676317
C0I380,集集,2025-01-13,23.828206,120.801467,0.015293983
C0I410,名間,2025-01-13,23.837053,120.701447,0.006177807
C0I420,國姓,2025-01-13,24.037803,120.855072,0.007292325
C0I460,南投,2025-01-13,23.911469,120.687331,0.011481887
C0K250,崙背,2025-01-13,23.75555,120.318925,0.00092162116
C0K280,四湖,2025-01-13,23.630414,120.227125,0.0009281054
C0K291,宜梧,2025-01-13,23.536281,120.169329,0.0007234049
C0K330,虎尾,2025-01-13,23.719183,120.442036,0.0014649078
C0K390,土庫,2025-01-13,23.679029,120.395574,0.0011450682
C0K400,斗六,2025-01-13,23.720583,120.541127,0.0022902414
C0K410,北港,2025-01-13,23.573957,120.292802,0.0008053899
C0K420,西螺,2025-01-13,23.800407,120.467394,0.0014830035
C0K430,褒忠,2025-01-13,23.690938,120.303634,0.00062885
C0K440,二崙,2025-01-13,23.772797,120.408944,0.0011873428
C0K450,大埤,2025-01-13,23.646074,120.431537,0.0017965432
C0K460,斗南,2025-01-13,23.678734,120.478359,0.0026789785
C0K470,林內,2025-01-13,23.748675,120.609642,0.006423384
C0K480,莿桐,2025-01-13,23.761192,120.502372,0.0019846295
C0K500,元長,2025-01-13,23.64981,120.315024,0.00097542576
C0K510,水林,2025-01-13,23.572924,120.24597,0.0008164028
C0K530,臺西,2025-01-13,23.701547,120.197559,0.0006708347
C0K550,蔦松,2025-01-13,23.514319,120.229736,0.0007234049
C0K560,棋山,2025-01-13,23.68645,120.603417,0.005764462
C0K580,高鐵雲林,2025-01-13,23.737456,120.417944,0.0011745285
C0K590,雲林東勢,2025-01-13,23.674192,120.255721,0.0008151454
C0K600,箔子寮,2025-01-13,23.6197,120.14,0.0006147247
C0M520,東後寮,2025-01-13,23.369908,120.248065,0.00080783956
C0M640,中埔,2025-01-13,23.42538,120.5229,0.0035827497
C0M650,朴子,2025-01-13,23.43463,120.23902,0.00092537166
C0M660,溪口,2025-01-13,23.604131,120.403569,0.0014298911
C0M670,大林,2025-01-13,23.600616,120.45841,0.0019811192
C0M680,太保,2025-01-13,23.455062,120.331455,0.0019879483
C0M690,水上,2025-01-13,23.419734,120.388909,0.0017971857
C0M700,竹崎,2025-01-13,23.526178,120.555508,0.003548106
C0M710,東石,2025-01-13,23.458927,120.15385,0.0006380234
C0M720,番路,2025-01-13,23.464657,120.554156,0.0041458677
C0M730,嘉義市東區,2025-01-13,23.457673,120.460531,0.0067833336
C0M740,六腳,2025-01-13,23.492871,120.290625,0.0008577858
C0M750,布袋,2025-01-13,23.380878,120.167789,0.0007142417
C0M760,民雄,2025-01-13,23.551754,120.428457,0.001777931
C0M770,嘉義梅山,2025-01-13,23.585398,120.555587,0.004078902
C0M780,鹿草,2025-01-13,23.41134,120.30835,0.000906488
C0M790,新港,2025-01-13,23.553269,120.345728,0.0013586688
C0M800,茶山,2025-01-13,23.299075,120.664767,0.04110052
C0M880,好美里,2025-01-13,23.3364,120.138,0.0007242827
C0N010,鯤鯓國小,2025-01-13,23.1879,120.0889,0.00089290057
C0N020,城西,2025-01-13,23.0568,120.0956,0.0011677737
C0N030,四草,2025-01-13,23.0235,120.1116,0.001189169
C0N040,蘆竹溝,2025-01-13,23.2344,120.0961,0.00085173437
C0N050,蚵寮,2025-01-13,23.301,120.1104,0.00080442324
C0O830,北寮,2025-01-13,23.079561,120.495008,0.04917002
C0O840,王爺宮,2025-01-13,23.222064,120.40085,0.002214427
C0O860,大內,2025-01-13,23.11885,120.36083,0.0067368485
C0O900,善化,2025-01-13,23.112883,120.297219,0.0046089287
C0O960,崎頂,2025-01-13,22.959547,120.369317,0.00555454
C0O970,虎頭埤,2025-01-13,23.021375,120.347878,0.007700696
C0O980,新市,2025-01-13,23.061614,120.298197,0.0032662803
C0O990,媽廟,2025-01-13,22.99175,120.293525,0.003123586
C0R150,三地門,2025-01-13,22.709889,120.639944,0.10130116
C0R160,鹽埔,2025-01-13,22.739558,120.530778,0.015839934
C0R170,屏東,2025-01-13,22.660269,120.494072,0.024269646
C0R190,赤山,2025-01-13,22.592333,120.614306,0.043978024
C0R220,潮州,2025-01-13,22.534361,120.54,0.03237698
C0R240,來義,2025-01-13,22.527306,120.625111,0.017600158
C0R260,春日,2025-01-13,22.370361,120.628306,0.2199205
C0R270,琉球嶼,2025-01-13,22.332244,120.362236,0.032277483
C0R280,檳榔,2025-01-13,22.076078,120.836777,0.0029299646
C0R320,車城,2025-01-13,22.0744,120.716247,9.220159e-05
C0R341,牡丹,2025-01-13,22.130036,120.792639,0.0029733682
C0R350,貓鼻頭,2025-01-13,21.921774,120.7358,0.00015040039
C0R470,高樹,2025-01-13,22.826389,120.600806,0.027519187
C0R480,長治,2025-01-13,22.693128,120.542622,0.02081045
C0R490,九如,2025-01-13,22.7405,120.490503,0.016731346
C0R520,崁頂,2025-01-13,22.514781,120.506914,0.034598894
C0R540,佳冬,2025-01-13,22.419456,120.552375,0.37513423
C0R550,新埤,2025-01-13,22.467947,120.582894,0.014618356
C0R560,新園,2025-01-13,22.5434,120.461558,0.014323338
C0R570,麟洛,2025-01-13,22.65078,120.52719,0.024269633
C0R580,南州,2025-01-13,22.48591,120.50274,0.020287426
C0R590,里港,2025-01-13,22.77919,120.49459,0.030057773
C0R620,墾雷,2025-01-13,21.900836,120.855269,0.0011987551
C0R640,東港,2025-01-13,22.46247,120.44074,0.020287426
C0R650,竹田,2025-01-13,22.58486,120.54344,0.05070144
C0R660,枋寮,2025-01-13,22.367722,120.590647,0.37489337
C0R670,楓港,2025-01-13,22.190131,120.692156,0.0012434598
C0R680,佳樂水,2025-01-13,21.993578,120.861633,0.0011269207
C0R690,墾丁,2025-01-13,21.966756,120.810269,0.00067656726
C0R700,枋山,2025-01-13,22.246844,120.661086,0.007280663
C0R710,龍磐,2025-01-13,21.931672,120.838942,0.0006896806
C0R720,旭海,2025-01-13,22.205403,120.887614,0.0014849784
C0R730,大坪頂,2025-01-13,22.024633,120.69355,0.00044653768
C0R740,獅子,2025-01-13,22.201569,120.70525,0.0070905574
C0R760,南仁湖,2025-01-13,22.084681,120.863353,0.0009542057
C0R770,保力,2025-01-13,22.071122,120.764111,0.00043926472
C0R780,滿州,2025-01-13,22.024403,120.839892,0.0023344394
C0R790,九棚,2025-01-13,22.14195,120.889281,0.0022386112
C0R800,丹路,2025-01-13,22.204481,120.750989,0.0076226355
C0R810,內獅,2025-01-13,22.305064,120.642986,0.0039623664
C0R830,高士,2025-01-13,22.121825,120.836781,0.0007353882
C0R850,林邊,2025-01-13,22.4634,120.5339,0.018920878
C0R860,鼻頭,2025-01-13,22.1043,120.8979,0.0041171415
C0R870,興海,2025-01-13,21.9752,120.8439,0.0011555501
C0R880,後壁湖,2025-01-13,21.9457,120.7457,0.00012466109
C0R890,山海,2025-01-13,21.9878,120.7091,0.00012523167
C0R900,竹坑,2025-01-13,22.1385,120.7022,9.0843714e-05
C0R910,下寮,2025-01-13,22.3929,120.5548,0.37489337
C0R920,塭仔,2025-01-13,22.4169,120.5197,0.39246967
C0R930,萬丹,2025-01-13,22.5885,120.4851,0.021309895
C0R940,加祿堂,2025-01-13,22.3363,120.6217,0.13267313
C0S710,鹿野,2025-01-13,22.917711,121.122994,0.001058862
C0S730,綠島,2025-01-13,22.6672,121.47533,0.0008761646
C0S740,池上,2025-01-13,23.119628,121.209469,0.00077836047
C0S770,大溪山,2025-01-13,22.478475,120.943325,0.0028768321
C0S790,金崙,2025-01-13,22.538122,120.966875,0.010426398
C0S810,東河,2025-01-13,22.972672,121.303986,0.001091658
C0S830,長濱,2025-01-13,23.286817,121.411975,0.0024788845
C0S840,南田,2025-01-13,22.279725,120.889208,0.0034107217
C0S890,關山,2025-01-13,23.0395,121.175017,0.0016247367
C0S900,蘭嶼高中,2025-01-13,22.04909,121.51214,0.00063489564
C0S910,蘭嶼燈塔,2025-01-13,22.081197,121.503117,0.00064510584
C0S920,金峰嘉蘭,2025-01-13,22.594789,120.960825,0.018953461
C0S930,延平,2025-01-13,22.902581,121.084058,0.0010465707
C0S940,石寧山,2025-01-13,23.223772,121.406639,0.006026235
C0S950,七塊厝,2025-01-13,22.954453,121.229922,0.0010637529
C0S960,香蘭,2025-01-13,22.587569,120.993375,0.039343882
C0S970,加津林,2025-01-13,22.416211,120.926942,0.035364408
C0S990,山豬窟,2025-01-13,22.318619,120.857372,0.0023912522
C0SA00,歷坵,2025-01-13,22.520969,120.89185,0.0031133993
C0SA10,檳榔四格山,2025-01-13,22.810031,121.109308,0.00087988295
C0SA30,都歷,2025-01-13,23.020333,121.323642,0.002822009
C0SA40,瑞和,2025-01-13,22.974361,121.156697,0.0016081809
C0SA60,知本（水試所）,2025-01-13,22.702394,121.082761,0.047806542
C0SA80,土坂,2025-01-13,22.453108,120.887572,0.012692228
C0SA90,達仁林場,2025-01-13,22.264347,120.823972,0.0009308401
C0T870,鯉魚潭,2025-01-13,23.935639,121.508944,0.0028965166
C0T900,西林,2025-01-13,23.8119,121.441458,0.002825313
C0T960,光復,2025-01-13,23.660694,121.424964,0.0010786807
C0T9A0,月眉山,2025-01-13,23.809928,121.539828,0.0013923622
C0T9D0,和中,2025-01-13,24.26676,121.74103,0.0012838318
C0T9E0,大坑,2025-01-13,23.880628,121.581981,0.0015504373
C0T9F0,水璉,2025-01-13,23.797131,121.542514,0.002000523
C0T9I0,豐濱,2025-01-13,23.583897,121.514806,0.0011373769
C0T9M0,靜浦,2025-01-13,23.455167,121.495028,0.0024795225
C0T9N0,富里,2025-01-13,23.171639,121.249378,0.0010458342
C0U600,礁溪,2025-01-13,24.817539,121.765608,0.005566859
C0U650,玉蘭,2025-01-13,24.675286,121.587061,0.00427363
C0U750,龜山島,2025-01-13,24.841667,121.953133,0.0009287905
C0U760,東澳,2025-01-13,24.52196,121.83318,0.008362107
C0U770,南澳,2025-01-13,24.44935,121.81022,0.0020525204
C0U780,五結,2025-01-13,24.68637,121.79794,0.056837346
C0U860,頭城,2025-01-13,24.85323,121.8308,0.00578106
C0U870,大礁溪,2025-01-13,24.791042,121.675047,0.0036595836
C0U880,北關,2025-01-13,24.9072,121.8734,0.023266152
C0U890,三星,2025-01-13,24.66812,121.65302,0.08140994
C0U900,內城,2025-01-13,24.71813,121.68766,0.041403178
C0U910,冬山,2025-01-13,24.63373,121.7937,0.22343762
C0U940,羅東,2025-01-13,24.68184,121.74934,0.050024662
C0U970,大福,2025-01-13,24.80064,121.81389,0.00590512
C0U990,員山,2025-01-13,24.74435,121.72247,0.05276848
C0UA00,土場,2025-01-13,24.576533,121.495333,0.005947164
C0UA80,大溪漁港,2025-01-13,24.941801,121.902955,0.010835491
C0UA90,石城,2025-01-13,24.980444,121.951214,0.014721973
C0UB00,淡江大學蘭陽校園,2025-01-13,24.823239,121.730383,0.0029464022
C0UB10,蘇澳,2025-01-13,24.5969,121.8571,0.23519164
C0UB20,壯圍,2025-01-13,24.7359,121.8163,0.057156526
C0V310,美濃,2025-01-13,22.898742,120.519153,0.04066816
C0V350,溪埔,2025-01-13,22.738578,120.446797,0.023106689
C0V360,內門,2025-01-13,22.975481,120.466769,0.013272807
C0V370,古亭坑,2025-01-13,22.893178,120.401947,0.01103603
C0V400,阿公店,2025-01-13,22.804194,120.355528,0.014478119
C0V440,鳳山,2025-01-13,22.646653,120.356122,0.008457423
C0V450,鳳森,2025-01-13,22.545064,120.392592,0.009302951
C0V490,新興,2025-01-13,22.627422,120.298803,0.014216162
C0V530,阿蓮,2025-01-13,22.883208,120.327508,0.0065208497
C0V610,梓官,2025-01-13,22.760558,120.267211,0.0074128066
C0V620,永安,2025-01-13,22.82315,120.236856,0.0031984053
C0V630,茄萣,2025-01-13,22.906642,120.182608,0.0014945306
C0V640,湖內,2025-01-13,22.887139,120.2445,0.0019930284
C0V650,彌陀,2025-01-13,22.783806,120.246361,0.003344612
C0V660,岡山,2025-01-13,22.797078,120.294958,0.003344612
C0V680,仁武,2025-01-13,22.701083,120.347722,0.008618783
C0V690,鼓山,2025-01-13,22.623325,120.275575,0.014216144
C0V700,三民,2025-01-13,22.645017,120.311233,0.0068125175
C0V710,苓雅,2025-01-13,22.622742,120.330669,0.02319275
C0V720,林園,2025-01-13,22.507747,120.394511,0.014824697
C0V730,大寮,2025-01-13,22.605614,120.395717,0.021182999
C0V740,旗山,2025-01-13,22.888614,120.483597,0.038189467
C0V750,路竹,2025-01-13,22.854997,120.259439,0.0019429096
C0V760,橋頭,2025-01-13,22.757806,120.30575,0.007412828
C0V770,大社,2025-01-13,22.730306,120.346639,0.008887709
C0V790,萬山,2025-01-13,22.905944,120.688056,0.011010845
C0V800,六龜,2025-01-13,22.997889,120.633583,0.015232899
C0V810,左營,2025-01-13,22.67491,120.28491,0.0068125175
C0V820,小林,2025-01-13,23.148408,120.63325,0.009928378
C0V840,鳳鼻頭,2025-01-13,22.5083,120.3591,0.015256156
C0V850,蚵仔寮,2025-01-13,22.7256,120.2527,0.007860651
C0V860,南寮,2025-01-13,22.7616,120.2339,0.007860651
C0V870,文安,2025-01-13,22.8025,120.2164,0.003472565
C0V880,興達,2025-01-13,22.8778,120.2127,0.0020439208
C0V890,前鎮,2025-01-13,22.5718,120.3117,0.015101212
C0V900,汕尾,2025-01-13,22.4782,120.4151,0.020287426
C0W200,湖西,2025-01-13,23.596314,119.67275,0.0005034908
C0X050,東河,2025-01-13,23.296598,120.385608,0.005268446
C0X060,下營,2025-01-13,23.22695,120.256261,0.0016470843
C0X080,佳里,2025-01-13,23.173039,120.145086,0.000892901
C0X100,臺南市北區,2025-01-13,23.010394,120.194228,0.0011668269
C0X110,臺南市南區,2025-01-13,22.961189,120.188378,0.0015815528
C0X120,麻豆,2025-01-13,23.183289,120.248611,0.0032057273
C0X130,官田,2025-01-13,23.193217,120.315422,0.0038215292
C0X140,西港,2025-01-13,23.125608,120.203108,0.0026486006
C0X150,安定,2025-01-13,23.102614,120.227839,0.0026486006
C0X160,仁德,2025-01-13,22.968258,120.257689,0.0015788694
C0X170,關廟,2025-01-13,22.963017,120.327797,0.0081145475
C0X180,山上,2025-01-13,23.0757,120.363253,0.0101754395
C0X190,安平,2025-01-13,22.993161,120.152181,0.0011668269
C0X200,左鎮,2025-01-13,23.056758,120.408522,0.008074711
C0X210,白河,2025-01-13,23.347466,120.414427,0.0051001688
C0X220,學甲,2025-01-13,23.230367,120.182187,0.0008405425
C0X230,鹽水,2025-01-13,23.272621,120.247641,0.0009594736
C0X240,關子嶺,2025-01-13,23.331169,120.508025,0.006193407
C0X250,新營,2025-01-13,23.310689,120.316681,0.0014844907
C0X260,後壁,2025-01-13,23.366358,120.362326,0.0017640676
C0X280,將軍,2025-01-13,23.214999,120.13577,0.00085173437
C0X290,北門,2025-01-13,23.267772,120.125481,0.00085173437
C0X300,鹿寮,2025-01-13,23.386047,120.477331,0.0054125986
C0X320,柳營,2025-01-13,23.253328,120.375253,0.003972023
C0Z020,明里,2025-01-13,23.208717,121.262342,0.0037862381
C0Z061,玉里,2025-01-13,23.3215,121.339656,0.003662365
C0Z070,舞鶴,2025-01-13,23.46811,121.37407,0.0019774428
C0Z080,富源,2025-01-13,23.587642,121.378225,0.004798124
C0Z100,東華,2025-01-13,23.89525,121.549833,0.005056447
C0Z150,吉安光華,2025-01-13,23.930925,121.595153,0.006871339
C0Z160,鳳林,2025-01-13,23.746114,121.453411,0.0050350577
C0Z170,卓溪,2025-01-13,23.3443,121.3029,0.002378144
C0Z180,新城,2025-01-13,24.03946,121.60454,0.004803222
C0Z190,富世,2025-01-13,24.14743,121.6297,0.0012243014
C0Z200,萬榮,2025-01-13,23.709219,121.420106,0.0041056653
C0Z210,瑞穗,2025-01-13,23.5239,121.39021,0.0014101738
C0Z230,和平,2025-01-13,24.30717,121.77007,0.0013060152
C0Z270,蕃薯寮,2025-01-13,23.73835,121.540108,0.0021102931
C0Z280,德武,2025-01-13,23.47426,121.41071,0.0021319697
C0Z300,東里,2025-01-13,23.26853,121.30547,0.00501969
C0Z310,清水斷崖,2025-01-13,24.218294,121.689142,0.00068565697
C0Z330,安通山,2025-01-13,23.290728,121.348528,0.0015309792
C2A540,四堵,2025-01-13,24.8926,121.745736,0.0021956635
C2A560,福山,2025-01-13,24.776203,121.502811,0.017709551
C2A650,火燒寮,2025-01-13,25.002719,121.742892,0.0035402116
C2A660,瑞芳,2025-01-13,25.113169,121.801147,0.0024436694
C2A880,福隆,2025-01-13,25.017842,121.942083,0.015614041
C2A920,富貴角,2025-01-13,25.263783,121.565258,0.0009059833
C2E520,大湖,2025-01-13,24.414939,120.870872,0.0009258779
C2E540,後龍,2025-01-13,24.606489,120.783933,0.00035577576
C2E540,龍溪,2025-01-13,24.606489,120.783933,0.00035577593
C2F000,大肚,2025-01-13,24.15295,120.572117,0.0011609631
C2F930,大甲,2025-01-13,24.347667,120.640403,0.00033218757
C2F9A0,中竹林,2025-01-13,24.103556,120.751061,0.0032222103
C2G640,鹿港,2025-01-13,24.0753,120.430481,0.0005277004
C2G840,北斗,2025-01-13,23.877586,120.514222,0.001621861
C2G870,芳苑,2025-01-13,23.922303,120.320025,0.00070359156
C2H950,中寮,2025-01-13,23.884447,120.766406,0.0072555
C2M410,馬頭山,2025-01-13,23.324361,120.582017,0.010886564
C2N160,西拉雅風管處,2025-01-13,23.189481,120.335297,0.003694269
C2O810,曾文,2025-01-13,23.219681,120.497328,0.027619928
C2O930,玉井,2025-01-13,23.126042,120.46055,0.0101754395
C2O950,安南,2025-01-13,23.076694,120.144861,0.0007723741
C2V250,甲仙,2025-01-13,23.080106,120.591758,0.016036835
C2V260,月眉,2025-01-13,22.971003,120.539853,0.03353389
C2W230,畜試所澎湖,2025-01-13,23.628342,119.513206,0.00043464333
CAG100,王功漁港,2025-01-13,23.96824,120.32586,0.0006824129
CAH030,茶改場竹圍站,2025-01-13,23.860083,120.637528,0.010099417
CAJ050,海口故事園區,2025-01-13,23.57543,120.14121,0.00061510305
CAL110,布袋國中,2025-01-13,23.35893,120.18026,0.0007142417
CAN130,水試所海水繁養殖中心,2025-01-13,23.120802,120.07968,0.00078292796
CAN140,六官養殖協會,2025-01-13,23.22881,120.29962,0.0016470843
CAQ030,崎峰國小,2025-01-13,22.42565,120.49521,0.020287426
E2K600,四湖植物園,2025-01-13,23.676986,120.163433,0.0009281054
E2P980,林試六龜中心,2025-01-13,22.991703,120.645722,0.0136234695
E2S960,林試太麻里2,2025-01-13,22.598014,120.989761,0.038571965
E2S960,林試太麻里2,2025-01-13,22.598,120.99775,0.04290285
E2S980,林試太麻里1,2025-01-13,22.598922,120.980044,0.020288471
G2AI50,關渡,2025-01-13,25.11575,121.492,0.0014035112
G2F820,農業試驗所,2025-01-13,24.031261,120.688133,0.002836998
G2F820,農試所(霧峰),2025-01-13,24.031261,120.688133,0.002836998
G2L020,農試嘉義分所,2025-01-13,23.485028,120.473806,0.0048424653
G2M350,農試溪口農場,2025-01-13,23.58565,120.408111,0.0014298911
G2P820,農試鳳山分所,2025-01-13,22.646611,120.356083,0.008457423
K2E360,苗栗農改,2025-01-13,24.495722,120.829111,0.0006179588
K2E360,苗栗農改場,2025-01-13,24.495722,120.829111,0.0006179588
K2E710,苗改生物防治研究中心,2025-01-13,24.422861,120.871833,0.0009919477
K2F750,種苗改良場,2025-01-13,24.225972,120.800917,0.00089457986
K2F750,種苗繁殖,2025-01-13,24.225972,120.800917,0.00089457986
U2HA50,臺大竹山,2025-01-13,23.756972,120.681556,0.006394832
V2C250,八德合作社,2025-01-13,24.93775,121.266389,0.0008249277
V2C260,八德蔬果,2025-01-13,24.978508,121.281819,0.00073701056
V2K610,大庄合作社,2025-01-13,23.8068,120.367939,0.00080699864
V2K620,麥寮合作社,2025-01-13,23.753836,120.294783,0.00063037773
