站號,站名,日期,lat,lon,BlastGRU-TW
C0K280,四湖,2025-09-17,23.630414,120.227125,0.11061577
C0R240,來義,2025-09-17,22.527306,120.625111,0.09201453
C0X060,下營,2025-09-17,23.22695,120.256261,0.10175209
C2D740,屯原,2025-09-17,24.067969,121.209389,0.011179253
C0K250,崙背,2025-09-17,23.75555,120.318925,0.05654357
