站號,站名,日期,lat,lon,BLBTSLS
K2F750,種苗繁殖,2025-03-14,24.225972,120.800917,1.3695405e-09
467990,馬祖,2025-03-14,26.169269,119.923419,1.498905e-07
C2E540,後龍,2025-03-14,24.606489,120.783933,3.1401637e-09
467300,東吉島,2025-03-14,23.25695,119.667467,0.81378376
G2F820,農業試驗所,2025-03-14,24.031261,120.688133,9.085112e-10
467410,臺南,2025-03-14,22.993239,120.204772,7.556803e-10
E2S960,林試太麻里2,2025-03-14,22.598014,120.989761,1.0342102e-07
72C440,桃園農改,2025-03-14,24.950944,121.030583,3.3740193e-06
C1H860,瑞岩,2025-03-14,24.123772,121.18345,5.6808767e-09
72G600,臺中農改,2025-03-14,24.003028,120.534389,5.257839e-10
72N100,臺南農改,2025-03-14,23.0605,120.342194,6.033526e-10
72T250,花蓮農改,2025-03-14,23.975222,121.563889,9.1715656e-08
467620,蘭嶼,2025-03-14,22.036969,121.558339,0.8059747
K2E360,苗栗農改,2025-03-14,24.495722,120.829111,2.9519314e-09
467050,新屋,2025-03-14,25.006744,121.047486,9.738233e-06
467550,玉山,2025-03-14,23.487614,120.959522,1.6728807e-08
466881,新北,2025-03-14,24.9593,121.52,5.814178e-08
467540,大武,2025-03-14,22.355675,120.903789,0.059245404
72Q010,高雄農改,2025-03-14,22.709333,120.525889,4.619381e-10
U2H480,臺大溪頭,2025-03-14,23.670306,120.798194,1.6295647e-09
C0Z180,新城,2025-03-14,24.03946,121.60454,1.0161063e-07
B2N890,畜試所,2025-03-14,23.058972,120.336406,6.033526e-10
467441,高雄,2025-03-14,22.7304,120.3125,6.314608e-10
