站號,站名,日期,lat,lon,BlastGRU-TW
12J990,口湖工作站,2025-04-03,23.589978,120.180394,0.10859522
12Q970,東港工作站,2025-04-03,22.479997,120.466058,0.8945864
12Q980,恆春工作站,2025-04-03,22.079678,120.714425,0.07564333
466881,新北,2025-04-03,24.959207,121.525196,0.7253266
466900,淡水,2025-04-03,25.164889,121.448906,0.85186076
466920,臺北,2025-04-03,25.037658,121.514853,0.89559996
466940,基隆,2025-04-03,25.133314,121.740475,0.76247156
466990,花蓮,2025-04-03,23.975128,121.613275,0.8105396
467050,新屋,2025-04-03,25.006725,121.047492,0.07341831
467080,宜蘭,2025-04-03,24.763975,121.756528,0.22974768
467270,田中,2025-04-03,23.873803,120.581286,0.9949529
467280,後龍,2025-04-03,24.648563,120.831834,0.99208546
467290,古坑,2025-04-03,23.633639,120.551889,0.9956904
467300,東吉島,2025-04-03,23.25727,119.66762,0.012443289
467350,澎湖,2025-04-03,23.565503,119.563094,0.005397556
467410,臺南,2025-04-03,22.99328,120.20492,0.91664743
467420,永康,2025-04-03,23.038386,120.2367,0.9952464
467441,高雄,2025-04-03,22.730432,120.312516,0.760364
467480,嘉義,2025-04-03,23.495925,120.432906,0.9862315
467490,臺中,2025-04-03,24.145736,120.684075,0.9924185
467540,大武,2025-04-03,22.35572,120.90374,0.9338894
467571,新竹,2025-04-03,24.827853,121.014219,0.9589339
467590,恆春,2025-04-03,22.003897,120.746339,0.86721766
467610,成功,2025-04-03,23.097486,121.373428,0.8812306
467620,蘭嶼,2025-04-03,22.0369,121.55843,0.03751915
467660,臺東,2025-04-03,22.752211,121.154586,0.59022206
467790,墾丁雷達站,2025-04-03,21.948235,120.808028,0.284525
72AI40,桃改樹林分場,2025-04-03,24.944503,121.386972,0.95592904
72C440,桃園農改場,2025-04-03,24.950944,121.030583,0.28432575
72D680,桃改新埔分場,2025-04-03,24.834444,121.066111,0.94691414
72G600,臺中農改場,2025-04-03,24.003028,120.534389,0.8888968
72K220,南改斗南分場,2025-04-03,23.634556,120.477333,0.99828273
72M360,南改義竹分場,2025-04-03,23.360694,120.279361,0.8538934
72M700,南改鹿草分場,2025-04-03,23.416869,120.283061,0.9590853
72N100,臺南農改場,2025-04-03,23.0605,120.342194,0.9884601
72N240,七股研究中心,2025-04-03,23.081672,120.062894,0.23889597
72Q010,高雄農改場,2025-04-03,22.709333,120.525889,0.98855466
72S200,東改班鳩分場,2025-04-03,22.829528,121.077694,0.32160568
72S590,東改賓朗果園,2025-04-03,22.813889,121.071278,0.24516825
72T250,花蓮農改場,2025-04-03,23.975222,121.563889,0.76486367
72U480,花改蘭陽分場,2025-04-03,24.686306,121.716583,0.33912608
72V140,高改旗南分場,2025-04-03,22.857861,120.516667,0.982833
82A750,茶改北部分場,2025-04-03,24.955778,121.631222,0.2278456
82C160,茶改場,2025-04-03,24.908472,121.185333,0.4960523
82H840,茶改南部分場,2025-04-03,23.762528,120.7405,0.44457453
82S580,茶改東部分場,2025-04-03,22.907694,121.130139,0.7795216
A2C560,農工中心,2025-04-03,24.985917,121.239833,0.6382546
A2K360,水試臺西試驗場,2025-04-03,23.717231,120.190522,0.066652544
A2K570,古坑花卉中心,2025-04-03,23.63353,120.55239,0.9956904
A2K630,臺大雲林校區,2025-04-03,23.730628,120.423903,0.83143616
A2N290,臺南蘭花園區,2025-04-03,23.340258,120.379661,0.97088856
B2E890,畜試北區分所,2025-04-03,24.527806,120.770972,0.998652
B2N890,畜產試驗所,2025-04-03,23.058972,120.336406,0.98861825
B2Q810,畜試南區分所,2025-04-03,21.945583,120.802167,0.3787367
B2U990,畜試東區分所,2025-04-03,24.669039,121.832561,0.43916446
C0A520,山佳,2025-04-03,24.974944,121.402008,0.8290897
C0A530,坪林,2025-04-03,24.938183,121.70975,0.07000991
C0A550,泰平,2025-04-03,24.971197,121.823711,0.32416388
C0A570,桶後,2025-04-03,24.848222,121.597992,0.2216181
C0A640,石碇,2025-04-03,24.993969,121.662917,0.22280827
C0A770,科教館,2025-04-03,25.096356,121.516507,0.906007
C0A860,大坪,2025-04-03,25.165914,121.632969,0.7604907
C0A890,雙溪,2025-04-03,25.036003,121.864242,0.43271187
C0A931,三和,2025-04-03,25.233153,121.595236,0.9881148
C0A940,金山,2025-04-03,25.223628,121.643967,0.99471796
C0A950,鼻頭角,2025-04-03,25.129036,121.923372,0.35139757
C0A970,三貂角,2025-04-03,25.007606,122.002058,0.752473
C0A980,社子,2025-04-03,25.109508,121.469681,0.86947274
C0A9C0,天母,2025-04-03,25.117494,121.537169,0.9554723
C0A9F0,內湖,2025-04-03,25.079422,121.57545,0.89559996
C0AC60,三峽,2025-04-03,24.939025,121.369728,0.9488067
C0AC70,信義,2025-04-03,25.037822,121.564597,0.89559996
C0AC80,文山,2025-04-03,25.00235,121.575728,0.6935118
C0ACA0,新莊,2025-04-03,25.051478,121.446756,0.89386976
C0AD10,八里,2025-04-03,25.150211,121.403947,0.70722294
C0AD30,蘆洲,2025-04-03,25.086594,121.472331,0.9039685
C0AD40,土城,2025-04-03,24.973208,121.445169,0.74995303
C0AD50,鶯歌,2025-04-03,24.951533,121.346294,0.93652236
C0AG80,中和,2025-04-03,24.991622,121.491792,0.74995303
C0AH00,汐止,2025-04-03,25.066881,121.658778,0.89559996
C0AH10,永和,2025-04-03,25.01125,121.508111,0.7602229
C0AH40,平等,2025-04-03,25.129142,121.577086,0.6897087
C0AH50,林口,2025-04-03,25.072181,121.38084,0.122476436
C0AH70,松山,2025-04-03,25.04871,121.55042,0.89559996
C0AH80,深坑,2025-04-03,25.002703,121.628328,0.6998859
C0AI00,五股,2025-04-03,25.07445,121.42728,0.16131413
C0AI10,屈尺,2025-04-03,24.92184,121.54475,0.8416292
C0AI20,白沙灣,2025-04-03,25.283128,121.519058,0.98934335
C0AI30,三重,2025-04-03,25.057328,121.500629,0.9003451
C0AI40,石牌,2025-04-03,25.115597,121.513139,0.95855016
C0AJ20,野柳,2025-04-03,25.20703,121.690021,0.99379265
C0AJ30,淡水觀海,2025-04-03,25.184591,121.408616,0.9861943
C0AJ40,石門,2025-04-03,25.273672,121.601198,0.9627756
C0AJ50,水湳洞,2025-04-03,25.123695,121.862238,0.7118117
C0AJ60,六塊厝,2025-04-03,25.24,121.4481,0.9907748
C0AJ70,田寮,2025-04-03,25.2698,121.4886,0.98995036
C0AJ80,板橋,2025-04-03,25.0107,121.4489,0.7602229
C0AJ90,澳底,2025-04-03,25.0552,121.9253,0.55661803
C0AK10,太平里,2025-04-03,25.134937,121.364899,0.69715613
C0B010,七堵,2025-04-03,25.094819,121.71713,0.47899014
C0B020,基隆嶼,2025-04-03,25.19141,121.78391,0.1634426
C0B040,大武崙,2025-04-03,25.166676,121.706993,0.7067185
C0B050,八斗子,2025-04-03,25.144754,121.79167,0.77633125
C0B060,暖暖,2025-04-03,25.0957,121.7403,0.37637228
C0C460,復興,2025-04-03,24.820208,121.352281,0.2341114
C0C480,桃園,2025-04-03,24.992425,121.323172,0.77702576
C0C490,八德,2025-04-03,24.928708,121.283289,0.8453588
C0C590,觀音,2025-04-03,25.027072,121.153317,0.027517274
C0C620,蘆竹,2025-04-03,25.084275,121.265767,0.115324564
C0C630,大溪,2025-04-03,24.882853,121.265547,0.38892776
C0C650,平鎮,2025-04-03,24.897503,121.214636,0.7740125
C0C660,楊梅,2025-04-03,24.912375,121.143047,0.5843403
C0C670,龍潭,2025-04-03,24.870056,121.221389,0.3163354
C0C680,龜山,2025-04-03,25.02846,121.38656,0.10712741
C0C700,中壢,2025-04-03,24.977661,121.256375,0.6495693
C0C710,大溪永福,2025-04-03,24.892936,121.324975,0.7588092
C0C720,竹圍,2025-04-03,25.112692,121.239824,0.47899428
C0C730,中大臨海站,2025-04-03,24.966126,121.008581,0.081669584
C0C740,觀音工業區,2025-04-03,25.064764,121.114856,0.034152534
C0C750,新興坑尾,2025-04-03,25.0061,121.0971,0.06913208
C0D430,峨眉,2025-04-03,24.6905,121.017189,0.99116963
C0D480,打鐵坑,2025-04-03,24.849664,121.150789,0.31224266
C0D540,橫山,2025-04-03,24.71116,121.11693,0.98396116
C0D560,竹東,2025-04-03,24.767147,121.057881,0.9895739
C0D580,寶山,2025-04-03,24.735006,121.025192,0.98986703
C0D590,新豐,2025-04-03,24.87068,120.97721,0.0679499
C0D650,湖口,2025-04-03,24.904794,121.043628,0.28828603
C0D660,新竹市東區,2025-04-03,24.798681,120.986942,0.9561156
C0D670,海天一線,2025-04-03,24.831986,120.914438,0.1228528
C0D680,香山濕地,2025-04-03,24.783581,120.914988,0.97740954
C0D690,外湖,2025-04-03,24.917735,120.968711,0.4333196
C0D700,關西,2025-04-03,24.7977,121.1732,0.98804635
C0E420,竹南,2025-04-03,24.708978,120.888897,0.16798978
C0E430,南庄,2025-04-03,24.601775,121.000214,0.99330175
C0E550,明德,2025-04-03,24.583486,120.885411,0.99082375
C0E570,白沙屯,2025-04-03,24.549447,120.696803,0.42858508
C0E590,通霄,2025-04-03,24.471892,120.704622,0.46447736
C0E730,頭份,2025-04-03,24.688247,120.912206,0.17674729
C0E740,造橋,2025-04-03,24.637056,120.864778,0.9929678
C0E750,苗栗,2025-04-03,24.564569,120.824575,0.99218076
C0E780,銅鑼,2025-04-03,24.489681,120.790853,0.9975279
C0E791,卓蘭,2025-04-03,24.3126,120.8244,0.99473244
C0E810,西湖,2025-04-03,24.562947,120.7485,0.1719616
C0E820,獅潭,2025-04-03,24.539133,120.920042,0.9973697
C0E830,苑裡,2025-04-03,24.439714,120.653053,0.9946161
C0E850,大河,2025-04-03,24.618069,120.948578,0.99609894
C0E870,高鐵苗栗,2025-04-03,24.60725,120.826094,0.9927528
C0E910,海埔,2025-04-03,24.648767,120.772435,0.9967078
C0E920,通霄漁港,2025-04-03,24.498589,120.673876,0.4899959
C0E930,龍鳳,2025-04-03,24.700034,120.859125,0.20678598
C0F0B0,石岡,2025-04-03,24.276061,120.777644,0.99576396
C0F850,東勢,2025-04-03,24.246428,120.833047,0.9840557
C0F970,大坑,2025-04-03,24.173142,120.722289,0.9960278
C0F9I0,神岡,2025-04-03,24.272481,120.658314,0.8377699
C0F9K0,大安,2025-04-03,24.345061,120.588025,0.67741674
C0F9L0,后里,2025-04-03,24.310436,120.729725,0.9971496
C0F9M0,豐原,2025-04-03,24.254322,120.720692,0.9976959
C0F9N0,大里,2025-04-03,24.092464,120.701378,0.9968533
C0F9O0,潭子,2025-04-03,24.213106,120.703933,0.9970364
C0F9P0,清水,2025-04-03,24.312297,120.562242,0.083841495
C0F9Q0,外埔,2025-04-03,24.347817,120.705686,0.9781001
C0F9R0,龍井,2025-04-03,24.184536,120.528972,0.28321156
C0F9S0,烏日,2025-04-03,24.107058,120.624103,0.99734133
C0F9T0,西屯,2025-04-03,24.179494,120.641275,0.9902933
C0F9U0,南屯,2025-04-03,24.137006,120.637969,0.9936331
C0F9X0,大雅(中科園區),2025-04-03,24.21528,120.62445,0.8472966
C0FA10,松柏,2025-04-03,24.429115,120.617482,0.99623436
C0FA20,溫寮,2025-04-03,24.372177,120.583125,0.78739053
C0FA30,梧棲,2025-04-03,24.256003,120.523381,0.083841495
C0FA40,臺中電廠,2025-04-03,24.2146,120.4907,0.13259988
C0FA50,霧峰,2025-04-03,24.0419,120.6995,0.9946377
C0FB70,大甲溪埔,2025-04-03,24.370625,120.620067,0.6181501
C0G620,芬園,2025-04-03,24.015678,120.6213,0.99435186
C0G650,員林,2025-04-03,23.946503,120.585597,0.98366016
C0G660,溪湖,2025-04-03,23.94835,120.479122,0.4605006
C0G720,溪州,2025-04-03,23.851589,120.499093,0.9065917
C0G730,二林,2025-04-03,23.903325,120.376081,0.15300643
C0G740,大城,2025-04-03,23.852487,120.320935,0.13413778
C0G770,福興,2025-04-03,24.041289,120.437669,0.30526084
C0G780,秀水,2025-04-03,24.03405,120.503869,0.8962307
C0G800,埔鹽,2025-04-03,24.000394,120.431683,0.29832256
C0G810,埔心,2025-04-03,23.947633,120.525456,0.4168039
C0G820,田尾,2025-04-03,23.901669,120.509389,0.8383216
C0G830,埤頭,2025-04-03,23.866003,120.452806,0.92208266
C0G860,社頭,2025-04-03,23.897647,120.5862,0.9953086
C0G880,二水,2025-04-03,23.810742,120.6173,0.9952297
C0G890,伸港,2025-04-03,24.148933,120.484403,0.8000494
C0G900,線西,2025-04-03,24.143358,120.443536,0.80961275
C0G910,花壇,2025-04-03,24.032076,120.549461,0.86472964
C0G920,永靖,2025-04-03,23.924703,120.547533,0.8383216
C0G940,竹塘,2025-04-03,23.848253,120.386764,0.17611074
C0G950,防潮門,2025-04-03,24.1835,120.4871,0.28321156
C0G960,福寶,2025-04-03,24.0443,120.3814,0.55311966
C0G970,三豐,2025-04-03,23.882,120.2895,0.14548658
C0G9B0,和美,2025-04-03,24.105169,120.492131,0.6795124
C0H890,埔里,2025-04-03,23.972169,120.952425,0.75548977
C0H960,草屯,2025-04-03,23.973672,120.68085,0.9947392
C0I110,竹山,2025-04-03,23.761225,120.688156,0.98239106
C0I360,水里,2025-04-03,23.812553,120.849792,0.7076568
C0I380,集集,2025-04-03,23.828206,120.801467,0.72597826
C0I410,名間,2025-04-03,23.837053,120.701447,0.98655015
C0I420,國姓,2025-04-03,24.037803,120.855072,0.9491371
C0I460,南投,2025-04-03,23.911469,120.687331,0.992287
C0K250,崙背,2025-04-03,23.75555,120.318925,0.47166675
C0K280,四湖,2025-04-03,23.630414,120.227125,0.16710974
C0K291,宜梧,2025-04-03,23.536281,120.169329,0.6695776
C0K330,虎尾,2025-04-03,23.719183,120.442036,0.86424315
C0K390,土庫,2025-04-03,23.679029,120.395574,0.96083075
C0K400,斗六,2025-04-03,23.720583,120.541127,0.97965306
C0K410,北港,2025-04-03,23.573957,120.292802,0.7626582
C0K420,西螺,2025-04-03,23.800407,120.467394,0.82207274
C0K430,褒忠,2025-04-03,23.690938,120.303634,0.39644817
C0K440,二崙,2025-04-03,23.772797,120.408944,0.7789521
C0K450,大埤,2025-04-03,23.646074,120.431537,0.9969967
C0K460,斗南,2025-04-03,23.678734,120.478359,0.99828273
C0K470,林內,2025-04-03,23.748675,120.609642,0.9929646
C0K480,莿桐,2025-04-03,23.761192,120.502372,0.98585063
C0K500,元長,2025-04-03,23.64981,120.315024,0.78714883
C0K510,水林,2025-04-03,23.572924,120.24597,0.77779585
C0K530,臺西,2025-04-03,23.701547,120.197559,0.058038395
C0K550,蔦松,2025-04-03,23.514319,120.229736,0.6695776
C0K560,棋山,2025-04-03,23.68645,120.603417,0.99523216
C0K580,高鐵雲林,2025-04-03,23.737456,120.417944,0.83143616
C0K590,雲林東勢,2025-04-03,23.674192,120.255721,0.6077102
C0K600,箔子寮,2025-04-03,23.6197,120.14,0.10859522
C0M520,東後寮,2025-04-03,23.369908,120.248065,0.86195946
C0M640,中埔,2025-04-03,23.42538,120.5229,0.99159217
C0M650,朴子,2025-04-03,23.43463,120.23902,0.961077
C0M660,溪口,2025-04-03,23.604131,120.403569,0.9971773
C0M670,大林,2025-04-03,23.600616,120.45841,0.99823934
C0M680,太保,2025-04-03,23.455062,120.331455,0.9603524
C0M690,水上,2025-04-03,23.419734,120.388909,0.9582835
C0M700,竹崎,2025-04-03,23.526178,120.555508,0.9949697
C0M710,東石,2025-04-03,23.458927,120.15385,0.27151683
C0M720,番路,2025-04-03,23.464657,120.554156,0.99296844
C0M730,嘉義市東區,2025-04-03,23.457673,120.460531,0.99587446
C0M740,六腳,2025-04-03,23.492871,120.290625,0.8730646
C0M750,布袋,2025-04-03,23.380878,120.167789,0.8508555
C0M760,民雄,2025-04-03,23.551754,120.428457,0.997628
C0M770,嘉義梅山,2025-04-03,23.585398,120.555587,0.9939713
C0M780,鹿草,2025-04-03,23.41134,120.30835,0.9550655
C0M790,新港,2025-04-03,23.553269,120.345728,0.95287794
C0M800,茶山,2025-04-03,23.299075,120.664767,0.91613257
C0M880,好美里,2025-04-03,23.3364,120.138,0.8230128
C0N010,鯤鯓國小,2025-04-03,23.1879,120.0889,0.26262826
C0N020,城西,2025-04-03,23.0568,120.0956,0.9229457
C0N030,四草,2025-04-03,23.0235,120.1116,0.92407894
C0N040,蘆竹溝,2025-04-03,23.2344,120.0961,0.6039198
C0N050,蚵寮,2025-04-03,23.301,120.1104,0.86400974
C0O830,北寮,2025-04-03,23.079561,120.495008,0.89015764
C0O840,王爺宮,2025-04-03,23.222064,120.40085,0.95976776
C0O860,大內,2025-04-03,23.11885,120.36083,0.9934138
C0O900,善化,2025-04-03,23.112883,120.297219,0.9914842
C0O960,崎頂,2025-04-03,22.959547,120.369317,0.9914068
C0O970,虎頭埤,2025-04-03,23.021375,120.347878,0.9718558
C0O980,新市,2025-04-03,23.061614,120.298197,0.99074924
C0O990,媽廟,2025-04-03,22.99175,120.293525,0.9949969
C0R150,三地門,2025-04-03,22.709889,120.639944,0.847488
C0R160,鹽埔,2025-04-03,22.739558,120.530778,0.98855466
C0R190,赤山,2025-04-03,22.592333,120.614306,0.93817055
C0R220,潮州,2025-04-03,22.534361,120.54,0.8965091
C0R240,來義,2025-04-03,22.527306,120.625111,0.8294005
C0R260,春日,2025-04-03,22.370361,120.628306,0.3147461
C0R270,琉球嶼,2025-04-03,22.332244,120.362236,0.28698066
C0R280,檳榔,2025-04-03,22.076078,120.836777,0.22866926
C0R320,車城,2025-04-03,22.0744,120.716247,0.07564333
C0R341,牡丹,2025-04-03,22.130036,120.792639,0.23487514
C0R350,貓鼻頭,2025-04-03,21.921774,120.7358,0.029538393
C0R470,高樹,2025-04-03,22.826389,120.600806,0.98228574
C0R480,長治,2025-04-03,22.693128,120.542622,0.9623095
C0R490,九如,2025-04-03,22.7405,120.490503,0.98883736
C0R520,崁頂,2025-04-03,22.514781,120.506914,0.89924896
C0R540,佳冬,2025-04-03,22.419456,120.552375,0.35064882
C0R550,新埤,2025-04-03,22.467947,120.582894,0.86829555
C0R560,新園,2025-04-03,22.5434,120.461558,0.9455952
C0R570,麟洛,2025-04-03,22.65078,120.52719,0.98915917
C0R580,南州,2025-04-03,22.48591,120.50274,0.8945864
C0R590,里港,2025-04-03,22.77919,120.49459,0.991412
C0R620,墾雷,2025-04-03,21.900836,120.855269,0.11229816
C0R640,東港,2025-04-03,22.46247,120.44074,0.8945864
C0R650,竹田,2025-04-03,22.58486,120.54344,0.8678951
C0R660,枋寮,2025-04-03,22.367722,120.590647,0.35947037
C0R670,楓港,2025-04-03,22.190131,120.692156,0.2829257
C0R680,佳樂水,2025-04-03,21.993578,120.861633,0.368987
C0R690,墾丁,2025-04-03,21.966756,120.810269,0.09939504
C0R700,枋山,2025-04-03,22.246844,120.661086,0.18482974
C0R710,龍磐,2025-04-03,21.931672,120.838942,0.02291697
C0R720,旭海,2025-04-03,22.205403,120.887614,0.5499454
C0R730,大坪頂,2025-04-03,22.024633,120.69355,0.051747013
C0R741,獅子,2025-04-03,22.202308,120.705236,0.7816554
C0R760,南仁湖,2025-04-03,22.084681,120.863353,0.09394465
C0R770,保力,2025-04-03,22.071122,120.764111,0.120779656
C0R780,滿州,2025-04-03,22.024403,120.839892,0.84817564
C0R790,九棚,2025-04-03,22.14195,120.889281,0.41227219
C0R800,丹路,2025-04-03,22.204481,120.750989,0.5662585
C0R810,內獅,2025-04-03,22.305064,120.642986,0.33034086
C0R830,高士,2025-04-03,22.121825,120.836781,0.05497568
C0R850,林邊,2025-04-03,22.4634,120.5339,0.8918025
C0R860,鼻頭,2025-04-03,22.1043,120.8979,0.43804738
C0R870,興海,2025-04-03,21.9752,120.8439,0.3787367
C0R880,後壁湖,2025-04-03,21.9457,120.7457,0.07733701
C0R890,山海,2025-04-03,21.9878,120.7091,0.07703826
C0R900,竹坑,2025-04-03,22.1385,120.7022,0.07671769
C0R910,下寮,2025-04-03,22.3929,120.5548,0.35947037
C0R920,塭仔,2025-04-03,22.4169,120.5197,0.35621783
C0R930,萬丹,2025-04-03,22.5885,120.4851,0.98335075
C0R940,加祿堂,2025-04-03,22.3363,120.6217,0.34223983
C0R950,萬隆國小,2025-04-03,22.507667,120.587817,0.85919785
C0R960,內埔,2025-04-03,22.608483,120.570714,0.8590781
C0S710,鹿野,2025-04-03,22.917711,121.122994,0.5614022
C0S730,綠島,2025-04-03,22.6672,121.47533,0.9730845
C0S740,池上,2025-04-03,23.119628,121.209469,0.2779581
C0S770,大溪山,2025-04-03,22.478475,120.943325,0.72893405
C0S790,金崙,2025-04-03,22.538122,120.966875,0.93878216
C0S810,東河,2025-04-03,22.972672,121.303986,0.56752104
C0S830,長濱,2025-04-03,23.286817,121.411975,0.38919857
C0S840,南田,2025-04-03,22.279725,120.889208,0.83652246
C0S890,關山,2025-04-03,23.0395,121.175017,0.38410714
C0S900,蘭嶼高中,2025-04-03,22.04909,121.51214,0.09769818
C0S910,蘭嶼燈塔,2025-04-03,22.081197,121.503117,0.2744288
C0S920,金峰嘉蘭,2025-04-03,22.594789,120.960825,0.98217523
C0S930,延平,2025-04-03,22.902581,121.084058,0.70391184
C0S940,石寧山,2025-04-03,23.223772,121.406639,0.7285913
C0S950,七塊厝,2025-04-03,22.954453,121.229922,0.4869168
C0S960,香蘭,2025-04-03,22.587569,120.993375,0.98454434
C0S970,加津林,2025-04-03,22.416211,120.926942,0.9319171
C0S990,山豬窟,2025-04-03,22.318619,120.857372,0.57860523
C0SA00,歷坵,2025-04-03,22.520969,120.89185,0.7323555
C0SA10,檳榔四格山,2025-04-03,22.810031,121.109308,0.33767512
C0SA30,都歷,2025-04-03,23.020333,121.323642,0.6786847
C0SA40,瑞和,2025-04-03,22.974361,121.156697,0.7840388
C0SA60,知本（水試所）,2025-04-03,22.702394,121.082761,0.9883049
C0SA80,土坂,2025-04-03,22.453108,120.887572,0.9200701
C0SA90,達仁林場,2025-04-03,22.264347,120.823972,0.047699157
C0SB10,美和,2025-04-03,22.682078,121.060236,0.9881241
C0SB20,富岡,2025-04-03,22.792467,121.192669,0.72303754
C0SB30,新蘭,2025-04-03,22.869214,121.223228,0.90491295
C0SB40,興隆,2025-04-03,22.913661,121.257469,0.8989804
C0SB50,叭嗡嗡,2025-04-03,23.047062,121.343223,0.79915434
C0SB60,白守蓮,2025-04-03,23.126769,121.401914,0.909931
C0SB70,小港漁港,2025-04-03,23.158558,121.400431,0.96168506
C0SB80,長濱漁港,2025-04-03,23.313644,121.459994,0.8983539
C0T870,鯉魚潭,2025-04-03,23.935639,121.508944,0.8084568
C0T900,西林,2025-04-03,23.8119,121.441458,0.7938351
C0T960,光復,2025-04-03,23.660694,121.424964,0.7734376
C0T9A0,月眉山,2025-04-03,23.809928,121.539828,0.19399704
C0T9D0,和中,2025-04-03,24.26676,121.74103,0.24180035
C0T9E0,大坑,2025-04-03,23.880628,121.581981,0.25558454
C0T9F0,水璉,2025-04-03,23.797131,121.542514,0.5759144
C0T9I0,豐濱,2025-04-03,23.583897,121.514806,0.8243426
C0T9M0,靜浦,2025-04-03,23.455167,121.495028,0.7402901
C0T9N0,富里,2025-04-03,23.171639,121.249378,0.6507127
C0TA10,花蓮漁港,2025-04-03,23.995322,121.638331,0.8368608
C0TA20,加灣,2025-04-03,24.082025,121.608944,0.40235254
C0TA30,鹽寮,2025-04-03,23.845606,121.592664,0.9389474
C0U600,礁溪,2025-04-03,24.817539,121.765608,0.2749281
C0U650,玉蘭,2025-04-03,24.675286,121.587061,0.16213006
C0U750,龜山島,2025-04-03,24.841667,121.953133,0.0008281948
C0U760,東澳,2025-04-03,24.52196,121.83318,0.7108574
C0U770,南澳,2025-04-03,24.44935,121.81022,0.3293732
C0U780,五結,2025-04-03,24.68637,121.79794,0.38306397
C0U860,頭城,2025-04-03,24.85323,121.8308,0.29574355
C0U870,大礁溪,2025-04-03,24.791042,121.675047,0.07088711
C0U880,北關,2025-04-03,24.9072,121.8734,0.49946532
C0U890,三星,2025-04-03,24.66812,121.65302,0.5149807
C0U900,內城,2025-04-03,24.71813,121.68766,0.30429327
C0U910,冬山,2025-04-03,24.63373,121.7937,0.43916446
C0U940,羅東,2025-04-03,24.68184,121.74934,0.35759348
C0U970,大福,2025-04-03,24.80064,121.81389,0.24638622
C0U990,員山,2025-04-03,24.74435,121.72247,0.36377588
C0UA00,土場,2025-04-03,24.576533,121.495333,0.39474553
C0UA80,大溪漁港,2025-04-03,24.941801,121.902955,0.522343
C0UA90,石城,2025-04-03,24.980444,121.951214,0.89071864
C0UB00,淡江大學蘭陽校園,2025-04-03,24.823239,121.730383,0.15102704
C0UB10,蘇澳,2025-04-03,24.5969,121.8571,0.7606851
C0UB20,壯圍,2025-04-03,24.7359,121.8163,0.3959114
C0V350,溪埔,2025-04-03,22.738578,120.446797,0.9863687
C0V360,內門,2025-04-03,22.975481,120.466769,0.8940233
C0V370,古亭坑,2025-04-03,22.893178,120.401947,0.92985237
C0V400,阿公店,2025-04-03,22.804194,120.355528,0.9221073
C0V440,鳳山,2025-04-03,22.646653,120.356122,0.82845134
C0V450,鳳森,2025-04-03,22.545064,120.392592,0.9116555
C0V490,新興,2025-04-03,22.627422,120.298803,0.85061145
C0V530,阿蓮,2025-04-03,22.883208,120.327508,0.9642518
C0V610,梓官,2025-04-03,22.760558,120.267211,0.7334623
C0V620,永安,2025-04-03,22.82315,120.236856,0.86531234
C0V630,茄萣,2025-04-03,22.906642,120.182608,0.9699156
C0V640,湖內,2025-04-03,22.887139,120.2445,0.95042247
C0V650,彌陀,2025-04-03,22.783806,120.246361,0.8673588
C0V660,岡山,2025-04-03,22.797078,120.294958,0.8673588
C0V680,仁武,2025-04-03,22.701083,120.347722,0.8505995
C0V690,鼓山,2025-04-03,22.623325,120.275575,0.85061145
C0V700,三民,2025-04-03,22.645017,120.311233,0.82565844
C0V710,苓雅,2025-04-03,22.622742,120.330669,0.84847224
C0V720,林園,2025-04-03,22.507747,120.394511,0.9348452
C0V730,大寮,2025-04-03,22.605614,120.395717,0.8468481
C0V740,旗山,2025-04-03,22.888614,120.483597,0.9821581
C0V750,路竹,2025-04-03,22.854997,120.259439,0.948203
C0V760,橋頭,2025-04-03,22.757806,120.30575,0.7334623
C0V770,大社,2025-04-03,22.730306,120.346639,0.760364
C0V790,萬山,2025-04-03,22.905944,120.688056,0.9401096
C0V800,六龜,2025-04-03,22.997889,120.633583,0.95668113
C0V810,左營,2025-04-03,22.67491,120.28491,0.82565844
C0V820,小林,2025-04-03,23.148408,120.63325,0.78790724
C0V840,鳳鼻頭,2025-04-03,22.5083,120.3591,0.94671786
C0V850,蚵仔寮,2025-04-03,22.7256,120.2527,0.7393653
C0V860,南寮,2025-04-03,22.7616,120.2339,0.7393653
C0V870,文安,2025-04-03,22.8025,120.2164,0.8730613
C0V880,興達,2025-04-03,22.8778,120.2127,0.9526122
C0V890,前鎮,2025-04-03,22.5718,120.3117,0.84788585
C0V900,汕尾,2025-04-03,22.4782,120.4151,0.8945864
C0V910,大樹,2025-04-03,22.684645,120.432803,0.94713885
C0W200,湖西,2025-04-03,23.596314,119.67275,0.015603329
C0X050,東河,2025-04-03,23.296598,120.385608,0.96298003
C0X060,下營,2025-04-03,23.22695,120.256261,0.95205486
C0X080,佳里,2025-04-03,23.173039,120.145086,0.26262826
C0X100,臺南市北區,2025-04-03,23.010394,120.194228,0.9216108
C0X110,臺南市南區,2025-04-03,22.961189,120.188378,0.9921975
C0X120,麻豆,2025-04-03,23.183289,120.248611,0.9475761
C0X130,官田,2025-04-03,23.193217,120.315422,0.98552907
C0X140,西港,2025-04-03,23.125608,120.203108,0.9531548
C0X150,安定,2025-04-03,23.102614,120.227839,0.9531548
C0X160,仁德,2025-04-03,22.968258,120.257689,0.99215233
C0X170,關廟,2025-04-03,22.963017,120.327797,0.9935109
C0X180,山上,2025-04-03,23.0757,120.363253,0.9456398
C0X190,安平,2025-04-03,22.993161,120.152181,0.9216108
C0X200,左鎮,2025-04-03,23.056758,120.408522,0.97299045
C0X210,白河,2025-04-03,23.347466,120.414427,0.99000067
C0X220,學甲,2025-04-03,23.230367,120.182187,0.58083475
C0X230,鹽水,2025-04-03,23.272621,120.247641,0.8475967
C0X240,關子嶺,2025-04-03,23.331169,120.508025,0.9117277
C0X250,新營,2025-04-03,23.310689,120.316681,0.9365258
C0X260,後壁,2025-04-03,23.366358,120.362326,0.97088856
C0X280,將軍,2025-04-03,23.214999,120.13577,0.6039198
C0X290,北門,2025-04-03,23.267772,120.125481,0.6039198
C0X300,鹿寮,2025-04-03,23.386047,120.477331,0.9902966
C0X320,柳營,2025-04-03,23.253328,120.375253,0.97944427
C0Z020,明里,2025-04-03,23.208717,121.262342,0.49735743
C0Z061,玉里,2025-04-03,23.3215,121.339656,0.70757943
C0Z070,舞鶴,2025-04-03,23.46811,121.37407,0.17418902
C0Z080,富源,2025-04-03,23.587642,121.378225,0.7378168
C0Z100,東華,2025-04-03,23.89525,121.549833,0.92145085
C0Z150,吉安光華,2025-04-03,23.930925,121.595153,0.9309492
C0Z160,鳳林,2025-04-03,23.746114,121.453411,0.96999145
C0Z170,卓溪,2025-04-03,23.3443,121.3029,0.39689702
C0Z180,新城,2025-04-03,24.03946,121.60454,0.7956871
C0Z190,富世,2025-04-03,24.14743,121.6297,0.30898234
C0Z200,萬榮,2025-04-03,23.709219,121.420106,0.95657396
C0Z210,瑞穗,2025-04-03,23.5239,121.39021,0.7894161
C0Z230,和平,2025-04-03,24.30717,121.77007,0.2519363
C0Z270,蕃薯寮,2025-04-03,23.73835,121.540108,0.7514378
C0Z280,德武,2025-04-03,23.47426,121.41071,0.30952445
C0Z300,東里,2025-04-03,23.26853,121.30547,0.6512406
C0Z310,清水斷崖,2025-04-03,24.218294,121.689142,0.007229094
C0Z330,安通山,2025-04-03,23.290728,121.348528,0.08781024
C2A540,四堵,2025-04-03,24.8926,121.745736,0.046651684
C2A560,福山,2025-04-03,24.776203,121.502811,0.4185743
C2A650,火燒寮,2025-04-03,25.002719,121.742892,0.38904086
C2A660,瑞芳,2025-04-03,25.113169,121.801147,0.49289522
C2A880,福隆,2025-04-03,25.017842,121.942083,0.9031862
C2A920,富貴角,2025-04-03,25.263783,121.565258,0.9441459
C2C410,中央大學,2025-04-03,24.967652,121.185165,0.36035502
C2D720,關西工作站,2025-04-03,24.757275,121.184792,0.98685277
C2D730,寶山農場,2025-04-03,24.732444,120.976153,0.9914072
C2E520,大湖,2025-04-03,24.414939,120.870872,0.9989017
C2E540,龍溪,2025-04-03,24.606489,120.783933,0.9964692
C2E970,八甲,2025-04-03,24.535811,120.795983,0.9869872
C2F000,大肚,2025-04-03,24.15295,120.572117,0.9801458
C2F930,大甲,2025-04-03,24.347667,120.640403,0.26318714
C2F9A0,中竹林,2025-04-03,24.103556,120.751061,0.94589055
C2G640,鹿港,2025-04-03,24.0753,120.430481,0.55311966
C2G840,北斗,2025-04-03,23.877586,120.514222,0.91134405
C2G870,芳苑,2025-04-03,23.922303,120.320025,0.10286824
C2G980,田頭村,2025-04-03,23.8263,120.444175,0.8708343
C2G9A0,畜試所彰化,2025-04-03,23.86045,120.557964,0.99520284
C2H950,中寮,2025-04-03,23.884447,120.766406,0.99026066
C2H9F0,柑林,2025-04-03,24.018658,120.847072,0.960416
C2H9H0,苗改南投蜂場,2025-04-03,23.852589,120.693481,0.9877223
C2H9T0,名間竹圍,2025-04-03,23.859914,120.637572,0.83513236
C2H9U0,鳳鵬,2025-04-03,23.763919,120.788061,0.5717314
C2K620,馬光農場,2025-04-03,23.721453,120.378864,0.85284257
C2K630,荷苞,2025-04-03,23.657717,120.595144,0.9929486
C2M410,馬頭山,2025-04-03,23.324361,120.582017,0.9664491
C2M910,嘉義大學,2025-04-03,23.471325,120.485903,0.99525714
C2M920,朴子農改,2025-04-03,23.469889,120.259383,0.95235926
C2N160,西拉雅風管處,2025-04-03,23.189481,120.335297,0.98529506
C2O810,曾文,2025-04-03,23.219681,120.497328,0.8914198
C2O930,玉井,2025-04-03,23.126042,120.46055,0.9456398
C2O950,安南,2025-04-03,23.076694,120.144861,0.20708905
C2R170,屏東,2025-04-03,22.66027,120.49403,0.98915917
C2R970,屏科大,2025-04-03,22.648275,120.619247,0.88651615
C2V250,甲仙,2025-04-03,23.080106,120.591758,0.69308144
C2V260,月眉,2025-04-03,22.971003,120.539853,0.9773022
C2V310,美濃,2025-04-03,22.898792,120.51907,0.982833
C2W230,畜試所澎湖,2025-04-03,23.628342,119.513206,0.0027857758
CAG100,王功漁港,2025-04-03,23.96824,120.32586,0.08938384
CAH030,茶改場竹圍站,2025-04-03,23.860083,120.637528,0.83513236
CAJ050,海口故事園區,2025-04-03,23.57543,120.14121,0.1139208
CAL110,布袋國中,2025-04-03,23.35893,120.18026,0.8508555
CAN130,水試所海水繁養殖中心,2025-04-03,23.120802,120.07968,0.23614384
CAN140,六官養殖協會,2025-04-03,23.22881,120.29962,0.95205486
CAQ030,崎峰國小,2025-04-03,22.42565,120.49521,0.8945864
E2K600,四湖植物園,2025-04-03,23.676986,120.163433,0.16710974
E2P980,林試六龜中心,2025-04-03,22.991703,120.645722,0.9513911
E2S960,林試太麻里2,2025-04-03,22.598,120.99775,0.98463523
E2S980,林試太麻里1,2025-04-03,22.598922,120.980044,0.9822196
G2AI50,關渡,2025-04-03,25.11575,121.492,0.8608012
G2F820,農試所(霧峰),2025-04-03,24.031261,120.688133,0.9951437
G2L020,農試嘉義分所,2025-04-03,23.485028,120.473806,0.9965475
G2M350,農試溪口農場,2025-04-03,23.58565,120.408111,0.9971773
G2P820,農試鳳山分所,2025-04-03,22.646611,120.356083,0.82845134
K2E360,苗栗農改場,2025-04-03,24.495722,120.829111,0.9965811
K2E710,苗改生物防治研究中心,2025-04-03,24.422861,120.871833,0.9990244
K2F750,種苗改良場,2025-04-03,24.225972,120.800917,0.83368516
U2HA50,臺大竹山,2025-04-03,23.756972,120.681556,0.99124235
V2C250,八德合作社,2025-04-03,24.93775,121.266389,0.85411114
V2C260,八德蔬果,2025-04-03,24.978508,121.281819,0.69172895
V2K610,大庄合作社,2025-04-03,23.8068,120.367939,0.26990837
V2K620,麥寮合作社,2025-04-03,23.753836,120.294783,0.41731656
