站號,站名,日期,lat,lon,BlastGRU-TW
C0G940,竹塘,2025-02-24,23.848253,120.386764,0.0012160926
467590,恆春,2025-02-24,22.003897,120.746339,0.0009685539
C0E820,獅潭,2025-02-24,24.539133,120.920042,0.0010994808
C0AD40,土城,2025-02-24,24.973208,121.445169,0.000752901
C0F9Z0,雪山東峰,2025-02-24,24.388792,121.268675,0.00053083024
467650,日月潭,2025-02-24,23.881325,120.90805,0.0043868492
C0K600,箔子寮,2025-02-24,23.6197,120.14,0.0007062848
C0G830,埤頭,2025-02-24,23.866003,120.452806,0.0016943878
467110,金門,2025-02-24,24.407306,118.289281,0.0005074157
C0AH80,深坑,2025-02-24,25.002703,121.628328,0.00072318676
467990,馬祖,2025-02-24,26.169269,119.923419,0.00077071105
C0A970,三貂角,2025-02-24,25.007606,122.002058,0.0023503085
C0K430,褒忠,2025-02-24,23.690938,120.303634,0.00055929844
467480,嘉義,2025-02-24,23.495925,120.432906,0.0010326791
C0K280,四湖,2025-02-24,23.630414,120.227125,0.0005531481
C0K390,土庫,2025-02-24,23.679029,120.395574,0.0020213681
C0E910,海埔,2025-02-24,24.648767,120.772435,0.0007018978
C0F0C0,中坑,2025-02-24,24.248517,120.903319,0.0008326252
C0A770,科教館,2025-02-24,25.096356,121.516507,0.00064921076
C0AJ60,六塊厝,2025-02-24,25.24,121.4481,0.0014271649
467420,永康,2025-02-24,23.038386,120.2367,0.0023528365
467300,東吉島,2025-02-24,23.25695,119.667467,0.0005357673
C0I410,名間,2025-02-24,23.837053,120.701447,0.0016894572
C0K450,大埤,2025-02-24,23.646074,120.431537,0.0026476209
467080,宜蘭,2025-02-24,24.763975,121.756528,0.000934597
C0D660,新竹市東區,2025-02-24,24.798681,120.986942,0.0006994624
C0C710,大溪永福,2025-02-24,24.892936,121.324975,0.0015998725
C0FA20,溫寮,2025-02-24,24.372177,120.583125,0.0004925221
C0C660,楊梅,2025-02-24,24.912375,121.143047,0.00077839487
C0F9M0,豐原,2025-02-24,24.254322,120.720692,0.0010326747
C0C740,觀音工業區,2025-02-24,25.064764,121.114856,0.0008355476
C0AJ90,澳底,2025-02-24,25.0552,121.9253,0.0023026932
C0G970,三豐,2025-02-24,23.882,120.2895,0.00055961945
C0F9I0,神岡,2025-02-24,24.272481,120.658314,0.00067845394
C0K460,斗南,2025-02-24,23.678734,120.478359,0.002591533
467410,臺南,2025-02-24,22.993239,120.204772,0.0013444435
467280,後龍,2025-02-24,24.648563,120.831834,0.0006909967
466930,竹子湖,2025-02-24,25.162078,121.544547,0.0012047756
C0I390,仁愛,2025-02-24,24.022122,121.132206,0.002311146
C0K510,水林,2025-02-24,23.572924,120.24597,0.0007734896
C0K590,雲林東勢,2025-02-24,23.674192,120.255721,0.0005735849
C0A570,桶後,2025-02-24,24.848222,121.597992,0.0021209328
C0G720,溪州,2025-02-24,23.851589,120.499093,0.0016554144
C0AH70,松山,2025-02-24,25.04871,121.55042,0.0006419769
C0E791,卓蘭,2025-02-24,24.3126,120.8244,0.0023968986
C0G920,永靖,2025-02-24,23.924703,120.547533,0.0007879697
C0F9X0,大雅(中科園區),2025-02-24,24.21528,120.62445,0.00047807852
C0C730,中大臨海站,2025-02-24,24.966126,121.008581,0.00080822693
C0E870,高鐵苗栗,2025-02-24,24.60725,120.826094,0.00052601664
C0I420,國姓,2025-02-24,24.037803,120.855072,0.00646026
C0G740,大城,2025-02-24,23.852487,120.320935,0.00055737596
C0D360,梅花,2025-02-24,24.678347,121.208558,0.00094294886
C0AI10,屈尺,2025-02-24,24.92184,121.54475,0.0017759848
C0G900,線西,2025-02-24,24.143358,120.443536,0.0004781831
C0M700,竹崎,2025-02-24,23.526178,120.555508,0.002037757
C0C720,竹圍,2025-02-24,25.112692,121.239824,0.000683594
C0F9P0,清水,2025-02-24,24.312297,120.562242,0.000486679
C0F9O0,潭子,2025-02-24,24.213106,120.703933,0.0010832075
C0E780,銅鑼,2025-02-24,24.489681,120.790853,0.00068450527
C0E830,苑裡,2025-02-24,24.439714,120.653053,0.00049230765
467270,田中,2025-02-24,23.873803,120.581286,0.0025484604
C0F970,大坑,2025-02-24,24.173142,120.722289,0.0012442962
C0A931,三和,2025-02-24,25.233153,121.595236,0.0014911253
C0I010,廬山,2025-02-24,24.033311,121.181808,0.0013190553
C0E810,西湖,2025-02-24,24.562947,120.7485,0.00066340517
C0M680,太保,2025-02-24,23.455062,120.331455,0.0010945894
C0AD10,八里,2025-02-24,25.150211,121.403947,0.0006819567
C0K440,二崙,2025-02-24,23.772797,120.408944,0.0018348398
C0F9N0,大里,2025-02-24,24.092464,120.701378,0.0030277174
C0AC70,信義,2025-02-24,25.037822,121.564597,0.00064052414
C0K560,棋山,2025-02-24,23.68645,120.603417,0.0020892613
C0K530,臺西,2025-02-24,23.701547,120.197559,0.000556872
C0AJ50,水湳洞,2025-02-24,25.123695,121.862238,0.001734051
C0AI20,白沙灣,2025-02-24,25.283128,121.519058,0.0013787439
C0A860,大坪,2025-02-24,25.165914,121.632969,0.0018091843
C0K550,蔦松,2025-02-24,23.514319,120.229736,0.0007530363
C0E590,通霄,2025-02-24,24.471892,120.704622,0.0006761727
C0A550,泰平,2025-02-24,24.971197,121.823711,0.002556586
C0I360,水里,2025-02-24,23.812553,120.849792,0.0030073654
C0AJ20,野柳,2025-02-24,25.20703,121.690021,0.001995532
C0B060,暖暖,2025-02-24,25.0957,121.7403,0.0008127558
C0E930,龍鳳,2025-02-24,24.700034,120.859125,0.00065347104
C0M750,布袋,2025-02-24,23.380878,120.167789,0.0008758682
C0D690,外湖,2025-02-24,24.917735,120.968711,0.00078080565
C0C750,新興坑尾,2025-02-24,25.0061,121.0971,0.0007669233
C0AH90,福山植物園,2025-02-24,24.760717,121.58135,0.00482199
C0I540,奇萊稜線,2025-02-24,24.109231,121.326456,0.0005188294
C0AG80,中和,2025-02-24,24.991622,121.491792,0.0007528013
467571,新竹,2025-02-24,24.827853,121.014219,0.00071319053
C0G810,埔心,2025-02-24,23.947633,120.525456,0.00079183216
C0M520,東後寮,2025-02-24,23.369908,120.248065,0.0010467208
C0A640,石碇,2025-02-24,24.993969,121.662917,0.00075573835
C0F9Y0,桃山,2025-02-24,24.432739,121.303808,0.0005365998
C0M650,朴子,2025-02-24,23.43463,120.23902,0.0008967043
C0G820,田尾,2025-02-24,23.901669,120.509389,0.00078944874
C0E430,南庄,2025-02-24,24.601775,121.000214,0.0010880987
466920,臺北,2025-02-24,25.037658,121.514853,0.0006419769
466910,鞍部,2025-02-24,25.182586,121.529731,0.0016023675
C0G620,芬園,2025-02-24,24.015678,120.6213,0.0010681327
C0F9Q0,外埔,2025-02-24,24.347817,120.705686,0.0007122763
C0K580,高鐵雲林,2025-02-24,23.737456,120.417944,0.0019062209
C0C670,龍潭,2025-02-24,24.870056,121.221389,0.001192722
C0D680,香山濕地,2025-02-24,24.783581,120.914988,0.00072161295
C0D650,湖口,2025-02-24,24.904794,121.043628,0.0007196252
C0E420,竹南,2025-02-24,24.708978,120.888897,0.0006429627
C0F9K0,大安,2025-02-24,24.345061,120.588025,0.0004869013
467290,古坑,2025-02-24,23.633639,120.551889,0.0022186802
C0E740,造橋,2025-02-24,24.637056,120.864778,0.00069548766
C0D580,寶山,2025-02-24,24.735006,121.025192,0.0011166236
C0AI30,三重,2025-02-24,25.057328,121.500629,0.00064921076
C0AH00,汐止,2025-02-24,25.066881,121.658778,0.0006419769
C0A950,鼻頭角,2025-02-24,25.129036,121.923372,0.00090863387
C0K470,林內,2025-02-24,23.748675,120.609642,0.0020241963
C0M670,大林,2025-02-24,23.600616,120.45841,0.0010050768
C0A9C0,天母,2025-02-24,25.117494,121.537169,0.00069814053
C0B050,八斗子,2025-02-24,25.144754,121.79167,0.0017829337
C0F9T0,西屯,2025-02-24,24.179494,120.641275,0.00048619954
C0C620,蘆竹,2025-02-24,25.084275,121.265767,0.00061810936
C0AJ40,石門,2025-02-24,25.273672,121.601198,0.0011819702
C0E750,苗栗,2025-02-24,24.564569,120.824575,0.000722394
C0AJ70,田寮,2025-02-24,25.2698,121.4886,0.0013903818
C0AI00,五股,2025-02-24,25.07445,121.42728,0.0007557412
C0C460,復興,2025-02-24,24.820208,121.352281,0.001890629
C0M640,中埔,2025-02-24,23.42538,120.5229,0.001991338
C0ACA0,新莊,2025-02-24,25.051478,121.446756,0.0005966622
467490,臺中,2025-02-24,24.145736,120.684075,0.000991298
467620,蘭嶼,2025-02-24,22.036969,121.558339,0.0007325208
C0AC80,文山,2025-02-24,25.00235,121.575728,0.0007209631
C0F9R0,龍井,2025-02-24,24.184536,120.528972,0.0004806925
C0D550,雪霸,2025-02-24,24.526972,121.11605,0.00075700006
C0B020,基隆嶼,2025-02-24,25.19141,121.78391,0.0010600499
C0M730,嘉義市東區,2025-02-24,23.457673,120.460531,0.0013358225
C0G960,福寶,2025-02-24,24.0443,120.3814,0.0006505433
C0FA50,霧峰,2025-02-24,24.0419,120.6995,0.00073542004
C0G950,防潮門,2025-02-24,24.1835,120.4871,0.00048112593
C0M740,六腳,2025-02-24,23.492871,120.290625,0.0009054207
C0K330,虎尾,2025-02-24,23.719183,120.442036,0.0018664838
C0C680,龜山,2025-02-24,25.02846,121.38656,0.000588838
C0D670,海天一線,2025-02-24,24.831986,120.914438,0.00068736525
C0M710,東石,2025-02-24,23.458927,120.15385,0.0007155679
C0B010,七堵,2025-02-24,25.094819,121.71713,0.0008626328
C0K410,北港,2025-02-24,23.573957,120.292802,0.00076975755
C0F0E0,南湖圈谷,2025-02-24,24.363714,121.444667,0.0003319957
467610,成功,2025-02-24,23.097486,121.373428,0.0013801326
C0G890,伸港,2025-02-24,24.148933,120.484403,0.00047781676
C0C700,中壢,2025-02-24,24.977661,121.256375,0.0008790528
C0M690,水上,2025-02-24,23.419734,120.388909,0.001077576
C0AJ30,淡水觀海,2025-02-24,25.184591,121.408616,0.0011290826
C0A9F0,內湖,2025-02-24,25.079422,121.57545,0.0006419769
C0K291,宜梧,2025-02-24,23.536281,120.169329,0.000757004
C0AJ80,板橋,2025-02-24,25.0107,121.4489,0.0007573377
C0E730,頭份,2025-02-24,24.688247,120.912206,0.0006438359
C0K480,莿桐,2025-02-24,23.761192,120.502372,0.0023764975
467350,澎湖,2025-02-24,23.565503,119.563094,0.00048672842
C0G800,埔鹽,2025-02-24,24.000394,120.431683,0.0006667147
C0H960,草屯,2025-02-24,23.973672,120.68085,0.0007195659
C0E920,通霄漁港,2025-02-24,24.498589,120.673876,0.0005008424
C0AH10,永和,2025-02-24,25.01125,121.508111,0.00075988716
467050,新屋,2025-02-24,25.006744,121.047486,0.0007928515
C0M530,奮起湖,2025-02-24,23.493903,120.699253,0.0011801949
C0C590,觀音,2025-02-24,25.027072,121.153317,0.0007915686
C0AI40,石牌,2025-02-24,25.115597,121.513139,0.0007032443
C0G880,二水,2025-02-24,23.810742,120.6173,0.001785807
467660,臺東,2025-02-24,22.752211,121.154586,0.0014163576
467550,玉山,2025-02-24,23.487614,120.959522,0.00040792415
C0A940,金山,2025-02-24,25.223628,121.643967,0.001939339
467790,墾丁雷達站,2025-02-24,21.948235,120.808028,0.00069897104
466881,新北,2025-02-24,24.9593,121.52,0.0007420919
C0F850,東勢,2025-02-24,24.246428,120.833047,0.0021863119
466900,淡水,2025-02-24,25.164889,121.448906,0.0006769842
C0I370,魚池,2025-02-24,23.895703,120.94135,0.0028518483
C0C630,大溪,2025-02-24,24.882853,121.265547,0.0010102422
C0A520,山佳,2025-02-24,24.974944,121.402008,0.0008045695
C0I110,竹山,2025-02-24,23.761225,120.688156,0.001494663
C0G660,溪湖,2025-02-24,23.94835,120.479122,0.0007976499
C0AC60,三峽,2025-02-24,24.939025,121.369728,0.0011721893
C0I490,萬大林道,2025-02-24,23.928228,121.091411,0.001013126
C0A980,社子,2025-02-24,25.109508,121.469681,0.0006883332
C0FA40,臺中電廠,2025-02-24,24.2146,120.4907,0.00048052345
C0H9C0,合歡山,2025-02-24,24.143442,121.272547,0.0005979132
C0D430,峨眉,2025-02-24,24.6905,121.017189,0.0011457076
C0G780,秀水,2025-02-24,24.03405,120.503869,0.00076650386
467540,大武,2025-02-24,22.355675,120.903789,0.02215095
C0A530,坪林,2025-02-24,24.938183,121.70975,0.00095535134
C0G770,福興,2025-02-24,24.041289,120.437669,0.0006668828
C0H9A0,神木村,2025-02-24,23.532742,120.843667,0.0011249641
C0I460,南投,2025-02-24,23.911469,120.687331,0.000717418
C0I480,梅峰,2025-02-24,24.085272,121.173572,0.00079172995
C0AH30,五分山,2025-02-24,25.07125,121.780794,0.0029168802
C0FA10,松柏,2025-02-24,24.429115,120.617482,0.0004959599
C0C650,平鎮,2025-02-24,24.897503,121.214636,0.0010070215
466940,基隆,2025-02-24,25.133314,121.740475,0.0017732151
C0I380,集集,2025-02-24,23.828206,120.801467,0.003137731
466990,花蓮,2025-02-24,23.975128,121.613275,0.005205147
C0D590,新豐,2025-02-24,24.87068,120.97721,0.0008309627
C0A870,五指山,2025-02-24,25.132153,121.608692,0.0011041011
C0G650,員林,2025-02-24,23.946503,120.585597,0.0013142589
C0AD50,鶯歌,2025-02-24,24.951533,121.346294,0.0011476065
C0K400,斗六,2025-02-24,23.720583,120.541127,0.0027904506
C0D700,關西,2025-02-24,24.7977,121.1732,0.0008662728
467530,阿里山,2025-02-24,23.508208,120.813242,0.000471795
C0FA30,梧棲,2025-02-24,24.256003,120.523381,0.0004865531
C0F9V0,新社,2025-02-24,24.200172,120.815806,0.0011462512
C0H890,埔里,2025-02-24,23.972169,120.952425,0.0014450277
C0F0D0,審馬陣,2025-02-24,24.381675,121.4203,0.00038652096
C0D480,打鐵坑,2025-02-24,24.849664,121.150789,0.0011912124
C0D560,竹東,2025-02-24,24.767147,121.057881,0.0011039444
C0F9U0,南屯,2025-02-24,24.137006,120.637969,0.0006966229
C0M720,番路,2025-02-24,23.464657,120.554156,0.0044550663
C0F0A0,雪山圈谷,2025-02-24,24.388594,121.236339,0.00049915956
C0AC40,大屯山,2025-02-24,25.175675,121.522408,0.0013096941
466850,五分山雷達站,2025-02-24,25.071182,121.781205,0.0028490152
C0K420,西螺,2025-02-24,23.800407,120.467394,0.0017952457
C0AD30,蘆洲,2025-02-24,25.086594,121.472331,0.0006462
C0AH40,平等,2025-02-24,25.129142,121.577086,0.0016412383
466950,彭佳嶼,2025-02-24,25.627975,122.079744,0.0005731543
C0A890,雙溪,2025-02-24,25.036003,121.864242,0.0012468951
C0C480,桃園,2025-02-24,24.992425,121.323172,0.0009007599
C0AH50,林口,2025-02-24,25.072181,121.38084,0.0005746282
C0F9S0,烏日,2025-02-24,24.107058,120.624103,0.0014280526
C0C490,八德,2025-02-24,24.928708,121.283289,0.0010563768
C0E850,大河,2025-02-24,24.618069,120.948578,0.00084635237
C0F9L0,后里,2025-02-24,24.310436,120.729725,0.008028433
C0D540,橫山,2025-02-24,24.71116,121.11693,0.0010168818
C0G730,二林,2025-02-24,23.903325,120.376081,0.00068843644
C0B040,大武崙,2025-02-24,25.166676,121.706993,0.0016983221
C0I080,信義,2025-02-24,23.689694,120.851036,0.0060306266
C0H990,昆陽,2025-02-24,24.121322,121.273642,0.00048584514
C0I530,小奇萊,2025-02-24,24.131764,121.295717,0.0004833213
467441,高雄,2025-02-24,22.7304,120.3125,0.0022369695
C0I520,玉山風口,2025-02-24,23.470489,120.955994,0.00042757337
C0K250,崙背,2025-02-24,23.75555,120.318925,0.0005593406
C0G860,社頭,2025-02-24,23.897647,120.5862,0.0010714077
C0E610,馬都安,2025-02-24,24.451272,120.930192,0.0011145561
C0E550,明德,2025-02-24,24.583486,120.885411,0.0007134023
C0G910,花壇,2025-02-24,24.032076,120.549461,0.00075718976
C0K500,元長,2025-02-24,23.64981,120.315024,0.00057545357
C0F0B0,石岡,2025-02-24,24.276061,120.777644,0.0065926095
C0M660,溪口,2025-02-24,23.604131,120.403569,0.0010330264
