站號,站名,日期,lat,lon,BLBTSLS
C0R710,龍磐,2025-08-22,21.931672,120.838942,0.06146272
C1F9D1,白毛台,2025-08-22,24.158325,120.886933,1.5713708e-06
C0G940,竹塘,2025-08-22,23.848253,120.386764,0.0005889354
467590,恆春,2025-08-22,22.003897,120.746339,0.17445098
C1O850,環湖,2025-08-22,23.148617,120.418633,0.003131369
C0U710,太平山,2025-08-22,24.505486,121.525656,1.6768634e-09
C0E820,獅潭,2025-08-22,24.539133,120.920042,0.8703066
C0V880,興達,2025-08-22,22.8778,120.2127,0.0002891482
C0S890,關山,2025-08-22,23.0395,121.175017,8.692409e-09
C0SB30,新蘭,2025-08-22,22.869214,121.223228,0.15282246
C2R970,屏科大,2025-08-22,22.648275,120.619247,0.15660438
C1Z130,銅門,2025-08-22,23.965694,121.492842,0.0018899137
C0AD40,土城,2025-08-22,24.973208,121.445169,0.652973
CAN140,六官養殖協會,2025-08-22,23.22881,120.29962,0.007514204
C0X180,山上,2025-08-22,23.0757,120.363253,0.00047532757
C0F9Z0,雪山東峰,2025-08-22,24.388792,121.268675,4.8834266e-09
C1M480,獨立山,2025-08-22,23.537022,120.607797,3.1870616e-08
C0X220,學甲,2025-08-22,23.230367,120.182187,0.00035408174
467650,日月潭,2025-08-22,23.881325,120.90805,6.273219e-09
C0K600,箔子寮,2025-08-22,23.6197,120.14,0.00044489067
C0G830,埤頭,2025-08-22,23.866003,120.452806,0.7948676
C0S950,七塊厝,2025-08-22,22.954453,121.229922,6.800899e-08
467110,金門,2025-08-22,24.407306,118.289281,0.03598887
C0AH80,深坑,2025-08-22,25.002703,121.628328,0.63641816
C0A970,三貂角,2025-08-22,25.007606,122.002058,0.9997567
C2D730,寶山農場,2025-08-22,24.732444,120.976153,0.78116846
C0K430,褒忠,2025-08-22,23.690938,120.303634,0.40172562
467480,嘉義,2025-08-22,23.495925,120.432906,0.0033933083
C0V400,阿公店,2025-08-22,22.804194,120.355528,0.0025159148
C0E960,觀霧分站,2025-08-22,24.505781,121.113921,4.5867674e-09
467550,玉山,2025-08-22,23.48718,120.95943,1.0576415e-08
C0R440,大漢山,2025-08-22,22.405264,120.753181,1.279761e-08
C0K280,四湖,2025-08-22,23.630414,120.227125,0.003467104
C1F9B1,桐林,2025-08-22,24.066172,120.735194,0.9018435
C2H9U0,鳳鵬,2025-08-22,23.763919,120.788061,2.1060353e-07
C0K390,土庫,2025-08-22,23.679029,120.395574,0.8090623
C1I450,望鄉山,2025-08-22,23.594153,120.944286,4.527316e-09
C0E910,海埔,2025-08-22,24.648767,120.772435,0.9468841
B2E890,畜試北區分所,2025-08-22,24.527806,120.770972,0.04014594
C0R750,四林格山,2025-08-22,22.076989,120.802439,0.00094412564
C0F0C0,中坑,2025-08-22,24.248517,120.903319,3.7286956e-09
C1I121,大鞍,2025-08-22,23.678381,120.760017,1.5244911e-09
72U480,花改蘭陽分場,2025-08-22,24.686306,121.716583,0.23672146
C0A770,科教館,2025-08-22,25.096356,121.516507,0.40578252
C0AJ60,六塊厝,2025-08-22,25.24,121.4481,0.248735
C0R620,墾雷,2025-08-22,21.900836,120.855269,0.044754274
467420,永康,2025-08-22,23.038386,120.2367,0.12653981
C0I410,名間,2025-08-22,23.837053,120.701447,0.9954674
A2C560,農工中心,2025-08-22,24.985917,121.239833,0.33526772
C0V740,旗山,2025-08-22,22.888614,120.483597,0.0032474482
C0Z061,玉里,2025-08-22,23.3215,121.339656,5.3648578e-06
C0S840,南田,2025-08-22,22.279725,120.889208,0.017407216
C1I470,杉林溪,2025-08-22,23.639517,120.786444,1.5772638e-09
C1X040,東原,2025-08-22,23.291597,120.463822,3.6236182e-05
C0R660,枋寮,2025-08-22,22.367722,120.590647,6.517136e-08
C1R120,上德文,2025-08-22,22.763272,120.704442,1.1831403e-09
C0K450,大埤,2025-08-22,23.646074,120.431537,0.5694669
C0UA00,土場,2025-08-22,24.576533,121.495333,6.5387144e-07
467080,宜蘭,2025-08-22,24.763975,121.756528,0.27349284
C0N030,四草,2025-08-22,23.0235,120.1116,0.010084212
467410,臺南,2025-08-22,22.99328,120.20492,0.0059042727
C0V650,彌陀,2025-08-22,22.783806,120.246361,0.00038712446
C0D660,新竹市東區,2025-08-22,24.798681,120.986942,0.941778
82S580,茶改東部分場,2025-08-22,22.907694,121.130139,0.019831663
C0SB40,興隆,2025-08-22,22.913661,121.257469,0.14176786
467050,新屋,2025-08-22,25.006725,121.047492,0.61908144
C0C710,大溪永福,2025-08-22,24.892936,121.324975,0.23354712
C0FA20,溫寮,2025-08-22,24.372177,120.583125,0.10192061
C0V640,湖內,2025-08-22,22.887139,120.2445,0.00027285144
C0R910,下寮,2025-08-22,22.3929,120.5548,6.517136e-08
C0Z020,明里,2025-08-22,23.208717,121.262342,6.602794e-08
C0M770,嘉義梅山,2025-08-22,23.585398,120.555587,0.0025922747
C0C660,楊梅,2025-08-22,24.912375,121.143047,0.4520989
C1E511,新開,2025-08-22,24.347703,120.827019,0.5568999
G2F820,農試所(霧峰),2025-08-22,24.031261,120.688133,0.99119097
C1I070,和社,2025-08-22,23.591131,120.888861,3.360119e-06
C0TA80,立霧山,2025-08-22,24.183258,121.641899,3.1434295e-09
C2F000,大肚,2025-08-22,24.15295,120.572117,0.958104
C1S850,豐南,2025-08-22,23.122139,121.262389,1.1510118e-09
C2A920,富貴角,2025-08-22,25.263783,121.565258,0.44103786
CAH030,茶改場竹圍站,2025-08-22,23.860083,120.637528,0.00059097994
C0T960,光復,2025-08-22,23.660694,121.424964,0.21312024
C0F9M0,豐原,2025-08-22,24.254322,120.720692,0.34770918
C0R720,旭海,2025-08-22,22.205403,120.887614,0.024739297
C0V710,苓雅,2025-08-22,22.622742,120.330669,4.250603e-06
C0C740,觀音工業區,2025-08-22,25.064764,121.114856,0.71311235
CAC040,拉拉山,2025-08-22,24.699317,121.427133,2.6304257e-08
C0V790,萬山,2025-08-22,22.905944,120.688056,1.9584498e-08
U2HA30,臺大和社,2025-08-22,23.590856,120.888864,3.360119e-06
C2H9K0,屯原,2025-08-22,24.067969,121.209389,3.2117253e-09
C0AJ90,澳底,2025-08-22,25.0552,121.9253,0.999619
C0Z100,東華,2025-08-22,23.89525,121.549833,0.0006684513
C0G970,三豐,2025-08-22,23.882,120.2895,1.5679063e-05
V2K610,大庄合作社,2025-08-22,23.8068,120.367939,0.04878473
C0V900,汕尾,2025-08-22,22.4782,120.4151,0.00013517271
C1R630,龍泉,2025-08-22,22.66701,120.59091,0.26707685
C1AC50,關渡,2025-08-22,25.133486,121.469331,0.5551783
C0C800,四稜,2025-08-22,24.64733,121.4293,4.4961833e-08
C0F9I0,神岡,2025-08-22,24.272481,120.658314,0.02187657
C0K460,斗南,2025-08-22,23.678734,120.478359,0.5964995
C2O810,曾文,2025-08-22,23.219681,120.497328,0.00024850646
467280,後龍,2025-08-22,24.648563,120.831834,0.9558652
C1F9J1,清水林,2025-08-22,24.071242,120.820419,5.6331558e-08
C2A650,火燒寮,2025-08-22,25.002719,121.742892,0.9996335
466930,竹子湖,2025-08-22,25.162078,121.544547,0.9953464
C1I220,樟湖,2025-08-22,23.905333,120.846983,1.933791e-09
C0I390,仁愛,2025-08-22,24.022122,121.132206,5.5418115e-09
C0Z300,東里,2025-08-22,23.26853,121.30547,2.388696e-07
C1V590,新發,2025-08-22,23.057019,120.646064,1.534068e-08
C0K510,水林,2025-08-22,23.572924,120.24597,0.042717624
72S590,東改賓朗果園,2025-08-22,22.813889,121.071278,0.00020509117
82A750,茶改北部分場,2025-08-22,24.955778,121.631222,0.9984206
C1A750,石碇服務區,2025-08-22,25.00872,121.646242,0.4419245
C0X300,鹿寮,2025-08-22,23.386047,120.477331,0.00062053406
G2AI50,關渡,2025-08-22,25.11575,121.492,0.8783427
C0K590,雲林東勢,2025-08-22,23.674192,120.255721,0.39144585
C0A570,桶後,2025-08-22,24.848222,121.597992,0.9972603
C1S800,華源,2025-08-22,22.657883,121.02325,0.6804361
C0G720,溪州,2025-08-22,23.851589,120.499093,0.7964122
C1V160,達卡努瓦,2025-08-22,23.279811,120.705319,1.0932578e-09
C2M410,馬頭山,2025-08-22,23.324361,120.582017,2.3271136e-06
C0V850,蚵仔寮,2025-08-22,22.7256,120.2527,0.00025834684
C0S740,池上,2025-08-22,23.119628,121.209469,0.9101992
C1V390,尖山,2025-08-22,22.813153,120.367789,0.0024356549
C0AH70,松山,2025-08-22,25.04871,121.55042,0.40895757
C0N010,鯤鯓國小,2025-08-22,23.1879,120.0889,0.0026978925
C0R550,新埤,2025-08-22,22.467947,120.582894,0.00011376026
C0SA60,知本（水試所）,2025-08-22,22.702394,121.082761,0.6908647
C0T9I0,豐濱,2025-08-22,23.583897,121.514806,0.02612237
C0UB00,淡江大學蘭陽校園,2025-08-22,24.823239,121.730383,0.9958583
C0W240,九宮,2025-08-22,24.423753,118.240186,0.036620732
C0T9N0,富里,2025-08-22,23.171639,121.249378,0.9625021
U2HA50,臺大竹山,2025-08-22,23.756972,120.681556,0.08929099
C0V840,鳳鼻頭,2025-08-22,22.5083,120.3591,1.2256891e-05
C0X140,西港,2025-08-22,23.125608,120.203108,0.00962718
72D080,桃改五峰分場,2025-08-22,24.612194,121.157167,4.9345865e-09
C2H9P0,伊拿谷,2025-08-22,23.963211,121.088264,1.4254617e-08
C2H9F0,柑林,2025-08-22,24.018658,120.847072,0.6150106
C0TA20,加灣,2025-08-22,24.082025,121.608944,0.7948878
C0V530,阿蓮,2025-08-22,22.883208,120.327508,0.0095911315
C0FB30,八仙山苗圃,2025-08-22,24.192719,121.001366,4.7435726e-09
C1O880,關山,2025-08-22,23.173397,120.594092,2.5519284e-08
C0E791,卓蘭,2025-08-22,24.3126,120.8244,0.23230052
C1I030,武界,2025-08-22,23.913225,121.052483,9.08685e-09
C0R520,崁頂,2025-08-22,22.514781,120.506914,0.021329038
C0R341,牡丹,2025-08-22,22.130036,120.792639,0.0958115
C0R930,萬丹,2025-08-22,22.5885,120.4851,0.9418287
C0S760,紅石,2025-08-22,23.069131,121.126219,4.314815e-09
C2C410,中央大學,2025-08-22,24.967652,121.185165,0.33487824
C1M610,石磐龍,2025-08-22,23.496606,120.663506,4.122325e-09
C0C790,東眼山,2025-08-22,24.8284,121.40888,0.00034591608
C0UA10,鴛鴦湖,2025-08-22,24.590269,121.412228,8.488393e-09
V2C260,八德蔬果,2025-08-22,24.978508,121.281819,0.8417907
C0R800,丹路,2025-08-22,22.204481,120.750989,0.040180277
C0G920,永靖,2025-08-22,23.924703,120.547533,0.59935343
C2M950,太和,2025-08-22,23.538372,120.702961,2.8929206e-09
C1A630,下盆,2025-08-22,24.771003,121.538622,0.20475572
B2N890,畜產試驗所,2025-08-22,23.058972,120.336406,0.24228771
C0UA30,白嶺,2025-08-22,24.527819,121.519031,1.495347e-09
C1V580,溪南(特生中心),2025-08-22,23.084972,120.788475,3.0621958e-09
C1T970,大農,2025-08-22,23.615233,121.413331,0.0049123163
C0R650,竹田,2025-08-22,22.58486,120.54344,0.1328475
C1H900,清流,2025-08-22,24.080775,120.962997,1.0391096e-08
C1C510,水尾,2025-08-22,24.940081,121.087161,0.48822275
C0F9X0,大雅(中科園區),2025-08-22,24.21528,120.62445,0.035187192
C0SB60,白守蓮,2025-08-22,23.126769,121.401914,0.9284893
C0O970,虎頭埤,2025-08-22,23.021375,120.347878,0.00092360424
C0C730,中大臨海站,2025-08-22,24.966126,121.008581,0.6655574
C0X250,新營,2025-08-22,23.310689,120.316681,0.008936629
C0V700,三民,2025-08-22,22.645017,120.311233,0.00010519658
C0U870,大礁溪,2025-08-22,24.791042,121.675047,0.55164194
C0E870,高鐵苗栗,2025-08-22,24.60725,120.826094,0.9524357
A2K570,古坑花卉中心,2025-08-22,23.63353,120.55239,0.0019713927
C0TA30,鹽寮,2025-08-22,23.845606,121.592664,0.0013900112
C0M860,新美,2025-08-22,23.338017,120.683169,9.344555e-09
C1E701,八卦,2025-08-22,24.491756,120.927619,0.0003816292
C0I420,國姓,2025-08-22,24.037803,120.855072,0.2833248
C2D720,關西工作站,2025-08-22,24.757275,121.184792,0.97446954
C0S960,香蘭,2025-08-22,22.587569,120.993375,0.25194556
467620,蘭嶼,2025-08-22,22.0369,121.55843,0.10843684
C0R260,春日,2025-08-22,22.370361,120.628306,3.1389558e-08
72G600,臺中農改場,2025-08-22,24.003028,120.534389,0.5999306
C0Z210,瑞穗,2025-08-22,23.5239,121.39021,0.93958706
C0M820,達邦,2025-08-22,23.453994,120.749517,2.1697577e-09
C0V860,南寮,2025-08-22,22.7616,120.2339,0.00025834684
C0G740,大城,2025-08-22,23.852487,120.320935,1.5033505e-05
C0R920,塭仔,2025-08-22,22.4169,120.5197,7.848043e-08
C0R470,高樹,2025-08-22,22.826389,120.600806,0.00020181363
C0R680,佳樂水,2025-08-22,21.993578,120.861633,0.6570461
C1O870,大棟山,2025-08-22,23.31157,120.52226,3.570829e-09
C0D360,梅花,2025-08-22,24.678347,121.208558,0.48491582
C0Z190,富世,2025-08-22,24.14743,121.6297,0.52609986
C0AI10,屈尺,2025-08-22,24.92184,121.54475,0.38936576
B2U990,畜試東區分所,2025-08-22,24.669039,121.832561,0.9848305
C0SB80,長濱漁港,2025-08-22,23.313644,121.459994,0.00013397982
C0TA50,和仁,2025-08-22,24.241394,121.712472,9.978278e-09
C0R240,來義,2025-08-22,22.527306,120.625111,0.0050763534
C0V910,大樹,2025-08-22,22.684645,120.432803,0.016680809
C1R610,西大武山,2025-08-22,22.617719,120.7322,8.677781e-09
C0G900,線西,2025-08-22,24.143358,120.443536,0.00045334923
C0M700,竹崎,2025-08-22,23.526178,120.555508,0.036986005
C2E880,三義,2025-08-22,24.405478,120.749819,0.00052570435
C0C720,竹圍,2025-08-22,25.112692,121.239824,0.87843704
C0F9P0,清水,2025-08-22,24.312297,120.562242,0.0008038948
C0Z150,吉安光華,2025-08-22,23.930925,121.595153,0.030353943
C0FA80,小雪山天池,2025-08-22,24.28025,121.02627,3.4438912e-09
467300,東吉島,2025-08-22,23.25727,119.66762,8.7986143e-07
C1D640,外坪(五指山),2025-08-22,24.644447,121.090961,0.00018111856
C0F9O0,潭子,2025-08-22,24.213106,120.703933,0.37728077
C2H9R0,卓社,2025-08-22,23.887894,121.000086,1.5367555e-09
72T250,花蓮農改場,2025-08-22,23.975222,121.563889,0.040660206
C0E780,銅鑼,2025-08-22,24.489681,120.790853,0.010973174
C1T950,太安,2025-08-22,23.666719,121.370128,2.049663e-09
C0E830,苑裡,2025-08-22,24.439714,120.653053,0.6083923
467270,田中,2025-08-22,23.873803,120.581286,0.99468714
C0SA10,檳榔四格山,2025-08-22,22.810031,121.109308,1.2234561e-05
C1T830,布洛灣,2025-08-22,24.17184,121.57127,5.9933933e-07
C0F970,大坑,2025-08-22,24.173142,120.722289,0.9131533
C1U920,思源,2025-08-22,24.393125,121.347214,3.211407e-09
C0A931,三和,2025-08-22,25.233153,121.595236,0.87921685
C0I010,廬山,2025-08-22,24.033311,121.181808,1.7605115e-09
C2M940,日野賀,2025-08-22,23.434056,120.727169,1.8458837e-09
C0R860,鼻頭,2025-08-22,22.1043,120.8979,0.22704521
C0UB20,壯圍,2025-08-22,24.7359,121.8163,0.187709
C0R790,九棚,2025-08-22,22.14195,120.889281,0.12975535
C0W110,東莒,2025-08-22,25.9652,119.98069,0.0679779
C1U930,粉鳥林,2025-08-22,24.497088,121.842479,0.9813466
C1I211,蘆竹湳,2025-08-22,23.934019,120.811994,0.0006985552
C0S830,長濱,2025-08-22,23.286817,121.411975,2.4480676e-07
C1F9F1,伯公龍,2025-08-22,24.272392,120.849047,0.9310219
C0UB90,太平山莊,2025-08-22,24.494171,121.536209,1.7133646e-09
C0E810,西湖,2025-08-22,24.562947,120.7485,0.78697497
C1I440,新高口,2025-08-22,23.478744,120.878939,2.186029e-09
C0O840,王爺宮,2025-08-22,23.222064,120.40085,0.12424634
C0T9G0,鳳林山,2025-08-22,23.735269,121.420131,8.704731e-10
C0X080,佳里,2025-08-22,23.173039,120.145086,0.0026978925
C0FB70,大甲溪埔,2025-08-22,24.370625,120.620067,0.052861474
C0Z310,清水斷崖,2025-08-22,24.218294,121.689142,4.579398e-09
C0M680,太保,2025-08-22,23.455062,120.331455,0.0039623287
C1S820,金峰,2025-08-22,22.590969,120.933236,0.039529864
C0AD10,八里,2025-08-22,25.150211,121.403947,0.87843704
C2K240,草嶺,2025-08-22,23.59555,120.693461,4.896391e-09
C1SA70,都蘭,2025-08-22,22.87794,121.226881,0.14176786
C0K440,二崙,2025-08-22,23.772797,120.408944,0.960581
C1A760,坪林交控,2025-08-22,24.94284,121.713442,0.99930346
C0F9N0,大里,2025-08-22,24.092464,120.701378,0.895202
C0SA90,達仁林場,2025-08-22,22.264347,120.823972,1.456041e-05
C1R290,石門山,2025-08-22,22.112611,120.756597,0.045844376
42HA10,萬大發電廠,2025-08-22,23.978875,121.139639,2.7316371e-09
C0R890,山海,2025-08-22,21.9878,120.7091,0.89337295
C0T9A0,月眉山,2025-08-22,23.809928,121.539828,2.4954807e-09
C0AC70,信義,2025-08-22,25.037822,121.564597,0.40895757
C0K560,棋山,2025-08-22,23.68645,120.603417,0.0016408524
C2FB50,出雲,2025-08-22,24.206469,120.902794,2.4056273e-09
C1Z240,中平林道,2025-08-22,23.42115,121.26763,1.7149339e-09
U2H480,溪頭,2025-08-22,23.670306,120.798194,1.8563098e-09
C0M880,好美里,2025-08-22,23.3364,120.138,0.00076185964
C0T9E0,大坑,2025-08-22,23.880628,121.581981,2.8294563e-08
C0K530,臺西,2025-08-22,23.701547,120.197559,0.0030199788
C1E900,國一N128K,2025-08-22,24.560997,120.844186,0.9519079
C0AJ50,水湳洞,2025-08-22,25.123695,121.862238,0.415583
C0AI20,白沙灣,2025-08-22,25.283128,121.519058,0.25441045
C2V310,美濃,2025-08-22,22.898792,120.51907,0.0039697913
C0A860,大坪,2025-08-22,25.165914,121.632969,0.89263767
C1U850,觀音海岸,2025-08-22,24.38319,121.77856,2.456834e-09
C2K610,草嶺石壁,2025-08-22,23.602469,120.707731,4.3221706e-09
C0U950,鶯子嶺,2025-08-22,24.89754,121.79244,0.59792674
C0O900,善化,2025-08-22,23.112883,120.297219,0.32469288
C0K550,蔦松,2025-08-22,23.514319,120.229736,0.002012921
E2P980,林試六龜中心,2025-08-22,22.991703,120.645722,1.0960566e-07
C0E590,通霄,2025-08-22,24.471892,120.704622,4.7189576e-05
C1I310,西巒,2025-08-22,23.754486,120.883956,4.9208735e-09
C0A550,泰平,2025-08-22,24.971197,121.823711,0.99743015
C0I360,水里,2025-08-22,23.812553,120.849792,2.791257e-06
C0R830,高士,2025-08-22,22.121825,120.836781,0.023161171
C1I101,溪頭,2025-08-22,23.661789,120.807647,1.8440643e-09
C0AJ20,野柳,2025-08-22,25.20703,121.690021,0.20014827
C0B060,暖暖,2025-08-22,25.0957,121.7403,0.43153992
C1H920,長豐,2025-08-22,24.102039,120.879897,1.0338105e-06
C0V360,內門,2025-08-22,22.975481,120.466769,1.7668706e-05
C0R850,林邊,2025-08-22,22.4634,120.5339,0.00012806362
C0E930,龍鳳,2025-08-22,24.700034,120.859125,0.9555585
C0U910,冬山,2025-08-22,24.63373,121.7937,0.9848305
C1E721,泰安,2025-08-22,24.489017,120.968036,2.3872902e-08
82H320,茶改中部分場,2025-08-22,23.875611,120.913583,2.5352442e-08
C0M750,布袋,2025-08-22,23.380878,120.167789,0.0022205198
C1S860,利嘉,2025-08-22,22.809417,121.050528,3.357844e-09
E2S980,林試太麻里1,2025-08-22,22.598922,120.980044,0.17859726
C0X170,關廟,2025-08-22,22.963017,120.327797,0.018236045
C0V720,林園,2025-08-22,22.507747,120.394511,1.1293805e-05
C1I510,線浸林道,2025-08-22,23.761508,120.832956,1.8618627e-09
C0D690,外湖,2025-08-22,24.917735,120.968711,0.52966905
C0C750,新興坑尾,2025-08-22,25.0061,121.0971,0.53814954
B2Q810,畜試南區分所,2025-08-22,21.945583,120.802167,0.6626644
C0S790,金崙,2025-08-22,22.538122,120.966875,2.1234521e-07
C0AH90,福山植物園,2025-08-22,24.760717,121.58135,0.42507958
C0I540,奇萊稜線,2025-08-22,24.109231,121.326456,1.7632681e-08
C0M850,表湖,2025-08-22,23.24186,120.64166,1.394024e-09
C0S770,大溪山,2025-08-22,22.478475,120.943325,4.8301082e-08
C0AG80,中和,2025-08-22,24.991622,121.491792,0.652973
C0T790,大禹嶺,2025-08-22,24.186117,121.316086,4.6896855e-09
C0T9B0,水源,2025-08-22,23.991861,121.537169,2.3790892e-05
C0R840,牡丹池山,2025-08-22,22.168389,120.841225,0.0012560334
C1I131,桶頭,2025-08-22,23.641944,120.654117,6.800338e-05
CAL110,布袋國中,2025-08-22,23.35893,120.18026,0.0022205198
467571,新竹,2025-08-22,24.827853,121.014219,0.82667536
C0Z290,赤柯山,2025-08-22,23.36893,121.38293,3.9280973e-10
C0X280,將軍,2025-08-22,23.214999,120.13577,0.00037771589
C0S690,太麻里,2025-08-22,22.60902,120.98533,1.4210721e-08
C0U880,北關,2025-08-22,24.9072,121.8734,0.9978753
C0G810,埔心,2025-08-22,23.947633,120.525456,0.6485519
C0U970,大福,2025-08-22,24.80064,121.81389,0.25715694
C2H9N0,仁愛東眼,2025-08-22,24.026875,121.1205,2.0257993e-09
C1E670,南礦,2025-08-22,24.538278,121.002836,4.384413e-08
C0M520,東後寮,2025-08-22,23.369908,120.248065,0.0021076992
C1E461,松安,2025-08-22,24.397972,120.986022,1.3663058e-08
C2N160,西拉雅風管處,2025-08-22,23.189481,120.335297,0.10549867
C2M970,碧湖,2025-08-22,23.568632,120.624165,9.07663e-09
C0A640,石碇,2025-08-22,24.993969,121.662917,0.5568367
E2S960,林試太麻里2,2025-08-22,22.598,120.99775,0.25004143
C0F9Y0,桃山,2025-08-22,24.432739,121.303808,5.6916574e-09
C1I020,萬大,2025-08-22,23.979817,121.132261,5.206259e-09
C0U940,羅東,2025-08-22,24.68184,121.74934,0.21430787
C0M650,朴子,2025-08-22,23.43463,120.23902,0.0051011513
C1I500,大尖山,2025-08-22,23.858572,120.994889,2.032937e-09
C0FB40,中橫21.6k,2025-08-22,24.2499,121.1455,1.5850203e-09
C0G820,田尾,2025-08-22,23.901669,120.509389,0.6486968
E2K600,四湖植物園,2025-08-22,23.676986,120.163433,0.0034756812
C0S730,綠島,2025-08-22,22.6672,121.47533,0.23898801
12Q970,東港工作站,2025-08-22,22.479997,120.466058,0.00013517271
C0E430,南庄,2025-08-22,24.601775,121.000214,0.88279694
C1TA00,太魯閣,2025-08-22,24.15773,121.6236,0.18948512
466920,臺北,2025-08-22,25.037658,121.514853,0.40895757
C0R600,舊泰武,2025-08-22,22.588194,120.664944,4.23719e-09
C1I260,北坑,2025-08-22,23.9246,121.006903,3.6112302e-05
466910,鞍部,2025-08-22,25.182586,121.529731,0.99721986
C1I230,九份二山,2025-08-22,23.961944,120.845,8.963772e-08
C2A660,瑞芳,2025-08-22,25.113169,121.801147,0.75645
C0R270,琉球嶼,2025-08-22,22.332244,120.362236,0.0006457154
C1T990,高寮,2025-08-22,23.394239,121.356808,0.00026713696
C0G620,芬園,2025-08-22,24.015678,120.6213,0.9919468
C1Z140,荖溪,2025-08-22,23.890575,121.45964,9.632577e-10
C1I201,中心崙,2025-08-22,23.728722,120.712097,8.262679e-09
C1I400,凌霄,2025-08-22,24.018778,121.004456,2.1030855e-09
C1M640,十字,2025-08-22,23.492153,120.753683,3.022061e-09
G2P820,農試鳳山分所,2025-08-22,22.646611,120.356083,8.283258e-05
C0Z270,蕃薯寮,2025-08-22,23.73835,121.540108,9.8292015e-09
C0FB10,出雲山苗圃,2025-08-22,24.23105,120.90475,3.7286956e-09
C0F9Q0,外埔,2025-08-22,24.347817,120.705686,0.056900367
C0K580,高鐵雲林,2025-08-22,23.737456,120.417944,0.95701045
C2I090,鳳凰,2025-08-22,23.728081,120.787347,7.4388833e-09
C0U990,員山,2025-08-22,24.74435,121.72247,0.20628051
C0V770,大社,2025-08-22,22.730306,120.346639,0.00021788236
C0X120,麻豆,2025-08-22,23.183289,120.248611,0.0064336415
C0C670,龍潭,2025-08-22,24.870056,121.221389,0.6082564
C0D680,香山濕地,2025-08-22,24.783581,120.914988,0.9295936
C0S980,勝林山,2025-08-22,22.430439,120.8938,1.9433202e-08
C0V730,大寮,2025-08-22,22.605614,120.395717,3.3757574e-06
C0R570,麟洛,2025-08-22,22.65078,120.52719,0.9805076
C2M930,石卓,2025-08-22,23.478744,120.702264,2.8477494e-09
C0G9B0,和美,2025-08-22,24.105169,120.492131,0.00021579629
CAG100,王功漁港,2025-08-22,23.96824,120.32586,7.2846433e-06
C0X290,北門,2025-08-22,23.267772,120.125481,0.00037771589
C2F930,大甲,2025-08-22,24.347667,120.640403,0.0066219172
C0D650,湖口,2025-08-22,24.904794,121.043628,0.49268475
C0E420,竹南,2025-08-22,24.708978,120.888897,0.9626453
C0U780,五結,2025-08-22,24.68637,121.79794,0.187709
C1I250,鯉潭,2025-08-22,23.961922,120.991131,2.2453519e-06
C0R130,阿禮,2025-08-22,22.742908,120.743678,1.0845949e-09
C0X100,臺南市北區,2025-08-22,23.010394,120.194228,0.008068657
C0S920,金峰嘉蘭,2025-08-22,22.594789,120.960825,0.18982565
C0V490,新興,2025-08-22,22.627422,120.298803,4.250603e-06
C0F9K0,大安,2025-08-22,24.345061,120.588025,0.07216728
467290,古坑,2025-08-22,23.633639,120.551889,0.0019713945
C2E970,八甲,2025-08-22,24.535811,120.795983,0.97813153
C0V440,鳳山,2025-08-22,22.646653,120.356122,8.283258e-05
C1T940,大觀,2025-08-22,23.714206,121.373133,1.7011728e-09
C0E740,造橋,2025-08-22,24.637056,120.864778,0.9524357
C0R100,尾寮山,2025-08-22,22.833111,120.683889,1.8546252e-09
A2K630,臺大雲林校區,2025-08-22,23.730628,120.423903,0.95701045
467990,馬祖,2025-08-22,26.169467,119.923158,0.083317384
C0D580,寶山,2025-08-22,24.735006,121.025192,0.9096006
E2P990,林試扇平站,2025-08-22,22.9677,120.6857,2.1171893e-08
C0AI30,三重,2025-08-22,25.057328,121.500629,0.40578252
C0AH00,汐止,2025-08-22,25.066881,121.658778,0.40895757
C1Z040,立山,2025-08-22,23.443356,121.327375,2.354576e-09
466881,新北,2025-08-22,24.959207,121.525196,0.6464126
C0W130,花嶼,2025-08-22,23.40007,119.32276,9.49906e-06
C0A950,鼻頭角,2025-08-22,25.129036,121.923372,0.9997691
C0K470,林內,2025-08-22,23.748675,120.609642,0.258193
C2F990,摩天嶺,2025-08-22,24.322458,120.936819,4.584642e-09
82C160,茶改場,2025-08-22,24.908472,121.185333,0.4577225
C0Z320,清水林道,2025-08-22,23.27125,121.188272,6.2596023e-10
C0R760,南仁湖,2025-08-22,22.084681,120.863353,0.045844376
C0M670,大林,2025-08-22,23.600616,120.45841,0.24930811
C0M800,茶山,2025-08-22,23.299075,120.664767,2.1971573e-08
C0A9C0,天母,2025-08-22,25.117494,121.537169,0.4864463
72K220,南改斗南分場,2025-08-22,23.634556,120.477333,0.5964995
72AI40,桃改樹林分場,2025-08-22,24.944503,121.386972,0.9624554
C0S910,蘭嶼燈塔,2025-08-22,22.081197,121.503117,0.07566489
C0B050,八斗子,2025-08-22,25.144754,121.79167,0.34935108
C0U900,內城,2025-08-22,24.71813,121.68766,0.26762006
C0X320,柳營,2025-08-22,23.253328,120.375253,0.19654438
C0M790,新港,2025-08-22,23.553269,120.345728,0.16226433
C0F9T0,西屯,2025-08-22,24.179494,120.641275,0.60032654
C0E950,松安,2025-08-22,24.39792,120.98599,1.3663058e-08
C0SA30,都歷,2025-08-22,23.020333,121.323642,8.867136e-08
C0C620,蘆竹,2025-08-22,25.084275,121.265767,0.44726196
C0R730,大坪頂,2025-08-22,22.024633,120.69355,0.51889795
C0AJ40,石門,2025-08-22,25.273672,121.601198,0.35465726
C0E750,苗栗,2025-08-22,24.564569,120.824575,0.94452345
C0T870,鯉魚潭,2025-08-22,23.935639,121.508944,0.0051725507
C1V170,排雲,2025-08-22,23.463619,120.954147,2.0737339e-08
C2H950,中寮,2025-08-22,23.884447,120.766406,0.9952944
C0R350,貓鼻頭,2025-08-22,21.921774,120.7358,0.051216193
C0V660,岡山,2025-08-22,22.797078,120.294958,0.00038712446
C1H941,雙冬,2025-08-22,23.967378,120.802189,3.2550775e-05
C0AJ70,田寮,2025-08-22,25.2698,121.4886,0.24940617
C0AI00,五股,2025-08-22,25.07445,121.42728,0.6053166
C0Z280,德武,2025-08-22,23.47426,121.41071,0.6321107
C0R700,枋山,2025-08-22,22.246844,120.661086,0.00065394863
C0C460,復興,2025-08-22,24.820208,121.352281,0.0942182
E2H360,蓮華池,2025-08-22,23.918333,120.885278,1.4902887e-06
C0M640,中埔,2025-08-22,23.42538,120.5229,0.020326732
C0W140,金沙,2025-08-22,24.488292,118.408778,0.026828919
C2A540,四堵,2025-08-22,24.8926,121.745736,0.9984688
C0ACA0,新莊,2025-08-22,25.051478,121.446756,0.56178844
C0R220,潮州,2025-08-22,22.534361,120.54,0.01852203
U2HA40,臺大內茅埔,2025-08-22,23.689722,120.851117,0.0091320425
467490,臺中,2025-08-22,24.145736,120.684075,0.8630806
C0UB60,明池,2025-08-22,24.650688,121.475277,4.75303e-08
C0U960,翠峰湖,2025-08-22,24.510856,121.608044,2.2472921e-09
E2HA20,林試畢祿溪站,2025-08-22,24.226944,121.308522,2.3022533e-09
C0V890,前鎮,2025-08-22,22.5718,120.3117,4.677004e-06
C1F941,雪嶺,2025-08-22,24.280586,121.026642,3.4438912e-09
C2H9E0,國姓南港,2025-08-22,23.911108,120.846556,1.7237061e-09
C0AC80,文山,2025-08-22,25.00235,121.575728,0.63641816
C0F9R0,龍井,2025-08-22,24.184536,120.528972,0.0014716996
C0M760,民雄,2025-08-22,23.551754,120.428457,0.29909578
C0UA40,西德山,2025-08-22,24.560647,121.752608,3.271481e-09
C1T920,中興,2025-08-22,23.769503,121.498653,4.408904e-07
C0D550,雪霸,2025-08-22,24.526972,121.11605,4.4823354e-09
C2F860,梨山,2025-08-22,24.247522,121.243669,2.379402e-09
C0R320,車城,2025-08-22,22.0744,120.716247,0.96477157
C1S870,南美山,2025-08-22,23.15025,121.382333,0.9620725
C0B020,基隆嶼,2025-08-22,25.19141,121.78391,0.9731701
C1U501,牛鬥,2025-08-22,24.637836,121.573656,0.0040619024
C0M730,嘉義市東區,2025-08-22,23.457673,120.460531,0.038383044
C0S700,知本,2025-08-22,22.684866,121.005642,6.065353e-06
C1N001,沙崙,2025-08-22,22.935472,120.309406,0.018795678
C0V760,橋頭,2025-08-22,22.757806,120.30575,0.00021943997
C0G960,福寶,2025-08-22,24.0443,120.3814,0.00023188353
C0X210,白河,2025-08-22,23.347466,120.414427,0.001110935
C0S810,東河,2025-08-22,22.972672,121.303986,0.6386137
C2R170,屏東,2025-08-22,22.66027,120.49403,0.9805613
C0R670,楓港,2025-08-22,22.190131,120.692156,0.56174666
C0FA50,霧峰,2025-08-22,24.0419,120.6995,0.9916838
C0UB10,蘇澳,2025-08-22,24.5969,121.8571,0.91987467
C0G950,防潮門,2025-08-22,24.1835,120.4871,0.001453669
C0M740,六腳,2025-08-22,23.492871,120.290625,0.023415392
C1R250,力里,2025-08-22,22.428117,120.629228,0.0006522929
C0K330,虎尾,2025-08-22,23.719183,120.442036,0.9585513
C2FA00,烏石坑,2025-08-22,24.273503,120.947617,5.15129e-09
C0V620,永安,2025-08-22,22.82315,120.236856,0.00038712446
C1I330,楓樹林,2025-08-22,23.986803,121.076117,3.2038938e-09
C0W200,湖西,2025-08-22,23.596314,119.67275,4.694003e-05
72Q010,高雄農改場,2025-08-22,22.709333,120.525889,0.92045724
C0SA40,瑞和,2025-08-22,22.974361,121.156697,0.0002941666
C0C680,龜山,2025-08-22,25.02846,121.38656,0.63916034
C2V260,月眉,2025-08-22,22.971003,120.539853,3.0920442e-06
C0V450,鳳森,2025-08-22,22.545064,120.392592,4.469973e-06
C0FA90,小雪山林道,2025-08-22,24.29515,121.03651,4.951614e-09
C0U720,南山,2025-08-22,24.43742,121.38167,1.8030929e-09
A2N290,臺南蘭花園區,2025-08-22,23.340258,120.379661,0.004673067
C0R560,新園,2025-08-22,22.5434,120.461558,1.1293805e-05
C0U890,三星,2025-08-22,24.66812,121.65302,0.68158585
C1V300,御油山,2025-08-22,23.001983,120.715364,4.1132693e-09
C0U600,礁溪,2025-08-22,24.817539,121.765608,0.97835684
C1T980,龍澗,2025-08-22,24.023289,121.411328,2.3142284e-09
C0D670,海天一線,2025-08-22,24.831986,120.914438,4.8391168e-05
C0SA00,歷坵,2025-08-22,22.520969,120.89185,6.6367045e-09
C0M710,東石,2025-08-22,23.458927,120.15385,0.0005337733
C0M780,鹿草,2025-08-22,23.41134,120.30835,0.004634601
C0U520,雙連埤,2025-08-22,24.753033,121.641303,0.5147731
C0B010,七堵,2025-08-22,25.094819,121.71713,0.36583096
C0R480,長治,2025-08-22,22.693128,120.542622,0.011009079
C1V830,國三S383K,2025-08-22,22.781967,120.426475,0.018062133
12Q980,恆春工作站,2025-08-22,22.079678,120.714425,0.96477157
C1O940,東山服務區,2025-08-22,23.286016,120.398472,0.0112765785
C1U840,東澳嶺,2025-08-22,24.5378,121.8485,1.46946855e-08
C1D630,飛鳳山,2025-08-22,24.766464,121.119178,0.9823132
C0S940,石寧山,2025-08-22,23.223772,121.406639,7.1113794e-07
C0K410,北港,2025-08-22,23.573957,120.292802,0.036602527
C2M620,瑞里,2025-08-22,23.545133,120.675197,3.1241352e-09
C0SB70,小港漁港,2025-08-22,23.158558,121.400431,0.87883216
C2O950,安南,2025-08-22,23.076694,120.144861,0.00051111827
C0F0E0,南湖圈谷,2025-08-22,24.363714,121.444667,1.4329827e-08
467610,成功,2025-08-22,23.097486,121.373428,0.94112295
C0G890,伸港,2025-08-22,24.148933,120.484403,0.00045347764
C2E540,龍溪,2025-08-22,24.606489,120.783933,0.9506165
C1V200,梅山,2025-08-22,23.268447,120.823556,1.523154e-09
C0T9H0,加路蘭山,2025-08-22,23.682947,121.5274,6.0890876e-10
C2O930,玉井,2025-08-22,23.126042,120.46055,0.0005443274
C1F911,新伯公,2025-08-22,24.221361,120.841069,0.17432381
C0R490,九如,2025-08-22,22.7405,120.490503,0.9312437
C0X200,左鎮,2025-08-22,23.056758,120.408522,0.0010013299
C0FA60,鞍馬山工作站,2025-08-22,24.267064,121.000793,2.899461e-09
C0SB50,叭嗡嗡,2025-08-22,23.047062,121.343223,5.576433e-07
C1F891,稍來,2025-08-22,24.265689,121.001142,2.7742044e-09
72N240,七股研究中心,2025-08-22,23.081672,120.062894,0.0005220372
C0C700,中壢,2025-08-22,24.977661,121.256375,0.801227
C0M690,水上,2025-08-22,23.419734,120.388909,0.0032653706
C0V690,鼓山,2025-08-22,22.623325,120.275575,4.250603e-06
C0O860,大內,2025-08-22,23.11885,120.36083,0.25401714
C0Z200,萬榮,2025-08-22,23.709219,121.420106,1.28305e-07
C0T9D0,和中,2025-08-22,24.26676,121.74103,8.1849885e-06
C1O921,楠西,2025-08-22,23.183511,120.484083,0.0014578487
C0AJ30,淡水觀海,2025-08-22,25.184591,121.408616,0.23663871
C0V810,左營,2025-08-22,22.67491,120.28491,0.00010519658
C0UA70,桃源谷,2025-08-22,24.962606,121.888875,0.99497485
C0X130,官田,2025-08-22,23.193217,120.315422,0.10862362
C1H000,翠峰,2025-08-22,24.109397,121.205211,8.805396e-09
C0UA90,石城,2025-08-22,24.980444,121.951214,0.999621
C1E681,南勢山,2025-08-22,24.421669,120.923831,1.377146e-07
C0A9F0,內湖,2025-08-22,25.079422,121.57545,0.40895757
C0K291,宜梧,2025-08-22,23.536281,120.169329,0.0020085704
C1K540,口湖,2025-08-22,23.585344,120.180517,0.00044489067
C0R780,滿州,2025-08-22,22.024403,120.839892,0.16344616
C0V870,文安,2025-08-22,22.8025,120.2164,0.00039685282
C0U650,玉蘭,2025-08-22,24.675286,121.587061,0.0077343197
C0R640,東港,2025-08-22,22.46247,120.44074,0.00013517271
C0AJ80,板橋,2025-08-22,25.0107,121.4489,0.66021115
C0S660,下馬,2025-08-22,23.150427,121.070312,7.8919876e-10
C1H9B1,阿眉,2025-08-22,24.1263,120.994672,1.8165035e-09
C0UA20,多加屯,2025-08-22,24.368614,121.373189,3.3441663e-09
C0E730,頭份,2025-08-22,24.688247,120.912206,0.96113825
72V140,高改旗南分場,2025-08-22,22.857861,120.516667,0.0039697913
C0K480,莿桐,2025-08-22,23.761192,120.502372,0.9898441
C0U980,坪林石牌,2025-08-22,24.86478,121.77396,0.9835099
C0T900,西林,2025-08-22,23.8119,121.441458,3.914198e-08
C1I150,青雲,2025-08-22,23.793361,120.949378,4.9048144e-06
467350,澎湖,2025-08-22,23.565503,119.563094,0.00017789636
C0G800,埔鹽,2025-08-22,24.000394,120.431683,0.0001780026
C0H960,草屯,2025-08-22,23.973672,120.68085,0.9918041
C1V780,多納林道,2025-08-22,22.888028,120.737917,2.660624e-09
C0E920,通霄漁港,2025-08-22,24.498589,120.673876,7.5812386e-05
C0Z330,安通山,2025-08-22,23.290728,121.348528,6.5909127e-09
C0AH10,永和,2025-08-22,25.01125,121.508111,0.66021115
C0AK10,太平里,2025-08-22,25.134937,121.364899,0.8772212
C2G640,鹿港,2025-08-22,24.0753,120.430481,0.00023188331
C1E890,國三N149K,2025-08-22,24.463414,120.680019,0.54186916
C1R110,口社,2025-08-22,22.770111,120.645222,0.0019057166
C1M870,國三N285K,2025-08-22,23.550319,120.505833,0.004991507
C1E480,鳳美,2025-08-22,24.554803,121.034747,0.9910675
C0M530,奮起湖,2025-08-22,23.493903,120.699253,2.8877163e-09
C0C590,觀音,2025-08-22,25.027072,121.153317,0.60182965
C0T9M0,靜浦,2025-08-22,23.455167,121.495028,0.8936675
C2H9M0,發祥,2025-08-22,24.154094,121.164517,2.2789362e-09
C0AI40,石牌,2025-08-22,25.115597,121.513139,0.4806414
C1F871,上谷關,2025-08-22,24.203483,121.018644,3.2437757e-09
C2H9G0,百勝,2025-08-22,24.051142,120.909361,0.0006176717
C0G880,二水,2025-08-22,23.810742,120.6173,0.04297043
C0R940,加祿堂,2025-08-22,22.3363,120.6217,1.0894483e-05
C0W220,北竿,2025-08-22,26.220358,119.974881,0.072215445
C0O960,崎頂,2025-08-22,22.959547,120.369317,0.02929152
C0TA40,秀林,2025-08-22,24.302864,121.731144,2.5279712e-09
C0S750,向陽,2025-08-22,23.248397,120.986133,3.452698e-09
C0T9F0,水璉,2025-08-22,23.797131,121.542514,1.3496154e-08
C1M600,頭凍,2025-08-22,23.406364,120.603339,1.3312834e-09
467660,臺東,2025-08-22,22.752211,121.154586,0.02376987
C1D380,新埔,2025-08-22,24.84745,121.03834,0.8585612
C2G980,田頭村,2025-08-22,23.8263,120.444175,0.960581
C0V750,路竹,2025-08-22,22.854997,120.259439,0.00024888036
C0N050,蚵寮,2025-08-22,23.301,120.1104,0.00076047785
72M700,南改鹿草分場,2025-08-22,23.416869,120.283061,0.005106837
C1SA50,利嘉林道,2025-08-22,22.82325,121.009389,3.423523e-09
C0UB70,太平山中間站,2025-08-22,24.542003,121.513453,2.6126488e-09
C0A940,金山,2025-08-22,25.223628,121.643967,0.21918538
C1V340,大津,2025-08-22,22.888322,120.645986,2.4161534e-06
C0W180,七美,2025-08-22,23.219333,119.444892,3.2570965e-06
C1F9C1,白冷,2025-08-22,24.182844,120.929889,0.0026209585
K2E710,苗改生物防治研究中心,2025-08-22,24.422861,120.871833,0.72156376
C0N040,蘆竹溝,2025-08-22,23.2344,120.0961,0.00037771589
C0D760,大坪苗圃,2025-08-22,24.5362,121.1108,1.6262742e-08
C2W230,畜試所澎湖,2025-08-22,23.628342,119.513206,0.005160267
C0R880,後壁湖,2025-08-22,21.9457,120.7457,0.88846123
C1I280,埔中,2025-08-22,23.820778,120.642594,4.183213e-08
467790,墾丁雷達站,2025-08-22,21.948235,120.808028,0.6403766
C0W190,望安,2025-08-22,23.380564,119.494075,7.217319e-06
C0Z170,卓溪,2025-08-22,23.3443,121.3029,2.0634125e-05
C0F850,東勢,2025-08-22,24.246428,120.833047,0.3667312
466900,淡水,2025-08-22,25.164889,121.448906,0.8772212
C0I370,魚池,2025-08-22,23.895703,120.94135,3.07418e-07
C0C630,大溪,2025-08-22,24.882853,121.265547,0.5645226
C0A520,山佳,2025-08-22,24.974944,121.402008,0.820194
C0I110,竹山,2025-08-22,23.761225,120.688156,0.0030689936
82H840,茶改南部分場,2025-08-22,23.762528,120.7405,7.695823e-08
C0G660,溪湖,2025-08-22,23.94835,120.479122,0.67708075
C1T800,洛韶,2025-08-22,24.204558,121.453956,3.163537e-09
C1T810,慈恩,2025-08-22,24.192044,121.388386,4.914711e-09
C1E451,象鼻,2025-08-22,24.368617,120.940228,4.1555353e-07
C0AC60,三峽,2025-08-22,24.939025,121.369728,0.95541626
C0I490,萬大林道,2025-08-22,23.928228,121.091411,1.1969018e-09
C1I290,豐丘,2025-08-22,23.668178,120.887417,1.6845056e-09
C1I320,奧萬大,2025-08-22,23.952956,121.178556,1.887374e-09
C2M910,嘉義大學,2025-08-22,23.471325,120.485903,0.02540745
C0U770,南澳,2025-08-22,24.44935,121.81022,4.0220666e-08
C0A980,社子,2025-08-22,25.109508,121.469681,0.8783552
C0V800,六龜,2025-08-22,22.997889,120.633583,1.516348e-07
C1G9D0,國一S218K,2025-08-22,23.890641,120.493253,0.7948676
C0E570,白沙屯,2025-08-22,24.549447,120.696803,0.7630277
C2F9A0,中竹林,2025-08-22,24.103556,120.751061,0.0010339784
C0FA40,臺中電廠,2025-08-22,24.2146,120.4907,0.0014716996
C2G9A0,畜試所彰化,2025-08-22,23.86045,120.557964,0.99468714
C0H9C0,合歡山,2025-08-22,24.143442,121.272547,9.572251e-09
C0X060,下營,2025-08-22,23.22695,120.256261,0.007514204
G2M350,農試溪口農場,2025-08-22,23.58565,120.408111,0.2919096
C0U860,頭城,2025-08-22,24.85323,121.8308,0.978654
C0R580,南州,2025-08-22,22.48591,120.50274,0.00013517271
C0D430,峨眉,2025-08-22,24.6905,121.017189,0.7811218
C0G780,秀水,2025-08-22,24.03405,120.503869,0.5999306
72N100,臺南農改場,2025-08-22,23.0605,120.342194,0.24228771
C0S900,蘭嶼高中,2025-08-22,22.04909,121.51214,0.06480771
C1F9W0,德基,2025-08-22,24.254783,121.190261,2.306983e-09
C1Z120,壽豐,2025-08-22,23.870853,121.508081,0.0006684513
C0W160,烏坵,2025-08-22,24.9944,119.44956,0.0097902855
C1I240,外大坪,2025-08-22,23.958697,120.917931,1.1642346e-06
C1I550,國六W023K,2025-08-22,23.979067,120.867742,0.690985
C0R870,興海,2025-08-22,21.9752,120.8439,0.6626644
C0R140,瑪家,2025-08-22,22.682903,120.686639,1.3860436e-09
C0A530,坪林,2025-08-22,24.938183,121.70975,0.9989869
C0X260,後壁,2025-08-22,23.366358,120.362326,0.004673067
C0Z230,和平,2025-08-22,24.30717,121.77007,1.1634838e-05
C0G770,福興,2025-08-22,24.041289,120.437669,0.0001780026
C0H9A0,神木村,2025-08-22,23.532742,120.843667,2.9326541e-09
C0I460,南投,2025-08-22,23.911469,120.687331,0.99346524
C0I480,梅峰,2025-08-22,24.085272,121.173572,3.3879906e-09
C1V570,吉東,2025-08-22,22.85422,120.5454,0.0029834472
C2D740,屯原,2025-08-22,24.067969,121.209389,3.2117253e-09
C2A560,福山,2025-08-22,24.776203,121.502811,0.9870357
C0AH30,五分山,2025-08-22,25.07125,121.780794,0.99966455
C0FA10,松柏,2025-08-22,24.429115,120.617482,0.6274773
72S200,東改班鳩分場,2025-08-22,22.829528,121.077694,0.0011144457
72HA00,中改埔里分場,2025-08-22,23.903208,120.963364,6.5117333e-06
C2H9W0,大坪頂農水,2025-08-22,24.043122,120.932781,7.318188e-07
C0C650,平鎮,2025-08-22,24.897503,121.214636,0.74782044
C0S930,延平,2025-08-22,22.902581,121.084058,0.0067199045
C0UA60,樟樹山,2025-08-22,24.41393,121.78325,7.5602415e-08
C1S670,摩天,2025-08-22,23.199503,121.027,1.6425898e-09
C0V630,茄萣,2025-08-22,22.906642,120.182608,0.0002891482
466940,基隆,2025-08-22,25.133314,121.740475,0.37271854
C0X050,東河,2025-08-22,23.296598,120.385608,0.013264516
C0R770,保力,2025-08-22,22.071122,120.764111,0.6393798
G2L020,農試嘉義分所,2025-08-22,23.485028,120.473806,0.14713858
C0X240,關子嶺,2025-08-22,23.331169,120.508025,1.5521087e-07
C0I380,集集,2025-08-22,23.828206,120.801467,4.2353927e-06
466990,花蓮,2025-08-22,23.975128,121.613275,0.03786102
C1V220,小關山,2025-08-22,23.154217,120.813603,2.4366131e-09
C1F9G1,慶福山,2025-08-22,24.180853,120.848378,4.1952305e-08
C0FB20,雪山橋,2025-08-22,24.23192,120.9786,1.9070083e-09
C0Z250,瑞穗林道,2025-08-22,23.49284,121.30688,2.2595414e-09
C0D590,新豐,2025-08-22,24.87068,120.97721,7.1204645e-06
C0A870,五指山,2025-08-22,25.132153,121.608692,0.9972735
C0UA50,西帽山,2025-08-22,24.555361,121.802628,5.8659153e-09
C0X160,仁德,2025-08-22,22.968258,120.257689,0.011329386
C1H971,六分寮,2025-08-22,23.92507,120.6378,0.0032624807
C0W120,西嶼,2025-08-22,23.5626,119.468436,0.0019902675
C0G650,員林,2025-08-22,23.946503,120.585597,0.9931284
C0AD50,鶯歌,2025-08-22,24.951533,121.346294,0.93989766
C2H9Q0,北東眼山,2025-08-22,24.120939,121.189303,1.9995303e-09
C2H9T0,名間竹圍,2025-08-22,23.859914,120.637572,0.00059097994
C0S990,山豬窟,2025-08-22,22.318619,120.857372,5.599884e-06
C0X190,安平,2025-08-22,22.993161,120.152181,0.008068657
C0K400,斗六,2025-08-22,23.720583,120.541127,0.9050993
12J990,口湖工作站,2025-08-22,23.589978,120.180394,0.00044489067
C0O830,北寮,2025-08-22,23.079561,120.495008,5.7104726e-06
C1D410,白蘭,2025-08-22,24.579364,121.079947,2.4475463e-08
C0S970,加津林,2025-08-22,22.416211,120.926942,0.05780808
C0D700,關西,2025-08-22,24.7977,121.1732,0.96781373
C0M810,里佳,2025-08-22,23.389125,120.716647,1.6456474e-09
C0U750,龜山島,2025-08-22,24.841667,121.953133,0.9998857
C0R810,內獅,2025-08-22,22.305064,120.642986,1.228241e-05
C1M390,龍美,2025-08-22,23.406728,120.654417,1.3859299e-09
C2FB60,頭櫃山,2025-08-22,24.129842,120.858925,2.1062407e-09
C1H840,國三N238K,2025-08-22,23.841008,120.707711,0.008699011
CAQ030,崎峰國小,2025-08-22,22.42565,120.49521,0.00013517271
C2E520,大湖,2025-08-22,24.414939,120.870872,0.68150204
467530,阿里山,2025-08-22,23.508208,120.813242,2.686867e-09
C1E691,南湖,2025-08-22,24.40135,120.837533,0.00014816828
C0FA30,梧棲,2025-08-22,24.256003,120.523381,0.0008038948
C1V231,高中,2025-08-22,23.134911,120.716711,1.4672692e-09
C0AK30,硬漢嶺,2025-08-22,25.136097,121.426372,0.99402934
C0F9V0,新社,2025-08-22,24.200172,120.815806,0.04235389
C0H890,埔里,2025-08-22,23.972169,120.952425,0.07650861
C0R690,墾丁,2025-08-22,21.966756,120.810269,0.5200112
C0F0D0,審馬陣,2025-08-22,24.381675,121.4203,5.3242553e-09
C2W030,金門農試所,2025-08-22,24.448431,118.451786,0.037167054
C0R820,白鷺,2025-08-22,22.454275,120.666219,2.6678295e-09
C0FB00,大雪山,2025-08-22,24.254668,121.007374,2.4209783e-09
C1V190,南天池,2025-08-22,23.27403,120.91176,4.649597e-09
C0E940,雪見,2025-08-22,24.42595,121.01347,2.5632692e-09
K2E360,苗栗農改場,2025-08-22,24.495722,120.829111,0.02644947
CAJ050,海口故事園區,2025-08-22,23.57543,120.14121,0.00044489067
C2H9D0,三隻寮,2025-08-22,24.093078,120.861578,4.086477e-07
C0O990,媽廟,2025-08-22,22.99175,120.293525,0.09929292
C0D480,打鐵坑,2025-08-22,24.849664,121.150789,0.613249
C0Z220,和平林道,2025-08-22,24.343922,121.656317,3.1293772e-09
C0TA10,花蓮漁港,2025-08-22,23.995322,121.638331,0.036762856
72C440,桃園農改場,2025-08-22,24.950944,121.030583,0.5050297
C1E711,馬拉邦山,2025-08-22,24.367306,120.901656,2.1671102e-07
C0SB20,富岡,2025-08-22,22.792467,121.192669,0.01925595
C0D560,竹東,2025-08-22,24.767147,121.057881,0.9585381
C0F9U0,南屯,2025-08-22,24.137006,120.637969,0.67861456
C0M720,番路,2025-08-22,23.464657,120.554156,0.009785212
C0F0A0,雪山圈谷,2025-08-22,24.388594,121.236339,8.832916e-09
C1A9N0,四十份,2025-08-22,24.934158,121.593283,0.997821
C0U760,東澳,2025-08-22,24.52196,121.83318,0.97649956
C0X230,鹽水,2025-08-22,23.272621,120.247641,0.0006553493
C2H9H0,苗改南投蜂場,2025-08-22,23.852589,120.693481,0.9954722
C0R950,萬隆國小,2025-08-22,22.507667,120.587817,0.01060517
467540,大武,2025-08-22,22.35572,120.90374,0.068069495
C0V370,古亭坑,2025-08-22,22.893178,120.401947,0.0006278238
C1I340,新興橋,2025-08-22,23.563333,120.868728,2.8560898e-08
C0SA80,土坂,2025-08-22,22.453108,120.887572,0.00023437412
C0R160,鹽埔,2025-08-22,22.739558,120.530778,0.92045724
C0AC40,大屯山,2025-08-22,25.175675,121.522408,0.9870564
466850,五分山雷達站,2025-08-22,25.071182,121.781205,0.9996576
C2H9L0,馬烈霸,2025-08-22,24.1512,121.201772,1.975798e-09
C1AI50,國三N016K,2025-08-22,25.034164,121.619664,0.42000473
C1V600,藤枝,2025-08-22,23.071961,120.757042,2.8020328e-09
C1E601,南勢,2025-08-22,24.572486,120.734842,0.8460364
C0O980,新市,2025-08-22,23.061614,120.298197,0.32469285
C0K420,西螺,2025-08-22,23.800407,120.467394,0.9554019
C0Z050,佳心,2025-08-22,23.34567,121.21316,3.9936562e-10
C0AD30,蘆洲,2025-08-22,25.086594,121.472331,0.40578252
C0V610,梓官,2025-08-22,22.760558,120.267211,0.00021943997
K2F750,種苗改良場,2025-08-22,24.225972,120.800917,0.14113605
C0UA80,大溪漁港,2025-08-22,24.941801,121.902955,0.9979968
C1AI60,國一39K邊坡,2025-08-22,25.064361,121.383836,0.6207917
C0W150,金寧,2025-08-22,24.457703,118.328989,0.036433548
C0R960,內埔,2025-08-22,22.608483,120.570714,0.1387654
V2C250,八德合作社,2025-08-22,24.93775,121.266389,0.8456694
C2H9S0,龍南,2025-08-22,23.953536,120.833183,2.7280809e-09
C0AH40,平等,2025-08-22,25.129142,121.577086,0.9628774
C0R540,佳冬,2025-08-22,22.419456,120.552375,6.517136e-08
466950,彭佳嶼,2025-08-22,25.627975,122.079744,0.9147214
C0A890,雙溪,2025-08-22,25.036003,121.864242,0.999769
C0C480,桃園,2025-08-22,24.992425,121.323172,0.85081595
C0AH50,林口,2025-08-22,25.072181,121.38084,0.6615673
A2K360,水試臺西試驗場,2025-08-22,23.717231,120.190522,0.0031501006
C2M960,外寮,2025-08-22,23.562643,120.665688,6.556282e-09
C0F9S0,烏日,2025-08-22,24.107058,120.624103,0.87110406
C0C490,八德,2025-08-22,24.928708,121.283289,0.8388253
C0R190,赤山,2025-08-22,22.592333,120.614306,0.14186655
C0T820,天祥,2025-08-22,24.179597,121.495639,2.2059293e-08
C1F9E1,龍安,2025-08-22,24.1605,120.831961,2.6214386e-06
C0V820,小林,2025-08-22,23.148408,120.63325,7.179014e-09
C2G870,芳苑,2025-08-22,23.922303,120.320025,7.1888458e-06
C0E850,大河,2025-08-22,24.618069,120.948578,0.3001209
C1U670,寒溪,2025-08-22,24.634,121.71691,0.9912081
C0N020,城西,2025-08-22,23.0568,120.0956,0.008068657
C1Z110,三棧,2025-08-22,24.11557,121.60501,5.9015237e-09
C0R280,檳榔,2025-08-22,22.076078,120.836777,0.090575755
C2H9J0,中台,2025-08-22,23.9996,120.938739,0.001689483
C0F9L0,后里,2025-08-22,24.310436,120.729725,0.30345285
467441,高雄,2025-08-22,22.730432,120.312516,0.00021788236
C0Z180,新城,2025-08-22,24.040486,121.604878,0.038839996
C0D540,橫山,2025-08-22,24.71116,121.11693,0.9641428
C1D420,太閣南,2025-08-22,24.632808,121.160575,4.727353e-08
C1E770,公館,2025-08-22,24.526914,120.830806,0.04014594
CAN130,水試所海水繁養殖中心,2025-08-22,23.120802,120.07968,0.0005221188
C1I430,翠華,2025-08-22,24.191961,121.224339,3.0053169e-09
C1M400,菜瓜坪,2025-08-22,23.251928,120.576103,4.3730044e-08
C0G730,二林,2025-08-22,23.903325,120.376081,0.00012120694
72M360,南改義竹分場,2025-08-22,23.360694,120.279361,0.0021134124
V2K620,麥寮合作社,2025-08-22,23.753836,120.294783,0.40172562
C0Z070,舞鶴,2025-08-22,23.46811,121.37407,0.30501378
C0B040,大武崙,2025-08-22,25.166676,121.706993,0.47126618
C1Z030,紅葉,2025-08-22,23.493119,121.338806,0.7391661
C1I050,丹大,2025-08-22,23.753747,121.141147,1.0216114e-08
C0I080,信義,2025-08-22,23.689694,120.851036,0.0091320425
C0D750,樂山林道6k,2025-08-22,24.49999,121.08773,5.319109e-09
C2M920,朴子農改,2025-08-22,23.469889,120.259383,0.0051011513
C2A880,福隆,2025-08-22,25.017842,121.942083,0.9995851
C0Z160,鳳林,2025-08-22,23.746114,121.453411,4.0527044e-07
C0UB80,翠峰林道6K,2025-08-22,24.49773,121.568625,1.8798185e-09
C0V210,復興,2025-08-22,23.222403,120.806089,1.8159527e-09
C0H990,昆陽,2025-08-22,24.121322,121.273642,1.4522711e-08
C0R741,獅子,2025-08-22,22.202308,120.705236,0.056255925
C0S710,鹿野,2025-08-22,22.917711,121.122994,1.2508052e-07
C0I530,小奇萊,2025-08-22,24.131764,121.295717,1.5284456e-08
C0FA70,大雪山埡口,2025-08-22,24.26867,121.03062,3.3850192e-09
C2K630,荷苞,2025-08-22,23.657717,120.595144,0.000749304
C0Z080,富源,2025-08-22,23.587642,121.378225,5.500408e-08
C0SB10,美和,2025-08-22,22.682078,121.060236,0.6908647
C2K620,馬光農場,2025-08-22,23.721453,120.378864,0.9564924
C1I140,卡奈托灣,2025-08-22,23.754364,121.087872,1.4753373e-09
C0I520,玉山風口,2025-08-22,23.470489,120.955994,1.1904772e-08
C1G691,下水埔,2025-08-22,23.816114,120.5676,0.99102974
C0X110,臺南市南區,2025-08-22,22.961189,120.188378,0.011329386
C0V680,仁武,2025-08-22,22.701083,120.347722,0.00010519658
C2G840,北斗,2025-08-22,23.877586,120.514222,0.7964122
C0R900,竹坑,2025-08-22,22.1385,120.7022,0.9628347
C0K250,崙背,2025-08-22,23.75555,120.318925,0.40172562
C0G860,社頭,2025-08-22,23.897647,120.5862,0.9944445
C0X150,安定,2025-08-22,23.102614,120.227839,0.00962718
C0R590,里港,2025-08-22,22.77919,120.49459,0.041972004
C0E610,馬都安,2025-08-22,24.451272,120.930192,2.25718e-05
C0E550,明德,2025-08-22,24.583486,120.885411,0.9529186
C0R150,三地門,2025-08-22,22.709889,120.639944,0.0022034391
C0G910,花壇,2025-08-22,24.032076,120.549461,0.58729565
C1D400,鳥嘴山,2025-08-22,24.71909,121.28387,7.2870125e-06
C0K500,元長,2025-08-22,23.64981,120.315024,0.3803931
C0F0B0,石岡,2025-08-22,24.276061,120.777644,0.24451488
C2V250,甲仙,2025-08-22,23.080106,120.591758,8.392737e-08
C0SA20,金崙山,2025-08-22,22.567419,120.959667,2.0814046e-09
C0V350,溪埔,2025-08-22,22.738578,120.446797,0.13997385
C0M660,溪口,2025-08-22,23.604131,120.403569,0.2919096
C1S880,壽卡,2025-08-22,22.238911,120.858903,2.310997e-05
72D680,桃改新埔分場,2025-08-22,24.834444,121.066111,0.85429436
