站號,站名,日期,lat,lon,BlastGRU-TW
12J990,口湖工作站,2025-05-07,23.589978,120.180394,0.8772095
12Q970,東港工作站,2025-05-07,22.479997,120.466058,0.8667065
12Q980,恆春工作站,2025-05-07,22.079678,120.714425,0.9222235
466881,新北,2025-05-07,24.959207,121.525196,0.85426646
466900,淡水,2025-05-07,25.164889,121.448906,0.91559094
466920,臺北,2025-05-07,25.037658,121.514853,0.8430351
466940,基隆,2025-05-07,25.133314,121.740475,0.829242
466990,花蓮,2025-05-07,23.975128,121.613275,0.6174267
467050,新屋,2025-05-07,25.006725,121.047492,0.97784686
467080,宜蘭,2025-05-07,24.763975,121.756528,0.6500173
467270,田中,2025-05-07,23.873803,120.581286,0.75774264
467280,後龍,2025-05-07,24.648563,120.831834,0.9064232
467290,古坑,2025-05-07,23.633639,120.551889,0.85076547
467300,東吉島,2025-05-07,23.25727,119.66762,0.8723245
467350,澎湖,2025-05-07,23.565503,119.563094,0.91561705
467410,臺南,2025-05-07,22.99328,120.20492,0.91243166
467420,永康,2025-05-07,23.038386,120.2367,0.888081
467441,高雄,2025-05-07,22.730432,120.312516,0.90762395
467480,嘉義,2025-05-07,23.495925,120.432906,0.8715689
467490,臺中,2025-05-07,24.145736,120.684075,0.7890281
467540,大武,2025-05-07,22.35572,120.90374,0.61891115
467571,新竹,2025-05-07,24.827853,121.014219,0.915958
467590,恆春,2025-05-07,22.003897,120.746339,0.9273526
467610,成功,2025-05-07,23.097486,121.373428,0.7823284
467620,蘭嶼,2025-05-07,22.0369,121.55843,0.9560002
467660,臺東,2025-05-07,22.752211,121.154586,0.58759326
467790,墾丁雷達站,2025-05-07,21.948235,120.808028,0.9348833
72AI40,桃改樹林分場,2025-05-07,24.944503,121.386972,0.90782315
72C440,桃園農改場,2025-05-07,24.950944,121.030583,0.96428853
72D680,桃改新埔分場,2025-05-07,24.834444,121.066111,0.95232487
72G600,臺中農改場,2025-05-07,24.003028,120.534389,0.72699016
72K220,南改斗南分場,2025-05-07,23.634556,120.477333,0.8305087
72M360,南改義竹分場,2025-05-07,23.360694,120.279361,0.8904774
72M700,南改鹿草分場,2025-05-07,23.416869,120.283061,0.88215744
72N100,臺南農改場,2025-05-07,23.0605,120.342194,0.8792311
72N240,七股研究中心,2025-05-07,23.081672,120.062894,0.9445193
72Q010,高雄農改場,2025-05-07,22.709333,120.525889,0.83897406
72S200,東改班鳩分場,2025-05-07,22.829528,121.077694,0.69092494
72S590,東改賓朗果園,2025-05-07,22.813889,121.071278,0.6788939
72T250,花蓮農改場,2025-05-07,23.975222,121.563889,0.6149469
72U480,花改蘭陽分場,2025-05-07,24.686306,121.716583,0.61217695
72V140,高改旗南分場,2025-05-07,22.857861,120.516667,0.8222402
82A750,茶改北部分場,2025-05-07,24.955778,121.631222,0.8561179
82C160,茶改場,2025-05-07,24.908472,121.185333,0.9287169
82H840,茶改南部分場,2025-05-07,23.762528,120.7405,0.88999337
82S580,茶改東部分場,2025-05-07,22.907694,121.130139,0.56267744
A2C560,農工中心,2025-05-07,24.985917,121.239833,0.9599749
A2K360,水試臺西試驗場,2025-05-07,23.717231,120.190522,0.8736458
A2K570,古坑花卉中心,2025-05-07,23.63353,120.55239,0.85076547
A2K630,臺大雲林校區,2025-05-07,23.730628,120.423903,0.8145398
A2N290,臺南蘭花園區,2025-05-07,23.340258,120.379661,0.86962634
B2E890,畜試北區分所,2025-05-07,24.527806,120.770972,0.9519114
B2N890,畜產試驗所,2025-05-07,23.058972,120.336406,0.8772957
B2Q810,畜試南區分所,2025-05-07,21.945583,120.802167,0.93518364
B2U990,畜試東區分所,2025-05-07,24.669039,121.832561,0.5611998
C0A520,山佳,2025-05-07,24.974944,121.402008,0.8458882
C0A530,坪林,2025-05-07,24.938183,121.70975,0.9316623
C0A550,泰平,2025-05-07,24.971197,121.823711,0.8686608
C0A570,桶後,2025-05-07,24.848222,121.597992,0.9533591
C0A640,石碇,2025-05-07,24.993969,121.662917,0.9534477
C0A770,科教館,2025-05-07,25.096356,121.516507,0.8805455
C0A860,大坪,2025-05-07,25.165914,121.632969,0.91862226
C0A890,雙溪,2025-05-07,25.036003,121.864242,0.81183124
C0A931,三和,2025-05-07,25.233153,121.595236,0.926809
C0A940,金山,2025-05-07,25.223628,121.643967,0.9185206
C0A950,鼻頭角,2025-05-07,25.129036,121.923372,0.8220403
C0A970,三貂角,2025-05-07,25.007606,122.002058,0.73268795
C0A980,社子,2025-05-07,25.109508,121.469681,0.9152099
C0A9C0,天母,2025-05-07,25.117494,121.537169,0.91682774
C0A9F0,內湖,2025-05-07,25.079422,121.57545,0.8430351
C0AC60,三峽,2025-05-07,24.939025,121.369728,0.9077439
C0AC70,信義,2025-05-07,25.037822,121.564597,0.8430351
C0AC80,文山,2025-05-07,25.00235,121.575728,0.855869
C0ACA0,新莊,2025-05-07,25.051478,121.446756,0.8401896
C0AD10,八里,2025-05-07,25.150211,121.403947,0.95034075
C0AD30,蘆洲,2025-05-07,25.086594,121.472331,0.88094896
C0AD40,土城,2025-05-07,24.973208,121.445169,0.85271776
C0AD50,鶯歌,2025-05-07,24.951533,121.346294,0.90809697
C0AG80,中和,2025-05-07,24.991622,121.491792,0.85271776
C0AH00,汐止,2025-05-07,25.066881,121.658778,0.8430351
C0AH10,永和,2025-05-07,25.01125,121.508111,0.8516446
C0AH40,平等,2025-05-07,25.129142,121.577086,0.89369553
C0AH50,林口,2025-05-07,25.072181,121.38084,0.93662435
C0AH70,松山,2025-05-07,25.04871,121.55042,0.8430351
C0AH80,深坑,2025-05-07,25.002703,121.628328,0.85610825
C0AI00,五股,2025-05-07,25.07445,121.42728,0.9589769
C0AI10,屈尺,2025-05-07,24.92184,121.54475,0.8653207
C0AI20,白沙灣,2025-05-07,25.283128,121.519058,0.9480422
C0AI30,三重,2025-05-07,25.057328,121.500629,0.84229726
C0AI40,石牌,2025-05-07,25.115597,121.513139,0.9157816
C0AJ20,野柳,2025-05-07,25.20703,121.690021,0.9443991
C0AJ30,淡水觀海,2025-05-07,25.184591,121.408616,0.9543949
C0AJ40,石門,2025-05-07,25.273672,121.601198,0.9601307
C0AJ50,水湳洞,2025-05-07,25.123695,121.862238,0.7211894
C0AJ60,六塊厝,2025-05-07,25.24,121.4481,0.9464247
C0AJ70,田寮,2025-05-07,25.2698,121.4886,0.9476234
C0AJ80,板橋,2025-05-07,25.0107,121.4489,0.8516446
C0AJ90,澳底,2025-05-07,25.0552,121.9253,0.8224722
C0AK10,太平里,2025-05-07,25.134937,121.364899,0.9502043
C0B010,七堵,2025-05-07,25.094819,121.71713,0.84201086
C0B020,基隆嶼,2025-05-07,25.19141,121.78391,0.9222615
C0B040,大武崙,2025-05-07,25.166676,121.706993,0.82927847
C0B050,八斗子,2025-05-07,25.144754,121.79167,0.8290996
C0B060,暖暖,2025-05-07,25.0957,121.7403,0.84712243
C0C460,復興,2025-05-07,24.820208,121.352281,0.88328016
C0C480,桃園,2025-05-07,24.992425,121.323172,0.93149453
C0C490,八德,2025-05-07,24.928708,121.283289,0.9023577
C0C590,觀音,2025-05-07,25.027072,121.153317,0.97858226
C0C620,蘆竹,2025-05-07,25.084275,121.265767,0.971717
C0C630,大溪,2025-05-07,24.882853,121.265547,0.9015625
C0C650,平鎮,2025-05-07,24.897503,121.214636,0.9064679
C0C660,楊梅,2025-05-07,24.912375,121.143047,0.93010956
C0C670,龍潭,2025-05-07,24.870056,121.221389,0.9072985
C0C680,龜山,2025-05-07,25.02846,121.38656,0.9354772
C0C700,中壢,2025-05-07,24.977661,121.256375,0.9507927
C0C710,大溪永福,2025-05-07,24.892936,121.324975,0.8979123
C0C720,竹圍,2025-05-07,25.112692,121.239824,0.9421035
C0C730,中大臨海站,2025-05-07,24.966126,121.008581,0.978472
C0C740,觀音工業區,2025-05-07,25.064764,121.114856,0.9811061
C0C750,新興坑尾,2025-05-07,25.0061,121.0971,0.97518396
C0D430,峨眉,2025-05-07,24.6905,121.017189,0.910244
C0D480,打鐵坑,2025-05-07,24.849664,121.150789,0.9075758
C0D540,橫山,2025-05-07,24.71116,121.11693,0.9044671
C0D560,竹東,2025-05-07,24.767147,121.057881,0.87518704
C0D580,寶山,2025-05-07,24.735006,121.025192,0.9497274
C0D590,新豐,2025-05-07,24.87068,120.97721,0.91065264
C0D650,湖口,2025-05-07,24.904794,121.043628,0.9338894
C0D660,新竹市東區,2025-05-07,24.798681,120.986942,0.91869456
C0D670,海天一線,2025-05-07,24.831986,120.914438,0.96934706
C0D680,香山濕地,2025-05-07,24.783581,120.914988,0.93042195
C0D690,外湖,2025-05-07,24.917735,120.968711,0.946958
C0D700,關西,2025-05-07,24.7977,121.1732,0.691261
C0E420,竹南,2025-05-07,24.708978,120.888897,0.94386816
C0E430,南庄,2025-05-07,24.601775,121.000214,0.8583525
C0E550,明德,2025-05-07,24.583486,120.885411,0.9185413
C0E570,白沙屯,2025-05-07,24.549447,120.696803,0.9698522
C0E590,通霄,2025-05-07,24.471892,120.704622,0.960881
C0E730,頭份,2025-05-07,24.688247,120.912206,0.9457168
C0E740,造橋,2025-05-07,24.637056,120.864778,0.9123578
C0E750,苗栗,2025-05-07,24.564569,120.824575,0.92383254
C0E780,銅鑼,2025-05-07,24.489681,120.790853,0.9391342
C0E791,卓蘭,2025-05-07,24.3126,120.8244,0.9157051
C0E810,西湖,2025-05-07,24.562947,120.7485,0.97843117
C0E820,獅潭,2025-05-07,24.539133,120.920042,0.8886862
C0E830,苑裡,2025-05-07,24.439714,120.653053,0.97801745
C0E850,大河,2025-05-07,24.618069,120.948578,0.91587836
C0E870,高鐵苗栗,2025-05-07,24.60725,120.826094,0.909556
C0E910,海埔,2025-05-07,24.648767,120.772435,0.9693322
C0E920,通霄漁港,2025-05-07,24.498589,120.673876,0.97862035
C0E930,龍鳳,2025-05-07,24.700034,120.859125,0.95090485
C0F0B0,石岡,2025-05-07,24.276061,120.777644,0.875979
C0F850,東勢,2025-05-07,24.246428,120.833047,0.8714579
C0F970,大坑,2025-05-07,24.173142,120.722289,0.7849598
C0F9I0,神岡,2025-05-07,24.272481,120.658314,0.84444714
C0F9K0,大安,2025-05-07,24.345061,120.588025,0.9687595
C0F9L0,后里,2025-05-07,24.310436,120.729725,0.89622766
C0F9M0,豐原,2025-05-07,24.254322,120.720692,0.9061075
C0F9N0,大里,2025-05-07,24.092464,120.701378,0.68271035
C0F9O0,潭子,2025-05-07,24.213106,120.703933,0.9012518
C0F9P0,清水,2025-05-07,24.312297,120.562242,0.90438944
C0F9Q0,外埔,2025-05-07,24.347817,120.705686,0.8808658
C0F9R0,龍井,2025-05-07,24.184536,120.528972,0.8268262
C0F9S0,烏日,2025-05-07,24.107058,120.624103,0.6981043
C0F9T0,西屯,2025-05-07,24.179494,120.641275,0.77531
C0F9U0,南屯,2025-05-07,24.137006,120.637969,0.80641806
C0F9X0,大雅(中科園區),2025-05-07,24.21528,120.62445,0.83202577
C0FA10,松柏,2025-05-07,24.429115,120.617482,0.97276384
C0FA20,溫寮,2025-05-07,24.372177,120.583125,0.97017854
C0FA30,梧棲,2025-05-07,24.256003,120.523381,0.9043893
C0FA40,臺中電廠,2025-05-07,24.2146,120.4907,0.87443256
C0FA50,霧峰,2025-05-07,24.0419,120.6995,0.6941258
C0FB70,大甲溪埔,2025-05-07,24.370625,120.620067,0.9680917
C0G620,芬園,2025-05-07,24.015678,120.6213,0.74400693
C0G650,員林,2025-05-07,23.946503,120.585597,0.6170218
C0G660,溪湖,2025-05-07,23.94835,120.479122,0.7108784
C0G720,溪州,2025-05-07,23.851589,120.499093,0.8202747
C0G730,二林,2025-05-07,23.903325,120.376081,0.7960279
C0G740,大城,2025-05-07,23.852487,120.320935,0.8161156
C0G770,福興,2025-05-07,24.041289,120.437669,0.8134688
C0G780,秀水,2025-05-07,24.03405,120.503869,0.7395587
C0G800,埔鹽,2025-05-07,24.000394,120.431683,0.8090419
C0G810,埔心,2025-05-07,23.947633,120.525456,0.7000064
C0G820,田尾,2025-05-07,23.901669,120.509389,0.8272404
C0G830,埤頭,2025-05-07,23.866003,120.452806,0.8299151
C0G860,社頭,2025-05-07,23.897647,120.5862,0.7645138
C0G880,二水,2025-05-07,23.810742,120.6173,0.734805
C0G890,伸港,2025-05-07,24.148933,120.484403,0.7948929
C0G900,線西,2025-05-07,24.143358,120.443536,0.80156404
C0G910,花壇,2025-05-07,24.032076,120.549461,0.71660006
C0G920,永靖,2025-05-07,23.924703,120.547533,0.8272404
C0G940,竹塘,2025-05-07,23.848253,120.386764,0.76189435
C0G950,防潮門,2025-05-07,24.1835,120.4871,0.8268263
C0G960,福寶,2025-05-07,24.0443,120.3814,0.7941463
C0G970,三豐,2025-05-07,23.882,120.2895,0.886877
C0G9B0,和美,2025-05-07,24.105169,120.492131,0.80466807
C0H890,埔里,2025-05-07,23.972169,120.952425,0.9498816
C0H960,草屯,2025-05-07,23.973672,120.68085,0.74801886
C0I110,竹山,2025-05-07,23.761225,120.688156,0.640737
C0I360,水里,2025-05-07,23.812553,120.849792,0.8342592
C0I380,集集,2025-05-07,23.828206,120.801467,0.83622384
C0I410,名間,2025-05-07,23.837053,120.701447,0.6831146
C0I420,國姓,2025-05-07,24.037803,120.855072,0.74208313
C0I460,南投,2025-05-07,23.911469,120.687331,0.6106636
C0K250,崙背,2025-05-07,23.75555,120.318925,0.815374
C0K280,四湖,2025-05-07,23.630414,120.227125,0.87916684
C0K291,宜梧,2025-05-07,23.536281,120.169329,0.88475764
C0K330,虎尾,2025-05-07,23.719183,120.442036,0.83619124
C0K390,土庫,2025-05-07,23.679029,120.395574,0.87440705
C0K400,斗六,2025-05-07,23.720583,120.541127,0.81891865
C0K410,北港,2025-05-07,23.573957,120.292802,0.87343526
C0K420,西螺,2025-05-07,23.800407,120.467394,0.82377064
C0K430,褒忠,2025-05-07,23.690938,120.303634,0.84376645
C0K440,二崙,2025-05-07,23.772797,120.408944,0.7993845
C0K450,大埤,2025-05-07,23.646074,120.431537,0.8672461
C0K460,斗南,2025-05-07,23.678734,120.478359,0.8305088
C0K470,林內,2025-05-07,23.748675,120.609642,0.8398565
C0K480,莿桐,2025-05-07,23.761192,120.502372,0.7906319
C0K500,元長,2025-05-07,23.64981,120.315024,0.87282294
C0K510,水林,2025-05-07,23.572924,120.24597,0.87304103
C0K530,臺西,2025-05-07,23.701547,120.197559,0.86877644
C0K550,蔦松,2025-05-07,23.514319,120.229736,0.88475764
C0K560,棋山,2025-05-07,23.68645,120.603417,0.84356827
C0K580,高鐵雲林,2025-05-07,23.737456,120.417944,0.8145398
C0K590,雲林東勢,2025-05-07,23.674192,120.255721,0.86460024
C0K600,箔子寮,2025-05-07,23.6197,120.14,0.8772095
C0M520,東後寮,2025-05-07,23.369908,120.248065,0.8937439
C0M640,中埔,2025-05-07,23.42538,120.5229,0.85078394
C0M650,朴子,2025-05-07,23.43463,120.23902,0.8858029
C0M660,溪口,2025-05-07,23.604131,120.403569,0.8855087
C0M670,大林,2025-05-07,23.600616,120.45841,0.853635
C0M680,太保,2025-05-07,23.455062,120.331455,0.8654099
C0M690,水上,2025-05-07,23.419734,120.388909,0.86927605
C0M700,竹崎,2025-05-07,23.526178,120.555508,0.82860345
C0M710,東石,2025-05-07,23.458927,120.15385,0.8959058
C0M720,番路,2025-05-07,23.464657,120.554156,0.82318014
C0M730,嘉義市東區,2025-05-07,23.457673,120.460531,0.8616379
C0M740,六腳,2025-05-07,23.492871,120.290625,0.8881411
C0M750,布袋,2025-05-07,23.380878,120.167789,0.89347005
C0M760,民雄,2025-05-07,23.551754,120.428457,0.8787817
C0M770,嘉義梅山,2025-05-07,23.585398,120.555587,0.8040862
C0M780,鹿草,2025-05-07,23.41134,120.30835,0.8795064
C0M790,新港,2025-05-07,23.553269,120.345728,0.8894379
C0M800,茶山,2025-05-07,23.299075,120.664767,0.76831895
C0M880,好美里,2025-05-07,23.3364,120.138,0.90193605
C0N010,鯤鯓國小,2025-05-07,23.1879,120.0889,0.9256937
C0N020,城西,2025-05-07,23.0568,120.0956,0.9172552
C0N030,四草,2025-05-07,23.0235,120.1116,0.9162946
C0N040,蘆竹溝,2025-05-07,23.2344,120.0961,0.9141034
C0N050,蚵寮,2025-05-07,23.301,120.1104,0.9114365
C0O830,北寮,2025-05-07,23.079561,120.495008,0.82238555
C0O840,王爺宮,2025-05-07,23.222064,120.40085,0.8276537
C0O860,大內,2025-05-07,23.11885,120.36083,0.81736857
C0O900,善化,2025-05-07,23.112883,120.297219,0.87736136
C0O960,崎頂,2025-05-07,22.959547,120.369317,0.88795465
C0O970,虎頭埤,2025-05-07,23.021375,120.347878,0.8948268
C0O980,新市,2025-05-07,23.061614,120.298197,0.84127337
C0O990,媽廟,2025-05-07,22.99175,120.293525,0.8885264
C0R150,三地門,2025-05-07,22.709889,120.639944,0.91287816
C0R160,鹽埔,2025-05-07,22.739558,120.530778,0.83897406
C0R190,赤山,2025-05-07,22.592333,120.614306,0.8662142
C0R220,潮州,2025-05-07,22.534361,120.54,0.8702132
C0R240,來義,2025-05-07,22.527306,120.625111,0.8975948
C0R260,春日,2025-05-07,22.370361,120.628306,0.78873664
C0R270,琉球嶼,2025-05-07,22.332244,120.362236,0.90776813
C0R280,檳榔,2025-05-07,22.076078,120.836777,0.81077427
C0R320,車城,2025-05-07,22.0744,120.716247,0.9222235
C0R341,牡丹,2025-05-07,22.130036,120.792639,0.8117507
C0R350,貓鼻頭,2025-05-07,21.921774,120.7358,0.9345504
C0R470,高樹,2025-05-07,22.826389,120.600806,0.86510634
C0R480,長治,2025-05-07,22.693128,120.542622,0.8387278
C0R490,九如,2025-05-07,22.7405,120.490503,0.83352137
C0R520,崁頂,2025-05-07,22.514781,120.506914,0.86773133
C0R540,佳冬,2025-05-07,22.419456,120.552375,0.77312756
C0R550,新埤,2025-05-07,22.467947,120.582894,0.87973213
C0R560,新園,2025-05-07,22.5434,120.461558,0.78553
C0R570,麟洛,2025-05-07,22.65078,120.52719,0.7388849
C0R580,南州,2025-05-07,22.48591,120.50274,0.8667065
C0R590,里港,2025-05-07,22.77919,120.49459,0.77559966
C0R620,墾雷,2025-05-07,21.900836,120.855269,0.9559506
C0R640,東港,2025-05-07,22.46247,120.44074,0.8667062
C0R650,竹田,2025-05-07,22.58486,120.54344,0.87638736
C0R660,枋寮,2025-05-07,22.367722,120.590647,0.77080494
C0R670,楓港,2025-05-07,22.190131,120.692156,0.6302303
C0R680,佳樂水,2025-05-07,21.993578,120.861633,0.935621
C0R690,墾丁,2025-05-07,21.966756,120.810269,0.9295508
C0R700,枋山,2025-05-07,22.246844,120.661086,0.7737177
C0R710,龍磐,2025-05-07,21.931672,120.838942,0.93371123
C0R720,旭海,2025-05-07,22.205403,120.887614,0.79165745
C0R730,大坪頂,2025-05-07,22.024633,120.69355,0.8978965
C0R741,獅子,2025-05-07,22.202308,120.705236,0.70417225
C0R760,南仁湖,2025-05-07,22.084681,120.863353,0.91977745
C0R770,保力,2025-05-07,22.071122,120.764111,0.9160886
C0R780,滿州,2025-05-07,22.024403,120.839892,0.9270344
C0R790,九棚,2025-05-07,22.14195,120.889281,0.79777443
C0R800,丹路,2025-05-07,22.204481,120.750989,0.79385567
C0R810,內獅,2025-05-07,22.305064,120.642986,0.70167124
C0R830,高士,2025-05-07,22.121825,120.836781,0.90220964
C0R850,林邊,2025-05-07,22.4634,120.5339,0.8691195
C0R860,鼻頭,2025-05-07,22.1043,120.8979,0.9182959
C0R870,興海,2025-05-07,21.9752,120.8439,0.93518364
C0R880,後壁湖,2025-05-07,21.9457,120.7457,0.93013054
C0R890,山海,2025-05-07,21.9878,120.7091,0.93051666
C0R900,竹坑,2025-05-07,22.1385,120.7022,0.9226631
C0R910,下寮,2025-05-07,22.3929,120.5548,0.7708047
C0R920,塭仔,2025-05-07,22.4169,120.5197,0.76871204
C0R930,萬丹,2025-05-07,22.5885,120.4851,0.7789309
C0R940,加祿堂,2025-05-07,22.3363,120.6217,0.6619965
C0R950,萬隆國小,2025-05-07,22.507667,120.587817,0.88864255
C0R960,內埔,2025-05-07,22.608483,120.570714,0.8827205
C0S710,鹿野,2025-05-07,22.917711,121.122994,0.64486516
C0S730,綠島,2025-05-07,22.6672,121.47533,0.76012653
C0S740,池上,2025-05-07,23.119628,121.209469,0.6959909
C0S770,大溪山,2025-05-07,22.478475,120.943325,0.5804566
C0S790,金崙,2025-05-07,22.538122,120.966875,0.2764194
C0S810,東河,2025-05-07,22.972672,121.303986,0.7112475
C0S830,長濱,2025-05-07,23.286817,121.411975,0.7990422
C0S840,南田,2025-05-07,22.279725,120.889208,0.6788294
C0S890,關山,2025-05-07,23.0395,121.175017,0.7728912
C0S900,蘭嶼高中,2025-05-07,22.04909,121.51214,0.9766236
C0S910,蘭嶼燈塔,2025-05-07,22.081197,121.503117,0.9676846
C0S920,金峰嘉蘭,2025-05-07,22.594789,120.960825,0.3471529
C0S930,延平,2025-05-07,22.902581,121.084058,0.564454
C0S940,石寧山,2025-05-07,23.223772,121.406639,0.84011847
C0S950,七塊厝,2025-05-07,22.954453,121.229922,0.5911392
C0S960,香蘭,2025-05-07,22.587569,120.993375,0.2765504
C0S970,加津林,2025-05-07,22.416211,120.926942,0.6604064
C0S990,山豬窟,2025-05-07,22.318619,120.857372,0.6544019
C0SA00,歷坵,2025-05-07,22.520969,120.89185,0.5108601
C0SA10,檳榔四格山,2025-05-07,22.810031,121.109308,0.62226367
C0SA30,都歷,2025-05-07,23.020333,121.323642,0.7772028
C0SA40,瑞和,2025-05-07,22.974361,121.156697,0.7705146
C0SA60,知本（水試所）,2025-05-07,22.702394,121.082761,0.2810074
C0SA80,土坂,2025-05-07,22.453108,120.887572,0.3188883
C0SA90,達仁林場,2025-05-07,22.264347,120.823972,0.807916
C0SB10,美和,2025-05-07,22.682078,121.060236,0.28934878
C0SB20,富岡,2025-05-07,22.792467,121.192669,0.46468282
C0SB30,新蘭,2025-05-07,22.869214,121.223228,0.48938504
C0SB40,興隆,2025-05-07,22.913661,121.257469,0.50050205
C0SB50,叭嗡嗡,2025-05-07,23.047062,121.343223,0.71772635
C0SB60,白守蓮,2025-05-07,23.126769,121.401914,0.76892567
C0SB70,小港漁港,2025-05-07,23.158558,121.400431,0.8052158
C0SB80,長濱漁港,2025-05-07,23.313644,121.459994,0.83597445
C0T870,鯉魚潭,2025-05-07,23.935639,121.508944,0.5864625
C0T900,西林,2025-05-07,23.8119,121.441458,0.5863388
C0T960,光復,2025-05-07,23.660694,121.424964,0.8333763
C0T9A0,月眉山,2025-05-07,23.809928,121.539828,0.19142233
C0T9D0,和中,2025-05-07,24.26676,121.74103,0.94044656
C0T9E0,大坑,2025-05-07,23.880628,121.581981,0.63419276
C0T9F0,水璉,2025-05-07,23.797131,121.542514,0.54245466
C0T9I0,豐濱,2025-05-07,23.583897,121.514806,0.82583016
C0T9M0,靜浦,2025-05-07,23.455167,121.495028,0.8298572
C0T9N0,富里,2025-05-07,23.171639,121.249378,0.75006413
C0TA10,花蓮漁港,2025-05-07,23.995322,121.638331,0.6177448
C0TA20,加灣,2025-05-07,24.082025,121.608944,0.9071153
C0TA30,鹽寮,2025-05-07,23.845606,121.592664,0.6452488
C0U600,礁溪,2025-05-07,24.817539,121.765608,0.57321924
C0U650,玉蘭,2025-05-07,24.675286,121.587061,0.8533876
C0U750,龜山島,2025-05-07,24.841667,121.953133,0.69363326
C0U760,東澳,2025-05-07,24.52196,121.83318,0.6927038
C0U770,南澳,2025-05-07,24.44935,121.81022,0.81611216
C0U780,五結,2025-05-07,24.68637,121.79794,0.6036839
C0U860,頭城,2025-05-07,24.85323,121.8308,0.5722002
C0U870,大礁溪,2025-05-07,24.791042,121.675047,0.77386695
C0U880,北關,2025-05-07,24.9072,121.8734,0.6669035
C0U890,三星,2025-05-07,24.66812,121.65302,0.5447113
C0U900,內城,2025-05-07,24.71813,121.68766,0.6149318
C0U910,冬山,2025-05-07,24.63373,121.7937,0.5611998
C0U940,羅東,2025-05-07,24.68184,121.74934,0.6112271
C0U970,大福,2025-05-07,24.80064,121.81389,0.64846903
C0U990,員山,2025-05-07,24.74435,121.72247,0.6048202
C0UA00,土場,2025-05-07,24.576533,121.495333,0.91798764
C0UA80,大溪漁港,2025-05-07,24.941801,121.902955,0.7291717
C0UA90,石城,2025-05-07,24.980444,121.951214,0.7505273
C0UB00,淡江大學蘭陽校園,2025-05-07,24.823239,121.730383,0.8788396
C0UB10,蘇澳,2025-05-07,24.5969,121.8571,0.514591
C0UB20,壯圍,2025-05-07,24.7359,121.8163,0.6076862
C0V350,溪埔,2025-05-07,22.738578,120.446797,0.78239214
C0V360,內門,2025-05-07,22.975481,120.466769,0.84463924
C0V370,古亭坑,2025-05-07,22.893178,120.401947,0.8400862
C0V400,阿公店,2025-05-07,22.804194,120.355528,0.8235279
C0V440,鳳山,2025-05-07,22.646653,120.356122,0.9066689
C0V450,鳳森,2025-05-07,22.545064,120.392592,0.7657917
C0V490,新興,2025-05-07,22.627422,120.298803,0.9082283
C0V530,阿蓮,2025-05-07,22.883208,120.327508,0.90376633
C0V610,梓官,2025-05-07,22.760558,120.267211,0.9107755
C0V620,永安,2025-05-07,22.82315,120.236856,0.94128525
C0V630,茄萣,2025-05-07,22.906642,120.182608,0.9282504
C0V640,湖內,2025-05-07,22.887139,120.2445,0.9384
C0V650,彌陀,2025-05-07,22.783806,120.246361,0.9368261
C0V660,岡山,2025-05-07,22.797078,120.294958,0.9368261
C0V680,仁武,2025-05-07,22.701083,120.347722,0.93452615
C0V690,鼓山,2025-05-07,22.623325,120.275575,0.9082282
C0V700,三民,2025-05-07,22.645017,120.311233,0.93716353
C0V710,苓雅,2025-05-07,22.622742,120.330669,0.8579968
C0V720,林園,2025-05-07,22.507747,120.394511,0.7987392
C0V730,大寮,2025-05-07,22.605614,120.395717,0.8593955
C0V740,旗山,2025-05-07,22.888614,120.483597,0.8248556
C0V750,路竹,2025-05-07,22.854997,120.259439,0.93835896
C0V760,橋頭,2025-05-07,22.757806,120.30575,0.9107755
C0V770,大社,2025-05-07,22.730306,120.346639,0.907624
C0V790,萬山,2025-05-07,22.905944,120.688056,0.67762756
C0V800,六龜,2025-05-07,22.997889,120.633583,0.8029015
C0V810,左營,2025-05-07,22.67491,120.28491,0.93716353
C0V820,小林,2025-05-07,23.148408,120.63325,0.75861865
C0V840,鳳鼻頭,2025-05-07,22.5083,120.3591,0.78127253
C0V850,蚵仔寮,2025-05-07,22.7256,120.2527,0.91023505
C0V860,南寮,2025-05-07,22.7616,120.2339,0.91023505
C0V870,文安,2025-05-07,22.8025,120.2164,0.93642
C0V880,興達,2025-05-07,22.8778,120.2127,0.93838423
C0V890,前鎮,2025-05-07,22.5718,120.3117,0.90710825
C0V900,汕尾,2025-05-07,22.4782,120.4151,0.8667065
C0V910,大樹,2025-05-07,22.684645,120.432803,0.76046544
C0W200,湖西,2025-05-07,23.596314,119.67275,0.9385048
C0X050,東河,2025-05-07,23.296598,120.385608,0.8521688
C0X060,下營,2025-05-07,23.22695,120.256261,0.8908746
C0X080,佳里,2025-05-07,23.173039,120.145086,0.9256937
C0X100,臺南市北區,2025-05-07,23.010394,120.194228,0.9152273
C0X110,臺南市南區,2025-05-07,22.961189,120.188378,0.9182296
C0X120,麻豆,2025-05-07,23.183289,120.248611,0.8599937
C0X130,官田,2025-05-07,23.193217,120.315422,0.87640005
C0X140,西港,2025-05-07,23.125608,120.203108,0.89497393
C0X150,安定,2025-05-07,23.102614,120.227839,0.89497393
C0X160,仁德,2025-05-07,22.968258,120.257689,0.91721237
C0X170,關廟,2025-05-07,22.963017,120.327797,0.8856288
C0X180,山上,2025-05-07,23.0757,120.363253,0.84390575
C0X190,安平,2025-05-07,22.993161,120.152181,0.9152273
C0X200,左鎮,2025-05-07,23.056758,120.408522,0.8940708
C0X210,白河,2025-05-07,23.347466,120.414427,0.862047
C0X220,學甲,2025-05-07,23.230367,120.182187,0.9144072
C0X230,鹽水,2025-05-07,23.272621,120.247641,0.905947
C0X240,關子嶺,2025-05-07,23.331169,120.508025,0.5866971
C0X250,新營,2025-05-07,23.310689,120.316681,0.86005557
C0X260,後壁,2025-05-07,23.366358,120.362326,0.86962634
C0X280,將軍,2025-05-07,23.214999,120.13577,0.9141033
C0X290,北門,2025-05-07,23.267772,120.125481,0.9141033
C0X300,鹿寮,2025-05-07,23.386047,120.477331,0.86177707
C0X320,柳營,2025-05-07,23.253328,120.375253,0.85616535
C0Z020,明里,2025-05-07,23.208717,121.262342,0.8058735
C0Z061,玉里,2025-05-07,23.3215,121.339656,0.81672335
C0Z070,舞鶴,2025-05-07,23.46811,121.37407,0.7521751
C0Z080,富源,2025-05-07,23.587642,121.378225,0.7270676
C0Z100,東華,2025-05-07,23.89525,121.549833,0.6474387
C0Z150,吉安光華,2025-05-07,23.930925,121.595153,0.6379016
C0Z160,鳳林,2025-05-07,23.746114,121.453411,0.5262219
C0Z170,卓溪,2025-05-07,23.3443,121.3029,0.79665494
C0Z180,新城,2025-05-07,24.040486,121.604878,0.61621314
C0Z190,富世,2025-05-07,24.14743,121.6297,0.7367003
C0Z200,萬榮,2025-05-07,23.709219,121.420106,0.52521616
C0Z210,瑞穗,2025-05-07,23.5239,121.39021,0.8371929
C0Z230,和平,2025-05-07,24.30717,121.77007,0.9411697
C0Z270,蕃薯寮,2025-05-07,23.73835,121.540108,0.45120734
C0Z280,德武,2025-05-07,23.47426,121.41071,0.8235182
C0Z300,東里,2025-05-07,23.26853,121.30547,0.83181965
C0Z310,清水斷崖,2025-05-07,24.218294,121.689142,0.8751898
C0Z330,安通山,2025-05-07,23.290728,121.348528,0.5461943
C2A540,四堵,2025-05-07,24.8926,121.745736,0.93264556
C2A560,福山,2025-05-07,24.776203,121.502811,0.9364171
C2A650,火燒寮,2025-05-07,25.002719,121.742892,0.9237036
C2A660,瑞芳,2025-05-07,25.113169,121.801147,0.74617237
C2A880,福隆,2025-05-07,25.017842,121.942083,0.75241184
C2A920,富貴角,2025-05-07,25.263783,121.565258,0.9511682
C2C410,中央大學,2025-05-07,24.967652,121.185165,0.9560958
C2D720,關西工作站,2025-05-07,24.757275,121.184792,0.685735
C2D730,寶山農場,2025-05-07,24.732444,120.976153,0.9116993
C2E520,大湖,2025-05-07,24.414939,120.870872,0.9505018
C2E540,龍溪,2025-05-07,24.606489,120.783933,0.9685068
C2E970,八甲,2025-05-07,24.535811,120.795983,0.9317506
C2F000,大肚,2025-05-07,24.15295,120.572117,0.77942955
C2F930,大甲,2025-05-07,24.347667,120.640403,0.9621227
C2F9A0,中竹林,2025-05-07,24.103556,120.751061,0.93998176
C2G640,鹿港,2025-05-07,24.0753,120.430481,0.7941463
C2G840,北斗,2025-05-07,23.877586,120.514222,0.825391
C2G870,芳苑,2025-05-07,23.922303,120.320025,0.81565434
C2G980,田頭村,2025-05-07,23.8263,120.444175,0.8313562
C2G9A0,畜試所彰化,2025-05-07,23.86045,120.557964,0.76656413
C2H950,中寮,2025-05-07,23.884447,120.766406,0.79140836
C2H9F0,柑林,2025-05-07,24.018658,120.847072,0.745147
C2H9H0,苗改南投蜂場,2025-05-07,23.852589,120.693481,0.6890959
C2H9T0,名間竹圍,2025-05-07,23.859914,120.637572,0.7899349
C2H9U0,鳳鵬,2025-05-07,23.763919,120.788061,0.9007182
C2K620,馬光農場,2025-05-07,23.721453,120.378864,0.82159424
C2K630,荷苞,2025-05-07,23.657717,120.595144,0.80819124
C2M410,馬頭山,2025-05-07,23.324361,120.582017,0.70083344
C2M910,嘉義大學,2025-05-07,23.471325,120.485903,0.85914916
C2M920,朴子農改,2025-05-07,23.469889,120.259383,0.8815298
C2N160,西拉雅風管處,2025-05-07,23.189481,120.335297,0.8773994
C2O810,曾文,2025-05-07,23.219681,120.497328,0.7656944
C2O930,玉井,2025-05-07,23.126042,120.46055,0.8439056
C2O950,安南,2025-05-07,23.076694,120.144861,0.9434621
C2R170,屏東,2025-05-07,22.66027,120.49403,0.7388849
C2R970,屏科大,2025-05-07,22.648275,120.619247,0.9148816
C2V250,甲仙,2025-05-07,23.080106,120.591758,0.76491
C2V260,月眉,2025-05-07,22.971003,120.539853,0.86089766
C2V310,美濃,2025-05-07,22.898792,120.51907,0.8222402
C2W230,畜試所澎湖,2025-05-07,23.628342,119.513206,0.88266295
CAG100,王功漁港,2025-05-07,23.96824,120.32586,0.7991762
CAH030,茶改場竹圍站,2025-05-07,23.860083,120.637528,0.7899349
CAJ050,海口故事園區,2025-05-07,23.57543,120.14121,0.8799881
CAL110,布袋國中,2025-05-07,23.35893,120.18026,0.89347005
CAN130,水試所海水繁養殖中心,2025-05-07,23.120802,120.07968,0.9445193
CAN140,六官養殖協會,2025-05-07,23.22881,120.29962,0.8908746
CAQ030,崎峰國小,2025-05-07,22.42565,120.49521,0.8667065
E2K600,四湖植物園,2025-05-07,23.676986,120.163433,0.87916684
E2P980,林試六龜中心,2025-05-07,22.991703,120.645722,0.79208714
E2S960,林試太麻里2,2025-05-07,22.598,120.99775,0.26842487
E2S980,林試太麻里1,2025-05-07,22.598922,120.980044,0.34473413
G2AI50,關渡,2025-05-07,25.11575,121.492,0.9153609
G2F820,農試所(霧峰),2025-05-07,24.031261,120.688133,0.7061384
G2L020,農試嘉義分所,2025-05-07,23.485028,120.473806,0.86222225
G2M350,農試溪口農場,2025-05-07,23.58565,120.408111,0.8855087
G2P820,農試鳳山分所,2025-05-07,22.646611,120.356083,0.9066689
K2E360,苗栗農改場,2025-05-07,24.495722,120.829111,0.9118405
K2E710,苗改生物防治研究中心,2025-05-07,24.422861,120.871833,0.9542454
K2F750,種苗改良場,2025-05-07,24.225972,120.800917,0.84452933
U2HA50,臺大竹山,2025-05-07,23.756972,120.681556,0.87712044
V2C250,八德合作社,2025-05-07,24.93775,121.266389,0.94148815
V2C260,八德蔬果,2025-05-07,24.978508,121.281819,0.95081073
V2K610,大庄合作社,2025-05-07,23.8068,120.367939,0.8059036
V2K620,麥寮合作社,2025-05-07,23.753836,120.294783,0.85248655
