站號,站名,日期,lat,lon,BLBTSLS
C0R710,龍磐,2025-04-04,21.931672,120.838942,0.76112515
C1F9D1,白毛台,2025-04-04,24.158325,120.886933,3.2617304e-09
C0G940,竹塘,2025-04-04,23.848253,120.386764,7.937719e-09
467590,恆春,2025-04-04,22.003897,120.746339,0.93772095
C1O850,環湖,2025-04-04,23.148617,120.418633,1.5647312e-07
C0U710,太平山,2025-04-04,24.505486,121.525656,5.6286744e-09
C0E820,獅潭,2025-04-04,24.539133,120.920042,1.359532e-07
C0V880,興達,2025-04-04,22.8778,120.2127,0.9964496
C0S890,關山,2025-04-04,23.0395,121.175017,7.991596e-06
C0SB30,新蘭,2025-04-04,22.869214,121.223228,0.07181113
C2R970,屏科大,2025-04-04,22.648275,120.619247,0.997898
C1Z130,銅門,2025-04-04,23.965694,121.492842,2.3746772e-07
C0AD40,土城,2025-04-04,24.973208,121.445169,8.735834e-06
CAN140,六官養殖協會,2025-04-04,23.22881,120.29962,0.0014940369
C0X180,山上,2025-04-04,23.0757,120.363253,0.99116147
C0F9Z0,雪山東峰,2025-04-04,24.388792,121.268675,2.5395321e-08
C1M480,獨立山,2025-04-04,23.537022,120.607797,7.8985235e-10
C0X220,學甲,2025-04-04,23.230367,120.182187,0.0020595049
467650,日月潭,2025-04-04,23.881325,120.90805,9.97812e-10
C0K600,箔子寮,2025-04-04,23.6197,120.14,2.8249033e-07
C0G830,埤頭,2025-04-04,23.866003,120.452806,5.870874e-09
C0S950,七塊厝,2025-04-04,22.954453,121.229922,8.7353264e-08
467110,金門,2025-04-04,24.407306,118.289281,1.2781509e-08
C0AH80,深坑,2025-04-04,25.002703,121.628328,4.223176e-06
C0A970,三貂角,2025-04-04,25.007606,122.002058,4.7856417e-08
C2D730,寶山農場,2025-04-04,24.732444,120.976153,2.6088688e-07
C0K430,褒忠,2025-04-04,23.690938,120.303634,3.2470954e-08
467480,嘉義,2025-04-04,23.495925,120.432906,7.428933e-08
C0V400,阿公店,2025-04-04,22.804194,120.355528,0.8920365
467550,玉山,2025-04-04,23.48718,120.95943,5.5466682e-08
C0R440,大漢山,2025-04-04,22.405264,120.753181,8.560861e-09
C0K280,四湖,2025-04-04,23.630414,120.227125,4.6150262e-08
C1F9B1,桐林,2025-04-04,24.066172,120.735194,1.0309789e-06
C2H9U0,鳳鵬,2025-04-04,23.763919,120.788061,1.1321021e-09
C0K390,土庫,2025-04-04,23.679029,120.395574,6.804049e-09
C1I450,望鄉山,2025-04-04,23.594153,120.944286,2.0038074e-08
C0E910,海埔,2025-04-04,24.648767,120.772435,7.7697723e-07
B2E890,畜試北區分所,2025-04-04,24.527806,120.770972,1.9169418e-07
C0R750,四林格山,2025-04-04,22.076989,120.802439,0.002641751
C0F0C0,中坑,2025-04-04,24.248517,120.903319,3.4875187e-09
C1I121,大鞍,2025-04-04,23.678381,120.760017,1.7994854e-09
72U480,花改蘭陽分場,2025-04-04,24.686306,121.716583,6.706427e-08
C0A770,科教館,2025-04-04,25.096356,121.516507,1.2459752e-05
C0AJ60,六塊厝,2025-04-04,25.24,121.4481,2.1345848e-05
C0R620,墾雷,2025-04-04,21.900836,120.855269,0.70117325
467420,永康,2025-04-04,23.038386,120.2367,0.98893285
C0I410,名間,2025-04-04,23.837053,120.701447,2.1512798e-09
A2C560,農工中心,2025-04-04,24.985917,121.239833,6.1834353e-06
C0V740,旗山,2025-04-04,22.888614,120.483597,0.83084154
C0Z061,玉里,2025-04-04,23.3215,121.339656,0.0006148176
C0S840,南田,2025-04-04,22.279725,120.889208,0.60176367
C1I470,杉林溪,2025-04-04,23.639517,120.786444,2.2878077e-09
C1X040,東原,2025-04-04,23.291597,120.463822,0.0040225033
C0R660,枋寮,2025-04-04,22.367722,120.590647,0.99927
C1R120,上德文,2025-04-04,22.763272,120.704442,9.834039e-09
C0K450,大埤,2025-04-04,23.646074,120.431537,1.2189922e-08
C0UA00,土場,2025-04-04,24.576533,121.495333,5.942616e-09
467080,宜蘭,2025-04-04,24.763975,121.756528,8.7229886e-08
C0N030,四草,2025-04-04,23.0235,120.1116,0.0043867202
467410,臺南,2025-04-04,22.99328,120.20492,0.35280412
C0V650,彌陀,2025-04-04,22.783806,120.246361,0.9981815
C0D660,新竹市東區,2025-04-04,24.798681,120.986942,7.129592e-08
82S580,茶改東部分場,2025-04-04,22.907694,121.130139,9.3587e-05
C0SB40,興隆,2025-04-04,22.913661,121.257469,0.044516977
467050,新屋,2025-04-04,25.006725,121.047492,4.4586755e-05
C0C710,大溪永福,2025-04-04,24.892936,121.324975,6.378823e-06
C0FA20,溫寮,2025-04-04,24.372177,120.583125,5.4756063e-05
C0V640,湖內,2025-04-04,22.887139,120.2445,0.9957604
C0R910,下寮,2025-04-04,22.3929,120.5548,0.9992708
C0Z020,明里,2025-04-04,23.208717,121.262342,1.1926752e-05
C0M770,嘉義梅山,2025-04-04,23.585398,120.555587,6.4900294e-09
C0C660,楊梅,2025-04-04,24.912375,121.143047,3.0610026e-06
C1E511,新開,2025-04-04,24.347703,120.827019,1.17672e-08
G2F820,農試所(霧峰),2025-04-04,24.031261,120.688133,2.7688912e-07
C1I070,和社,2025-04-04,23.591131,120.888861,2.1261315e-09
C2F000,大肚,2025-04-04,24.15295,120.572117,5.264726e-09
C1S850,豐南,2025-04-04,23.122139,121.262389,3.7738086e-08
C2A920,富貴角,2025-04-04,25.263783,121.565258,7.1650015e-07
CAH030,茶改場竹圍站,2025-04-04,23.860083,120.637528,1.6958177e-09
C0T960,光復,2025-04-04,23.660694,121.424964,2.1964414e-07
C0F9M0,豐原,2025-04-04,24.254322,120.720692,6.261208e-08
C0R720,旭海,2025-04-04,22.205403,120.887614,0.004152194
C0V710,苓雅,2025-04-04,22.622742,120.330669,0.9977151
C0C740,觀音工業區,2025-04-04,25.064764,121.114856,6.323674e-05
CAC040,拉拉山,2025-04-04,24.699317,121.427133,4.9046536e-09
C0V790,萬山,2025-04-04,22.905944,120.688056,1.5475298e-09
U2HA30,臺大和社,2025-04-04,23.590856,120.888864,2.1261315e-09
C0AJ90,澳底,2025-04-04,25.0552,121.9253,8.63606e-08
C0Z100,東華,2025-04-04,23.89525,121.549833,2.7761914e-06
C0G970,三豐,2025-04-04,23.882,120.2895,5.8799653e-08
V2K610,大庄合作社,2025-04-04,23.8068,120.367939,3.2107472e-08
C0V900,汕尾,2025-04-04,22.4782,120.4151,0.9994076
C1R630,龍泉,2025-04-04,22.66701,120.59091,0.99917793
C1AC50,關渡,2025-04-04,25.133486,121.469331,1.7875939e-06
C0F9I0,神岡,2025-04-04,24.272481,120.658314,4.0621725e-08
C0K460,斗南,2025-04-04,23.678734,120.478359,9.756617e-09
C2O810,曾文,2025-04-04,23.219681,120.497328,0.03884714
467280,後龍,2025-04-04,24.648563,120.831834,4.788966e-07
C1F9J1,清水林,2025-04-04,24.071242,120.820419,7.4111217e-10
C2A650,火燒寮,2025-04-04,25.002719,121.742892,2.3907669e-08
466930,竹子湖,2025-04-04,25.162078,121.544547,1.08557225e-08
C1I220,樟湖,2025-04-04,23.905333,120.846983,1.0973902e-09
C0I390,仁愛,2025-04-04,24.022122,121.132206,1.5712823e-09
C0Z300,東里,2025-04-04,23.26853,121.30547,0.0001860238
C1V590,新發,2025-04-04,23.057019,120.646064,7.4308e-09
C0K510,水林,2025-04-04,23.572924,120.24597,1.193628e-07
72S590,東改賓朗果園,2025-04-04,22.813889,121.071278,2.154426e-06
82A750,茶改北部分場,2025-04-04,24.955778,121.631222,1.3722422e-08
C1A750,石碇服務區,2025-04-04,25.00872,121.646242,2.8011077e-06
C0X300,鹿寮,2025-04-04,23.386047,120.477331,5.790381e-09
G2AI50,關渡,2025-04-04,25.11575,121.492,1.1445996e-05
C0K590,雲林東勢,2025-04-04,23.674192,120.255721,3.2060598e-08
C0A570,桶後,2025-04-04,24.848222,121.597992,6.99716e-09
C1S800,華源,2025-04-04,22.657883,121.02325,0.0050239447
C0G720,溪州,2025-04-04,23.851589,120.499093,4.878092e-09
C1V160,達卡努瓦,2025-04-04,23.279811,120.705319,1.3971757e-09
C2M410,馬頭山,2025-04-04,23.324361,120.582017,1.6755526e-09
C0V850,蚵仔寮,2025-04-04,22.7256,120.2527,0.99851435
C0S740,池上,2025-04-04,23.119628,121.209469,3.917365e-07
C1V390,尖山,2025-04-04,22.813153,120.367789,0.72816974
C0AH70,松山,2025-04-04,25.04871,121.55042,9.757346e-06
C0N010,鯤鯓國小,2025-04-04,23.1879,120.0889,0.00335819
C0R550,新埤,2025-04-04,22.467947,120.582894,0.99929166
C0SA60,知本（水試所）,2025-04-04,22.702394,121.082761,0.15496309
C0T9I0,豐濱,2025-04-04,23.583897,121.514806,2.062809e-07
C0UB00,淡江大學蘭陽校園,2025-04-04,24.823239,121.730383,6.045624e-09
C0W240,九宮,2025-04-04,24.423753,118.240186,1.2812166e-08
C0T9N0,富里,2025-04-04,23.171639,121.249378,2.745222e-06
U2HA50,臺大竹山,2025-04-04,23.756972,120.681556,4.508143e-09
C0V840,鳳鼻頭,2025-04-04,22.5083,120.3591,0.98682564
C0X140,西港,2025-04-04,23.125608,120.203108,0.0017326426
72D080,桃改五峰分場,2025-04-04,24.612194,121.157167,2.8790326e-09
C2H9P0,伊拿谷,2025-04-04,23.963211,121.088264,9.026093e-10
C2H9F0,柑林,2025-04-04,24.018658,120.847072,1.3547342e-09
C0TA20,加灣,2025-04-04,24.082025,121.608944,0.0001632306
C0V530,阿蓮,2025-04-04,22.883208,120.327508,0.9833753
C1O880,關山,2025-04-04,23.173397,120.594092,1.7319715e-09
C0E791,卓蘭,2025-04-04,24.3126,120.8244,1.0526626e-08
C1I030,武界,2025-04-04,23.913225,121.052483,9.156088e-10
C0R520,崁頂,2025-04-04,22.514781,120.506914,0.99956757
C0R341,牡丹,2025-04-04,22.130036,120.792639,0.19120924
C0R930,萬丹,2025-04-04,22.5885,120.4851,0.99345636
C0S760,紅石,2025-04-04,23.069131,121.126219,3.7113257e-09
C2C410,中央大學,2025-04-04,24.967652,121.185165,4.786204e-06
C1M610,石磐龍,2025-04-04,23.496606,120.663506,2.034826e-09
C0UA10,鴛鴦湖,2025-04-04,24.590269,121.412228,4.7055626e-09
V2C260,八德蔬果,2025-04-04,24.978508,121.281819,6.7117385e-06
C0R800,丹路,2025-04-04,22.204481,120.750989,0.5336176
C0G920,永靖,2025-04-04,23.924703,120.547533,7.067615e-07
C2M950,太和,2025-04-04,23.538372,120.702961,2.2942444e-09
C1A630,下盆,2025-04-04,24.771003,121.538622,5.61451e-09
B2N890,畜產試驗所,2025-04-04,23.058972,120.336406,0.9260232
C0UA30,白嶺,2025-04-04,24.527819,121.519031,4.6260933e-09
C1V580,溪南(特生中心),2025-04-04,23.084972,120.788475,3.8993004e-09
C1T970,大農,2025-04-04,23.615233,121.413331,1.07027645e-07
C0R650,竹田,2025-04-04,22.58486,120.54344,0.999773
C1H900,清流,2025-04-04,24.080775,120.962997,1.0002168e-09
C1C510,水尾,2025-04-04,24.940081,121.087161,9.739728e-06
C0F9X0,大雅(中科園區),2025-04-04,24.21528,120.62445,3.1579776e-07
C0SB60,白守蓮,2025-04-04,23.126769,121.401914,0.033054702
C0O970,虎頭埤,2025-04-04,23.021375,120.347878,0.9486281
C0C730,中大臨海站,2025-04-04,24.966126,121.008581,6.8079156e-05
C0X250,新營,2025-04-04,23.310689,120.316681,0.0016706
C0V700,三民,2025-04-04,22.645017,120.311233,0.99888617
C0U870,大礁溪,2025-04-04,24.791042,121.675047,5.4199654e-09
C0E870,高鐵苗栗,2025-04-04,24.60725,120.826094,1.10940455e-05
A2K570,古坑花卉中心,2025-04-04,23.63353,120.55239,2.1314353e-08
C0TA30,鹽寮,2025-04-04,23.845606,121.592664,4.3785276e-06
C0M860,新美,2025-04-04,23.338017,120.683169,7.058401e-10
C1E701,八卦,2025-04-04,24.491756,120.927619,7.607365e-09
C0I420,國姓,2025-04-04,24.037803,120.855072,1.228782e-09
C2D720,關西工作站,2025-04-04,24.757275,121.184792,1.0002328e-07
C0S960,香蘭,2025-04-04,22.587569,120.993375,0.2945689
467620,蘭嶼,2025-04-04,22.0369,121.55843,0.052215315
C0R260,春日,2025-04-04,22.370361,120.628306,0.99858326
72G600,臺中農改場,2025-04-04,24.003028,120.534389,2.1643873e-06
C0Z210,瑞穗,2025-04-04,23.5239,121.39021,3.383108e-07
C0M820,達邦,2025-04-04,23.453994,120.749517,1.920635e-09
C0V860,南寮,2025-04-04,22.7616,120.2339,0.9985353
C0G740,大城,2025-04-04,23.852487,120.320935,5.0120104e-08
C0R920,塭仔,2025-04-04,22.4169,120.5197,0.9993155
C0R470,高樹,2025-04-04,22.826389,120.600806,0.9512254
C0R680,佳樂水,2025-04-04,21.993578,120.861633,0.9641968
C1O870,大棟山,2025-04-04,23.31157,120.52226,1.4853637e-09
C0D360,梅花,2025-04-04,24.678347,121.208558,1.0071511e-08
C0Z190,富世,2025-04-04,24.14743,121.6297,2.3748282e-08
C0AI10,屈尺,2025-04-04,24.92184,121.54475,4.1328913e-06
B2U990,畜試東區分所,2025-04-04,24.669039,121.832561,6.926561e-08
C0SB80,長濱漁港,2025-04-04,23.313644,121.459994,0.06549916
C0R240,來義,2025-04-04,22.527306,120.625111,0.9990436
C0V910,大樹,2025-04-04,22.684645,120.432803,0.99896175
C1R610,西大武山,2025-04-04,22.617719,120.7322,8.121479e-09
C0G900,線西,2025-04-04,24.143358,120.443536,1.1028895e-05
C0M700,竹崎,2025-04-04,23.526178,120.555508,4.7314823e-09
C2E880,三義,2025-04-04,24.405478,120.749819,5.310199e-09
C0C720,竹圍,2025-04-04,25.112692,121.239824,1.0803745e-05
C0F9P0,清水,2025-04-04,24.312297,120.562242,1.792045e-05
C0Z150,吉安光華,2025-04-04,23.930925,121.595153,1.826675e-05
467300,東吉島,2025-04-04,23.25727,119.66762,0.9301526
C1D640,外坪(五指山),2025-04-04,24.644447,121.090961,4.5464135e-09
C0F9O0,潭子,2025-04-04,24.213106,120.703933,1.06701926e-07
C2H9R0,卓社,2025-04-04,23.887894,121.000086,2.3123399e-09
72T250,花蓮農改場,2025-04-04,23.975222,121.563889,3.6811572e-05
C0E780,銅鑼,2025-04-04,24.489681,120.790853,7.097842e-08
C1T950,太安,2025-04-04,23.666719,121.370128,1.1374872e-09
C0E830,苑裡,2025-04-04,24.439714,120.653053,6.797634e-05
467270,田中,2025-04-04,23.873803,120.581286,5.6786664e-09
C0SA10,檳榔四格山,2025-04-04,22.810031,121.109308,3.1934513e-07
C1T830,布洛灣,2025-04-04,24.17184,121.57127,1.1680015e-08
C0F970,大坑,2025-04-04,24.173142,120.722289,2.758086e-07
C1U920,思源,2025-04-04,24.393125,121.347214,5.531315e-09
C0A931,三和,2025-04-04,25.233153,121.595236,4.3892743e-07
C0I010,廬山,2025-04-04,24.033311,121.181808,2.5297315e-09
C2M940,日野賀,2025-04-04,23.434056,120.727169,1.9913247e-09
C0R860,鼻頭,2025-04-04,22.1043,120.8979,0.8209344
C0UB20,壯圍,2025-04-04,24.7359,121.8163,7.6044955e-08
C0R790,九棚,2025-04-04,22.14195,120.889281,0.006402808
C0W110,東莒,2025-04-04,25.9652,119.98069,5.632968e-07
C1U930,粉鳥林,2025-04-04,24.497088,121.842479,1.8523638e-08
C1I211,蘆竹湳,2025-04-04,23.934019,120.811994,7.4026313e-10
C0S830,長濱,2025-04-04,23.286817,121.411975,2.093423e-06
C1F9F1,伯公龍,2025-04-04,24.272392,120.849047,1.5234804e-08
C0E810,西湖,2025-04-04,24.562947,120.7485,1.0998162e-06
C1I440,新高口,2025-04-04,23.478744,120.878939,1.4574325e-08
C0O840,王爺宮,2025-04-04,23.222064,120.40085,0.0071507436
C0T9G0,鳳林山,2025-04-04,23.735269,121.420131,3.1064755e-09
C0X080,佳里,2025-04-04,23.173039,120.145086,0.0035461835
C0FB70,大甲溪埔,2025-04-04,24.370625,120.620067,2.1000194e-05
C0Z310,清水斷崖,2025-04-04,24.218294,121.689142,2.112345e-08
C0M680,太保,2025-04-04,23.455062,120.331455,9.064178e-08
C1S820,金峰,2025-04-04,22.590969,120.933236,0.026384735
C0AD10,八里,2025-04-04,25.150211,121.403947,9.228592e-06
C2K240,草嶺,2025-04-04,23.59555,120.693461,1.9496196e-09
C1SA70,都蘭,2025-04-04,22.87794,121.226881,0.04438188
C0K440,二崙,2025-04-04,23.772797,120.408944,6.3668444e-09
C1A760,坪林交控,2025-04-04,24.94284,121.713442,2.6034174e-08
C0F9N0,大里,2025-04-04,24.092464,120.701378,2.2916257e-08
C0SA90,達仁林場,2025-04-04,22.264347,120.823972,6.307752e-08
C1R290,石門山,2025-04-04,22.112611,120.756597,0.03922111
42HA10,萬大發電廠,2025-04-04,23.978875,121.139639,1.1817374e-09
C0R890,山海,2025-04-04,21.9878,120.7091,0.9800539
C0T9A0,月眉山,2025-04-04,23.809928,121.539828,1.7773958e-08
C0AC70,信義,2025-04-04,25.037822,121.564597,9.252481e-06
C0K560,棋山,2025-04-04,23.68645,120.603417,1.5539076e-08
C2FB50,出雲,2025-04-04,24.206469,120.902794,1.2701549e-09
C1Z240,中平林道,2025-04-04,23.42115,121.26763,1.5401682e-09
U2H480,溪頭,2025-04-04,23.670306,120.798194,1.1290313e-09
C0M880,好美里,2025-04-04,23.3364,120.138,0.0032832434
C0T9E0,大坑,2025-04-04,23.880628,121.581981,2.321059e-08
C0K530,臺西,2025-04-04,23.701547,120.197559,4.057031e-08
C1E900,國一N128K,2025-04-04,24.560997,120.844186,3.539767e-07
C0AJ50,水湳洞,2025-04-04,25.123695,121.862238,9.930415e-06
C0AI20,白沙灣,2025-04-04,25.283128,121.519058,1.4250697e-05
C2V310,美濃,2025-04-04,22.898792,120.51907,0.90086377
C0A860,大坪,2025-04-04,25.165914,121.632969,1.5511626e-08
C1U850,觀音海岸,2025-04-04,24.38319,121.77856,7.1131945e-09
C2K610,草嶺石壁,2025-04-04,23.602469,120.707731,1.957982e-09
C0U950,鶯子嶺,2025-04-04,24.89754,121.79244,5.7303047e-09
C0O900,善化,2025-04-04,23.112883,120.297219,0.9789589
C0K550,蔦松,2025-04-04,23.514319,120.229736,1.8857578e-07
E2P980,林試六龜中心,2025-04-04,22.991703,120.645722,0.002206766
C0E590,通霄,2025-04-04,24.471892,120.704622,6.1335976e-07
C1I310,西巒,2025-04-04,23.754486,120.883956,1.0606875e-09
C0A550,泰平,2025-04-04,24.971197,121.823711,1.6671281e-08
C0I360,水里,2025-04-04,23.812553,120.849792,4.137102e-09
C0R830,高士,2025-04-04,22.121825,120.836781,0.014527673
C1I101,溪頭,2025-04-04,23.661789,120.807647,3.5608039e-09
C0AJ20,野柳,2025-04-04,25.20703,121.690021,1.4613785e-05
C0B060,暖暖,2025-04-04,25.0957,121.7403,2.966034e-06
C1H920,長豐,2025-04-04,24.102039,120.879897,7.4022216e-10
C0V360,內門,2025-04-04,22.975481,120.466769,0.6276277
C0R850,林邊,2025-04-04,22.4634,120.5339,0.999366
C0E930,龍鳳,2025-04-04,24.700034,120.859125,8.749947e-07
C0U910,冬山,2025-04-04,24.63373,121.7937,6.926561e-08
C1E721,泰安,2025-04-04,24.489017,120.968036,2.3442603e-09
82H320,茶改中部分場,2025-04-04,23.875611,120.913583,9.272273e-10
C0M750,布袋,2025-04-04,23.380878,120.167789,1.4237709e-07
C1S860,利嘉,2025-04-04,22.809417,121.050528,2.1565955e-07
E2S980,林試太麻里1,2025-04-04,22.598922,120.980044,0.10617884
C0X170,關廟,2025-04-04,22.963017,120.327797,0.8988264
C0V720,林園,2025-04-04,22.507747,120.394511,0.9963291
C1I510,線浸林道,2025-04-04,23.761508,120.832956,2.146898e-09
C0D690,外湖,2025-04-04,24.917735,120.968711,5.161927e-05
C0C750,新興坑尾,2025-04-04,25.0061,121.0971,2.0656984e-05
B2Q810,畜試南區分所,2025-04-04,21.945583,120.802167,0.96642077
C0S790,金崙,2025-04-04,22.538122,120.966875,0.013883604
C0AH90,福山植物園,2025-04-04,24.760717,121.58135,4.8976143e-09
C0I540,奇萊稜線,2025-04-04,24.109231,121.326456,2.9568408e-08
C0M850,表湖,2025-04-04,23.24186,120.64166,7.6448303e-10
C0S770,大溪山,2025-04-04,22.478475,120.943325,0.0001339871
C0AG80,中和,2025-04-04,24.991622,121.491792,8.714882e-06
C0T790,大禹嶺,2025-04-04,24.186117,121.316086,1.3372902e-08
C0T9B0,水源,2025-04-04,23.991861,121.537169,5.044164e-09
C0R840,牡丹池山,2025-04-04,22.168389,120.841225,7.838275e-08
C1I131,桶頭,2025-04-04,23.641944,120.654117,6.1733707e-09
CAL110,布袋國中,2025-04-04,23.35893,120.18026,0.0022034317
467571,新竹,2025-04-04,24.827853,121.014219,9.1417704e-08
C0Z290,赤柯山,2025-04-04,23.36893,121.38293,3.0920224e-09
C0X280,將軍,2025-04-04,23.214999,120.13577,0.0028080307
C0S690,太麻里,2025-04-04,22.60902,120.98533,1.6864507e-07
C0U880,北關,2025-04-04,24.9072,121.8734,1.3301936e-05
C0G810,埔心,2025-04-04,23.947633,120.525456,7.7774973e-07
C0U970,大福,2025-04-04,24.80064,121.81389,9.5143164e-08
C2H9N0,仁愛東眼,2025-04-04,24.026875,121.1205,2.26002e-09
C1E670,南礦,2025-04-04,24.538278,121.002836,1.8576911e-09
C0M520,東後寮,2025-04-04,23.369908,120.248065,0.001530525
C1E461,松安,2025-04-04,24.397972,120.986022,2.0655222e-09
C2N160,西拉雅風管處,2025-04-04,23.189481,120.335297,0.0029554206
C2M970,碧湖,2025-04-04,23.568632,120.624165,1.9767479e-09
C0A640,石碇,2025-04-04,24.993969,121.662917,2.4914584e-08
E2S960,林試太麻里2,2025-04-04,22.598,120.99775,0.3308229
C0F9Y0,桃山,2025-04-04,24.432739,121.303808,2.9350675e-08
C1I020,萬大,2025-04-04,23.979817,121.132261,1.5755078e-09
C0U940,羅東,2025-04-04,24.68184,121.74934,7.215905e-08
C0M650,朴子,2025-04-04,23.43463,120.23902,9.596055e-08
C1I500,大尖山,2025-04-04,23.858572,120.994889,4.576237e-09
C0G820,田尾,2025-04-04,23.901669,120.509389,7.628188e-07
E2K600,四湖植物園,2025-04-04,23.676986,120.163433,4.5308163e-08
C0S730,綠島,2025-04-04,22.6672,121.47533,0.065762945
12Q970,東港工作站,2025-04-04,22.479997,120.466058,0.99940026
C0E430,南庄,2025-04-04,24.601775,121.000214,1.2904152e-07
C1TA00,太魯閣,2025-04-04,24.15773,121.6236,2.0089736e-08
466920,臺北,2025-04-04,25.037658,121.514853,9.757346e-06
C0R600,舊泰武,2025-04-04,22.588194,120.664944,2.8969955e-09
C1I260,北坑,2025-04-04,23.9246,121.006903,7.271757e-10
466910,鞍部,2025-04-04,25.182586,121.529731,9.788715e-09
C1I230,九份二山,2025-04-04,23.961944,120.845,8.8426877e-10
C2A660,瑞芳,2025-04-04,25.113169,121.801147,2.2492825e-06
C0R270,琉球嶼,2025-04-04,22.332244,120.362236,0.9973095
C1T990,高寮,2025-04-04,23.394239,121.356808,2.326203e-07
C0G620,芬園,2025-04-04,24.015678,120.6213,1.08036325e-07
C1Z140,荖溪,2025-04-04,23.890575,121.45964,3.6856271e-09
C1I201,中心崙,2025-04-04,23.728722,120.712097,7.3536727e-10
C1I400,凌霄,2025-04-04,24.018778,121.004456,2.2047841e-09
C1M640,十字,2025-04-04,23.492153,120.753683,1.9196242e-09
G2P820,農試鳳山分所,2025-04-04,22.646611,120.356083,0.9987669
C0Z270,蕃薯寮,2025-04-04,23.73835,121.540108,3.2985444e-08
C0F9Q0,外埔,2025-04-04,24.347817,120.705686,5.3728684e-08
C0K580,高鐵雲林,2025-04-04,23.737456,120.417944,7.0332202e-09
C2I090,鳳凰,2025-04-04,23.728081,120.787347,8.8667207e-10
C0U990,員山,2025-04-04,24.74435,121.72247,7.293475e-08
C0V770,大社,2025-04-04,22.730306,120.346639,0.99813664
C0X120,麻豆,2025-04-04,23.183289,120.248611,0.0013169616
C0C670,龍潭,2025-04-04,24.870056,121.221389,6.1755166e-08
C0D680,香山濕地,2025-04-04,24.783581,120.914988,1.1706995e-07
C0S980,勝林山,2025-04-04,22.430439,120.8938,6.9434627e-09
C0V730,大寮,2025-04-04,22.605614,120.395717,0.99906987
C0R570,麟洛,2025-04-04,22.65078,120.52719,0.99741805
C2M930,石卓,2025-04-04,23.478744,120.702264,1.9020425e-09
C0G9B0,和美,2025-04-04,24.105169,120.492131,2.0235419e-05
CAG100,王功漁港,2025-04-04,23.96824,120.32586,5.4413782e-08
C0X290,北門,2025-04-04,23.267772,120.125481,0.002976623
C2F930,大甲,2025-04-04,24.347667,120.640403,3.5086757e-06
C0D650,湖口,2025-04-04,24.904794,121.043628,1.2428127e-05
C0E420,竹南,2025-04-04,24.708978,120.888897,5.4890415e-07
C0U780,五結,2025-04-04,24.68637,121.79794,7.5720465e-08
C1I250,鯉潭,2025-04-04,23.961922,120.991131,6.9354383e-10
C0R130,阿禮,2025-04-04,22.742908,120.743678,6.2682792e-09
C0X100,臺南市北區,2025-04-04,23.010394,120.194228,0.4581003
C0S920,金峰嘉蘭,2025-04-04,22.594789,120.960825,0.1014261
C0V490,新興,2025-04-04,22.627422,120.298803,0.9980457
C0F9K0,大安,2025-04-04,24.345061,120.588025,2.8552146e-05
467290,古坑,2025-04-04,23.633639,120.551889,2.1314353e-08
C2E970,八甲,2025-04-04,24.535811,120.795983,8.6191925e-08
C0V440,鳳山,2025-04-04,22.646653,120.356122,0.9987669
C1T940,大觀,2025-04-04,23.714206,121.373133,1.6371047e-08
C0E740,造橋,2025-04-04,24.637056,120.864778,5.392873e-07
C0R100,尾寮山,2025-04-04,22.833111,120.683889,5.8751306e-09
A2K630,臺大雲林校區,2025-04-04,23.730628,120.423903,6.7785826e-09
467990,馬祖,2025-04-04,26.169467,119.923158,1.16090755e-08
C0D580,寶山,2025-04-04,24.735006,121.025192,1.883416e-07
E2P990,林試扇平站,2025-04-04,22.9677,120.6857,1.8429438e-08
C0AI30,三重,2025-04-04,25.057328,121.500629,1.2459752e-05
C0AH00,汐止,2025-04-04,25.066881,121.658778,9.757346e-06
C1Z040,立山,2025-04-04,23.443356,121.327375,1.6601156e-08
466881,新北,2025-04-04,24.959207,121.525196,5.5230967e-06
C0W130,花嶼,2025-04-04,23.40007,119.32276,0.5518835
C0A950,鼻頭角,2025-04-04,25.129036,121.923372,1.4386085e-07
C0K470,林內,2025-04-04,23.748675,120.609642,1.20696635e-08
C2F990,摩天嶺,2025-04-04,24.322458,120.936819,1.2632354e-09
82C160,茶改場,2025-04-04,24.908472,121.185333,1.484173e-06
C0Z320,清水林道,2025-04-04,23.27125,121.188272,2.6158251e-09
C0R760,南仁湖,2025-04-04,22.084681,120.863353,0.03958295
C0M670,大林,2025-04-04,23.600616,120.45841,7.734318e-08
C0M800,茶山,2025-04-04,23.299075,120.664767,8.941054e-10
C0A9C0,天母,2025-04-04,25.117494,121.537169,9.656131e-06
72K220,南改斗南分場,2025-04-04,23.634556,120.477333,8.935484e-09
72AI40,桃改樹林分場,2025-04-04,24.944503,121.386972,5.701967e-06
C0S910,蘭嶼燈塔,2025-04-04,22.081197,121.503117,0.14093074
C0B050,八斗子,2025-04-04,25.144754,121.79167,1.425173e-05
C0U900,內城,2025-04-04,24.71813,121.68766,6.164066e-08
C0X320,柳營,2025-04-04,23.253328,120.375253,1.443644e-07
C0M790,新港,2025-04-04,23.553269,120.345728,9.50396e-08
C0F9T0,西屯,2025-04-04,24.179494,120.641275,1.2943325e-06
C0SA30,都歷,2025-04-04,23.020333,121.323642,0.007649515
C0C620,蘆竹,2025-04-04,25.084275,121.265767,7.3731053e-06
C0R730,大坪頂,2025-04-04,22.024633,120.69355,0.6947348
C0AJ40,石門,2025-04-04,25.273672,121.601198,1.3633717e-06
C0E750,苗栗,2025-04-04,24.564569,120.824575,4.2700992e-07
C0T870,鯉魚潭,2025-04-04,23.935639,121.508944,4.182204e-07
C1V170,排雲,2025-04-04,23.463619,120.954147,4.269431e-08
C2H950,中寮,2025-04-04,23.884447,120.766406,1.5170711e-07
C0R350,貓鼻頭,2025-04-04,21.921774,120.7358,0.07569066
C0V660,岡山,2025-04-04,22.797078,120.294958,0.9981759
C1H941,雙冬,2025-04-04,23.967378,120.802189,7.2584544e-10
C0AJ70,田寮,2025-04-04,25.2698,121.4886,1.5378713e-05
C0AI00,五股,2025-04-04,25.07445,121.42728,2.1808862e-06
C0Z280,德武,2025-04-04,23.47426,121.41071,8.112038e-08
C0R700,枋山,2025-04-04,22.246844,120.661086,0.9948819
C0C460,復興,2025-04-04,24.820208,121.352281,1.1672064e-08
E2H360,蓮華池,2025-04-04,23.918333,120.885278,7.3909356e-10
C0M640,中埔,2025-04-04,23.42538,120.5229,3.425953e-09
C0W140,金沙,2025-04-04,24.488292,118.408778,1.4762388e-08
C2A540,四堵,2025-04-04,24.8926,121.745736,1.448495e-08
C0ACA0,新莊,2025-04-04,25.051478,121.446756,1.0904191e-05
C0R220,潮州,2025-04-04,22.534361,120.54,0.9995287
U2HA40,臺大內茅埔,2025-04-04,23.689722,120.851117,6.886587e-10
467490,臺中,2025-04-04,24.145736,120.684075,8.102101e-06
C0U960,翠峰湖,2025-04-04,24.510856,121.608044,5.953462e-09
E2HA20,林試畢祿溪站,2025-04-04,24.226944,121.308522,6.413721e-09
C0V890,前鎮,2025-04-04,22.5718,120.3117,0.9982369
C1F941,雪嶺,2025-04-04,24.280586,121.026642,1.09046985e-08
C2H9E0,國姓南港,2025-04-04,23.911108,120.846556,1.1406026e-09
C0AC80,文山,2025-04-04,25.00235,121.575728,3.855279e-06
C0F9R0,龍井,2025-04-04,24.184536,120.528972,1.8574072e-05
C0M760,民雄,2025-04-04,23.551754,120.428457,8.4211514e-08
C0UA40,西德山,2025-04-04,24.560647,121.752608,3.6096146e-09
C1T920,中興,2025-04-04,23.769503,121.498653,9.797598e-07
C0D550,雪霸,2025-04-04,24.526972,121.11605,6.855609e-09
C2F860,梨山,2025-04-04,24.247522,121.243669,6.6997243e-09
C0R320,車城,2025-04-04,22.0744,120.716247,0.9549282
C1S870,南美山,2025-04-04,23.15025,121.382333,4.352324e-06
C0B020,基隆嶼,2025-04-04,25.19141,121.78391,1.6015954e-05
C1U501,牛鬥,2025-04-04,24.637836,121.573656,2.3254726e-08
C0M730,嘉義市東區,2025-04-04,23.457673,120.460531,2.0223744e-07
C0S700,知本,2025-04-04,22.684866,121.005642,1.6955477e-07
C1N001,沙崙,2025-04-04,22.935472,120.309406,0.9459338
C0V760,橋頭,2025-04-04,22.757806,120.30575,0.9983825
C0G960,福寶,2025-04-04,24.0443,120.3814,3.192221e-05
C0X210,白河,2025-04-04,23.347466,120.414427,1.2291723e-07
C0S810,東河,2025-04-04,22.972672,121.303986,0.012550284
C2R170,屏東,2025-04-04,22.66027,120.49403,0.99750847
C0R670,楓港,2025-04-04,22.190131,120.692156,0.9085242
C0FA50,霧峰,2025-04-04,24.0419,120.6995,2.6342246e-07
C0UB10,蘇澳,2025-04-04,24.5969,121.8571,1.1364641e-08
C0G950,防潮門,2025-04-04,24.1835,120.4871,1.9704661e-05
C0M740,六腳,2025-04-04,23.492871,120.290625,9.115235e-08
C1R250,力里,2025-04-04,22.428117,120.629228,0.99933976
C0K330,虎尾,2025-04-04,23.719183,120.442036,5.8470935e-09
C2FA00,烏石坑,2025-04-04,24.273503,120.947617,1.2677249e-09
C0V620,永安,2025-04-04,22.82315,120.236856,0.9981815
C1I330,楓樹林,2025-04-04,23.986803,121.076117,2.443408e-09
C0W200,湖西,2025-04-04,23.596314,119.67275,0.9365964
72Q010,高雄農改場,2025-04-04,22.709333,120.525889,0.9957028
C0SA40,瑞和,2025-04-04,22.974361,121.156697,1.7896984e-05
C0C680,龜山,2025-04-04,25.02846,121.38656,2.5103047e-08
C2V260,月眉,2025-04-04,22.971003,120.539853,0.79938483
C0V450,鳳森,2025-04-04,22.545064,120.392592,0.98701894
C0U720,南山,2025-04-04,24.43742,121.38167,3.7010193e-09
A2N290,臺南蘭花園區,2025-04-04,23.340258,120.379661,7.287746e-08
C0R560,新園,2025-04-04,22.5434,120.461558,0.9963291
C0U890,三星,2025-04-04,24.66812,121.65302,4.2152827e-08
C1V300,御油山,2025-04-04,23.001983,120.715364,4.4628514e-09
C0U600,礁溪,2025-04-04,24.817539,121.765608,7.756922e-08
C1T980,龍澗,2025-04-04,24.023289,121.411328,5.8351723e-09
C0D670,海天一線,2025-04-04,24.831986,120.914438,2.3334842e-07
C0SA00,歷坵,2025-04-04,22.520969,120.89185,1.1918494e-06
C0M710,東石,2025-04-04,23.458927,120.15385,2.722311e-07
C0M780,鹿草,2025-04-04,23.41134,120.30835,8.235039e-08
C0U520,雙連埤,2025-04-04,24.753033,121.641303,5.4317217e-09
C0B010,七堵,2025-04-04,25.094819,121.71713,6.6921043e-06
C0R480,長治,2025-04-04,22.693128,120.542622,0.9981524
C1V830,國三S383K,2025-04-04,22.781967,120.426475,0.5275569
12Q980,恆春工作站,2025-04-04,22.079678,120.714425,0.95500153
C1O940,東山服務區,2025-04-04,23.286016,120.398472,1.03020966e-07
C1U840,東澳嶺,2025-04-04,24.5378,121.8485,5.7291683e-09
C1D630,飛鳳山,2025-04-04,24.766464,121.119178,5.895741e-09
C0S940,石寧山,2025-04-04,23.223772,121.406639,0.0014929326
C0K410,北港,2025-04-04,23.573957,120.292802,1.0690401e-07
C2M620,瑞里,2025-04-04,23.545133,120.675197,2.1309465e-09
C0SB70,小港漁港,2025-04-04,23.158558,121.400431,0.07819515
C2O950,安南,2025-04-04,23.076694,120.144861,0.45981604
C0F0E0,南湖圈谷,2025-04-04,24.363714,121.444667,3.1082674e-08
467610,成功,2025-04-04,23.097486,121.373428,0.015307563
C0G890,伸港,2025-04-04,24.148933,120.484403,1.0642927e-05
C2E540,龍溪,2025-04-04,24.606489,120.783933,1.2596166e-05
C1V200,梅山,2025-04-04,23.268447,120.823556,2.2920181e-09
C0T9H0,加路蘭山,2025-04-04,23.682947,121.5274,2.9083784e-09
C2O930,玉井,2025-04-04,23.126042,120.46055,1.3215016e-07
C1F911,新伯公,2025-04-04,24.221361,120.841069,1.7833623e-08
C0R490,九如,2025-04-04,22.7405,120.490503,0.996538
C0X200,左鎮,2025-04-04,23.056758,120.408522,0.8857453
C0SB50,叭嗡嗡,2025-04-04,23.047062,121.343223,0.05128946
C1F891,稍來,2025-04-04,24.265689,121.001142,6.3463785e-09
72N240,七股研究中心,2025-04-04,23.081672,120.062894,0.009423895
C0C700,中壢,2025-04-04,24.977661,121.256375,4.8084203e-06
C0M690,水上,2025-04-04,23.419734,120.388909,6.5879995e-08
C0V690,鼓山,2025-04-04,22.623325,120.275575,0.9980615
C0O860,大內,2025-04-04,23.11885,120.36083,0.94083536
C0Z200,萬榮,2025-04-04,23.709219,121.420106,1.968044e-07
C0T9D0,和中,2025-04-04,24.26676,121.74103,3.561879e-08
C1O921,楠西,2025-04-04,23.183511,120.484083,9.0287536e-08
C0AJ30,淡水觀海,2025-04-04,25.184591,121.408616,1.4733122e-05
C0V810,左營,2025-04-04,22.67491,120.28491,0.9988865
C0UA70,桃源谷,2025-04-04,24.962606,121.888875,5.951169e-09
C0X130,官田,2025-04-04,23.193217,120.315422,0.00417635
C1H000,翠峰,2025-04-04,24.109397,121.205211,1.0003718e-08
C0UA90,石城,2025-04-04,24.980444,121.951214,7.0841416e-08
C1E681,南勢山,2025-04-04,24.421669,120.923831,4.9979754e-09
C0A9F0,內湖,2025-04-04,25.079422,121.57545,9.757337e-06
C0K291,宜梧,2025-04-04,23.536281,120.169329,2.0272405e-07
C1K540,口湖,2025-04-04,23.585344,120.180517,2.957155e-07
C0R780,滿州,2025-04-04,22.024403,120.839892,0.90539056
C0V870,文安,2025-04-04,22.8025,120.2164,0.9982996
C0U650,玉蘭,2025-04-04,24.675286,121.587061,5.240821e-09
C0R640,東港,2025-04-04,22.46247,120.44074,0.9994006
C0AJ80,板橋,2025-04-04,25.0107,121.4489,8.882732e-06
C0S660,下馬,2025-04-04,23.150427,121.070312,3.043574e-09
C1H9B1,阿眉,2025-04-04,24.1263,120.994672,4.785585e-09
C0UA20,多加屯,2025-04-04,24.368614,121.373189,1.2870091e-08
C0E730,頭份,2025-04-04,24.688247,120.912206,5.576141e-07
72V140,高改旗南分場,2025-04-04,22.857861,120.516667,0.9626958
C0K480,莿桐,2025-04-04,23.761192,120.502372,6.929412e-09
C0U980,坪林石牌,2025-04-04,24.86478,121.77396,5.5664526e-09
C0T900,西林,2025-04-04,23.8119,121.441458,1.1835012e-07
C1I150,青雲,2025-04-04,23.793361,120.949378,8.0410456e-10
467350,澎湖,2025-04-04,23.565503,119.563094,0.86142313
C0G800,埔鹽,2025-04-04,24.000394,120.431683,8.191907e-06
C0H960,草屯,2025-04-04,23.973672,120.68085,2.1651188e-07
C1V780,多納林道,2025-04-04,22.888028,120.737917,1.5294073e-09
C0E920,通霄漁港,2025-04-04,24.498589,120.673876,0.0001520339
C0Z330,安通山,2025-04-04,23.290728,121.348528,4.0207322e-08
C0AH10,永和,2025-04-04,25.01125,121.508111,9.474354e-06
C0AK10,太平里,2025-04-04,25.134937,121.364899,8.537824e-06
C2G640,鹿港,2025-04-04,24.0753,120.430481,3.167594e-05
C1E890,國三N149K,2025-04-04,24.463414,120.680019,4.937974e-07
C1R110,口社,2025-04-04,22.770111,120.645222,0.99850494
C1M870,國三N285K,2025-04-04,23.550319,120.505833,1.0408472e-08
C1E480,鳳美,2025-04-04,24.554803,121.034747,8.780039e-09
C0M530,奮起湖,2025-04-04,23.493903,120.699253,2.3125692e-09
C0C590,觀音,2025-04-04,25.027072,121.153317,1.7461698e-05
C0T9M0,靜浦,2025-04-04,23.455167,121.495028,4.9136594e-07
C2H9M0,發祥,2025-04-04,24.154094,121.164517,1.8595416e-09
C0AI40,石牌,2025-04-04,25.115597,121.513139,1.03655975e-05
C1F871,上谷關,2025-04-04,24.203483,121.018644,1.2220506e-09
C2H9G0,百勝,2025-04-04,24.051142,120.909361,3.2096739e-09
C0G880,二水,2025-04-04,23.810742,120.6173,8.055019e-09
C0R940,加祿堂,2025-04-04,22.3363,120.6217,0.99235654
C0W220,北竿,2025-04-04,26.220358,119.974881,1.176518e-08
C0O960,崎頂,2025-04-04,22.959547,120.369317,0.50484425
C0S750,向陽,2025-04-04,23.248397,120.986133,1.0788411e-08
C0T9F0,水璉,2025-04-04,23.797131,121.542514,5.2499878e-08
C1M600,頭凍,2025-04-04,23.406364,120.603339,1.884597e-09
467660,臺東,2025-04-04,22.752211,121.154586,0.52459323
C1D380,新埔,2025-04-04,24.84745,121.03834,2.1065898e-07
C2G980,田頭村,2025-04-04,23.8263,120.444175,6.3959344e-09
C0V750,路竹,2025-04-04,22.854997,120.259439,0.99512494
C0N050,蚵寮,2025-04-04,23.301,120.1104,0.0032948658
72M700,南改鹿草分場,2025-04-04,23.416869,120.283061,8.7609386e-08
C1SA50,利嘉林道,2025-04-04,22.82325,121.009389,1.6380439e-09
C0A940,金山,2025-04-04,25.223628,121.643967,8.449115e-06
C1V340,大津,2025-04-04,22.888322,120.645986,0.9852739
C0W180,七美,2025-04-04,23.219333,119.444892,0.9870149
C1F9C1,白冷,2025-04-04,24.182844,120.929889,7.573372e-09
K2E710,苗改生物防治研究中心,2025-04-04,24.422861,120.871833,6.721833e-08
C0N040,蘆竹溝,2025-04-04,23.2344,120.0961,0.0029815643
C2W230,畜試所澎湖,2025-04-04,23.628342,119.513206,0.059907973
C0R880,後壁湖,2025-04-04,21.9457,120.7457,0.97942835
C1I280,埔中,2025-04-04,23.820778,120.642594,9.0156493e-10
467790,墾丁雷達站,2025-04-04,21.948235,120.808028,0.9443297
C0W190,望安,2025-04-04,23.380564,119.494075,0.85300535
C0Z170,卓溪,2025-04-04,23.3443,121.3029,0.00011398949
C0F850,東勢,2025-04-04,24.246428,120.833047,8.449223e-09
466900,淡水,2025-04-04,25.164889,121.448906,8.481255e-06
C0I370,魚池,2025-04-04,23.895703,120.94135,7.367515e-10
C0C630,大溪,2025-04-04,24.882853,121.265547,1.7611542e-06
C0A520,山佳,2025-04-04,24.974944,121.402008,6.93116e-06
C0I110,竹山,2025-04-04,23.761225,120.688156,3.3808638e-09
82H840,茶改南部分場,2025-04-04,23.762528,120.7405,9.862925e-10
C0G660,溪湖,2025-04-04,23.94835,120.479122,1.1681127e-06
C1T800,洛韶,2025-04-04,24.204558,121.453956,5.2325606e-09
C1T810,慈恩,2025-04-04,24.192044,121.388386,4.864796e-09
C1E451,象鼻,2025-04-04,24.368617,120.940228,5.3228235e-09
C0AC60,三峽,2025-04-04,24.939025,121.369728,2.3012983e-05
C0I490,萬大林道,2025-04-04,23.928228,121.091411,2.6747538e-09
C1I290,豐丘,2025-04-04,23.668178,120.887417,1.7732368e-09
C1I320,奧萬大,2025-04-04,23.952956,121.178556,2.6910059e-09
C2M910,嘉義大學,2025-04-04,23.471325,120.485903,9.246493e-09
C0U770,南澳,2025-04-04,24.44935,121.81022,1.741031e-08
C0A980,社子,2025-04-04,25.109508,121.469681,1.1518849e-05
C0V800,六龜,2025-04-04,22.997889,120.633583,0.004112737
C1G9D0,國一S218K,2025-04-04,23.890641,120.493253,6.316107e-07
C0E570,白沙屯,2025-04-04,24.549447,120.696803,0.0001922838
C2F9A0,中竹林,2025-04-04,24.103556,120.751061,1.0183134e-09
C0FA40,臺中電廠,2025-04-04,24.2146,120.4907,1.8561675e-05
C2G9A0,畜試所彰化,2025-04-04,23.86045,120.557964,5.6770855e-09
C0H9C0,合歡山,2025-04-04,24.143442,121.272547,3.002425e-08
C0X060,下營,2025-04-04,23.22695,120.256261,0.0021826262
G2M350,農試溪口農場,2025-04-04,23.58565,120.408111,1.4859106e-07
C0U860,頭城,2025-04-04,24.85323,121.8308,8.472206e-08
C0R580,南州,2025-04-04,22.48591,120.50274,0.9994006
C0D430,峨眉,2025-04-04,24.6905,121.017189,2.4977948e-07
C0G780,秀水,2025-04-04,24.03405,120.503869,2.377311e-06
72N100,臺南農改場,2025-04-04,23.0605,120.342194,0.90329754
C0S900,蘭嶼高中,2025-04-04,22.04909,121.51214,0.0946061
C1F9W0,德基,2025-04-04,24.254783,121.190261,3.7035683e-09
C1Z120,壽豐,2025-04-04,23.870853,121.508081,2.7761914e-06
C0W160,烏坵,2025-04-04,24.9944,119.44956,1.6409332e-06
C1I240,外大坪,2025-04-04,23.958697,120.917931,7.0097533e-10
C1I550,國六W023K,2025-04-04,23.979067,120.867742,9.703238e-10
C0R870,興海,2025-04-04,21.9752,120.8439,0.96650505
C0R140,瑪家,2025-04-04,22.682903,120.686639,7.2825737e-09
C0A530,坪林,2025-04-04,24.938183,121.70975,2.0533463e-08
C0X260,後壁,2025-04-04,23.366358,120.362326,0.0010715348
C0Z230,和平,2025-04-04,24.30717,121.77007,3.6312233e-08
C0G770,福興,2025-04-04,24.041289,120.437669,1.1619615e-05
C0H9A0,神木村,2025-04-04,23.532742,120.843667,2.8862186e-09
C0I460,南投,2025-04-04,23.911469,120.687331,2.6321052e-07
C0I480,梅峰,2025-04-04,24.085272,121.173572,7.713146e-09
C1V570,吉東,2025-04-04,22.85422,120.5454,0.91109073
C2D740,屯原,2025-04-04,24.067969,121.209389,4.4937547e-09
C2A560,福山,2025-04-04,24.776203,121.502811,1.3840551e-08
C0AH30,五分山,2025-04-04,25.07125,121.780794,6.128075e-09
C0FA10,松柏,2025-04-04,24.429115,120.617482,0.00012356494
72S200,東改班鳩分場,2025-04-04,22.829528,121.077694,1.0167167e-05
72HA00,中改埔里分場,2025-04-04,23.903208,120.963364,7.291966e-10
C2H9W0,大坪頂農水,2025-04-04,24.043122,120.932781,7.427962e-10
C0C650,平鎮,2025-04-04,24.897503,121.214636,1.4097357e-06
C0S930,延平,2025-04-04,22.902581,121.084058,9.2902355e-06
C0UA60,樟樹山,2025-04-04,24.41393,121.78325,4.80646e-09
C1S670,摩天,2025-04-04,23.199503,121.027,3.6140029e-09
C0V630,茄萣,2025-04-04,22.906642,120.182608,0.9964093
466940,基隆,2025-04-04,25.133314,121.740475,1.3545894e-05
C0X050,東河,2025-04-04,23.296598,120.385608,1.4638114e-07
C0R770,保力,2025-04-04,22.071122,120.764111,0.9291848
G2L020,農試嘉義分所,2025-04-04,23.485028,120.473806,1.2829235e-08
C0X240,關子嶺,2025-04-04,23.331169,120.508025,1.0145852e-09
C0I380,集集,2025-04-04,23.828206,120.801467,4.9807407e-09
466990,花蓮,2025-04-04,23.975128,121.613275,9.062291e-05
C1V220,小關山,2025-04-04,23.154217,120.813603,4.1645185e-09
C1F9G1,慶福山,2025-04-04,24.180853,120.848378,3.1302607e-09
C0Z250,瑞穗林道,2025-04-04,23.49284,121.30688,1.5989028e-09
C0D590,新豐,2025-04-04,24.87068,120.97721,2.4740822e-07
C0A870,五指山,2025-04-04,25.132153,121.608692,1.06061515e-08
C0UA50,西帽山,2025-04-04,24.555361,121.802628,4.9408873e-09
C0X160,仁德,2025-04-04,22.968258,120.257689,0.9895459
C1H971,六分寮,2025-04-04,23.92507,120.6378,8.6124136e-10
C0W120,西嶼,2025-04-04,23.5626,119.468436,0.78749156
C0G650,員林,2025-04-04,23.946503,120.585597,7.2934955e-07
C0AD50,鶯歌,2025-04-04,24.951533,121.346294,1.3289917e-05
C2H9Q0,北東眼山,2025-04-04,24.120939,121.189303,4.671242e-09
C2H9T0,名間竹圍,2025-04-04,23.859914,120.637572,1.696125e-09
C0S990,山豬窟,2025-04-04,22.318619,120.857372,8.846575e-06
C0X190,安平,2025-04-04,22.993161,120.152181,0.44503805
C0K400,斗六,2025-04-04,23.720583,120.541127,6.396581e-09
12J990,口湖工作站,2025-04-04,23.589978,120.180394,2.8249033e-07
C0O830,北寮,2025-04-04,23.079561,120.495008,0.80223644
C1D410,白蘭,2025-04-04,24.579364,121.079947,1.9917121e-09
C0S970,加津林,2025-04-04,22.416211,120.926942,0.64945686
C0D700,關西,2025-04-04,24.7977,121.1732,3.2227995e-06
C0M810,里佳,2025-04-04,23.389125,120.716647,2.1048754e-09
C0U750,龜山島,2025-04-04,24.841667,121.953133,2.412392e-08
C0R810,內獅,2025-04-04,22.305064,120.642986,0.992492
C1M390,龍美,2025-04-04,23.406728,120.654417,1.8193017e-09
C2FB60,頭櫃山,2025-04-04,24.129842,120.858925,1.0871963e-09
C1H840,國三N238K,2025-04-04,23.841008,120.707711,2.4148723e-09
CAQ030,崎峰國小,2025-04-04,22.42565,120.49521,0.9994006
C2E520,大湖,2025-04-04,24.414939,120.870872,1.3324399e-08
467530,阿里山,2025-04-04,23.508208,120.813242,1.339736e-08
C1E691,南湖,2025-04-04,24.40135,120.837533,5.3109486e-09
C0FA30,梧棲,2025-04-04,24.256003,120.523381,1.8017734e-05
C1V231,高中,2025-04-04,23.134911,120.716711,7.8283763e-10
C0F9V0,新社,2025-04-04,24.200172,120.815806,1.0171744e-08
C0H890,埔里,2025-04-04,23.972169,120.952425,3.3621634e-09
C0R690,墾丁,2025-04-04,21.966756,120.810269,0.13163345
C0F0D0,審馬陣,2025-04-04,24.381675,121.4203,2.857234e-08
C2W030,金門農試所,2025-04-04,24.448431,118.451786,1.29569875e-08
C0R820,白鷺,2025-04-04,22.454275,120.666219,1.9014596e-08
C1V190,南天池,2025-04-04,23.27403,120.91176,1.2471717e-08
K2E360,苗栗農改場,2025-04-04,24.495722,120.829111,1.2112633e-07
CAJ050,海口故事園區,2025-04-04,23.57543,120.14121,2.9422233e-07
C2H9D0,三隻寮,2025-04-04,24.093078,120.861578,7.4747775e-10
C0O990,媽廟,2025-04-04,22.99175,120.293525,0.9806128
C0D480,打鐵坑,2025-04-04,24.849664,121.150789,5.8115614e-08
C0Z220,和平林道,2025-04-04,24.343922,121.656317,7.607684e-09
C0TA10,花蓮漁港,2025-04-04,23.995322,121.638331,0.00015572437
72C440,桃園農改場,2025-04-04,24.950944,121.030583,2.5962134e-05
C1E711,馬拉邦山,2025-04-04,24.367306,120.901656,1.7983119e-09
C0SB20,富岡,2025-04-04,22.792467,121.192669,0.36327848
C0D560,竹東,2025-04-04,24.767147,121.057881,1.5278269e-07
C0F9U0,南屯,2025-04-04,24.137006,120.637969,5.1212546e-06
C0M720,番路,2025-04-04,23.464657,120.554156,1.0882403e-08
C0F0A0,雪山圈谷,2025-04-04,24.388594,121.236339,4.1539536e-08
C1A9N0,四十份,2025-04-04,24.934158,121.593283,1.2684486e-08
C0U760,東澳,2025-04-04,24.52196,121.83318,1.7355504e-08
C0X230,鹽水,2025-04-04,23.272621,120.247641,0.0023168449
C2H9H0,苗改南投蜂場,2025-04-04,23.852589,120.693481,2.3908797e-09
C0R950,萬隆國小,2025-04-04,22.507667,120.587817,0.9993925
467540,大武,2025-04-04,22.35572,120.90374,0.78235877
C0V370,古亭坑,2025-04-04,22.893178,120.401947,0.52529585
C1I340,新興橋,2025-04-04,23.563333,120.868728,6.966674e-10
C0SA80,土坂,2025-04-04,22.453108,120.887572,0.05648349
C0R160,鹽埔,2025-04-04,22.739558,120.530778,0.99328357
C0AC40,大屯山,2025-04-04,25.175675,121.522408,1.0345039e-08
466850,五分山雷達站,2025-04-04,25.071182,121.781205,6.1664625e-09
C2H9L0,馬烈霸,2025-04-04,24.1512,121.201772,4.411682e-09
C1AI50,國三N016K,2025-04-04,25.034164,121.619664,5.422204e-06
C1V600,藤枝,2025-04-04,23.071961,120.757042,3.3616505e-09
C1E601,南勢,2025-04-04,24.572486,120.734842,2.7452745e-07
C0Z180,新城,2025-04-04,24.03946,121.60454,4.9052695e-05
C0O980,新市,2025-04-04,23.061614,120.298197,0.97398645
C0K420,西螺,2025-04-04,23.800407,120.467394,5.28514e-09
C0Z050,佳心,2025-04-04,23.34567,121.21316,2.8851013e-09
C0AD30,蘆洲,2025-04-04,25.086594,121.472331,1.0563064e-05
C0V610,梓官,2025-04-04,22.760558,120.267211,0.9983871
K2F750,種苗改良場,2025-04-04,24.225972,120.800917,1.3293456e-08
C0UA80,大溪漁港,2025-04-04,24.941801,121.902955,7.6954265e-08
C1AI60,國一39K邊坡,2025-04-04,25.064361,121.383836,2.8584331e-08
C0W150,金寧,2025-04-04,24.457703,118.328989,1.2884484e-08
C0R960,內埔,2025-04-04,22.608483,120.570714,0.99975955
V2C250,八德合作社,2025-04-04,24.93775,121.266389,3.2433713e-06
C2H9S0,龍南,2025-04-04,23.953536,120.833183,1.1247283e-09
C0AH40,平等,2025-04-04,25.129142,121.577086,1.3938492e-08
C0R540,佳冬,2025-04-04,22.419456,120.552375,0.999234
466950,彭佳嶼,2025-04-04,25.627975,122.079744,0.0005311977
C0A890,雙溪,2025-04-04,25.036003,121.864242,5.609323e-06
C0C480,桃園,2025-04-04,24.992425,121.323172,6.975435e-06
C0AH50,林口,2025-04-04,25.072181,121.38084,2.4339062e-08
A2K360,水試臺西試驗場,2025-04-04,23.717231,120.190522,4.5586244e-08
C2M960,外寮,2025-04-04,23.562643,120.665688,1.942956e-09
C0F9S0,烏日,2025-04-04,24.107058,120.624103,1.4571023e-05
C0C490,八德,2025-04-04,24.928708,121.283289,3.1774312e-06
C0R190,赤山,2025-04-04,22.592333,120.614306,0.99974656
C0T820,天祥,2025-04-04,24.179597,121.495639,9.412566e-09
C1F9E1,龍安,2025-04-04,24.1605,120.831961,4.814332e-09
C0V820,小林,2025-04-04,23.148408,120.63325,8.672779e-10
C2G870,芳苑,2025-04-04,23.922303,120.320025,5.3766406e-08
C0E850,大河,2025-04-04,24.618069,120.948578,1.6263168e-07
C1U670,寒溪,2025-04-04,24.634,121.71691,4.2835097e-08
C0N020,城西,2025-04-04,23.0568,120.0956,0.00394282
C1Z110,三棧,2025-04-04,24.11557,121.60501,4.8230913e-09
C0R280,檳榔,2025-04-04,22.076078,120.836777,0.23153149
C2H9J0,中台,2025-04-04,23.9996,120.938739,7.2453693e-10
C0F9L0,后里,2025-04-04,24.310436,120.729725,4.1451824e-09
467441,高雄,2025-04-04,22.730432,120.312516,0.9981857
C0D540,橫山,2025-04-04,24.71116,121.11693,8.2345366e-08
C1D420,太閣南,2025-04-04,24.632808,121.160575,3.1821155e-09
C1E770,公館,2025-04-04,24.526914,120.830806,1.9169418e-07
CAN130,水試所海水繁養殖中心,2025-04-04,23.120802,120.07968,0.009157821
C1I430,翠華,2025-04-04,24.191961,121.224339,8.039884e-09
C1M400,菜瓜坪,2025-04-04,23.251928,120.576103,9.11994e-10
C0G730,二林,2025-04-04,23.903325,120.376081,2.4788558e-06
72M360,南改義竹分場,2025-04-04,23.360694,120.279361,0.0014805533
V2K620,麥寮合作社,2025-04-04,23.753836,120.294783,3.276085e-08
C0Z070,舞鶴,2025-04-04,23.46811,121.37407,4.9753787e-08
C0B040,大武崙,2025-04-04,25.166676,121.706993,6.3679136e-06
C1Z030,紅葉,2025-04-04,23.493119,121.338806,9.5156416e-08
C1I050,丹大,2025-04-04,23.753747,121.141147,1.2409075e-08
C0I080,信義,2025-04-04,23.689694,120.851036,6.886587e-10
C2M920,朴子農改,2025-04-04,23.469889,120.259383,1.17135066e-07
C2A880,福隆,2025-04-04,25.017842,121.942083,7.484457e-08
C0Z160,鳳林,2025-04-04,23.746114,121.453411,3.79274e-07
C0V210,復興,2025-04-04,23.222403,120.806089,1.124486e-09
C0H990,昆陽,2025-04-04,24.121322,121.273642,1.9566501e-08
C0R741,獅子,2025-04-04,22.202308,120.705236,0.83665514
C0S710,鹿野,2025-04-04,22.917711,121.122994,1.4522344e-07
C0I530,小奇萊,2025-04-04,24.131764,121.295717,2.1093415e-08
C2K630,荷苞,2025-04-04,23.657717,120.595144,7.495026e-09
C0Z080,富源,2025-04-04,23.587642,121.378225,3.1006465e-08
C0SB10,美和,2025-04-04,22.682078,121.060236,0.14930545
C2K620,馬光農場,2025-04-04,23.721453,120.378864,8.251199e-09
C1I140,卡奈托灣,2025-04-04,23.754364,121.087872,4.3224757e-09
C0I520,玉山風口,2025-04-04,23.470489,120.955994,5.9259694e-08
C1G691,下水埔,2025-04-04,23.816114,120.5676,5.410607e-09
C0X110,臺南市南區,2025-04-04,22.961189,120.188378,0.99093103
C0V680,仁武,2025-04-04,22.701083,120.347722,0.99886733
C2G840,北斗,2025-04-04,23.877586,120.514222,5.7822774e-07
C0R900,竹坑,2025-04-04,22.1385,120.7022,0.94380337
C0K250,崙背,2025-04-04,23.75555,120.318925,3.22265e-08
C0G860,社頭,2025-04-04,23.897647,120.5862,7.537498e-07
C0X150,安定,2025-04-04,23.102614,120.227839,0.81945926
C0R590,里港,2025-04-04,22.77919,120.49459,0.9722075
C0E610,馬都安,2025-04-04,24.451272,120.930192,5.134379e-09
C0E550,明德,2025-04-04,24.583486,120.885411,3.1997038e-07
C0R150,三地門,2025-04-04,22.709889,120.639944,0.998723
C0G910,花壇,2025-04-04,24.032076,120.549461,1.3716909e-06
C1D400,鳥嘴山,2025-04-04,24.71909,121.28387,2.527865e-09
C0K500,元長,2025-04-04,23.64981,120.315024,3.264757e-08
C0F0B0,石岡,2025-04-04,24.276061,120.777644,2.718259e-09
C2V250,甲仙,2025-04-04,23.080106,120.591758,0.00034326175
C0SA20,金崙山,2025-04-04,22.567419,120.959667,9.941291e-09
C0V350,溪埔,2025-04-04,22.738578,120.446797,0.99467057
C0M660,溪口,2025-04-04,23.604131,120.403569,1.4247787e-07
C1S880,壽卡,2025-04-04,22.238911,120.858903,8.7475804e-08
72D680,桃改新埔分場,2025-04-04,24.834444,121.066111,2.2765853e-07
