站號,站名,日期,lat,lon,BlastGRU-TW
C0R710,龍磐,2025-12-30,21.931672,120.838942,0.067747094
C1F9D1,白毛台,2025-12-30,24.158325,120.886933,0.03374845
C0G940,竹塘,2025-12-30,23.848253,120.386764,0.029418467
467590,恆春,2025-12-30,22.003897,120.746339,0.004889856
C1O850,環湖,2025-12-30,23.148617,120.418633,0.32783026
C0U710,太平山,2025-12-30,24.505486,121.525656,0.00062496745
C0E820,獅潭,2025-12-30,24.539133,120.920042,0.005593971
C2SD70,二層坪,2025-12-30,22.94105,121.16838,0.005253688
C0V880,興達,2025-12-30,22.8778,120.2127,0.4184072
C0S890,關山,2025-12-30,23.0395,121.175017,0.0124189425
C0SB30,新蘭,2025-12-30,22.869214,121.223228,0.01735377
C2R970,屏科大,2025-12-30,22.648275,120.619247,0.068274885
C1Z130,銅門,2025-12-30,23.965694,121.492842,0.009116932
C0AD40,土城,2025-12-30,24.973208,121.445169,0.037141684
CAN140,六官養殖協會,2025-12-30,23.22881,120.29962,0.8388818
C0X180,山上,2025-12-30,23.0757,120.363253,0.56063235
C0F9Z0,雪山東峰,2025-12-30,24.388792,121.268675,0.00028714415
C1M480,獨立山,2025-12-30,23.537022,120.607797,0.0077465186
C0X220,學甲,2025-12-30,23.230367,120.182187,0.598198
467650,日月潭,2025-12-30,23.881325,120.90805,0.008579757
A2K570,古坑(花卉中心),2025-12-30,23.633531,120.552392,0.07844351
C0K600,箔子寮,2025-12-30,23.6197,120.14,0.03778483
C0G830,埤頭,2025-12-30,23.866003,120.452806,0.41214904
C0S950,七塊厝,2025-12-30,22.954453,121.229922,0.0019981768
467110,金門,2025-12-30,24.407306,118.289281,0.000324477
C0AH80,深坑,2025-12-30,25.002703,121.628328,0.010923805
C0A970,三貂角,2025-12-30,25.007606,122.002058,0.21442437
C2D730,寶山農場,2025-12-30,24.732444,120.976153,0.00837296
C0K430,褒忠,2025-12-30,23.690938,120.303634,0.14490971
467480,嘉義,2025-12-30,23.495925,120.432906,0.7762638
C0V400,阿公店,2025-12-30,22.804194,120.355528,0.7649079
C0E960,觀霧分站,2025-12-30,24.505781,121.113921,0.0005640755
467550,玉山,2025-12-30,23.48718,120.95943,0.00027133487
C0R440,大漢山,2025-12-30,22.405264,120.753181,0.0007886231
C0SD30,東清國小,2025-12-30,22.057128,121.564922,0.108780846
C1F9B1,桐林,2025-12-30,24.066172,120.735194,0.21075338
C2H9U0,鳳鵬,2025-12-30,23.763919,120.788061,0.07279593
C0K390,土庫,2025-12-30,23.679029,120.395574,0.55252075
C1I450,望鄉山,2025-12-30,23.594153,120.944286,0.00037559003
C0E910,海埔,2025-12-30,24.648767,120.772435,0.0035633857
B2E890,畜試北區分所,2025-12-30,24.527806,120.770972,0.005112189
C0R750,四林格山,2025-12-30,22.076989,120.802439,0.001557121
C0F0C0,中坑,2025-12-30,24.248517,120.903319,0.013328334
C1I121,大鞍,2025-12-30,23.678381,120.760017,0.0009460147
C2G9E0,移民庄,2025-12-30,23.9784,120.40283,0.01548635
72U480,花改蘭陽分場,2025-12-30,24.686306,121.716583,0.7996249
C0A770,科教館,2025-12-30,25.096356,121.516507,0.05129264
C0AJ60,六塊厝,2025-12-30,25.24,121.4481,0.051901378
C0R620,墾雷,2025-12-30,21.900836,120.855269,0.10018584
467420,永康,2025-12-30,23.038386,120.2367,0.8571036
C2M530,奮起湖,2025-12-30,23.493903,120.699253,0.0023896303
C0I410,名間,2025-12-30,23.837053,120.701447,0.20484217
A2C560,農工中心,2025-12-30,24.985917,121.239833,0.010645518
C0V740,旗山,2025-12-30,22.888614,120.483597,0.6664024
C0Z061,玉里,2025-12-30,23.3215,121.339656,0.07179505
C0S840,南田,2025-12-30,22.279725,120.889208,0.23367554
C1I470,杉林溪,2025-12-30,23.639517,120.786444,0.001075835
C1X040,東原,2025-12-30,23.291597,120.463822,0.21422797
C0R660,枋寮,2025-12-30,22.367722,120.590647,0.16089424
C1R120,上德文,2025-12-30,22.763272,120.704442,0.024211204
C0K450,大埤,2025-12-30,23.646074,120.431537,0.5672509
C0UA00,土場,2025-12-30,24.576533,121.495333,0.42563707
467080,宜蘭,2025-12-30,24.763975,121.756528,0.053889893
C0N030,四草,2025-12-30,23.0235,120.1116,0.4301363
467410,臺南,2025-12-30,22.99328,120.20492,0.73069924
C0V650,彌陀,2025-12-30,22.783806,120.246361,0.09890304
C0D660,新竹市東區,2025-12-30,24.798681,120.986942,0.0067723063
82S580,茶改東部分場,2025-12-30,22.907694,121.130139,0.0039134384
C0SB40,興隆,2025-12-30,22.913661,121.257469,0.004831249
467050,新屋,2025-12-30,25.006725,121.047492,0.010261491
C0C710,大溪永福,2025-12-30,24.892936,121.324975,0.0066560684
C0FA20,溫寮,2025-12-30,24.372177,120.583125,0.0016876671
C0V640,湖內,2025-12-30,22.887139,120.2445,0.42174152
C0R910,下寮,2025-12-30,22.3929,120.5548,0.061878216
C0Z020,明里,2025-12-30,23.208717,121.262342,0.040187977
C0M770,嘉義梅山,2025-12-30,23.585398,120.555587,0.065552026
C0C660,楊梅,2025-12-30,24.912375,121.143047,0.012195413
C0SD40,牛頭山,2025-12-30,22.676661,121.506944,0.010188371
C1E511,新開,2025-12-30,24.347703,120.827019,0.016017638
G2F820,農試所(霧峰),2025-12-30,24.031261,120.688133,0.2994062
C2M990,大巃頂,2025-12-30,23.5547,120.61439,0.004320212
C1I070,和社,2025-12-30,23.591131,120.888861,0.02507301
C2E990,新坪頂,2025-12-30,24.30201,120.8574,0.010535934
C0TA80,立霧山,2025-12-30,24.183258,121.641899,0.0014779401
C2F000,大肚,2025-12-30,24.15295,120.572117,0.007012194
C1S850,豐南,2025-12-30,23.122139,121.262389,0.005942514
C2M9B0,西興,2025-12-30,23.2428,120.57617,0.23374812
C2A920,富貴角,2025-12-30,25.263783,121.565258,0.010532481
CAH030,茶改場竹圍站,2025-12-30,23.860083,120.637528,0.042520046
C0T960,光復,2025-12-30,23.660694,121.424964,0.029913746
C0F9M0,豐原,2025-12-30,24.254322,120.720692,0.048948687
C0R720,旭海,2025-12-30,22.205403,120.887614,0.011763122
C0V710,苓雅,2025-12-30,22.622742,120.330669,0.12024006
C0C740,觀音工業區,2025-12-30,25.064764,121.114856,0.0031999152
CAC040,拉拉山,2025-12-30,24.699317,121.427133,0.0010680961
C0V790,萬山,2025-12-30,22.905944,120.688056,0.11888278
U2HA30,臺大和社,2025-12-30,23.590856,120.888864,0.02507301
C2H9K0,屯原,2025-12-30,24.067969,121.209389,0.00071318337
C0AJ90,澳底,2025-12-30,25.0552,121.9253,0.39151058
C0Z100,東華,2025-12-30,23.89525,121.549833,0.031130431
C0G970,三豐,2025-12-30,23.882,120.2895,0.0016685749
V2K610,大庄合作社,2025-12-30,23.8068,120.367939,0.053360514
C0V900,汕尾,2025-12-30,22.4782,120.4151,0.29708904
C1R630,龍泉,2025-12-30,22.66701,120.59091,0.06141313
C1AC50,關渡,2025-12-30,25.133486,121.469331,0.03144624
C0C800,四稜,2025-12-30,24.64733,121.4293,0.0011301587
C0F9I0,神岡,2025-12-30,24.272481,120.658314,0.030874748
C0K460,斗南,2025-12-30,23.678734,120.478359,0.56572974
C2O810,曾文,2025-12-30,23.219681,120.497328,0.3272383
467280,後龍,2025-12-30,24.648563,120.831834,0.0028062796
C1F9J1,清水林,2025-12-30,24.071242,120.820419,0.007911
C2A650,火燒寮,2025-12-30,25.002719,121.742892,0.08763415
466930,竹子湖,2025-12-30,25.162078,121.544547,0.0031543332
C1I220,樟湖,2025-12-30,23.905333,120.846983,0.004877373
C0I390,仁愛,2025-12-30,24.022122,121.132206,0.0073173107
C0Z300,東里,2025-12-30,23.26853,121.30547,0.061728522
C1V590,新發,2025-12-30,23.057019,120.646064,0.023315866
C0K510,水林,2025-12-30,23.572924,120.24597,0.4172257
72S590,東改賓朗果園,2025-12-30,22.813889,121.071278,0.001502254
82A750,茶改北部分場,2025-12-30,24.955778,121.631222,0.009109935
C1A750,石碇服務區,2025-12-30,25.00872,121.646242,0.026158849
C0X300,鹿寮,2025-12-30,23.386047,120.477331,0.38359666
G2AI50,關渡,2025-12-30,25.11575,121.492,0.076020695
C0K590,雲林東勢,2025-12-30,23.674192,120.255721,0.22587496
C2K310,港尾布雞,2025-12-30,23.74834,120.38439,0.48374528
C0A570,桶後,2025-12-30,24.848222,121.597992,0.3756941
C1S800,華源,2025-12-30,22.657883,121.02325,0.0064498046
C0G720,溪州,2025-12-30,23.851589,120.499093,0.40991762
C1V160,達卡努瓦,2025-12-30,23.279811,120.705319,0.005135539
C2M410,馬頭山,2025-12-30,23.324361,120.582017,0.09524591
C0V850,蚵仔寮,2025-12-30,22.7256,120.2527,0.09768411
C0S740,池上,2025-12-30,23.119628,121.209469,0.012739375
C1V390,尖山,2025-12-30,22.813153,120.367789,0.77391046
C0AH70,松山,2025-12-30,25.04871,121.55042,0.05059043
C0N010,鯤鯓國小,2025-12-30,23.1879,120.0889,0.48626968
C0R550,新埤,2025-12-30,22.467947,120.582894,0.18261394
C0SA60,知本（水試所）,2025-12-30,22.702394,121.082761,0.028897136
C0T9I0,豐濱,2025-12-30,23.583897,121.514806,0.013630263
C0UB00,淡江大學蘭陽校園,2025-12-30,24.823239,121.730383,0.027481446
C0W240,九宮,2025-12-30,24.423753,118.240186,0.00032989884
C0T9N0,富里,2025-12-30,23.171639,121.249378,0.029952904
U2HA50,臺大竹山,2025-12-30,23.756972,120.681556,0.07481339
C0V840,鳳鼻頭,2025-12-30,22.5083,120.3591,0.31480512
C0X140,西港,2025-12-30,23.125608,120.203108,0.82515293
72D080,桃改五峰分場,2025-12-30,24.612194,121.157167,0.0015684315
C2H9P0,伊拿谷,2025-12-30,23.963211,121.088264,0.010160509
C2K250,崙背,2025-12-30,23.75553,120.31893,0.14470823
C2H9F0,柑林,2025-12-30,24.018658,120.847072,0.24240111
C0TA20,加灣,2025-12-30,24.082025,121.608944,0.09401759
C0V530,阿蓮,2025-12-30,22.883208,120.327508,0.7503618
C0FB30,八仙山苗圃,2025-12-30,24.192719,121.001366,0.015317764
C1O880,關山,2025-12-30,23.173397,120.594092,0.2292119
C0E791,卓蘭,2025-12-30,24.3126,120.8244,0.012533838
C1I030,武界,2025-12-30,23.913225,121.052483,0.00954824
C0R520,崁頂,2025-12-30,22.514781,120.506914,0.048744064
C0R341,牡丹,2025-12-30,22.130036,120.792639,0.058849342
C0R930,萬丹,2025-12-30,22.5885,120.4851,0.10008527
C0S760,紅石,2025-12-30,23.069131,121.126219,0.000591065
C2C410,中央大學,2025-12-30,24.967652,121.185165,0.0105347065
C1M610,石磐龍,2025-12-30,23.496606,120.663506,0.0043634158
C0C790,東眼山,2025-12-30,24.8284,121.40888,0.0034639076
C0UA10,鴛鴦湖,2025-12-30,24.590269,121.412228,0.00057511474
V2C260,八德蔬果,2025-12-30,24.978508,121.281819,0.0136569515
C0R800,丹路,2025-12-30,22.204481,120.750989,0.05759407
C0G920,永靖,2025-12-30,23.924703,120.547533,0.18377535
C2M950,太和,2025-12-30,23.538372,120.702961,0.002446626
C1A630,下盆,2025-12-30,24.771003,121.538622,0.29595476
B2N890,畜產試驗所,2025-12-30,23.058972,120.336406,0.8745004
C0UA30,白嶺,2025-12-30,24.527819,121.519031,0.0012073204
C1V580,溪南(特生中心),2025-12-30,23.084972,120.788475,0.0012572788
C1T970,大農,2025-12-30,23.615233,121.413331,0.017580153
C0R650,竹田,2025-12-30,22.58486,120.54344,0.040660273
C1H900,清流,2025-12-30,24.080775,120.962997,0.006760664
C1C510,水尾,2025-12-30,24.940081,121.087161,0.004063774
C2N170,茅港尾,2025-12-30,23.2061,120.2624,0.83921725
C0F9X0,大雅(中科園區),2025-12-30,24.21528,120.62445,0.01850532
C0SB60,白守蓮,2025-12-30,23.126769,121.401914,0.23716275
C0O970,虎頭埤,2025-12-30,23.021375,120.347878,0.7775942
C0C730,中大臨海站,2025-12-30,24.966126,121.008581,0.011175438
C0X250,新營,2025-12-30,23.310689,120.316681,0.79470694
C0V700,三民,2025-12-30,22.645017,120.311233,0.056077868
C0U870,大礁溪,2025-12-30,24.791042,121.675047,0.064981766
C0E870,高鐵苗栗,2025-12-30,24.60725,120.826094,0.0028168329
A2K570,古坑花卉中心,2025-12-30,23.63353,120.55239,0.094796896
C0TA30,鹽寮,2025-12-30,23.845606,121.592664,0.03817162
C0M860,新美,2025-12-30,23.338017,120.683169,0.21604869
C1E701,八卦,2025-12-30,24.491756,120.927619,0.005571148
C2TA90,加納納,2025-12-30,23.466421,121.359867,0.0081235105
C0I420,國姓,2025-12-30,24.037803,120.855072,0.19922328
C2D720,關西工作站,2025-12-30,24.757275,121.184792,0.07704751
C0S960,香蘭,2025-12-30,22.587569,120.993375,0.063716084
467620,蘭嶼,2025-12-30,22.0369,121.55843,0.0010522297
C0R260,春日,2025-12-30,22.370361,120.628306,0.2188562
72G600,臺中農改場,2025-12-30,24.003028,120.534389,0.20522831
C0Z210,瑞穗,2025-12-30,23.5239,121.39021,0.019923389
C0M820,達邦,2025-12-30,23.453994,120.749517,0.005083697
C0V860,南寮,2025-12-30,22.7616,120.2339,0.09712443
C0G740,大城,2025-12-30,23.852487,120.320935,0.0016577226
C0R920,塭仔,2025-12-30,22.4169,120.5197,0.061826807
C0R470,高樹,2025-12-30,22.826389,120.600806,0.10894503
C0R680,佳樂水,2025-12-30,21.993578,120.861633,0.06966758
C1O870,大棟山,2025-12-30,23.31157,120.52226,0.003129546
C0D360,梅花,2025-12-30,24.678347,121.208558,0.011535722
C0Z190,富世,2025-12-30,24.14743,121.6297,0.8203514
C0AI10,屈尺,2025-12-30,24.92184,121.54475,0.033306614
B2U990,畜試東區分所,2025-12-30,24.669039,121.832561,0.9653373
C0SB80,長濱漁港,2025-12-30,23.313644,121.459994,0.068551615
C0TA50,和仁,2025-12-30,24.241394,121.712472,0.093377575
C0V910,大樹,2025-12-30,22.684645,120.432803,0.32655385
C1R610,西大武山,2025-12-30,22.617719,120.7322,0.001102001
C0G900,線西,2025-12-30,24.143358,120.443536,0.004840087
C0M700,竹崎,2025-12-30,23.526178,120.555508,0.058896367
C2E880,三義,2025-12-30,24.405478,120.749819,0.0009498576
C0C720,竹圍,2025-12-30,25.112692,121.239824,0.009794082
C0F9P0,清水,2025-12-30,24.312297,120.562242,0.0021630186
C0Z150,吉安光華,2025-12-30,23.930925,121.595153,0.044545442
C0FA80,小雪山天池,2025-12-30,24.28025,121.02627,0.00039976434
467300,東吉島,2025-12-30,23.25727,119.66762,0.00042031953
C1D640,外坪(五指山),2025-12-30,24.644447,121.090961,0.008206968
C2R9A0,高士國小,2025-12-30,22.12553,120.84653,0.0612453
C0F9O0,潭子,2025-12-30,24.213106,120.703933,0.050796058
C2H9R0,卓社,2025-12-30,23.887894,121.000086,0.0032921033
72T250,花蓮農改場,2025-12-30,23.975222,121.563889,0.03591361
C0E780,銅鑼,2025-12-30,24.489681,120.790853,0.004900643
C1T950,太安,2025-12-30,23.666719,121.370128,0.012181113
C0E830,苑裡,2025-12-30,24.439714,120.653053,0.001228548
467270,田中,2025-12-30,23.873803,120.581286,0.62015206
C0SA10,檳榔四格山,2025-12-30,22.810031,121.109308,0.001064043
C1T830,布洛灣,2025-12-30,24.17184,121.57127,0.5496614
C0F970,大坑,2025-12-30,24.173142,120.722289,0.08471625
C1U920,思源,2025-12-30,24.393125,121.347214,0.00056742085
C2H9Y0,松茗,2025-12-30,23.8167,120.650765,0.045138523
C0A931,三和,2025-12-30,25.233153,121.595236,0.052718207
C0I010,廬山,2025-12-30,24.033311,121.181808,0.0012349678
C2M940,日野賀,2025-12-30,23.434056,120.727169,0.0037067297
C0R860,鼻頭,2025-12-30,22.1043,120.8979,0.19387133
C0UB20,壯圍,2025-12-30,24.7359,121.8163,0.09708164
C0R790,九棚,2025-12-30,22.14195,120.889281,0.047121525
C0W110,東莒,2025-12-30,25.9652,119.98069,0.00029470527
C1U930,粉鳥林,2025-12-30,24.497088,121.842479,0.8921793
C1I211,蘆竹湳,2025-12-30,23.934019,120.811994,0.032846134
C0S830,長濱,2025-12-30,23.286817,121.411975,0.028110428
C1F9F1,伯公龍,2025-12-30,24.272392,120.849047,0.021581486
C0UB90,太平山莊,2025-12-30,24.494171,121.536209,0.0006168117
C0E810,西湖,2025-12-30,24.562947,120.7485,0.0006975899
C1I440,新高口,2025-12-30,23.478744,120.878939,0.0005488105
C0O840,王爺宮,2025-12-30,23.222064,120.40085,0.81858677
C0T9G0,鳳林山,2025-12-30,23.735269,121.420131,0.061048433
C0X080,佳里,2025-12-30,23.173039,120.145086,0.4421163
C0FB70,大甲溪埔,2025-12-30,24.370625,120.620067,0.0016671885
C0Z310,清水斷崖,2025-12-30,24.218294,121.689142,0.03602502
C0M680,太保,2025-12-30,23.455062,120.331455,0.6739147
C1S820,金峰,2025-12-30,22.590969,120.933236,0.024707628
C0AD10,八里,2025-12-30,25.150211,121.403947,0.032492034
C2K240,草嶺,2025-12-30,23.59555,120.693461,0.007426794
C1SA70,都蘭,2025-12-30,22.87794,121.226881,0.0144562395
C0K440,二崙,2025-12-30,23.772797,120.408944,0.43597218
C1A760,坪林交控,2025-12-30,24.94284,121.713442,0.039242074
C0F9N0,大里,2025-12-30,24.092464,120.701378,0.21006513
C0SA90,達仁林場,2025-12-30,22.264347,120.823972,0.015917346
C1R290,石門山,2025-12-30,22.112611,120.756597,0.0086648865
42HA10,萬大發電廠,2025-12-30,23.978875,121.139639,0.013117592
C0R890,山海,2025-12-30,21.9878,120.7091,0.0048908493
C0T9A0,月眉山,2025-12-30,23.809928,121.539828,0.0018105548
C0AC70,信義,2025-12-30,25.037822,121.564597,0.068039045
C0K560,棋山,2025-12-30,23.68645,120.603417,0.08698688
C2FB50,出雲,2025-12-30,24.206469,120.902794,0.00756912
C1Z240,中平林道,2025-12-30,23.42115,121.26763,0.0053587295
U2H480,溪頭,2025-12-30,23.670306,120.798194,0.003953627
C0M880,好美里,2025-12-30,23.3364,120.138,0.6498788
C0T9E0,大坑,2025-12-30,23.880628,121.581981,0.0016582097
C0K530,臺西,2025-12-30,23.701547,120.197559,0.023410212
C1E900,國一N128K,2025-12-30,24.560997,120.844186,0.0048793177
C0AJ50,水湳洞,2025-12-30,25.123695,121.862238,0.37055907
C0AI20,白沙灣,2025-12-30,25.283128,121.519058,0.040830765
C2V310,美濃,2025-12-30,22.898792,120.51907,0.66401047
C0A860,大坪,2025-12-30,25.165914,121.632969,0.010882985
C1U850,觀音海岸,2025-12-30,24.38319,121.77856,0.0012803449
C2K610,草嶺石壁,2025-12-30,23.602469,120.707731,0.0066285264
C0U950,鶯子嶺,2025-12-30,24.89754,121.79244,0.0023138851
C0O900,善化,2025-12-30,23.112883,120.297219,0.87526417
C0K550,蔦松,2025-12-30,23.514319,120.229736,0.3240574
E2P980,林試六龜中心,2025-12-30,22.991703,120.645722,0.20180373
C0E590,通霄,2025-12-30,24.471892,120.704622,0.001921141
C1I310,西巒,2025-12-30,23.754486,120.883956,0.0012500725
C0A550,泰平,2025-12-30,24.971197,121.823711,0.06566684
C0I360,水里,2025-12-30,23.812553,120.849792,0.22961316
C0R830,高士,2025-12-30,22.121825,120.836781,0.0046490803
C1I101,溪頭,2025-12-30,23.661789,120.807647,0.00087755354
C0AJ20,野柳,2025-12-30,25.20703,121.690021,0.20203178
C0B060,暖暖,2025-12-30,25.0957,121.7403,0.1365875
C1H920,長豐,2025-12-30,24.102039,120.879897,0.021653589
C2S9B0,利吉,2025-12-30,22.86246,121.15486,0.0038732747
C0V360,內門,2025-12-30,22.975481,120.466769,0.73265064
C0R850,林邊,2025-12-30,22.4634,120.5339,0.06873039
C0E930,龍鳳,2025-12-30,24.700034,120.859125,0.002016815
C0U910,冬山,2025-12-30,24.63373,121.7937,0.9653373
C1E721,泰安,2025-12-30,24.489017,120.968036,0.0022706448
82H320,茶改中部分場,2025-12-30,23.875611,120.913583,0.018708384
C0M750,布袋,2025-12-30,23.380878,120.167789,0.15143283
C1S860,利嘉,2025-12-30,22.809417,121.050528,0.0036439728
E2S980,林試太麻里1,2025-12-30,22.598922,120.980044,0.047980618
C0X170,關廟,2025-12-30,22.963017,120.327797,0.841962
C0V720,林園,2025-12-30,22.507747,120.394511,0.27697375
C1I510,線浸林道,2025-12-30,23.761508,120.832956,0.0013357966
C0D690,外湖,2025-12-30,24.917735,120.968711,0.0018339405
C0C750,新興坑尾,2025-12-30,25.0061,121.0971,0.0043822057
B2Q810,畜試南區分所,2025-12-30,21.945583,120.802167,0.06980316
C0S790,金崙,2025-12-30,22.538122,120.966875,0.048805695
C0AH90,福山植物園,2025-12-30,24.760717,121.58135,0.17533265
C0I540,奇萊稜線,2025-12-30,24.109231,121.326456,0.0002947508
C0M850,表湖,2025-12-30,23.24186,120.64166,0.026435949
C0S770,大溪山,2025-12-30,22.478475,120.943325,0.011471117
C0AG80,中和,2025-12-30,24.991622,121.491792,0.037142098
C0T790,大禹嶺,2025-12-30,24.186117,121.316086,0.00045316716
C0T9B0,水源,2025-12-30,23.991861,121.537169,0.00072466524
C0R840,牡丹池山,2025-12-30,22.168389,120.841225,0.0027638187
C1I131,桶頭,2025-12-30,23.641944,120.654117,0.2963133
CAL110,布袋國中,2025-12-30,23.35893,120.18026,0.6499758
C2M9D0,何竹子腳,2025-12-30,23.53641,120.38203,0.7780597
467571,新竹,2025-12-30,24.827853,121.014219,0.005557125
C0Z290,赤柯山,2025-12-30,23.36893,121.38293,0.0013782575
C0X280,將軍,2025-12-30,23.214999,120.13577,0.61011356
C0S690,太麻里,2025-12-30,22.60902,120.98533,0.0019901586
C0U880,北關,2025-12-30,24.9072,121.8734,0.64464796
CAW010,東引,2025-12-30,26.3588,120.4836,0.00033311994
C0G810,埔心,2025-12-30,23.947633,120.525456,0.18494783
C0U970,大福,2025-12-30,24.80064,121.81389,0.05387138
C2H9N0,仁愛東眼,2025-12-30,24.026875,121.1205,0.0028496564
C1E670,南礦,2025-12-30,24.538278,121.002836,0.0022730906
C0M520,東後寮,2025-12-30,23.369908,120.248065,0.62247527
C1E461,松安,2025-12-30,24.397972,120.986022,0.0026451463
C2N160,西拉雅風管處,2025-12-30,23.189481,120.335297,0.8259405
C2M970,碧湖,2025-12-30,23.568632,120.624165,0.004458244
C0A640,石碇,2025-12-30,24.993969,121.662917,0.039244726
E2S960,林試太麻里2,2025-12-30,22.598,120.99775,0.06541437
C0F9Y0,桃山,2025-12-30,24.432739,121.303808,0.00023994205
C1I020,萬大,2025-12-30,23.979817,121.132261,0.0070667085
C2UC20,長嶺,2025-12-30,24.70894,121.61162,0.23050803
C0U940,羅東,2025-12-30,24.68184,121.74934,0.80036724
C0M650,朴子,2025-12-30,23.43463,120.23902,0.67057085
C1I500,大尖山,2025-12-30,23.858572,120.994889,0.0009819929
C0FB40,中橫21.6k,2025-12-30,24.2499,121.1455,0.0015535983
C0G820,田尾,2025-12-30,23.901669,120.509389,0.18452959
E2K600,四湖植物園,2025-12-30,23.676986,120.163433,0.04036335
C0S730,綠島,2025-12-30,22.6672,121.47533,0.0054099653
12Q970,東港工作站,2025-12-30,22.479997,120.466058,0.06877804
C1TA00,太魯閣,2025-12-30,24.15773,121.6236,0.80794823
466920,臺北,2025-12-30,25.037658,121.514853,0.05059043
C0R600,舊泰武,2025-12-30,22.588194,120.664944,0.012006898
C1I260,北坑,2025-12-30,23.9246,121.006903,0.03864486
466910,鞍部,2025-12-30,25.182586,121.529731,0.00095071463
C1I230,九份二山,2025-12-30,23.961944,120.845,0.007831827
C2M810,里佳,2025-12-30,23.389125,120.716647,0.0020304942
C2A660,瑞芳,2025-12-30,25.113169,121.801147,0.1860033
C0R270,琉球嶼,2025-12-30,22.332244,120.362236,0.76230955
C2V580,瑞山,2025-12-30,22.90304,120.43424,0.8284343
C1T990,高寮,2025-12-30,23.394239,121.356808,0.10727416
C0G620,芬園,2025-12-30,24.015678,120.6213,0.22659057
C1Z140,荖溪,2025-12-30,23.890575,121.45964,0.014335696
C1I201,中心崙,2025-12-30,23.728722,120.712097,0.018137572
C1I400,凌霄,2025-12-30,24.018778,121.004456,0.002685383
C1M640,十字,2025-12-30,23.492153,120.753683,0.0013607272
G2P820,農試鳳山分所,2025-12-30,22.646611,120.356083,0.12459911
C0Z270,蕃薯寮,2025-12-30,23.73835,121.540108,0.0041695572
C2E420,竹南,2025-12-30,24.70898,120.88897,0.0019238951
C0FB10,出雲山苗圃,2025-12-30,24.23105,120.90475,0.013316104
C0F9Q0,外埔,2025-12-30,24.347817,120.705686,0.014474819
C0K580,高鐵雲林,2025-12-30,23.737456,120.417944,0.48229396
C2I090,鳳凰,2025-12-30,23.728081,120.787347,0.010186495
C0U990,員山,2025-12-30,24.74435,121.72247,0.8005245
C0V770,大社,2025-12-30,22.730306,120.346639,0.15096794
C0X120,麻豆,2025-12-30,23.183289,120.248611,0.8485179
C0C670,龍潭,2025-12-30,24.870056,121.221389,0.008686248
C0D680,香山濕地,2025-12-30,24.783581,120.914988,0.0018318719
C0S980,勝林山,2025-12-30,22.430439,120.8938,0.0013533792
C0V730,大寮,2025-12-30,22.605614,120.395717,0.10413503
C0R570,麟洛,2025-12-30,22.65078,120.52719,0.052203
C2M930,石卓,2025-12-30,23.478744,120.702264,0.0014029979
C0G9B0,和美,2025-12-30,24.105169,120.492131,0.0074940035
CAG100,王功漁港,2025-12-30,23.96824,120.32586,0.000936538
C0X290,北門,2025-12-30,23.267772,120.125481,0.6104217
C2F930,大甲,2025-12-30,24.347667,120.640403,0.0025831293
C0D650,湖口,2025-12-30,24.904794,121.043628,0.0036736138
C0U780,五結,2025-12-30,24.68637,121.79794,0.9653373
C1I250,鯉潭,2025-12-30,23.961922,120.991131,0.020923503
C0R130,阿禮,2025-12-30,22.742908,120.743678,0.008734849
C0X100,臺南市北區,2025-12-30,23.010394,120.194228,0.73233557
C0S920,金峰嘉蘭,2025-12-30,22.594789,120.960825,0.045722928
C0V490,新興,2025-12-30,22.627422,120.298803,0.059148066
C0F9K0,大安,2025-12-30,24.345061,120.588025,0.0016708855
467290,古坑,2025-12-30,23.633639,120.551889,0.07844351
C2E970,八甲,2025-12-30,24.535811,120.795983,0.0045965966
C0V440,鳳山,2025-12-30,22.646653,120.356122,0.12459911
C1T940,大觀,2025-12-30,23.714206,121.373133,0.0021748804
C0E740,造橋,2025-12-30,24.637056,120.864778,0.002828698
C0R100,尾寮山,2025-12-30,22.833111,120.683889,0.006515637
A2K630,臺大雲林校區,2025-12-30,23.730628,120.423903,0.48189688
467990,馬祖,2025-12-30,26.169467,119.923158,0.00030920145
C0D580,寶山,2025-12-30,24.735006,121.025192,0.019136153
E2P990,林試扇平站,2025-12-30,22.9677,120.6857,0.042809978
C0AI30,三重,2025-12-30,25.057328,121.500629,0.05129264
C0AH00,汐止,2025-12-30,25.066881,121.658778,0.039441932
C1Z040,立山,2025-12-30,23.443356,121.327375,0.008794787
466881,新北,2025-12-30,24.959207,121.525196,0.03776047
C0W130,花嶼,2025-12-30,23.40007,119.32276,0.0004030424
C0A950,鼻頭角,2025-12-30,25.129036,121.923372,0.3915637
C0K470,林內,2025-12-30,23.748675,120.609642,0.0868389
C2F990,摩天嶺,2025-12-30,24.322458,120.936819,0.011604377
C2E430,南庄,2025-12-30,24.601775,121.000214,0.0032825759
82C160,茶改場,2025-12-30,24.908472,121.185333,0.011607151
C2TB60,南安,2025-12-30,23.29818,121.26157,0.042998336
C0Z320,清水林道,2025-12-30,23.27125,121.188272,0.004277646
C0R760,南仁湖,2025-12-30,22.084681,120.863353,0.008656151
C0M670,大林,2025-12-30,23.600616,120.45841,0.6599744
C0M800,茶山,2025-12-30,23.299075,120.664767,0.34868374
C0A9C0,天母,2025-12-30,25.117494,121.537169,0.06403037
72K220,南改斗南分場,2025-12-30,23.634556,120.477333,0.5645732
72AI40,桃改樹林分場,2025-12-30,24.944503,121.386972,0.013982941
C0S910,蘭嶼燈塔,2025-12-30,22.081197,121.503117,0.009670719
C0B050,八斗子,2025-12-30,25.144754,121.79167,0.3880365
C0U900,內城,2025-12-30,24.71813,121.68766,0.83669895
C0X320,柳營,2025-12-30,23.253328,120.375253,0.8239048
C0M790,新港,2025-12-30,23.553269,120.345728,0.524684
C0F9T0,西屯,2025-12-30,24.179494,120.641275,0.05182167
C0E950,松安,2025-12-30,24.39792,120.98599,0.0026451463
C0SA30,都歷,2025-12-30,23.020333,121.323642,0.00413734
C0C620,蘆竹,2025-12-30,25.084275,121.265767,0.0049792426
C0R730,大坪頂,2025-12-30,22.024633,120.69355,0.032959517
C0AJ40,石門,2025-12-30,25.273672,121.601198,0.014014704
C0E750,苗栗,2025-12-30,24.564569,120.824575,0.0048982953
C0T870,鯉魚潭,2025-12-30,23.935639,121.508944,0.0122935595
C1V170,排雲,2025-12-30,23.463619,120.954147,0.0002737235
C2H950,中寮,2025-12-30,23.884447,120.766406,0.38686025
C0R350,貓鼻頭,2025-12-30,21.921774,120.7358,0.0055230884
C0V660,岡山,2025-12-30,22.797078,120.294958,0.099845245
C1H941,雙冬,2025-12-30,23.967378,120.802189,0.031836715
C0AJ70,田寮,2025-12-30,25.2698,121.4886,0.04394726
C0AI00,五股,2025-12-30,25.07445,121.42728,0.015299995
C0Z280,德武,2025-12-30,23.47426,121.41071,0.010929738
C2RA10,大新,2025-12-30,22.67558,120.57788,0.06112692
C0R700,枋山,2025-12-30,22.246844,120.661086,0.0076055494
C0C460,復興,2025-12-30,24.820208,121.352281,0.0038158332
C2K300,鹿南,2025-12-30,23.63855,120.3636,0.32816508
E2H360,蓮華池,2025-12-30,23.918333,120.885278,0.032423634
C0M640,中埔,2025-12-30,23.42538,120.5229,0.08827974
C0W140,金沙,2025-12-30,24.488292,118.408778,0.00033754937
C2A540,四堵,2025-12-30,24.8926,121.745736,0.058265988
C0ACA0,新莊,2025-12-30,25.051478,121.446756,0.050788194
C0R220,潮州,2025-12-30,22.534361,120.54,0.048929267
U2HA40,臺大內茅埔,2025-12-30,23.689722,120.851117,0.1017737
467490,臺中,2025-12-30,24.145736,120.684075,0.087773375
C0UB60,明池,2025-12-30,24.650688,121.475277,0.0028975483
C0U960,翠峰湖,2025-12-30,24.510856,121.608044,0.0006462215
E2HA20,林試畢祿溪站,2025-12-30,24.226944,121.308522,0.000771748
C2M9A0,大華,2025-12-30,23.4824,120.67491,0.0037833848
C0V890,前鎮,2025-12-30,22.5718,120.3117,0.106843
C1F941,雪嶺,2025-12-30,24.280586,121.026642,0.00039976434
C2H9E0,國姓南港,2025-12-30,23.911108,120.846556,0.004301207
C0AC80,文山,2025-12-30,25.00235,121.575728,0.075017974
C0F9R0,龍井,2025-12-30,24.184536,120.528972,0.002344322
C0M760,民雄,2025-12-30,23.551754,120.428457,0.6607808
C0UA40,西德山,2025-12-30,24.560647,121.752608,0.010191294
C2TA70,赤科坪,2025-12-30,23.39885,121.39168,0.0017854295
C1T920,中興,2025-12-30,23.769503,121.498653,0.019340837
C0D550,雪霸,2025-12-30,24.526972,121.11605,0.00071584585
C2F860,梨山,2025-12-30,24.247522,121.243669,0.000567581
C0R320,車城,2025-12-30,22.0744,120.716247,0.005479532
C1S870,南美山,2025-12-30,23.15025,121.382333,0.016324716
C0B020,基隆嶼,2025-12-30,25.19141,121.78391,0.32216135
C1U501,牛鬥,2025-12-30,24.637836,121.573656,0.6771852
C0M730,嘉義市東區,2025-12-30,23.457673,120.460531,0.13719176
C2R990,泰武,2025-12-30,22.60686,120.69765,0.012457805
C0S700,知本,2025-12-30,22.684866,121.005642,0.0029277743
C1N001,沙崙,2025-12-30,22.935472,120.309406,0.84171224
C0V760,橋頭,2025-12-30,22.757806,120.30575,0.14805932
C0G960,福寶,2025-12-30,24.0443,120.3814,0.01481426
C0X210,白河,2025-12-30,23.347466,120.414427,0.3947086
C0S810,東河,2025-12-30,22.972672,121.303986,0.0026841366
C2R170,屏東,2025-12-30,22.66027,120.49403,0.051985968
C0R670,楓港,2025-12-30,22.190131,120.692156,0.0070649893
C0FA50,霧峰,2025-12-30,24.0419,120.6995,0.20811032
C0UB10,蘇澳,2025-12-30,24.5969,121.8571,0.96793634
C0G950,防潮門,2025-12-30,24.1835,120.4871,0.0046961405
C0M740,六腳,2025-12-30,23.492871,120.290625,0.63941664
C1R250,力里,2025-12-30,22.428117,120.629228,0.22149871
C0K330,虎尾,2025-12-30,23.719183,120.442036,0.48054078
C2FA00,烏石坑,2025-12-30,24.273503,120.947617,0.012020301
C0V620,永安,2025-12-30,22.82315,120.236856,0.098719805
C1I330,楓樹林,2025-12-30,23.986803,121.076117,0.0051231286
C0W200,湖西,2025-12-30,23.596314,119.67275,0.00046028552
72Q010,高雄農改場,2025-12-30,22.709333,120.525889,0.06323741
C0SA40,瑞和,2025-12-30,22.974361,121.156697,0.0052402182
C0C680,龜山,2025-12-30,25.02846,121.38656,0.0036292798
C2V260,月眉,2025-12-30,22.971003,120.539853,0.49198404
C0V450,鳳森,2025-12-30,22.545064,120.392592,0.31282872
C0FA90,小雪山林道,2025-12-30,24.29515,121.03651,0.00034802203
C0U720,南山,2025-12-30,24.43742,121.38167,0.0013180941
A2N290,臺南蘭花園區,2025-12-30,23.340258,120.379661,0.5926285
C0R560,新園,2025-12-30,22.5434,120.461558,0.27697375
C0U890,三星,2025-12-30,24.66812,121.65302,0.7674555
C1V300,御油山,2025-12-30,23.001983,120.715364,0.0013206588
C0U600,礁溪,2025-12-30,24.817539,121.765608,0.053900115
C1T980,龍澗,2025-12-30,24.023289,121.411328,0.0013627296
C0D670,海天一線,2025-12-30,24.831986,120.914438,0.0013688691
C0SA00,歷坵,2025-12-30,22.520969,120.89185,0.0070473393
C0M710,東石,2025-12-30,23.458927,120.15385,0.14179184
C0M780,鹿草,2025-12-30,23.41134,120.30835,0.6677903
C0U520,雙連埤,2025-12-30,24.753033,121.641303,0.17544712
C0B010,七堵,2025-12-30,25.094819,121.71713,0.3059513
C0R480,長治,2025-12-30,22.693128,120.542622,0.057369947
C1V830,國三S383K,2025-12-30,22.781967,120.426475,0.5929486
12Q980,恆春工作站,2025-12-30,22.079678,120.714425,0.0054771546
C1O940,東山服務區,2025-12-30,23.286016,120.398472,0.5922274
C1U840,東澳嶺,2025-12-30,24.5378,121.8485,0.096562244
C1D630,飛鳳山,2025-12-30,24.766464,121.119178,0.01760722
C0S940,石寧山,2025-12-30,23.223772,121.406639,0.061492182
C0K410,北港,2025-12-30,23.573957,120.292802,0.41616488
C2M620,瑞里,2025-12-30,23.545133,120.675197,0.0040920726
C0SB70,小港漁港,2025-12-30,23.158558,121.400431,0.22085854
C2O950,安南,2025-12-30,23.076694,120.144861,0.36291766
C0F0E0,南湖圈谷,2025-12-30,24.363714,121.444667,0.0002467179
467610,成功,2025-12-30,23.097486,121.373428,0.06695209
C0G890,伸港,2025-12-30,24.148933,120.484403,0.0046851165
C2E540,龍溪,2025-12-30,24.606489,120.783933,0.0050042523
C1V200,梅山,2025-12-30,23.268447,120.823556,0.014560204
C0T9H0,加路蘭山,2025-12-30,23.682947,121.5274,0.0010950305
C2O930,玉井,2025-12-30,23.126042,120.46055,0.3279181
C1F911,新伯公,2025-12-30,24.221361,120.841069,0.023870524
C0R490,九如,2025-12-30,22.7405,120.490503,0.06304847
C0X200,左鎮,2025-12-30,23.056758,120.408522,0.64099014
C2TB50,麻汝,2025-12-30,23.42554,121.39358,0.010525038
C0FA60,鞍馬山工作站,2025-12-30,24.267064,121.000793,0.0003956078
C0SB50,叭嗡嗡,2025-12-30,23.047062,121.343223,0.09491578
C1F891,稍來,2025-12-30,24.265689,121.001142,0.00040338715
C2M9C0,紫雲,2025-12-30,23.494914,120.540253,0.07274226
72N240,七股研究中心,2025-12-30,23.081672,120.062894,0.43025598
C0C700,中壢,2025-12-30,24.977661,121.256375,0.013209812
C0M690,水上,2025-12-30,23.419734,120.388909,0.8181189
C0V690,鼓山,2025-12-30,22.623325,120.275575,0.059081968
C0O860,大內,2025-12-30,23.11885,120.36083,0.84031266
C0Z200,萬榮,2025-12-30,23.709219,121.420106,0.008315142
C0T9D0,和中,2025-12-30,24.26676,121.74103,0.09327415
C2S9A0,北份子寮,2025-12-30,22.78561,121.07813,0.008912079
C1O921,楠西,2025-12-30,23.183511,120.484083,0.32684714
C0AJ30,淡水觀海,2025-12-30,25.184591,121.408616,0.03282225
C0V810,左營,2025-12-30,22.67491,120.28491,0.056153104
C0UA70,桃源谷,2025-12-30,24.962606,121.888875,0.030733276
C0X130,官田,2025-12-30,23.193217,120.315422,0.82652473
C1H000,翠峰,2025-12-30,24.109397,121.205211,0.000539385
C0UA90,石城,2025-12-30,24.980444,121.951214,0.3535851
C1E681,南勢山,2025-12-30,24.421669,120.923831,0.0031309968
C0A9F0,內湖,2025-12-30,25.079422,121.57545,0.06831469
C0K291,宜梧,2025-12-30,23.536281,120.169329,0.034979656
C1K540,口湖,2025-12-30,23.585344,120.180517,0.03790138
C0R780,滿州,2025-12-30,22.024403,120.839892,0.09419369
C0V870,文安,2025-12-30,22.8025,120.2164,0.09768411
C0U650,玉蘭,2025-12-30,24.675286,121.587061,0.22485878
C0R640,東港,2025-12-30,22.46247,120.44074,0.31514093
C0AJ80,板橋,2025-12-30,25.0107,121.4489,0.037162505
C0S660,下馬,2025-12-30,23.150427,121.070312,0.003105236
C2N190,烏樹,2025-12-30,23.32393,120.36989,0.48039168
C1H9B1,阿眉,2025-12-30,24.1263,120.994672,0.00090303074
C0UA20,多加屯,2025-12-30,24.368614,121.373189,0.0003670265
C0E730,頭份,2025-12-30,24.688247,120.912206,0.0019319061
72V140,高改旗南分場,2025-12-30,22.857861,120.516667,0.652197
C0K480,莿桐,2025-12-30,23.761192,120.502372,0.6027175
C0U980,坪林石牌,2025-12-30,24.86478,121.77396,0.017880186
C0T900,西林,2025-12-30,23.8119,121.441458,0.008055565
C1I150,青雲,2025-12-30,23.793361,120.949378,0.1934751
C2E980,和興,2025-12-30,24.505319,120.923016,0.015076423
467350,澎湖,2025-12-30,23.565503,119.563094,0.0004684886
C0G800,埔鹽,2025-12-30,24.000394,120.431683,0.012644402
C0H960,草屯,2025-12-30,23.973672,120.68085,0.28021988
C1V780,多納林道,2025-12-30,22.888028,120.737917,0.0035321112
C0E920,通霄漁港,2025-12-30,24.498589,120.673876,0.0019641407
C0Z330,安通山,2025-12-30,23.290728,121.348528,0.0056844084
C0AH10,永和,2025-12-30,25.01125,121.508111,0.03717322
C0AK10,太平里,2025-12-30,25.134937,121.364899,0.011664671
C2G640,鹿港,2025-12-30,24.0753,120.430481,0.00752769
C1E890,國三N149K,2025-12-30,24.463414,120.680019,0.0018999253
C1R110,口社,2025-12-30,22.770111,120.645222,0.08673809
C1M870,國三N285K,2025-12-30,23.550319,120.505833,0.07381327
C1E480,鳳美,2025-12-30,24.554803,121.034747,0.012506371
C0T9M0,靜浦,2025-12-30,23.455167,121.495028,0.032003846
C2H9M0,發祥,2025-12-30,24.154094,121.164517,0.002125576
C2G9C0,埔南,2025-12-30,23.99124,120.46969,0.01261315
C0AI40,石牌,2025-12-30,25.115597,121.513139,0.06831469
C1F871,上谷關,2025-12-30,24.203483,121.018644,0.01200329
C2H9G0,百勝,2025-12-30,24.051142,120.909361,0.05550778
C0G880,二水,2025-12-30,23.810742,120.6173,0.09678051
C0R940,加祿堂,2025-12-30,22.3363,120.6217,0.010955847
C0W220,北竿,2025-12-30,26.220358,119.974881,0.00030032732
C0O960,崎頂,2025-12-30,22.959547,120.369317,0.8418436
C0TA40,秀林,2025-12-30,24.302864,121.731144,0.0048275427
C0S750,向陽,2025-12-30,23.248397,120.986133,0.0007735146
C0T9F0,水璉,2025-12-30,23.797131,121.542514,0.004490509
C1M600,頭凍,2025-12-30,23.406364,120.603339,0.0029161675
467660,臺東,2025-12-30,22.752211,121.154586,0.018822124
C1D380,新埔,2025-12-30,24.84745,121.03834,0.005344166
C2G980,田頭村,2025-12-30,23.8263,120.444175,0.43612292
C0V750,路竹,2025-12-30,22.854997,120.259439,0.10275557
C0N050,蚵寮,2025-12-30,23.301,120.1104,0.6104217
C2X060,下營,2025-12-30,23.226806,120.256291,0.8393828
72M700,南改鹿草分場,2025-12-30,23.416869,120.283061,0.6699213
C1SA50,利嘉林道,2025-12-30,22.82325,121.009389,0.0013139365
C0UB70,太平山中間站,2025-12-30,24.542003,121.513453,0.014229628
C0A940,金山,2025-12-30,25.223628,121.643967,0.27227548
C1V340,大津,2025-12-30,22.888322,120.645986,0.10794869
C0W180,七美,2025-12-30,23.219333,119.444892,0.00041858255
C1F9C1,白冷,2025-12-30,24.182844,120.929889,0.036479257
K2E710,苗改生物防治研究中心,2025-12-30,24.422861,120.871833,0.005296531
C0N040,蘆竹溝,2025-12-30,23.2344,120.0961,0.610742
C0TB40,崇德,2025-12-30,24.166144,121.657414,0.6611767
C0D760,大坪苗圃,2025-12-30,24.5362,121.1108,0.0014951811
C2W230,畜試所澎湖,2025-12-30,23.628342,119.513206,0.00044829553
C0R880,後壁湖,2025-12-30,21.9457,120.7457,0.004893751
C1I280,埔中,2025-12-30,23.820778,120.642594,0.042827092
467790,墾丁雷達站,2025-12-30,21.948235,120.808028,0.06903178
C0W190,望安,2025-12-30,23.380564,119.494075,0.0004129835
C0Z170,卓溪,2025-12-30,23.3443,121.3029,0.051753893
C0F850,東勢,2025-12-30,24.246428,120.833047,0.030301334
466900,淡水,2025-12-30,25.164889,121.448906,0.13057166
C0I370,魚池,2025-12-30,23.895703,120.94135,0.022668391
C0C630,大溪,2025-12-30,24.882853,121.265547,0.008155257
C0A520,山佳,2025-12-30,24.974944,121.402008,0.014928261
C0I110,竹山,2025-12-30,23.761225,120.688156,0.07908163
82H840,茶改南部分場,2025-12-30,23.762528,120.7405,0.074405335
C2SD80,再來山,2025-12-30,23.34371,121.44122,0.01322195
C0G660,溪湖,2025-12-30,23.94835,120.479122,0.18572246
C1T800,洛韶,2025-12-30,24.204558,121.453956,0.002105637
C1T810,慈恩,2025-12-30,24.192044,121.388386,0.0004726841
C1E451,象鼻,2025-12-30,24.368617,120.940228,0.005204648
C0AC60,三峽,2025-12-30,24.939025,121.369728,0.054916
C0I490,萬大林道,2025-12-30,23.928228,121.091411,0.0018005703
C1I290,豐丘,2025-12-30,23.668178,120.887417,0.0012055777
C1I320,奧萬大,2025-12-30,23.952956,121.178556,0.0019535397
C2M910,嘉義大學,2025-12-30,23.471325,120.485903,0.13935217
C0U770,南澳,2025-12-30,24.44935,121.81022,0.8920676
C2TB30,吉安,2025-12-30,23.94538,121.54803,0.02463088
C0A980,社子,2025-12-30,25.109508,121.469681,0.06813738
C0V800,六龜,2025-12-30,22.997889,120.633583,0.20412563
C1G9D0,國一S218K,2025-12-30,23.890641,120.493253,0.284868
C0E570,白沙屯,2025-12-30,24.549447,120.696803,0.000707642
C2F9A0,中竹林,2025-12-30,24.103556,120.751061,0.013941985
C0FA40,臺中電廠,2025-12-30,24.2146,120.4907,0.0031791409
C2G9A0,畜試所彰化,2025-12-30,23.86045,120.557964,0.62071294
C0H9C0,合歡山,2025-12-30,24.143442,121.272547,0.00034787506
G2M350,農試溪口農場,2025-12-30,23.58565,120.408111,0.6632297
C0U860,頭城,2025-12-30,24.85323,121.8308,0.19096613
C0R580,南州,2025-12-30,22.48591,120.50274,0.06877824
C0D430,峨眉,2025-12-30,24.6905,121.017189,0.0053876867
C0G780,秀水,2025-12-30,24.03405,120.503869,0.20562115
72N100,臺南農改場,2025-12-30,23.0605,120.342194,0.87439066
C0S900,蘭嶼高中,2025-12-30,22.04909,121.51214,0.089809455
C2TA60,六十石,2025-12-30,23.22477,121.31861,0.0021260604
C1F9W0,德基,2025-12-30,24.254783,121.190261,0.0005973191
C2M980,安和,2025-12-30,23.51377,120.31593,0.63740206
C1Z120,壽豐,2025-12-30,23.870853,121.508081,0.031130431
C0W160,烏坵,2025-12-30,24.9944,119.44956,0.0002714469
C1I240,外大坪,2025-12-30,23.958697,120.917931,0.015194548
C1I550,國六W023K,2025-12-30,23.979067,120.867742,0.11552917
C0R870,興海,2025-12-30,21.9752,120.8439,0.06979038
C0R140,瑪家,2025-12-30,22.682903,120.686639,0.053276442
C0A530,坪林,2025-12-30,24.938183,121.70975,0.022573067
C0X260,後壁,2025-12-30,23.366358,120.362326,0.784175
C0Z230,和平,2025-12-30,24.30717,121.77007,0.20483364
C0G770,福興,2025-12-30,24.041289,120.437669,0.012668916
C0H9A0,神木村,2025-12-30,23.532742,120.843667,0.0012924057
C0I460,南投,2025-12-30,23.911469,120.687331,0.28069878
C0I480,梅峰,2025-12-30,24.085272,121.173572,0.00064943824
C1V570,吉東,2025-12-30,22.85422,120.5454,0.10122075
C2A560,福山,2025-12-30,24.776203,121.502811,0.2750794
C0AH30,五分山,2025-12-30,25.07125,121.780794,0.0104418285
C0FA10,松柏,2025-12-30,24.429115,120.617482,0.0012385172
72S200,東改班鳩分場,2025-12-30,22.829528,121.077694,0.0020720372
72HA00,中改埔里分場,2025-12-30,23.903208,120.963364,0.024938596
C2H9W0,大坪頂農水,2025-12-30,24.043122,120.932781,0.016157512
C0C650,平鎮,2025-12-30,24.897503,121.214636,0.010838551
C0S930,延平,2025-12-30,22.902581,121.084058,0.0028393476
C0UA60,樟樹山,2025-12-30,24.41393,121.78325,0.0019056177
C2UC10,出水溪,2025-12-30,24.615822,121.652253,0.1297984
C1S670,摩天,2025-12-30,23.199503,121.027,0.0006603732
C2C590,觀音,2025-12-30,25.027072,121.153317,0.0027091922
C0V630,茄萣,2025-12-30,22.906642,120.182608,0.4188148
466940,基隆,2025-12-30,25.133314,121.740475,0.36969817
C0X050,東河,2025-12-30,23.296598,120.385608,0.59263384
C0R770,保力,2025-12-30,22.071122,120.764111,0.03446487
G2L020,農試嘉義分所,2025-12-30,23.485028,120.473806,0.14013481
C0X240,關子嶺,2025-12-30,23.331169,120.508025,0.195501
C0I380,集集,2025-12-30,23.828206,120.801467,0.2558313
466990,花蓮,2025-12-30,23.975128,121.613275,0.093934484
C1V220,小關山,2025-12-30,23.154217,120.813603,0.001233728
C1F9G1,慶福山,2025-12-30,24.180853,120.848378,0.008799224
C0FB20,雪山橋,2025-12-30,24.23192,120.9786,0.0005010276
C0Z250,瑞穗林道,2025-12-30,23.49284,121.30688,0.008013547
C0D590,新豐,2025-12-30,24.87068,120.97721,0.0012430133
C0A870,五指山,2025-12-30,25.132153,121.608692,0.002451408
C0UA50,西帽山,2025-12-30,24.555361,121.802628,0.10141748
C2R980,竹田國中,2025-12-30,22.61532,120.52412,0.04068209
C0X160,仁德,2025-12-30,22.968258,120.257689,0.72400117
C1H971,六分寮,2025-12-30,23.92507,120.6378,0.027606454
C0W120,西嶼,2025-12-30,23.5626,119.468436,0.0004572704
C0G650,員林,2025-12-30,23.946503,120.585597,0.3363164
C0AD50,鶯歌,2025-12-30,24.951533,121.346294,0.014555927
C2H9Q0,北東眼山,2025-12-30,24.120939,121.189303,0.0006932598
C2H9T0,名間竹圍,2025-12-30,23.859914,120.637572,0.04250263
C0S990,山豬窟,2025-12-30,22.318619,120.857372,0.051184848
C0X190,安平,2025-12-30,22.993161,120.152181,0.74830705
C0K400,斗六,2025-12-30,23.720583,120.541127,0.6006335
12J990,口湖工作站,2025-12-30,23.589978,120.180394,0.03778483
C0O830,北寮,2025-12-30,23.079561,120.495008,0.4149346
C1D410,白蘭,2025-12-30,24.579364,121.079947,0.0021789644
C0S970,加津林,2025-12-30,22.416211,120.926942,0.41236985
C0D700,關西,2025-12-30,24.7977,121.1732,0.090238765
C0U750,龜山島,2025-12-30,24.841667,121.953133,0.108743206
C0R810,內獅,2025-12-30,22.305064,120.642986,0.010960932
C1M390,龍美,2025-12-30,23.406728,120.654417,0.0038163625
C2K290,崙內,2025-12-30,23.69525,120.35601,0.32816508
C2FB60,頭櫃山,2025-12-30,24.129842,120.858925,0.007234493
C1H840,國三N238K,2025-12-30,23.841008,120.707711,0.14019033
CAQ030,崎峰國小,2025-12-30,22.42565,120.49521,0.06877824
C2E520,大湖,2025-12-30,24.414939,120.870872,0.0051784054
467530,阿里山,2025-12-30,23.508208,120.813242,0.00045109063
C1E691,南湖,2025-12-30,24.40135,120.837533,0.0032448457
C0FA30,梧棲,2025-12-30,24.256003,120.523381,0.0023395913
C1V231,高中,2025-12-30,23.134911,120.716711,0.02503302
C0AK30,硬漢嶺,2025-12-30,25.136097,121.426372,0.0024699678
C0F9V0,新社,2025-12-30,24.200172,120.815806,0.012383686
C0H890,埔里,2025-12-30,23.972169,120.952425,0.05333394
C0R690,墾丁,2025-12-30,21.966756,120.810269,0.0017109032
C0SD20,富山,2025-12-30,22.822383,121.190825,0.028660718
C0F0D0,審馬陣,2025-12-30,24.381675,121.4203,0.00024183386
C2W030,金門農試所,2025-12-30,24.448431,118.451786,0.0002746646
C0R820,白鷺,2025-12-30,22.454275,120.666219,0.0967877
C0FB00,大雪山,2025-12-30,24.254668,121.007374,0.00039312695
C1V190,南天池,2025-12-30,23.27403,120.91176,0.0006000681
C0E940,雪見,2025-12-30,24.42595,121.01347,0.0007861468
K2E360,苗栗農改場,2025-12-30,24.495722,120.829111,0.0071280436
CAJ050,海口故事園區,2025-12-30,23.57543,120.14121,0.037832174
C2K280,四湖,2025-12-30,23.6304,120.22717,0.040466752
C2H9D0,三隻寮,2025-12-30,24.093078,120.861578,0.006559919
C0O990,媽廟,2025-12-30,22.99175,120.293525,0.8569738
C0D480,打鐵坑,2025-12-30,24.849664,121.150789,0.0067407964
C0Z220,和平林道,2025-12-30,24.343922,121.656317,0.0009529773
C0TA10,花蓮漁港,2025-12-30,23.995322,121.638331,0.025725195
72C440,桃園農改場,2025-12-30,24.950944,121.030583,0.0037734483
C1E711,馬拉邦山,2025-12-30,24.367306,120.901656,0.005148137
C0SB20,富岡,2025-12-30,22.792467,121.192669,0.015635155
C0D560,竹東,2025-12-30,24.767147,121.057881,0.017680595
C0F9U0,南屯,2025-12-30,24.137006,120.637969,0.21168272
C2SD60,明峰,2025-12-30,22.8671,121.11825,0.004000723
C0M720,番路,2025-12-30,23.464657,120.554156,0.12115108
C0F0A0,雪山圈谷,2025-12-30,24.388594,121.236339,0.00023670928
C1A9N0,四十份,2025-12-30,24.934158,121.593283,0.005121268
C0U760,東澳,2025-12-30,24.52196,121.83318,0.8837466
C0X230,鹽水,2025-12-30,23.272621,120.247641,0.6381867
C2H9H0,苗改南投蜂場,2025-12-30,23.852589,120.693481,0.20517863
C2TB70,達谷寮,2025-12-30,23.38,121.35968,0.036130436
C0R950,萬隆國小,2025-12-30,22.507667,120.587817,0.20155682
467540,大武,2025-12-30,22.35572,120.90374,0.24832267
C0V370,古亭坑,2025-12-30,22.893178,120.401947,0.8266093
C1I340,新興橋,2025-12-30,23.563333,120.868728,0.028629767
C0SA80,土坂,2025-12-30,22.453108,120.887572,0.27191615
C0R160,鹽埔,2025-12-30,22.739558,120.530778,0.06361735
C0AC40,大屯山,2025-12-30,25.175675,121.522408,0.0006746883
466850,五分山雷達站,2025-12-30,25.071182,121.781205,0.01005806
C2H9L0,馬烈霸,2025-12-30,24.1512,121.201772,0.0007549256
C1AI50,國三N016K,2025-12-30,25.034164,121.619664,0.09381021
C2V920,匏子寮,2025-12-30,23.04905,120.55319,0.3678346
C1V600,藤枝,2025-12-30,23.071961,120.757042,0.0016431279
C1E601,南勢,2025-12-30,24.572486,120.734842,0.0006754127
C0O980,新市,2025-12-30,23.061614,120.298197,0.8752132
C0K420,西螺,2025-12-30,23.800407,120.467394,0.43391928
C0Z050,佳心,2025-12-30,23.34567,121.21316,0.0022360566
C0AD30,蘆洲,2025-12-30,25.086594,121.472331,0.06560575
C0V610,梓官,2025-12-30,22.760558,120.267211,0.09990174
K2F750,種苗改良場,2025-12-30,24.225972,120.800917,0.012761897
C0UA80,大溪漁港,2025-12-30,24.941801,121.902955,0.7493632
C1AI60,國一39K邊坡,2025-12-30,25.064361,121.383836,0.01189784
C0W150,金寧,2025-12-30,24.457703,118.328989,0.00032554538
C0R960,內埔,2025-12-30,22.608483,120.570714,0.040735032
V2C250,八德合作社,2025-12-30,24.93775,121.266389,0.008669205
C2H9S0,龍南,2025-12-30,23.953536,120.833183,0.004273087
C0AH40,平等,2025-12-30,25.129142,121.577086,0.007679919
C0R540,佳冬,2025-12-30,22.419456,120.552375,0.061934453
466950,彭佳嶼,2025-12-30,25.627975,122.079744,0.006777794
C0A890,雙溪,2025-12-30,25.036003,121.864242,0.28551325
C0C480,桃園,2025-12-30,24.992425,121.323172,0.0138329
C0AH50,林口,2025-12-30,25.072181,121.38084,0.007901294
A2K360,水試臺西試驗場,2025-12-30,23.717231,120.190522,0.023484174
C2M960,外寮,2025-12-30,23.562643,120.665688,0.006392036
C0F9S0,烏日,2025-12-30,24.107058,120.624103,0.11294074
C2N180,鹿陶洋,2025-12-30,23.14325,120.48352,0.32677948
C0C490,八德,2025-12-30,24.928708,121.283289,0.008628566
C0R190,赤山,2025-12-30,22.592333,120.614306,0.040250927
C0T820,天祥,2025-12-30,24.179597,121.495639,0.17283544
C1F9E1,龍安,2025-12-30,24.1605,120.831961,0.011162173
C2SD50,順那,2025-12-30,23.04166,121.29332,0.002441067
C0V820,小林,2025-12-30,23.148408,120.63325,0.12686858
C2G870,芳苑,2025-12-30,23.922303,120.320025,0.0008519905
C0E850,大河,2025-12-30,24.618069,120.948578,0.0053589637
C1U670,寒溪,2025-12-30,24.634,121.71691,0.7783489
C0N020,城西,2025-12-30,23.0568,120.0956,0.40757057
C1Z110,三棧,2025-12-30,24.11557,121.60501,0.036737245
C0R280,檳榔,2025-12-30,22.076078,120.836777,0.035329547
C2H9J0,中台,2025-12-30,23.9996,120.938739,0.017111601
C0F9L0,后里,2025-12-30,24.310436,120.729725,0.031167451
467441,高雄,2025-12-30,22.730432,120.312516,0.15001453
C0Z180,新城,2025-12-30,24.040486,121.604878,0.08517242
C0D540,橫山,2025-12-30,24.71116,121.11693,0.015406511
C1D420,太閣南,2025-12-30,24.632808,121.160575,0.0016735124
C1E770,公館,2025-12-30,24.526914,120.830806,0.0063551464
CAN130,水試所海水繁養殖中心,2025-12-30,23.120802,120.07968,0.4301363
C1I430,翠華,2025-12-30,24.191961,121.224339,0.0004893561
C1M400,菜瓜坪,2025-12-30,23.251928,120.576103,0.23796438
C0G730,二林,2025-12-30,23.903325,120.376081,0.020008089
72M360,南改義竹分場,2025-12-30,23.360694,120.279361,0.6214945
V2K620,麥寮合作社,2025-12-30,23.753836,120.294783,0.14535324
C0Z070,舞鶴,2025-12-30,23.46811,121.37407,0.0072029517
C0B040,大武崙,2025-12-30,25.166676,121.706993,0.2900071
C1Z030,紅葉,2025-12-30,23.493119,121.338806,0.009902462
C1I050,丹大,2025-12-30,23.753747,121.141147,0.0004480313
C0I080,信義,2025-12-30,23.689694,120.851036,0.1017737
C2TB80,庄子底,2025-12-30,23.71794,121.49438,0.021388397
C0D750,樂山林道6k,2025-12-30,24.49999,121.08773,0.00045115603
C2M920,朴子農改,2025-12-30,23.469889,120.259383,0.67122203
C2A880,福隆,2025-12-30,25.017842,121.942083,0.39150348
C0Z160,鳳林,2025-12-30,23.746114,121.453411,0.018959308
C0UB80,翠峰林道6K,2025-12-30,24.49773,121.568625,0.0005847316
C0V210,復興,2025-12-30,23.222403,120.806089,0.038986854
C0H990,昆陽,2025-12-30,24.121322,121.273642,0.0003597589
C0R741,獅子,2025-12-30,22.202308,120.705236,0.0062898877
C0S710,鹿野,2025-12-30,22.917711,121.122994,0.001353934
C0I530,小奇萊,2025-12-30,24.131764,121.295717,0.00037783655
C0FA70,大雪山埡口,2025-12-30,24.26867,121.03062,0.0004024657
C2K630,荷苞,2025-12-30,23.657717,120.595144,0.078315556
C0Z080,富源,2025-12-30,23.587642,121.378225,0.012392623
C2M9E0,旺來山,2025-12-30,23.555153,120.486463,0.07425094
C0SB10,美和,2025-12-30,22.682078,121.060236,0.025987728
C2K620,馬光農場,2025-12-30,23.721453,120.378864,0.48406628
C1I140,卡奈托灣,2025-12-30,23.754364,121.087872,0.001604401
C0I520,玉山風口,2025-12-30,23.470489,120.955994,0.00027102954
C1G691,下水埔,2025-12-30,23.816114,120.5676,0.6295315
C0X110,臺南市南區,2025-12-30,22.961189,120.188378,0.7206747
C0V680,仁武,2025-12-30,22.701083,120.347722,0.15096794
C2G840,北斗,2025-12-30,23.877586,120.514222,0.28424558
C2TB90,長橋,2025-12-30,23.6874,121.46186,0.017809886
C0R900,竹坑,2025-12-30,22.1385,120.7022,0.0070649893
C0G860,社頭,2025-12-30,23.897647,120.5862,0.48622835
C0X150,安定,2025-12-30,23.102614,120.227839,0.8430999
C0R590,里港,2025-12-30,22.77919,120.49459,0.7643075
C0E610,馬都安,2025-12-30,24.451272,120.930192,0.0059152623
C0E550,明德,2025-12-30,24.583486,120.885411,0.031488046
C0R150,三地門,2025-12-30,22.709889,120.639944,0.07179814
C0G910,花壇,2025-12-30,24.032076,120.549461,0.20387618
C1D400,鳥嘴山,2025-12-30,24.71909,121.28387,0.0028747332
C0K500,元長,2025-12-30,23.64981,120.315024,0.22634068
C0F0B0,石岡,2025-12-30,24.276061,120.777644,0.029392412
C2V250,甲仙,2025-12-30,23.080106,120.591758,0.34477416
C0SA20,金崙山,2025-12-30,22.567419,120.959667,0.0006122964
C0V350,溪埔,2025-12-30,22.738578,120.446797,0.5386823
C0M660,溪口,2025-12-30,23.604131,120.403569,0.66316175
C1S880,壽卡,2025-12-30,22.238911,120.858903,0.0020879218
72D680,桃改新埔分場,2025-12-30,24.834444,121.066111,0.0053764475
