站號,站名,日期,lat,lon,BlastGRU-TW
C0R710,龍磐,2025-01-09,21.931672,120.838942,0.00085409044
C1F9D1,白毛台,2025-01-09,24.158325,120.886933,0.005423997
C1O850,環湖,2025-01-09,23.148617,120.418633,0.013073855
C0U710,太平山,2025-01-09,24.505486,121.525656,0.00031933084
C0V880,興達,2025-01-09,22.8778,120.2127,0.00186152
C0S890,關山,2025-01-09,23.0395,121.175017,0.002495409
K2F750,種苗繁殖,2025-01-09,24.225972,120.800917,0.004141291
C1Z130,銅門,2025-01-09,23.965694,121.492842,0.0020417222
CAN140,六官養殖協會,2025-01-09,23.22881,120.29962,0.003888159
C0X180,山上,2025-01-09,23.0757,120.363253,0.008291325
C1M480,獨立山,2025-01-09,23.537022,120.607797,0.001540438
C0X220,學甲,2025-01-09,23.230367,120.182187,0.0024437262
C0R170,屏東,2025-01-09,22.660269,120.494072,0.0345448
C0S950,七塊厝,2025-01-09,22.954453,121.229922,0.002112947
C2E540,後龍,2025-01-09,24.606489,120.783933,0.00067613274
C0V400,阿公店,2025-01-09,22.804194,120.355528,0.015038553
C0R440,大漢山,2025-01-09,22.405264,120.753181,0.00028033202
C1F9B1,桐林,2025-01-09,24.066172,120.735194,0.009184216
C1I450,望鄉山,2025-01-09,23.594153,120.944286,0.00025770674
B2E890,畜試北區分所,2025-01-09,24.527806,120.770972,0.00087453553
C0R750,四林格山,2025-01-09,22.076989,120.802439,0.00034347302
C1I121,大鞍,2025-01-09,23.678381,120.760017,0.00080262765
72U480,花改蘭陽分場,2025-01-09,24.686306,121.716583,0.007533503
C0R620,墾雷,2025-01-09,21.900836,120.855269,0.0005190896
A2C560,農工中心,2025-01-09,24.985917,121.239833,0.000574904
C0V740,旗山,2025-01-09,22.888614,120.483597,0.042171042
C0Z061,玉里,2025-01-09,23.3215,121.339656,0.0059775724
C0S840,南田,2025-01-09,22.279725,120.889208,0.0006350747
C1I470,杉林溪,2025-01-09,23.639517,120.786444,0.0006072535
C1X040,東原,2025-01-09,23.291597,120.463822,0.008078165
C0R660,枋寮,2025-01-09,22.367722,120.590647,0.071893625
C1R120,上德文,2025-01-09,22.763272,120.704442,0.00881497
C0UA00,土場,2025-01-09,24.576533,121.495333,0.0026766276
C0N030,四草,2025-01-09,23.0235,120.1116,0.0024682225
C0V650,彌陀,2025-01-09,22.783806,120.246361,0.0035011403
82S580,茶改東部分場,2025-01-09,22.907694,121.130139,0.0038547833
C0V640,湖內,2025-01-09,22.887139,120.2445,0.001818479
C0R910,下寮,2025-01-09,22.3929,120.5548,0.071893625
C0Z020,明里,2025-01-09,23.208717,121.262342,0.0045137573
C0M770,嘉義梅山,2025-01-09,23.585398,120.555587,0.0061891996
G2F820,農業試驗所,2025-01-09,24.031261,120.688133,0.0075913356
C1E511,新開,2025-01-09,24.347703,120.827019,0.002506988
G2F820,農試所(霧峰),2025-01-09,24.031261,120.688133,0.0075913356
C1I070,和社,2025-01-09,23.591131,120.888861,0.015376297
C2F000,大肚,2025-01-09,24.15295,120.572117,0.002885951
C1S850,豐南,2025-01-09,23.122139,121.262389,0.0013777583
C2A920,富貴角,2025-01-09,25.263783,121.565258,0.0008524936
CAH030,茶改場竹圍站,2025-01-09,23.860083,120.637528,0.008921732
C0T960,光復,2025-01-09,23.660694,121.424964,0.0029248109
C0R720,旭海,2025-01-09,22.205403,120.887614,0.0004885382
C0V710,苓雅,2025-01-09,22.622742,120.330669,0.029938249
CAC040,拉拉山,2025-01-09,24.699317,121.427133,0.00041646947
C0V790,萬山,2025-01-09,22.905944,120.688056,0.0070243366
U2HA30,臺大和社,2025-01-09,23.590856,120.888864,0.015376297
C0Z100,東華,2025-01-09,23.89525,121.549833,0.004180723
V2K610,大庄合作社,2025-01-09,23.8068,120.367939,0.0014486491
C0V900,汕尾,2025-01-09,22.4782,120.4151,0.07388411
C1R630,龍泉,2025-01-09,22.66701,120.59091,0.17765497
C1AC50,關渡,2025-01-09,25.133486,121.469331,0.0014526568
C2O810,曾文,2025-01-09,23.219681,120.497328,0.010594319
C1F9J1,清水林,2025-01-09,24.071242,120.820419,0.0018506709
C2A650,火燒寮,2025-01-09,25.002719,121.742892,0.0030173499
C1I220,樟湖,2025-01-09,23.905333,120.846983,0.0010296882
C0Z300,東里,2025-01-09,23.26853,121.30547,0.0058177607
C0V310,美濃,2025-01-09,22.898742,120.519153,0.045276206
C1V590,新發,2025-01-09,23.057019,120.646064,0.0024999103
72S590,東改賓朗果園,2025-01-09,22.813889,121.071278,0.003070799
82A750,茶改北部分場,2025-01-09,24.955778,121.631222,0.0025401928
C1A750,石碇服務區,2025-01-09,25.00872,121.646242,0.00695468
C0X300,鹿寮,2025-01-09,23.386047,120.477331,0.009275933
G2AI50,關渡,2025-01-09,25.11575,121.492,0.0010398543
C1S800,華源,2025-01-09,22.657883,121.02325,0.014571853
C1V160,達卡努瓦,2025-01-09,23.279811,120.705319,0.0011903646
C2M410,馬頭山,2025-01-09,23.324361,120.582017,0.00510472
C0V850,蚵仔寮,2025-01-09,22.7256,120.2527,0.010400425
C0S740,池上,2025-01-09,23.119628,121.209469,0.0034508924
C1V390,尖山,2025-01-09,22.813153,120.367789,0.0118104825
C0N010,鯤鯓國小,2025-01-09,23.1879,120.0889,0.0020401136
C0R550,新埤,2025-01-09,22.467947,120.582894,0.061625216
C0SA60,知本（水試所）,2025-01-09,22.702394,121.082761,0.03175278
C0T9I0,豐濱,2025-01-09,23.583897,121.514806,0.0033867273
C0UB00,淡江大學蘭陽校園,2025-01-09,24.823239,121.730383,0.0020955505
C0T9N0,富里,2025-01-09,23.171639,121.249378,0.0038007984
U2HA50,臺大竹山,2025-01-09,23.756972,120.681556,0.008644538
C0V840,鳳鼻頭,2025-01-09,22.5083,120.3591,0.06399175
C0X140,西港,2025-01-09,23.125608,120.203108,0.0037187166
72D080,桃改五峰分場,2025-01-09,24.612194,121.157167,0.00074691576
C0V530,阿蓮,2025-01-09,22.883208,120.327508,0.0054835714
C1O880,關山,2025-01-09,23.173397,120.594092,0.01303861
C1I030,武界,2025-01-09,23.913225,121.052483,0.0017339315
C0R520,崁頂,2025-01-09,22.514781,120.506914,0.16150455
C0R341,牡丹,2025-01-09,22.130036,120.792639,0.000582049
C0R930,萬丹,2025-01-09,22.5885,120.4851,0.060577743
C0S760,紅石,2025-01-09,23.069131,121.126219,0.00051938876
C1M610,石磐龍,2025-01-09,23.496606,120.663506,0.0020804151
C0UA10,鴛鴦湖,2025-01-09,24.590269,121.412228,0.00049802795
V2C260,八德蔬果,2025-01-09,24.978508,121.281819,0.00091239635
C0R800,丹路,2025-01-09,22.204481,120.750989,0.00064835226
C1A630,下盆,2025-01-09,24.771003,121.538622,0.0013608459
B2N890,畜產試驗所,2025-01-09,23.058972,120.336406,0.0047058035
C0UA30,白嶺,2025-01-09,24.527819,121.519031,0.0004950511
C1V580,溪南(特生中心),2025-01-09,23.084972,120.788475,0.0013467579
C1T970,大農,2025-01-09,23.615233,121.413331,0.0029759647
E2S960,林試太麻里2,2025-01-09,22.598014,120.989761,0.022849206
C0R650,竹田,2025-01-09,22.58486,120.54344,0.17989641
C1H900,清流,2025-01-09,24.080775,120.962997,0.0014236871
C1C510,水尾,2025-01-09,24.940081,121.087161,0.0004075481
C0O970,虎頭埤,2025-01-09,23.021375,120.347878,0.0071835206
C0X250,新營,2025-01-09,23.310689,120.316681,0.003139202
C0V700,三民,2025-01-09,22.645017,120.311233,0.007694362
C0U870,大礁溪,2025-01-09,24.791042,121.675047,0.0015909601
A2K570,古坑花卉中心,2025-01-09,23.63353,120.55239,0.016555894
C0M860,新美,2025-01-09,23.338017,120.683169,0.009306526
C1E701,八卦,2025-01-09,24.491756,120.927619,0.001677721
C0S960,香蘭,2025-01-09,22.587569,120.993375,0.022849206
C0R260,春日,2025-01-09,22.370361,120.628306,0.09205763
72G600,臺中農改場,2025-01-09,24.003028,120.534389,0.004543417
C0Z210,瑞穗,2025-01-09,23.5239,121.39021,0.0040041655
C0M820,達邦,2025-01-09,23.453994,120.749517,0.0018900963
C0V860,南寮,2025-01-09,22.7616,120.2339,0.010546951
C0R920,塭仔,2025-01-09,22.4169,120.5197,0.06833334
C0R470,高樹,2025-01-09,22.826389,120.600806,0.02930808
C0R680,佳樂水,2025-01-09,21.993578,120.861633,0.0008860514
C1O870,大棟山,2025-01-09,23.31157,120.52226,0.0009425931
C0Z190,富世,2025-01-09,24.14743,121.6297,0.00154836
B2U990,畜試東區分所,2025-01-09,24.669039,121.832561,0.036236547
C0R240,來義,2025-01-09,22.527306,120.625111,0.087503
C1R610,西大武山,2025-01-09,22.617719,120.7322,0.00038511545
C0M700,竹崎,2025-01-09,23.526178,120.555508,0.008309753
C2E880,三義,2025-01-09,24.405478,120.749819,0.0012729384
C0Z150,吉安光華,2025-01-09,23.930925,121.595153,0.0032062605
C1D640,外坪(五指山),2025-01-09,24.644447,121.090961,0.002003337
72T250,花蓮農改場,2025-01-09,23.975222,121.563889,0.001980485
C1T950,太安,2025-01-09,23.666719,121.370128,0.0008176722
C0SA10,檳榔四格山,2025-01-09,22.810031,121.109308,0.002647097
C1T830,布洛灣,2025-01-09,24.17184,121.57127,0.0064916057
C1U920,思源,2025-01-09,24.393125,121.347214,0.00044681726
C0R860,鼻頭,2025-01-09,22.1043,120.8979,0.0038891418
C0UB20,壯圍,2025-01-09,24.7359,121.8163,0.00887998
C0R790,九棚,2025-01-09,22.14195,120.889281,0.0007894138
C0W110,東莒,2025-01-09,25.9652,119.98069,0.0004348035
C1U930,粉鳥林,2025-01-09,24.497088,121.842479,0.018430468
C1I211,蘆竹湳,2025-01-09,23.934019,120.811994,0.0058685616
C0S830,長濱,2025-01-09,23.286817,121.411975,0.0040176385
C1F9F1,伯公龍,2025-01-09,24.272392,120.849047,0.004821359
C1I440,新高口,2025-01-09,23.478744,120.878939,0.0002896774
C0O840,王爺宮,2025-01-09,23.222064,120.40085,0.0026375277
C0T9G0,鳳林山,2025-01-09,23.735269,121.420131,0.0015601203
C0X080,佳里,2025-01-09,23.173039,120.145086,0.0020401175
C0Z310,清水斷崖,2025-01-09,24.218294,121.689142,0.0027083124
C1S820,金峰,2025-01-09,22.590969,120.933236,0.0099806115
C2K240,草嶺,2025-01-09,23.59555,120.693461,0.0028874646
C1SA70,都蘭,2025-01-09,22.87794,121.226881,0.0047231996
C1A760,坪林交控,2025-01-09,24.94284,121.713442,0.00229439
C0SA90,達仁林場,2025-01-09,22.264347,120.823972,0.0003610241
C1R290,石門山,2025-01-09,22.112611,120.756597,0.00045958205
42HA10,萬大發電廠,2025-01-09,23.978875,121.139639,0.0013524959
C0R890,山海,2025-01-09,21.9878,120.7091,0.00042993348
C0T9A0,月眉山,2025-01-09,23.809928,121.539828,0.0015055528
C1Z240,中平林道,2025-01-09,23.42115,121.26763,0.0022106196
U2H480,溪頭,2025-01-09,23.670306,120.798194,0.0020117413
C0M880,好美里,2025-01-09,23.3364,120.138,0.0026623823
C0T9E0,大坑,2025-01-09,23.880628,121.581981,0.0016419527
C1E900,國一N128K,2025-01-09,24.560997,120.844186,0.0007313176
C1U850,觀音海岸,2025-01-09,24.38319,121.77856,0.0022512346
C0U950,鶯子嶺,2025-01-09,24.89754,121.79244,0.00053736044
C0O900,善化,2025-01-09,23.112883,120.297219,0.0053442824
E2P980,林試六龜中心,2025-01-09,22.991703,120.645722,0.0075935773
C1I310,西巒,2025-01-09,23.754486,120.883956,0.0017190253
C0R830,高士,2025-01-09,22.121825,120.836781,0.0004173792
C1I101,溪頭,2025-01-09,23.661789,120.807647,0.0004785648
C1H920,長豐,2025-01-09,24.102039,120.879897,0.0024385464
C0V360,內門,2025-01-09,22.975481,120.466769,0.014141521
C0R850,林邊,2025-01-09,22.4634,120.5339,0.06952123
C0U910,冬山,2025-01-09,24.63373,121.7937,0.036236547
C1E721,泰安,2025-01-09,24.489017,120.968036,0.0011097182
82H320,茶改中部分場,2025-01-09,23.875611,120.913583,0.0054957913
C0M750,布袋,2025-01-09,23.380878,120.167789,0.0030538235
C1S860,利嘉,2025-01-09,22.809417,121.050528,0.0026094387
72C440,桃園農改,2025-01-09,24.950944,121.030583,0.00042787366
E2S980,林試太麻里1,2025-01-09,22.598922,120.980044,0.016097028
C0X170,關廟,2025-01-09,22.963017,120.327797,0.0063732266
C0V720,林園,2025-01-09,22.507747,120.394511,0.06029675
C1I510,線浸林道,2025-01-09,23.761508,120.832956,0.0011411064
B2Q810,畜試南區分所,2025-01-09,21.945583,120.802167,0.0009331097
C0S790,金崙,2025-01-09,22.538122,120.966875,0.0058198962
C0M850,表湖,2025-01-09,23.24186,120.64166,0.0030375854
C0S770,大溪山,2025-01-09,22.478475,120.943325,0.00093689363
C0T790,大禹嶺,2025-01-09,24.186117,121.316086,0.00034816202
C0T9B0,水源,2025-01-09,23.991861,121.537169,0.0009003583
C0R840,牡丹池山,2025-01-09,22.168389,120.841225,0.0003311514
C1I131,桶頭,2025-01-09,23.641944,120.654117,0.0041032033
CAL110,布袋國中,2025-01-09,23.35893,120.18026,0.0030538235
C0Z290,赤柯山,2025-01-09,23.36893,121.38293,0.0009193435
C0X280,將軍,2025-01-09,23.214999,120.13577,0.0025178182
C0S690,太麻里,2025-01-09,22.60902,120.98533,0.002067116
C0U880,北關,2025-01-09,24.9072,121.8734,0.008253441
C1H860,瑞岩,2025-01-09,24.123772,121.18345,0.00046849597
C0U970,大福,2025-01-09,24.80064,121.81389,0.0038012336
C1E670,南礦,2025-01-09,24.538278,121.002836,0.001079464
C1E461,松安,2025-01-09,24.397972,120.986022,0.0012455033
72G600,臺中農改,2025-01-09,24.003028,120.534389,0.004543417
C2N160,西拉雅風管處,2025-01-09,23.189481,120.335297,0.0056752795
E2S960,林試太麻里2,2025-01-09,22.598,120.99775,0.024063574
C1I020,萬大,2025-01-09,23.979817,121.132261,0.0020622255
C0U940,羅東,2025-01-09,24.68184,121.74934,0.007973238
C1I500,大尖山,2025-01-09,23.858572,120.994889,0.0005356146
E2K600,四湖植物園,2025-01-09,23.676986,120.163433,0.0004456101
C0S730,綠島,2025-01-09,22.6672,121.47533,0.00037098897
12Q970,東港工作站,2025-01-09,22.479997,120.466058,0.07388417
C1TA00,太魯閣,2025-01-09,24.15773,121.6236,0.0014939443
C0R600,舊泰武,2025-01-09,22.588194,120.664944,0.0063625453
C1I260,北坑,2025-01-09,23.9246,121.006903,0.00486551
C1I230,九份二山,2025-01-09,23.961944,120.845,0.0024646372
C2A660,瑞芳,2025-01-09,25.113169,121.801147,0.0022997076
C0R270,琉球嶼,2025-01-09,22.332244,120.362236,0.017635101
C1T990,高寮,2025-01-09,23.394239,121.356808,0.0050948346
C1Z140,荖溪,2025-01-09,23.890575,121.45964,0.0024792454
C1I201,中心崙,2025-01-09,23.728722,120.712097,0.0027930243
C1I400,凌霄,2025-01-09,24.018778,121.004456,0.0011384636
C1M640,十字,2025-01-09,23.492153,120.753683,0.0005937639
G2P820,農試鳳山分所,2025-01-09,22.646611,120.356083,0.0068535954
C0Z270,蕃薯寮,2025-01-09,23.73835,121.540108,0.0032929762
C2I090,鳳凰,2025-01-09,23.728081,120.787347,0.003536076
C0U990,員山,2025-01-09,24.74435,121.72247,0.008389664
C0V770,大社,2025-01-09,22.730306,120.346639,0.009325635
C0X120,麻豆,2025-01-09,23.183289,120.248611,0.0050305733
C0S980,勝林山,2025-01-09,22.430439,120.8938,0.0013610836
C0V730,大寮,2025-01-09,22.605614,120.395717,0.027746841
C0R570,麟洛,2025-01-09,22.65078,120.52719,0.0345448
CAG100,王功漁港,2025-01-09,23.96824,120.32586,0.00029149788
C0X290,北門,2025-01-09,23.267772,120.125481,0.0025178231
C2F930,大甲,2025-01-09,24.347667,120.640403,0.0005101485
C0U780,五結,2025-01-09,24.68637,121.79794,0.00887998
C1I250,鯉潭,2025-01-09,23.961922,120.991131,0.003711738
C0R130,阿禮,2025-01-09,22.742908,120.743678,0.0037122332
C0X100,臺南市北區,2025-01-09,23.010394,120.194228,0.0024007293
C0S920,金峰嘉蘭,2025-01-09,22.594789,120.960825,0.015507623
C0V490,新興,2025-01-09,22.627422,120.298803,0.029938249
72N100,臺南農改,2025-01-09,23.0605,120.342194,0.0047058035
C0V440,鳳山,2025-01-09,22.646653,120.356122,0.006853589
C1T940,大觀,2025-01-09,23.714206,121.373133,0.0019775226
72T250,花蓮農改,2025-01-09,23.975222,121.563889,0.001980485
C0R100,尾寮山,2025-01-09,22.833111,120.683889,0.007744283
A2K630,臺大雲林校區,2025-01-09,23.730628,120.423903,0.0032831402
E2P990,林試扇平站,2025-01-09,22.9677,120.6857,0.051896423
C1Z040,立山,2025-01-09,23.443356,121.327375,0.0033346259
C0W130,花嶼,2025-01-09,23.40007,119.32276,0.00030592558
82C160,茶改場,2025-01-09,24.908472,121.185333,0.00048949494
C0Z320,清水林道,2025-01-09,23.27125,121.188272,0.0022740792
C0R760,南仁湖,2025-01-09,22.084681,120.863353,0.00045958205
C0M800,茶山,2025-01-09,23.299075,120.664767,0.021119382
72K220,南改斗南分場,2025-01-09,23.634556,120.477333,0.0037231534
72AI40,桃改樹林分場,2025-01-09,24.944503,121.386972,0.0011547767
C0S910,蘭嶼燈塔,2025-01-09,22.081197,121.503117,0.0004343553
C0U900,內城,2025-01-09,24.71813,121.68766,0.0067892754
C0X320,柳營,2025-01-09,23.253328,120.375253,0.004821206
C0M790,新港,2025-01-09,23.553269,120.345728,0.002734478
C0SA30,都歷,2025-01-09,23.020333,121.323642,0.0033819247
C0R730,大坪頂,2025-01-09,22.024633,120.69355,0.0019393455
C0T870,鯉魚潭,2025-01-09,23.935639,121.508944,0.002186211
C1V170,排雲,2025-01-09,23.463619,120.954147,0.000252287
C2H950,中寮,2025-01-09,23.884447,120.766406,0.005293324
C0R350,貓鼻頭,2025-01-09,21.921774,120.7358,0.0005577113
C0V660,岡山,2025-01-09,22.797078,120.294958,0.0035011403
C1H941,雙冬,2025-01-09,23.967378,120.802189,0.0045322166
C0Z280,德武,2025-01-09,23.47426,121.41071,0.003182322
C0R700,枋山,2025-01-09,22.246844,120.661086,0.0063635074
E2H360,蓮華池,2025-01-09,23.918333,120.885278,0.0033733596
C0W140,金沙,2025-01-09,24.488292,118.408778,0.000631603
C2A540,四堵,2025-01-09,24.8926,121.745736,0.0012603741
C0R220,潮州,2025-01-09,22.534361,120.54,0.15164495
U2HA40,臺大內茅埔,2025-01-09,23.689722,120.851117,0.088372886
C0U960,翠峰湖,2025-01-09,24.510856,121.608044,0.00034387797
E2HA20,林試畢祿溪站,2025-01-09,24.226944,121.308522,0.00037694717
C0V890,前鎮,2025-01-09,22.5718,120.3117,0.03182055
C1F941,雪嶺,2025-01-09,24.280586,121.026642,0.00037913455
C0M760,民雄,2025-01-09,23.551754,120.428457,0.0033641527
C0UA40,西德山,2025-01-09,24.560647,121.752608,0.0006789517
C1T920,中興,2025-01-09,23.769503,121.498653,0.0041314387
C2F860,梨山,2025-01-09,24.247522,121.243669,0.00037132084
C0R320,車城,2025-01-09,22.0744,120.716247,0.00024012398
C1S870,南美山,2025-01-09,23.15025,121.382333,0.0039151227
C1U501,牛鬥,2025-01-09,24.637836,121.573656,0.005134486
C0M730,嘉義市東區,2025-01-09,23.457673,120.460531,0.018279867
C0S700,知本,2025-01-09,22.684866,121.005642,0.002315114
C1N001,沙崙,2025-01-09,22.935472,120.309406,0.006861925
C0V760,橋頭,2025-01-09,22.757806,120.30575,0.009816915
C0X210,白河,2025-01-09,23.347466,120.414427,0.011686471
C0S810,東河,2025-01-09,22.972672,121.303986,0.0038110455
C0R670,楓港,2025-01-09,22.190131,120.692156,0.00073834026
C0UB10,蘇澳,2025-01-09,24.5969,121.8571,0.034303386
C0M740,六腳,2025-01-09,23.492871,120.290625,0.0031345335
C1R250,力里,2025-01-09,22.428117,120.629228,0.16998357
C2FA00,烏石坑,2025-01-09,24.273503,120.947617,0.003051094
C0V620,永安,2025-01-09,22.82315,120.236856,0.0035011403
C1I330,楓樹林,2025-01-09,23.986803,121.076117,0.0015789904
C0W200,湖西,2025-01-09,23.596314,119.67275,0.0003051013
72Q010,高雄農改場,2025-01-09,22.709333,120.525889,0.05022822
C0SA40,瑞和,2025-01-09,22.974361,121.156697,0.0033813978
C2V260,月眉,2025-01-09,22.971003,120.539853,0.016978966
C0V450,鳳森,2025-01-09,22.545064,120.392592,0.041621994
C0U720,南山,2025-01-09,24.43742,121.38167,0.0012039716
A2N290,臺南蘭花園區,2025-01-09,23.340258,120.379661,0.0042914385
C0R560,新園,2025-01-09,22.5434,120.461558,0.06029675
C0U890,三星,2025-01-09,24.66812,121.65302,0.01133753
C1V300,御油山,2025-01-09,23.001983,120.715364,0.0012044108
C0U600,礁溪,2025-01-09,24.817539,121.765608,0.005036094
C1T980,龍澗,2025-01-09,24.023289,121.411328,0.0025657718
C0SA00,歷坵,2025-01-09,22.520969,120.89185,0.0018052825
C0M710,東石,2025-01-09,23.458927,120.15385,0.0015423689
C0M780,鹿草,2025-01-09,23.41134,120.30835,0.0031084826
C0U520,雙連埤,2025-01-09,24.753033,121.641303,0.0015606916
C0R480,長治,2025-01-09,22.693128,120.542622,0.028286183
C1V830,國三S383K,2025-01-09,22.781967,120.426475,0.019632602
12Q980,恆春工作站,2025-01-09,22.079678,120.714425,0.00024012353
C1O940,東山服務區,2025-01-09,23.286016,120.398472,0.005856606
C1U840,東澳嶺,2025-01-09,24.5378,121.8485,0.0017391242
C1D630,飛鳳山,2025-01-09,24.766464,121.119178,0.0007835187
C0S940,石寧山,2025-01-09,23.223772,121.406639,0.0069511184
C2M620,瑞里,2025-01-09,23.545133,120.675197,0.0013619518
C2O950,安南,2025-01-09,23.076694,120.144861,0.0014155431
C2E540,龍溪,2025-01-09,24.606489,120.783933,0.00067613274
C1V200,梅山,2025-01-09,23.268447,120.823556,0.009734459
C0T9H0,加路蘭山,2025-01-09,23.682947,121.5274,0.0014328334
C2O930,玉井,2025-01-09,23.126042,120.46055,0.008291325
C1F911,新伯公,2025-01-09,24.221361,120.841069,0.005351709
C0R490,九如,2025-01-09,22.7405,120.490503,0.053489476
C0X200,左鎮,2025-01-09,23.056758,120.408522,0.007542418
C1F891,稍來,2025-01-09,24.265689,121.001142,0.0003041774
72N240,七股研究中心,2025-01-09,23.081672,120.062894,0.0014455443
C0M690,水上,2025-01-09,23.419734,120.388909,0.0048831995
C0V690,鼓山,2025-01-09,22.623325,120.275575,0.02993831
C0O860,大內,2025-01-09,23.11885,120.36083,0.004906365
C0Z200,萬榮,2025-01-09,23.709219,121.420106,0.0062425076
C0T9D0,和中,2025-01-09,24.26676,121.74103,0.025197785
C1O921,楠西,2025-01-09,23.183511,120.484083,0.0109485835
C0V810,左營,2025-01-09,22.67491,120.28491,0.007694362
C0UA70,桃源谷,2025-01-09,24.962606,121.888875,0.0015832026
C0X130,官田,2025-01-09,23.193217,120.315422,0.005913297
C1H000,翠峰,2025-01-09,24.109397,121.205211,0.00040231054
C0UA90,石城,2025-01-09,24.980444,121.951214,0.015036626
C1E681,南勢山,2025-01-09,24.421669,120.923831,0.0010360839
C1K540,口湖,2025-01-09,23.585344,120.180517,0.0005906361
C0R780,滿州,2025-01-09,22.024403,120.839892,0.000766719
C0V870,文安,2025-01-09,22.8025,120.2164,0.0036152524
C0U650,玉蘭,2025-01-09,24.675286,121.587061,0.0016892457
C0R640,東港,2025-01-09,22.46247,120.44074,0.07388417
K2E360,苗栗農改,2025-01-09,24.495722,120.829111,0.00081801385
C0S660,下馬,2025-01-09,23.150427,121.070312,0.00087012566
C1H9B1,阿眉,2025-01-09,24.1263,120.994672,0.000417351
C0UA20,多加屯,2025-01-09,24.368614,121.373189,0.0004366552
72V140,高改旗南分場,2025-01-09,22.857861,120.516667,0.045276206
C0U980,坪林石牌,2025-01-09,24.86478,121.77396,0.0011870194
C0T900,西林,2025-01-09,23.8119,121.441458,0.0030108632
C1I150,青雲,2025-01-09,23.793361,120.949378,0.014516434
C1V780,多納林道,2025-01-09,22.888028,120.737917,0.008448914
C0Z330,安通山,2025-01-09,23.290728,121.348528,0.0019404829
C2G640,鹿港,2025-01-09,24.0753,120.430481,0.0012422819
C1E890,國三N149K,2025-01-09,24.463414,120.680019,0.00045248237
C1R110,口社,2025-01-09,22.770111,120.645222,0.20511411
C1M870,國三N285K,2025-01-09,23.550319,120.505833,0.008060241
C1E480,鳳美,2025-01-09,24.554803,121.034747,0.0025155812
C0T9M0,靜浦,2025-01-09,23.455167,121.495028,0.0047834422
C1F871,上谷關,2025-01-09,24.203483,121.018644,0.0023159028
C0R940,加祿堂,2025-01-09,22.3363,120.6217,0.003877201
C0W220,北竿,2025-01-09,26.220358,119.974881,0.00044475627
C0O960,崎頂,2025-01-09,22.959547,120.369317,0.00439956
C0S750,向陽,2025-01-09,23.248397,120.986133,0.00044067242
C0T9F0,水璉,2025-01-09,23.797131,121.542514,0.002448859
C1M600,頭凍,2025-01-09,23.406364,120.603339,0.0016723926
C1D380,新埔,2025-01-09,24.84745,121.03834,0.00049514475
C0V750,路竹,2025-01-09,22.854997,120.259439,0.0017788698
C0N050,蚵寮,2025-01-09,23.301,120.1104,0.0026623823
72M700,南改鹿草分場,2025-01-09,23.416869,120.283061,0.0032227924
C1SA50,利嘉林道,2025-01-09,22.82325,121.009389,0.00092396914
C1V340,大津,2025-01-09,22.888322,120.645986,0.038321946
C0W180,七美,2025-01-09,23.219333,119.444892,0.00029392634
C1F9C1,白冷,2025-01-09,24.182844,120.929889,0.0023053784
K2E710,苗改生物防治研究中心,2025-01-09,24.422861,120.871833,0.0027224075
C0N040,蘆竹溝,2025-01-09,23.2344,120.0961,0.0025178231
C2W230,畜試所澎湖,2025-01-09,23.628342,119.513206,0.00031114637
C0R880,後壁湖,2025-01-09,21.9457,120.7457,0.00041926463
C1I280,埔中,2025-01-09,23.820778,120.642594,0.005897518
C0W190,望安,2025-01-09,23.380564,119.494075,0.00028893244
C0Z170,卓溪,2025-01-09,23.3443,121.3029,0.0038430896
82H840,茶改南部分場,2025-01-09,23.762528,120.7405,0.0069429865
C1T800,洛韶,2025-01-09,24.204558,121.453956,0.00062418473
C1T810,慈恩,2025-01-09,24.192044,121.388386,0.00053337833
C1E451,象鼻,2025-01-09,24.368617,120.940228,0.0011086506
C1I290,豐丘,2025-01-09,23.668178,120.887417,0.0017421991
C1I320,奧萬大,2025-01-09,23.952956,121.178556,0.0014011847
C0U770,南澳,2025-01-09,24.44935,121.81022,0.005303726
C0V800,六龜,2025-01-09,22.997889,120.633583,0.008349321
C1G9D0,國一S218K,2025-01-09,23.890641,120.493253,0.0033122855
C2F9A0,中竹林,2025-01-09,24.103556,120.751061,0.0028102107
C0X060,下營,2025-01-09,23.22695,120.256261,0.003888159
G2M350,農試溪口農場,2025-01-09,23.58565,120.408111,0.0034922261
C0U860,頭城,2025-01-09,24.85323,121.8308,0.0052545876
C0R580,南州,2025-01-09,22.48591,120.50274,0.07388417
72N100,臺南農改場,2025-01-09,23.0605,120.342194,0.0047058035
C0S900,蘭嶼高中,2025-01-09,22.04909,121.51214,0.00064867886
C1F9W0,德基,2025-01-09,24.254783,121.190261,0.00035556214
C1Z120,壽豐,2025-01-09,23.870853,121.508081,0.004180723
C0W160,烏坵,2025-01-09,24.9944,119.44956,0.00036534562
C1I240,外大坪,2025-01-09,23.958697,120.917931,0.0034762926
C1I550,國六W023K,2025-01-09,23.979067,120.867742,0.009374842
C0R870,興海,2025-01-09,21.9752,120.8439,0.0009331097
C0R140,瑪家,2025-01-09,22.682903,120.686639,0.023781385
C0X260,後壁,2025-01-09,23.366358,120.362326,0.0042914385
C0Z230,和平,2025-01-09,24.30717,121.77007,0.026495842
C1V570,吉東,2025-01-09,22.85422,120.5454,0.039398804
C2A560,福山,2025-01-09,24.776203,121.502811,0.0065169064
72S200,東改班鳩分場,2025-01-09,22.829528,121.077694,0.0033645206
72HA00,中改埔里分場,2025-01-09,23.903208,120.963364,0.0039561214
C0S930,延平,2025-01-09,22.902581,121.084058,0.0034697324
C0UA60,樟樹山,2025-01-09,24.41393,121.78325,0.0038034786
C1S670,摩天,2025-01-09,23.199503,121.027,0.00039967636
C0V630,茄萣,2025-01-09,22.906642,120.182608,0.00186152
C0X050,東河,2025-01-09,23.296598,120.385608,0.00649071
C0R770,保力,2025-01-09,22.071122,120.764111,0.001527979
G2L020,農試嘉義分所,2025-01-09,23.485028,120.473806,0.012903584
C0X240,關子嶺,2025-01-09,23.331169,120.508025,0.0030432977
C1V220,小關山,2025-01-09,23.154217,120.813603,0.001021531
C1F9G1,慶福山,2025-01-09,24.180853,120.848378,0.0031352623
C0Z250,瑞穗林道,2025-01-09,23.49284,121.30688,0.0017100086
C0UA50,西帽山,2025-01-09,24.555361,121.802628,0.0011630296
C0X160,仁德,2025-01-09,22.968258,120.257689,0.0024708032
C1H971,六分寮,2025-01-09,23.92507,120.6378,0.002275782
C0W120,西嶼,2025-01-09,23.5626,119.468436,0.00030474807
C0S990,山豬窟,2025-01-09,22.318619,120.857372,0.00046874702
72Q010,高雄農改,2025-01-09,22.709333,120.525889,0.05022822
C0X190,安平,2025-01-09,22.993161,120.152181,0.0024007293
12J990,口湖工作站,2025-01-09,23.589978,120.180394,0.0005906361
C0O830,北寮,2025-01-09,23.079561,120.495008,0.02969091
C1D410,白蘭,2025-01-09,24.579364,121.079947,0.0009177637
C0S970,加津林,2025-01-09,22.416211,120.926942,0.0021942612
C0M810,里佳,2025-01-09,23.389125,120.716647,0.00067270757
C0U750,龜山島,2025-01-09,24.841667,121.953133,0.0008109018
C0R810,內獅,2025-01-09,22.305064,120.642986,0.004047727
C1M390,龍美,2025-01-09,23.406728,120.654417,0.0010535151
C1H840,國三N238K,2025-01-09,23.841008,120.707711,0.012543515
CAQ030,崎峰國小,2025-01-09,22.42565,120.49521,0.07388417
C2E520,大湖,2025-01-09,24.414939,120.870872,0.0024012348
C1E691,南湖,2025-01-09,24.40135,120.837533,0.001542225
C1V231,高中,2025-01-09,23.134911,120.716711,0.0021143348
C0R690,墾丁,2025-01-09,21.966756,120.810269,0.00048351966
C0R820,白鷺,2025-01-09,22.454275,120.666219,0.006846465
U2H480,臺大溪頭,2025-01-09,23.670306,120.798194,0.0020117413
C1V190,南天池,2025-01-09,23.27403,120.91176,0.00033390595
K2E360,苗栗農改場,2025-01-09,24.495722,120.829111,0.00081801467
CAJ050,海口故事園區,2025-01-09,23.57543,120.14121,0.0005906361
C0O990,媽廟,2025-01-09,22.99175,120.293525,0.0028067399
C0Z220,和平林道,2025-01-09,24.343922,121.656317,0.003050679
72C440,桃園農改場,2025-01-09,24.950944,121.030583,0.00042787366
C1E711,馬拉邦山,2025-01-09,24.367306,120.901656,0.001059577
C0M720,番路,2025-01-09,23.464657,120.554156,0.0056694266
C1A9N0,四十份,2025-01-09,24.934158,121.593283,0.002392076
C0U760,東澳,2025-01-09,24.52196,121.83318,0.015525038
C0X230,鹽水,2025-01-09,23.272621,120.247641,0.0025797298
C0V370,古亭坑,2025-01-09,22.893178,120.401947,0.011880898
C1I340,新興橋,2025-01-09,23.563333,120.868728,0.008119143
C0SA80,土坂,2025-01-09,22.453108,120.887572,0.0028355955
C0R160,鹽埔,2025-01-09,22.739558,120.530778,0.05022822
C1AI50,國三N016K,2025-01-09,25.034164,121.619664,0.0026519015
C1V600,藤枝,2025-01-09,23.071961,120.757042,0.001795692
C1E601,南勢,2025-01-09,24.572486,120.734842,0.0003539736
C0Z180,新城,2025-01-09,24.03946,121.60454,0.0020615836
C0O980,新市,2025-01-09,23.061614,120.298197,0.0053442824
C0Z050,佳心,2025-01-09,23.34567,121.21316,0.0011645001
C0V610,梓官,2025-01-09,22.760558,120.267211,0.009816915
K2F750,種苗改良場,2025-01-09,24.225972,120.800917,0.004141291
C0UA80,大溪漁港,2025-01-09,24.941801,121.902955,0.007722414
C1AI60,國一39K邊坡,2025-01-09,25.064361,121.383836,0.00086439244
C0W150,金寧,2025-01-09,24.457703,118.328989,0.00091086543
V2C250,八德合作社,2025-01-09,24.93775,121.266389,0.00082570553
C0R540,佳冬,2025-01-09,22.419456,120.552375,0.071893625
A2K360,水試臺西試驗場,2025-01-09,23.717231,120.190522,0.0005151255
B2N890,畜試所,2025-01-09,23.058972,120.336406,0.0047058035
C0R190,赤山,2025-01-09,22.592333,120.614306,0.16031182
C0T820,天祥,2025-01-09,24.179597,121.495639,0.002693946
C1F9E1,龍安,2025-01-09,24.1605,120.831961,0.0024234464
C0V820,小林,2025-01-09,23.148408,120.63325,0.005754343
C2G870,芳苑,2025-01-09,23.922303,120.320025,0.00029069194
C1U670,寒溪,2025-01-09,24.634,121.71691,0.021282736
C0N020,城西,2025-01-09,23.0568,120.0956,0.0024007293
C1Z110,三棧,2025-01-09,24.11557,121.60501,0.001463489
C0R280,檳榔,2025-01-09,22.076078,120.836777,0.0005691721
C1D420,太閣南,2025-01-09,24.632808,121.160575,0.0008850253
C1E770,公館,2025-01-09,24.526914,120.830806,0.00087453553
CAN130,水試所海水繁養殖中心,2025-01-09,23.120802,120.07968,0.0014455443
C1I430,翠華,2025-01-09,24.191961,121.224339,0.00041132997
C1M400,菜瓜坪,2025-01-09,23.251928,120.576103,0.016935859
72M360,南改義竹分場,2025-01-09,23.360694,120.279361,0.002950264
V2K620,麥寮合作社,2025-01-09,23.753836,120.294783,0.0017461394
C0Z070,舞鶴,2025-01-09,23.46811,121.37407,0.0027419236
C1Z030,紅葉,2025-01-09,23.493119,121.338806,0.0031249288
C1I050,丹大,2025-01-09,23.753747,121.141147,0.00034149014
C2A880,福隆,2025-01-09,25.017842,121.942083,0.016034901
C0Z160,鳳林,2025-01-09,23.746114,121.453411,0.0073739155
C0V210,復興,2025-01-09,23.222403,120.806089,0.023218323
C0R741,獅子,2025-01-09,22.202308,120.705236,0.0009137936
C0S710,鹿野,2025-01-09,22.917711,121.122994,0.0022618328
C0Z080,富源,2025-01-09,23.587642,121.378225,0.007091138
C1I140,卡奈托灣,2025-01-09,23.754364,121.087872,0.0010520078
C1G691,下水埔,2025-01-09,23.816114,120.5676,0.004483904
C0X110,臺南市南區,2025-01-09,22.961189,120.188378,0.0024708032
C0V680,仁武,2025-01-09,22.701083,120.347722,0.007694362
C2G840,北斗,2025-01-09,23.877586,120.514222,0.0031900606
C0R900,竹坑,2025-01-09,22.1385,120.7022,0.00024014963
C0X150,安定,2025-01-09,23.102614,120.227839,0.0037187166
C0R590,里港,2025-01-09,22.77919,120.49459,0.034909703
C0R150,三地門,2025-01-09,22.709889,120.639944,0.21648642
C1D400,鳥嘴山,2025-01-09,24.71909,121.28387,0.0010134706
C2V250,甲仙,2025-01-09,23.080106,120.591758,0.008825689
C0SA20,金崙山,2025-01-09,22.567419,120.959667,0.0007747784
C0V350,溪埔,2025-01-09,22.738578,120.446797,0.028797492
C1S880,壽卡,2025-01-09,22.238911,120.858903,0.00037104817
72D680,桃改新埔分場,2025-01-09,24.834444,121.066111,0.00049954763
