站號,站名,日期,lat,lon,BLBTSLS
C0R710,龍磐,2025-04-20,21.931672,120.838942,1.9855532e-08
C1F9D1,白毛台,2025-04-20,24.158325,120.886933,3.1476832e-09
C0G940,竹塘,2025-04-20,23.848253,120.386764,5.3925414e-06
467590,恆春,2025-04-20,22.003897,120.746339,7.153822e-09
C1O850,環湖,2025-04-20,23.148617,120.418633,0.9984532
C0U710,太平山,2025-04-20,24.505486,121.525656,3.2999645e-09
C0E820,獅潭,2025-04-20,24.539133,120.920042,8.52082e-09
C0V880,興達,2025-04-20,22.8778,120.2127,0.9989053
C0S890,關山,2025-04-20,23.0395,121.175017,4.1675383e-09
C0SB30,新蘭,2025-04-20,22.869214,121.223228,4.4490932e-08
C2R970,屏科大,2025-04-20,22.648275,120.619247,3.922045e-08
C1Z130,銅門,2025-04-20,23.965694,121.492842,1.924588e-09
C0AD40,土城,2025-04-20,24.973208,121.445169,1.3691487e-09
CAN140,六官養殖協會,2025-04-20,23.22881,120.29962,0.9995322
C0X180,山上,2025-04-20,23.0757,120.363253,0.999576
C0F9Z0,雪山東峰,2025-04-20,24.388792,121.268675,2.4679474e-08
C1M480,獨立山,2025-04-20,23.537022,120.607797,9.1147057e-10
C0X220,學甲,2025-04-20,23.230367,120.182187,0.6679983
467650,日月潭,2025-04-20,23.881325,120.90805,1.8474652e-09
C0K600,箔子寮,2025-04-20,23.6197,120.14,7.5860694e-06
C0G830,埤頭,2025-04-20,23.866003,120.452806,4.431957e-06
C0S950,七塊厝,2025-04-20,22.954453,121.229922,2.5922033e-09
467110,金門,2025-04-20,24.407306,118.289281,3.5789975e-09
C0AH80,深坑,2025-04-20,25.002703,121.628328,1.3354466e-09
C0A970,三貂角,2025-04-20,25.007606,122.002058,1.5222538e-09
C2D730,寶山農場,2025-04-20,24.732444,120.976153,6.144379e-09
C0K430,褒忠,2025-04-20,23.690938,120.303634,0.02741898
467480,嘉義,2025-04-20,23.495925,120.432906,0.01540703
C0V400,阿公店,2025-04-20,22.804194,120.355528,0.9997118
467550,玉山,2025-04-20,23.48718,120.95943,2.8137416e-08
C0R440,大漢山,2025-04-20,22.405264,120.753181,2.7280236e-09
C0K280,四湖,2025-04-20,23.630414,120.227125,3.1576033e-06
C1F9B1,桐林,2025-04-20,24.066172,120.735194,2.0060213e-06
C2H9U0,鳳鵬,2025-04-20,23.763919,120.788061,1.0425375e-09
C0K390,土庫,2025-04-20,23.679029,120.395574,0.000764229
C1I450,望鄉山,2025-04-20,23.594153,120.944286,1.3098948e-08
C0E910,海埔,2025-04-20,24.648767,120.772435,3.0131073e-08
B2E890,畜試北區分所,2025-04-20,24.527806,120.770972,4.2009958e-08
C0R750,四林格山,2025-04-20,22.076989,120.802439,1.885985e-09
C0F0C0,中坑,2025-04-20,24.248517,120.903319,4.5794417e-09
C1I121,大鞍,2025-04-20,23.678381,120.760017,3.173315e-09
72U480,花改蘭陽分場,2025-04-20,24.686306,121.716583,8.822022e-09
C0A770,科教館,2025-04-20,25.096356,121.516507,1.4129227e-09
C0AJ60,六塊厝,2025-04-20,25.24,121.4481,2.1868587e-09
C0R620,墾雷,2025-04-20,21.900836,120.855269,9.484294e-08
467420,永康,2025-04-20,23.038386,120.2367,0.99970055
C0I410,名間,2025-04-20,23.837053,120.701447,3.7123937e-07
A2C560,農工中心,2025-04-20,24.985917,121.239833,2.519499e-09
C0V740,旗山,2025-04-20,22.888614,120.483597,0.96086526
C0Z061,玉里,2025-04-20,23.3215,121.339656,3.326189e-09
C0S840,南田,2025-04-20,22.279725,120.889208,9.672386e-09
C1I470,杉林溪,2025-04-20,23.639517,120.786444,3.91501e-09
C1X040,東原,2025-04-20,23.291597,120.463822,9.173994e-09
C0R660,枋寮,2025-04-20,22.367722,120.590647,1.6935196e-07
C1R120,上德文,2025-04-20,22.763272,120.704442,4.2264847e-10
C0K450,大埤,2025-04-20,23.646074,120.431537,0.0010164344
C0UA00,土場,2025-04-20,24.576533,121.495333,1.0580249e-08
467080,宜蘭,2025-04-20,24.763975,121.756528,5.2808975e-09
C0N030,四草,2025-04-20,23.0235,120.1116,0.99936014
467410,臺南,2025-04-20,22.99328,120.20492,0.9995566
C0V650,彌陀,2025-04-20,22.783806,120.246361,0.99949294
C0D660,新竹市東區,2025-04-20,24.798681,120.986942,5.563555e-09
82S580,茶改東部分場,2025-04-20,22.907694,121.130139,7.4037785e-09
C0SB40,興隆,2025-04-20,22.913661,121.257469,3.619482e-08
467050,新屋,2025-04-20,25.006725,121.047492,3.5001468e-09
C0C710,大溪永福,2025-04-20,24.892936,121.324975,1.7356918e-09
C0FA20,溫寮,2025-04-20,24.372177,120.583125,2.3415657e-06
C0V640,湖內,2025-04-20,22.887139,120.2445,0.9986742
C0R910,下寮,2025-04-20,22.3929,120.5548,1.697779e-07
C0Z020,明里,2025-04-20,23.208717,121.262342,7.0381048e-09
C0M770,嘉義梅山,2025-04-20,23.585398,120.555587,0.12799518
C0C660,楊梅,2025-04-20,24.912375,121.143047,2.020343e-09
C1E511,新開,2025-04-20,24.347703,120.827019,2.863792e-08
G2F820,農試所(霧峰),2025-04-20,24.031261,120.688133,0.0016072103
C1I070,和社,2025-04-20,23.591131,120.888861,1.2834613e-09
C2F000,大肚,2025-04-20,24.15295,120.572117,1.8017796e-09
C1S850,豐南,2025-04-20,23.122139,121.262389,2.3926818e-09
C2A920,富貴角,2025-04-20,25.263783,121.565258,2.1403195e-09
CAH030,茶改場竹圍站,2025-04-20,23.860083,120.637528,1.0383839e-09
C0T960,光復,2025-04-20,23.660694,121.424964,1.246434e-09
C0F9M0,豐原,2025-04-20,24.254322,120.720692,5.684961e-06
C0R720,旭海,2025-04-20,22.205403,120.887614,1.600639e-09
C0V710,苓雅,2025-04-20,22.622742,120.330669,0.99973464
C0C740,觀音工業區,2025-04-20,25.064764,121.114856,4.222684e-09
CAC040,拉拉山,2025-04-20,24.699317,121.427133,6.389094e-09
C0V790,萬山,2025-04-20,22.905944,120.688056,1.0028529e-09
U2HA30,臺大和社,2025-04-20,23.590856,120.888864,1.2834613e-09
C0AJ90,澳底,2025-04-20,25.0552,121.9253,1.6300123e-09
C0Z100,東華,2025-04-20,23.89525,121.549833,2.3344084e-09
C0G970,三豐,2025-04-20,23.882,120.2895,1.4067145e-08
V2K610,大庄合作社,2025-04-20,23.8068,120.367939,0.0011215194
C0V900,汕尾,2025-04-20,22.4782,120.4151,2.5267317e-07
C1R630,龍泉,2025-04-20,22.66701,120.59091,8.220225e-08
C1AC50,關渡,2025-04-20,25.133486,121.469331,2.0364102e-09
C0F9I0,神岡,2025-04-20,24.272481,120.658314,1.1509186e-05
C0K460,斗南,2025-04-20,23.678734,120.478359,0.0007881277
C2O810,曾文,2025-04-20,23.219681,120.497328,6.9662125e-09
467280,後龍,2025-04-20,24.648563,120.831834,2.6323981e-08
C1F9J1,清水林,2025-04-20,24.071242,120.820419,1.4602839e-09
C2A650,火燒寮,2025-04-20,25.002719,121.742892,1.4420575e-09
466930,竹子湖,2025-04-20,25.162078,121.544547,2.3935718e-09
C1I220,樟湖,2025-04-20,23.905333,120.846983,2.4554052e-09
C0I390,仁愛,2025-04-20,24.022122,121.132206,2.653058e-09
C0Z300,東里,2025-04-20,23.26853,121.30547,1.07547375e-08
C1V590,新發,2025-04-20,23.057019,120.646064,5.746139e-10
C0K510,水林,2025-04-20,23.572924,120.24597,4.0537518e-05
72S590,東改賓朗果園,2025-04-20,22.813889,121.071278,3.4713985e-09
82A750,茶改北部分場,2025-04-20,24.955778,121.631222,1.7338985e-09
C1A750,石碇服務區,2025-04-20,25.00872,121.646242,1.1763021e-09
C0X300,鹿寮,2025-04-20,23.386047,120.477331,0.9994683
G2AI50,關渡,2025-04-20,25.11575,121.492,3.6984436e-09
C0K590,雲林東勢,2025-04-20,23.674192,120.255721,6.060088e-05
C0A570,桶後,2025-04-20,24.848222,121.597992,1.956776e-09
C1S800,華源,2025-04-20,22.657883,121.02325,1.5196495e-08
C0G720,溪州,2025-04-20,23.851589,120.499093,3.7159607e-06
C1V160,達卡努瓦,2025-04-20,23.279811,120.705319,1.4095688e-09
C2M410,馬頭山,2025-04-20,23.324361,120.582017,1.3563198e-08
C0V850,蚵仔寮,2025-04-20,22.7256,120.2527,0.9996871
C0S740,池上,2025-04-20,23.119628,121.209469,2.9566984e-09
C1V390,尖山,2025-04-20,22.813153,120.367789,0.99965554
C0AH70,松山,2025-04-20,25.04871,121.55042,1.4120876e-09
C0N010,鯤鯓國小,2025-04-20,23.1879,120.0889,0.99488014
C0R550,新埤,2025-04-20,22.467947,120.582894,1.7294231e-07
C0SA60,知本（水試所）,2025-04-20,22.702394,121.082761,6.798824e-08
C0T9I0,豐濱,2025-04-20,23.583897,121.514806,1.1988393e-09
C0UB00,淡江大學蘭陽校園,2025-04-20,24.823239,121.730383,1.5374767e-09
C0W240,九宮,2025-04-20,24.423753,118.240186,3.6147336e-09
C0T9N0,富里,2025-04-20,23.171639,121.249378,4.223425e-09
U2HA50,臺大竹山,2025-04-20,23.756972,120.681556,2.5216286e-06
C0V840,鳳鼻頭,2025-04-20,22.5083,120.3591,0.9998231
C0X140,西港,2025-04-20,23.125608,120.203108,0.99965906
72D080,桃改五峰分場,2025-04-20,24.612194,121.157167,4.1798933e-09
C2H9P0,伊拿谷,2025-04-20,23.963211,121.088264,1.8866253e-09
C2H9F0,柑林,2025-04-20,24.018658,120.847072,1.3739098e-09
C0TA20,加灣,2025-04-20,24.082025,121.608944,2.578962e-09
C0V530,阿蓮,2025-04-20,22.883208,120.327508,0.99966925
C1O880,關山,2025-04-20,23.173397,120.594092,1.0898684e-09
C0E791,卓蘭,2025-04-20,24.3126,120.8244,7.0554464e-08
C1I030,武界,2025-04-20,23.913225,121.052483,1.9455e-09
C0R520,崁頂,2025-04-20,22.514781,120.506914,1.3291903e-07
C0R341,牡丹,2025-04-20,22.130036,120.792639,2.6257827e-09
C0R930,萬丹,2025-04-20,22.5885,120.4851,1.7152326e-08
C0S760,紅石,2025-04-20,23.069131,121.126219,2.162478e-09
C2C410,中央大學,2025-04-20,24.967652,121.185165,2.5263323e-09
C1M610,石磐龍,2025-04-20,23.496606,120.663506,1.7131097e-09
C0UA10,鴛鴦湖,2025-04-20,24.590269,121.412228,4.604728e-09
V2C260,八德蔬果,2025-04-20,24.978508,121.281819,2.1262248e-09
C0R800,丹路,2025-04-20,22.204481,120.750989,8.694995e-09
C0G920,永靖,2025-04-20,23.924703,120.547533,0.00010341188
C2M950,太和,2025-04-20,23.538372,120.702961,2.2557607e-09
C1A630,下盆,2025-04-20,24.771003,121.538622,3.5295573e-09
B2N890,畜產試驗所,2025-04-20,23.058972,120.336406,0.99964863
C0UA30,白嶺,2025-04-20,24.527819,121.519031,1.7648485e-09
C1V580,溪南(特生中心),2025-04-20,23.084972,120.788475,2.2403932e-09
C1T970,大農,2025-04-20,23.615233,121.413331,1.1676401e-09
C0R650,竹田,2025-04-20,22.58486,120.54344,9.899269e-08
C1H900,清流,2025-04-20,24.080775,120.962997,1.8231854e-09
C1C510,水尾,2025-04-20,24.940081,121.087161,3.0262661e-09
C0F9X0,大雅(中科園區),2025-04-20,24.21528,120.62445,1.0676218e-05
C0SB60,白守蓮,2025-04-20,23.126769,121.401914,3.569122e-08
C0O970,虎頭埤,2025-04-20,23.021375,120.347878,0.99965763
C0C730,中大臨海站,2025-04-20,24.966126,121.008581,3.4945702e-09
C0X250,新營,2025-04-20,23.310689,120.316681,0.99879605
C0V700,三民,2025-04-20,22.645017,120.311233,0.9989906
C0U870,大礁溪,2025-04-20,24.791042,121.675047,1.5132708e-09
C0E870,高鐵苗栗,2025-04-20,24.60725,120.826094,1.8804865e-08
A2K570,古坑花卉中心,2025-04-20,23.63353,120.55239,0.014937205
C0TA30,鹽寮,2025-04-20,23.845606,121.592664,2.5062992e-09
C0M860,新美,2025-04-20,23.338017,120.683169,9.066953e-10
C1E701,八卦,2025-04-20,24.491756,120.927619,6.459563e-09
C0I420,國姓,2025-04-20,24.037803,120.855072,1.2712358e-09
C2D720,關西工作站,2025-04-20,24.757275,121.184792,4.331926e-09
C0S960,香蘭,2025-04-20,22.587569,120.993375,2.1349425e-08
467620,蘭嶼,2025-04-20,22.0369,121.55843,9.1409504e-08
C0R260,春日,2025-04-20,22.370361,120.628306,6.058255e-08
72G600,臺中農改場,2025-04-20,24.003028,120.534389,6.5526474e-05
C0Z210,瑞穗,2025-04-20,23.5239,121.39021,1.5246248e-09
C0M820,達邦,2025-04-20,23.453994,120.749517,1.5848087e-09
C0V860,南寮,2025-04-20,22.7616,120.2339,0.9996873
C0G740,大城,2025-04-20,23.852487,120.320935,1.3454953e-08
C0R920,塭仔,2025-04-20,22.4169,120.5197,1.7941149e-07
C0R470,高樹,2025-04-20,22.826389,120.600806,4.6592827e-09
C0R680,佳樂水,2025-04-20,21.993578,120.861633,7.254984e-09
C1O870,大棟山,2025-04-20,23.31157,120.52226,1.7901602e-09
C0D360,梅花,2025-04-20,24.678347,121.208558,1.8775825e-09
C0Z190,富世,2025-04-20,24.14743,121.6297,4.4728727e-09
C0AI10,屈尺,2025-04-20,24.92184,121.54475,1.4795869e-09
B2U990,畜試東區分所,2025-04-20,24.669039,121.832561,2.1677483e-08
C0SB80,長濱漁港,2025-04-20,23.313644,121.459994,8.691546e-09
C0R240,來義,2025-04-20,22.527306,120.625111,4.9610414e-08
C0V910,大樹,2025-04-20,22.684645,120.432803,3.030875e-07
C1R610,西大武山,2025-04-20,22.617719,120.7322,3.5487961e-09
C0G900,線西,2025-04-20,24.143358,120.443536,1.4769431e-05
C0M700,竹崎,2025-04-20,23.526178,120.555508,0.7313681
C2E880,三義,2025-04-20,24.405478,120.749819,6.013813e-09
C0C720,竹圍,2025-04-20,25.112692,121.239824,3.6846501e-09
C0F9P0,清水,2025-04-20,24.312297,120.562242,2.7247806e-06
C0Z150,吉安光華,2025-04-20,23.930925,121.595153,3.77704e-09
467300,東吉島,2025-04-20,23.25727,119.66762,4.0895834e-06
C1D640,外坪(五指山),2025-04-20,24.644447,121.090961,4.0125863e-09
C0F9O0,潭子,2025-04-20,24.213106,120.703933,3.310872e-06
C2H9R0,卓社,2025-04-20,23.887894,121.000086,3.2356808e-09
72T250,花蓮農改場,2025-04-20,23.975222,121.563889,4.5559885e-09
C0E780,銅鑼,2025-04-20,24.489681,120.790853,2.8118585e-08
C1T950,太安,2025-04-20,23.666719,121.370128,2.3935902e-09
C0E830,苑裡,2025-04-20,24.439714,120.653053,1.5655536e-07
467270,田中,2025-04-20,23.873803,120.581286,3.279954e-06
C0SA10,檳榔四格山,2025-04-20,22.810031,121.109308,2.6636247e-09
C1T830,布洛灣,2025-04-20,24.17184,121.57127,3.2543497e-08
C0F970,大坑,2025-04-20,24.173142,120.722289,2.5221482e-06
C1U920,思源,2025-04-20,24.393125,121.347214,5.0707496e-09
C0A931,三和,2025-04-20,25.233153,121.595236,2.2910915e-09
C0I010,廬山,2025-04-20,24.033311,121.181808,4.2421875e-09
C2M940,日野賀,2025-04-20,23.434056,120.727169,1.9473079e-09
C0R860,鼻頭,2025-04-20,22.1043,120.8979,5.9036176e-09
C0UB20,壯圍,2025-04-20,24.7359,121.8163,1.16489565e-08
C0R790,九棚,2025-04-20,22.14195,120.889281,1.2510928e-09
C0W110,東莒,2025-04-20,25.9652,119.98069,4.2552997e-09
C1U930,粉鳥林,2025-04-20,24.497088,121.842479,1.2908661e-06
C1I211,蘆竹湳,2025-04-20,23.934019,120.811994,1.0539116e-09
C0S830,長濱,2025-04-20,23.286817,121.411975,2.3943572e-09
C1F9F1,伯公龍,2025-04-20,24.272392,120.849047,3.4025632e-08
C0E810,西湖,2025-04-20,24.562947,120.7485,4.4417334e-08
C1I440,新高口,2025-04-20,23.478744,120.878939,7.4365e-09
C0O840,王爺宮,2025-04-20,23.222064,120.40085,4.8990836e-07
C0T9G0,鳳林山,2025-04-20,23.735269,121.420131,1.5113065e-09
C0X080,佳里,2025-04-20,23.173039,120.145086,0.9948876
C0FB70,大甲溪埔,2025-04-20,24.370625,120.620067,1.5957236e-06
C0Z310,清水斷崖,2025-04-20,24.218294,121.689142,2.603759e-09
C0M680,太保,2025-04-20,23.455062,120.331455,0.30987406
C1S820,金峰,2025-04-20,22.590969,120.933236,4.257678e-09
C0AD10,八里,2025-04-20,25.150211,121.403947,3.704607e-09
C2K240,草嶺,2025-04-20,23.59555,120.693461,1.7910448e-09
C1SA70,都蘭,2025-04-20,22.87794,121.226881,3.6190542e-08
C0K440,二崙,2025-04-20,23.772797,120.408944,1.25799115e-05
C1A760,坪林交控,2025-04-20,24.94284,121.713442,1.7445869e-09
C0F9N0,大里,2025-04-20,24.092464,120.701378,1.202509e-07
C0SA90,達仁林場,2025-04-20,22.264347,120.823972,9.96859e-10
C1R290,石門山,2025-04-20,22.112611,120.756597,2.3850317e-09
42HA10,萬大發電廠,2025-04-20,23.978875,121.139639,2.4528215e-09
C0R890,山海,2025-04-20,21.9878,120.7091,7.415339e-09
C0T9A0,月眉山,2025-04-20,23.809928,121.539828,1.8022814e-09
C0AC70,信義,2025-04-20,25.037822,121.564597,1.4149643e-09
C0K560,棋山,2025-04-20,23.68645,120.603417,0.0073290933
C2FB50,出雲,2025-04-20,24.206469,120.902794,2.3803688e-09
C1Z240,中平林道,2025-04-20,23.42115,121.26763,3.387073e-09
U2H480,溪頭,2025-04-20,23.670306,120.798194,2.113835e-09
C0M880,好美里,2025-04-20,23.3364,120.138,0.00266422
C0T9E0,大坑,2025-04-20,23.880628,121.581981,1.6145812e-09
C0K530,臺西,2025-04-20,23.701547,120.197559,5.780938e-05
C1E900,國一N128K,2025-04-20,24.560997,120.844186,3.041481e-08
C0AJ50,水湳洞,2025-04-20,25.123695,121.862238,1.7569859e-09
C0AI20,白沙灣,2025-04-20,25.283128,121.519058,2.1742774e-09
C2V310,美濃,2025-04-20,22.898792,120.51907,0.9743224
C0A860,大坪,2025-04-20,25.165914,121.632969,1.9663429e-09
C1U850,觀音海岸,2025-04-20,24.38319,121.77856,2.228681e-09
C2K610,草嶺石壁,2025-04-20,23.602469,120.707731,1.8555311e-09
C0U950,鶯子嶺,2025-04-20,24.89754,121.79244,2.9395986e-09
C0O900,善化,2025-04-20,23.112883,120.297219,0.99963206
C0K550,蔦松,2025-04-20,23.514319,120.229736,2.6055617e-05
E2P980,林試六龜中心,2025-04-20,22.991703,120.645722,1.0885658e-09
C0E590,通霄,2025-04-20,24.471892,120.704622,4.1901764e-08
C1I310,西巒,2025-04-20,23.754486,120.883956,1.8951152e-09
C0A550,泰平,2025-04-20,24.971197,121.823711,1.7130443e-09
C0I360,水里,2025-04-20,23.812553,120.849792,1.1403024e-09
C0R830,高士,2025-04-20,22.121825,120.836781,2.1432076e-09
C1I101,溪頭,2025-04-20,23.661789,120.807647,3.8204258e-09
C0AJ20,野柳,2025-04-20,25.20703,121.690021,2.302587e-09
C0B060,暖暖,2025-04-20,25.0957,121.7403,1.3608512e-09
C1H920,長豐,2025-04-20,24.102039,120.879897,1.5293548e-09
C0V360,內門,2025-04-20,22.975481,120.466769,4.8331197e-09
C0R850,林邊,2025-04-20,22.4634,120.5339,2.172397e-07
C0E930,龍鳳,2025-04-20,24.700034,120.859125,1.7219818e-08
C0U910,冬山,2025-04-20,24.63373,121.7937,2.1677483e-08
C1E721,泰安,2025-04-20,24.489017,120.968036,3.367593e-09
82H320,茶改中部分場,2025-04-20,23.875611,120.913583,1.6064287e-09
C0M750,布袋,2025-04-20,23.380878,120.167789,0.042271636
C1S860,利嘉,2025-04-20,22.809417,121.050528,1.5190401e-09
E2S980,林試太麻里1,2025-04-20,22.598922,120.980044,9.753063e-09
C0X170,關廟,2025-04-20,22.963017,120.327797,0.9996191
C0V720,林園,2025-04-20,22.507747,120.394511,4.3155495e-08
C1I510,線浸林道,2025-04-20,23.761508,120.832956,2.3908753e-09
C0D690,外湖,2025-04-20,24.917735,120.968711,3.0564948e-09
C0C750,新興坑尾,2025-04-20,25.0061,121.0971,3.4743595e-09
B2Q810,畜試南區分所,2025-04-20,21.945583,120.802167,7.848609e-09
C0S790,金崙,2025-04-20,22.538122,120.966875,3.5584073e-09
C0AH90,福山植物園,2025-04-20,24.760717,121.58135,4.1884403e-09
C0I540,奇萊稜線,2025-04-20,24.109231,121.326456,2.1831049e-08
C0M850,表湖,2025-04-20,23.24186,120.64166,8.6594404e-10
C0S770,大溪山,2025-04-20,22.478475,120.943325,1.9062991e-09
C0AG80,中和,2025-04-20,24.991622,121.491792,1.3694359e-09
C0T790,大禹嶺,2025-04-20,24.186117,121.316086,1.4864017e-08
C0T9B0,水源,2025-04-20,23.991861,121.537169,1.1943773e-09
C0R840,牡丹池山,2025-04-20,22.168389,120.841225,9.758715e-10
C1I131,桶頭,2025-04-20,23.641944,120.654117,1.5496329e-09
CAL110,布袋國中,2025-04-20,23.35893,120.18026,0.00465293
467571,新竹,2025-04-20,24.827853,121.014219,5.6095866e-09
C0Z290,赤柯山,2025-04-20,23.36893,121.38293,3.964454e-09
C0X280,將軍,2025-04-20,23.214999,120.13577,0.77745324
C0S690,太麻里,2025-04-20,22.60902,120.98533,1.8601057e-09
C0U880,北關,2025-04-20,24.9072,121.8734,2.3920794e-09
C0G810,埔心,2025-04-20,23.947633,120.525456,0.00011432771
C0U970,大福,2025-04-20,24.80064,121.81389,5.617263e-09
C2H9N0,仁愛東眼,2025-04-20,24.026875,121.1205,3.7569796e-09
C1E670,南礦,2025-04-20,24.538278,121.002836,2.4353772e-09
C0M520,東後寮,2025-04-20,23.369908,120.248065,0.0028875375
C1E461,松安,2025-04-20,24.397972,120.986022,3.9312775e-09
C2N160,西拉雅風管處,2025-04-20,23.189481,120.335297,0.99945605
C2M970,碧湖,2025-04-20,23.568632,120.624165,1.6231125e-09
C0A640,石碇,2025-04-20,24.993969,121.662917,9.478879e-10
E2S960,林試太麻里2,2025-04-20,22.598,120.99775,2.3286418e-08
C0F9Y0,桃山,2025-04-20,24.432739,121.303808,2.2451596e-08
C1I020,萬大,2025-04-20,23.979817,121.132261,2.6754732e-09
C0U940,羅東,2025-04-20,24.68184,121.74934,1.0056577e-08
C0M650,朴子,2025-04-20,23.43463,120.23902,0.0007888746
C1I500,大尖山,2025-04-20,23.858572,120.994889,5.8947736e-09
C0G820,田尾,2025-04-20,23.901669,120.509389,0.000108726854
E2K600,四湖植物園,2025-04-20,23.676986,120.163433,3.1115915e-06
C0S730,綠島,2025-04-20,22.6672,121.47533,6.2014835e-05
12Q970,東港工作站,2025-04-20,22.479997,120.466058,2.5050252e-07
C0E430,南庄,2025-04-20,24.601775,121.000214,8.19022e-09
C1TA00,太魯閣,2025-04-20,24.15773,121.6236,3.713953e-09
466920,臺北,2025-04-20,25.037658,121.514853,1.4120876e-09
C0R600,舊泰武,2025-04-20,22.588194,120.664944,4.5098952e-10
C1I260,北坑,2025-04-20,23.9246,121.006903,1.0677921e-09
466910,鞍部,2025-04-20,25.182586,121.529731,3.529066e-09
C1I230,九份二山,2025-04-20,23.961944,120.845,1.7626854e-09
C2A660,瑞芳,2025-04-20,25.113169,121.801147,1.6814722e-09
C0R270,琉球嶼,2025-04-20,22.332244,120.362236,7.38525e-08
C1T990,高寮,2025-04-20,23.394239,121.356808,2.37255e-09
C0G620,芬園,2025-04-20,24.015678,120.6213,1.8149359e-06
C1Z140,荖溪,2025-04-20,23.890575,121.45964,5.041529e-09
C1I201,中心崙,2025-04-20,23.728722,120.712097,9.429183e-10
C1I400,凌霄,2025-04-20,24.018778,121.004456,3.6360035e-09
C1M640,十字,2025-04-20,23.492153,120.753683,3.071596e-09
G2P820,農試鳳山分所,2025-04-20,22.646611,120.356083,0.9989029
C0Z270,蕃薯寮,2025-04-20,23.73835,121.540108,1.8649051e-09
C0F9Q0,外埔,2025-04-20,24.347817,120.705686,6.313867e-07
C0K580,高鐵雲林,2025-04-20,23.737456,120.417944,5.246838e-05
C2I090,鳳凰,2025-04-20,23.728081,120.787347,1.5681746e-09
C0U990,員山,2025-04-20,24.74435,121.72247,1.0412801e-08
C0V770,大社,2025-04-20,22.730306,120.346639,0.9996961
C0X120,麻豆,2025-04-20,23.183289,120.248611,0.9996179
C0C670,龍潭,2025-04-20,24.870056,121.221389,3.4848922e-09
C0D680,香山濕地,2025-04-20,24.783581,120.914988,5.8588823e-09
C0S980,勝林山,2025-04-20,22.430439,120.8938,9.681517e-10
C0V730,大寮,2025-04-20,22.605614,120.395717,4.930934e-07
C0R570,麟洛,2025-04-20,22.65078,120.52719,7.2718858e-09
C2M930,石卓,2025-04-20,23.478744,120.702264,2.952776e-09
C0G9B0,和美,2025-04-20,24.105169,120.492131,2.4881754e-07
CAG100,王功漁港,2025-04-20,23.96824,120.32586,6.126509e-09
C0X290,北門,2025-04-20,23.267772,120.125481,0.77793175
C2F930,大甲,2025-04-20,24.347667,120.640403,5.9738943e-07
C0D650,湖口,2025-04-20,24.904794,121.043628,3.0268723e-09
C0E420,竹南,2025-04-20,24.708978,120.888897,1.5151057e-08
C0U780,五結,2025-04-20,24.68637,121.79794,1.1652867e-08
C1I250,鯉潭,2025-04-20,23.961922,120.991131,1.5370311e-09
C0R130,阿禮,2025-04-20,22.742908,120.743678,5.055026e-10
C0X100,臺南市北區,2025-04-20,23.010394,120.194228,0.99959356
C0S920,金峰嘉蘭,2025-04-20,22.594789,120.960825,9.157001e-09
C0V490,新興,2025-04-20,22.627422,120.298803,0.999736
C0F9K0,大安,2025-04-20,24.345061,120.588025,1.733197e-06
467290,古坑,2025-04-20,23.633639,120.551889,0.014937205
C2E970,八甲,2025-04-20,24.535811,120.795983,1.9018223e-08
C0V440,鳳山,2025-04-20,22.646653,120.356122,0.9989029
C1T940,大觀,2025-04-20,23.714206,121.373133,2.0760045e-09
C0E740,造橋,2025-04-20,24.637056,120.864778,2.7999185e-08
C0R100,尾寮山,2025-04-20,22.833111,120.683889,5.5023547e-10
A2K630,臺大雲林校區,2025-04-20,23.730628,120.423903,5.0365612e-05
467990,馬祖,2025-04-20,26.169467,119.923158,5.43874e-09
C0D580,寶山,2025-04-20,24.735006,121.025192,6.699392e-09
E2P990,林試扇平站,2025-04-20,22.9677,120.6857,5.754837e-10
C0AI30,三重,2025-04-20,25.057328,121.500629,1.4129227e-09
C0AH00,汐止,2025-04-20,25.066881,121.658778,1.4120876e-09
C1Z040,立山,2025-04-20,23.443356,121.327375,5.8468257e-09
466881,新北,2025-04-20,24.959207,121.525196,1.349329e-09
C0W130,花嶼,2025-04-20,23.40007,119.32276,1.0123627e-08
C0A950,鼻頭角,2025-04-20,25.129036,121.923372,4.1996717e-09
C0K470,林內,2025-04-20,23.748675,120.609642,1.3071106e-05
C2F990,摩天嶺,2025-04-20,24.322458,120.936819,2.2965254e-09
82C160,茶改場,2025-04-20,24.908472,121.185333,2.0335962e-09
C0Z320,清水林道,2025-04-20,23.27125,121.188272,3.4424925e-09
C0R760,南仁湖,2025-04-20,22.084681,120.863353,2.3828308e-09
C0M670,大林,2025-04-20,23.600616,120.45841,0.0022323213
C0M800,茶山,2025-04-20,23.299075,120.664767,9.44978e-10
C0A9C0,天母,2025-04-20,25.117494,121.537169,2.0359792e-09
72K220,南改斗南分場,2025-04-20,23.634556,120.477333,0.0007558823
72AI40,桃改樹林分場,2025-04-20,24.944503,121.386972,1.2721503e-09
C0S910,蘭嶼燈塔,2025-04-20,22.081197,121.503117,4.3351474e-07
C0B050,八斗子,2025-04-20,25.144754,121.79167,1.8010374e-09
C0U900,內城,2025-04-20,24.71813,121.68766,7.461919e-09
C0X320,柳營,2025-04-20,23.253328,120.375253,0.9994123
C0M790,新港,2025-04-20,23.553269,120.345728,0.0014327726
C0F9T0,西屯,2025-04-20,24.179494,120.641275,0.015894402
C0SA30,都歷,2025-04-20,23.020333,121.323642,1.5253761e-08
C0C620,蘆竹,2025-04-20,25.084275,121.265767,3.016032e-09
C0R730,大坪頂,2025-04-20,22.024633,120.69355,2.7892142e-09
C0AJ40,石門,2025-04-20,25.273672,121.601198,2.1346933e-09
C0E750,苗栗,2025-04-20,24.564569,120.824575,3.212781e-08
C0T870,鯉魚潭,2025-04-20,23.935639,121.508944,2.0702946e-09
C1V170,排雲,2025-04-20,23.463619,120.954147,2.0740424e-08
C2H950,中寮,2025-04-20,23.884447,120.766406,0.00024961279
C0R350,貓鼻頭,2025-04-20,21.921774,120.7358,4.6756654e-08
C0V660,岡山,2025-04-20,22.797078,120.294958,0.9994934
C1H941,雙冬,2025-04-20,23.967378,120.802189,1.0786987e-09
C0AJ70,田寮,2025-04-20,25.2698,121.4886,2.182675e-09
C0AI00,五股,2025-04-20,25.07445,121.42728,2.917607e-09
C0Z280,德武,2025-04-20,23.47426,121.41071,1.5813031e-09
C0R700,枋山,2025-04-20,22.246844,120.661086,1.6836104e-08
C0C460,復興,2025-04-20,24.820208,121.352281,1.6627607e-09
E2H360,蓮華池,2025-04-20,23.918333,120.885278,1.1425362e-09
C0M640,中埔,2025-04-20,23.42538,120.5229,0.9664935
C0W140,金沙,2025-04-20,24.488292,118.408778,3.1306908e-09
C2A540,四堵,2025-04-20,24.8926,121.745736,2.0982935e-09
C0ACA0,新莊,2025-04-20,25.051478,121.446756,1.7087824e-09
C0R220,潮州,2025-04-20,22.534361,120.54,1.1447391e-07
U2HA40,臺大內茅埔,2025-04-20,23.689722,120.851117,1.2841274e-09
467490,臺中,2025-04-20,24.145736,120.684075,6.3822854e-06
C0U960,翠峰湖,2025-04-20,24.510856,121.608044,3.6810677e-09
E2HA20,林試畢祿溪站,2025-04-20,24.226944,121.308522,1.0683079e-08
C0V890,前鎮,2025-04-20,22.5718,120.3117,0.9997412
C1F941,雪嶺,2025-04-20,24.280586,121.026642,1.7248878e-08
C2H9E0,國姓南港,2025-04-20,23.911108,120.846556,2.5359588e-09
C0AC80,文山,2025-04-20,25.00235,121.575728,1.3381877e-09
C0F9R0,龍井,2025-04-20,24.184536,120.528972,0.000102642836
C0M760,民雄,2025-04-20,23.551754,120.428457,0.003481293
C0UA40,西德山,2025-04-20,24.560647,121.752608,1.8869961e-09
C1T920,中興,2025-04-20,23.769503,121.498653,1.9236925e-09
C0D550,雪霸,2025-04-20,24.526972,121.11605,5.3409868e-09
C2F860,梨山,2025-04-20,24.247522,121.243669,1.1044251e-08
C0R320,車城,2025-04-20,22.0744,120.716247,9.2166825e-09
C1S870,南美山,2025-04-20,23.15025,121.382333,4.4152006e-09
C0B020,基隆嶼,2025-04-20,25.19141,121.78391,5.1504845e-09
C1U501,牛鬥,2025-04-20,24.637836,121.573656,3.6675627e-09
C0M730,嘉義市東區,2025-04-20,23.457673,120.460531,0.99431646
C0S700,知本,2025-04-20,22.684866,121.005642,1.4101174e-09
C1N001,沙崙,2025-04-20,22.935472,120.309406,0.99961805
C0V760,橋頭,2025-04-20,22.757806,120.30575,0.9996935
C0G960,福寶,2025-04-20,24.0443,120.3814,2.727498e-07
C0X210,白河,2025-04-20,23.347466,120.414427,0.9989371
C0S810,東河,2025-04-20,22.972672,121.303986,2.4773845e-08
C2R170,屏東,2025-04-20,22.66027,120.49403,7.282268e-09
C0R670,楓港,2025-04-20,22.190131,120.692156,1.2462966e-08
C0FA50,霧峰,2025-04-20,24.0419,120.6995,0.0012894142
C0UB10,蘇澳,2025-04-20,24.5969,121.8571,1.4585134e-05
C0G950,防潮門,2025-04-20,24.1835,120.4871,9.807911e-05
C0M740,六腳,2025-04-20,23.492871,120.290625,0.00044938552
C1R250,力里,2025-04-20,22.428117,120.629228,4.8459338e-08
C0K330,虎尾,2025-04-20,23.719183,120.442036,4.375911e-05
C2FA00,烏石坑,2025-04-20,24.273503,120.947617,2.2575213e-09
C0V620,永安,2025-04-20,22.82315,120.236856,0.99949294
C1I330,楓樹林,2025-04-20,23.986803,121.076117,3.8113934e-09
C0W200,湖西,2025-04-20,23.596314,119.67275,2.9988084e-07
72Q010,高雄農改場,2025-04-20,22.709333,120.525889,3.7068122e-09
C0SA40,瑞和,2025-04-20,22.974361,121.156697,6.813815e-09
C0C680,龜山,2025-04-20,25.02846,121.38656,1.877812e-09
C2V260,月眉,2025-04-20,22.971003,120.539853,3.0360368e-09
C0V450,鳳森,2025-04-20,22.545064,120.392592,2.6340604e-08
C0U720,南山,2025-04-20,24.43742,121.38167,1.368141e-09
A2N290,臺南蘭花園區,2025-04-20,23.340258,120.379661,0.5528452
C0R560,新園,2025-04-20,22.5434,120.461558,4.3155495e-08
C0U890,三星,2025-04-20,24.66812,121.65302,1.1822385e-08
C1V300,御油山,2025-04-20,23.001983,120.715364,1.9917197e-09
C0U600,礁溪,2025-04-20,24.817539,121.765608,2.3200755e-09
C1T980,龍澗,2025-04-20,24.023289,121.411328,1.0111605e-08
C0D670,海天一線,2025-04-20,24.831986,120.914438,1.08020215e-08
C0SA00,歷坵,2025-04-20,22.520969,120.89185,1.846014e-09
C0M710,東石,2025-04-20,23.458927,120.15385,4.270856e-05
C0M780,鹿草,2025-04-20,23.41134,120.30835,0.00053737964
C0U520,雙連埤,2025-04-20,24.753033,121.641303,1.5071269e-09
C0B010,七堵,2025-04-20,25.094819,121.71713,1.3768952e-09
C0R480,長治,2025-04-20,22.693128,120.542622,2.2503284e-07
C1V830,國三S383K,2025-04-20,22.781967,120.426475,3.1210916e-09
12Q980,恆春工作站,2025-04-20,22.079678,120.714425,9.2054036e-09
C1O940,東山服務區,2025-04-20,23.286016,120.398472,0.9995012
C1U840,東澳嶺,2025-04-20,24.5378,121.8485,2.2356634e-09
C1D630,飛鳳山,2025-04-20,24.766464,121.119178,3.0191056e-09
C0S940,石寧山,2025-04-20,23.223772,121.406639,1.5494594e-08
C0K410,北港,2025-04-20,23.573957,120.292802,3.5590107e-05
C2M620,瑞里,2025-04-20,23.545133,120.675197,1.992757e-09
C0SB70,小港漁港,2025-04-20,23.158558,121.400431,4.0654278e-08
C2O950,安南,2025-04-20,23.076694,120.144861,0.9334558
C0F0E0,南湖圈谷,2025-04-20,24.363714,121.444667,2.2692516e-08
467610,成功,2025-04-20,23.097486,121.373428,2.8739425e-08
C0G890,伸港,2025-04-20,24.148933,120.484403,1.53015e-05
C2E540,龍溪,2025-04-20,24.606489,120.783933,1.9198595e-08
C1V200,梅山,2025-04-20,23.268447,120.823556,9.775725e-10
C0T9H0,加路蘭山,2025-04-20,23.682947,121.5274,1.8875972e-09
C2O930,玉井,2025-04-20,23.126042,120.46055,0.9996114
C1F911,新伯公,2025-04-20,24.221361,120.841069,1.6708686e-08
C0R490,九如,2025-04-20,22.7405,120.490503,3.9996806e-09
C0X200,左鎮,2025-04-20,23.056758,120.408522,0.99986726
C0SB50,叭嗡嗡,2025-04-20,23.047062,121.343223,3.8236717e-08
C1F891,稍來,2025-04-20,24.265689,121.001142,1.1921178e-08
72N240,七股研究中心,2025-04-20,23.081672,120.062894,0.6970064
C0C700,中壢,2025-04-20,24.977661,121.256375,2.1132265e-09
C0M690,水上,2025-04-20,23.419734,120.388909,0.19845943
C0V690,鼓山,2025-04-20,22.623325,120.275575,0.9997359
C0O860,大內,2025-04-20,23.11885,120.36083,0.9996425
C0Z200,萬榮,2025-04-20,23.709219,121.420106,1.9706794e-09
C0T9D0,和中,2025-04-20,24.26676,121.74103,1.0443893e-07
C1O921,楠西,2025-04-20,23.183511,120.484083,0.9965806
C0AJ30,淡水觀海,2025-04-20,25.184591,121.408616,2.3767575e-09
C0V810,左營,2025-04-20,22.67491,120.28491,0.99899197
C0UA70,桃源谷,2025-04-20,24.962606,121.888875,1.4889945e-09
C0X130,官田,2025-04-20,23.193217,120.315422,0.9994491
C1H000,翠峰,2025-04-20,24.109397,121.205211,1.065459e-08
C0UA90,石城,2025-04-20,24.980444,121.951214,1.6183458e-09
C1E681,南勢山,2025-04-20,24.421669,120.923831,7.608932e-09
C0A9F0,內湖,2025-04-20,25.079422,121.57545,1.4120876e-09
C0K291,宜梧,2025-04-20,23.536281,120.169329,2.7133969e-05
C1K540,口湖,2025-04-20,23.585344,120.180517,7.993647e-06
C0R780,滿州,2025-04-20,22.024403,120.839892,6.527733e-09
C0V870,文安,2025-04-20,22.8025,120.2164,0.9994928
C0U650,玉蘭,2025-04-20,24.675286,121.587061,1.4820866e-09
C0R640,東港,2025-04-20,22.46247,120.44074,2.507738e-07
C0AJ80,板橋,2025-04-20,25.0107,121.4489,1.3772051e-09
C0S660,下馬,2025-04-20,23.150427,121.070312,2.9713578e-09
C1H9B1,阿眉,2025-04-20,24.1263,120.994672,7.62599e-09
C0UA20,多加屯,2025-04-20,24.368614,121.373189,1.2620463e-08
C0E730,頭份,2025-04-20,24.688247,120.912206,1.5747696e-08
72V140,高改旗南分場,2025-04-20,22.857861,120.516667,4.9053552e-09
C0K480,莿桐,2025-04-20,23.761192,120.502372,1.002756e-05
C0U980,坪林石牌,2025-04-20,24.86478,121.77396,1.7421296e-09
C0T900,西林,2025-04-20,23.8119,121.441458,1.671993e-09
C1I150,青雲,2025-04-20,23.793361,120.949378,1.1159416e-09
467350,澎湖,2025-04-20,23.565503,119.563094,3.8106975e-08
C0G800,埔鹽,2025-04-20,24.000394,120.431683,7.9338975e-07
C0H960,草屯,2025-04-20,23.973672,120.68085,0.0005899196
C1V780,多納林道,2025-04-20,22.888028,120.737917,9.525113e-10
C0E920,通霄漁港,2025-04-20,24.498589,120.673876,3.467192e-08
C0Z330,安通山,2025-04-20,23.290728,121.348528,1.7960907e-09
C0AH10,永和,2025-04-20,25.01125,121.508111,1.3741875e-09
C0AK10,太平里,2025-04-20,25.134937,121.364899,3.682451e-09
C2G640,鹿港,2025-04-20,24.0753,120.430481,2.7360926e-07
C1E890,國三N149K,2025-04-20,24.463414,120.680019,1.4252883e-07
C1R110,口社,2025-04-20,22.770111,120.645222,7.549276e-08
C1M870,國三N285K,2025-04-20,23.550319,120.505833,0.53509164
C1E480,鳳美,2025-04-20,24.554803,121.034747,4.833267e-09
C0M530,奮起湖,2025-04-20,23.493903,120.699253,2.2878426e-09
C0C590,觀音,2025-04-20,25.027072,121.153317,4.0899093e-09
C0T9M0,靜浦,2025-04-20,23.455167,121.495028,1.897846e-09
C2H9M0,發祥,2025-04-20,24.154094,121.164517,5.2778364e-09
C0AI40,石牌,2025-04-20,25.115597,121.513139,2.0341275e-09
C1F871,上谷關,2025-04-20,24.203483,121.018644,2.222051e-09
C2H9G0,百勝,2025-04-20,24.051142,120.909361,3.712317e-09
C0G880,二水,2025-04-20,23.810742,120.6173,2.7774786e-06
C0R940,加祿堂,2025-04-20,22.3363,120.6217,2.0372037e-08
C0W220,北竿,2025-04-20,26.220358,119.974881,4.7915307e-09
C0O960,崎頂,2025-04-20,22.959547,120.369317,0.9996296
C0S750,向陽,2025-04-20,23.248397,120.986133,5.0694733e-09
C0T9F0,水璉,2025-04-20,23.797131,121.542514,1.5816379e-09
C1M600,頭凍,2025-04-20,23.406364,120.603339,1.568025e-09
467660,臺東,2025-04-20,22.752211,121.154586,2.2598556e-07
C1D380,新埔,2025-04-20,24.84745,121.03834,4.7162554e-09
C2G980,田頭村,2025-04-20,23.8263,120.444175,1.261444e-05
C0V750,路竹,2025-04-20,22.854997,120.259439,0.99878675
C0N050,蚵寮,2025-04-20,23.301,120.1104,0.0026648613
72M700,南改鹿草分場,2025-04-20,23.416869,120.283061,0.00075137435
C1SA50,利嘉林道,2025-04-20,22.82325,121.009389,1.9660764e-09
C0A940,金山,2025-04-20,25.223628,121.643967,2.299041e-09
C1V340,大津,2025-04-20,22.888322,120.645986,4.16216e-09
C0W180,七美,2025-04-20,23.219333,119.444892,3.144508e-07
C1F9C1,白冷,2025-04-20,24.182844,120.929889,5.757277e-09
K2E710,苗改生物防治研究中心,2025-04-20,24.422861,120.871833,1.2515127e-07
C0N040,蘆竹溝,2025-04-20,23.2344,120.0961,0.7780042
C2W230,畜試所澎湖,2025-04-20,23.628342,119.513206,9.260843e-09
C0R880,後壁湖,2025-04-20,21.9457,120.7457,7.6302085e-09
C1I280,埔中,2025-04-20,23.820778,120.642594,8.4541507e-10
467790,墾丁雷達站,2025-04-20,21.948235,120.808028,6.2285332e-09
C0W190,望安,2025-04-20,23.380564,119.494075,4.0919012e-08
C0Z170,卓溪,2025-04-20,23.3443,121.3029,1.6897832e-09
C0F850,東勢,2025-04-20,24.246428,120.833047,3.4464165e-08
466900,淡水,2025-04-20,25.164889,121.448906,3.682992e-09
C0I370,魚池,2025-04-20,23.895703,120.94135,1.1693495e-09
C0C630,大溪,2025-04-20,24.882853,121.265547,1.9874051e-09
C0A520,山佳,2025-04-20,24.974944,121.402008,1.2745183e-09
C0I110,竹山,2025-04-20,23.761225,120.688156,5.9237146e-07
82H840,茶改南部分場,2025-04-20,23.762528,120.7405,9.533618e-10
C0G660,溪湖,2025-04-20,23.94835,120.479122,0.0001346535
C1T800,洛韶,2025-04-20,24.204558,121.453956,2.6669138e-09
C1T810,慈恩,2025-04-20,24.192044,121.388386,4.8340048e-09
C1E451,象鼻,2025-04-20,24.368617,120.940228,9.211112e-09
C0AC60,三峽,2025-04-20,24.939025,121.369728,1.9285897e-09
C0I490,萬大林道,2025-04-20,23.928228,121.091411,3.701471e-09
C1I290,豐丘,2025-04-20,23.668178,120.887417,2.49007e-09
C1I320,奧萬大,2025-04-20,23.952956,121.178556,3.0878085e-09
C2M910,嘉義大學,2025-04-20,23.471325,120.485903,0.99789923
C0U770,南澳,2025-04-20,24.44935,121.81022,2.6941143e-08
C0A980,社子,2025-04-20,25.109508,121.469681,3.729136e-09
C0V800,六龜,2025-04-20,22.997889,120.633583,1.1235877e-09
C1G9D0,國一S218K,2025-04-20,23.890641,120.493253,0.00019462228
C0E570,白沙屯,2025-04-20,24.549447,120.696803,3.5658285e-08
C2F9A0,中竹林,2025-04-20,24.103556,120.751061,1.0991896e-09
C0FA40,臺中電廠,2025-04-20,24.2146,120.4907,0.0001028783
C2G9A0,畜試所彰化,2025-04-20,23.86045,120.557964,3.2860278e-06
C0H9C0,合歡山,2025-04-20,24.143442,121.272547,2.6682176e-08
C0X060,下營,2025-04-20,23.22695,120.256261,0.9995365
G2M350,農試溪口農場,2025-04-20,23.58565,120.408111,0.004247861
C0U860,頭城,2025-04-20,24.85323,121.8308,2.372274e-09
C0R580,南州,2025-04-20,22.48591,120.50274,2.507738e-07
C0D430,峨眉,2025-04-20,24.6905,121.017189,6.1531864e-09
C0G780,秀水,2025-04-20,24.03405,120.503869,6.564417e-05
72N100,臺南農改場,2025-04-20,23.0605,120.342194,0.9996497
C0S900,蘭嶼高中,2025-04-20,22.04909,121.51214,1.4980948e-06
C1F9W0,德基,2025-04-20,24.254783,121.190261,7.385035e-09
C1Z120,壽豐,2025-04-20,23.870853,121.508081,2.3344084e-09
C0W160,烏坵,2025-04-20,24.9944,119.44956,4.871918e-09
C1I240,外大坪,2025-04-20,23.958697,120.917931,1.5501147e-09
C1I550,國六W023K,2025-04-20,23.979067,120.867742,1.073727e-09
C0R870,興海,2025-04-20,21.9752,120.8439,7.8523374e-09
C0R140,瑪家,2025-04-20,22.682903,120.686639,4.700788e-10
C0A530,坪林,2025-04-20,24.938183,121.70975,1.7225854e-09
C0X260,後壁,2025-04-20,23.366358,120.362326,0.6145717
C0Z230,和平,2025-04-20,24.30717,121.77007,1.2574395e-07
C0G770,福興,2025-04-20,24.041289,120.437669,8.0166177e-07
C0H9A0,神木村,2025-04-20,23.532742,120.843667,3.0251062e-09
C0I460,南投,2025-04-20,23.911469,120.687331,0.0003895833
C0I480,梅峰,2025-04-20,24.085272,121.173572,8.541159e-09
C1V570,吉東,2025-04-20,22.85422,120.5454,4.3469317e-09
C2D740,屯原,2025-04-20,24.067969,121.209389,5.998176e-09
C2A560,福山,2025-04-20,24.776203,121.502811,2.3654603e-09
C0AH30,五分山,2025-04-20,25.07125,121.780794,1.9989317e-09
C0FA10,松柏,2025-04-20,24.429115,120.617482,1.7951419e-07
72S200,東改班鳩分場,2025-04-20,22.829528,121.077694,4.7067568e-09
72HA00,中改埔里分場,2025-04-20,23.903208,120.963364,1.1041865e-09
C2H9W0,大坪頂農水,2025-04-20,24.043122,120.932781,1.530052e-09
C0C650,平鎮,2025-04-20,24.897503,121.214636,1.7704858e-09
C0S930,延平,2025-04-20,22.902581,121.084058,4.5975934e-09
C0UA60,樟樹山,2025-04-20,24.41393,121.78325,5.2708344e-09
C1S670,摩天,2025-04-20,23.199503,121.027,2.649109e-09
C0V630,茄萣,2025-04-20,22.906642,120.182608,0.9989051
466940,基隆,2025-04-20,25.133314,121.740475,1.7735378e-09
C0X050,東河,2025-04-20,23.296598,120.385608,0.9996086
C0R770,保力,2025-04-20,22.071122,120.764111,4.2382164e-09
G2L020,農試嘉義分所,2025-04-20,23.485028,120.473806,0.985596
C0X240,關子嶺,2025-04-20,23.331169,120.508025,4.5093813e-09
C0I380,集集,2025-04-20,23.828206,120.801467,1.1457966e-09
466990,花蓮,2025-04-20,23.975128,121.613275,5.8484315e-09
C1V220,小關山,2025-04-20,23.154217,120.813603,2.8740397e-09
C1F9G1,慶福山,2025-04-20,24.180853,120.848378,4.2059964e-09
C0Z250,瑞穗林道,2025-04-20,23.49284,121.30688,3.2861465e-09
C0D590,新豐,2025-04-20,24.87068,120.97721,7.3677437e-09
C0A870,五指山,2025-04-20,25.132153,121.608692,2.5577358e-09
C0UA50,西帽山,2025-04-20,24.555361,121.802628,2.2539846e-09
C0X160,仁德,2025-04-20,22.968258,120.257689,0.9996779
C1H971,六分寮,2025-04-20,23.92507,120.6378,9.173166e-10
C0W120,西嶼,2025-04-20,23.5626,119.468436,2.0431536e-08
C0G650,員林,2025-04-20,23.946503,120.585597,0.00031904114
C0AD50,鶯歌,2025-04-20,24.951533,121.346294,1.8679525e-09
C2H9Q0,北東眼山,2025-04-20,24.120939,121.189303,8.904129e-09
C2H9T0,名間竹圍,2025-04-20,23.859914,120.637572,1.0385107e-09
C0S990,山豬窟,2025-04-20,22.318619,120.857372,2.0371989e-09
C0X190,安平,2025-04-20,22.993161,120.152181,0.9995936
C0K400,斗六,2025-04-20,23.720583,120.541127,5.6951074e-05
12J990,口湖工作站,2025-04-20,23.589978,120.180394,7.5860694e-06
C0O830,北寮,2025-04-20,23.079561,120.495008,2.5669387e-09
C1D410,白蘭,2025-04-20,24.579364,121.079947,2.6658966e-09
C0S970,加津林,2025-04-20,22.416211,120.926942,1.4877745e-08
C0D700,關西,2025-04-20,24.7977,121.1732,2.3395077e-09
C0M810,里佳,2025-04-20,23.389125,120.716647,2.4876394e-09
C0U750,龜山島,2025-04-20,24.841667,121.953133,1.809937e-08
C0R810,內獅,2025-04-20,22.305064,120.642986,2.077693e-08
C1M390,龍美,2025-04-20,23.406728,120.654417,1.88177e-09
C2FB60,頭櫃山,2025-04-20,24.129842,120.858925,2.5459328e-09
C1H840,國三N238K,2025-04-20,23.841008,120.707711,1.105666e-09
CAQ030,崎峰國小,2025-04-20,22.42565,120.49521,2.507738e-07
C2E520,大湖,2025-04-20,24.414939,120.870872,1.5179982e-08
467530,阿里山,2025-04-20,23.508208,120.813242,8.902634e-09
C1E691,南湖,2025-04-20,24.40135,120.837533,9.514604e-09
C0FA30,梧棲,2025-04-20,24.256003,120.523381,2.7180329e-06
C1V231,高中,2025-04-20,23.134911,120.716711,7.924433e-10
C0AK30,硬漢嶺,2025-04-20,25.136097,121.426372,2.3020776e-09
C0F9V0,新社,2025-04-20,24.200172,120.815806,8.299118e-09
C0H890,埔里,2025-04-20,23.972169,120.952425,1.03827755e-08
C0R690,墾丁,2025-04-20,21.966756,120.810269,2.9861695e-09
C0F0D0,審馬陣,2025-04-20,24.381675,121.4203,1.6275962e-08
C2W030,金門農試所,2025-04-20,24.448431,118.451786,3.7152779e-09
C0R820,白鷺,2025-04-20,22.454275,120.666219,4.858553e-10
C1V190,南天池,2025-04-20,23.27403,120.91176,6.2509433e-09
K2E360,苗栗農改場,2025-04-20,24.495722,120.829111,3.5576626e-08
CAJ050,海口故事園區,2025-04-20,23.57543,120.14121,7.720471e-06
C2H9D0,三隻寮,2025-04-20,24.093078,120.861578,1.5461402e-09
C0O990,媽廟,2025-04-20,22.99175,120.293525,0.9997101
C0D480,打鐵坑,2025-04-20,24.849664,121.150789,3.4581156e-09
C0Z220,和平林道,2025-04-20,24.343922,121.656317,4.4710307e-09
C0TA10,花蓮漁港,2025-04-20,23.995322,121.638331,6.8288033e-09
72C440,桃園農改場,2025-04-20,24.950944,121.030583,3.0229952e-09
C1E711,馬拉邦山,2025-04-20,24.367306,120.901656,1.955254e-09
C0SB20,富岡,2025-04-20,22.792467,121.192669,7.018121e-08
C0D560,竹東,2025-04-20,24.767147,121.057881,4.4448756e-09
C0F9U0,南屯,2025-04-20,24.137006,120.637969,4.574968e-05
C0M720,番路,2025-04-20,23.464657,120.554156,1.4390187e-07
C0F0A0,雪山圈谷,2025-04-20,24.388594,121.236339,3.0163676e-08
C1A9N0,四十份,2025-04-20,24.934158,121.593283,1.5867929e-09
C0U760,東澳,2025-04-20,24.52196,121.83318,9.075271e-07
C0X230,鹽水,2025-04-20,23.272621,120.247641,0.002177105
C2H9H0,苗改南投蜂場,2025-04-20,23.852589,120.693481,4.913472e-07
C0R950,萬隆國小,2025-04-20,22.507667,120.587817,7.877693e-08
467540,大武,2025-04-20,22.35572,120.90374,1.8801352e-08
C0V370,古亭坑,2025-04-20,22.893178,120.401947,0.9971479
C1I340,新興橋,2025-04-20,23.563333,120.868728,1.3020303e-09
C0SA80,土坂,2025-04-20,22.453108,120.887572,4.6339e-09
C0R160,鹽埔,2025-04-20,22.739558,120.530778,3.6944037e-09
C0AC40,大屯山,2025-04-20,25.175675,121.522408,4.7195217e-09
466850,五分山雷達站,2025-04-20,25.071182,121.781205,2.0246211e-09
C2H9L0,馬烈霸,2025-04-20,24.1512,121.201772,8.69687e-09
C1AI50,國三N016K,2025-04-20,25.034164,121.619664,1.3966801e-09
C1V600,藤枝,2025-04-20,23.071961,120.757042,1.5992535e-09
C1E601,南勢,2025-04-20,24.572486,120.734842,3.0559427e-08
C0Z180,新城,2025-04-20,24.03946,121.60454,0.99997115
C0O980,新市,2025-04-20,23.061614,120.298197,0.9996328
C0K420,西螺,2025-04-20,23.800407,120.467394,1.1088355e-05
C0Z050,佳心,2025-04-20,23.34567,121.21316,3.6217038e-09
C0AD30,蘆洲,2025-04-20,25.086594,121.472331,1.4173818e-09
C0V610,梓官,2025-04-20,22.760558,120.267211,0.9996932
K2F750,種苗改良場,2025-04-20,24.225972,120.800917,1.127147e-08
C0UA80,大溪漁港,2025-04-20,24.941801,121.902955,2.1255762e-09
C1AI60,國一39K邊坡,2025-04-20,25.064361,121.383836,1.8496724e-09
C0W150,金寧,2025-04-20,24.457703,118.328989,3.6429662e-09
C0R960,內埔,2025-04-20,22.608483,120.570714,9.2926236e-08
V2C250,八德合作社,2025-04-20,24.93775,121.266389,1.783984e-09
C2H9S0,龍南,2025-04-20,23.953536,120.833183,1.6878955e-09
C0AH40,平等,2025-04-20,25.129142,121.577086,2.0456365e-09
C0R540,佳冬,2025-04-20,22.419456,120.552375,1.6471405e-07
466950,彭佳嶼,2025-04-20,25.627975,122.079744,5.7676637e-09
C0A890,雙溪,2025-04-20,25.036003,121.864242,1.9132784e-09
C0C480,桃園,2025-04-20,24.992425,121.323172,2.1457107e-09
C0AH50,林口,2025-04-20,25.072181,121.38084,1.9007007e-09
A2K360,水試臺西試驗場,2025-04-20,23.717231,120.190522,7.8735095e-05
C2M960,外寮,2025-04-20,23.562643,120.665688,1.6969405e-09
C0F9S0,烏日,2025-04-20,24.107058,120.624103,1.7655371e-07
C0C490,八德,2025-04-20,24.928708,121.283289,1.7726348e-09
C0R190,赤山,2025-04-20,22.592333,120.614306,7.900158e-08
C0T820,天祥,2025-04-20,24.179597,121.495639,1.0581459e-08
C1F9E1,龍安,2025-04-20,24.1605,120.831961,3.7946593e-09
C0V820,小林,2025-04-20,23.148408,120.63325,8.2512724e-10
C2G870,芳苑,2025-04-20,23.922303,120.320025,5.8867964e-09
C0E850,大河,2025-04-20,24.618069,120.948578,8.533409e-09
C1U670,寒溪,2025-04-20,24.634,121.71691,1.1727585e-08
C0N020,城西,2025-04-20,23.0568,120.0956,0.9993157
C1Z110,三棧,2025-04-20,24.11557,121.60501,4.470928e-09
C0R280,檳榔,2025-04-20,22.076078,120.836777,3.000248e-09
C2H9J0,中台,2025-04-20,23.9996,120.938739,1.3327596e-09
C0F9L0,后里,2025-04-20,24.310436,120.729725,2.1516247e-09
467441,高雄,2025-04-20,22.730432,120.312516,0.9996962
C0Z180,新城,2025-04-20,24.040486,121.604878,5.1129185e-09
C0D540,橫山,2025-04-20,24.71116,121.11693,6.0170713e-09
C1D420,太閣南,2025-04-20,24.632808,121.160575,2.1164213e-09
C1E770,公館,2025-04-20,24.526914,120.830806,4.2009958e-08
CAN130,水試所海水繁養殖中心,2025-04-20,23.120802,120.07968,0.6929818
C1I430,翠華,2025-04-20,24.191961,121.224339,9.681134e-09
C1M400,菜瓜坪,2025-04-20,23.251928,120.576103,9.420572e-10
C0G730,二林,2025-04-20,23.903325,120.376081,2.5002926e-06
72M360,南改義竹分場,2025-04-20,23.360694,120.279361,0.002814217
V2K620,麥寮合作社,2025-04-20,23.753836,120.294783,0.027863681
C0Z070,舞鶴,2025-04-20,23.46811,121.37407,1.562791e-09
C0B040,大武崙,2025-04-20,25.166676,121.706993,1.7439281e-09
C1Z030,紅葉,2025-04-20,23.493119,121.338806,1.4004413e-09
C1I050,丹大,2025-04-20,23.753747,121.141147,7.06766e-09
C0I080,信義,2025-04-20,23.689694,120.851036,1.2841274e-09
C2M920,朴子農改,2025-04-20,23.469889,120.259383,0.0008080783
C2A880,福隆,2025-04-20,25.017842,121.942083,1.6264626e-09
C0Z160,鳳林,2025-04-20,23.746114,121.453411,2.0121402e-09
C0V210,復興,2025-04-20,23.222403,120.806089,1.5488438e-09
C0H990,昆陽,2025-04-20,24.121322,121.273642,1.7612278e-08
C0R741,獅子,2025-04-20,22.202308,120.705236,1.5911278e-08
C0S710,鹿野,2025-04-20,22.917711,121.122994,2.77503e-09
C0I530,小奇萊,2025-04-20,24.131764,121.295717,1.8671626e-08
C2K630,荷苞,2025-04-20,23.657717,120.595144,0.0012805851
C0Z080,富源,2025-04-20,23.587642,121.378225,3.3336647e-09
C0SB10,美和,2025-04-20,22.682078,121.060236,6.7952584e-08
C2K620,馬光農場,2025-04-20,23.721453,120.378864,6.800409e-05
C1I140,卡奈托灣,2025-04-20,23.754364,121.087872,2.835484e-09
C0I520,玉山風口,2025-04-20,23.470489,120.955994,2.8605712e-08
C1G691,下水埔,2025-04-20,23.816114,120.5676,6.988799e-06
C0X110,臺南市南區,2025-04-20,22.961189,120.188378,0.99967873
C0V680,仁武,2025-04-20,22.701083,120.347722,0.9989887
C2G840,北斗,2025-04-20,23.877586,120.514222,0.00014811149
C0R900,竹坑,2025-04-20,22.1385,120.7022,1.2815099e-08
C0K250,崙背,2025-04-20,23.75555,120.318925,0.02739382
C0G860,社頭,2025-04-20,23.897647,120.5862,0.00010908327
C0X150,安定,2025-04-20,23.102614,120.227839,0.9997711
C0R590,里港,2025-04-20,22.77919,120.49459,4.8679243e-09
C0E610,馬都安,2025-04-20,24.451272,120.930192,8.624287e-09
C0E550,明德,2025-04-20,24.583486,120.885411,2.9725383e-08
C0R150,三地門,2025-04-20,22.709889,120.639944,8.56668e-08
C0G910,花壇,2025-04-20,24.032076,120.549461,4.3803535e-05
C1D400,鳥嘴山,2025-04-20,24.71909,121.28387,4.3249084e-09
C0K500,元長,2025-04-20,23.64981,120.315024,7.64794e-05
C0F0B0,石岡,2025-04-20,24.276061,120.777644,1.7497255e-09
C2V250,甲仙,2025-04-20,23.080106,120.591758,1.3073856e-09
C0SA20,金崙山,2025-04-20,22.567419,120.959667,1.3506319e-09
C0V350,溪埔,2025-04-20,22.738578,120.446797,3.726271e-09
C0M660,溪口,2025-04-20,23.604131,120.403569,0.004818463
C1S880,壽卡,2025-04-20,22.238911,120.858903,1.0014614e-09
72D680,桃改新埔分場,2025-04-20,24.834444,121.066111,4.7573177e-09
