站號,站名,日期,lat,lon,BlastGRU-TW
12J990,口湖工作站,2025-01-11,23.589978,120.180394,0.00043438963
12Q970,東港工作站,2025-01-11,22.479997,120.466058,0.006169463
12Q980,恆春工作站,2025-01-11,22.079678,120.714425,6.705412e-05
466881,新北,2025-01-11,24.9593,121.52,0.0025782983
466900,淡水,2025-01-11,25.164889,121.448906,0.003146205
466920,臺北,2025-01-11,25.037658,121.514853,0.004496471
466940,基隆,2025-01-11,25.133314,121.740475,0.0027809818
466990,花蓮,2025-01-11,23.975128,121.613275,0.004023787
467050,新屋,2025-01-11,25.006744,121.047486,0.00025390624
467080,宜蘭,2025-01-11,24.763975,121.756528,0.0021496029
467270,田中,2025-01-11,23.873803,120.581286,0.002159323
467280,後龍,2025-01-11,24.648563,120.831834,0.00049948366
467290,古坑,2025-01-11,23.633639,120.551889,0.0020551202
467300,東吉島,2025-01-11,23.25695,119.667467,0.00044467743
467350,澎湖,2025-01-11,23.565503,119.563094,0.00043885453
467410,臺南,2025-01-11,22.993239,120.204772,0.00087384874
467420,永康,2025-01-11,23.038386,120.2367,0.0011658391
467441,高雄,2025-01-11,22.7304,120.3125,0.002687248
467480,嘉義,2025-01-11,23.495925,120.432906,0.0016490552
467490,臺中,2025-01-11,24.145736,120.684075,0.0022940014
467540,大武,2025-01-11,22.355675,120.903789,0.0023532857
467571,新竹,2025-01-11,24.827853,121.014219,0.00045239518
467590,恆春,2025-01-11,22.003897,120.746339,7.091485e-05
467610,成功,2025-01-11,23.097486,121.373428,0.0012368732
467620,蘭嶼,2025-01-11,22.036969,121.558339,0.00040630478
467660,臺東,2025-01-11,22.752211,121.154586,0.0020414724
467790,墾丁雷達站,2025-01-11,21.948235,120.808028,3.7621623e-05
72AI40,桃改樹林分場,2025-01-11,24.944503,121.386972,0.0009503872
72C440,桃園農改,2025-01-11,24.950944,121.030583,0.00025646156
72C440,桃園農改場,2025-01-11,24.950944,121.030583,0.00025646156
72D680,桃改新埔分場,2025-01-11,24.834444,121.066111,0.0008105901
72G600,臺中農改,2025-01-11,24.003028,120.534389,0.000648635
72G600,臺中農改場,2025-01-11,24.003028,120.534389,0.000648635
72K220,南改斗南分場,2025-01-11,23.634556,120.477333,0.002647738
72M360,南改義竹分場,2025-01-11,23.360694,120.279361,0.00073658547
72M700,南改鹿草分場,2025-01-11,23.416869,120.283061,0.00082258583
72N100,臺南農改,2025-01-11,23.0605,120.342194,0.0035920183
72N100,臺南農改場,2025-01-11,23.0605,120.342194,0.0035920183
72N240,七股研究中心,2025-01-11,23.081672,120.062894,0.00063596567
72Q010,高雄農改,2025-01-11,22.709333,120.525889,0.0056529404
72Q010,高雄農改場,2025-01-11,22.709333,120.525889,0.0056529376
72S200,東改班鳩分場,2025-01-11,22.829528,121.077694,0.0011009653
72S590,東改賓朗果園,2025-01-11,22.813889,121.071278,0.0009601292
72T250,花蓮農改,2025-01-11,23.975222,121.563889,0.0032748778
72T250,花蓮農改場,2025-01-11,23.975222,121.563889,0.0032748778
72U480,花改蘭陽分場,2025-01-11,24.686306,121.716583,0.005314307
72V140,高改旗南分場,2025-01-11,22.857861,120.516667,0.0046505565
82A750,茶改北部分場,2025-01-11,24.955778,121.631222,0.00096464966
82C160,茶改場,2025-01-11,24.908472,121.185333,0.0005466703
82H840,茶改南部分場,2025-01-11,23.762528,120.7405,0.004143225
82S580,茶改東部分場,2025-01-11,22.907694,121.130139,0.00080233737
A2C560,農工中心,2025-01-11,24.985917,121.239833,0.00064396765
A2K360,水試臺西試驗場,2025-01-11,23.717231,120.190522,0.0004737168
A2K570,古坑花卉中心,2025-01-11,23.63353,120.55239,0.0020551202
A2K630,臺大雲林校區,2025-01-11,23.730628,120.423903,0.00095664844
A2N290,臺南蘭花園區,2025-01-11,23.340258,120.379661,0.0016418229
B2E890,畜試北區分所,2025-01-11,24.527806,120.770972,0.0005213713
B2N890,畜產試驗所,2025-01-11,23.058972,120.336406,0.003677001
B2N890,畜試所,2025-01-11,23.058972,120.336406,0.003677001
B2Q810,畜試南區分所,2025-01-11,21.945583,120.802167,3.141401e-05
B2U990,畜試東區分所,2025-01-11,24.669039,121.832561,0.023334414
C0A520,山佳,2025-01-11,24.974944,121.402008,0.002274827
C0A530,坪林,2025-01-11,24.938183,121.70975,0.0011930629
C0A550,泰平,2025-01-11,24.971197,121.823711,0.0013769468
C0A570,桶後,2025-01-11,24.848222,121.597992,0.0016018084
C0A640,石碇,2025-01-11,24.993969,121.662917,0.0008976904
C0A770,科教館,2025-01-11,25.096356,121.516507,0.0022933523
C0A860,大坪,2025-01-11,25.165914,121.632969,0.0011137633
C0A890,雙溪,2025-01-11,25.036003,121.864242,0.0019438668
C0A931,三和,2025-01-11,25.233153,121.595236,0.0010895234
C0A940,金山,2025-01-11,25.223628,121.643967,0.0022819694
C0A950,鼻頭角,2025-01-11,25.129036,121.923372,0.0010513294
C0A970,三貂角,2025-01-11,25.007606,122.002058,0.0027602923
C0A980,社子,2025-01-11,25.109508,121.469681,0.0034593674
C0A9C0,天母,2025-01-11,25.117494,121.537169,0.0025825803
C0A9F0,內湖,2025-01-11,25.079422,121.57545,0.004496471
C0AC60,三峽,2025-01-11,24.939025,121.369728,0.0009188715
C0AC70,信義,2025-01-11,25.037822,121.564597,0.004496471
C0AC80,文山,2025-01-11,25.00235,121.575728,0.0022923672
C0ACA0,新莊,2025-01-11,25.051478,121.446756,0.0040126843
C0AD10,八里,2025-01-11,25.150211,121.403947,0.0026327956
C0AD30,蘆洲,2025-01-11,25.086594,121.472331,0.0022010575
C0AD40,土城,2025-01-11,24.973208,121.445169,0.0027821288
C0AD50,鶯歌,2025-01-11,24.951533,121.346294,0.0008600319
C0AG80,中和,2025-01-11,24.991622,121.491792,0.0027821288
C0AH00,汐止,2025-01-11,25.066881,121.658778,0.004496471
C0AH10,永和,2025-01-11,25.01125,121.508111,0.0029042608
C0AH40,平等,2025-01-11,25.129142,121.577086,0.0009795692
C0AH50,林口,2025-01-11,25.072181,121.38084,0.0005504904
C0AH70,松山,2025-01-11,25.04871,121.55042,0.004496471
C0AH80,深坑,2025-01-11,25.002703,121.628328,0.002358582
C0AI00,五股,2025-01-11,25.07445,121.42728,0.001053245
C0AI10,屈尺,2025-01-11,24.92184,121.54475,0.001906297
C0AI20,白沙灣,2025-01-11,25.283128,121.519058,0.0014601612
C0AI30,三重,2025-01-11,25.057328,121.500629,0.004696192
C0AI40,石牌,2025-01-11,25.115597,121.513139,0.0026830926
C0AJ20,野柳,2025-01-11,25.20703,121.690021,0.0021778014
C0AJ30,淡水觀海,2025-01-11,25.184591,121.408616,0.0017254928
C0AJ40,石門,2025-01-11,25.273672,121.601198,0.0007389044
C0AJ50,水湳洞,2025-01-11,25.123695,121.862238,0.0020210731
C0AJ60,六塊厝,2025-01-11,25.24,121.4481,0.00158367
C0AJ70,田寮,2025-01-11,25.2698,121.4886,0.0015029274
C0AJ80,板橋,2025-01-11,25.0107,121.4489,0.0029042608
C0AJ90,澳底,2025-01-11,25.0552,121.9253,0.0022261401
C0B010,七堵,2025-01-11,25.094819,121.71713,0.003949937
C0B020,基隆嶼,2025-01-11,25.19141,121.78391,0.001085449
C0B040,大武崙,2025-01-11,25.166676,121.706993,0.0024273794
C0B050,八斗子,2025-01-11,25.144754,121.79167,0.0028826434
C0B060,暖暖,2025-01-11,25.0957,121.7403,0.0029243047
C0C460,復興,2025-01-11,24.820208,121.352281,0.0006526069
C0C480,桃園,2025-01-11,24.992425,121.323172,0.00076538173
C0C490,八德,2025-01-11,24.928708,121.283289,0.00056282175
C0C590,觀音,2025-01-11,25.027072,121.153317,0.00030730094
C0C620,蘆竹,2025-01-11,25.084275,121.265767,0.00033532295
C0C630,大溪,2025-01-11,24.882853,121.265547,0.00053645734
C0C650,平鎮,2025-01-11,24.897503,121.214636,0.000521743
C0C660,楊梅,2025-01-11,24.912375,121.143047,0.00058300316
C0C670,龍潭,2025-01-11,24.870056,121.221389,0.0005030869
C0C680,龜山,2025-01-11,25.02846,121.38656,0.0005801022
C0C700,中壢,2025-01-11,24.977661,121.256375,0.0005299543
C0C710,大溪永福,2025-01-11,24.892936,121.324975,0.00080539065
C0C720,竹圍,2025-01-11,25.112692,121.239824,0.00040870786
C0C730,中大臨海站,2025-01-11,24.966126,121.008581,0.00025530957
C0C740,觀音工業區,2025-01-11,25.064764,121.114856,0.00025450267
C0C750,新興坑尾,2025-01-11,25.0061,121.0971,0.00031297698
C0D430,峨眉,2025-01-11,24.6905,121.017189,0.00036177313
C0D480,打鐵坑,2025-01-11,24.849664,121.150789,0.00050225365
C0D540,橫山,2025-01-11,24.71116,121.11693,0.0006158574
C0D560,竹東,2025-01-11,24.767147,121.057881,0.000382077
C0D580,寶山,2025-01-11,24.735006,121.025192,0.0003745488
C0D590,新豐,2025-01-11,24.87068,120.97721,0.00044535677
C0D650,湖口,2025-01-11,24.904794,121.043628,0.00040028567
C0D660,新竹市東區,2025-01-11,24.798681,120.986942,0.00036824791
C0D670,海天一線,2025-01-11,24.831986,120.914438,0.00032036242
C0D680,香山濕地,2025-01-11,24.783581,120.914988,0.00037909122
C0D690,外湖,2025-01-11,24.917735,120.968711,0.00042776312
C0D700,關西,2025-01-11,24.7977,121.1732,0.00067915744
C0E420,竹南,2025-01-11,24.708978,120.888897,0.00038675283
C0E430,南庄,2025-01-11,24.601775,121.000214,0.00071976864
C0E550,明德,2025-01-11,24.583486,120.885411,0.0005410379
C0E590,通霄,2025-01-11,24.471892,120.704622,0.0004738227
C0E730,頭份,2025-01-11,24.688247,120.912206,0.000388196
C0E740,造橋,2025-01-11,24.637056,120.864778,0.00050713314
C0E750,苗栗,2025-01-11,24.564569,120.824575,0.0005531433
C0E780,銅鑼,2025-01-11,24.489681,120.790853,0.00048179596
C0E791,卓蘭,2025-01-11,24.3126,120.8244,0.00087270385
C0E810,西湖,2025-01-11,24.562947,120.7485,0.00035039985
C0E820,獅潭,2025-01-11,24.539133,120.920042,0.000591065
C0E830,苑裡,2025-01-11,24.439714,120.653053,0.00036989842
C0E850,大河,2025-01-11,24.618069,120.948578,0.0005989582
C0E870,高鐵苗栗,2025-01-11,24.60725,120.826094,0.0005033958
C0E910,海埔,2025-01-11,24.648767,120.772435,0.00033055554
C0E920,通霄漁港,2025-01-11,24.498589,120.673876,0.00037122122
C0E930,龍鳳,2025-01-11,24.700034,120.859125,0.0003924634
C0F0B0,石岡,2025-01-11,24.276061,120.777644,0.0012262972
C0F850,東勢,2025-01-11,24.246428,120.833047,0.0007312253
C0F970,大坑,2025-01-11,24.173142,120.722289,0.0036419495
C0F9I0,神岡,2025-01-11,24.272481,120.658314,0.0006771465
C0F9K0,大安,2025-01-11,24.345061,120.588025,0.00035821187
C0F9L0,后里,2025-01-11,24.310436,120.729725,0.0013993164
C0F9M0,豐原,2025-01-11,24.254322,120.720692,0.0015249628
C0F9N0,大里,2025-01-11,24.092464,120.701378,0.0023182218
C0F9O0,潭子,2025-01-11,24.213106,120.703933,0.0015099283
C0F9P0,清水,2025-01-11,24.312297,120.562242,0.000482455
C0F9Q0,外埔,2025-01-11,24.347817,120.705686,0.0007261304
C0F9R0,龍井,2025-01-11,24.184536,120.528972,0.00095422793
C0F9S0,烏日,2025-01-11,24.107058,120.624103,0.0026158215
C0F9T0,西屯,2025-01-11,24.179494,120.641275,0.0018022903
C0F9U0,南屯,2025-01-11,24.137006,120.637969,0.0020491565
C0F9X0,大雅(中科園區),2025-01-11,24.21528,120.62445,0.00065409194
C0FA10,松柏,2025-01-11,24.429115,120.617482,0.00035948827
C0FA20,溫寮,2025-01-11,24.372177,120.583125,0.00036181646
C0FA30,梧棲,2025-01-11,24.256003,120.523381,0.000482455
C0FA40,臺中電廠,2025-01-11,24.2146,120.4907,0.00046899775
C0FA50,霧峰,2025-01-11,24.0419,120.6995,0.0020672332
C0G620,芬園,2025-01-11,24.015678,120.6213,0.0032430384
C0G650,員林,2025-01-11,23.946503,120.585597,0.0010525334
C0G660,溪湖,2025-01-11,23.94835,120.479122,0.0006795194
C0G720,溪州,2025-01-11,23.851589,120.499093,0.0022842025
C0G730,二林,2025-01-11,23.903325,120.376081,0.00053623726
C0G740,大城,2025-01-11,23.852487,120.320935,0.00057715084
C0G770,福興,2025-01-11,24.041289,120.437669,0.00050794927
C0G780,秀水,2025-01-11,24.03405,120.503869,0.0006538539
C0G800,埔鹽,2025-01-11,24.000394,120.431683,0.000506508
C0G810,埔心,2025-01-11,23.947633,120.525456,0.0006697764
C0G820,田尾,2025-01-11,23.901669,120.509389,0.0022025546
C0G830,埤頭,2025-01-11,23.866003,120.452806,0.002415034
C0G860,社頭,2025-01-11,23.897647,120.5862,0.0022332116
C0G880,二水,2025-01-11,23.810742,120.6173,0.0020835805
C0G890,伸港,2025-01-11,24.148933,120.484403,0.0009311856
C0G900,線西,2025-01-11,24.143358,120.443536,0.0009426834
C0G910,花壇,2025-01-11,24.032076,120.549461,0.00063603354
C0G920,永靖,2025-01-11,23.924703,120.547533,0.0022025546
C0G940,竹塘,2025-01-11,23.848253,120.386764,0.0005428189
C0G950,防潮門,2025-01-11,24.1835,120.4871,0.00095422793
C0G960,福寶,2025-01-11,24.0443,120.3814,0.0005374167
C0G970,三豐,2025-01-11,23.882,120.2895,0.00046871282
C0H890,埔里,2025-01-11,23.972169,120.952425,0.0031401645
C0H960,草屯,2025-01-11,23.973672,120.68085,0.0033535075
C0I110,竹山,2025-01-11,23.761225,120.688156,0.0012947244
C0I360,水里,2025-01-11,23.812553,120.849792,0.0048570856
C0I380,集集,2025-01-11,23.828206,120.801467,0.0050595426
C0I410,名間,2025-01-11,23.837053,120.701447,0.001929101
C0I420,國姓,2025-01-11,24.037803,120.855072,0.0029550202
C0I460,南投,2025-01-11,23.911469,120.687331,0.0016214511
C0K250,崙背,2025-01-11,23.75555,120.318925,0.00082268147
C0K280,四湖,2025-01-11,23.630414,120.227125,0.0005861017
C0K291,宜梧,2025-01-11,23.536281,120.169329,0.00053400756
C0K330,虎尾,2025-01-11,23.719183,120.442036,0.001568663
C0K390,土庫,2025-01-11,23.679029,120.395574,0.00093335734
C0K400,斗六,2025-01-11,23.720583,120.541127,0.001615725
C0K410,北港,2025-01-11,23.573957,120.292802,0.0005811781
C0K420,西螺,2025-01-11,23.800407,120.467394,0.0017335757
C0K430,褒忠,2025-01-11,23.690938,120.303634,0.00045944014
C0K440,二崙,2025-01-11,23.772797,120.408944,0.0010349749
C0K450,大埤,2025-01-11,23.646074,120.431537,0.00094710465
C0K460,斗南,2025-01-11,23.678734,120.478359,0.002647738
C0K470,林內,2025-01-11,23.748675,120.609642,0.0020354262
C0K480,莿桐,2025-01-11,23.761192,120.502372,0.0015166578
C0K500,元長,2025-01-11,23.64981,120.315024,0.0007945612
C0K510,水林,2025-01-11,23.572924,120.24597,0.0005839168
C0K530,臺西,2025-01-11,23.701547,120.197559,0.00047055073
C0K550,蔦松,2025-01-11,23.514319,120.229736,0.0005340073
C0K560,棋山,2025-01-11,23.68645,120.603417,0.0019169607
C0K580,高鐵雲林,2025-01-11,23.737456,120.417944,0.00095664844
C0K590,雲林東勢,2025-01-11,23.674192,120.255721,0.000611486
C0K600,箔子寮,2025-01-11,23.6197,120.14,0.00043438963
C0M520,東後寮,2025-01-11,23.369908,120.248065,0.0007440758
C0M640,中埔,2025-01-11,23.42538,120.5229,0.0017298482
C0M650,朴子,2025-01-11,23.43463,120.23902,0.0008317743
C0M660,溪口,2025-01-11,23.604131,120.403569,0.0009337395
C0M670,大林,2025-01-11,23.600616,120.45841,0.0028299948
C0M680,太保,2025-01-11,23.455062,120.331455,0.0019182459
C0M690,水上,2025-01-11,23.419734,120.388909,0.00165795
C0M700,竹崎,2025-01-11,23.526178,120.555508,0.0018662057
C0M710,東石,2025-01-11,23.458927,120.15385,0.0005209079
C0M720,番路,2025-01-11,23.464657,120.554156,0.0059647257
C0M730,嘉義市東區,2025-01-11,23.457673,120.460531,0.0035309922
C0M740,六腳,2025-01-11,23.492871,120.290625,0.000680967
C0M750,布袋,2025-01-11,23.380878,120.167789,0.0006024552
C0M760,民雄,2025-01-11,23.551754,120.428457,0.0014139002
C0M770,嘉義梅山,2025-01-11,23.585398,120.555587,0.0015428537
C0M780,鹿草,2025-01-11,23.41134,120.30835,0.00080861704
C0M790,新港,2025-01-11,23.553269,120.345728,0.0015415349
C0M800,茶山,2025-01-11,23.299075,120.664767,0.00480111
C0M880,好美里,2025-01-11,23.3364,120.138,0.00057643483
C0N010,鯤鯓國小,2025-01-11,23.1879,120.0889,0.00066096795
C0N020,城西,2025-01-11,23.0568,120.0956,0.00091118354
C0N030,四草,2025-01-11,23.0235,120.1116,0.0009160605
C0N040,蘆竹溝,2025-01-11,23.2344,120.0961,0.00066948985
C0N050,蚵寮,2025-01-11,23.301,120.1104,0.0006593277
C0O830,北寮,2025-01-11,23.079561,120.495008,0.0045157624
C0O840,王爺宮,2025-01-11,23.222064,120.40085,0.0014805603
C0O860,大內,2025-01-11,23.11885,120.36083,0.008654698
C0O900,善化,2025-01-11,23.112883,120.297219,0.002252384
C0O960,崎頂,2025-01-11,22.959547,120.369317,0.002348641
C0O970,虎頭埤,2025-01-11,23.021375,120.347878,0.0030741584
C0O980,新市,2025-01-11,23.061614,120.298197,0.0013238178
C0O990,媽廟,2025-01-11,22.99175,120.293525,0.0011244065
C0R150,三地門,2025-01-11,22.709889,120.639944,0.009324757
C0R160,鹽埔,2025-01-11,22.739558,120.530778,0.0056529376
C0R170,屏東,2025-01-11,22.660269,120.494072,0.006676921
C0R190,赤山,2025-01-11,22.592333,120.614306,0.010651592
C0R220,潮州,2025-01-11,22.534361,120.54,0.00985382
C0R240,來義,2025-01-11,22.527306,120.625111,0.0040658102
C0R260,春日,2025-01-11,22.370361,120.628306,0.0137177585
C0R270,琉球嶼,2025-01-11,22.332244,120.362236,0.010335227
C0R280,檳榔,2025-01-11,22.076078,120.836777,1.4190187e-05
C0R320,車城,2025-01-11,22.0744,120.716247,6.705412e-05
C0R341,牡丹,2025-01-11,22.130036,120.792639,1.4024828e-05
C0R350,貓鼻頭,2025-01-11,21.921774,120.7358,1.2947798e-05
C0R470,高樹,2025-01-11,22.826389,120.600806,0.0036578667
C0R480,長治,2025-01-11,22.693128,120.542622,0.0062086754
C0R490,九如,2025-01-11,22.7405,120.490503,0.005967226
C0R520,崁頂,2025-01-11,22.514781,120.506914,0.010577923
C0R540,佳冬,2025-01-11,22.419456,120.552375,0.023796458
C0R550,新埤,2025-01-11,22.467947,120.582894,0.0039991094
C0R560,新園,2025-01-11,22.5434,120.461558,0.007239509
C0R570,麟洛,2025-01-11,22.65078,120.52719,0.006676921
C0R580,南州,2025-01-11,22.48591,120.50274,0.006169457
C0R590,里港,2025-01-11,22.77919,120.49459,0.0068377457
C0R620,墾雷,2025-01-11,21.900836,120.855269,6.1585883e-06
C0R640,東港,2025-01-11,22.46247,120.44074,0.006169463
C0R650,竹田,2025-01-11,22.58486,120.54344,0.0072951983
C0R660,枋寮,2025-01-11,22.367722,120.590647,0.024427937
C0R670,楓港,2025-01-11,22.190131,120.692156,0.001058325
C0R680,佳樂水,2025-01-11,21.993578,120.861633,3.18298e-05
C0R690,墾丁,2025-01-11,21.966756,120.810269,0.0021285475
C0R700,枋山,2025-01-11,22.246844,120.661086,0.00020972545
C0R710,龍磐,2025-01-11,21.931672,120.838942,1.546345e-05
C0R720,旭海,2025-01-11,22.205403,120.887614,0.0006114365
C0R730,大坪頂,2025-01-11,22.024633,120.69355,0.00012983794
C0R740,獅子,2025-01-11,22.201569,120.70525,0.0021799286
C0R760,南仁湖,2025-01-11,22.084681,120.863353,0.0009296564
C0R770,保力,2025-01-11,22.071122,120.764111,6.978022e-05
C0R780,滿州,2025-01-11,22.024403,120.839892,7.672638e-05
C0R790,九棚,2025-01-11,22.14195,120.889281,0.0007267871
C0R800,丹路,2025-01-11,22.204481,120.750989,1.603657e-05
C0R810,內獅,2025-01-11,22.305064,120.642986,0.000109585366
C0R830,高士,2025-01-11,22.121825,120.836781,0.00055647304
C0R850,林邊,2025-01-11,22.4634,120.5339,0.005837024
C0R860,鼻頭,2025-01-11,22.1043,120.8979,8.9050525e-05
C0R870,興海,2025-01-11,21.9752,120.8439,3.141401e-05
C0R880,後壁湖,2025-01-11,21.9457,120.7457,3.442798e-05
C0R890,山海,2025-01-11,21.9878,120.7091,3.447943e-05
C0R900,竹坑,2025-01-11,22.1385,120.7022,6.7099856e-05
C0R910,下寮,2025-01-11,22.3929,120.5548,0.024427937
C0R920,塭仔,2025-01-11,22.4169,120.5197,0.025776133
C0R930,萬丹,2025-01-11,22.5885,120.4851,0.0062355716
C0R940,加祿堂,2025-01-11,22.3363,120.6217,0.007827612
C0S710,鹿野,2025-01-11,22.917711,121.122994,0.0008522296
C0S730,綠島,2025-01-11,22.6672,121.47533,0.0004103628
C0S740,池上,2025-01-11,23.119628,121.209469,0.00070675305
C0S770,大溪山,2025-01-11,22.478475,120.943325,0.0008310779
C0S790,金崙,2025-01-11,22.538122,120.966875,0.0013239571
C0S810,東河,2025-01-11,22.972672,121.303986,0.0013140861
C0S830,長濱,2025-01-11,23.286817,121.411975,0.0006551073
C0S840,南田,2025-01-11,22.279725,120.889208,0.0018691426
C0S890,關山,2025-01-11,23.0395,121.175017,0.00077403785
C0S900,蘭嶼高中,2025-01-11,22.04909,121.51214,0.000910557
C0S910,蘭嶼燈塔,2025-01-11,22.081197,121.503117,0.0006124942
C0S920,金峰嘉蘭,2025-01-11,22.594789,120.960825,0.0012886518
C0S930,延平,2025-01-11,22.902581,121.084058,0.0007092282
C0S940,石寧山,2025-01-11,23.223772,121.406639,0.00088174315
C0S950,七塊厝,2025-01-11,22.954453,121.229922,0.00070815877
C0S960,香蘭,2025-01-11,22.587569,120.993375,0.0020150123
C0S970,加津林,2025-01-11,22.416211,120.926942,0.0021387322
C0S990,山豬窟,2025-01-11,22.318619,120.857372,0.00052760186
C0SA00,歷坵,2025-01-11,22.520969,120.89185,0.00084276753
C0SA10,檳榔四格山,2025-01-11,22.810031,121.109308,0.0006977222
C0SA30,都歷,2025-01-11,23.020333,121.323642,0.0010958622
C0SA40,瑞和,2025-01-11,22.974361,121.156697,0.0008780014
C0SA60,知本（水試所）,2025-01-11,22.702394,121.082761,0.0024221106
C0SA80,土坂,2025-01-11,22.453108,120.887572,0.0015632907
C0SA90,達仁林場,2025-01-11,22.264347,120.823972,0.00035403887
C0T870,鯉魚潭,2025-01-11,23.935639,121.508944,0.0015570794
C0T900,西林,2025-01-11,23.8119,121.441458,0.0014182546
C0T960,光復,2025-01-11,23.660694,121.424964,0.0017531259
C0T9A0,月眉山,2025-01-11,23.809928,121.539828,0.0005096632
C0T9D0,和中,2025-01-11,24.26676,121.74103,0.00085519144
C0T9E0,大坑,2025-01-11,23.880628,121.581981,0.0006100461
C0T9F0,水璉,2025-01-11,23.797131,121.542514,0.0010418772
C0T9I0,豐濱,2025-01-11,23.583897,121.514806,0.0015644798
C0T9M0,靜浦,2025-01-11,23.455167,121.495028,0.0021061301
C0T9N0,富里,2025-01-11,23.171639,121.249378,0.00088882016
C0U600,礁溪,2025-01-11,24.817539,121.765608,0.0026822903
C0U650,玉蘭,2025-01-11,24.675286,121.587061,0.0013587214
C0U750,龜山島,2025-01-11,24.841667,121.953133,0.0009231986
C0U760,東澳,2025-01-11,24.52196,121.83318,0.004419322
C0U770,南澳,2025-01-11,24.44935,121.81022,0.003232039
C0U780,五結,2025-01-11,24.68637,121.79794,0.006031424
C0U860,頭城,2025-01-11,24.85323,121.8308,0.00280432
C0U870,大礁溪,2025-01-11,24.791042,121.675047,0.0013261953
C0U880,北關,2025-01-11,24.9072,121.8734,0.003949815
C0U890,三星,2025-01-11,24.66812,121.65302,0.0066729756
C0U900,內城,2025-01-11,24.71813,121.68766,0.0048636445
C0U910,冬山,2025-01-11,24.63373,121.7937,0.023334414
C0U940,羅東,2025-01-11,24.68184,121.74934,0.0055649746
C0U970,大福,2025-01-11,24.80064,121.81389,0.0022357886
C0U990,員山,2025-01-11,24.74435,121.72247,0.005739999
C0UA00,土場,2025-01-11,24.576533,121.495333,0.0011715965
C0UA80,大溪漁港,2025-01-11,24.941801,121.902955,0.0021758906
C0UA90,石城,2025-01-11,24.980444,121.951214,0.0036397164
C0UB00,淡江大學蘭陽校園,2025-01-11,24.823239,121.730383,0.0013077646
C0UB10,蘇澳,2025-01-11,24.5969,121.8571,0.007856522
C0UB20,壯圍,2025-01-11,24.7359,121.8163,0.0061159544
C0V310,美濃,2025-01-11,22.898742,120.519153,0.0046505565
C0V350,溪埔,2025-01-11,22.738578,120.446797,0.0070864633
C0V360,內門,2025-01-11,22.975481,120.466769,0.0045176367
C0V370,古亭坑,2025-01-11,22.893178,120.401947,0.0030813036
C0V400,阿公店,2025-01-11,22.804194,120.355528,0.0036956419
C0V440,鳳山,2025-01-11,22.646653,120.356122,0.002547965
C0V450,鳳森,2025-01-11,22.545064,120.392592,0.0024477758
C0V490,新興,2025-01-11,22.627422,120.298803,0.0020988658
C0V530,阿蓮,2025-01-11,22.883208,120.327508,0.0026652238
C0V610,梓官,2025-01-11,22.760558,120.267211,0.0017413608
C0V620,永安,2025-01-11,22.82315,120.236856,0.0012480767
C0V630,茄萣,2025-01-11,22.906642,120.182608,0.00083920715
C0V640,湖內,2025-01-11,22.887139,120.2445,0.0011344642
C0V650,彌陀,2025-01-11,22.783806,120.246361,0.001282306
C0V660,岡山,2025-01-11,22.797078,120.294958,0.001282306
C0V680,仁武,2025-01-11,22.701083,120.347722,0.002530973
C0V690,鼓山,2025-01-11,22.623325,120.275575,0.0020988658
C0V700,三民,2025-01-11,22.645017,120.311233,0.0016119613
C0V710,苓雅,2025-01-11,22.622742,120.330669,0.0041393344
C0V720,林園,2025-01-11,22.507747,120.394511,0.005314935
C0V730,大寮,2025-01-11,22.605614,120.395717,0.0039053687
C0V740,旗山,2025-01-11,22.888614,120.483597,0.0044114892
C0V750,路竹,2025-01-11,22.854997,120.259439,0.0011090438
C0V760,橋頭,2025-01-11,22.757806,120.30575,0.0017413625
C0V770,大社,2025-01-11,22.730306,120.346639,0.002687248
C0V790,萬山,2025-01-11,22.905944,120.688056,0.0040678615
C0V800,六龜,2025-01-11,22.997889,120.633583,0.0034547283
C0V810,左營,2025-01-11,22.67491,120.28491,0.0016119598
C0V820,小林,2025-01-11,23.148408,120.63325,0.002619573
C0V840,鳳鼻頭,2025-01-11,22.5083,120.3591,0.00768591
C0V850,蚵仔寮,2025-01-11,22.7256,120.2527,0.0018140951
C0V860,南寮,2025-01-11,22.7616,120.2339,0.001849792
C0V870,文安,2025-01-11,22.8025,120.2164,0.0013216328
C0V880,興達,2025-01-11,22.8778,120.2127,0.0011611865
C0V890,前鎮,2025-01-11,22.5718,120.3117,0.0021573654
C0V900,汕尾,2025-01-11,22.4782,120.4151,0.006169463
C0W200,湖西,2025-01-11,23.596314,119.67275,0.00042489695
C0X050,東河,2025-01-11,23.296598,120.385608,0.0025156885
C0X060,下營,2025-01-11,23.22695,120.256261,0.0012896679
C0X080,佳里,2025-01-11,23.173039,120.145086,0.00066096795
C0X100,臺南市北區,2025-01-11,23.010394,120.194228,0.00090183335
C0X110,臺南市南區,2025-01-11,22.961189,120.188378,0.0009670039
C0X120,麻豆,2025-01-11,23.183289,120.248611,0.0021862292
C0X130,官田,2025-01-11,23.193217,120.315422,0.0025719577
C0X140,西港,2025-01-11,23.125608,120.203108,0.0019513224
C0X150,安定,2025-01-11,23.102614,120.227839,0.0019513224
C0X160,仁德,2025-01-11,22.968258,120.257689,0.00096221763
C0X170,關廟,2025-01-11,22.963017,120.327797,0.0031917884
C0X180,山上,2025-01-11,23.0757,120.363253,0.005973188
C0X190,安平,2025-01-11,22.993161,120.152181,0.0009018338
C0X200,左鎮,2025-01-11,23.056758,120.408522,0.0031981482
C0X210,白河,2025-01-11,23.347466,120.414427,0.0018092205
C0X220,學甲,2025-01-11,23.230367,120.182187,0.00066566264
C0X230,鹽水,2025-01-11,23.272621,120.247641,0.0009696194
C0X240,關子嶺,2025-01-11,23.331169,120.508025,0.002135714
C0X250,新營,2025-01-11,23.310689,120.316681,0.0021078216
C0X260,後壁,2025-01-11,23.366358,120.362326,0.0016418229
C0X280,將軍,2025-01-11,23.214999,120.13577,0.0006694895
C0X290,北門,2025-01-11,23.267772,120.125481,0.00066948985
C0X300,鹿寮,2025-01-11,23.386047,120.477331,0.0024203819
C0X320,柳營,2025-01-11,23.253328,120.375253,0.0022818292
C0Z020,明里,2025-01-11,23.208717,121.262342,0.0007070455
C0Z061,玉里,2025-01-11,23.3215,121.339656,0.0007784142
C0Z070,舞鶴,2025-01-11,23.46811,121.37407,0.00093535014
C0Z080,富源,2025-01-11,23.587642,121.378225,0.0009050269
C0Z100,東華,2025-01-11,23.89525,121.549833,0.0034464083
C0Z150,吉安光華,2025-01-11,23.930925,121.595153,0.0038446165
C0Z160,鳳林,2025-01-11,23.746114,121.453411,0.002182379
C0Z170,卓溪,2025-01-11,23.3443,121.3029,0.0010145479
C0Z180,新城,2025-01-11,24.03946,121.60454,0.003743709
C0Z190,富世,2025-01-11,24.14743,121.6297,0.0011857379
C0Z200,萬榮,2025-01-11,23.709219,121.420106,0.0017766774
C0Z210,瑞穗,2025-01-11,23.5239,121.39021,0.0017262988
C0Z230,和平,2025-01-11,24.30717,121.77007,0.0008636094
C0Z270,蕃薯寮,2025-01-11,23.73835,121.540108,0.00093347434
C0Z280,德武,2025-01-11,23.47426,121.41071,0.00078651845
C0Z300,東里,2025-01-11,23.26853,121.30547,0.0008077022
C0Z310,清水斷崖,2025-01-11,24.218294,121.689142,0.0007519145
C0Z330,安通山,2025-01-11,23.290728,121.348528,0.0006152786
C2A540,四堵,2025-01-11,24.8926,121.745736,0.0010225796
C2A560,福山,2025-01-11,24.776203,121.502811,0.0032214138
C2A650,火燒寮,2025-01-11,25.002719,121.742892,0.0023429352
C2A660,瑞芳,2025-01-11,25.113169,121.801147,0.0015588537
C2A880,福隆,2025-01-11,25.017842,121.942083,0.0037775163
C2A920,富貴角,2025-01-11,25.263783,121.565258,0.00068486674
C2E520,大湖,2025-01-11,24.414939,120.870872,0.0010041614
C2E540,後龍,2025-01-11,24.606489,120.783933,0.00032979442
C2E540,龍溪,2025-01-11,24.606489,120.783933,0.00032979442
C2F000,大肚,2025-01-11,24.15295,120.572117,0.0010594269
C2F930,大甲,2025-01-11,24.347667,120.640403,0.0003476905
C2F9A0,中竹林,2025-01-11,24.103556,120.751061,0.003915435
C2G640,鹿港,2025-01-11,24.0753,120.430481,0.0005374167
C2G840,北斗,2025-01-11,23.877586,120.514222,0.0023356592
C2G870,芳苑,2025-01-11,23.922303,120.320025,0.000590637
C2H950,中寮,2025-01-11,23.884447,120.766406,0.0050005144
C2M410,馬頭山,2025-01-11,23.324361,120.582017,0.0033575774
C2N160,西拉雅風管處,2025-01-11,23.189481,120.335297,0.0025437884
C2O810,曾文,2025-01-11,23.219681,120.497328,0.005540687
C2O930,玉井,2025-01-11,23.126042,120.46055,0.005973188
C2O950,安南,2025-01-11,23.076694,120.144861,0.0006284958
C2V250,甲仙,2025-01-11,23.080106,120.591758,0.0038215888
C2V260,月眉,2025-01-11,22.971003,120.539853,0.0031817365
C2W230,畜試所澎湖,2025-01-11,23.628342,119.513206,0.00041908782
CAG100,王功漁港,2025-01-11,23.96824,120.32586,0.0005559212
CAH030,茶改場竹圍站,2025-01-11,23.860083,120.637528,0.0029297487
CAJ050,海口故事園區,2025-01-11,23.57543,120.14121,0.00043525218
CAL110,布袋國中,2025-01-11,23.35893,120.18026,0.00060245435
CAN130,水試所海水繁養殖中心,2025-01-11,23.120802,120.07968,0.00063596567
CAN140,六官養殖協會,2025-01-11,23.22881,120.29962,0.0012896679
CAQ030,崎峰國小,2025-01-11,22.42565,120.49521,0.006169463
E2K600,四湖植物園,2025-01-11,23.676986,120.163433,0.0005861017
E2P980,林試六龜中心,2025-01-11,22.991703,120.645722,0.0031488743
E2S960,林試太麻里2,2025-01-11,22.598014,120.989761,0.0019509214
E2S960,林試太麻里2,2025-01-11,22.598,120.99775,0.0021480427
E2S980,林試太麻里1,2025-01-11,22.598922,120.980044,0.0013153678
G2AI50,關渡,2025-01-11,25.11575,121.492,0.0033194371
G2F820,農業試驗所,2025-01-11,24.031261,120.688133,0.002160209
G2F820,農試所(霧峰),2025-01-11,24.031261,120.688133,0.002160209
G2L020,農試嘉義分所,2025-01-11,23.485028,120.473806,0.0024793374
G2M350,農試溪口農場,2025-01-11,23.58565,120.408111,0.0009337395
G2P820,農試鳳山分所,2025-01-11,22.646611,120.356083,0.002547965
K2E360,苗栗農改,2025-01-11,24.495722,120.829111,0.00061331905
K2E360,苗栗農改場,2025-01-11,24.495722,120.829111,0.00061331934
K2E710,苗改生物防治研究中心,2025-01-11,24.422861,120.871833,0.0010872129
K2F750,種苗改良場,2025-01-11,24.225972,120.800917,0.00049982395
K2F750,種苗繁殖,2025-01-11,24.225972,120.800917,0.00049982395
U2HA50,臺大竹山,2025-01-11,23.756972,120.681556,0.0056690695
V2C250,八德合作社,2025-01-11,24.93775,121.266389,0.0005251072
V2C260,八德蔬果,2025-01-11,24.978508,121.281819,0.000548883
V2K610,大庄合作社,2025-01-11,23.8068,120.367939,0.00078805035
V2K620,麥寮合作社,2025-01-11,23.753836,120.294783,0.00046147234
