站號,站名,日期,lat,lon,BLBTSLS
C0K280,四湖,2025-11-03,23.630414,120.227125,0.9992914
A2K570,古坑花卉中心,2025-11-03,23.63353,120.55239,0.9439621
467571,新竹,2025-11-03,24.827853,121.014219,0.11408019
C0E430,南庄,2025-11-03,24.601775,121.000214,0.21698439
C0E420,竹南,2025-11-03,24.708978,120.888897,0.93094856
C0M530,奮起湖,2025-11-03,23.493903,120.699253,4.1650745e-09
C0C590,觀音,2025-11-03,25.027072,121.153317,0.64127
C0X060,下營,2025-11-03,23.22695,120.256261,0.9383728
C2D740,屯原,2025-11-03,24.067969,121.209389,7.3928423e-09
C0M810,里佳,2025-11-03,23.389125,120.716647,3.889629e-09
C0K250,崙背,2025-11-03,23.75555,120.318925,0.2852411
