站號,站名,日期,lat,lon,BlastGRU-TW
12J990,口湖工作站,2025-03-08,23.589978,120.180394,0.0005131789
12Q970,東港工作站,2025-03-08,22.479997,120.466058,0.33541435
12Q980,恆春工作站,2025-03-08,22.079678,120.714425,0.0048780325
466881,新北,2025-03-08,24.9593,121.52,0.0031990816
466900,淡水,2025-03-08,25.164889,121.448906,0.0006663986
466920,臺北,2025-03-08,25.037658,121.514853,0.0039353925
466940,基隆,2025-03-08,25.133314,121.740475,0.029976709
466990,花蓮,2025-03-08,23.975128,121.613275,0.010903283
467050,新屋,2025-03-08,25.006744,121.047486,0.00011234076
467080,宜蘭,2025-03-08,24.763975,121.756528,0.047836542
467270,田中,2025-03-08,23.873803,120.581286,0.092284456
467280,後龍,2025-03-08,24.648563,120.831834,0.00046058267
467290,古坑,2025-03-08,23.633639,120.551889,0.11373631
467300,東吉島,2025-03-08,23.25695,119.667467,0.00047571555
467350,澎湖,2025-03-08,23.565503,119.563094,0.0005729142
467410,臺南,2025-03-08,22.993239,120.204772,0.010474304
467420,永康,2025-03-08,23.038386,120.2367,0.055807926
467441,高雄,2025-03-08,22.7304,120.3125,0.34287316
467480,嘉義,2025-03-08,23.495925,120.432906,0.06427523
467490,臺中,2025-03-08,24.145736,120.684075,0.03711356
467540,大武,2025-03-08,22.355675,120.903789,0.36991507
467571,新竹,2025-03-08,24.827853,121.014219,0.00014240755
467590,恆春,2025-03-08,22.003897,120.746339,0.008656516
467610,成功,2025-03-08,23.097486,121.373428,0.018306192
467620,蘭嶼,2025-03-08,22.036969,121.558339,0.00012637019
467660,臺東,2025-03-08,22.752211,121.154586,0.049130175
467790,墾丁雷達站,2025-03-08,21.948235,120.808028,0.0012407684
72AI40,桃改樹林分場,2025-03-08,24.944503,121.386972,0.0013423236
72C440,桃園農改,2025-03-08,24.950944,121.030583,0.00012374655
72C440,桃園農改場,2025-03-08,24.950944,121.030583,0.00012374655
72D680,桃改新埔分場,2025-03-08,24.834444,121.066111,0.00015765995
72G600,臺中農改,2025-03-08,24.003028,120.534389,0.0007187716
72G600,臺中農改場,2025-03-08,24.003028,120.534389,0.00071877224
72K220,南改斗南分場,2025-03-08,23.634556,120.477333,0.1935886
72M360,南改義竹分場,2025-03-08,23.360694,120.279361,0.0055723423
72M700,南改鹿草分場,2025-03-08,23.416869,120.283061,0.008989693
72N100,臺南農改,2025-03-08,23.0605,120.342194,0.3488042
72N100,臺南農改場,2025-03-08,23.0605,120.342194,0.3488042
72N240,七股研究中心,2025-03-08,23.081672,120.062894,0.001464504
72Q010,高雄農改,2025-03-08,22.709333,120.525889,0.45165595
72Q010,高雄農改場,2025-03-08,22.709333,120.525889,0.45165598
72S200,東改班鳩分場,2025-03-08,22.829528,121.077694,0.011112184
72S590,東改賓朗果園,2025-03-08,22.813889,121.071278,0.007977395
72T250,花蓮農改,2025-03-08,23.975222,121.563889,0.008663003
72T250,花蓮農改場,2025-03-08,23.975222,121.563889,0.008663003
72U480,花改蘭陽分場,2025-03-08,24.686306,121.716583,0.09343677
72V140,高改旗南分場,2025-03-08,22.857861,120.516667,0.60092074
82A750,茶改北部分場,2025-03-08,24.955778,121.631222,0.008228436
82C160,茶改場,2025-03-08,24.908472,121.185333,0.00040360738
82H840,茶改南部分場,2025-03-08,23.762528,120.7405,0.021196874
82S580,茶改東部分場,2025-03-08,22.907694,121.130139,0.011199872
A2C560,農工中心,2025-03-08,24.985917,121.239833,0.0002419118
A2K360,水試臺西試驗場,2025-03-08,23.717231,120.190522,0.0005033577
A2K570,古坑花卉中心,2025-03-08,23.63353,120.55239,0.11373631
A2K630,臺大雲林校區,2025-03-08,23.730628,120.423903,0.004514758
A2N290,臺南蘭花園區,2025-03-08,23.340258,120.379661,0.076469414
B2E890,畜試北區分所,2025-03-08,24.527806,120.770972,0.00037506924
B2N890,畜產試驗所,2025-03-08,23.058972,120.336406,0.356036
B2N890,畜試所,2025-03-08,23.058972,120.336406,0.356036
B2Q810,畜試南區分所,2025-03-08,21.945583,120.802167,0.0019216514
B2U990,畜試東區分所,2025-03-08,24.669039,121.832561,0.23357724
C0A520,山佳,2025-03-08,24.974944,121.402008,0.0044768583
C0A530,坪林,2025-03-08,24.938183,121.70975,0.07447631
C0A550,泰平,2025-03-08,24.971197,121.823711,0.021370528
C0A570,桶後,2025-03-08,24.848222,121.597992,0.035272796
C0A640,石碇,2025-03-08,24.993969,121.662917,0.0006813029
C0A770,科教館,2025-03-08,25.096356,121.516507,0.0008968843
C0A860,大坪,2025-03-08,25.165914,121.632969,0.008118313
C0A890,雙溪,2025-03-08,25.036003,121.864242,0.1717336
C0A931,三和,2025-03-08,25.233153,121.595236,0.0034517944
C0A940,金山,2025-03-08,25.223628,121.643967,0.009274
C0A950,鼻頭角,2025-03-08,25.129036,121.923372,0.044277005
C0A970,三貂角,2025-03-08,25.007606,122.002058,0.27016643
C0A980,社子,2025-03-08,25.109508,121.469681,0.0007632349
C0A9C0,天母,2025-03-08,25.117494,121.537169,0.0013039341
C0A9F0,內湖,2025-03-08,25.079422,121.57545,0.0039353925
C0AC60,三峽,2025-03-08,24.939025,121.369728,0.0011742478
C0AC70,信義,2025-03-08,25.037822,121.564597,0.0039353925
C0AC80,文山,2025-03-08,25.00235,121.575728,0.002640731
C0ACA0,新莊,2025-03-08,25.051478,121.446756,0.0043652975
C0AD10,八里,2025-03-08,25.150211,121.403947,0.0002191882
C0AD30,蘆洲,2025-03-08,25.086594,121.472331,0.00083123427
C0AD40,土城,2025-03-08,24.973208,121.445169,0.0035472247
C0AD50,鶯歌,2025-03-08,24.951533,121.346294,0.00093350146
C0AG80,中和,2025-03-08,24.991622,121.491792,0.0035472247
C0AH00,汐止,2025-03-08,25.066881,121.658778,0.0039353925
C0AH10,永和,2025-03-08,25.01125,121.508111,0.0038383808
C0AH40,平等,2025-03-08,25.129142,121.577086,0.004773396
C0AH50,林口,2025-03-08,25.072181,121.38084,0.0002718385
C0AH70,松山,2025-03-08,25.04871,121.55042,0.0039353925
C0AH80,深坑,2025-03-08,25.002703,121.628328,0.0027170274
C0AI00,五股,2025-03-08,25.07445,121.42728,0.00013850295
C0AI10,屈尺,2025-03-08,24.92184,121.54475,0.0045400267
C0AI20,白沙灣,2025-03-08,25.283128,121.519058,0.0030190744
C0AI30,三重,2025-03-08,25.057328,121.500629,0.0042542215
C0AI40,石牌,2025-03-08,25.115597,121.513139,0.0013920976
C0AJ20,野柳,2025-03-08,25.20703,121.690021,0.03295559
C0AJ30,淡水觀海,2025-03-08,25.184591,121.408616,0.0009393508
C0AJ40,石門,2025-03-08,25.273672,121.601198,0.0022992757
C0AJ50,水湳洞,2025-03-08,25.123695,121.862238,0.116541006
C0AJ60,六塊厝,2025-03-08,25.24,121.4481,0.0037237299
C0AJ70,田寮,2025-03-08,25.2698,121.4886,0.0032392733
C0AJ80,板橋,2025-03-08,25.0107,121.4489,0.0038383808
C0AJ90,澳底,2025-03-08,25.0552,121.9253,0.22098693
C0AK10,太平里,2025-03-08,25.134937,121.364899,0.00021570866
C0B010,七堵,2025-03-08,25.094819,121.71713,0.00942149
C0B020,基隆嶼,2025-03-08,25.19141,121.78391,0.0042891013
C0B040,大武崙,2025-03-08,25.166676,121.706993,0.021496914
C0B050,八斗子,2025-03-08,25.144754,121.79167,0.032913327
C0B060,暖暖,2025-03-08,25.0957,121.7403,0.005729103
C0C460,復興,2025-03-08,24.820208,121.352281,0.0008189518
C0C480,桃園,2025-03-08,24.992425,121.323172,0.0006904494
C0C490,八德,2025-03-08,24.928708,121.283289,0.00062073406
C0C590,觀音,2025-03-08,25.027072,121.153317,7.896286e-05
C0C620,蘆竹,2025-03-08,25.084275,121.265767,9.76815e-05
C0C630,大溪,2025-03-08,24.882853,121.265547,0.00037125306
C0C650,平鎮,2025-03-08,24.897503,121.214636,0.00041876518
C0C660,楊梅,2025-03-08,24.912375,121.143047,0.0005636111
C0C670,龍潭,2025-03-08,24.870056,121.221389,0.00028728734
C0C680,龜山,2025-03-08,25.02846,121.38656,0.00029121508
C0C700,中壢,2025-03-08,24.977661,121.256375,0.00026456252
C0C710,大溪永福,2025-03-08,24.892936,121.324975,0.00049444253
C0C720,竹圍,2025-03-08,25.112692,121.239824,9.901195e-05
C0C730,中大臨海站,2025-03-08,24.966126,121.008581,0.00010953532
C0C740,觀音工業區,2025-03-08,25.064764,121.114856,8.720146e-05
C0C750,新興坑尾,2025-03-08,25.0061,121.0971,0.0001015813
C0D430,峨眉,2025-03-08,24.6905,121.017189,9.831751e-05
C0D480,打鐵坑,2025-03-08,24.849664,121.150789,0.00028612616
C0D540,橫山,2025-03-08,24.71116,121.11693,0.00036598145
C0D560,竹東,2025-03-08,24.767147,121.057881,0.00011955183
C0D580,寶山,2025-03-08,24.735006,121.025192,0.00014541473
C0D590,新豐,2025-03-08,24.87068,120.97721,9.194908e-05
C0D650,湖口,2025-03-08,24.904794,121.043628,0.00013865689
C0D660,新竹市東區,2025-03-08,24.798681,120.986942,8.794225e-05
C0D670,海天一線,2025-03-08,24.831986,120.914438,0.00010001774
C0D680,香山濕地,2025-03-08,24.783581,120.914988,8.622722e-05
C0D690,外湖,2025-03-08,24.917735,120.968711,0.00016713528
C0D700,關西,2025-03-08,24.7977,121.1732,0.00048349454
C0E420,竹南,2025-03-08,24.708978,120.888897,7.8502984e-05
C0E430,南庄,2025-03-08,24.601775,121.000214,0.0007577077
C0E550,明德,2025-03-08,24.583486,120.885411,0.00054708676
C0E570,白沙屯,2025-03-08,24.549447,120.696803,0.00021071805
C0E590,通霄,2025-03-08,24.471892,120.704622,0.00023611376
C0E730,頭份,2025-03-08,24.688247,120.912206,7.7886856e-05
C0E740,造橋,2025-03-08,24.637056,120.864778,0.0005161035
C0E750,苗栗,2025-03-08,24.564569,120.824575,0.0006213505
C0E780,銅鑼,2025-03-08,24.489681,120.790853,0.0002784512
C0E791,卓蘭,2025-03-08,24.3126,120.8244,0.0020252522
C0E810,西湖,2025-03-08,24.562947,120.7485,9.685304e-05
C0E820,獅潭,2025-03-08,24.539133,120.920042,0.0003985397
C0E830,苑裡,2025-03-08,24.439714,120.653053,0.00010152329
C0E850,大河,2025-03-08,24.618069,120.948578,0.0005161094
C0E870,高鐵苗栗,2025-03-08,24.60725,120.826094,0.00049385516
C0E910,海埔,2025-03-08,24.648767,120.772435,7.947003e-05
C0E920,通霄漁港,2025-03-08,24.498589,120.673876,0.00010529937
C0E930,龍鳳,2025-03-08,24.700034,120.859125,7.662511e-05
C0F0B0,石岡,2025-03-08,24.276061,120.777644,0.0016172557
C0F850,東勢,2025-03-08,24.246428,120.833047,0.0014335008
C0F970,大坑,2025-03-08,24.173142,120.722289,0.070109725
C0F9I0,神岡,2025-03-08,24.272481,120.658314,0.000880553
C0F9K0,大安,2025-03-08,24.345061,120.588025,0.00036569755
C0F9L0,后里,2025-03-08,24.310436,120.729725,0.0025397155
C0F9M0,豐原,2025-03-08,24.254322,120.720692,0.003456748
C0F9N0,大里,2025-03-08,24.092464,120.701378,0.1335509
C0F9O0,潭子,2025-03-08,24.213106,120.703933,0.004566283
C0F9P0,清水,2025-03-08,24.312297,120.562242,0.00033319078
C0F9Q0,外埔,2025-03-08,24.347817,120.705686,0.0009754443
C0F9R0,龍井,2025-03-08,24.184536,120.528972,0.0009094679
C0F9S0,烏日,2025-03-08,24.107058,120.624103,0.18256028
C0F9T0,西屯,2025-03-08,24.179494,120.641275,0.013634071
C0F9U0,南屯,2025-03-08,24.137006,120.637969,0.022307428
C0F9X0,大雅(中科園區),2025-03-08,24.21528,120.62445,0.0008426295
C0FA10,松柏,2025-03-08,24.429115,120.617482,0.00034243948
C0FA20,溫寮,2025-03-08,24.372177,120.583125,0.00037350212
C0FA30,梧棲,2025-03-08,24.256003,120.523381,0.00033319078
C0FA40,臺中電廠,2025-03-08,24.2146,120.4907,0.000308837
C0FA50,霧峰,2025-03-08,24.0419,120.6995,0.057394847
C0FB70,大甲溪埔,2025-03-08,24.370625,120.620067,0.00036665265
C0G620,芬園,2025-03-08,24.015678,120.6213,0.1365097
C0G650,員林,2025-03-08,23.946503,120.585597,0.009023294
C0G660,溪湖,2025-03-08,23.94835,120.479122,0.00074914156
C0G720,溪州,2025-03-08,23.851589,120.499093,0.03589622
C0G730,二林,2025-03-08,23.903325,120.376081,0.00039465821
C0G740,大城,2025-03-08,23.852487,120.320935,0.0003007508
C0G770,福興,2025-03-08,24.041289,120.437669,0.00032266465
C0G780,秀水,2025-03-08,24.03405,120.503869,0.0007535202
C0G800,埔鹽,2025-03-08,24.000394,120.431683,0.00031797562
C0G810,埔心,2025-03-08,23.947633,120.525456,0.00070171786
C0G820,田尾,2025-03-08,23.901669,120.509389,0.03821032
C0G830,埤頭,2025-03-08,23.866003,120.452806,0.043341443
C0G860,社頭,2025-03-08,23.897647,120.5862,0.10320605
C0G880,二水,2025-03-08,23.810742,120.6173,0.058047637
C0G890,伸港,2025-03-08,24.148933,120.484403,0.00083988725
C0G900,線西,2025-03-08,24.143358,120.443536,0.0008980883
C0G910,花壇,2025-03-08,24.032076,120.549461,0.00065842125
C0G920,永靖,2025-03-08,23.924703,120.547533,0.03821032
C0G940,竹塘,2025-03-08,23.848253,120.386764,0.0003925908
C0G950,防潮門,2025-03-08,24.1835,120.4871,0.0009094684
C0G960,福寶,2025-03-08,24.0443,120.3814,0.00031367148
C0G970,三豐,2025-03-08,23.882,120.2895,0.0005918015
C0G9B0,和美,2025-03-08,24.105169,120.492131,0.00082306645
C0H890,埔里,2025-03-08,23.972169,120.952425,0.014929917
C0H960,草屯,2025-03-08,23.973672,120.68085,0.14609711
C0I110,竹山,2025-03-08,23.761225,120.688156,0.006603639
C0I360,水里,2025-03-08,23.812553,120.849792,0.060527362
C0I380,集集,2025-03-08,23.828206,120.801467,0.06652103
C0I410,名間,2025-03-08,23.837053,120.701447,0.027498264
C0I420,國姓,2025-03-08,24.037803,120.855072,0.03063978
C0I460,南投,2025-03-08,23.911469,120.687331,0.04094909
C0K250,崙背,2025-03-08,23.75555,120.318925,0.0016559378
C0K280,四湖,2025-03-08,23.630414,120.227125,0.0005112728
C0K291,宜梧,2025-03-08,23.536281,120.169329,0.0016051404
C0K330,虎尾,2025-03-08,23.719183,120.442036,0.024994843
C0K390,土庫,2025-03-08,23.679029,120.395574,0.0068314853
C0K400,斗六,2025-03-08,23.720583,120.541127,0.033964925
C0K410,北港,2025-03-08,23.573957,120.292802,0.0010078418
C0K420,西螺,2025-03-08,23.800407,120.467394,0.025161473
C0K430,褒忠,2025-03-08,23.690938,120.303634,0.0005184658
C0K440,二崙,2025-03-08,23.772797,120.408944,0.004520443
C0K450,大埤,2025-03-08,23.646074,120.431537,0.0143619785
C0K460,斗南,2025-03-08,23.678734,120.478359,0.1935886
C0K470,林內,2025-03-08,23.748675,120.609642,0.07576015
C0K480,莿桐,2025-03-08,23.761192,120.502372,0.041580327
C0K500,元長,2025-03-08,23.64981,120.315024,0.0038140048
C0K510,水林,2025-03-08,23.572924,120.24597,0.0010286366
C0K530,臺西,2025-03-08,23.701547,120.197559,0.0005119264
C0K550,蔦松,2025-03-08,23.514319,120.229736,0.0016051404
C0K560,棋山,2025-03-08,23.68645,120.603417,0.096175134
C0K580,高鐵雲林,2025-03-08,23.737456,120.417944,0.004514758
C0K590,雲林東勢,2025-03-08,23.674192,120.255721,0.0010001927
C0K600,箔子寮,2025-03-08,23.6197,120.14,0.0005131789
C0M520,東後寮,2025-03-08,23.369908,120.248065,0.005762631
C0M640,中埔,2025-03-08,23.42538,120.5229,0.048767716
C0M650,朴子,2025-03-08,23.43463,120.23902,0.009330962
C0M660,溪口,2025-03-08,23.604131,120.403569,0.011058907
C0M670,大林,2025-03-08,23.600616,120.45841,0.14751105
C0M680,太保,2025-03-08,23.455062,120.331455,0.111287154
C0M690,水上,2025-03-08,23.419734,120.388909,0.074858546
C0M700,竹崎,2025-03-08,23.526178,120.555508,0.040316302
C0M710,東石,2025-03-08,23.458927,120.15385,0.001106476
C0M720,番路,2025-03-08,23.464657,120.554156,0.14552493
C0M730,嘉義市東區,2025-03-08,23.457673,120.460531,0.16186456
C0M740,六腳,2025-03-08,23.492871,120.290625,0.0034493657
C0M750,布袋,2025-03-08,23.380878,120.167789,0.0024079918
C0M760,民雄,2025-03-08,23.551754,120.428457,0.05330287
C0M770,嘉義梅山,2025-03-08,23.585398,120.555587,0.049576588
C0M780,鹿草,2025-03-08,23.41134,120.30835,0.008343583
C0M790,新港,2025-03-08,23.553269,120.345728,0.04295082
C0M800,茶山,2025-03-08,23.299075,120.664767,0.19345033
C0M880,好美里,2025-03-08,23.3364,120.138,0.0021938225
C0N010,鯤鯓國小,2025-03-08,23.1879,120.0889,0.0022516202
C0N020,城西,2025-03-08,23.0568,120.0956,0.012817045
C0N030,四草,2025-03-08,23.0235,120.1116,0.013527484
C0N040,蘆竹溝,2025-03-08,23.2344,120.0961,0.002565468
C0N050,蚵寮,2025-03-08,23.301,120.1104,0.0028993618
C0O830,北寮,2025-03-08,23.079561,120.495008,0.4454226
C0O840,王爺宮,2025-03-08,23.222064,120.40085,0.10681872
C0O860,大內,2025-03-08,23.11885,120.36083,0.50187945
C0O900,善化,2025-03-08,23.112883,120.297219,0.21072547
C0O960,崎頂,2025-03-08,22.959547,120.369317,0.23426189
C0O970,虎頭埤,2025-03-08,23.021375,120.347878,0.30939567
C0O980,新市,2025-03-08,23.061614,120.298197,0.056664363
C0O990,媽廟,2025-03-08,22.99175,120.293525,0.047697403
C0R150,三地門,2025-03-08,22.709889,120.639944,0.40699753
C0R160,鹽埔,2025-03-08,22.739558,120.530778,0.45165598
C0R190,赤山,2025-03-08,22.592333,120.614306,0.40727705
C0R220,潮州,2025-03-08,22.534361,120.54,0.36725816
C0R240,來義,2025-03-08,22.527306,120.625111,0.21385784
C0R260,春日,2025-03-08,22.370361,120.628306,0.33825016
C0R270,琉球嶼,2025-03-08,22.332244,120.362236,0.22490686
C0R280,檳榔,2025-03-08,22.076078,120.836777,0.007358323
C0R320,車城,2025-03-08,22.0744,120.716247,0.004878035
C0R341,牡丹,2025-03-08,22.130036,120.792639,0.007798259
C0R350,貓鼻頭,2025-03-08,21.921774,120.7358,0.0012750049
C0R470,高樹,2025-03-08,22.826389,120.600806,0.4921066
C0R480,長治,2025-03-08,22.693128,120.542622,0.529992
C0R490,九如,2025-03-08,22.7405,120.490503,0.4638239
C0R520,崁頂,2025-03-08,22.514781,120.506914,0.38265666
C0R540,佳冬,2025-03-08,22.419456,120.552375,0.41354257
C0R550,新埤,2025-03-08,22.467947,120.582894,0.2143357
C0R560,新園,2025-03-08,22.5434,120.461558,0.41254884
C0R570,麟洛,2025-03-08,22.65078,120.52719,0.34282553
C0R580,南州,2025-03-08,22.48591,120.50274,0.33541435
C0R590,里港,2025-03-08,22.77919,120.49459,0.58495224
C0R620,墾雷,2025-03-08,21.900836,120.855269,0.00020015523
C0R640,東港,2025-03-08,22.46247,120.44074,0.33541435
C0R650,竹田,2025-03-08,22.58486,120.54344,0.31570885
C0R660,枋寮,2025-03-08,22.367722,120.590647,0.41661045
C0R670,楓港,2025-03-08,22.190131,120.692156,0.07956061
C0R680,佳樂水,2025-03-08,21.993578,120.861633,0.0018129738
C0R690,墾丁,2025-03-08,21.966756,120.810269,0.002684683
C0R700,枋山,2025-03-08,22.246844,120.661086,0.027802143
C0R710,龍磐,2025-03-08,21.931672,120.838942,0.00036304523
C0R720,旭海,2025-03-08,22.205403,120.887614,0.027361745
C0R730,大坪頂,2025-03-08,22.024633,120.69355,0.0018396204
C0R741,獅子,2025-03-08,22.202308,120.705236,0.19640978
C0R760,南仁湖,2025-03-08,22.084681,120.863353,0.009078674
C0R770,保力,2025-03-08,22.071122,120.764111,0.004039639
C0R780,滿州,2025-03-08,22.024403,120.839892,0.0076299314
C0R790,九棚,2025-03-08,22.14195,120.889281,0.041406065
C0R800,丹路,2025-03-08,22.204481,120.750989,0.017010432
C0R810,內獅,2025-03-08,22.305064,120.642986,0.029296322
C0R830,高士,2025-03-08,22.121825,120.836781,0.0057427734
C0R850,林邊,2025-03-08,22.4634,120.5339,0.32012942
C0R860,鼻頭,2025-03-08,22.1043,120.8979,0.011866673
C0R870,興海,2025-03-08,21.9752,120.8439,0.0019216514
C0R880,後壁湖,2025-03-08,21.9457,120.7457,0.0014531402
C0R890,山海,2025-03-08,21.9878,120.7091,0.0013876706
C0R900,竹坑,2025-03-08,22.1385,120.7022,0.004723182
C0R910,下寮,2025-03-08,22.3929,120.5548,0.41661045
C0R920,塭仔,2025-03-08,22.4169,120.5197,0.4243369
C0R930,萬丹,2025-03-08,22.5885,120.4851,0.38720682
C0R940,加祿堂,2025-03-08,22.3363,120.6217,0.18340094
C0R950,萬隆國小,2025-03-08,22.507667,120.587817,0.2602545
C0R960,內埔,2025-03-08,22.608483,120.570714,0.2999237
C0S710,鹿野,2025-03-08,22.917711,121.122994,0.004881851
C0S730,綠島,2025-03-08,22.6672,121.47533,0.00862146
C0S740,池上,2025-03-08,23.119628,121.209469,0.0027698537
C0S770,大溪山,2025-03-08,22.478475,120.943325,0.014982392
C0S790,金崙,2025-03-08,22.538122,120.966875,0.061807115
C0S810,東河,2025-03-08,22.972672,121.303986,0.014917865
C0S830,長濱,2025-03-08,23.286817,121.411975,0.009691272
C0S840,南田,2025-03-08,22.279725,120.889208,0.21073186
C0S890,關山,2025-03-08,23.0395,121.175017,0.010450356
C0S900,蘭嶼高中,2025-03-08,22.04909,121.51214,0.00052859855
C0S910,蘭嶼燈塔,2025-03-08,22.081197,121.503117,0.0006286762
C0S920,金峰嘉蘭,2025-03-08,22.594789,120.960825,0.11904733
C0S930,延平,2025-03-08,22.902581,121.084058,0.008029157
C0S940,石寧山,2025-03-08,23.223772,121.406639,0.036800884
C0S950,七塊厝,2025-03-08,22.954453,121.229922,0.0022886787
C0S960,香蘭,2025-03-08,22.587569,120.993375,0.21346998
C0S970,加津林,2025-03-08,22.416211,120.926942,0.3364007
C0S990,山豬窟,2025-03-08,22.318619,120.857372,0.009337634
C0SA00,歷坵,2025-03-08,22.520969,120.89185,0.009742561
C0SA10,檳榔四格山,2025-03-08,22.810031,121.109308,0.006410229
C0SA30,都歷,2025-03-08,23.020333,121.323642,0.036862984
C0SA40,瑞和,2025-03-08,22.974361,121.156697,0.009990629
C0SA60,知本（水試所）,2025-03-08,22.702394,121.082761,0.26767692
C0SA80,土坂,2025-03-08,22.453108,120.887572,0.10767237
C0SA90,達仁林場,2025-03-08,22.264347,120.823972,0.0020590269
C0SB10,美和,2025-03-08,22.682078,121.060236,0.25950804
C0SB20,富岡,2025-03-08,22.792467,121.192669,0.058955573
C0SB30,新蘭,2025-03-08,22.869214,121.223228,0.037859492
C0SB40,興隆,2025-03-08,22.913661,121.257469,0.03387127
C0SB50,叭嗡嗡,2025-03-08,23.047062,121.343223,0.07266018
C0SB60,白守蓮,2025-03-08,23.126769,121.401914,0.024048526
C0SB70,小港漁港,2025-03-08,23.158558,121.400431,0.060075358
C0SB80,長濱漁港,2025-03-08,23.313644,121.459994,0.046847023
C0T870,鯉魚潭,2025-03-08,23.935639,121.508944,0.010574025
C0T900,西林,2025-03-08,23.8119,121.441458,0.010088039
C0T960,光復,2025-03-08,23.660694,121.424964,0.01442568
C0T9A0,月眉山,2025-03-08,23.809928,121.539828,0.0038658471
C0T9D0,和中,2025-03-08,24.26676,121.74103,0.014276189
C0T9E0,大坑,2025-03-08,23.880628,121.581981,0.004442688
C0T9F0,水璉,2025-03-08,23.797131,121.542514,0.0051060836
C0T9I0,豐濱,2025-03-08,23.583897,121.514806,0.015491709
C0T9M0,靜浦,2025-03-08,23.455167,121.495028,0.032825243
C0T9N0,富里,2025-03-08,23.171639,121.249378,0.0071525755
C0TA10,花蓮漁港,2025-03-08,23.995322,121.638331,0.012783345
C0TA20,加灣,2025-03-08,24.082025,121.608944,0.0029672694
C0U600,礁溪,2025-03-08,24.817539,121.765608,0.106870875
C0U650,玉蘭,2025-03-08,24.675286,121.587061,0.017696425
C0U750,龜山島,2025-03-08,24.841667,121.953133,0.0069306586
C0U760,東澳,2025-03-08,24.52196,121.83318,0.32699585
C0U770,南澳,2025-03-08,24.44935,121.81022,0.044929065
C0U780,五結,2025-03-08,24.68637,121.79794,0.10882392
C0U860,頭城,2025-03-08,24.85323,121.8308,0.113122016
C0U870,大礁溪,2025-03-08,24.791042,121.675047,0.007404139
C0U880,北關,2025-03-08,24.9072,121.8734,0.2915459
C0U890,三星,2025-03-08,24.66812,121.65302,0.18744963
C0U900,內城,2025-03-08,24.71813,121.68766,0.0831846
C0U910,冬山,2025-03-08,24.63373,121.7937,0.23357724
C0U940,羅東,2025-03-08,24.68184,121.74934,0.09906854
C0U970,大福,2025-03-08,24.80064,121.81389,0.050384358
C0U990,員山,2025-03-08,24.74435,121.72247,0.10262266
C0UA00,土場,2025-03-08,24.576533,121.495333,0.025438743
C0UA80,大溪漁港,2025-03-08,24.941801,121.902955,0.3770253
C0UA90,石城,2025-03-08,24.980444,121.951214,0.38303167
C0UB00,淡江大學蘭陽校園,2025-03-08,24.823239,121.730383,0.024388023
C0UB10,蘇澳,2025-03-08,24.5969,121.8571,0.45672742
C0UB20,壯圍,2025-03-08,24.7359,121.8163,0.111125
C0V350,溪埔,2025-03-08,22.738578,120.446797,0.5917661
C0V360,內門,2025-03-08,22.975481,120.466769,0.5177082
C0V370,古亭坑,2025-03-08,22.893178,120.401947,0.502844
C0V400,阿公店,2025-03-08,22.804194,120.355528,0.46208805
C0V440,鳳山,2025-03-08,22.646653,120.356122,0.17379723
C0V450,鳳森,2025-03-08,22.545064,120.392592,0.41035074
C0V490,新興,2025-03-08,22.627422,120.298803,0.2924776
C0V530,阿蓮,2025-03-08,22.883208,120.327508,0.39905402
C0V610,梓官,2025-03-08,22.760558,120.267211,0.2309395
C0V620,永安,2025-03-08,22.82315,120.236856,0.05230634
C0V630,茄萣,2025-03-08,22.906642,120.182608,0.008026294
C0V640,湖內,2025-03-08,22.887139,120.2445,0.02943295
C0V650,彌陀,2025-03-08,22.783806,120.246361,0.06276021
C0V660,岡山,2025-03-08,22.797078,120.294958,0.06276021
C0V680,仁武,2025-03-08,22.701083,120.347722,0.16865884
C0V690,鼓山,2025-03-08,22.623325,120.275575,0.2924776
C0V700,三民,2025-03-08,22.645017,120.311233,0.078584805
C0V710,苓雅,2025-03-08,22.622742,120.330669,0.43484223
C0V720,林園,2025-03-08,22.507747,120.394511,0.3335607
C0V730,大寮,2025-03-08,22.605614,120.395717,0.4227666
C0V740,旗山,2025-03-08,22.888614,120.483597,0.58722854
C0V750,路竹,2025-03-08,22.854997,120.259439,0.027197937
C0V760,橋頭,2025-03-08,22.757806,120.30575,0.2309395
C0V770,大社,2025-03-08,22.730306,120.346639,0.34287316
C0V790,萬山,2025-03-08,22.905944,120.688056,0.13387485
C0V800,六龜,2025-03-08,22.997889,120.633583,0.30748114
C0V810,左營,2025-03-08,22.67491,120.28491,0.07858482
C0V820,小林,2025-03-08,23.148408,120.63325,0.11789565
C0V840,鳳鼻頭,2025-03-08,22.5083,120.3591,0.42526376
C0V850,蚵仔寮,2025-03-08,22.7256,120.2527,0.24340333
C0V860,南寮,2025-03-08,22.7616,120.2339,0.24340333
C0V870,文安,2025-03-08,22.8025,120.2164,0.067775585
C0V880,興達,2025-03-08,22.8778,120.2127,0.032157227
C0V890,前鎮,2025-03-08,22.5718,120.3117,0.3029515
C0V900,汕尾,2025-03-08,22.4782,120.4151,0.33541423
C0V910,大樹,2025-03-08,22.684645,120.432803,0.53642863
C0W200,湖西,2025-03-08,23.596314,119.67275,0.00057332916
C0X050,東河,2025-03-08,23.296598,120.385608,0.22846381
C0X060,下營,2025-03-08,23.22695,120.256261,0.047542755
C0X080,佳里,2025-03-08,23.173039,120.145086,0.0022516202
C0X100,臺南市北區,2025-03-08,23.010394,120.194228,0.012334015
C0X110,臺南市南區,2025-03-08,22.961189,120.188378,0.026987802
C0X120,麻豆,2025-03-08,23.183289,120.248611,0.13452439
C0X130,官田,2025-03-08,23.193217,120.315422,0.2638322
C0X140,西港,2025-03-08,23.125608,120.203108,0.14657493
C0X150,安定,2025-03-08,23.102614,120.227839,0.14657493
C0X160,仁德,2025-03-08,22.968258,120.257689,0.026550803
C0X170,關廟,2025-03-08,22.963017,120.327797,0.35889027
C0X180,山上,2025-03-08,23.0757,120.363253,0.4098146
C0X190,安平,2025-03-08,22.993161,120.152181,0.012334015
C0X200,左鎮,2025-03-08,23.056758,120.408522,0.3254972
C0X210,白河,2025-03-08,23.347466,120.414427,0.078408025
C0X220,學甲,2025-03-08,23.230367,120.182187,0.002483648
C0X230,鹽水,2025-03-08,23.272621,120.247641,0.011860976
C0X240,關子嶺,2025-03-08,23.331169,120.508025,0.048576567
C0X250,新營,2025-03-08,23.310689,120.316681,0.14730331
C0X260,後壁,2025-03-08,23.366358,120.362326,0.0764695
C0X280,將軍,2025-03-08,23.214999,120.13577,0.002565468
C0X290,北門,2025-03-08,23.267772,120.125481,0.0025654703
C0X300,鹿寮,2025-03-08,23.386047,120.477331,0.13083838
C0X320,柳營,2025-03-08,23.253328,120.375253,0.29814887
C0Z020,明里,2025-03-08,23.208717,121.262342,0.017743047
C0Z061,玉里,2025-03-08,23.3215,121.339656,0.016103819
C0Z070,舞鶴,2025-03-08,23.46811,121.37407,0.008588478
C0Z080,富源,2025-03-08,23.587642,121.378225,0.020321477
C0Z100,東華,2025-03-08,23.89525,121.549833,0.012905188
C0Z150,吉安光華,2025-03-08,23.930925,121.595153,0.013528844
C0Z160,鳳林,2025-03-08,23.746114,121.453411,0.027332269
C0Z170,卓溪,2025-03-08,23.3443,121.3029,0.00898185
C0Z180,新城,2025-03-08,24.03946,121.60454,0.010100576
C0Z190,富世,2025-03-08,24.14743,121.6297,0.01923429
C0Z200,萬榮,2025-03-08,23.709219,121.420106,0.020317702
C0Z210,瑞穗,2025-03-08,23.5239,121.39021,0.027600477
C0Z230,和平,2025-03-08,24.30717,121.77007,0.014873197
C0Z270,蕃薯寮,2025-03-08,23.73835,121.540108,0.0050241505
C0Z280,德武,2025-03-08,23.47426,121.41071,0.00998613
C0Z300,東里,2025-03-08,23.26853,121.30547,0.027721314
C0Z310,清水斷崖,2025-03-08,24.218294,121.689142,0.0015238618
C0Z330,安通山,2025-03-08,23.290728,121.348528,0.004066828
C2A540,四堵,2025-03-08,24.8926,121.745736,0.04490221
C2A560,福山,2025-03-08,24.776203,121.502811,0.019191844
C2A650,火燒寮,2025-03-08,25.002719,121.742892,0.025684446
C2A660,瑞芳,2025-03-08,25.113169,121.801147,0.061479624
C2A880,福隆,2025-03-08,25.017842,121.942083,0.39867526
C2A920,富貴角,2025-03-08,25.263783,121.565258,0.0016864416
C2D720,關西工作站,2025-03-08,24.757275,121.184792,0.0004331217
C2D730,寶山農場,2025-03-08,24.732444,120.976153,9.675611e-05
C2E520,大湖,2025-03-08,24.414939,120.870872,0.0016565591
C2E540,後龍,2025-03-08,24.606489,120.783933,7.9928315e-05
C2E540,龍溪,2025-03-08,24.606489,120.783933,7.9928315e-05
C2E970,八甲,2025-03-08,24.535811,120.795983,0.0002136562
C2F000,大肚,2025-03-08,24.15295,120.572117,0.002394503
C2F930,大甲,2025-03-08,24.347667,120.640403,0.00039145176
C2F9A0,中竹林,2025-03-08,24.103556,120.751061,0.006890118
C2G640,鹿港,2025-03-08,24.0753,120.430481,0.00031367148
C2G840,北斗,2025-03-08,23.877586,120.514222,0.038558133
C2G870,芳苑,2025-03-08,23.922303,120.320025,0.00028634202
C2G980,田頭村,2025-03-08,23.8263,120.444175,0.049305297
C2G9A0,畜試所彰化,2025-03-08,23.86045,120.557964,0.09937283
C2H950,中寮,2025-03-08,23.884447,120.766406,0.079383425
C2H9F0,柑林,2025-03-08,24.018658,120.847072,0.042056292
C2H9H0,苗改南投蜂場,2025-03-08,23.852589,120.693481,0.03182906
C2H9T0,名間竹圍,2025-03-08,23.859914,120.637572,0.039761174
C2H9U0,鳳鵬,2025-03-08,23.763919,120.788061,0.035270967
C2K620,馬光農場,2025-03-08,23.721453,120.378864,0.0050226795
C2K630,荷苞,2025-03-08,23.657717,120.595144,0.053299807
C2M410,馬頭山,2025-03-08,23.324361,120.582017,0.1324107
C2M910,嘉義大學,2025-03-08,23.471325,120.485903,0.1282763
C2M920,朴子農改,2025-03-08,23.469889,120.259383,0.003363232
C2N160,西拉雅風管處,2025-03-08,23.189481,120.335297,0.2549239
C2O810,曾文,2025-03-08,23.219681,120.497328,0.35572445
C2O930,玉井,2025-03-08,23.126042,120.46055,0.4098146
C2O950,安南,2025-03-08,23.076694,120.144861,0.0013917682
C2R170,屏東,2025-03-08,22.66027,120.49403,0.34282553
C2R970,屏科大,2025-03-08,22.648275,120.619247,0.39440867
C2V250,甲仙,2025-03-08,23.080106,120.591758,0.21190472
C2V260,月眉,2025-03-08,22.971003,120.539853,0.49754736
C2W230,畜試所澎湖,2025-03-08,23.628342,119.513206,0.00064171135
CAG100,王功漁港,2025-03-08,23.96824,120.32586,0.00029508903
CAH030,茶改場竹圍站,2025-03-08,23.860083,120.637528,0.039761174
CAJ050,海口故事園區,2025-03-08,23.57543,120.14121,0.0005083113
CAL110,布袋國中,2025-03-08,23.35893,120.18026,0.0024079918
CAN130,水試所海水繁養殖中心,2025-03-08,23.120802,120.07968,0.001464504
CAN140,六官養殖協會,2025-03-08,23.22881,120.29962,0.047542755
CAQ030,崎峰國小,2025-03-08,22.42565,120.49521,0.33541435
E2K600,四湖植物園,2025-03-08,23.676986,120.163433,0.0005112728
E2P980,林試六龜中心,2025-03-08,22.991703,120.645722,0.2817599
E2S960,林試太麻里2,2025-03-08,22.598014,120.989761,0.20770203
E2S960,林試太麻里2,2025-03-08,22.598,120.99775,0.22553481
E2S980,林試太麻里1,2025-03-08,22.598922,120.980044,0.12354619
G2AI50,關渡,2025-03-08,25.11575,121.492,0.00071849587
G2F820,農業試驗所,2025-03-08,24.031261,120.688133,0.06689862
G2F820,農試所(霧峰),2025-03-08,24.031261,120.688133,0.06689862
G2L020,農試嘉義分所,2025-03-08,23.485028,120.473806,0.074399754
G2M350,農試溪口農場,2025-03-08,23.58565,120.408111,0.011058907
G2P820,農試鳳山分所,2025-03-08,22.646611,120.356083,0.17379723
K2E360,苗栗農改,2025-03-08,24.495722,120.829111,0.00058535667
K2E360,苗栗農改場,2025-03-08,24.495722,120.829111,0.00058535667
K2E710,苗改生物防治研究中心,2025-03-08,24.422861,120.871833,0.0019533779
K2F750,種苗改良場,2025-03-08,24.225972,120.800917,0.0018721493
K2F750,種苗繁殖,2025-03-08,24.225972,120.800917,0.0018721493
U2HA50,臺大竹山,2025-03-08,23.756972,120.681556,0.11458571
V2C250,八德合作社,2025-03-08,24.93775,121.266389,0.00023672599
V2C260,八德蔬果,2025-03-08,24.978508,121.281819,0.00028331776
V2K610,大庄合作社,2025-03-08,23.8068,120.367939,0.0012456493
V2K620,麥寮合作社,2025-03-08,23.753836,120.294783,0.0005179889
