站號,站名,日期,lat,lon,BLBTSLS
C0K280,四湖,2025-09-09,23.630414,120.227125,0.34246966
C0R240,來義,2025-09-09,22.527306,120.625111,0.33964446
C0X060,下營,2025-09-09,23.22695,120.256261,0.73664093
C2D740,屯原,2025-09-09,24.067969,121.209389,3.640049e-09
C0K250,崙背,2025-09-09,23.75555,120.318925,0.48052028
