站號,站名,日期,lat,lon,BlastGRU-TW
C0R710,龍磐,2025-12-26,21.931672,120.838942,0.00044370606
C1F9D1,白毛台,2025-12-26,24.158325,120.886933,0.034942243
C0G940,竹塘,2025-12-26,23.848253,120.386764,0.015569243
467590,恆春,2025-12-26,22.003897,120.746339,0.033197556
C1O850,環湖,2025-12-26,23.148617,120.418633,0.07148073
C0U710,太平山,2025-12-26,24.505486,121.525656,0.00042565973
C0E820,獅潭,2025-12-26,24.539133,120.920042,0.0055253147
C2SD70,二層坪,2025-12-26,22.94105,121.16838,0.0013337554
C0V880,興達,2025-12-26,22.8778,120.2127,0.02694888
C0S890,關山,2025-12-26,23.0395,121.175017,0.0014854338
C0SB30,新蘭,2025-12-26,22.869214,121.223228,0.0018654686
C2R970,屏科大,2025-12-26,22.648275,120.619247,0.032174744
C1Z130,銅門,2025-12-26,23.965694,121.492842,0.024182376
C0AD40,土城,2025-12-26,24.973208,121.445169,0.015521126
CAN140,六官養殖協會,2025-12-26,23.22881,120.29962,0.1477947
C0X180,山上,2025-12-26,23.0757,120.363253,0.051796075
C0F9Z0,雪山東峰,2025-12-26,24.388792,121.268675,0.00047411525
C1M480,獨立山,2025-12-26,23.537022,120.607797,0.004073591
C0X220,學甲,2025-12-26,23.230367,120.182187,0.050115723
467650,日月潭,2025-12-26,23.881325,120.90805,0.018055415
C0K600,箔子寮,2025-12-26,23.6197,120.14,0.029855091
C0G830,埤頭,2025-12-26,23.866003,120.452806,0.06941507
C0S950,七塊厝,2025-12-26,22.954453,121.229922,0.00074856495
467110,金門,2025-12-26,24.407306,118.289281,0.001684103
C0AH80,深坑,2025-12-26,25.002703,121.628328,0.006790952
C0A970,三貂角,2025-12-26,25.007606,122.002058,0.16970123
C2D730,寶山農場,2025-12-26,24.732444,120.976153,0.0039100833
C0K430,褒忠,2025-12-26,23.690938,120.303634,0.034689788
467480,嘉義,2025-12-26,23.495925,120.432906,0.121625185
C0V400,阿公店,2025-12-26,22.804194,120.355528,0.10693959
C0E960,觀霧分站,2025-12-26,24.505781,121.113921,0.0013203307
467550,玉山,2025-12-26,23.48718,120.95943,0.00040255548
C0R440,大漢山,2025-12-26,22.405264,120.753181,0.0011819837
C0SD30,東清國小,2025-12-26,22.057128,121.564922,0.0038708101
C1F9B1,桐林,2025-12-26,24.066172,120.735194,0.01823901
C2H9U0,鳳鵬,2025-12-26,23.763919,120.788061,0.030564565
C0K390,土庫,2025-12-26,23.679029,120.395574,0.102144144
C1I450,望鄉山,2025-12-26,23.594153,120.944286,0.000607596
C0E910,海埔,2025-12-26,24.648767,120.772435,0.0035384223
B2E890,畜試北區分所,2025-12-26,24.527806,120.770972,0.009823926
C0R750,四林格山,2025-12-26,22.076989,120.802439,0.0014957429
C0F0C0,中坑,2025-12-26,24.248517,120.903319,0.0116108535
C1I121,大鞍,2025-12-26,23.678381,120.760017,0.0058719404
C2G9E0,移民庄,2025-12-26,23.9784,120.40283,0.008406389
72U480,花改蘭陽分場,2025-12-26,24.686306,121.716583,0.42337605
C0A770,科教館,2025-12-26,25.096356,121.516507,0.026302673
C0AJ60,六塊厝,2025-12-26,25.24,121.4481,0.021337872
C0R620,墾雷,2025-12-26,21.900836,120.855269,0.0011431822
467420,永康,2025-12-26,23.038386,120.2367,0.1148241
C2M530,奮起湖,2025-12-26,23.493903,120.699253,0.007874137
C0I410,名間,2025-12-26,23.837053,120.701447,0.035047177
A2C560,農工中心,2025-12-26,24.985917,121.239833,0.0021640293
C0V740,旗山,2025-12-26,22.888614,120.483597,0.07764596
C0Z061,玉里,2025-12-26,23.3215,121.339656,0.024569152
C0S840,南田,2025-12-26,22.279725,120.889208,0.020113628
C1I470,杉林溪,2025-12-26,23.639517,120.786444,0.0039004418
C1X040,東原,2025-12-26,23.291597,120.463822,0.05607894
C0R660,枋寮,2025-12-26,22.367722,120.590647,0.04110238
C1R120,上德文,2025-12-26,22.763272,120.704442,0.028831532
C0K450,大埤,2025-12-26,23.646074,120.431537,0.040324327
C0UA00,土場,2025-12-26,24.576533,121.495333,0.13834962
467080,宜蘭,2025-12-26,24.763975,121.756528,0.14068523
C0N030,四草,2025-12-26,23.0235,120.1116,0.08922216
467410,臺南,2025-12-26,22.99328,120.20492,0.08166298
C0V650,彌陀,2025-12-26,22.783806,120.246361,0.038638987
C0D660,新竹市東區,2025-12-26,24.798681,120.986942,0.004114687
82S580,茶改東部分場,2025-12-26,22.907694,121.130139,0.00081231556
C0SB40,興隆,2025-12-26,22.913661,121.257469,0.0016725862
467050,新屋,2025-12-26,25.006725,121.047492,0.0014735899
C0C710,大溪永福,2025-12-26,24.892936,121.324975,0.0023708304
C0FA20,溫寮,2025-12-26,24.372177,120.583125,0.0046487357
C0V640,湖內,2025-12-26,22.887139,120.2445,0.025097435
C0R910,下寮,2025-12-26,22.3929,120.5548,0.041393112
C0Z020,明里,2025-12-26,23.208717,121.262342,0.012647348
C0M770,嘉義梅山,2025-12-26,23.585398,120.555587,0.006411563
C0C660,楊梅,2025-12-26,24.912375,121.143047,0.002379973
C0SD40,牛頭山,2025-12-26,22.676661,121.506944,0.012357999
C1E511,新開,2025-12-26,24.347703,120.827019,0.0057142316
G2F820,農試所(霧峰),2025-12-26,24.031261,120.688133,0.042155724
C2M990,大巃頂,2025-12-26,23.5547,120.61439,0.005367029
C1I070,和社,2025-12-26,23.591131,120.888861,0.07371837
C2E990,新坪頂,2025-12-26,24.30201,120.8574,0.0022942678
C0TA80,立霧山,2025-12-26,24.183258,121.641899,0.0017307369
C2F000,大肚,2025-12-26,24.15295,120.572117,0.0005500863
C1S850,豐南,2025-12-26,23.122139,121.262389,0.0007573764
C2M9B0,西興,2025-12-26,23.2428,120.57617,0.11855532
C2A920,富貴角,2025-12-26,25.263783,121.565258,0.0037913823
CAH030,茶改場竹圍站,2025-12-26,23.860083,120.637528,0.06138651
C0T960,光復,2025-12-26,23.660694,121.424964,0.05691919
C0F9M0,豐原,2025-12-26,24.254322,120.720692,0.0059629055
C0R720,旭海,2025-12-26,22.205403,120.887614,0.005785593
C0V710,苓雅,2025-12-26,22.622742,120.330669,0.063484564
C0C740,觀音工業區,2025-12-26,25.064764,121.114856,0.0009992918
CAC040,拉拉山,2025-12-26,24.699317,121.427133,0.00038338537
C0V790,萬山,2025-12-26,22.905944,120.688056,0.14289579
U2HA30,臺大和社,2025-12-26,23.590856,120.888864,0.07371837
C2H9K0,屯原,2025-12-26,24.067969,121.209389,0.0015288944
C0AJ90,澳底,2025-12-26,25.0552,121.9253,0.15843572
C0Z100,東華,2025-12-26,23.89525,121.549833,0.09066715
C0G970,三豐,2025-12-26,23.882,120.2895,0.01724588
V2K610,大庄合作社,2025-12-26,23.8068,120.367939,0.021359742
C0V900,汕尾,2025-12-26,22.4782,120.4151,0.09117772
C1R630,龍泉,2025-12-26,22.66701,120.59091,0.04536876
C1AC50,關渡,2025-12-26,25.133486,121.469331,0.0056183264
C0C800,四稜,2025-12-26,24.64733,121.4293,0.000501138
C0F9I0,神岡,2025-12-26,24.272481,120.658314,0.015377236
C0K460,斗南,2025-12-26,23.678734,120.478359,0.039437696
C2O810,曾文,2025-12-26,23.219681,120.497328,0.08067119
467280,後龍,2025-12-26,24.648563,120.831834,0.0034994937
C1F9J1,清水林,2025-12-26,24.071242,120.820419,0.0056712525
C2A650,火燒寮,2025-12-26,25.002719,121.742892,0.029221186
466930,竹子湖,2025-12-26,25.162078,121.544547,0.0005357821
C1I220,樟湖,2025-12-26,23.905333,120.846983,0.006459694
C0I390,仁愛,2025-12-26,24.022122,121.132206,0.0077637974
C0Z300,東里,2025-12-26,23.26853,121.30547,0.019429332
C1V590,新發,2025-12-26,23.057019,120.646064,0.05714257
C0K510,水林,2025-12-26,23.572924,120.24597,0.14844255
72S590,東改賓朗果園,2025-12-26,22.813889,121.071278,0.0033408294
82A750,茶改北部分場,2025-12-26,24.955778,121.631222,0.0018796267
C1A750,石碇服務區,2025-12-26,25.00872,121.646242,0.007866355
C0X300,鹿寮,2025-12-26,23.386047,120.477331,0.041023258
G2AI50,關渡,2025-12-26,25.11575,121.492,0.010610711
C0K590,雲林東勢,2025-12-26,23.674192,120.255721,0.05549543
C2K310,港尾布雞,2025-12-26,23.74834,120.38439,0.08104389
C0A570,桶後,2025-12-26,24.848222,121.597992,0.027855959
C1S800,華源,2025-12-26,22.657883,121.02325,0.039355252
C0G720,溪州,2025-12-26,23.851589,120.499093,0.06841305
C1V160,達卡努瓦,2025-12-26,23.279811,120.705319,0.023161668
C2M410,馬頭山,2025-12-26,23.324361,120.582017,0.07198855
C0V850,蚵仔寮,2025-12-26,22.7256,120.2527,0.059949037
C0S740,池上,2025-12-26,23.119628,121.209469,0.0011828826
C1V390,尖山,2025-12-26,22.813153,120.367789,0.098702066
C0AH70,松山,2025-12-26,25.04871,121.55042,0.023104073
C0N010,鯤鯓國小,2025-12-26,23.1879,120.0889,0.04314662
C0R550,新埤,2025-12-26,22.467947,120.582894,0.07828135
C0SA60,知本（水試所）,2025-12-26,22.702394,121.082761,0.12389392
C0T9I0,豐濱,2025-12-26,23.583897,121.514806,0.037238806
C0UB00,淡江大學蘭陽校園,2025-12-26,24.823239,121.730383,0.026574494
C0W240,九宮,2025-12-26,24.423753,118.240186,0.0018328348
C0T9N0,富里,2025-12-26,23.171639,121.249378,0.030357331
U2HA50,臺大竹山,2025-12-26,23.756972,120.681556,0.017952444
C0V840,鳳鼻頭,2025-12-26,22.5083,120.3591,0.078025036
C0X140,西港,2025-12-26,23.125608,120.203108,0.15211976
72D080,桃改五峰分場,2025-12-26,24.612194,121.157167,0.010826187
C2H9P0,伊拿谷,2025-12-26,23.963211,121.088264,0.014244611
C2K250,崙背,2025-12-26,23.75553,120.31893,0.034564283
C2H9F0,柑林,2025-12-26,24.018658,120.847072,0.00917185
C0TA20,加灣,2025-12-26,24.082025,121.608944,0.08529303
C0V530,阿蓮,2025-12-26,22.883208,120.327508,0.07894421
C0FB30,八仙山苗圃,2025-12-26,24.192719,121.001366,0.012779812
C1O880,關山,2025-12-26,23.173397,120.594092,0.058277607
C0E791,卓蘭,2025-12-26,24.3126,120.8244,0.00678888
C1I030,武界,2025-12-26,23.913225,121.052483,0.012802476
C0R520,崁頂,2025-12-26,22.514781,120.506914,0.065640874
C0R341,牡丹,2025-12-26,22.130036,120.792639,0.001610621
C0R930,萬丹,2025-12-26,22.5885,120.4851,0.054111276
C0S760,紅石,2025-12-26,23.069131,121.126219,0.0020196864
C2C410,中央大學,2025-12-26,24.967652,121.185165,0.0021469605
C1M610,石磐龍,2025-12-26,23.496606,120.663506,0.020450149
C0C790,東眼山,2025-12-26,24.8284,121.40888,0.003934858
C0UA10,鴛鴦湖,2025-12-26,24.590269,121.412228,0.00046600532
V2C260,八德蔬果,2025-12-26,24.978508,121.281819,0.0020660246
C0R800,丹路,2025-12-26,22.204481,120.750989,0.0030466788
C0G920,永靖,2025-12-26,23.924703,120.547533,0.032364007
C2M950,太和,2025-12-26,23.538372,120.702961,0.0080942465
C1A630,下盆,2025-12-26,24.771003,121.538622,0.020136269
B2N890,畜產試驗所,2025-12-26,23.058972,120.336406,0.12728138
C0UA30,白嶺,2025-12-26,24.527819,121.519031,0.00088893954
C1V580,溪南(特生中心),2025-12-26,23.084972,120.788475,0.0027087424
C1T970,大農,2025-12-26,23.615233,121.413331,0.025291214
C0R650,竹田,2025-12-26,22.58486,120.54344,0.06196241
C1H900,清流,2025-12-26,24.080775,120.962997,0.015790999
C1C510,水尾,2025-12-26,24.940081,121.087161,0.0018129902
C2N170,茅港尾,2025-12-26,23.2061,120.2624,0.14768791
C0F9X0,大雅(中科園區),2025-12-26,24.21528,120.62445,0.0015278917
C0SB60,白守蓮,2025-12-26,23.126769,121.401914,0.0011198923
C0O970,虎頭埤,2025-12-26,23.021375,120.347878,0.073152065
C0C730,中大臨海站,2025-12-26,24.966126,121.008581,0.0011061718
C0X250,新營,2025-12-26,23.310689,120.316681,0.121176496
C0V700,三民,2025-12-26,22.645017,120.311233,0.056258067
C0U870,大礁溪,2025-12-26,24.791042,121.675047,0.034024544
C0E870,高鐵苗栗,2025-12-26,24.60725,120.826094,0.003512119
A2K570,古坑花卉中心,2025-12-26,23.63353,120.55239,0.006556887
C0TA30,鹽寮,2025-12-26,23.845606,121.592664,0.10416299
C0M860,新美,2025-12-26,23.338017,120.683169,0.41220176
C1E701,八卦,2025-12-26,24.491756,120.927619,0.005524531
C2TA90,加納納,2025-12-26,23.466421,121.359867,0.019663619
C0I420,國姓,2025-12-26,24.037803,120.855072,0.009006433
C2D720,關西工作站,2025-12-26,24.757275,121.184792,0.022689542
C0S960,香蘭,2025-12-26,22.587569,120.993375,0.051072534
467620,蘭嶼,2025-12-26,22.0369,121.55843,0.00026249772
C0R260,春日,2025-12-26,22.370361,120.628306,0.029510448
72G600,臺中農改場,2025-12-26,24.003028,120.534389,0.022794621
C0Z210,瑞穗,2025-12-26,23.5239,121.39021,0.035465684
C0M820,達邦,2025-12-26,23.453994,120.749517,0.025025696
C0V860,南寮,2025-12-26,22.7616,120.2339,0.060652703
C0G740,大城,2025-12-26,23.852487,120.320935,0.016464856
C0R920,塭仔,2025-12-26,22.4169,120.5197,0.04208997
C0R470,高樹,2025-12-26,22.826389,120.600806,0.034867838
C0R680,佳樂水,2025-12-26,21.993578,120.861633,0.006714989
C1O870,大棟山,2025-12-26,23.31157,120.52226,0.0033379886
C0D360,梅花,2025-12-26,24.678347,121.208558,0.011500649
C0Z190,富世,2025-12-26,24.14743,121.6297,0.0020925268
C0AI10,屈尺,2025-12-26,24.92184,121.54475,0.07846961
B2U990,畜試東區分所,2025-12-26,24.669039,121.832561,0.8249989
C0SB80,長濱漁港,2025-12-26,23.313644,121.459994,0.0007530851
C0TA50,和仁,2025-12-26,24.241394,121.712472,0.005067027
C0V910,大樹,2025-12-26,22.684645,120.432803,0.042223867
C1R610,西大武山,2025-12-26,22.617719,120.7322,0.0013126419
C0G900,線西,2025-12-26,24.143358,120.443536,0.0047420617
C0M700,竹崎,2025-12-26,23.526178,120.555508,0.0085014375
C2E880,三義,2025-12-26,24.405478,120.749819,0.00090192014
C0C720,竹圍,2025-12-26,25.112692,121.239824,0.0027463823
C0F9P0,清水,2025-12-26,24.312297,120.562242,0.004755771
C0Z150,吉安光華,2025-12-26,23.930925,121.595153,0.0790662
C0FA80,小雪山天池,2025-12-26,24.28025,121.02627,0.00090320327
467300,東吉島,2025-12-26,23.25727,119.66762,0.0018425998
C1D640,外坪(五指山),2025-12-26,24.644447,121.090961,0.00080223614
C2R9A0,高士國小,2025-12-26,22.12553,120.84653,0.0021649597
C0F9O0,潭子,2025-12-26,24.213106,120.703933,0.0061730687
C2H9R0,卓社,2025-12-26,23.887894,121.000086,0.0050872043
72T250,花蓮農改場,2025-12-26,23.975222,121.563889,0.040375058
C0E780,銅鑼,2025-12-26,24.489681,120.790853,0.008968063
C1T950,太安,2025-12-26,23.666719,121.370128,0.003185715
C0E830,苑裡,2025-12-26,24.439714,120.653053,0.0045873835
467270,田中,2025-12-26,23.873803,120.581286,0.064019375
C0SA10,檳榔四格山,2025-12-26,22.810031,121.109308,0.003504849
C1T830,布洛灣,2025-12-26,24.17184,121.57127,0.21426399
C0F970,大坑,2025-12-26,24.173142,120.722289,0.008165489
C1U920,思源,2025-12-26,24.393125,121.347214,0.0011642899
C2H9Y0,松茗,2025-12-26,23.8167,120.650765,0.025969688
C0A931,三和,2025-12-26,25.233153,121.595236,0.010236489
C0I010,廬山,2025-12-26,24.033311,121.181808,0.002982473
C2M940,日野賀,2025-12-26,23.434056,120.727169,0.012141176
C0R860,鼻頭,2025-12-26,22.1043,120.8979,0.031650525
C0UB20,壯圍,2025-12-26,24.7359,121.8163,0.46826762
C0R790,九棚,2025-12-26,22.14195,120.889281,0.007770008
C0W110,東莒,2025-12-26,25.9652,119.98069,0.0005011117
C1U930,粉鳥林,2025-12-26,24.497088,121.842479,0.5990592
C1I211,蘆竹湳,2025-12-26,23.934019,120.811994,0.008772025
C0S830,長濱,2025-12-26,23.286817,121.411975,0.011355193
C1F9F1,伯公龍,2025-12-26,24.272392,120.849047,0.0033785484
C0UB90,太平山莊,2025-12-26,24.494171,121.536209,0.0004196033
C0E810,西湖,2025-12-26,24.562947,120.7485,0.0026837476
C1I440,新高口,2025-12-26,23.478744,120.878939,0.00096497545
C0O840,王爺宮,2025-12-26,23.222064,120.40085,0.17136443
C0T9G0,鳳林山,2025-12-26,23.735269,121.420131,0.0012476488
C0X080,佳里,2025-12-26,23.173039,120.145086,0.043246396
C0FB70,大甲溪埔,2025-12-26,24.370625,120.620067,0.004391817
C0Z310,清水斷崖,2025-12-26,24.218294,121.689142,0.0028849987
C0M680,太保,2025-12-26,23.455062,120.331455,0.1578869
C1S820,金峰,2025-12-26,22.590969,120.933236,0.004198755
C0AD10,八里,2025-12-26,25.150211,121.403947,0.004115787
C2K240,草嶺,2025-12-26,23.59555,120.693461,0.022057163
C1SA70,都蘭,2025-12-26,22.87794,121.226881,0.0016692717
C0K440,二崙,2025-12-26,23.772797,120.408944,0.077469006
C1A760,坪林交控,2025-12-26,24.94284,121.713442,0.07941836
C0F9N0,大里,2025-12-26,24.092464,120.701378,0.026330123
C0SA90,達仁林場,2025-12-26,22.264347,120.823972,0.036014177
C1R290,石門山,2025-12-26,22.112611,120.756597,0.0013860547
42HA10,萬大發電廠,2025-12-26,23.978875,121.139639,0.008414469
C0R890,山海,2025-12-26,21.9878,120.7091,0.0014380949
C0T9A0,月眉山,2025-12-26,23.809928,121.539828,0.0020788654
C0AC70,信義,2025-12-26,25.037822,121.564597,0.022661623
C0K560,棋山,2025-12-26,23.68645,120.603417,0.0062851384
C2FB50,出雲,2025-12-26,24.206469,120.902794,0.008649124
C1Z240,中平林道,2025-12-26,23.42115,121.26763,0.0018259074
U2H480,溪頭,2025-12-26,23.670306,120.798194,0.005879184
C0M880,好美里,2025-12-26,23.3364,120.138,0.068208456
C0T9E0,大坑,2025-12-26,23.880628,121.581981,0.03470636
C0K530,臺西,2025-12-26,23.701547,120.197559,0.022082388
C1E900,國一N128K,2025-12-26,24.560997,120.844186,0.0061746864
C0AJ50,水湳洞,2025-12-26,25.123695,121.862238,0.08956098
C0AI20,白沙灣,2025-12-26,25.283128,121.519058,0.017968357
C2V310,美濃,2025-12-26,22.898792,120.51907,0.078688815
C0A860,大坪,2025-12-26,25.165914,121.632969,0.00082466553
C1U850,觀音海岸,2025-12-26,24.38319,121.77856,0.002212448
C2K610,草嶺石壁,2025-12-26,23.602469,120.707731,0.019674765
C0U950,鶯子嶺,2025-12-26,24.89754,121.79244,0.00069061125
C0O900,善化,2025-12-26,23.112883,120.297219,0.13054504
C0K550,蔦松,2025-12-26,23.514319,120.229736,0.07979576
E2P980,林試六龜中心,2025-12-26,22.991703,120.645722,0.027594488
C0E590,通霄,2025-12-26,24.471892,120.704622,0.010266576
C1I310,西巒,2025-12-26,23.754486,120.883956,0.024800848
C0A550,泰平,2025-12-26,24.971197,121.823711,0.007820139
C0I360,水里,2025-12-26,23.812553,120.849792,0.02650526
C0R830,高士,2025-12-26,22.121825,120.836781,0.0011590393
C1I101,溪頭,2025-12-26,23.661789,120.807647,0.0018860068
C0AJ20,野柳,2025-12-26,25.20703,121.690021,0.090532064
C0B060,暖暖,2025-12-26,25.0957,121.7403,0.011071596
C1H920,長豐,2025-12-26,24.102039,120.879897,0.032656573
C2S9B0,利吉,2025-12-26,22.86246,121.15486,0.0009613783
C0V360,內門,2025-12-26,22.975481,120.466769,0.09265779
C0R850,林邊,2025-12-26,22.4634,120.5339,0.08578234
C0E930,龍鳳,2025-12-26,24.700034,120.859125,0.0024166475
C0U910,冬山,2025-12-26,24.63373,121.7937,0.8249989
C1E721,泰安,2025-12-26,24.489017,120.968036,0.0017353328
82H320,茶改中部分場,2025-12-26,23.875611,120.913583,0.035230797
C0M750,布袋,2025-12-26,23.380878,120.167789,0.10220055
C1S860,利嘉,2025-12-26,22.809417,121.050528,0.009075187
E2S980,林試太麻里1,2025-12-26,22.598922,120.980044,0.01863398
C0X170,關廟,2025-12-26,22.963017,120.327797,0.102421716
C0V720,林園,2025-12-26,22.507747,120.394511,0.0745175
C1I510,線浸林道,2025-12-26,23.761508,120.832956,0.004194085
C0D690,外湖,2025-12-26,24.917735,120.968711,0.001553026
C0C750,新興坑尾,2025-12-26,25.0061,121.0971,0.0013625273
B2Q810,畜試南區分所,2025-12-26,21.945583,120.802167,0.007336306
C0S790,金崙,2025-12-26,22.538122,120.966875,0.0040254616
C0AH90,福山植物園,2025-12-26,24.760717,121.58135,0.044058938
C0I540,奇萊稜線,2025-12-26,24.109231,121.326456,0.00040551834
C0M850,表湖,2025-12-26,23.24186,120.64166,0.11989085
C0S770,大溪山,2025-12-26,22.478475,120.943325,0.0030993184
C0AG80,中和,2025-12-26,24.991622,121.491792,0.015414532
C0T790,大禹嶺,2025-12-26,24.186117,121.316086,0.000656354
C0T9B0,水源,2025-12-26,23.991861,121.537169,0.004086921
C0R840,牡丹池山,2025-12-26,22.168389,120.841225,0.020501405
C1I131,桶頭,2025-12-26,23.641944,120.654117,0.014712707
CAL110,布袋國中,2025-12-26,23.35893,120.18026,0.0824115
C2M9D0,何竹子腳,2025-12-26,23.53641,120.38203,0.12566364
467571,新竹,2025-12-26,24.827853,121.014219,0.0030771934
C0Z290,赤柯山,2025-12-26,23.36893,121.38293,0.0012729111
C0X280,將軍,2025-12-26,23.214999,120.13577,0.052405227
C0S690,太麻里,2025-12-26,22.60902,120.98533,0.0009381514
C0U880,北關,2025-12-26,24.9072,121.8734,0.35454288
CAW010,東引,2025-12-26,26.3588,120.4836,0.00043456524
C0G810,埔心,2025-12-26,23.947633,120.525456,0.03247125
C0U970,大福,2025-12-26,24.80064,121.81389,0.1492072
C2H9N0,仁愛東眼,2025-12-26,24.026875,121.1205,0.0031679992
C1E670,南礦,2025-12-26,24.538278,121.002836,0.0017797819
C0M520,東後寮,2025-12-26,23.369908,120.248065,0.07961267
C1E461,松安,2025-12-26,24.397972,120.986022,0.0018614962
C2N160,西拉雅風管處,2025-12-26,23.189481,120.335297,0.15449908
C2M970,碧湖,2025-12-26,23.568632,120.624165,0.0055065183
C0A640,石碇,2025-12-26,24.993969,121.662917,0.0011763694
E2S960,林試太麻里2,2025-12-26,22.598,120.99775,0.057078212
C0F9Y0,桃山,2025-12-26,24.432739,121.303808,0.00044985095
C1I020,萬大,2025-12-26,23.979817,121.132261,0.0075091883
C2UC20,長嶺,2025-12-26,24.70894,121.61162,0.11016875
C0U940,羅東,2025-12-26,24.68184,121.74934,0.44039285
C0M650,朴子,2025-12-26,23.43463,120.23902,0.16646768
C1I500,大尖山,2025-12-26,23.858572,120.994889,0.0015212382
C0FB40,中橫21.6k,2025-12-26,24.2499,121.1455,0.009069452
C0G820,田尾,2025-12-26,23.901669,120.509389,0.032423455
E2K600,四湖植物園,2025-12-26,23.676986,120.163433,0.027339533
C0S730,綠島,2025-12-26,22.6672,121.47533,0.0034618026
12Q970,東港工作站,2025-12-26,22.479997,120.466058,0.08957436
C1TA00,太魯閣,2025-12-26,24.15773,121.6236,0.004938309
466920,臺北,2025-12-26,25.037658,121.514853,0.023104085
C0R600,舊泰武,2025-12-26,22.588194,120.664944,0.02137822
C1I260,北坑,2025-12-26,23.9246,121.006903,0.048833024
466910,鞍部,2025-12-26,25.182586,121.529731,0.000365136
C1I230,九份二山,2025-12-26,23.961944,120.845,0.004373539
C2M810,里佳,2025-12-26,23.389125,120.716647,0.010421263
C2A660,瑞芳,2025-12-26,25.113169,121.801147,0.032502998
C0R270,琉球嶼,2025-12-26,22.332244,120.362236,0.11379432
C2V580,瑞山,2025-12-26,22.90304,120.43424,0.11930614
C1T990,高寮,2025-12-26,23.394239,121.356808,0.037536465
C0G620,芬園,2025-12-26,24.015678,120.6213,0.01865356
C1Z140,荖溪,2025-12-26,23.890575,121.45964,0.00579894
C1I201,中心崙,2025-12-26,23.728722,120.712097,0.010495959
C1I400,凌霄,2025-12-26,24.018778,121.004456,0.003360602
C1M640,十字,2025-12-26,23.492153,120.753683,0.0057900976
G2P820,農試鳳山分所,2025-12-26,22.646611,120.356083,0.050255805
C0Z270,蕃薯寮,2025-12-26,23.73835,121.540108,0.0071902163
C2E420,竹南,2025-12-26,24.70898,120.88897,0.0023517658
C0FB10,出雲山苗圃,2025-12-26,24.23105,120.90475,0.011520686
C0F9Q0,外埔,2025-12-26,24.347817,120.705686,0.013839021
C0K580,高鐵雲林,2025-12-26,23.737456,120.417944,0.079385445
C2I090,鳳凰,2025-12-26,23.728081,120.787347,0.0077654803
C0U990,員山,2025-12-26,24.74435,121.72247,0.4503745
C0V770,大社,2025-12-26,22.730306,120.346639,0.05390775
C0X120,麻豆,2025-12-26,23.183289,120.248611,0.15852155
C0C670,龍潭,2025-12-26,24.870056,121.221389,0.013914865
C0D680,香山濕地,2025-12-26,24.783581,120.914988,0.0045105657
C0S980,勝林山,2025-12-26,22.430439,120.8938,0.001614505
C0V730,大寮,2025-12-26,22.605614,120.395717,0.06869517
C0R570,麟洛,2025-12-26,22.65078,120.52719,0.03661823
C2M930,石卓,2025-12-26,23.478744,120.702264,0.00549036
C0G9B0,和美,2025-12-26,24.105169,120.492131,0.006156317
CAG100,王功漁港,2025-12-26,23.96824,120.32586,0.005724829
C0X290,北門,2025-12-26,23.267772,120.125481,0.05261205
C2F930,大甲,2025-12-26,24.347667,120.640403,0.0032121865
C0D650,湖口,2025-12-26,24.904794,121.043628,0.0014881032
C0U780,五結,2025-12-26,24.68637,121.79794,0.46634966
C1I250,鯉潭,2025-12-26,23.961922,120.991131,0.027829401
C0R130,阿禮,2025-12-26,22.742908,120.743678,0.011422457
C0X100,臺南市北區,2025-12-26,23.010394,120.194228,0.08711165
C0S920,金峰嘉蘭,2025-12-26,22.594789,120.960825,0.017607069
C0V490,新興,2025-12-26,22.627422,120.298803,0.06506572
C0F9K0,大安,2025-12-26,24.345061,120.588025,0.0045377314
467290,古坑,2025-12-26,23.633639,120.551889,0.006556887
C2E970,八甲,2025-12-26,24.535811,120.795983,0.0062956065
C0V440,鳳山,2025-12-26,22.646653,120.356122,0.050255805
C1T940,大觀,2025-12-26,23.714206,121.373133,0.0020746083
C0E740,造橋,2025-12-26,24.637056,120.864778,0.0035053068
C0R100,尾寮山,2025-12-26,22.833111,120.683889,0.01471689
A2K630,臺大雲林校區,2025-12-26,23.730628,120.423903,0.07949914
467990,馬祖,2025-12-26,26.169467,119.923158,0.0005549013
C0D580,寶山,2025-12-26,24.735006,121.025192,0.004706811
E2P990,林試扇平站,2025-12-26,22.9677,120.6857,0.1413324
C0AI30,三重,2025-12-26,25.057328,121.500629,0.026302673
C0AH00,汐止,2025-12-26,25.066881,121.658778,0.015648106
C1Z040,立山,2025-12-26,23.443356,121.327375,0.010538166
466881,新北,2025-12-26,24.959207,121.525196,0.0116813285
C0W130,花嶼,2025-12-26,23.40007,119.32276,0.00077971636
C0A950,鼻頭角,2025-12-26,25.129036,121.923372,0.023032013
C0K470,林內,2025-12-26,23.748675,120.609642,0.007045752
C2F990,摩天嶺,2025-12-26,24.322458,120.936819,0.0141075235
C2E430,南庄,2025-12-26,24.601775,121.000214,0.0066857985
82C160,茶改場,2025-12-26,24.908472,121.185333,0.0024308783
C2TB60,南安,2025-12-26,23.29818,121.26157,0.016382374
C0Z320,清水林道,2025-12-26,23.27125,121.188272,0.003384399
C0R760,南仁湖,2025-12-26,22.084681,120.863353,0.001377457
C0M670,大林,2025-12-26,23.600616,120.45841,0.082858905
C0M800,茶山,2025-12-26,23.299075,120.664767,0.16477038
C0A9C0,天母,2025-12-26,25.117494,121.537169,0.030598333
72K220,南改斗南分場,2025-12-26,23.634556,120.477333,0.039493553
72AI40,桃改樹林分場,2025-12-26,24.944503,121.386972,0.020313751
C0S910,蘭嶼燈塔,2025-12-26,22.081197,121.503117,0.0014129753
C0B050,八斗子,2025-12-26,25.144754,121.79167,0.11516078
C0U900,內城,2025-12-26,24.71813,121.68766,0.3988217
C0X320,柳營,2025-12-26,23.253328,120.375253,0.16278271
C0M790,新港,2025-12-26,23.553269,120.345728,0.1900855
C0F9T0,西屯,2025-12-26,24.179494,120.641275,0.022583889
C0E950,松安,2025-12-26,24.39792,120.98599,0.0018614953
C0SA30,都歷,2025-12-26,23.020333,121.323642,0.0033032105
C0C620,蘆竹,2025-12-26,25.084275,121.265767,0.0019732944
C0R730,大坪頂,2025-12-26,22.024633,120.69355,0.0013013788
C0AJ40,石門,2025-12-26,25.273672,121.601198,0.0054773754
C0E750,苗栗,2025-12-26,24.564569,120.824575,0.0062231584
C0T870,鯉魚潭,2025-12-26,23.935639,121.508944,0.0314046
C1V170,排雲,2025-12-26,23.463619,120.954147,0.0003963201
C2H950,中寮,2025-12-26,23.884447,120.766406,0.013013232
C0R350,貓鼻頭,2025-12-26,21.921774,120.7358,0.0009234912
C0V660,岡山,2025-12-26,22.797078,120.294958,0.03790865
C1H941,雙冬,2025-12-26,23.967378,120.802189,0.0068956306
C0AJ70,田寮,2025-12-26,25.2698,121.4886,0.01943838
C0AI00,五股,2025-12-26,25.07445,121.42728,0.00143381
C0Z280,德武,2025-12-26,23.47426,121.41071,0.025859023
C2RA10,大新,2025-12-26,22.67558,120.57788,0.046604436
C0R700,枋山,2025-12-26,22.246844,120.661086,0.0042756256
C0C460,復興,2025-12-26,24.820208,121.352281,0.008731411
C2K300,鹿南,2025-12-26,23.63855,120.3636,0.05591073
E2H360,蓮華池,2025-12-26,23.918333,120.885278,0.031131243
C0M640,中埔,2025-12-26,23.42538,120.5229,0.013077484
C0W140,金沙,2025-12-26,24.488292,118.408778,0.0016468819
C2A540,四堵,2025-12-26,24.8926,121.745736,0.024224043
C0ACA0,新莊,2025-12-26,25.051478,121.446756,0.016107831
C0R220,潮州,2025-12-26,22.534361,120.54,0.061926574
U2HA40,臺大內茅埔,2025-12-26,23.689722,120.851117,0.13321516
467490,臺中,2025-12-26,24.145736,120.684075,0.011450187
C0UB60,明池,2025-12-26,24.650688,121.475277,0.00051042624
C0U960,翠峰湖,2025-12-26,24.510856,121.608044,0.00045771195
E2HA20,林試畢祿溪站,2025-12-26,24.226944,121.308522,0.001450941
C2M9A0,大華,2025-12-26,23.4824,120.67491,0.028375011
C0V890,前鎮,2025-12-26,22.5718,120.3117,0.0673193
C1F941,雪嶺,2025-12-26,24.280586,121.026642,0.00090320327
C2H9E0,國姓南港,2025-12-26,23.911108,120.846556,0.0059052575
C0AC80,文山,2025-12-26,25.00235,121.575728,0.00809246
C0F9R0,龍井,2025-12-26,24.184536,120.528972,0.0043444377
C0M760,民雄,2025-12-26,23.551754,120.428457,0.08425054
C0UA40,西德山,2025-12-26,24.560647,121.752608,0.01083505
C2TA70,赤科坪,2025-12-26,23.39885,121.39168,0.0013850677
C1T920,中興,2025-12-26,23.769503,121.498653,0.050979953
C0D550,雪霸,2025-12-26,24.526972,121.11605,0.0018844518
C2F860,梨山,2025-12-26,24.247522,121.243669,0.001383477
C0R320,車城,2025-12-26,22.0744,120.716247,0.002720072
C1S870,南美山,2025-12-26,23.15025,121.382333,0.0032681949
C0B020,基隆嶼,2025-12-26,25.19141,121.78391,0.00827197
C1U501,牛鬥,2025-12-26,24.637836,121.573656,0.5669042
C0M730,嘉義市東區,2025-12-26,23.457673,120.460531,0.0241575
C2R990,泰武,2025-12-26,22.60686,120.69765,0.018363204
C0S700,知本,2025-12-26,22.684866,121.005642,0.006178594
C1N001,沙崙,2025-12-26,22.935472,120.309406,0.104566656
C0V760,橋頭,2025-12-26,22.757806,120.30575,0.056854784
C0G960,福寶,2025-12-26,24.0443,120.3814,0.006253996
C0X210,白河,2025-12-26,23.347466,120.414427,0.06722117
C0S810,東河,2025-12-26,22.972672,121.303986,0.0015405018
C2R170,屏東,2025-12-26,22.66027,120.49403,0.03699134
C0R670,楓港,2025-12-26,22.190131,120.692156,0.0020230215
C0FA50,霧峰,2025-12-26,24.0419,120.6995,0.04026231
C0UB10,蘇澳,2025-12-26,24.5969,121.8571,0.88302714
C0G950,防潮門,2025-12-26,24.1835,120.4871,0.0043459893
C0M740,六腳,2025-12-26,23.492871,120.290625,0.22468278
C1R250,力里,2025-12-26,22.428117,120.629228,0.048120398
C0K330,虎尾,2025-12-26,23.719183,120.442036,0.07814522
C2FA00,烏石坑,2025-12-26,24.273503,120.947617,0.014836805
C0V620,永安,2025-12-26,22.82315,120.236856,0.038639024
C1I330,楓樹林,2025-12-26,23.986803,121.076117,0.00517009
C0W200,湖西,2025-12-26,23.596314,119.67275,0.0010221924
72Q010,高雄農改場,2025-12-26,22.709333,120.525889,0.037571125
C0SA40,瑞和,2025-12-26,22.974361,121.156697,0.0014438775
C0C680,龜山,2025-12-26,25.02846,121.38656,0.0008779341
C2V260,月眉,2025-12-26,22.971003,120.539853,0.042067412
C0V450,鳳森,2025-12-26,22.545064,120.392592,0.058935877
C0FA90,小雪山林道,2025-12-26,24.29515,121.03651,0.0006717149
C0U720,南山,2025-12-26,24.43742,121.38167,0.0012286573
A2N290,臺南蘭花園區,2025-12-26,23.340258,120.379661,0.1922052
C0R560,新園,2025-12-26,22.5434,120.461558,0.0745175
C0U890,三星,2025-12-26,24.66812,121.65302,0.69931394
C1V300,御油山,2025-12-26,23.001983,120.715364,0.0027208496
C0U600,礁溪,2025-12-26,24.817539,121.765608,0.21659859
C1T980,龍澗,2025-12-26,24.023289,121.411328,0.0031113797
C0D670,海天一線,2025-12-26,24.831986,120.914438,0.0014178165
C0SA00,歷坵,2025-12-26,22.520969,120.89185,0.0013436013
C0M710,東石,2025-12-26,23.458927,120.15385,0.029428536
C0M780,鹿草,2025-12-26,23.41134,120.30835,0.16448867
C0U520,雙連埤,2025-12-26,24.753033,121.641303,0.032392684
C0B010,七堵,2025-12-26,25.094819,121.71713,0.021356301
C0R480,長治,2025-12-26,22.693128,120.542622,0.038875766
C1V830,國三S383K,2025-12-26,22.781967,120.426475,0.072480194
12Q980,恆春工作站,2025-12-26,22.079678,120.714425,0.0026972883
C1O940,東山服務區,2025-12-26,23.286016,120.398472,0.10330286
C1U840,東澳嶺,2025-12-26,24.5378,121.8485,0.05840918
C1D630,飛鳳山,2025-12-26,24.766464,121.119178,0.0011100677
C0S940,石寧山,2025-12-26,23.223772,121.406639,0.00034667176
C0K410,北港,2025-12-26,23.573957,120.292802,0.14406584
C2M620,瑞里,2025-12-26,23.545133,120.675197,0.011634584
C0SB70,小港漁港,2025-12-26,23.158558,121.400431,0.0029247263
C2O950,安南,2025-12-26,23.076694,120.144861,0.023617646
C0F0E0,南湖圈谷,2025-12-26,24.363714,121.444667,0.00029363838
467610,成功,2025-12-26,23.097486,121.373428,0.008224853
C0G890,伸港,2025-12-26,24.148933,120.484403,0.004735273
C2E540,龍溪,2025-12-26,24.606489,120.783933,0.0035124498
C1V200,梅山,2025-12-26,23.268447,120.823556,0.07081416
C0T9H0,加路蘭山,2025-12-26,23.682947,121.5274,0.00093964575
C2O930,玉井,2025-12-26,23.126042,120.46055,0.09545801
C1F911,新伯公,2025-12-26,24.221361,120.841069,0.0038495502
C0R490,九如,2025-12-26,22.7405,120.490503,0.038397443
C0X200,左鎮,2025-12-26,23.056758,120.408522,0.09726574
C2TB50,麻汝,2025-12-26,23.42554,121.39358,0.016551733
C0FA60,鞍馬山工作站,2025-12-26,24.267064,121.000793,0.0015437492
C0SB50,叭嗡嗡,2025-12-26,23.047062,121.343223,0.0053344485
C1F891,稍來,2025-12-26,24.265689,121.001142,0.0016262364
C2M9C0,紫雲,2025-12-26,23.494914,120.540253,0.01049326
72N240,七股研究中心,2025-12-26,23.081672,120.062894,0.024907418
C0C700,中壢,2025-12-26,24.977661,121.256375,0.0019849145
C0M690,水上,2025-12-26,23.419734,120.388909,0.12914301
C0V690,鼓山,2025-12-26,22.623325,120.275575,0.065676264
C0O860,大內,2025-12-26,23.11885,120.36083,0.12757513
C0Z200,萬榮,2025-12-26,23.709219,121.420106,0.030449381
C0T9D0,和中,2025-12-26,24.26676,121.74103,0.04531254
C2S9A0,北份子寮,2025-12-26,22.78561,121.07813,0.015444326
C1O921,楠西,2025-12-26,23.183511,120.484083,0.0671641
C0AJ30,淡水觀海,2025-12-26,25.184591,121.408616,0.015596001
C0V810,左營,2025-12-26,22.67491,120.28491,0.05607693
C0UA70,桃源谷,2025-12-26,24.962606,121.888875,0.003612349
C0X130,官田,2025-12-26,23.193217,120.315422,0.1538024
C1H000,翠峰,2025-12-26,24.109397,121.205211,0.0007477938
C0UA90,石城,2025-12-26,24.980444,121.951214,0.27104363
C1E681,南勢山,2025-12-26,24.421669,120.923831,0.0028905913
C0A9F0,內湖,2025-12-26,25.079422,121.57545,0.023104085
C0K291,宜梧,2025-12-26,23.536281,120.169329,0.079667486
C1K540,口湖,2025-12-26,23.585344,120.180517,0.029714841
C0R780,滿州,2025-12-26,22.024403,120.839892,0.026499113
C0V870,文安,2025-12-26,22.8025,120.2164,0.0407371
C0U650,玉蘭,2025-12-26,24.675286,121.587061,0.10403716
C0R640,東港,2025-12-26,22.46247,120.44074,0.09014669
C0AJ80,板橋,2025-12-26,25.0107,121.4489,0.017258147
C0S660,下馬,2025-12-26,23.150427,121.070312,0.0011120935
C2N190,烏樹,2025-12-26,23.32393,120.36989,0.07125431
C1H9B1,阿眉,2025-12-26,24.1263,120.994672,0.0034998562
C0UA20,多加屯,2025-12-26,24.368614,121.373189,0.0006263628
C0E730,頭份,2025-12-26,24.688247,120.912206,0.0023490642
72V140,高改旗南分場,2025-12-26,22.857861,120.516667,0.06622665
C0K480,莿桐,2025-12-26,23.761192,120.502372,0.052095328
C0U980,坪林石牌,2025-12-26,24.86478,121.77396,0.0071805967
C0T900,西林,2025-12-26,23.8119,121.441458,0.021342166
C1I150,青雲,2025-12-26,23.793361,120.949378,0.03609654
C2E980,和興,2025-12-26,24.505319,120.923016,0.0098019
467350,澎湖,2025-12-26,23.565503,119.563094,0.000816017
C0G800,埔鹽,2025-12-26,24.000394,120.431683,0.008420862
C0H960,草屯,2025-12-26,23.973672,120.68085,0.035911985
C1V780,多納林道,2025-12-26,22.888028,120.737917,0.025351558
C0E920,通霄漁港,2025-12-26,24.498589,120.673876,0.011673883
C0Z330,安通山,2025-12-26,23.290728,121.348528,0.0021653622
C0AH10,永和,2025-12-26,25.01125,121.508111,0.01788657
C0AK10,太平里,2025-12-26,25.134937,121.364899,0.003980268
C2G640,鹿港,2025-12-26,24.0753,120.430481,0.006259376
C1E890,國三N149K,2025-12-26,24.463414,120.680019,0.004715887
C1R110,口社,2025-12-26,22.770111,120.645222,0.031589765
C1M870,國三N285K,2025-12-26,23.550319,120.505833,0.007983572
C1E480,鳳美,2025-12-26,24.554803,121.034747,0.011173273
C0T9M0,靜浦,2025-12-26,23.455167,121.495028,0.05840922
C2H9M0,發祥,2025-12-26,24.154094,121.164517,0.010397073
C2G9C0,埔南,2025-12-26,23.99124,120.46969,0.008341224
C0AI40,石牌,2025-12-26,25.115597,121.513139,0.034555737
C1F871,上谷關,2025-12-26,24.203483,121.018644,0.010718636
C2H9G0,百勝,2025-12-26,24.051142,120.909361,0.06853557
C0G880,二水,2025-12-26,23.810742,120.6173,0.007999906
C0R940,加祿堂,2025-12-26,22.3363,120.6217,0.009127009
C0W220,北竿,2025-12-26,26.220358,119.974881,0.0006412058
C0O960,崎頂,2025-12-26,22.959547,120.369317,0.096563764
C0TA40,秀林,2025-12-26,24.302864,121.731144,0.0024816887
C0S750,向陽,2025-12-26,23.248397,120.986133,0.000972759
C0T9F0,水璉,2025-12-26,23.797131,121.542514,0.0099884635
C1M600,頭凍,2025-12-26,23.406364,120.603339,0.008112513
467660,臺東,2025-12-26,22.752211,121.154586,0.00046516387
C1D380,新埔,2025-12-26,24.84745,121.03834,0.0029650202
C2G980,田頭村,2025-12-26,23.8263,120.444175,0.07761255
C0V750,路竹,2025-12-26,22.854997,120.259439,0.034185026
C0N050,蚵寮,2025-12-26,23.301,120.1104,0.06830528
C2X060,下營,2025-12-26,23.226806,120.256291,0.14772278
72M700,南改鹿草分場,2025-12-26,23.416869,120.283061,0.16689925
C1SA50,利嘉林道,2025-12-26,22.82325,121.009389,0.0021386084
C0UB70,太平山中間站,2025-12-26,24.542003,121.513453,0.007980022
C0A940,金山,2025-12-26,25.223628,121.643967,0.07582515
C1V340,大津,2025-12-26,22.888322,120.645986,0.029156582
C0W180,七美,2025-12-26,23.219333,119.444892,0.0013050857
C1F9C1,白冷,2025-12-26,24.182844,120.929889,0.016845996
K2E710,苗改生物防治研究中心,2025-12-26,24.422861,120.871833,0.0033405058
C0N040,蘆竹溝,2025-12-26,23.2344,120.0961,0.052740585
C0TB40,崇德,2025-12-26,24.166144,121.657414,0.002857675
C0D760,大坪苗圃,2025-12-26,24.5362,121.1108,0.0013264966
C2W230,畜試所澎湖,2025-12-26,23.628342,119.513206,0.0005400031
C0R880,後壁湖,2025-12-26,21.9457,120.7457,0.0015924833
C1I280,埔中,2025-12-26,23.820778,120.642594,0.025252828
467790,墾丁雷達站,2025-12-26,21.948235,120.808028,0.0041420558
C0W190,望安,2025-12-26,23.380564,119.494075,0.00067247014
C0Z170,卓溪,2025-12-26,23.3443,121.3029,0.021752454
C0F850,東勢,2025-12-26,24.246428,120.833047,0.0069601294
466900,淡水,2025-12-26,25.164889,121.448906,0.003970121
C0I370,魚池,2025-12-26,23.895703,120.94135,0.046550144
C0C630,大溪,2025-12-26,24.882853,121.265547,0.0032200331
C0A520,山佳,2025-12-26,24.974944,121.402008,0.012973892
C0I110,竹山,2025-12-26,23.761225,120.688156,0.02037498
82H840,茶改南部分場,2025-12-26,23.762528,120.7405,0.028074777
C2SD80,再來山,2025-12-26,23.34371,121.44122,0.00032207856
C0G660,溪湖,2025-12-26,23.94835,120.479122,0.033794288
C1T800,洛韶,2025-12-26,24.204558,121.453956,0.00070277264
C1T810,慈恩,2025-12-26,24.192044,121.388386,0.0005388327
C1E451,象鼻,2025-12-26,24.368617,120.940228,0.007771795
C0AC60,三峽,2025-12-26,24.939025,121.369728,0.0028795048
C0I490,萬大林道,2025-12-26,23.928228,121.091411,0.002004579
C1I290,豐丘,2025-12-26,23.668178,120.887417,0.0140534025
C1I320,奧萬大,2025-12-26,23.952956,121.178556,0.0049271844
C2M910,嘉義大學,2025-12-26,23.471325,120.485903,0.019778486
C0U770,南澳,2025-12-26,24.44935,121.81022,0.1416124
C2TB30,吉安,2025-12-26,23.94538,121.54803,0.052385766
C0A980,社子,2025-12-26,25.109508,121.469681,0.011526769
C0V800,六龜,2025-12-26,22.997889,120.633583,0.027147608
C1G9D0,國一S218K,2025-12-26,23.890641,120.493253,0.048065912
C0E570,白沙屯,2025-12-26,24.549447,120.696803,0.002526393
C2F9A0,中竹林,2025-12-26,24.103556,120.751061,0.004571518
C0FA40,臺中電廠,2025-12-26,24.2146,120.4907,0.004345263
C2G9A0,畜試所彰化,2025-12-26,23.86045,120.557964,0.06384892
C0H9C0,合歡山,2025-12-26,24.143442,121.272547,0.00046903352
G2M350,農試溪口農場,2025-12-26,23.58565,120.408111,0.08829614
C0U860,頭城,2025-12-26,24.85323,121.8308,0.23069715
C0R580,南州,2025-12-26,22.48591,120.50274,0.09014669
C0D430,峨眉,2025-12-26,24.6905,121.017189,0.00392135
C0G780,秀水,2025-12-26,24.03405,120.503869,0.0227716
72N100,臺南農改場,2025-12-26,23.0605,120.342194,0.12688339
C0S900,蘭嶼高中,2025-12-26,22.04909,121.51214,0.004051659
C2TA60,六十石,2025-12-26,23.22477,121.31861,0.0011446167
C1F9W0,德基,2025-12-26,24.254783,121.190261,0.0023448698
C2M980,安和,2025-12-26,23.51377,120.31593,0.22145835
C1Z120,壽豐,2025-12-26,23.870853,121.508081,0.09066715
C0W160,烏坵,2025-12-26,24.9944,119.44956,0.00039461738
C1I240,外大坪,2025-12-26,23.958697,120.917931,0.026349334
C1I550,國六W023K,2025-12-26,23.979067,120.867742,0.01796828
C0R870,興海,2025-12-26,21.9752,120.8439,0.0072998228
C0R140,瑪家,2025-12-26,22.682903,120.686639,0.05845471
C0A530,坪林,2025-12-26,24.938183,121.70975,0.041352514
C0X260,後壁,2025-12-26,23.366358,120.362326,0.13597389
C0Z230,和平,2025-12-26,24.30717,121.77007,0.116850466
C0G770,福興,2025-12-26,24.041289,120.437669,0.008406389
C0H9A0,神木村,2025-12-26,23.532742,120.843667,0.0054721544
C0I460,南投,2025-12-26,23.911469,120.687331,0.03291735
C0I480,梅峰,2025-12-26,24.085272,121.173572,0.00122954
C1V570,吉東,2025-12-26,22.85422,120.5454,0.06351569
C2A560,福山,2025-12-26,24.776203,121.502811,0.18490131
C0AH30,五分山,2025-12-26,25.07125,121.780794,0.00048550393
C0FA10,松柏,2025-12-26,24.429115,120.617482,0.0046978393
72S200,東改班鳩分場,2025-12-26,22.829528,121.077694,0.003549273
72HA00,中改埔里分場,2025-12-26,23.903208,120.963364,0.03803422
C2H9W0,大坪頂農水,2025-12-26,24.043122,120.932781,0.03150544
C0C650,平鎮,2025-12-26,24.897503,121.214636,0.0018670984
C0S930,延平,2025-12-26,22.902581,121.084058,0.0006631839
C0UA60,樟樹山,2025-12-26,24.41393,121.78325,0.04961114
C2UC10,出水溪,2025-12-26,24.615822,121.652253,0.04707909
C1S670,摩天,2025-12-26,23.199503,121.027,0.0027356292
C2C590,觀音,2025-12-26,25.027072,121.153317,0.0009066616
C0V630,茄萣,2025-12-26,22.906642,120.182608,0.0268715
466940,基隆,2025-12-26,25.133314,121.740475,0.1073594
C0X050,東河,2025-12-26,23.296598,120.385608,0.10547238
C0R770,保力,2025-12-26,22.071122,120.764111,0.0034623507
G2L020,農試嘉義分所,2025-12-26,23.485028,120.473806,0.0127135
C0X240,關子嶺,2025-12-26,23.331169,120.508025,0.063191205
C0I380,集集,2025-12-26,23.828206,120.801467,0.02573729
466990,花蓮,2025-12-26,23.975128,121.613275,0.24892451
C1V220,小關山,2025-12-26,23.154217,120.813603,0.0022867564
C1F9G1,慶福山,2025-12-26,24.180853,120.848378,0.0017019461
C0FB20,雪山橋,2025-12-26,24.23192,120.9786,0.0018068126
C0Z250,瑞穗林道,2025-12-26,23.49284,121.30688,0.0020341326
C0D590,新豐,2025-12-26,24.87068,120.97721,0.0019734795
C0A870,五指山,2025-12-26,25.132153,121.608692,0.0005119206
C0UA50,西帽山,2025-12-26,24.555361,121.802628,0.03671048
C2R980,竹田國中,2025-12-26,22.61532,120.52412,0.0610019
C0X160,仁德,2025-12-26,22.968258,120.257689,0.05416337
C1H971,六分寮,2025-12-26,23.92507,120.6378,0.022460131
C0W120,西嶼,2025-12-26,23.5626,119.468436,0.0007945177
C0G650,員林,2025-12-26,23.946503,120.585597,0.031556245
C0AD50,鶯歌,2025-12-26,24.951533,121.346294,0.0025778704
C2H9Q0,北東眼山,2025-12-26,24.120939,121.189303,0.001602565
C2H9T0,名間竹圍,2025-12-26,23.859914,120.637572,0.061564464
C0S990,山豬窟,2025-12-26,22.318619,120.857372,0.08720959
C0X190,安平,2025-12-26,22.993161,120.152181,0.086710766
C0K400,斗六,2025-12-26,23.720583,120.541127,0.049344204
12J990,口湖工作站,2025-12-26,23.589978,120.180394,0.029855091
C0O830,北寮,2025-12-26,23.079561,120.495008,0.04507476
C1D410,白蘭,2025-12-26,24.579364,121.079947,0.0015268082
C0S970,加津林,2025-12-26,22.416211,120.926942,0.103165105
C0D700,關西,2025-12-26,24.7977,121.1732,0.024578
C0U750,龜山島,2025-12-26,24.841667,121.953133,0.0032319713
C0R810,內獅,2025-12-26,22.305064,120.642986,0.009311245
C1M390,龍美,2025-12-26,23.406728,120.654417,0.024387905
C2K290,崙內,2025-12-26,23.69525,120.35601,0.034278546
C2FB60,頭櫃山,2025-12-26,24.129842,120.858925,0.011453362
C1H840,國三N238K,2025-12-26,23.841008,120.707711,0.053692903
CAQ030,崎峰國小,2025-12-26,22.42565,120.49521,0.09014669
C2E520,大湖,2025-12-26,24.414939,120.870872,0.0024226499
467530,阿里山,2025-12-26,23.508208,120.813242,0.0011620927
C1E691,南湖,2025-12-26,24.40135,120.837533,0.000631023
C0FA30,梧棲,2025-12-26,24.256003,120.523381,0.0047534583
C1V231,高中,2025-12-26,23.134911,120.716711,0.06903407
C0AK30,硬漢嶺,2025-12-26,25.136097,121.426372,0.00055295305
C0F9V0,新社,2025-12-26,24.200172,120.815806,0.0026806174
C0H890,埔里,2025-12-26,23.972169,120.952425,0.08760494
C0R690,墾丁,2025-12-26,21.966756,120.810269,0.0005264337
C0SD20,富山,2025-12-26,22.822383,121.190825,0.0023906797
C0F0D0,審馬陣,2025-12-26,24.381675,121.4203,0.00023872578
C2W030,金門農試所,2025-12-26,24.448431,118.451786,0.00045471737
C0R820,白鷺,2025-12-26,22.454275,120.666219,0.040562928
C0FB00,大雪山,2025-12-26,24.254668,121.007374,0.0013874864
C1V190,南天池,2025-12-26,23.27403,120.91176,0.0007800103
C0E940,雪見,2025-12-26,24.42595,121.01347,0.0020471546
K2E360,苗栗農改場,2025-12-26,24.495722,120.829111,0.009573473
CAJ050,海口故事園區,2025-12-26,23.57543,120.14121,0.029798552
C2K280,四湖,2025-12-26,23.6304,120.22717,0.027353778
C2H9D0,三隻寮,2025-12-26,24.093078,120.861578,0.005785908
C0O990,媽廟,2025-12-26,22.99175,120.293525,0.11315979
C0D480,打鐵坑,2025-12-26,24.849664,121.150789,0.01357471
C0Z220,和平林道,2025-12-26,24.343922,121.656317,0.0033183992
C0TA10,花蓮漁港,2025-12-26,23.995322,121.638331,0.0052719354
72C440,桃園農改場,2025-12-26,24.950944,121.030583,0.0014760885
C1E711,馬拉邦山,2025-12-26,24.367306,120.901656,0.0073324456
C0SB20,富岡,2025-12-26,22.792467,121.192669,0.0003872175
C0D560,竹東,2025-12-26,24.767147,121.057881,0.0036056086
C0F9U0,南屯,2025-12-26,24.137006,120.637969,0.029635552
C2SD60,明峰,2025-12-26,22.8671,121.11825,0.00058845454
C0M720,番路,2025-12-26,23.464657,120.554156,0.010917961
C0F0A0,雪山圈谷,2025-12-26,24.388594,121.236339,0.0003697944
C1A9N0,四十份,2025-12-26,24.934158,121.593283,0.00055802765
C0U760,東澳,2025-12-26,24.52196,121.83318,0.55421937
C0X230,鹽水,2025-12-26,23.272621,120.247641,0.06589894
C2H9H0,苗改南投蜂場,2025-12-26,23.852589,120.693481,0.035888456
C2TB70,達谷寮,2025-12-26,23.38,121.35968,0.027716992
C0R950,萬隆國小,2025-12-26,22.507667,120.587817,0.05165445
467540,大武,2025-12-26,22.35572,120.90374,0.020670613
C0V370,古亭坑,2025-12-26,22.893178,120.401947,0.12341746
C1I340,新興橋,2025-12-26,23.563333,120.868728,0.063986465
C0SA80,土坂,2025-12-26,22.453108,120.887572,0.027543323
C0R160,鹽埔,2025-12-26,22.739558,120.530778,0.03667716
C0AC40,大屯山,2025-12-26,25.175675,121.522408,0.0002737765
466850,五分山雷達站,2025-12-26,25.071182,121.781205,0.0004734547
C2H9L0,馬烈霸,2025-12-26,24.1512,121.201772,0.002027643
C1AI50,國三N016K,2025-12-26,25.034164,121.619664,0.013477536
C2V920,匏子寮,2025-12-26,23.04905,120.55319,0.02579304
C1V600,藤枝,2025-12-26,23.071961,120.757042,0.0036607715
C1E601,南勢,2025-12-26,24.572486,120.734842,0.0034325407
C0O980,新市,2025-12-26,23.061614,120.298197,0.12970474
C0K420,西螺,2025-12-26,23.800407,120.467394,0.07625107
C0Z050,佳心,2025-12-26,23.34567,121.21316,0.0015546794
C0AD30,蘆洲,2025-12-26,25.086594,121.472331,0.025281558
C0V610,梓官,2025-12-26,22.760558,120.267211,0.05736514
K2F750,種苗改良場,2025-12-26,24.225972,120.800917,0.003605521
C0UA80,大溪漁港,2025-12-26,24.941801,121.902955,0.3356997
C1AI60,國一39K邊坡,2025-12-26,25.064361,121.383836,0.001103404
C0W150,金寧,2025-12-26,24.457703,118.328989,0.0016863743
C0R960,內埔,2025-12-26,22.608483,120.570714,0.0586817
V2C250,八德合作社,2025-12-26,24.93775,121.266389,0.002030676
C2H9S0,龍南,2025-12-26,23.953536,120.833183,0.0076548187
C0AH40,平等,2025-12-26,25.129142,121.577086,0.0008169876
C0R540,佳冬,2025-12-26,22.419456,120.552375,0.040407266
466950,彭佳嶼,2025-12-26,25.627975,122.079744,0.0004852308
C0A890,雙溪,2025-12-26,25.036003,121.864242,0.110946365
C0C480,桃園,2025-12-26,24.992425,121.323172,0.0021045355
C0AH50,林口,2025-12-26,25.072181,121.38084,0.00079453737
A2K360,水試臺西試驗場,2025-12-26,23.717231,120.190522,0.023291573
C2M960,外寮,2025-12-26,23.562643,120.665688,0.02859164
C0F9S0,烏日,2025-12-26,24.107058,120.624103,0.0145317335
C2N180,鹿陶洋,2025-12-26,23.14325,120.48352,0.067028366
C0C490,八德,2025-12-26,24.928708,121.283289,0.002018842
C0R190,赤山,2025-12-26,22.592333,120.614306,0.05586162
C0T820,天祥,2025-12-26,24.179597,121.495639,0.085300304
C1F9E1,龍安,2025-12-26,24.1605,120.831961,0.002308813
C2SD50,順那,2025-12-26,23.04166,121.29332,0.0022829988
C0V820,小林,2025-12-26,23.148408,120.63325,0.04087966
C2G870,芳苑,2025-12-26,23.922303,120.320025,0.008412302
C0E850,大河,2025-12-26,24.618069,120.948578,0.00488208
C1U670,寒溪,2025-12-26,24.634,121.71691,0.7252667
C0N020,城西,2025-12-26,23.0568,120.0956,0.08727893
C1Z110,三棧,2025-12-26,24.11557,121.60501,0.023091324
C0R280,檳榔,2025-12-26,22.076078,120.836777,0.0025555815
C2H9J0,中台,2025-12-26,23.9996,120.938739,0.062361363
C0F9L0,后里,2025-12-26,24.310436,120.729725,0.005881953
467441,高雄,2025-12-26,22.730432,120.312516,0.05471363
C0Z180,新城,2025-12-26,24.040486,121.604878,0.23079455
C0D540,橫山,2025-12-26,24.71116,121.11693,0.0051271766
C1D420,太閣南,2025-12-26,24.632808,121.160575,0.0014204795
C1E770,公館,2025-12-26,24.526914,120.830806,0.009823926
CAN130,水試所海水繁養殖中心,2025-12-26,23.120802,120.07968,0.024843259
C1I430,翠華,2025-12-26,24.191961,121.224339,0.0010130738
C1M400,菜瓜坪,2025-12-26,23.251928,120.576103,0.14321549
C0G730,二林,2025-12-26,23.903325,120.376081,0.010548633
72M360,南改義竹分場,2025-12-26,23.360694,120.279361,0.079419106
V2K620,麥寮合作社,2025-12-26,23.753836,120.294783,0.03485138
C0Z070,舞鶴,2025-12-26,23.46811,121.37407,0.01736668
C0B040,大武崙,2025-12-26,25.166676,121.706993,0.07495155
C1Z030,紅葉,2025-12-26,23.493119,121.338806,0.01829371
C1I050,丹大,2025-12-26,23.753747,121.141147,0.00069927686
C0I080,信義,2025-12-26,23.689694,120.851036,0.13321516
C2TB80,庄子底,2025-12-26,23.71794,121.49438,0.044566896
C0D750,樂山林道6k,2025-12-26,24.49999,121.08773,0.0009169233
C2M920,朴子農改,2025-12-26,23.469889,120.259383,0.16601525
C2A880,福隆,2025-12-26,25.017842,121.942083,0.28540638
C0Z160,鳳林,2025-12-26,23.746114,121.453411,0.040072214
C0UB80,翠峰林道6K,2025-12-26,24.49773,121.568625,0.00039709595
C0V210,復興,2025-12-26,23.222403,120.806089,0.14075905
C0H990,昆陽,2025-12-26,24.121322,121.273642,0.0004248771
C0R741,獅子,2025-12-26,22.202308,120.705236,0.005264292
C0S710,鹿野,2025-12-26,22.917711,121.122994,0.00077664666
C0I530,小奇萊,2025-12-26,24.131764,121.295717,0.00047049354
C0FA70,大雪山埡口,2025-12-26,24.26867,121.03062,0.0009107965
C2K630,荷苞,2025-12-26,23.657717,120.595144,0.0060677114
C0Z080,富源,2025-12-26,23.587642,121.378225,0.016054498
C2M9E0,旺來山,2025-12-26,23.555153,120.486463,0.0076525877
C0SB10,美和,2025-12-26,22.682078,121.060236,0.12153501
C2K620,馬光農場,2025-12-26,23.721453,120.378864,0.080995716
C1I140,卡奈托灣,2025-12-26,23.754364,121.087872,0.003285627
C0I520,玉山風口,2025-12-26,23.470489,120.955994,0.00039786895
C1G691,下水埔,2025-12-26,23.816114,120.5676,0.050806873
C0X110,臺南市南區,2025-12-26,22.961189,120.188378,0.054970596
C0V680,仁武,2025-12-26,22.701083,120.347722,0.055217806
C2G840,北斗,2025-12-26,23.877586,120.514222,0.04604725
C2TB90,長橋,2025-12-26,23.6874,121.46186,0.063657664
C0R900,竹坑,2025-12-26,22.1385,120.7022,0.0007245623
C0G860,社頭,2025-12-26,23.897647,120.5862,0.0490949
C0X150,安定,2025-12-26,23.102614,120.227839,0.13041821
C0R590,里港,2025-12-26,22.77919,120.49459,0.08110497
C0E610,馬都安,2025-12-26,24.451272,120.930192,0.00420688
C0E550,明德,2025-12-26,24.583486,120.885411,0.0061441776
C0R150,三地門,2025-12-26,22.709889,120.639944,0.033030324
C0G910,花壇,2025-12-26,24.032076,120.549461,0.021092907
C1D400,鳥嘴山,2025-12-26,24.71909,121.28387,0.003962724
C0K500,元長,2025-12-26,23.64981,120.315024,0.05898836
C0F0B0,石岡,2025-12-26,24.276061,120.777644,0.006143811
C2V250,甲仙,2025-12-26,23.080106,120.591758,0.047662523
C0SA20,金崙山,2025-12-26,22.567419,120.959667,0.00058642385
C0V350,溪埔,2025-12-26,22.738578,120.446797,0.054740645
C0M660,溪口,2025-12-26,23.604131,120.403569,0.088088475
C1S880,壽卡,2025-12-26,22.238911,120.858903,0.03751536
72D680,桃改新埔分場,2025-12-26,24.834444,121.066111,0.0029394121
