站號,站名,日期,lat,lon,BLBTSLS
C1F9D1,白毛台,2025-04-20,24.158325,120.886933,1.2863557e-09
C1O850,環湖,2025-04-20,23.148617,120.418633,2.238169e-08
C0U710,太平山,2025-04-20,24.505486,121.525656,2.4069584e-09
C0V880,興達,2025-04-20,22.8778,120.2127,0.91933006
C0S890,關山,2025-04-20,23.0395,121.175017,1.0066243e-09
C0SB30,新蘭,2025-04-20,22.869214,121.223228,1.6967431e-09
C2R970,屏科大,2025-04-20,22.648275,120.619247,7.3616473e-09
C1Z130,銅門,2025-04-20,23.965694,121.492842,1.1279035e-09
CAN140,六官養殖協會,2025-04-20,23.22881,120.29962,0.70045805
C0X180,山上,2025-04-20,23.0757,120.363253,0.00032001536
C1M480,獨立山,2025-04-20,23.537022,120.607797,1.0425952e-09
C0X220,學甲,2025-04-20,23.230367,120.182187,4.1282456e-05
C0S950,七塊厝,2025-04-20,22.954453,121.229922,8.7840035e-10
C2D730,寶山農場,2025-04-20,24.732444,120.976153,1.2539308e-09
C0V400,阿公店,2025-04-20,22.804194,120.355528,0.92100143
C1F9B1,桐林,2025-04-20,24.066172,120.735194,1.8470142e-09
C2H9U0,鳳鵬,2025-04-20,23.763919,120.788061,5.56953e-10
C1I450,望鄉山,2025-04-20,23.594153,120.944286,1.0219894e-08
B2E890,畜試北區分所,2025-04-20,24.527806,120.770972,1.196847e-09
C0R750,四林格山,2025-04-20,22.076989,120.802439,9.381178e-10
C1I121,大鞍,2025-04-20,23.678381,120.760017,2.6707265e-09
72U480,花改蘭陽分場,2025-04-20,24.686306,121.716583,5.872439e-10
A2C560,農工中心,2025-04-20,24.985917,121.239833,8.711242e-10
C0V740,旗山,2025-04-20,22.888614,120.483597,2.6252918e-09
C0Z061,玉里,2025-04-20,23.3215,121.339656,9.560751e-10
C0S840,南田,2025-04-20,22.279725,120.889208,1.7315256e-09
C1I470,杉林溪,2025-04-20,23.639517,120.786444,3.3694307e-09
C1X040,東原,2025-04-20,23.291597,120.463822,5.849221e-10
C1R120,上德文,2025-04-20,22.763272,120.704442,7.271119e-10
C0UA00,土場,2025-04-20,24.576533,121.495333,1.376139e-09
C0V650,彌陀,2025-04-20,22.783806,120.246361,0.9985338
82S580,茶改東部分場,2025-04-20,22.907694,121.130139,1.1363552e-09
C0SB40,興隆,2025-04-20,22.913661,121.257469,1.5920284e-09
C0V640,湖內,2025-04-20,22.887139,120.2445,0.88732
C0R910,下寮,2025-04-20,22.3929,120.5548,1.8281858e-09
C0Z020,明里,2025-04-20,23.208717,121.262342,1.4740238e-09
C1E511,新開,2025-04-20,24.347703,120.827019,2.5277396e-09
G2F820,農試所(霧峰),2025-04-20,24.031261,120.688133,4.643305e-09
C1I070,和社,2025-04-20,23.591131,120.888861,9.422585e-10
C0TA80,立霧山,2025-04-20,24.183258,121.641899,2.934176e-09
C2F000,大肚,2025-04-20,24.15295,120.572117,1.0247607e-09
C1S850,豐南,2025-04-20,23.122139,121.262389,1.1535856e-09
C2A920,富貴角,2025-04-20,25.263783,121.565258,1.3616899e-09
CAH030,茶改場竹圍站,2025-04-20,23.860083,120.637528,4.4471035e-10
C0T960,光復,2025-04-20,23.660694,121.424964,4.8563203e-10
C0V710,苓雅,2025-04-20,22.622742,120.330669,0.9876055
CAC040,拉拉山,2025-04-20,24.699317,121.427133,4.215112e-09
C0V790,萬山,2025-04-20,22.905944,120.688056,1.680943e-09
U2HA30,臺大和社,2025-04-20,23.590856,120.888864,9.422585e-10
C0Z100,東華,2025-04-20,23.89525,121.549833,1.0500871e-09
V2K610,大庄合作社,2025-04-20,23.8068,120.367939,2.9223798e-07
C0V900,汕尾,2025-04-20,22.4782,120.4151,6.879452e-08
C1R630,龍泉,2025-04-20,22.66701,120.59091,1.1304282e-08
C1AC50,關渡,2025-04-20,25.133486,121.469331,1.0010756e-09
C2O810,曾文,2025-04-20,23.219681,120.497328,9.953334e-10
C1F9J1,清水林,2025-04-20,24.071242,120.820419,1.0852281e-09
C2A650,火燒寮,2025-04-20,25.002719,121.742892,1.0128876e-09
C1I220,樟湖,2025-04-20,23.905333,120.846983,2.3404538e-09
C0Z300,東里,2025-04-20,23.26853,121.30547,1.5540016e-09
C1V590,新發,2025-04-20,23.057019,120.646064,1.8787898e-09
72S590,東改賓朗果園,2025-04-20,22.813889,121.071278,1.0509769e-09
82A750,茶改北部分場,2025-04-20,24.955778,121.631222,8.786936e-10
C1A750,石碇服務區,2025-04-20,25.00872,121.646242,5.989062e-10
C0X300,鹿寮,2025-04-20,23.386047,120.477331,0.5829442
G2AI50,關渡,2025-04-20,25.11575,121.492,1.8864885e-09
C1S800,華源,2025-04-20,22.657883,121.02325,3.8127093e-09
C1V160,達卡努瓦,2025-04-20,23.279811,120.705319,1.4828386e-09
C2M410,馬頭山,2025-04-20,23.324361,120.582017,4.9964477e-10
C0V850,蚵仔寮,2025-04-20,22.7256,120.2527,0.99755
C0S740,池上,2025-04-20,23.119628,121.209469,1.0139817e-09
C1V390,尖山,2025-04-20,22.813153,120.367789,0.7915887
C0SA60,知本（水試所）,2025-04-20,22.702394,121.082761,7.255925e-09
C0T9I0,豐濱,2025-04-20,23.583897,121.514806,4.9429866e-10
C0UB00,淡江大學蘭陽校園,2025-04-20,24.823239,121.730383,7.95431e-10
C0W240,九宮,2025-04-20,24.423753,118.240186,3.478663e-09
C0T9N0,富里,2025-04-20,23.171639,121.249378,1.3456306e-09
U2HA50,臺大竹山,2025-04-20,23.756972,120.681556,1.902561e-07
C0V840,鳳鼻頭,2025-04-20,22.5083,120.3591,5.3994967e-08
C0X140,西港,2025-04-20,23.125608,120.203108,0.9870932
72D080,桃改五峰分場,2025-04-20,24.612194,121.157167,2.0629551e-09
C2H9P0,伊拿谷,2025-04-20,23.963211,121.088264,1.792634e-09
C2H9F0,柑林,2025-04-20,24.018658,120.847072,1.5167905e-09
C0TA20,加灣,2025-04-20,24.082025,121.608944,9.41301e-10
C0V530,阿蓮,2025-04-20,22.883208,120.327508,0.9988838
C1O880,關山,2025-04-20,23.173397,120.594092,4.1893888e-10
C1I030,武界,2025-04-20,23.913225,121.052483,1.9024344e-09
C0R930,萬丹,2025-04-20,22.5885,120.4851,1.5209622e-09
C0S760,紅石,2025-04-20,23.069131,121.126219,2.6028204e-09
C2C410,中央大學,2025-04-20,24.967652,121.185165,8.832591e-10
C1M610,石磐龍,2025-04-20,23.496606,120.663506,1.3386574e-09
C0UA10,鴛鴦湖,2025-04-20,24.590269,121.412228,2.4636524e-09
V2C260,八德蔬果,2025-04-20,24.978508,121.281819,6.907253e-10
C0R800,丹路,2025-04-20,22.204481,120.750989,1.0997034e-09
C2M950,太和,2025-04-20,23.538372,120.702961,1.781077e-09
C1A630,下盆,2025-04-20,24.771003,121.538622,8.1662094e-10
B2N890,畜產試驗所,2025-04-20,23.058972,120.336406,0.9973515
C0UA30,白嶺,2025-04-20,24.527819,121.519031,1.5099408e-09
C1V580,溪南(特生中心),2025-04-20,23.084972,120.788475,1.9065938e-09
C1T970,大農,2025-04-20,23.615233,121.413331,5.0508625e-10
C1H900,清流,2025-04-20,24.080775,120.962997,1.3758319e-09
C1C510,水尾,2025-04-20,24.940081,121.087161,1.1633741e-09
C0SB60,白守蓮,2025-04-20,23.126769,121.401914,2.7452538e-09
C0X250,新營,2025-04-20,23.310689,120.316681,0.13159183
C0V700,三民,2025-04-20,22.645017,120.311233,0.9920529
C0U870,大礁溪,2025-04-20,24.791042,121.675047,7.5584605e-10
A2K570,古坑花卉中心,2025-04-20,23.63353,120.55239,3.0095403e-06
C0TA30,鹽寮,2025-04-20,23.845606,121.592664,1.0898289e-09
C1E701,八卦,2025-04-20,24.491756,120.927619,1.9833495e-09
C2D720,關西工作站,2025-04-20,24.757275,121.184792,9.71876e-10
C0S960,香蘭,2025-04-20,22.587569,120.993375,7.670131e-09
72G600,臺中農改場,2025-04-20,24.003028,120.534389,2.4107534e-09
C0Z210,瑞穗,2025-04-20,23.5239,121.39021,5.27867e-10
C0V860,南寮,2025-04-20,22.7616,120.2339,0.99755
C0R920,塭仔,2025-04-20,22.4169,120.5197,1.86656e-09
C1O870,大棟山,2025-04-20,23.31157,120.52226,1.2561618e-09
C0Z190,富世,2025-04-20,24.14743,121.6297,1.2538878e-09
B2U990,畜試東區分所,2025-04-20,24.669039,121.832561,7.19811e-10
C0SB80,長濱漁港,2025-04-20,23.313644,121.459994,9.681055e-10
C0TA50,和仁,2025-04-20,24.241394,121.712472,9.559329e-10
C0V910,大樹,2025-04-20,22.684645,120.432803,0.016153973
C1R610,西大武山,2025-04-20,22.617719,120.7322,4.0668917e-09
C2E880,三義,2025-04-20,24.405478,120.749819,1.5046567e-09
C0Z150,吉安光華,2025-04-20,23.930925,121.595153,2.102167e-09
C1D640,外坪(五指山),2025-04-20,24.644447,121.090961,1.6219768e-09
C2H9R0,卓社,2025-04-20,23.887894,121.000086,3.6715944e-09
72T250,花蓮農改場,2025-04-20,23.975222,121.563889,2.7353546e-09
C1T950,太安,2025-04-20,23.666719,121.370128,2.2169542e-09
C0SA10,檳榔四格山,2025-04-20,22.810031,121.109308,9.782812e-10
C1T830,布洛灣,2025-04-20,24.17184,121.57127,7.939521e-09
C1U920,思源,2025-04-20,24.393125,121.347214,2.6113733e-09
C2M940,日野賀,2025-04-20,23.434056,120.727169,1.8093078e-09
C0R860,鼻頭,2025-04-20,22.1043,120.8979,1.2458207e-09
C0UB20,壯圍,2025-04-20,24.7359,121.8163,6.1759825e-10
C0R790,九棚,2025-04-20,22.14195,120.889281,1.0179075e-09
C0W110,東莒,2025-04-20,25.9652,119.98069,2.4469897e-09
C1U930,粉鳥林,2025-04-20,24.497088,121.842479,4.719099e-09
C1I211,蘆竹湳,2025-04-20,23.934019,120.811994,7.553546e-10
C0S830,長濱,2025-04-20,23.286817,121.411975,9.894052e-10
C1F9F1,伯公龍,2025-04-20,24.272392,120.849047,2.1007323e-09
C0UB90,太平山莊,2025-04-20,24.494171,121.536209,2.4675697e-09
C1I440,新高口,2025-04-20,23.478744,120.878939,5.227104e-09
C0T9G0,鳳林山,2025-04-20,23.735269,121.420131,1.34018e-09
C0X080,佳里,2025-04-20,23.173039,120.145086,0.055551853
C0Z310,清水斷崖,2025-04-20,24.218294,121.689142,9.60557e-10
C1S820,金峰,2025-04-20,22.590969,120.933236,3.401413e-09
C2K240,草嶺,2025-04-20,23.59555,120.693461,1.4351621e-09
C1SA70,都蘭,2025-04-20,22.87794,121.226881,1.5920284e-09
C1A760,坪林交控,2025-04-20,24.94284,121.713442,1.087188e-09
C0SA90,達仁林場,2025-04-20,22.264347,120.823972,9.473818e-10
C1R290,石門山,2025-04-20,22.112611,120.756597,9.1346153e-10
42HA10,萬大發電廠,2025-04-20,23.978875,121.139639,2.1777722e-09
C0R890,山海,2025-04-20,21.9878,120.7091,6.55027e-09
C0T9A0,月眉山,2025-04-20,23.809928,121.539828,1.1078107e-09
C2FB50,出雲,2025-04-20,24.206469,120.902794,2.0506445e-09
C1Z240,中平林道,2025-04-20,23.42115,121.26763,2.9254696e-09
U2H480,溪頭,2025-04-20,23.670306,120.798194,1.8940924e-09
C0T9E0,大坑,2025-04-20,23.880628,121.581981,9.1709973e-10
C1E900,國一N128K,2025-04-20,24.560997,120.844186,1.4249064e-09
C2V310,美濃,2025-04-20,22.898792,120.51907,2.8022358e-09
C1U850,觀音海岸,2025-04-20,24.38319,121.77856,1.1457659e-09
C2K610,草嶺石壁,2025-04-20,23.602469,120.707731,1.4916608e-09
C0U950,鶯子嶺,2025-04-20,24.89754,121.79244,2.013169e-09
E2P980,林試六龜中心,2025-04-20,22.991703,120.645722,6.7759937e-10
C1I310,西巒,2025-04-20,23.754486,120.883956,1.5828934e-09
C0R830,高士,2025-04-20,22.121825,120.836781,9.2008173e-10
C1I101,溪頭,2025-04-20,23.661789,120.807647,4.4676716e-09
C1H920,長豐,2025-04-20,24.102039,120.879897,1.135207e-09
C0V360,內門,2025-04-20,22.975481,120.466769,2.166376e-08
C0R850,林邊,2025-04-20,22.4634,120.5339,6.027941e-08
C0U910,冬山,2025-04-20,24.63373,121.7937,7.19811e-10
C1E721,泰安,2025-04-20,24.489017,120.968036,2.4890443e-09
82H320,茶改中部分場,2025-04-20,23.875611,120.913583,1.2039493e-09
C1S860,利嘉,2025-04-20,22.809417,121.050528,1.9571607e-09
E2S980,林試太麻里1,2025-04-20,22.598922,120.980044,5.2150346e-09
C0X170,關廟,2025-04-20,22.963017,120.327797,0.994477
C0V720,林園,2025-04-20,22.507747,120.394511,5.0260827e-08
C1I510,線浸林道,2025-04-20,23.761508,120.832956,1.9597792e-09
B2Q810,畜試南區分所,2025-04-20,21.945583,120.802167,3.2567198e-09
C0S790,金崙,2025-04-20,22.538122,120.966875,3.529894e-09
C0S770,大溪山,2025-04-20,22.478475,120.943325,2.1331426e-09
C0T790,大禹嶺,2025-04-20,24.186117,121.316086,9.901589e-09
C0T9B0,水源,2025-04-20,23.991861,121.537169,1.0835053e-09
C0R840,牡丹池山,2025-04-20,22.168389,120.841225,1.1458599e-09
C1I131,桶頭,2025-04-20,23.641944,120.654117,4.8372534e-08
CAL110,布袋國中,2025-04-20,23.35893,120.18026,1.4979932e-07
C0Z290,赤柯山,2025-04-20,23.36893,121.38293,3.7055115e-09
C0X280,將軍,2025-04-20,23.214999,120.13577,6.538783e-05
C0S690,太麻里,2025-04-20,22.60902,120.98533,1.864553e-09
C0U880,北關,2025-04-20,24.9072,121.8734,1.1249729e-09
C0U970,大福,2025-04-20,24.80064,121.81389,1.0694206e-09
C2H9N0,仁愛東眼,2025-04-20,24.026875,121.1205,4.2014423e-09
C1E670,南礦,2025-04-20,24.538278,121.002836,1.769203e-09
C1E461,松安,2025-04-20,24.397972,120.986022,2.5055154e-09
C2N160,西拉雅風管處,2025-04-20,23.189481,120.335297,0.99348414
C2M970,碧湖,2025-04-20,23.568632,120.624165,1.291745e-09
E2S960,林試太麻里2,2025-04-20,22.598,120.99775,8.17413e-09
C1I020,萬大,2025-04-20,23.979817,121.132261,3.1195264e-09
C0U940,羅東,2025-04-20,24.68184,121.74934,5.960936e-10
C1I500,大尖山,2025-04-20,23.858572,120.994889,8.344736e-09
E2K600,四湖植物園,2025-04-20,23.676986,120.163433,1.7157985e-08
C0S730,綠島,2025-04-20,22.6672,121.47533,2.2446752e-06
12Q970,東港工作站,2025-04-20,22.479997,120.466058,6.9153934e-08
C1TA00,太魯閣,2025-04-20,24.15773,121.6236,1.2732426e-09
C1I260,北坑,2025-04-20,23.9246,121.006903,7.795879e-10
C1I230,九份二山,2025-04-20,23.961944,120.845,1.688823e-09
C2A660,瑞芳,2025-04-20,25.113169,121.801147,7.856783e-10
C1T990,高寮,2025-04-20,23.394239,121.356808,7.627571e-10
C1Z140,荖溪,2025-04-20,23.890575,121.45964,4.65091e-09
C1I201,中心崙,2025-04-20,23.728722,120.712097,9.907233e-10
C1I400,凌霄,2025-04-20,24.018778,121.004456,4.068296e-09
C1M640,十字,2025-04-20,23.492153,120.753683,2.202586e-09
G2P820,農試鳳山分所,2025-04-20,22.646611,120.356083,0.98910224
C0Z270,蕃薯寮,2025-04-20,23.73835,121.540108,9.613543e-10
C2I090,鳳凰,2025-04-20,23.728081,120.787347,1.2549477e-09
C0U990,員山,2025-04-20,24.74435,121.72247,6.069445e-10
C0V770,大社,2025-04-20,22.730306,120.346639,0.99751854
C0X120,麻豆,2025-04-20,23.183289,120.248611,0.9852422
C0S980,勝林山,2025-04-20,22.430439,120.8938,1.3625291e-09
C0V730,大寮,2025-04-20,22.605614,120.395717,0.98643523
C2M930,石卓,2025-04-20,23.478744,120.702264,2.1155293e-09
CAG100,王功漁港,2025-04-20,23.96824,120.32586,2.6702884e-09
C0X290,北門,2025-04-20,23.267772,120.125481,6.538783e-05
C2F930,大甲,2025-04-20,24.347667,120.640403,1.075564e-08
C0U780,五結,2025-04-20,24.68637,121.79794,6.1759703e-10
C1I250,鯉潭,2025-04-20,23.961922,120.991131,1.5880888e-09
C0X100,臺南市北區,2025-04-20,23.010394,120.194228,0.37111574
C0S920,金峰嘉蘭,2025-04-20,22.594789,120.960825,5.044164e-09
C0V490,新興,2025-04-20,22.627422,120.298803,0.9881186
C2E970,八甲,2025-04-20,24.535811,120.795983,1.2998442e-09
C0V440,鳳山,2025-04-20,22.646653,120.356122,0.98910224
C1T940,大觀,2025-04-20,23.714206,121.373133,1.161093e-09
A2K630,臺大雲林校區,2025-04-20,23.730628,120.423903,1.2738936e-07
E2P990,林試扇平站,2025-04-20,22.9677,120.6857,1.1182987e-08
C1Z040,立山,2025-04-20,23.443356,121.327375,2.8578757e-09
C0W130,花嶼,2025-04-20,23.40007,119.32276,7.915449e-09
C2F990,摩天嶺,2025-04-20,24.322458,120.936819,2.0809283e-09
82C160,茶改場,2025-04-20,24.908472,121.185333,7.746934e-10
C0Z320,清水林道,2025-04-20,23.27125,121.188272,2.7922642e-09
C0R760,南仁湖,2025-04-20,22.084681,120.863353,9.1346153e-10
72K220,南改斗南分場,2025-04-20,23.634556,120.477333,1.1510243e-06
72AI40,桃改樹林分場,2025-04-20,24.944503,121.386972,6.450289e-10
C0S910,蘭嶼燈塔,2025-04-20,22.081197,121.503117,9.266535e-08
C0U900,內城,2025-04-20,24.71813,121.68766,5.689809e-10
C0X320,柳營,2025-04-20,23.253328,120.375253,0.9687173
C0SA30,都歷,2025-04-20,23.020333,121.323642,1.2236273e-09
C0T870,鯉魚潭,2025-04-20,23.935639,121.508944,1.2100638e-09
C1V170,排雲,2025-04-20,23.463619,120.954147,1.6222685e-08
C2H950,中寮,2025-04-20,23.884447,120.766406,3.715446e-10
C0V660,岡山,2025-04-20,22.797078,120.294958,0.9985356
C1H941,雙冬,2025-04-20,23.967378,120.802189,7.916275e-10
C0Z280,德武,2025-04-20,23.47426,121.41071,6.684774e-10
E2H360,蓮華池,2025-04-20,23.918333,120.885278,8.6775614e-10
C0W140,金沙,2025-04-20,24.488292,118.408778,3.229281e-09
C2A540,四堵,2025-04-20,24.8926,121.745736,1.1761226e-09
U2HA40,臺大內茅埔,2025-04-20,23.689722,120.851117,9.807679e-10
C0UB60,明池,2025-04-20,24.650688,121.475277,1.4943462e-09
C0U960,翠峰湖,2025-04-20,24.510856,121.608044,3.0824714e-09
E2HA20,林試畢祿溪站,2025-04-20,24.226944,121.308522,7.514493e-09
C0V890,前鎮,2025-04-20,22.5718,120.3117,0.9899396
C1F941,雪嶺,2025-04-20,24.280586,121.026642,1.081041e-08
C2H9E0,國姓南港,2025-04-20,23.911108,120.846556,2.409048e-09
C0UA40,西德山,2025-04-20,24.560647,121.752608,1.6866726e-09
C1T920,中興,2025-04-20,23.769503,121.498653,8.3384943e-10
C2F860,梨山,2025-04-20,24.247522,121.243669,7.781859e-09
C1S870,南美山,2025-04-20,23.15025,121.382333,1.3738836e-09
C1U501,牛鬥,2025-04-20,24.637836,121.573656,6.878343e-10
C0S700,知本,2025-04-20,22.684866,121.005642,1.7345467e-09
C1N001,沙崙,2025-04-20,22.935472,120.309406,0.995551
C0V760,橋頭,2025-04-20,22.757806,120.30575,0.9975589
C0X210,白河,2025-04-20,23.347466,120.414427,0.88246936
C0S810,東河,2025-04-20,22.972672,121.303986,1.9897795e-09
C2R170,屏東,2025-04-20,22.66027,120.49403,7.2324874e-10
C0UB10,蘇澳,2025-04-20,24.5969,121.8571,3.690354e-09
C1R250,力里,2025-04-20,22.428117,120.629228,4.717443e-09
C2FA00,烏石坑,2025-04-20,24.273503,120.947617,2.0523585e-09
C0V620,永安,2025-04-20,22.82315,120.236856,0.9985338
C1I330,楓樹林,2025-04-20,23.986803,121.076117,3.4889358e-09
C0W200,湖西,2025-04-20,23.596314,119.67275,8.271781e-08
72Q010,高雄農改場,2025-04-20,22.709333,120.525889,5.9637334e-10
C0SA40,瑞和,2025-04-20,22.974361,121.156697,1.0172923e-09
C2V260,月眉,2025-04-20,22.971003,120.539853,2.9878273e-09
C0V450,鳳森,2025-04-20,22.545064,120.392592,2.0950113e-08
C0U720,南山,2025-04-20,24.43742,121.38167,1.103736e-09
A2N290,臺南蘭花園區,2025-04-20,23.340258,120.379661,3.5189228e-06
C0U890,三星,2025-04-20,24.66812,121.65302,8.141264e-10
C1V300,御油山,2025-04-20,23.001983,120.715364,2.524627e-09
C0U600,礁溪,2025-04-20,24.817539,121.765608,8.4892143e-10
C1T980,龍澗,2025-04-20,24.023289,121.411328,9.774816e-09
C0SA00,歷坵,2025-04-20,22.520969,120.89185,2.2543887e-09
C0U520,雙連埤,2025-04-20,24.753033,121.641303,7.587899e-10
C1V830,國三S383K,2025-04-20,22.781967,120.426475,1.8861037e-09
12Q980,恆春工作站,2025-04-20,22.079678,120.714425,5.131158e-09
C1O940,東山服務區,2025-04-20,23.286016,120.398472,0.9841248
C1U840,東澳嶺,2025-04-20,24.5378,121.8485,1.1160267e-09
C1D630,飛鳳山,2025-04-20,24.766464,121.119178,1.422864e-09
C0S940,石寧山,2025-04-20,23.223772,121.406639,1.6259446e-09
C2M620,瑞里,2025-04-20,23.545133,120.675197,1.5773269e-09
C0SB70,小港漁港,2025-04-20,23.158558,121.400431,3.476083e-09
C2O950,安南,2025-04-20,23.076694,120.144861,4.4541703e-05
C2E540,龍溪,2025-04-20,24.606489,120.783933,1.6876058e-09
C1V200,梅山,2025-04-20,23.268447,120.823556,7.919703e-10
C0T9H0,加路蘭山,2025-04-20,23.682947,121.5274,1.5195443e-09
C2O930,玉井,2025-04-20,23.126042,120.46055,0.00031154382
C1F911,新伯公,2025-04-20,24.221361,120.841069,1.6889841e-09
C0X200,左鎮,2025-04-20,23.056758,120.408522,0.22012901
C0SB50,叭嗡嗡,2025-04-20,23.047062,121.343223,1.426772e-09
C1F891,稍來,2025-04-20,24.265689,121.001142,7.226162e-09
72N240,七股研究中心,2025-04-20,23.081672,120.062894,6.2499035e-05
C0V690,鼓山,2025-04-20,22.623325,120.275575,0.9881186
C0Z200,萬榮,2025-04-20,23.709219,121.420106,8.460974e-10
C0T9D0,和中,2025-04-20,24.26676,121.74103,2.9953822e-09
C1O921,楠西,2025-04-20,23.183511,120.484083,1.5364956e-08
C0V810,左營,2025-04-20,22.67491,120.28491,0.99207205
C0UA70,桃源谷,2025-04-20,24.962606,121.888875,1.0246122e-09
C0X130,官田,2025-04-20,23.193217,120.315422,0.994056
C1H000,翠峰,2025-04-20,24.109397,121.205211,9.798578e-09
C0UA90,石城,2025-04-20,24.980444,121.951214,9.305528e-10
C1E681,南勢山,2025-04-20,24.421669,120.923831,1.9846436e-09
C1K540,口湖,2025-04-20,23.585344,120.180517,1.0700168e-08
C0R780,滿州,2025-04-20,22.024403,120.839892,1.0542534e-09
C0V870,文安,2025-04-20,22.8025,120.2164,0.99852693
C0U650,玉蘭,2025-04-20,24.675286,121.587061,6.0525207e-10
C0S660,下馬,2025-04-20,23.150427,121.070312,2.454305e-09
C1H9B1,阿眉,2025-04-20,24.1263,120.994672,5.708052e-09
C0UA20,多加屯,2025-04-20,24.368614,121.373189,8.298706e-09
72V140,高改旗南分場,2025-04-20,22.857861,120.516667,2.8022358e-09
C0U980,坪林石牌,2025-04-20,24.86478,121.77396,1.0253003e-09
C0T900,西林,2025-04-20,23.8119,121.441458,8.47957e-10
C1I150,青雲,2025-04-20,23.793361,120.949378,6.872625e-10
C1V780,多納林道,2025-04-20,22.888028,120.737917,9.919977e-10
C0Z330,安通山,2025-04-20,23.290728,121.348528,1.1793956e-09
C2G640,鹿港,2025-04-20,24.0753,120.430481,3.7526395e-09
C1E890,國三N149K,2025-04-20,24.463414,120.680019,6.9055837e-09
C1R110,口社,2025-04-20,22.770111,120.645222,2.4166704e-08
C1M870,國三N285K,2025-04-20,23.550319,120.505833,0.00036001074
C1E480,鳳美,2025-04-20,24.554803,121.034747,1.5390259e-09
C0T9M0,靜浦,2025-04-20,23.455167,121.495028,6.357583e-10
C2H9M0,發祥,2025-04-20,24.154094,121.164517,3.353914e-09
C1F871,上谷關,2025-04-20,24.203483,121.018644,1.9169422e-09
C2H9G0,百勝,2025-04-20,24.051142,120.909361,8.858522e-10
C0R940,加祿堂,2025-04-20,22.3363,120.6217,1.0400272e-09
C0W220,北竿,2025-04-20,26.220358,119.974881,2.3196065e-09
C0TA40,秀林,2025-04-20,24.302864,121.731144,1.6734893e-09
C0S750,向陽,2025-04-20,23.248397,120.986133,3.2975485e-09
C0T9F0,水璉,2025-04-20,23.797131,121.542514,8.8085156e-10
C1M600,頭凍,2025-04-20,23.406364,120.603339,1.0743334e-09
C1D380,新埔,2025-04-20,24.84745,121.03834,9.522951e-10
C2G980,田頭村,2025-04-20,23.8263,120.444175,6.025915e-09
C0V750,路竹,2025-04-20,22.854997,120.259439,0.8290898
72M700,南改鹿草分場,2025-04-20,23.416869,120.283061,7.766379e-09
C1SA50,利嘉林道,2025-04-20,22.82325,121.009389,1.8707835e-09
C0UB70,太平山中間站,2025-04-20,24.542003,121.513453,1.0354391e-09
C1V340,大津,2025-04-20,22.888322,120.645986,2.6453675e-09
C0W180,七美,2025-04-20,23.219333,119.444892,1.07058476e-07
C1F9C1,白冷,2025-04-20,24.182844,120.929889,1.5928606e-09
K2E710,苗改生物防治研究中心,2025-04-20,24.422861,120.871833,1.9884363e-09
C2W230,畜試所澎湖,2025-04-20,23.628342,119.513206,9.3159755e-09
C0R880,後壁湖,2025-04-20,21.9457,120.7457,6.825834e-09
C1I280,埔中,2025-04-20,23.820778,120.642594,5.9559013e-10
C0W190,望安,2025-04-20,23.380564,119.494075,5.9465084e-08
C0Z170,卓溪,2025-04-20,23.3443,121.3029,7.878647e-10
82H840,茶改南部分場,2025-04-20,23.762528,120.7405,5.8378524e-10
C1T800,洛韶,2025-04-20,24.204558,121.453956,3.5083345e-09
C1T810,慈恩,2025-04-20,24.192044,121.388386,2.6842342e-09
C1E451,象鼻,2025-04-20,24.368617,120.940228,2.4538134e-09
C1I290,豐丘,2025-04-20,23.668178,120.887417,1.9977882e-09
C1I320,奧萬大,2025-04-20,23.952956,121.178556,3.654965e-09
C2M910,嘉義大學,2025-04-20,23.471325,120.485903,0.019344617
C0U770,南澳,2025-04-20,24.44935,121.81022,1.1806087e-09
C0V800,六龜,2025-04-20,22.997889,120.633583,6.8989053e-10
C1G9D0,國一S218K,2025-04-20,23.890641,120.493253,3.0723286e-09
C2F9A0,中竹林,2025-04-20,24.103556,120.751061,1.0923636e-09
C2G9A0,畜試所彰化,2025-04-20,23.86045,120.557964,6.3240124e-09
C0X060,下營,2025-04-20,23.22695,120.256261,0.69849896
G2M350,農試溪口農場,2025-04-20,23.58565,120.408111,3.3345606e-07
C0U860,頭城,2025-04-20,24.85323,121.8308,8.5170127e-10
72N100,臺南農改場,2025-04-20,23.0605,120.342194,0.9973486
C0S900,蘭嶼高中,2025-04-20,22.04909,121.51214,1.5228375e-07
C1F9W0,德基,2025-04-20,24.254783,121.190261,5.5161857e-09
C1Z120,壽豐,2025-04-20,23.870853,121.508081,1.0500871e-09
C0W160,烏坵,2025-04-20,24.9944,119.44956,5.0397886e-09
C1I240,外大坪,2025-04-20,23.958697,120.917931,1.5996166e-09
C1I550,國六W023K,2025-04-20,23.979067,120.867742,5.537942e-10
C0R870,興海,2025-04-20,21.9752,120.8439,3.2567322e-09
C0X260,後壁,2025-04-20,23.366358,120.362326,3.4796515e-06
C0Z230,和平,2025-04-20,24.30717,121.77007,3.3888565e-09
C1V570,吉東,2025-04-20,22.85422,120.5454,2.5123872e-09
C2D740,屯原,2025-04-20,24.067969,121.209389,6.425255e-09
C2A560,福山,2025-04-20,24.776203,121.502811,1.0663267e-09
72S200,東改班鳩分場,2025-04-20,22.829528,121.077694,1.07889e-09
72HA00,中改埔里分場,2025-04-20,23.903208,120.963364,8.241568e-10
C2H9W0,大坪頂農水,2025-04-20,24.043122,120.932781,1.1459758e-09
C0S930,延平,2025-04-20,22.902581,121.084058,1.0102462e-09
C0UA60,樟樹山,2025-04-20,24.41393,121.78325,1.3390072e-09
C1S670,摩天,2025-04-20,23.199503,121.027,3.4366208e-09
C0V630,茄萣,2025-04-20,22.906642,120.182608,0.9195087
C0X050,東河,2025-04-20,23.296598,120.385608,0.9892028
C0R770,保力,2025-04-20,22.071122,120.764111,1.3575562e-09
G2L020,農試嘉義分所,2025-04-20,23.485028,120.473806,0.00094161386
C0X240,關子嶺,2025-04-20,23.331169,120.508025,4.5381893e-10
C1V220,小關山,2025-04-20,23.154217,120.813603,2.0016673e-09
C1F9G1,慶福山,2025-04-20,24.180853,120.848378,1.4001422e-09
C0Z250,瑞穗林道,2025-04-20,23.49284,121.30688,2.7110825e-09
C0UA50,西帽山,2025-04-20,24.555361,121.802628,1.0955394e-09
C0X160,仁德,2025-04-20,22.968258,120.257689,0.9985279
C1H971,六分寮,2025-04-20,23.92507,120.6378,5.477642e-10
C0W120,西嶼,2025-04-20,23.5626,119.468436,1.2754599e-08
C2H9Q0,北東眼山,2025-04-20,24.120939,121.189303,8.009319e-09
C2H9T0,名間竹圍,2025-04-20,23.859914,120.637572,4.4471035e-10
C0S990,山豬窟,2025-04-20,22.318619,120.857372,1.7364601e-09
C0X190,安平,2025-04-20,22.993161,120.152181,0.37111574
12J990,口湖工作站,2025-04-20,23.589978,120.180394,1.0700168e-08
C1D410,白蘭,2025-04-20,24.579364,121.079947,1.9299844e-09
C0S970,加津林,2025-04-20,22.416211,120.926942,7.1317516e-09
C0U750,龜山島,2025-04-20,24.841667,121.953133,2.7417009e-09
C0R810,內獅,2025-04-20,22.305064,120.642986,1.0679488e-09
C1M390,龍美,2025-04-20,23.406728,120.654417,1.3681254e-09
C2FB60,頭櫃山,2025-04-20,24.129842,120.858925,1.8496371e-09
C1H840,國三N238K,2025-04-20,23.841008,120.707711,4.287535e-10
CAQ030,崎峰國小,2025-04-20,22.42565,120.49521,6.903322e-08
C2E520,大湖,2025-04-20,24.414939,120.870872,1.8701343e-09
C1E691,南湖,2025-04-20,24.40135,120.837533,1.8743587e-09
C1V231,高中,2025-04-20,23.134911,120.716711,9.655681e-10
C2W030,金門農試所,2025-04-20,24.448431,118.451786,3.511173e-09
C0R820,白鷺,2025-04-20,22.454275,120.666219,5.834435e-10
C1V190,南天池,2025-04-20,23.27403,120.91176,4.1157806e-09
K2E360,苗栗農改場,2025-04-20,24.495722,120.829111,1.1454206e-09
CAJ050,海口故事園區,2025-04-20,23.57543,120.14121,1.0700168e-08
C2H9D0,三隻寮,2025-04-20,24.093078,120.861578,1.1654974e-09
C0Z220,和平林道,2025-04-20,24.343922,121.656317,1.0980079e-09
C0TA10,花蓮漁港,2025-04-20,23.995322,121.638331,4.281841e-09
72C440,桃園農改場,2025-04-20,24.950944,121.030583,1.1106839e-09
C1E711,馬拉邦山,2025-04-20,24.367306,120.901656,2.4687985e-09
C0SB20,富岡,2025-04-20,22.792467,121.192669,2.5557803e-09
C1A9N0,四十份,2025-04-20,24.934158,121.593283,1.2405282e-09
C0U760,東澳,2025-04-20,24.52196,121.83318,3.9712202e-09
C0X230,鹽水,2025-04-20,23.272621,120.247641,1.9077592e-07
C2H9H0,苗改南投蜂場,2025-04-20,23.852589,120.693481,3.8017275e-10
C0R950,萬隆國小,2025-04-20,22.507667,120.587817,2.1762036e-08
C0V370,古亭坑,2025-04-20,22.893178,120.401947,1.9191511e-06
C1I340,新興橋,2025-04-20,23.563333,120.868728,1.1485973e-09
C0SA80,土坂,2025-04-20,22.453108,120.887572,3.8849137e-09
C2H9L0,馬烈霸,2025-04-20,24.1512,121.201772,7.8641635e-09
C1AI50,國三N016K,2025-04-20,25.034164,121.619664,5.7913724e-10
C1V600,藤枝,2025-04-20,23.071961,120.757042,1.5949614e-09
C1E601,南勢,2025-04-20,24.572486,120.734842,1.5663272e-09
C0Z180,新城,2025-04-20,24.03946,121.60454,0.99997115
C0Z050,佳心,2025-04-20,23.34567,121.21316,3.3549952e-09
C0V610,梓官,2025-04-20,22.760558,120.267211,0.9975589
K2F750,種苗改良場,2025-04-20,24.225972,120.800917,1.6252407e-09
C0UA80,大溪漁港,2025-04-20,24.941801,121.902955,1.1139341e-09
C1AI60,國一39K邊坡,2025-04-20,25.064361,121.383836,1.17219e-09
C0W150,金寧,2025-04-20,24.457703,118.328989,3.5122447e-09
C0R960,內埔,2025-04-20,22.608483,120.570714,8.953295e-09
V2C250,八德合作社,2025-04-20,24.93775,121.266389,6.6777395e-10
C2H9S0,龍南,2025-04-20,23.953536,120.833183,1.3147651e-09
A2K360,水試臺西試驗場,2025-04-20,23.717231,120.190522,1.2359394e-07
C2M960,外寮,2025-04-20,23.562643,120.665688,1.3625576e-09
C0T820,天祥,2025-04-20,24.179597,121.495639,4.8724758e-09
C1F9E1,龍安,2025-04-20,24.1605,120.831961,1.446763e-09
C0V820,小林,2025-04-20,23.148408,120.63325,3.8750686e-10
C2G870,芳苑,2025-04-20,23.922303,120.320025,2.5979499e-09
C1U670,寒溪,2025-04-20,24.634,121.71691,5.9447e-10
C1Z110,三棧,2025-04-20,24.11557,121.60501,4.0944133e-09
C2H9J0,中台,2025-04-20,23.9996,120.938739,9.182006e-10
C0Z180,新城,2025-04-20,24.040486,121.604878,3.1370029e-09
C1D420,太閣南,2025-04-20,24.632808,121.160575,1.9169897e-09
C1E770,公館,2025-04-20,24.526914,120.830806,1.196847e-09
CAN130,水試所海水繁養殖中心,2025-04-20,23.120802,120.07968,6.2499035e-05
C1I430,翠華,2025-04-20,24.191961,121.224339,6.5080656e-09
C1M400,菜瓜坪,2025-04-20,23.251928,120.576103,4.346183e-10
72M360,南改義竹分場,2025-04-20,23.360694,120.279361,1.1803789e-07
V2K620,麥寮合作社,2025-04-20,23.753836,120.294783,5.195157e-07
C0Z070,舞鶴,2025-04-20,23.46811,121.37407,6.935134e-10
C1Z030,紅葉,2025-04-20,23.493119,121.338806,5.457452e-10
C1I050,丹大,2025-04-20,23.753747,121.141147,6.2513963e-09
C2M920,朴子農改,2025-04-20,23.469889,120.259383,7.751624e-09
C2A880,福隆,2025-04-20,25.017842,121.942083,9.316325e-10
C0Z160,鳳林,2025-04-20,23.746114,121.453411,8.364874e-10
C0UB80,翠峰林道6K,2025-04-20,24.49773,121.568625,2.7316371e-09
C0V210,復興,2025-04-20,23.222403,120.806089,7.437134e-10
C0R741,獅子,2025-04-20,22.202308,120.705236,1.2066504e-09
C0S710,鹿野,2025-04-20,22.917711,121.122994,8.827454e-10
C2K630,荷苞,2025-04-20,23.657717,120.595144,8.4174474e-07
C0Z080,富源,2025-04-20,23.587642,121.378225,1.1881992e-09
C0SB10,美和,2025-04-20,22.682078,121.060236,7.255925e-09
C2K620,馬光農場,2025-04-20,23.721453,120.378864,1.5576279e-07
C1I140,卡奈托灣,2025-04-20,23.754364,121.087872,2.6343354e-09
C1G691,下水埔,2025-04-20,23.816114,120.5676,4.4668813e-08
C0X110,臺南市南區,2025-04-20,22.961189,120.188378,0.9985273
C0V680,仁武,2025-04-20,22.701083,120.347722,0.99207205
C2G840,北斗,2025-04-20,23.877586,120.514222,2.7980753e-09
C0R900,竹坑,2025-04-20,22.1385,120.7022,4.921606e-09
C0X150,安定,2025-04-20,23.102614,120.227839,0.9870932
C1D400,鳥嘴山,2025-04-20,24.71909,121.28387,1.7338853e-09
C2V250,甲仙,2025-04-20,23.080106,120.591758,5.8063704e-10
C0SA20,金崙山,2025-04-20,22.567419,120.959667,2.0475492e-09
C0V350,溪埔,2025-04-20,22.738578,120.446797,8.2961265e-09
C1S880,壽卡,2025-04-20,22.238911,120.858903,9.406674e-10
72D680,桃改新埔分場,2025-04-20,24.834444,121.066111,9.452646e-10
