站號,站名,日期,lat,lon,BlastGRU-TW
C0R710,龍磐,2025-06-16,21.931672,120.838942,0.020232288
C1F9D1,白毛台,2025-06-16,24.158325,120.886933,0.98399204
C0G940,竹塘,2025-06-16,23.848253,120.386764,0.036988534
467590,恆春,2025-06-16,22.003897,120.746339,0.013954208
C1O850,環湖,2025-06-16,23.148617,120.418633,0.013093157
C0U710,太平山,2025-06-16,24.505486,121.525656,0.66710323
C0E820,獅潭,2025-06-16,24.539133,120.920042,0.92531806
C0V880,興達,2025-06-16,22.8778,120.2127,0.019215496
C0S890,關山,2025-06-16,23.0395,121.175017,0.046207238
C0SB30,新蘭,2025-06-16,22.869214,121.223228,0.024076225
C2R970,屏科大,2025-06-16,22.648275,120.619247,0.017192543
C1Z130,銅門,2025-06-16,23.965694,121.492842,0.0929363
C0AD40,土城,2025-06-16,24.973208,121.445169,0.10588735
CAN140,六官養殖協會,2025-06-16,23.22881,120.29962,0.02103597
C0X180,山上,2025-06-16,23.0757,120.363253,0.012481974
C0F9Z0,雪山東峰,2025-06-16,24.388792,121.268675,0.012124595
C1M480,獨立山,2025-06-16,23.537022,120.607797,0.90643096
C0X220,學甲,2025-06-16,23.230367,120.182187,0.02176444
467650,日月潭,2025-06-16,23.881325,120.90805,0.87505347
C0K600,箔子寮,2025-06-16,23.6197,120.14,0.02867432
C0G830,埤頭,2025-06-16,23.866003,120.452806,0.044095695
C0S950,七塊厝,2025-06-16,22.954453,121.229922,0.43974403
467110,金門,2025-06-16,24.407306,118.289281,0.9457384
C0AH80,深坑,2025-06-16,25.002703,121.628328,0.14609234
C0A970,三貂角,2025-06-16,25.007606,122.002058,0.06883755
C2D730,寶山農場,2025-06-16,24.732444,120.976153,0.5607272
C0K430,褒忠,2025-06-16,23.690938,120.303634,0.034168396
467480,嘉義,2025-06-16,23.495925,120.432906,0.021207899
C0V400,阿公店,2025-06-16,22.804194,120.355528,0.019284526
C0E960,觀霧分站,2025-06-16,24.505781,121.113921,0.6626106
467550,玉山,2025-06-16,23.48718,120.95943,0.0010476919
C0R440,大漢山,2025-06-16,22.405264,120.753181,0.01726319
C0K280,四湖,2025-06-16,23.630414,120.227125,0.036478184
C1F9B1,桐林,2025-06-16,24.066172,120.735194,0.43227205
C2H9U0,鳳鵬,2025-06-16,23.763919,120.788061,0.037378855
C0K390,土庫,2025-06-16,23.679029,120.395574,0.029203596
C1I450,望鄉山,2025-06-16,23.594153,120.944286,0.0032390025
C0E910,海埔,2025-06-16,24.648767,120.772435,0.22584504
B2E890,畜試北區分所,2025-06-16,24.527806,120.770972,0.4520334
C0R750,四林格山,2025-06-16,22.076989,120.802439,0.8937037
C0F0C0,中坑,2025-06-16,24.248517,120.903319,0.9797507
C1I121,大鞍,2025-06-16,23.678381,120.760017,0.81737185
72U480,花改蘭陽分場,2025-06-16,24.686306,121.716583,0.21807557
C0A770,科教館,2025-06-16,25.096356,121.516507,0.04717619
C0AJ60,六塊厝,2025-06-16,25.24,121.4481,0.13332932
C0R620,墾雷,2025-06-16,21.900836,120.855269,0.040072713
467420,永康,2025-06-16,23.038386,120.2367,0.01176157
C0I410,名間,2025-06-16,23.837053,120.701447,0.028664744
A2C560,農工中心,2025-06-16,24.985917,121.239833,0.41662022
C0V740,旗山,2025-06-16,22.888614,120.483597,0.018702509
C0Z061,玉里,2025-06-16,23.3215,121.339656,0.050721787
C0S840,南田,2025-06-16,22.279725,120.889208,0.015115977
C1I470,杉林溪,2025-06-16,23.639517,120.786444,0.74261284
C1X040,東原,2025-06-16,23.291597,120.463822,0.0150078675
C0R660,枋寮,2025-06-16,22.367722,120.590647,0.027769355
C1R120,上德文,2025-06-16,22.763272,120.704442,0.94980097
C0K450,大埤,2025-06-16,23.646074,120.431537,0.03842714
C0UA00,土場,2025-06-16,24.576533,121.495333,0.1398216
467080,宜蘭,2025-06-16,24.763975,121.756528,0.19426705
C0N030,四草,2025-06-16,23.0235,120.1116,0.019193275
467410,臺南,2025-06-16,22.99328,120.20492,0.020613614
C0V650,彌陀,2025-06-16,22.783806,120.246361,0.024715178
C0D660,新竹市東區,2025-06-16,24.798681,120.986942,0.23596768
82S580,茶改東部分場,2025-06-16,22.907694,121.130139,0.045095842
C0SB40,興隆,2025-06-16,22.913661,121.257469,0.024747593
467050,新屋,2025-06-16,25.006725,121.047492,0.11002493
C0C710,大溪永福,2025-06-16,24.892936,121.324975,0.37831065
C0FA20,溫寮,2025-06-16,24.372177,120.583125,0.10307782
C0V640,湖內,2025-06-16,22.887139,120.2445,0.019261682
C0R910,下寮,2025-06-16,22.3929,120.5548,0.027517475
C0Z020,明里,2025-06-16,23.208717,121.262342,0.069263875
C0M770,嘉義梅山,2025-06-16,23.585398,120.555587,0.029103938
C0C660,楊梅,2025-06-16,24.912375,121.143047,0.6817533
C1E511,新開,2025-06-16,24.347703,120.827019,0.7825571
G2F820,農試所(霧峰),2025-06-16,24.031261,120.688133,0.31322744
C1I070,和社,2025-06-16,23.591131,120.888861,0.4069538
C2F000,大肚,2025-06-16,24.15295,120.572117,0.35042402
C1S850,豐南,2025-06-16,23.122139,121.262389,0.823554
C2A920,富貴角,2025-06-16,25.263783,121.565258,0.9343208
CAH030,茶改場竹圍站,2025-06-16,23.860083,120.637528,0.03080467
C0T960,光復,2025-06-16,23.660694,121.424964,0.09908813
C0F9M0,豐原,2025-06-16,24.254322,120.720692,0.95067626
C0R720,旭海,2025-06-16,22.205403,120.887614,0.013646075
C0V710,苓雅,2025-06-16,22.622742,120.330669,0.025499329
C0C740,觀音工業區,2025-06-16,25.064764,121.114856,0.09017079
CAC040,拉拉山,2025-06-16,24.699317,121.427133,0.52819943
C0V790,萬山,2025-06-16,22.905944,120.688056,0.04126646
U2HA30,臺大和社,2025-06-16,23.590856,120.888864,0.4069538
C0AJ90,澳底,2025-06-16,25.0552,121.9253,0.08165773
C0Z100,東華,2025-06-16,23.89525,121.549833,0.054849487
C0G970,三豐,2025-06-16,23.882,120.2895,0.077622406
V2K610,大庄合作社,2025-06-16,23.8068,120.367939,0.038603526
C0V900,汕尾,2025-06-16,22.4782,120.4151,0.03408445
C1R630,龍泉,2025-06-16,22.66701,120.59091,0.01785832
C1AC50,關渡,2025-06-16,25.133486,121.469331,0.41352302
C0C800,四稜,2025-06-16,24.64733,121.4293,0.9431227
C0F9I0,神岡,2025-06-16,24.272481,120.658314,0.9553811
C0K460,斗南,2025-06-16,23.678734,120.478359,0.039623257
C2O810,曾文,2025-06-16,23.219681,120.497328,0.011947958
467280,後龍,2025-06-16,24.648563,120.831834,0.3213786
C1F9J1,清水林,2025-06-16,24.071242,120.820419,0.94384754
C2A650,火燒寮,2025-06-16,25.002719,121.742892,0.78050554
466930,竹子湖,2025-06-16,25.162078,121.544547,0.9774384
C1I220,樟湖,2025-06-16,23.905333,120.846983,0.84521633
C0I390,仁愛,2025-06-16,24.022122,121.132206,0.914811
C0Z300,東里,2025-06-16,23.26853,121.30547,0.038711835
C1V590,新發,2025-06-16,23.057019,120.646064,0.56416744
C0K510,水林,2025-06-16,23.572924,120.24597,0.02607058
72S590,東改賓朗果園,2025-06-16,22.813889,121.071278,0.1938531
82A750,茶改北部分場,2025-06-16,24.955778,121.631222,0.3423872
C1A750,石碇服務區,2025-06-16,25.00872,121.646242,0.118198
C0X300,鹿寮,2025-06-16,23.386047,120.477331,0.015819848
G2AI50,關渡,2025-06-16,25.11575,121.492,0.11867263
C0K590,雲林東勢,2025-06-16,23.674192,120.255721,0.03142858
C0A570,桶後,2025-06-16,24.848222,121.597992,0.06262338
C1S800,華源,2025-06-16,22.657883,121.02325,0.018970834
C0G720,溪州,2025-06-16,23.851589,120.499093,0.045875426
C1V160,達卡努瓦,2025-06-16,23.279811,120.705319,0.89095145
C2M410,馬頭山,2025-06-16,23.324361,120.582017,0.019141333
C0V850,蚵仔寮,2025-06-16,22.7256,120.2527,0.020792691
C0S740,池上,2025-06-16,23.119628,121.209469,0.11661178
C1V390,尖山,2025-06-16,22.813153,120.367789,0.020747589
C0AH70,松山,2025-06-16,25.04871,121.55042,0.04942286
C0N010,鯤鯓國小,2025-06-16,23.1879,120.0889,0.019071924
C0R550,新埤,2025-06-16,22.467947,120.582894,0.03702597
C0SA60,知本（水試所）,2025-06-16,22.702394,121.082761,0.014203266
C0T9I0,豐濱,2025-06-16,23.583897,121.514806,0.08874983
C0UB00,淡江大學蘭陽校園,2025-06-16,24.823239,121.730383,0.25800484
C0W240,九宮,2025-06-16,24.423753,118.240186,0.94454736
C0T9N0,富里,2025-06-16,23.171639,121.249378,0.06227703
U2HA50,臺大竹山,2025-06-16,23.756972,120.681556,0.026225114
C0V840,鳳鼻頭,2025-06-16,22.5083,120.3591,0.024373153
C0X140,西港,2025-06-16,23.125608,120.203108,0.019038763
72D080,桃改五峰分場,2025-06-16,24.612194,121.157167,0.95482427
C2H9P0,伊拿谷,2025-06-16,23.963211,121.088264,0.7111029
C2H9F0,柑林,2025-06-16,24.018658,120.847072,0.029002476
C0TA20,加灣,2025-06-16,24.082025,121.608944,0.061318304
C0V530,阿蓮,2025-06-16,22.883208,120.327508,0.01287587
C0FB30,八仙山苗圃,2025-06-16,24.192719,121.001366,0.981722
C1O880,關山,2025-06-16,23.173397,120.594092,0.018784707
C0E791,卓蘭,2025-06-16,24.3126,120.8244,0.8138726
C1I030,武界,2025-06-16,23.913225,121.052483,0.7776986
C0R520,崁頂,2025-06-16,22.514781,120.506914,0.02677074
C0R341,牡丹,2025-06-16,22.130036,120.792639,0.121152885
C0R930,萬丹,2025-06-16,22.5885,120.4851,0.03446982
C0S760,紅石,2025-06-16,23.069131,121.126219,0.50460464
C2C410,中央大學,2025-06-16,24.967652,121.185165,0.48426783
C1M610,石磐龍,2025-06-16,23.496606,120.663506,0.9617124
C0C790,東眼山,2025-06-16,24.8284,121.40888,0.93450415
C0UA10,鴛鴦湖,2025-06-16,24.590269,121.412228,0.9102609
V2C260,八德蔬果,2025-06-16,24.978508,121.281819,0.2842737
C0R800,丹路,2025-06-16,22.204481,120.750989,0.027513202
C0G920,永靖,2025-06-16,23.924703,120.547533,0.08253784
C2M950,太和,2025-06-16,23.538372,120.702961,0.90944165
C1A630,下盆,2025-06-16,24.771003,121.538622,0.9521584
B2N890,畜產試驗所,2025-06-16,23.058972,120.336406,0.013409538
C0UA30,白嶺,2025-06-16,24.527819,121.519031,0.9164625
C1V580,溪南(特生中心),2025-06-16,23.084972,120.788475,0.61529934
C1T970,大農,2025-06-16,23.615233,121.413331,0.12382846
C0R650,竹田,2025-06-16,22.58486,120.54344,0.027846403
C1H900,清流,2025-06-16,24.080775,120.962997,0.9385898
C1C510,水尾,2025-06-16,24.940081,121.087161,0.36409757
C0F9X0,大雅(中科園區),2025-06-16,24.21528,120.62445,0.7912978
C0SB60,白守蓮,2025-06-16,23.126769,121.401914,0.016147077
C0O970,虎頭埤,2025-06-16,23.021375,120.347878,0.012645468
C0C730,中大臨海站,2025-06-16,24.966126,121.008581,0.0865216
C0X250,新營,2025-06-16,23.310689,120.316681,0.019971147
C0V700,三民,2025-06-16,22.645017,120.311233,0.030849548
C0U870,大礁溪,2025-06-16,24.791042,121.675047,0.9680419
C0E870,高鐵苗栗,2025-06-16,24.60725,120.826094,0.2342089
A2K570,古坑花卉中心,2025-06-16,23.63353,120.55239,0.020831604
C0TA30,鹽寮,2025-06-16,23.845606,121.592664,0.052722145
C0M860,新美,2025-06-16,23.338017,120.683169,0.6147504
C1E701,八卦,2025-06-16,24.491756,120.927619,0.9932349
C0I420,國姓,2025-06-16,24.037803,120.855072,0.0395097
C2D720,關西工作站,2025-06-16,24.757275,121.184792,0.66185534
C0S960,香蘭,2025-06-16,22.587569,120.993375,0.019110829
467620,蘭嶼,2025-06-16,22.0369,121.55843,0.97920704
C0R260,春日,2025-06-16,22.370361,120.628306,0.04135056
72G600,臺中農改場,2025-06-16,24.003028,120.534389,0.060094915
C0Z210,瑞穗,2025-06-16,23.5239,121.39021,0.06799727
C0M820,達邦,2025-06-16,23.453994,120.749517,0.9632011
C0V860,南寮,2025-06-16,22.7616,120.2339,0.020806914
C0G740,大城,2025-06-16,23.852487,120.320935,0.082341574
C0R920,塭仔,2025-06-16,22.4169,120.5197,0.026895339
C0R470,高樹,2025-06-16,22.826389,120.600806,0.01183452
C0R680,佳樂水,2025-06-16,21.993578,120.861633,0.011929161
C1O870,大棟山,2025-06-16,23.31157,120.52226,0.9058983
C0D360,梅花,2025-06-16,24.678347,121.208558,0.9773101
C0Z190,富世,2025-06-16,24.14743,121.6297,0.14592841
C0AI10,屈尺,2025-06-16,24.92184,121.54475,0.15204532
B2U990,畜試東區分所,2025-06-16,24.669039,121.832561,0.21524218
C0SB80,長濱漁港,2025-06-16,23.313644,121.459994,0.025006354
C0R240,來義,2025-06-16,22.527306,120.625111,0.045917775
C0V910,大樹,2025-06-16,22.684645,120.432803,0.021992132
C1R610,西大武山,2025-06-16,22.617719,120.7322,0.043714967
C0G900,線西,2025-06-16,24.143358,120.443536,0.10603692
C0M700,竹崎,2025-06-16,23.526178,120.555508,0.023168845
C2E880,三義,2025-06-16,24.405478,120.749819,0.99262625
C0C720,竹圍,2025-06-16,25.112692,121.239824,0.124243006
C0F9P0,清水,2025-06-16,24.312297,120.562242,0.14892313
C0Z150,吉安光華,2025-06-16,23.930925,121.595153,0.046807762
C0FA80,小雪山天池,2025-06-16,24.28025,121.02627,0.047149125
467300,東吉島,2025-06-16,23.25727,119.66762,0.59252185
C1D640,外坪(五指山),2025-06-16,24.644447,121.090961,0.9704084
C0F9O0,潭子,2025-06-16,24.213106,120.703933,0.9472564
C2H9R0,卓社,2025-06-16,23.887894,121.000086,0.91809326
72T250,花蓮農改場,2025-06-16,23.975222,121.563889,0.05657621
C0E780,銅鑼,2025-06-16,24.489681,120.790853,0.85904825
C1T950,太安,2025-06-16,23.666719,121.370128,0.8017963
C0E830,苑裡,2025-06-16,24.439714,120.653053,0.16705595
467270,田中,2025-06-16,23.873803,120.581286,0.03280129
C0SA10,檳榔四格山,2025-06-16,22.810031,121.109308,0.44865584
C1T830,布洛灣,2025-06-16,24.17184,121.57127,0.105266094
C0F970,大坑,2025-06-16,24.173142,120.722289,0.77888954
C1U920,思源,2025-06-16,24.393125,121.347214,0.41255197
C0A931,三和,2025-06-16,25.233153,121.595236,0.94596094
C0I010,廬山,2025-06-16,24.033311,121.181808,0.7930221
C2M940,日野賀,2025-06-16,23.434056,120.727169,0.95142853
C0R860,鼻頭,2025-06-16,22.1043,120.8979,0.0073189256
C0UB20,壯圍,2025-06-16,24.7359,121.8163,0.20711567
C0R790,九棚,2025-06-16,22.14195,120.889281,0.0075818794
C0W110,東莒,2025-06-16,25.9652,119.98069,0.9805439
C1U930,粉鳥林,2025-06-16,24.497088,121.842479,0.049323156
C1I211,蘆竹湳,2025-06-16,23.934019,120.811994,0.13316855
C0S830,長濱,2025-06-16,23.286817,121.411975,0.1637866
C1F9F1,伯公龍,2025-06-16,24.272392,120.849047,0.97522944
C0UB90,太平山莊,2025-06-16,24.494171,121.536209,0.64376014
C0E810,西湖,2025-06-16,24.562947,120.7485,0.3773745
C1I440,新高口,2025-06-16,23.478744,120.878939,0.035968002
C0O840,王爺宮,2025-06-16,23.222064,120.40085,0.010815219
C0T9G0,鳳林山,2025-06-16,23.735269,121.420131,0.06275193
C0X080,佳里,2025-06-16,23.173039,120.145086,0.0190624
C0FB70,大甲溪埔,2025-06-16,24.370625,120.620067,0.15302828
C0Z310,清水斷崖,2025-06-16,24.218294,121.689142,0.15666628
C0M680,太保,2025-06-16,23.455062,120.331455,0.020036846
C1S820,金峰,2025-06-16,22.590969,120.933236,0.017271033
C0AD10,八里,2025-06-16,25.150211,121.403947,0.12669371
C2K240,草嶺,2025-06-16,23.59555,120.693461,0.96492696
C1SA70,都蘭,2025-06-16,22.87794,121.226881,0.024782648
C0K440,二崙,2025-06-16,23.772797,120.408944,0.037788164
C1A760,坪林交控,2025-06-16,24.94284,121.713442,0.23358387
C0F9N0,大里,2025-06-16,24.092464,120.701378,0.06316576
C0SA90,達仁林場,2025-06-16,22.264347,120.823972,0.08361597
C1R290,石門山,2025-06-16,22.112611,120.756597,0.255219
42HA10,萬大發電廠,2025-06-16,23.978875,121.139639,0.86966217
C0R890,山海,2025-06-16,21.9878,120.7091,0.009443884
C0T9A0,月眉山,2025-06-16,23.809928,121.539828,0.9550275
C0AC70,信義,2025-06-16,25.037822,121.564597,0.05003192
C0K560,棋山,2025-06-16,23.68645,120.603417,0.022093246
C2FB50,出雲,2025-06-16,24.206469,120.902794,0.97427773
C1Z240,中平林道,2025-06-16,23.42115,121.26763,0.71760994
U2H480,溪頭,2025-06-16,23.670306,120.798194,0.9458962
C0M880,好美里,2025-06-16,23.3364,120.138,0.024400458
C0T9E0,大坑,2025-06-16,23.880628,121.581981,0.9023592
C0K530,臺西,2025-06-16,23.701547,120.197559,0.03695619
C1E900,國一N128K,2025-06-16,24.560997,120.844186,0.44285658
C0AJ50,水湳洞,2025-06-16,25.123695,121.862238,0.11048838
C0AI20,白沙灣,2025-06-16,25.283128,121.519058,0.15908156
C2V310,美濃,2025-06-16,22.898792,120.51907,0.017955244
C0A860,大坪,2025-06-16,25.165914,121.632969,0.31156096
C1U850,觀音海岸,2025-06-16,24.38319,121.77856,0.86759424
C2K610,草嶺石壁,2025-06-16,23.602469,120.707731,0.96284974
C0U950,鶯子嶺,2025-06-16,24.89754,121.79244,0.9070211
C0O900,善化,2025-06-16,23.112883,120.297219,0.013178639
C0K550,蔦松,2025-06-16,23.514319,120.229736,0.027725566
E2P980,林試六龜中心,2025-06-16,22.991703,120.645722,0.041505408
C0E590,通霄,2025-06-16,24.471892,120.704622,0.21170877
C1I310,西巒,2025-06-16,23.754486,120.883956,0.83837515
C0A550,泰平,2025-06-16,24.971197,121.823711,0.4974256
C0I360,水里,2025-06-16,23.812553,120.849792,0.023535023
C0R830,高士,2025-06-16,22.121825,120.836781,0.5241081
C1I101,溪頭,2025-06-16,23.661789,120.807647,0.41306275
C0AJ20,野柳,2025-06-16,25.20703,121.690021,0.10778462
C0B060,暖暖,2025-06-16,25.0957,121.7403,0.114606895
C1H920,長豐,2025-06-16,24.102039,120.879897,0.8680054
C0V360,內門,2025-06-16,22.975481,120.466769,0.020040119
C0R850,林邊,2025-06-16,22.4634,120.5339,0.034989025
C0E930,龍鳳,2025-06-16,24.700034,120.859125,0.15424407
C0U910,冬山,2025-06-16,24.63373,121.7937,0.21524197
C1E721,泰安,2025-06-16,24.489017,120.968036,0.94908
82H320,茶改中部分場,2025-06-16,23.875611,120.913583,0.7081204
C0M750,布袋,2025-06-16,23.380878,120.167789,0.030127622
C1S860,利嘉,2025-06-16,22.809417,121.050528,0.71379024
E2S980,林試太麻里1,2025-06-16,22.598922,120.980044,0.018142369
C0X170,關廟,2025-06-16,22.963017,120.327797,0.013212921
C0V720,林園,2025-06-16,22.507747,120.394511,0.039890748
C1I510,線浸林道,2025-06-16,23.761508,120.832956,0.88090634
C0D690,外湖,2025-06-16,24.917735,120.968711,0.090443596
C0C750,新興坑尾,2025-06-16,25.0061,121.0971,0.20381868
B2Q810,畜試南區分所,2025-06-16,21.945583,120.802167,0.011771705
C0S790,金崙,2025-06-16,22.538122,120.966875,0.02069393
C0AH90,福山植物園,2025-06-16,24.760717,121.58135,0.94907665
C0I540,奇萊稜線,2025-06-16,24.109231,121.326456,0.002694737
C0M850,表湖,2025-06-16,23.24186,120.64166,0.8774833
C0S770,大溪山,2025-06-16,22.478475,120.943325,0.11835076
C0AG80,中和,2025-06-16,24.991622,121.491792,0.106269315
C0T790,大禹嶺,2025-06-16,24.186117,121.316086,0.018110856
C0T9B0,水源,2025-06-16,23.991861,121.537169,0.14196582
C0R840,牡丹池山,2025-06-16,22.168389,120.841225,0.16427636
C1I131,桶頭,2025-06-16,23.641944,120.654117,0.033659138
CAL110,布袋國中,2025-06-16,23.35893,120.18026,0.028230019
467571,新竹,2025-06-16,24.827853,121.014219,0.13959718
C0Z290,赤柯山,2025-06-16,23.36893,121.38293,0.874313
C0X280,將軍,2025-06-16,23.214999,120.13577,0.021551186
C0S690,太麻里,2025-06-16,22.60902,120.98533,0.20509802
C0U880,北關,2025-06-16,24.9072,121.8734,0.06617279
C0G810,埔心,2025-06-16,23.947633,120.525456,0.08076007
C0U970,大福,2025-06-16,24.80064,121.81389,0.19186108
C2H9N0,仁愛東眼,2025-06-16,24.026875,121.1205,0.87013036
C1E670,南礦,2025-06-16,24.538278,121.002836,0.9659892
C0M520,東後寮,2025-06-16,23.369908,120.248065,0.028670566
C1E461,松安,2025-06-16,24.397972,120.986022,0.96749616
C2N160,西拉雅風管處,2025-06-16,23.189481,120.335297,0.012161433
C2M970,碧湖,2025-06-16,23.568632,120.624165,0.967192
C0A640,石碇,2025-06-16,24.993969,121.662917,0.38327476
E2S960,林試太麻里2,2025-06-16,22.598,120.99775,0.019201098
C0F9Y0,桃山,2025-06-16,24.432739,121.303808,0.009379742
C1I020,萬大,2025-06-16,23.979817,121.132261,0.9128183
C0U940,羅東,2025-06-16,24.68184,121.74934,0.2143671
C0M650,朴子,2025-06-16,23.43463,120.23902,0.026185615
C1I500,大尖山,2025-06-16,23.858572,120.994889,0.109875165
C0FB40,中橫21.6k,2025-06-16,24.2499,121.1455,0.96624064
C0G820,田尾,2025-06-16,23.901669,120.509389,0.081430845
E2K600,四湖植物園,2025-06-16,23.676986,120.163433,0.03667698
C0S730,綠島,2025-06-16,22.6672,121.47533,0.2403793
12Q970,東港工作站,2025-06-16,22.479997,120.466058,0.034389835
C0E430,南庄,2025-06-16,24.601775,121.000214,0.9375834
C1TA00,太魯閣,2025-06-16,24.15773,121.6236,0.17413351
466920,臺北,2025-06-16,25.037658,121.514853,0.04942286
C0R600,舊泰武,2025-06-16,22.588194,120.664944,0.67654186
C1I260,北坑,2025-06-16,23.9246,121.006903,0.18393697
466910,鞍部,2025-06-16,25.182586,121.529731,0.9180413
C1I230,九份二山,2025-06-16,23.961944,120.845,0.44525337
C2A660,瑞芳,2025-06-16,25.113169,121.801147,0.36306122
C0R270,琉球嶼,2025-06-16,22.332244,120.362236,0.07921935
C1T990,高寮,2025-06-16,23.394239,121.356808,0.037818886
C0G620,芬園,2025-06-16,24.015678,120.6213,0.20055021
C1Z140,荖溪,2025-06-16,23.890575,121.45964,0.7972134
C1I201,中心崙,2025-06-16,23.728722,120.712097,0.5908162
C1I400,凌霄,2025-06-16,24.018778,121.004456,0.8782447
C1M640,十字,2025-06-16,23.492153,120.753683,0.81854254
G2P820,農試鳳山分所,2025-06-16,22.646611,120.356083,0.031643253
C0Z270,蕃薯寮,2025-06-16,23.73835,121.540108,0.22940281
C0FB10,出雲山苗圃,2025-06-16,24.23105,120.90475,0.97966737
C0F9Q0,外埔,2025-06-16,24.347817,120.705686,0.8873778
C0K580,高鐵雲林,2025-06-16,23.737456,120.417944,0.034921817
C2I090,鳳凰,2025-06-16,23.728081,120.787347,0.9306288
C0U990,員山,2025-06-16,24.74435,121.72247,0.21095824
C0V770,大社,2025-06-16,22.730306,120.346639,0.020887654
C0X120,麻豆,2025-06-16,23.183289,120.248611,0.0248039
C0C670,龍潭,2025-06-16,24.870056,121.221389,0.8912573
C0D680,香山濕地,2025-06-16,24.783581,120.914988,0.12842901
C0S980,勝林山,2025-06-16,22.430439,120.8938,0.8232507
C0V730,大寮,2025-06-16,22.605614,120.395717,0.04072123
C0R570,麟洛,2025-06-16,22.65078,120.52719,0.0142395105
C2M930,石卓,2025-06-16,23.478744,120.702264,0.8241808
C0G9B0,和美,2025-06-16,24.105169,120.492131,0.070366666
CAG100,王功漁港,2025-06-16,23.96824,120.32586,0.10391137
C0X290,北門,2025-06-16,23.267772,120.125481,0.021522308
C2F930,大甲,2025-06-16,24.347667,120.640403,0.41048795
C0D650,湖口,2025-06-16,24.904794,121.043628,0.3023673
C0E420,竹南,2025-06-16,24.708978,120.888897,0.23846537
C0U780,五結,2025-06-16,24.68637,121.79794,0.20717674
C1I250,鯉潭,2025-06-16,23.961922,120.991131,0.28171816
C0R130,阿禮,2025-06-16,22.742908,120.743678,0.87167865
C0X100,臺南市北區,2025-06-16,23.010394,120.194228,0.020357674
C0S920,金峰嘉蘭,2025-06-16,22.594789,120.960825,0.018154712
C0V490,新興,2025-06-16,22.627422,120.298803,0.0253057
C0F9K0,大安,2025-06-16,24.345061,120.588025,0.13741383
467290,古坑,2025-06-16,23.633639,120.551889,0.020831604
C2E970,八甲,2025-06-16,24.535811,120.795983,0.94617146
C0V440,鳳山,2025-06-16,22.646653,120.356122,0.031643253
C1T940,大觀,2025-06-16,23.714206,121.373133,0.86143583
C0E740,造橋,2025-06-16,24.637056,120.864778,0.28008395
C0R100,尾寮山,2025-06-16,22.833111,120.683889,0.82890046
A2K630,臺大雲林校區,2025-06-16,23.730628,120.423903,0.034985136
467990,馬祖,2025-06-16,26.169467,119.923158,0.9372949
C0D580,寶山,2025-06-16,24.735006,121.025192,0.4836504
E2P990,林試扇平站,2025-06-16,22.9677,120.6857,0.35840902
C0AI30,三重,2025-06-16,25.057328,121.500629,0.04717619
C0AH00,汐止,2025-06-16,25.066881,121.658778,0.04942286
C1Z040,立山,2025-06-16,23.443356,121.327375,0.3525898
466881,新北,2025-06-16,24.959207,121.525196,0.12203492
C0W130,花嶼,2025-06-16,23.40007,119.32276,0.5746347
C0A950,鼻頭角,2025-06-16,25.129036,121.923372,0.09554848
C0K470,林內,2025-06-16,23.748675,120.609642,0.01965538
C2F990,摩天嶺,2025-06-16,24.322458,120.936819,0.98777723
82C160,茶改場,2025-06-16,24.908472,121.185333,0.9109399
C0Z320,清水林道,2025-06-16,23.27125,121.188272,0.16933195
C0R760,南仁湖,2025-06-16,22.084681,120.863353,0.26112995
C0M670,大林,2025-06-16,23.600616,120.45841,0.024794655
C0M800,茶山,2025-06-16,23.299075,120.664767,0.119294
C0A9C0,天母,2025-06-16,25.117494,121.537169,0.102576494
72K220,南改斗南分場,2025-06-16,23.634556,120.477333,0.04001982
72AI40,桃改樹林分場,2025-06-16,24.944503,121.386972,0.099331416
C0S910,蘭嶼燈塔,2025-06-16,22.081197,121.503117,0.27928063
C0B050,八斗子,2025-06-16,25.144754,121.79167,0.092235096
C0U900,內城,2025-06-16,24.71813,121.68766,0.2255931
C0X320,柳營,2025-06-16,23.253328,120.375253,0.012119388
C0M790,新港,2025-06-16,23.553269,120.345728,0.024501316
C0F9T0,西屯,2025-06-16,24.179494,120.641275,0.3833274
C0E950,松安,2025-06-16,24.39792,120.98599,0.96749616
C0SA30,都歷,2025-06-16,23.020333,121.323642,0.023676058
C0C620,蘆竹,2025-06-16,25.084275,121.265767,0.10960562
C0R730,大坪頂,2025-06-16,22.024633,120.69355,0.023175048
C0AJ40,石門,2025-06-16,25.273672,121.601198,0.80114174
C0E750,苗栗,2025-06-16,24.564569,120.824575,0.40062702
C0T870,鯉魚潭,2025-06-16,23.935639,121.508944,0.07432137
C1V170,排雲,2025-06-16,23.463619,120.954147,0.0014160082
C2H950,中寮,2025-06-16,23.884447,120.766406,0.2402537
C0R350,貓鼻頭,2025-06-16,21.921774,120.7358,0.01191235
C0V660,岡山,2025-06-16,22.797078,120.294958,0.024741627
C1H941,雙冬,2025-06-16,23.967378,120.802189,0.20981105
C0AJ70,田寮,2025-06-16,25.2698,121.4886,0.14933194
C0AI00,五股,2025-06-16,25.07445,121.42728,0.56904507
C0Z280,德武,2025-06-16,23.47426,121.41071,0.09576237
C0R700,枋山,2025-06-16,22.246844,120.661086,0.01601678
C0C460,復興,2025-06-16,24.820208,121.352281,0.8201644
E2H360,蓮華池,2025-06-16,23.918333,120.885278,0.37317067
C0M640,中埔,2025-06-16,23.42538,120.5229,0.020701526
C0W140,金沙,2025-06-16,24.488292,118.408778,0.9126697
C2A540,四堵,2025-06-16,24.8926,121.745736,0.11890888
C0ACA0,新莊,2025-06-16,25.051478,121.446756,0.11427935
C0R220,潮州,2025-06-16,22.534361,120.54,0.027740719
U2HA40,臺大內茅埔,2025-06-16,23.689722,120.851117,0.13667929
467490,臺中,2025-06-16,24.145736,120.684075,0.59114337
C0UB60,明池,2025-06-16,24.650688,121.475277,0.9448287
C0U960,翠峰湖,2025-06-16,24.510856,121.608044,0.56209314
E2HA20,林試畢祿溪站,2025-06-16,24.226944,121.308522,0.306857
C0V890,前鎮,2025-06-16,22.5718,120.3117,0.025118327
C1F941,雪嶺,2025-06-16,24.280586,121.026642,0.047149125
C2H9E0,國姓南港,2025-06-16,23.911108,120.846556,0.84036785
C0AC80,文山,2025-06-16,25.00235,121.575728,0.15271387
C0F9R0,龍井,2025-06-16,24.184536,120.528972,0.09888145
C0M760,民雄,2025-06-16,23.551754,120.428457,0.0242864
C0UA40,西德山,2025-06-16,24.560647,121.752608,0.94672483
C1T920,中興,2025-06-16,23.769503,121.498653,0.048004728
C0D550,雪霸,2025-06-16,24.526972,121.11605,0.86915284
C2F860,梨山,2025-06-16,24.247522,121.243669,0.26203606
C0R320,車城,2025-06-16,22.0744,120.716247,0.009691433
C1S870,南美山,2025-06-16,23.15025,121.382333,0.056793824
C0B020,基隆嶼,2025-06-16,25.19141,121.78391,0.11264301
C1U501,牛鬥,2025-06-16,24.637836,121.573656,0.658235
C0M730,嘉義市東區,2025-06-16,23.457673,120.460531,0.014565355
C0S700,知本,2025-06-16,22.684866,121.005642,0.47277114
C1N001,沙崙,2025-06-16,22.935472,120.309406,0.013026491
C0V760,橋頭,2025-06-16,22.757806,120.30575,0.020820422
C0G960,福寶,2025-06-16,24.0443,120.3814,0.068053454
C0X210,白河,2025-06-16,23.347466,120.414427,0.012756918
C0S810,東河,2025-06-16,22.972672,121.303986,0.023788232
C2R170,屏東,2025-06-16,22.66027,120.49403,0.014231567
C0R670,楓港,2025-06-16,22.190131,120.692156,0.012428426
C0FA50,霧峰,2025-06-16,24.0419,120.6995,0.3398995
C0UB10,蘇澳,2025-06-16,24.5969,121.8571,0.031919308
C0G950,防潮門,2025-06-16,24.1835,120.4871,0.094592504
C0M740,六腳,2025-06-16,23.492871,120.290625,0.029781988
C1R250,力里,2025-06-16,22.428117,120.629228,0.10534975
C0K330,虎尾,2025-06-16,23.719183,120.442036,0.03580192
C2FA00,烏石坑,2025-06-16,24.273503,120.947617,0.9882526
C0V620,永安,2025-06-16,22.82315,120.236856,0.024715178
C1I330,楓樹林,2025-06-16,23.986803,121.076117,0.9203689
C0W200,湖西,2025-06-16,23.596314,119.67275,0.5587165
72Q010,高雄農改場,2025-06-16,22.709333,120.525889,0.011346647
C0SA40,瑞和,2025-06-16,22.974361,121.156697,0.040512186
C0C680,龜山,2025-06-16,25.02846,121.38656,0.6535431
C2V260,月眉,2025-06-16,22.971003,120.539853,0.012521864
C0V450,鳳森,2025-06-16,22.545064,120.392592,0.045234732
C0FA90,小雪山林道,2025-06-16,24.29515,121.03651,0.018843496
C0U720,南山,2025-06-16,24.43742,121.38167,0.96137387
A2N290,臺南蘭花園區,2025-06-16,23.340258,120.379661,0.018549908
C0R560,新園,2025-06-16,22.5434,120.461558,0.039890748
C0U890,三星,2025-06-16,24.66812,121.65302,0.101842746
C1V300,御油山,2025-06-16,23.001983,120.715364,0.5682833
C0U600,礁溪,2025-06-16,24.817539,121.765608,0.08681915
C1T980,龍澗,2025-06-16,24.023289,121.411328,0.8780185
C0D670,海天一線,2025-06-16,24.831986,120.914438,0.13684951
C0SA00,歷坵,2025-06-16,22.520969,120.89185,0.31052166
C0M710,東石,2025-06-16,23.458927,120.15385,0.028120866
C0M780,鹿草,2025-06-16,23.41134,120.30835,0.026476802
C0U520,雙連埤,2025-06-16,24.753033,121.641303,0.97140485
C0B010,七堵,2025-06-16,25.094819,121.71713,0.06963465
C0R480,長治,2025-06-16,22.693128,120.542622,0.02176721
C1V830,國三S383K,2025-06-16,22.781967,120.426475,0.015652765
12Q980,恆春工作站,2025-06-16,22.079678,120.714425,0.009706996
C1O940,東山服務區,2025-06-16,23.286016,120.398472,0.014260576
C1U840,東澳嶺,2025-06-16,24.5378,121.8485,0.9706115
C1D630,飛鳳山,2025-06-16,24.766464,121.119178,0.4045562
C0S940,石寧山,2025-06-16,23.223772,121.406639,0.029867055
C0K410,北港,2025-06-16,23.573957,120.292802,0.026411476
C2M620,瑞里,2025-06-16,23.545133,120.675197,0.9387934
C0SB70,小港漁港,2025-06-16,23.158558,121.400431,0.014881514
C2O950,安南,2025-06-16,23.076694,120.144861,0.021240253
C0F0E0,南湖圈谷,2025-06-16,24.363714,121.444667,0.0020767527
467610,成功,2025-06-16,23.097486,121.373428,0.01746237
C0G890,伸港,2025-06-16,24.148933,120.484403,0.109548576
C2E540,龍溪,2025-06-16,24.606489,120.783933,0.20597924
C1V200,梅山,2025-06-16,23.268447,120.823556,0.9598765
C0T9H0,加路蘭山,2025-06-16,23.682947,121.5274,0.07010074
C2O930,玉井,2025-06-16,23.126042,120.46055,0.014868739
C1F911,新伯公,2025-06-16,24.221361,120.841069,0.8673306
C0R490,九如,2025-06-16,22.7405,120.490503,0.011340951
C0X200,左鎮,2025-06-16,23.056758,120.408522,0.01896574
C0FA60,鞍馬山工作站,2025-06-16,24.267064,121.000793,0.2595569
C0SB50,叭嗡嗡,2025-06-16,23.047062,121.343223,0.01890458
C1F891,稍來,2025-06-16,24.265689,121.001142,0.31472668
72N240,七股研究中心,2025-06-16,23.081672,120.062894,0.02040001
C0C700,中壢,2025-06-16,24.977661,121.256375,0.39051193
C0M690,水上,2025-06-16,23.419734,120.388909,0.020288713
C0V690,鼓山,2025-06-16,22.623325,120.275575,0.025243998
C0O860,大內,2025-06-16,23.11885,120.36083,0.013351995
C0Z200,萬榮,2025-06-16,23.709219,121.420106,0.05606697
C0T9D0,和中,2025-06-16,24.26676,121.74103,0.041748684
C1O921,楠西,2025-06-16,23.183511,120.484083,0.014054902
C0AJ30,淡水觀海,2025-06-16,25.184591,121.408616,0.1284034
C0V810,左營,2025-06-16,22.67491,120.28491,0.030871317
C0UA70,桃源谷,2025-06-16,24.962606,121.888875,0.9542113
C0X130,官田,2025-06-16,23.193217,120.315422,0.012000581
C1H000,翠峰,2025-06-16,24.109397,121.205211,0.1175392
C0UA90,石城,2025-06-16,24.980444,121.951214,0.059590336
C1E681,南勢山,2025-06-16,24.421669,120.923831,0.98158026
C0A9F0,內湖,2025-06-16,25.079422,121.57545,0.04942286
C0K291,宜梧,2025-06-16,23.536281,120.169329,0.027688295
C1K540,口湖,2025-06-16,23.585344,120.180517,0.0286039
C0R780,滿州,2025-06-16,22.024403,120.839892,0.014057486
C0V870,文安,2025-06-16,22.8025,120.2164,0.024618113
C0U650,玉蘭,2025-06-16,24.675286,121.587061,0.79047674
C0R640,東港,2025-06-16,22.46247,120.44074,0.034279384
C0AJ80,板橋,2025-06-16,25.0107,121.4489,0.10200449
C0S660,下馬,2025-06-16,23.150427,121.070312,0.7331021
C1H9B1,阿眉,2025-06-16,24.1263,120.994672,0.81838334
C0UA20,多加屯,2025-06-16,24.368614,121.373189,0.033136606
C0E730,頭份,2025-06-16,24.688247,120.912206,0.22449544
72V140,高改旗南分場,2025-06-16,22.857861,120.516667,0.012541383
C0K480,莿桐,2025-06-16,23.761192,120.502372,0.030250663
C0U980,坪林石牌,2025-06-16,24.86478,121.77396,0.9757832
C0T900,西林,2025-06-16,23.8119,121.441458,0.10676094
C1I150,青雲,2025-06-16,23.793361,120.949378,0.029739276
467350,澎湖,2025-06-16,23.565503,119.563094,0.5015518
C0G800,埔鹽,2025-06-16,24.000394,120.431683,0.10302137
C0H960,草屯,2025-06-16,23.973672,120.68085,0.41890755
C1V780,多納林道,2025-06-16,22.888028,120.737917,0.924673
C0E920,通霄漁港,2025-06-16,24.498589,120.673876,0.098150656
C0Z330,安通山,2025-06-16,23.290728,121.348528,0.94945234
C0AH10,永和,2025-06-16,25.01125,121.508111,0.099880695
C0AK10,太平里,2025-06-16,25.134937,121.364899,0.13619097
C2G640,鹿港,2025-06-16,24.0753,120.430481,0.068281606
C1E890,國三N149K,2025-06-16,24.463414,120.680019,0.35953307
C1R110,口社,2025-06-16,22.770111,120.645222,0.020993667
C1M870,國三N285K,2025-06-16,23.550319,120.505833,0.023766875
C1E480,鳳美,2025-06-16,24.554803,121.034747,0.97860676
C0M530,奮起湖,2025-06-16,23.493903,120.699253,0.90646744
C0C590,觀音,2025-06-16,25.027072,121.153317,0.24545828
C0T9M0,靜浦,2025-06-16,23.455167,121.495028,0.049555596
C2H9M0,發祥,2025-06-16,24.154094,121.164517,0.9264862
C0AI40,石牌,2025-06-16,25.115597,121.513139,0.09262134
C1F871,上谷關,2025-06-16,24.203483,121.018644,0.97879106
C2H9G0,百勝,2025-06-16,24.051142,120.909361,0.9331117
C0G880,二水,2025-06-16,23.810742,120.6173,0.02056612
C0R940,加祿堂,2025-06-16,22.3363,120.6217,0.017650962
C0W220,北竿,2025-06-16,26.220358,119.974881,0.8511778
C0O960,崎頂,2025-06-16,22.959547,120.369317,0.014919667
C0S750,向陽,2025-06-16,23.248397,120.986133,0.08520873
C0T9F0,水璉,2025-06-16,23.797131,121.542514,0.28873253
C1M600,頭凍,2025-06-16,23.406364,120.603339,0.9458463
467660,臺東,2025-06-16,22.752211,121.154586,0.029838441
C1D380,新埔,2025-06-16,24.84745,121.03834,0.41495296
C2G980,田頭村,2025-06-16,23.8263,120.444175,0.03773631
C0V750,路竹,2025-06-16,22.854997,120.259439,0.026793873
C0N050,蚵寮,2025-06-16,23.301,120.1104,0.024371881
72M700,南改鹿草分場,2025-06-16,23.416869,120.283061,0.026201759
C1SA50,利嘉林道,2025-06-16,22.82325,121.009389,0.9030019
C0UB70,太平山中間站,2025-06-16,24.542003,121.513453,0.9760887
C0A940,金山,2025-06-16,25.223628,121.643967,0.13332167
C1V340,大津,2025-06-16,22.888322,120.645986,0.012977396
C0W180,七美,2025-06-16,23.219333,119.444892,0.5454182
C1F9C1,白冷,2025-06-16,24.182844,120.929889,0.98853815
K2E710,苗改生物防治研究中心,2025-06-16,24.422861,120.871833,0.98638713
C0N040,蘆竹溝,2025-06-16,23.2344,120.0961,0.021500707
C0D760,大坪苗圃,2025-06-16,24.5362,121.1108,0.9268379
C2W230,畜試所澎湖,2025-06-16,23.628342,119.513206,0.85888577
C0R880,後壁湖,2025-06-16,21.9457,120.7457,0.009333474
C1I280,埔中,2025-06-16,23.820778,120.642594,0.034374397
467790,墾丁雷達站,2025-06-16,21.948235,120.808028,0.012446951
C0W190,望安,2025-06-16,23.380564,119.494075,0.594375
C0Z170,卓溪,2025-06-16,23.3443,121.3029,0.07665992
C0F850,東勢,2025-06-16,24.246428,120.833047,0.9616092
466900,淡水,2025-06-16,25.164889,121.448906,0.13706617
C0I370,魚池,2025-06-16,23.895703,120.94135,0.3390346
C0C630,大溪,2025-06-16,24.882853,121.265547,0.71639556
C0A520,山佳,2025-06-16,24.974944,121.402008,0.14995325
C0I110,竹山,2025-06-16,23.761225,120.688156,0.02621969
82H840,茶改南部分場,2025-06-16,23.762528,120.7405,0.06654388
C0G660,溪湖,2025-06-16,23.94835,120.479122,0.077306084
C1T800,洛韶,2025-06-16,24.204558,121.453956,0.885412
C1T810,慈恩,2025-06-16,24.192044,121.388386,0.50682104
C1E451,象鼻,2025-06-16,24.368617,120.940228,0.9789745
C0AC60,三峽,2025-06-16,24.939025,121.369728,0.07957554
C0I490,萬大林道,2025-06-16,23.928228,121.091411,0.65953815
C1I290,豐丘,2025-06-16,23.668178,120.887417,0.95646113
C1I320,奧萬大,2025-06-16,23.952956,121.178556,0.9135399
C2M910,嘉義大學,2025-06-16,23.471325,120.485903,0.016048029
C0U770,南澳,2025-06-16,24.44935,121.81022,0.04677299
C0A980,社子,2025-06-16,25.109508,121.469681,0.1137019
C0V800,六龜,2025-06-16,22.997889,120.633583,0.039441418
C1G9D0,國一S218K,2025-06-16,23.890641,120.493253,0.054985043
C0E570,白沙屯,2025-06-16,24.549447,120.696803,0.18220113
C2F9A0,中竹林,2025-06-16,24.103556,120.751061,0.38865328
C0FA40,臺中電廠,2025-06-16,24.2146,120.4907,0.099758916
C2G9A0,畜試所彰化,2025-06-16,23.86045,120.557964,0.032661594
C0H9C0,合歡山,2025-06-16,24.143442,121.272547,0.0054383543
C0X060,下營,2025-06-16,23.22695,120.256261,0.020941522
G2M350,農試溪口農場,2025-06-16,23.58565,120.408111,0.023481423
C0U860,頭城,2025-06-16,24.85323,121.8308,0.08681632
C0R580,南州,2025-06-16,22.48591,120.50274,0.034279384
C0D430,峨眉,2025-06-16,24.6905,121.017189,0.58638954
C0G780,秀水,2025-06-16,24.03405,120.503869,0.059694476
72N100,臺南農改場,2025-06-16,23.0605,120.342194,0.013443823
C0S900,蘭嶼高中,2025-06-16,22.04909,121.51214,0.17719074
C1F9W0,德基,2025-06-16,24.254783,121.190261,0.4983433
C1Z120,壽豐,2025-06-16,23.870853,121.508081,0.054849472
C0W160,烏坵,2025-06-16,24.9944,119.44956,0.98869765
C1I240,外大坪,2025-06-16,23.958697,120.917931,0.31789464
C1I550,國六W023K,2025-06-16,23.979067,120.867742,0.07659661
C0R870,興海,2025-06-16,21.9752,120.8439,0.011763804
C0R140,瑪家,2025-06-16,22.682903,120.686639,0.41607553
C0A530,坪林,2025-06-16,24.938183,121.70975,0.8231639
C0X260,後壁,2025-06-16,23.366358,120.362326,0.018324427
C0Z230,和平,2025-06-16,24.30717,121.77007,0.041401945
C0G770,福興,2025-06-16,24.041289,120.437669,0.102549076
C0H9A0,神木村,2025-06-16,23.532742,120.843667,0.81844324
C0I460,南投,2025-06-16,23.911469,120.687331,0.112285264
C0I480,梅峰,2025-06-16,24.085272,121.173572,0.42301372
C1V570,吉東,2025-06-16,22.85422,120.5454,0.012441015
C2D740,屯原,2025-06-16,24.067969,121.209389,0.38259187
C2A560,福山,2025-06-16,24.776203,121.502811,0.3186016
C0AH30,五分山,2025-06-16,25.07125,121.780794,0.9252301
C0FA10,松柏,2025-06-16,24.429115,120.617482,0.12819993
72S200,東改班鳩分場,2025-06-16,22.829528,121.077694,0.11680113
72HA00,中改埔里分場,2025-06-16,23.903208,120.963364,0.27262527
C2H9W0,大坪頂農水,2025-06-16,24.043122,120.932781,0.87664676
C0C650,平鎮,2025-06-16,24.897503,121.214636,0.875333
C0S930,延平,2025-06-16,22.902581,121.084058,0.06992997
C0UA60,樟樹山,2025-06-16,24.41393,121.78325,0.9591122
C1S670,摩天,2025-06-16,23.199503,121.027,0.59049314
C0V630,茄萣,2025-06-16,22.906642,120.182608,0.019217957
466940,基隆,2025-06-16,25.133314,121.740475,0.0955813
C0X050,東河,2025-06-16,23.296598,120.385608,0.013938299
C0R770,保力,2025-06-16,22.071122,120.764111,0.011436082
G2L020,農試嘉義分所,2025-06-16,23.485028,120.473806,0.018598543
C0X240,關子嶺,2025-06-16,23.331169,120.508025,0.042971175
C0I380,集集,2025-06-16,23.828206,120.801467,0.023258477
466990,花蓮,2025-06-16,23.975128,121.613275,0.05423037
C1V220,小關山,2025-06-16,23.154217,120.813603,0.45222056
C1F9G1,慶福山,2025-06-16,24.180853,120.848378,0.9750326
C0FB20,雪山橋,2025-06-16,24.23192,120.9786,0.45690742
C0Z250,瑞穗林道,2025-06-16,23.49284,121.30688,0.75094974
C0D590,新豐,2025-06-16,24.87068,120.97721,0.8303973
C0A870,五指山,2025-06-16,25.132153,121.608692,0.96965367
C0UA50,西帽山,2025-06-16,24.555361,121.802628,0.97778374
C0X160,仁德,2025-06-16,22.968258,120.257689,0.012279399
C1H971,六分寮,2025-06-16,23.92507,120.6378,0.4660231
C0W120,西嶼,2025-06-16,23.5626,119.468436,0.6628868
C0G650,員林,2025-06-16,23.946503,120.585597,0.10471189
C0AD50,鶯歌,2025-06-16,24.951533,121.346294,0.11178937
C2H9Q0,北東眼山,2025-06-16,24.120939,121.189303,0.24105659
C2H9T0,名間竹圍,2025-06-16,23.859914,120.637572,0.030852113
C0S990,山豬窟,2025-06-16,22.318619,120.857372,0.06502112
C0X190,安平,2025-06-16,22.993161,120.152181,0.02036927
C0K400,斗六,2025-06-16,23.720583,120.541127,0.050773222
12J990,口湖工作站,2025-06-16,23.589978,120.180394,0.02867432
C0O830,北寮,2025-06-16,23.079561,120.495008,0.0141590815
C1D410,白蘭,2025-06-16,24.579364,121.079947,0.9470904
C0S970,加津林,2025-06-16,22.416211,120.926942,0.011345646
C0D700,關西,2025-06-16,24.7977,121.1732,0.4731147
C0M810,里佳,2025-06-16,23.389125,120.716647,0.8531088
C0U750,龜山島,2025-06-16,24.841667,121.953133,0.19703993
C0R810,內獅,2025-06-16,22.305064,120.642986,0.017504826
C1M390,龍美,2025-06-16,23.406728,120.654417,0.9258067
C2FB60,頭櫃山,2025-06-16,24.129842,120.858925,0.9613177
C1H840,國三N238K,2025-06-16,23.841008,120.707711,0.027844712
CAQ030,崎峰國小,2025-06-16,22.42565,120.49521,0.034279384
C2E520,大湖,2025-06-16,24.414939,120.870872,0.60917556
467530,阿里山,2025-06-16,23.508208,120.813242,0.019607902
C1E691,南湖,2025-06-16,24.40135,120.837533,0.9909106
C0FA30,梧棲,2025-06-16,24.256003,120.523381,0.14809169
C1V231,高中,2025-06-16,23.134911,120.716711,0.94258446
C0AK30,硬漢嶺,2025-06-16,25.136097,121.426372,0.97785795
C0F9V0,新社,2025-06-16,24.200172,120.815806,0.97854805
C0H890,埔里,2025-06-16,23.972169,120.952425,0.6388413
C0R690,墾丁,2025-06-16,21.966756,120.810269,0.082122885
C0F0D0,審馬陣,2025-06-16,24.381675,121.4203,0.006868353
C2W030,金門農試所,2025-06-16,24.448431,118.451786,0.9371256
C0R820,白鷺,2025-06-16,22.454275,120.666219,0.2691995
C0FB00,大雪山,2025-06-16,24.254668,121.007374,0.26357603
C1V190,南天池,2025-06-16,23.27403,120.91176,0.040762078
C0E940,雪見,2025-06-16,24.42595,121.01347,0.864045
K2E360,苗栗農改場,2025-06-16,24.495722,120.829111,0.63512564
CAJ050,海口故事園區,2025-06-16,23.57543,120.14121,0.028639005
C2H9D0,三隻寮,2025-06-16,24.093078,120.861578,0.89272225
C0O990,媽廟,2025-06-16,22.99175,120.293525,0.0118365
C0D480,打鐵坑,2025-06-16,24.849664,121.150789,0.89829063
C0Z220,和平林道,2025-06-16,24.343922,121.656317,0.9501292
C0TA10,花蓮漁港,2025-06-16,23.995322,121.638331,0.05307777
72C440,桃園農改場,2025-06-16,24.950944,121.030583,0.14763787
C1E711,馬拉邦山,2025-06-16,24.367306,120.901656,0.9814157
C0SB20,富岡,2025-06-16,22.792467,121.192669,0.027966473
C0D560,竹東,2025-06-16,24.767147,121.057881,0.42961824
C0F9U0,南屯,2025-06-16,24.137006,120.637969,0.10882471
C0M720,番路,2025-06-16,23.464657,120.554156,0.015321404
C0F0A0,雪山圈谷,2025-06-16,24.388594,121.236339,0.0040187114
C1A9N0,四十份,2025-06-16,24.934158,121.593283,0.5726832
C0U760,東澳,2025-06-16,24.52196,121.83318,0.050672997
C0X230,鹽水,2025-06-16,23.272621,120.247641,0.024752652
C2H9H0,苗改南投蜂場,2025-06-16,23.852589,120.693481,0.026430126
C0R950,萬隆國小,2025-06-16,22.507667,120.587817,0.031926196
467540,大武,2025-06-16,22.35572,120.90374,0.011386642
C0V370,古亭坑,2025-06-16,22.893178,120.401947,0.022350267
C1I340,新興橋,2025-06-16,23.563333,120.868728,0.95394075
C0SA80,土坂,2025-06-16,22.453108,120.887572,0.03319632
C0R160,鹽埔,2025-06-16,22.739558,120.530778,0.011396539
C0AC40,大屯山,2025-06-16,25.175675,121.522408,0.5975416
466850,五分山雷達站,2025-06-16,25.071182,121.781205,0.9283106
C2H9L0,馬烈霸,2025-06-16,24.1512,121.201772,0.28495085
C1AI50,國三N016K,2025-06-16,25.034164,121.619664,0.06433518
C1V600,藤枝,2025-06-16,23.071961,120.757042,0.6990913
C1E601,南勢,2025-06-16,24.572486,120.734842,0.81308174
C0O980,新市,2025-06-16,23.061614,120.298197,0.013189074
C0K420,西螺,2025-06-16,23.800407,120.467394,0.039426308
C0Z050,佳心,2025-06-16,23.34567,121.21316,0.87197393
C0AD30,蘆洲,2025-06-16,25.086594,121.472331,0.04780449
C0V610,梓官,2025-06-16,22.760558,120.267211,0.02081659
K2F750,種苗改良場,2025-06-16,24.225972,120.800917,0.9542832
C0UA80,大溪漁港,2025-06-16,24.941801,121.902955,0.0745681
C1AI60,國一39K邊坡,2025-06-16,25.064361,121.383836,0.46270123
C0W150,金寧,2025-06-16,24.457703,118.328989,0.93964356
C0R960,內埔,2025-06-16,22.608483,120.570714,0.028699087
V2C250,八德合作社,2025-06-16,24.93775,121.266389,0.4999532
C2H9S0,龍南,2025-06-16,23.953536,120.833183,0.88073415
C0AH40,平等,2025-06-16,25.129142,121.577086,0.74150735
C0R540,佳冬,2025-06-16,22.419456,120.552375,0.02834503
466950,彭佳嶼,2025-06-16,25.627975,122.079744,0.35551828
C0A890,雙溪,2025-06-16,25.036003,121.864242,0.11303659
C0C480,桃園,2025-06-16,24.992425,121.323172,0.2525695
C0AH50,林口,2025-06-16,25.072181,121.38084,0.7542609
A2K360,水試臺西試驗場,2025-06-16,23.717231,120.190522,0.03563573
C2M960,外寮,2025-06-16,23.562643,120.665688,0.9681454
C0F9S0,烏日,2025-06-16,24.107058,120.624103,0.09307775
C0C490,八德,2025-06-16,24.928708,121.283289,0.53366995
C0R190,赤山,2025-06-16,22.592333,120.614306,0.029611394
C0T820,天祥,2025-06-16,24.179597,121.495639,0.78810424
C1F9E1,龍安,2025-06-16,24.1605,120.831961,0.9813119
C0V820,小林,2025-06-16,23.148408,120.63325,0.09496833
C2G870,芳苑,2025-06-16,23.922303,120.320025,0.10755301
C0E850,大河,2025-06-16,24.618069,120.948578,0.3845606
C1U670,寒溪,2025-06-16,24.634,121.71691,0.24980251
C0N020,城西,2025-06-16,23.0568,120.0956,0.019334761
C1Z110,三棧,2025-06-16,24.11557,121.60501,0.08038931
C0R280,檳榔,2025-06-16,22.076078,120.836777,0.052612867
C2H9J0,中台,2025-06-16,23.9996,120.938739,0.15638399
C0F9L0,后里,2025-06-16,24.310436,120.729725,0.26190704
467441,高雄,2025-06-16,22.730432,120.312516,0.020880586
C0Z180,新城,2025-06-16,24.040486,121.604878,0.055195395
C0D540,橫山,2025-06-16,24.71116,121.11693,0.8576097
C1D420,太閣南,2025-06-16,24.632808,121.160575,0.95816946
C1E770,公館,2025-06-16,24.526914,120.830806,0.4520334
CAN130,水試所海水繁養殖中心,2025-06-16,23.120802,120.07968,0.02046314
C1I430,翠華,2025-06-16,24.191961,121.224339,0.10650527
C1M400,菜瓜坪,2025-06-16,23.251928,120.576103,0.100345284
C0G730,二林,2025-06-16,23.903325,120.376081,0.058329746
72M360,南改義竹分場,2025-06-16,23.360694,120.279361,0.028809518
V2K620,麥寮合作社,2025-06-16,23.753836,120.294783,0.034046628
C0Z070,舞鶴,2025-06-16,23.46811,121.37407,0.15804675
C0B040,大武崙,2025-06-16,25.166676,121.706993,0.1328784
C1Z030,紅葉,2025-06-16,23.493119,121.338806,0.12002108
C1I050,丹大,2025-06-16,23.753747,121.141147,0.030792145
C0I080,信義,2025-06-16,23.689694,120.851036,0.1366792
C0D750,樂山林道6k,2025-06-16,24.49999,121.08773,0.21336731
C2M920,朴子農改,2025-06-16,23.469889,120.259383,0.02617567
C2A880,福隆,2025-06-16,25.017842,121.942083,0.059454255
C0Z160,鳳林,2025-06-16,23.746114,121.453411,0.044126175
C0UB80,翠峰林道6K,2025-06-16,24.49773,121.568625,0.58803856
C0V210,復興,2025-06-16,23.222403,120.806089,0.95222473
C0H990,昆陽,2025-06-16,24.121322,121.273642,0.007527993
C0R741,獅子,2025-06-16,22.202308,120.705236,0.019473659
C0S710,鹿野,2025-06-16,22.917711,121.122994,0.29544273
C0I530,小奇萊,2025-06-16,24.131764,121.295717,0.0063370722
C0FA70,大雪山埡口,2025-06-16,24.26867,121.03062,0.0494995
C2K630,荷苞,2025-06-16,23.657717,120.595144,0.027877297
C0Z080,富源,2025-06-16,23.587642,121.378225,0.032205448
C0SB10,美和,2025-06-16,22.682078,121.060236,0.014270284
C2K620,馬光農場,2025-06-16,23.721453,120.378864,0.03405174
C1I140,卡奈托灣,2025-06-16,23.754364,121.087872,0.65149504
C0I520,玉山風口,2025-06-16,23.470489,120.955994,0.0015034756
C1G691,下水埔,2025-06-16,23.816114,120.5676,0.032212954
C0X110,臺南市南區,2025-06-16,22.961189,120.188378,0.012267577
C0V680,仁武,2025-06-16,22.701083,120.347722,0.030949429
C2G840,北斗,2025-06-16,23.877586,120.514222,0.056996234
C0R900,竹坑,2025-06-16,22.1385,120.7022,0.014481751
C0K250,崙背,2025-06-16,23.75555,120.318925,0.03423352
C0G860,社頭,2025-06-16,23.897647,120.5862,0.045709074
C0X150,安定,2025-06-16,23.102614,120.227839,0.01924201
C0R590,里港,2025-06-16,22.77919,120.49459,0.0154643515
C0E610,馬都安,2025-06-16,24.451272,120.930192,0.98926044
C0E550,明德,2025-06-16,24.583486,120.885411,0.48288116
C0R150,三地門,2025-06-16,22.709889,120.639944,0.02104828
C0G910,花壇,2025-06-16,24.032076,120.549461,0.065692924
C1D400,鳥嘴山,2025-06-16,24.71909,121.28387,0.9699728
C0K500,元長,2025-06-16,23.64981,120.315024,0.030865662
C0F0B0,石岡,2025-06-16,24.276061,120.777644,0.39958394
C2V250,甲仙,2025-06-16,23.080106,120.591758,0.018412035
C0SA20,金崙山,2025-06-16,22.567419,120.959667,0.8925499
C0V350,溪埔,2025-06-16,22.738578,120.446797,0.014316391
C0M660,溪口,2025-06-16,23.604131,120.403569,0.023525128
C1S880,壽卡,2025-06-16,22.238911,120.858903,0.07310216
72D680,桃改新埔分場,2025-06-16,24.834444,121.066111,0.35755274
