站號,站名,日期,lat,lon,BLBTSLS
C0K280,四湖,2025-09-19,23.630414,120.227125,0.60427886
C0R240,來義,2025-09-19,22.527306,120.625111,0.14856537
C0X060,下營,2025-09-19,23.22695,120.256261,0.4004447
C2D740,屯原,2025-09-19,24.067969,121.209389,1.9009474e-09
C0K250,崙背,2025-09-19,23.75555,120.318925,0.41534337
