站號,站名,日期,lat,lon,BLBTSLS
C0R710,龍磐,2025-06-06,21.931672,120.838942,0.19906738
C1F9D1,白毛台,2025-06-06,24.158325,120.886933,1.804562e-09
C0G940,竹塘,2025-06-06,23.848253,120.386764,2.0592907e-07
467590,恆春,2025-06-06,22.003897,120.746339,0.0042349384
C1O850,環湖,2025-06-06,23.148617,120.418633,2.841536e-06
C0U710,太平山,2025-06-06,24.505486,121.525656,2.0291802e-08
C0E820,獅潭,2025-06-06,24.539133,120.920042,1.2695373e-09
C0V880,興達,2025-06-06,22.8778,120.2127,0.00069331995
C0S890,關山,2025-06-06,23.0395,121.175017,3.6329606e-05
C0SB30,新蘭,2025-06-06,22.869214,121.223228,0.077327855
C2R970,屏科大,2025-06-06,22.648275,120.619247,0.9989136
C1Z130,銅門,2025-06-06,23.965694,121.492842,8.0885513e-07
C0AD40,土城,2025-06-06,24.973208,121.445169,8.94918e-09
CAN140,六官養殖協會,2025-06-06,23.22881,120.29962,8.906695e-06
C0X180,山上,2025-06-06,23.0757,120.363253,0.024261627
C0F9Z0,雪山東峰,2025-06-06,24.388792,121.268675,2.2286438e-08
C1M480,獨立山,2025-06-06,23.537022,120.607797,1.5566299e-09
C0X220,學甲,2025-06-06,23.230367,120.182187,3.953055e-05
467650,日月潭,2025-06-06,23.881325,120.90805,3.5018897e-09
C0K600,箔子寮,2025-06-06,23.6197,120.14,4.7587393e-05
C0G830,埤頭,2025-06-06,23.866003,120.452806,1.14341674e-07
C0S950,七塊厝,2025-06-06,22.954453,121.229922,1.4083838e-06
467110,金門,2025-06-06,24.407306,118.289281,0.004390189
C0AH80,深坑,2025-06-06,25.002703,121.628328,7.200942e-09
C0A970,三貂角,2025-06-06,25.007606,122.002058,7.6745215e-09
C2D730,寶山農場,2025-06-06,24.732444,120.976153,1.8108337e-09
C0K430,褒忠,2025-06-06,23.690938,120.303634,3.7716106e-07
467480,嘉義,2025-06-06,23.495925,120.432906,2.5570623e-07
C0V400,阿公店,2025-06-06,22.804194,120.355528,0.015957879
467550,玉山,2025-06-06,23.48718,120.95943,2.4031245e-08
C0R440,大漢山,2025-06-06,22.405264,120.753181,1.0079621e-08
C0K280,四湖,2025-06-06,23.630414,120.227125,3.616438e-05
C1F9B1,桐林,2025-06-06,24.066172,120.735194,1.3023681e-09
C2H9U0,鳳鵬,2025-06-06,23.763919,120.788061,6.3525794e-09
C0K390,土庫,2025-06-06,23.679029,120.395574,4.5023577e-07
C1I450,望鄉山,2025-06-06,23.594153,120.944286,1.3820265e-08
C0E910,海埔,2025-06-06,24.648767,120.772435,5.567939e-09
B2E890,畜試北區分所,2025-06-06,24.527806,120.770972,1.5323154e-09
C0R750,四林格山,2025-06-06,22.076989,120.802439,0.8924223
C0F0C0,中坑,2025-06-06,24.248517,120.903319,1.1433973e-09
C1I121,大鞍,2025-06-06,23.678381,120.760017,6.7819577e-09
72U480,花改蘭陽分場,2025-06-06,24.686306,121.716583,7.1754407e-09
C0A770,科教館,2025-06-06,25.096356,121.516507,1.02924504e-08
C0AJ60,六塊厝,2025-06-06,25.24,121.4481,5.4777774e-07
C0R620,墾雷,2025-06-06,21.900836,120.855269,0.115482435
467420,永康,2025-06-06,23.038386,120.2367,0.002742972
C0I410,名間,2025-06-06,23.837053,120.701447,9.680506e-09
A2C560,農工中心,2025-06-06,24.985917,121.239833,4.9689652e-09
C0V740,旗山,2025-06-06,22.888614,120.483597,0.42171994
C0Z061,玉里,2025-06-06,23.3215,121.339656,7.2165753e-09
C0S840,南田,2025-06-06,22.279725,120.889208,0.010775776
C1I470,杉林溪,2025-06-06,23.639517,120.786444,7.1566197e-09
C1X040,東原,2025-06-06,23.291597,120.463822,5.6446318e-08
C0R660,枋寮,2025-06-06,22.367722,120.590647,0.017231906
C1R120,上德文,2025-06-06,22.763272,120.704442,1.1377871e-08
C0K450,大埤,2025-06-06,23.646074,120.431537,5.564206e-06
C0UA00,土場,2025-06-06,24.576533,121.495333,1.0707294e-08
467080,宜蘭,2025-06-06,24.763975,121.756528,1.9602773e-08
C0N030,四草,2025-06-06,23.0235,120.1116,0.00015821958
467410,臺南,2025-06-06,22.99328,120.20492,0.0008840894
C0V650,彌陀,2025-06-06,22.783806,120.246361,0.00092875736
C0D660,新竹市東區,2025-06-06,24.798681,120.986942,4.001405e-09
82S580,茶改東部分場,2025-06-06,22.907694,121.130139,0.0028929256
C0SB40,興隆,2025-06-06,22.913661,121.257469,0.05847386
467050,新屋,2025-06-06,25.006725,121.047492,2.586987e-07
C0C710,大溪永福,2025-06-06,24.892936,121.324975,2.4992008e-09
C0FA20,溫寮,2025-06-06,24.372177,120.583125,4.3243414e-08
C0V640,湖內,2025-06-06,22.887139,120.2445,0.00066125393
C0R910,下寮,2025-06-06,22.3929,120.5548,0.01721762
C0Z020,明里,2025-06-06,23.208717,121.262342,7.61275e-09
C0M770,嘉義梅山,2025-06-06,23.585398,120.555587,1.1350013e-07
C0C660,楊梅,2025-06-06,24.912375,121.143047,2.5999873e-09
C1E511,新開,2025-06-06,24.347703,120.827019,1.6678683e-09
G2F820,農試所(霧峰),2025-06-06,24.031261,120.688133,2.1802617e-09
C1I070,和社,2025-06-06,23.591131,120.888861,7.7428055e-08
C2F000,大肚,2025-06-06,24.15295,120.572117,1.0892637e-09
C1S850,豐南,2025-06-06,23.122139,121.262389,7.0689268e-09
C2A920,富貴角,2025-06-06,25.263783,121.565258,4.5896485e-08
CAH030,茶改場竹圍站,2025-06-06,23.860083,120.637528,4.567526e-09
C0T960,光復,2025-06-06,23.660694,121.424964,2.8524187e-07
C0F9M0,豐原,2025-06-06,24.254322,120.720692,2.0958375e-09
C0R720,旭海,2025-06-06,22.205403,120.887614,0.06337358
C0V710,苓雅,2025-06-06,22.622742,120.330669,0.0029299925
C0C740,觀音工業區,2025-06-06,25.064764,121.114856,3.97251e-06
CAC040,拉拉山,2025-06-06,24.699317,121.427133,9.897794e-09
C0V790,萬山,2025-06-06,22.905944,120.688056,0.00934027
U2HA30,臺大和社,2025-06-06,23.590856,120.888864,7.7428055e-08
C0AJ90,澳底,2025-06-06,25.0552,121.9253,1.4717939e-08
C0Z100,東華,2025-06-06,23.89525,121.549833,4.456246e-06
C0G970,三豐,2025-06-06,23.882,120.2895,0.004786892
V2K610,大庄合作社,2025-06-06,23.8068,120.367939,2.0678218e-07
C0V900,汕尾,2025-06-06,22.4782,120.4151,0.022961885
C1R630,龍泉,2025-06-06,22.66701,120.59091,0.99826574
C1AC50,關渡,2025-06-06,25.133486,121.469331,9.3718295e-09
C0F9I0,神岡,2025-06-06,24.272481,120.658314,1.153161e-09
C0K460,斗南,2025-06-06,23.678734,120.478359,3.7109603e-06
C2O810,曾文,2025-06-06,23.219681,120.497328,5.3733953e-07
467280,後龍,2025-06-06,24.648563,120.831834,4.442757e-09
C1F9J1,清水林,2025-06-06,24.071242,120.820419,2.2269304e-09
C2A650,火燒寮,2025-06-06,25.002719,121.742892,4.604201e-09
466930,竹子湖,2025-06-06,25.162078,121.544547,1.4955266e-09
C1I220,樟湖,2025-06-06,23.905333,120.846983,2.5026115e-09
C0I390,仁愛,2025-06-06,24.022122,121.132206,3.7845687e-09
C0Z300,東里,2025-06-06,23.26853,121.30547,1.078802e-08
C1V590,新發,2025-06-06,23.057019,120.646064,4.8864155e-07
C0K510,水林,2025-06-06,23.572924,120.24597,5.713157e-07
72S590,東改賓朗果園,2025-06-06,22.813889,121.071278,0.017990787
82A750,茶改北部分場,2025-06-06,24.955778,121.631222,3.1010292e-09
C1A750,石碇服務區,2025-06-06,25.00872,121.646242,7.1409256e-09
C0X300,鹿寮,2025-06-06,23.386047,120.477331,4.118052e-08
G2AI50,關渡,2025-06-06,25.11575,121.492,8.342718e-08
C0K590,雲林東勢,2025-06-06,23.674192,120.255721,1.8294308e-07
C0A570,桶後,2025-06-06,24.848222,121.597992,3.050525e-09
C1S800,華源,2025-06-06,22.657883,121.02325,0.11592569
C0G720,溪州,2025-06-06,23.851589,120.499093,1.0292925e-07
C1V160,達卡努瓦,2025-06-06,23.279811,120.705319,5.9832534e-09
C2M410,馬頭山,2025-06-06,23.324361,120.582017,7.958518e-09
C0V850,蚵仔寮,2025-06-06,22.7256,120.2527,0.0050702305
C0S740,池上,2025-06-06,23.119628,121.209469,8.369948e-05
C1V390,尖山,2025-06-06,22.813153,120.367789,0.015123809
C0AH70,松山,2025-06-06,25.04871,121.55042,9.5012025e-09
C0N010,鯤鯓國小,2025-06-06,23.1879,120.0889,6.12984e-05
C0R550,新埤,2025-06-06,22.467947,120.582894,0.020657312
C0SA60,知本（水試所）,2025-06-06,22.702394,121.082761,0.46303496
C0T9I0,豐濱,2025-06-06,23.583897,121.514806,8.6162885e-07
C0UB00,淡江大學蘭陽校園,2025-06-06,24.823239,121.730383,3.9875387e-09
C0W240,九宮,2025-06-06,24.423753,118.240186,0.0045891013
C0T9N0,富里,2025-06-06,23.171639,121.249378,9.0367786e-07
U2HA50,臺大竹山,2025-06-06,23.756972,120.681556,3.2266662e-08
C0V840,鳳鼻頭,2025-06-06,22.5083,120.3591,0.021317324
C0X140,西港,2025-06-06,23.125608,120.203108,5.8834088e-05
72D080,桃改五峰分場,2025-06-06,24.612194,121.157167,1.2978277e-09
C2H9P0,伊拿谷,2025-06-06,23.963211,121.088264,3.0304248e-09
C2H9F0,柑林,2025-06-06,24.018658,120.847072,3.1042189e-09
C0TA20,加灣,2025-06-06,24.082025,121.608944,1.5593103e-07
C0V530,阿蓮,2025-06-06,22.883208,120.327508,0.009915073
C1O880,關山,2025-06-06,23.173397,120.594092,1.2835616e-07
C0E791,卓蘭,2025-06-06,24.3126,120.8244,1.8112586e-09
C1I030,武界,2025-06-06,23.913225,121.052483,2.8922749e-09
C0R520,崁頂,2025-06-06,22.514781,120.506914,0.092811845
C0R341,牡丹,2025-06-06,22.130036,120.792639,0.074232206
C0R930,萬丹,2025-06-06,22.5885,120.4851,0.830885
C0S760,紅石,2025-06-06,23.069131,121.126219,4.211369e-08
C2C410,中央大學,2025-06-06,24.967652,121.185165,4.6851527e-09
C1M610,石磐龍,2025-06-06,23.496606,120.663506,3.0667666e-09
C0UA10,鴛鴦湖,2025-06-06,24.590269,121.412228,1.26003545e-08
V2C260,八德蔬果,2025-06-06,24.978508,121.281819,3.9621337e-09
C0R800,丹路,2025-06-06,22.204481,120.750989,0.009113977
C0G920,永靖,2025-06-06,23.924703,120.547533,1.14376855e-08
C2M950,太和,2025-06-06,23.538372,120.702961,3.1613352e-09
C1A630,下盆,2025-06-06,24.771003,121.538622,2.0466864e-09
B2N890,畜產試驗所,2025-06-06,23.058972,120.336406,0.00030314358
C0UA30,白嶺,2025-06-06,24.527819,121.519031,8.745708e-09
C1V580,溪南(特生中心),2025-06-06,23.084972,120.788475,4.186268e-09
C1T970,大農,2025-06-06,23.615233,121.413331,2.6396918e-07
C0R650,竹田,2025-06-06,22.58486,120.54344,0.2807418
C1H900,清流,2025-06-06,24.080775,120.962997,4.030935e-09
C1C510,水尾,2025-06-06,24.940081,121.087161,1.031938e-08
C0F9X0,大雅(中科園區),2025-06-06,24.21528,120.62445,1.0949628e-09
C0SB60,白守蓮,2025-06-06,23.126769,121.401914,0.2676479
C0O970,虎頭埤,2025-06-06,23.021375,120.347878,0.005735588
C0C730,中大臨海站,2025-06-06,24.966126,121.008581,3.8685263e-07
C0X250,新營,2025-06-06,23.310689,120.316681,5.6066847e-07
C0V700,三民,2025-06-06,22.645017,120.311233,0.0004957672
C0U870,大礁溪,2025-06-06,24.791042,121.675047,2.801493e-09
C0E870,高鐵苗栗,2025-06-06,24.60725,120.826094,3.6753287e-09
A2K570,古坑花卉中心,2025-06-06,23.63353,120.55239,3.5090366e-07
C0TA30,鹽寮,2025-06-06,23.845606,121.592664,7.909853e-06
C0M860,新美,2025-06-06,23.338017,120.683169,3.5515588e-09
C1E701,八卦,2025-06-06,24.491756,120.927619,1.8768593e-09
C0I420,國姓,2025-06-06,24.037803,120.855072,2.65149e-09
C2D720,關西工作站,2025-06-06,24.757275,121.184792,1.4024836e-09
C0S960,香蘭,2025-06-06,22.587569,120.993375,0.4914844
467620,蘭嶼,2025-06-06,22.0369,121.55843,0.7980989
C0R260,春日,2025-06-06,22.370361,120.628306,0.0070315674
72G600,臺中農改場,2025-06-06,24.003028,120.534389,2.228443e-09
C0Z210,瑞穗,2025-06-06,23.5239,121.39021,5.7785564e-07
C0M820,達邦,2025-06-06,23.453994,120.749517,3.1094456e-09
C0V860,南寮,2025-06-06,22.7616,120.2339,0.005022048
C0G740,大城,2025-06-06,23.852487,120.320935,0.005000208
C0R920,塭仔,2025-06-06,22.4169,120.5197,0.018810306
C0R470,高樹,2025-06-06,22.826389,120.600806,0.99908423
C0R680,佳樂水,2025-06-06,21.993578,120.861633,0.011913995
C1O870,大棟山,2025-06-06,23.31157,120.52226,4.5283173e-09
C0D360,梅花,2025-06-06,24.678347,121.208558,7.352621e-10
C0Z190,富世,2025-06-06,24.14743,121.6297,1.057928e-08
C0AI10,屈尺,2025-06-06,24.92184,121.54475,4.6767514e-09
B2U990,畜試東區分所,2025-06-06,24.669039,121.832561,8.623382e-09
C0SB80,長濱漁港,2025-06-06,23.313644,121.459994,2.8169904e-08
C0R240,來義,2025-06-06,22.527306,120.625111,0.1368167
C0V910,大樹,2025-06-06,22.684645,120.432803,0.9749512
C1R610,西大武山,2025-06-06,22.617719,120.7322,1.3444102e-08
C0G900,線西,2025-06-06,24.143358,120.443536,9.795402e-09
C0M700,竹崎,2025-06-06,23.526178,120.555508,3.7533216e-08
C2E880,三義,2025-06-06,24.405478,120.749819,1.2116436e-09
C0C720,竹圍,2025-06-06,25.112692,121.239824,8.2657884e-08
C0F9P0,清水,2025-06-06,24.312297,120.562242,2.1470258e-08
C0Z150,吉安光華,2025-06-06,23.930925,121.595153,6.781868e-05
467300,東吉島,2025-06-06,23.25727,119.66762,0.02286108
C1D640,外坪(五指山),2025-06-06,24.644447,121.090961,1.6337411e-09
C0F9O0,潭子,2025-06-06,24.213106,120.703933,2.1921374e-09
C2H9R0,卓社,2025-06-06,23.887894,121.000086,2.939206e-09
72T250,花蓮農改場,2025-06-06,23.975222,121.563889,3.0713352e-05
C0E780,銅鑼,2025-06-06,24.489681,120.790853,1.1402241e-09
C1T950,太安,2025-06-06,23.666719,121.370128,1.4747275e-08
C0E830,苑裡,2025-06-06,24.439714,120.653053,3.766373e-08
467270,田中,2025-06-06,23.873803,120.581286,4.544257e-08
C0SA10,檳榔四格山,2025-06-06,22.810031,121.109308,0.0031516533
C1T830,布洛灣,2025-06-06,24.17184,121.57127,1.3030886e-07
C0F970,大坑,2025-06-06,24.173142,120.722289,1.8868738e-09
C1U920,思源,2025-06-06,24.393125,121.347214,8.44162e-09
C0A931,三和,2025-06-06,25.233153,121.595236,5.272162e-09
C0I010,廬山,2025-06-06,24.033311,121.181808,6.505435e-09
C2M940,日野賀,2025-06-06,23.434056,120.727169,3.0385279e-09
C0R860,鼻頭,2025-06-06,22.1043,120.8979,0.00826215
C0UB20,壯圍,2025-06-06,24.7359,121.8163,8.21494e-09
C0R790,九棚,2025-06-06,22.14195,120.889281,0.21439554
C0W110,東莒,2025-06-06,25.9652,119.98069,0.08716834
C1U930,粉鳥林,2025-06-06,24.497088,121.842479,4.999322e-08
C1I211,蘆竹湳,2025-06-06,23.934019,120.811994,3.6916143e-09
C0S830,長濱,2025-06-06,23.286817,121.411975,3.927283e-09
C1F9F1,伯公龍,2025-06-06,24.272392,120.849047,1.8258859e-09
C0E810,西湖,2025-06-06,24.562947,120.7485,2.7693562e-07
C1I440,新高口,2025-06-06,23.478744,120.878939,8.024473e-09
C0O840,王爺宮,2025-06-06,23.222064,120.40085,4.154112e-08
C0T9G0,鳳林山,2025-06-06,23.735269,121.420131,2.4805479e-08
C0X080,佳里,2025-06-06,23.173039,120.145086,6.175198e-05
C0FB70,大甲溪埔,2025-06-06,24.370625,120.620067,2.5684923e-08
C0Z310,清水斷崖,2025-06-06,24.218294,121.689142,1.8225491e-09
C0M680,太保,2025-06-06,23.455062,120.331455,1.478584e-07
C1S820,金峰,2025-06-06,22.590969,120.933236,0.20014447
C0AD10,八里,2025-06-06,25.150211,121.403947,8.254917e-08
C2K240,草嶺,2025-06-06,23.59555,120.693461,2.5611482e-09
C1SA70,都蘭,2025-06-06,22.87794,121.226881,0.0586416
C0K440,二崙,2025-06-06,23.772797,120.408944,1.659336e-07
C1A760,坪林交控,2025-06-06,24.94284,121.713442,5.716932e-09
C0F9N0,大里,2025-06-06,24.092464,120.701378,2.283335e-09
C0SA90,達仁林場,2025-06-06,22.264347,120.823972,0.60575944
C1R290,石門山,2025-06-06,22.112611,120.756597,0.9752077
42HA10,萬大發電廠,2025-06-06,23.978875,121.139639,2.7012446e-09
C0R890,山海,2025-06-06,21.9878,120.7091,0.054647934
C0T9A0,月眉山,2025-06-06,23.809928,121.539828,1.9265236e-09
C0AC70,信義,2025-06-06,25.037822,121.564597,9.460443e-09
C0K560,棋山,2025-06-06,23.68645,120.603417,2.3370163e-07
C2FB50,出雲,2025-06-06,24.206469,120.902794,1.9021151e-09
C1Z240,中平林道,2025-06-06,23.42115,121.26763,4.667824e-08
U2H480,溪頭,2025-06-06,23.670306,120.798194,4.2181116e-09
C0M880,好美里,2025-06-06,23.3364,120.138,2.0211406e-05
C0T9E0,大坑,2025-06-06,23.880628,121.581981,4.85774e-09
C0K530,臺西,2025-06-06,23.701547,120.197559,2.5170417e-05
C1E900,國一N128K,2025-06-06,24.560997,120.844186,2.0516422e-09
C0AJ50,水湳洞,2025-06-06,25.123695,121.862238,2.2172554e-08
C0AI20,白沙灣,2025-06-06,25.283128,121.519058,4.1393383e-07
C2V310,美濃,2025-06-06,22.898792,120.51907,0.4167358
C0A860,大坪,2025-06-06,25.165914,121.632969,1.783984e-09
C1U850,觀音海岸,2025-06-06,24.38319,121.77856,1.4041591e-09
C2K610,草嶺石壁,2025-06-06,23.602469,120.707731,2.5420703e-09
C0U950,鶯子嶺,2025-06-06,24.89754,121.79244,4.4155546e-09
C0O900,善化,2025-06-06,23.112883,120.297219,0.000448256
C0K550,蔦松,2025-06-06,23.514319,120.229736,1.0731061e-06
E2P980,林試六龜中心,2025-06-06,22.991703,120.645722,0.001046128
C0E590,通霄,2025-06-06,24.471892,120.704622,1.7473672e-05
C1I310,西巒,2025-06-06,23.754486,120.883956,3.916048e-09
C0A550,泰平,2025-06-06,24.971197,121.823711,2.9718623e-09
C0I360,水里,2025-06-06,23.812553,120.849792,1.363047e-08
C0R830,高士,2025-06-06,22.121825,120.836781,0.9851989
C1I101,溪頭,2025-06-06,23.661789,120.807647,7.484968e-09
C0AJ20,野柳,2025-06-06,25.20703,121.690021,1.8781602e-08
C0B060,暖暖,2025-06-06,25.0957,121.7403,6.5654424e-09
C1H920,長豐,2025-06-06,24.102039,120.879897,4.127935e-09
C0V360,內門,2025-06-06,22.975481,120.466769,0.99443793
C0R850,林邊,2025-06-06,22.4634,120.5339,0.02159951
C0E930,龍鳳,2025-06-06,24.700034,120.859125,3.7937927e-08
C0U910,冬山,2025-06-06,24.63373,121.7937,8.623382e-09
C1E721,泰安,2025-06-06,24.489017,120.968036,4.4897455e-09
82H320,茶改中部分場,2025-06-06,23.875611,120.913583,4.348209e-09
C0M750,布袋,2025-06-06,23.380878,120.167789,2.0465154e-06
C1S860,利嘉,2025-06-06,22.809417,121.050528,4.4037606e-07
E2S980,林試太麻里1,2025-06-06,22.598922,120.980044,0.4463213
C0X170,關廟,2025-06-06,22.963017,120.327797,0.07972076
C0V720,林園,2025-06-06,22.507747,120.394511,0.28040347
C1I510,線浸林道,2025-06-06,23.761508,120.832956,2.4192197e-09
C0D690,外湖,2025-06-06,24.917735,120.968711,3.0731155e-08
C0C750,新興坑尾,2025-06-06,25.0061,121.0971,1.228564e-07
B2Q810,畜試南區分所,2025-06-06,21.945583,120.802167,0.011500655
C0S790,金崙,2025-06-06,22.538122,120.966875,0.4189584
C0AH90,福山植物園,2025-06-06,24.760717,121.58135,3.6067103e-09
C0I540,奇萊稜線,2025-06-06,24.109231,121.326456,1.9787556e-08
C0M850,表湖,2025-06-06,23.24186,120.64166,3.4022045e-09
C0S770,大溪山,2025-06-06,22.478475,120.943325,0.19725098
C0AG80,中和,2025-06-06,24.991622,121.491792,8.89576e-09
C0T790,大禹嶺,2025-06-06,24.186117,121.316086,1.0608094e-08
C0T9B0,水源,2025-06-06,23.991861,121.537169,7.0672854e-08
C0R840,牡丹池山,2025-06-06,22.168389,120.841225,0.5777754
C1I131,桶頭,2025-06-06,23.641944,120.654117,1.4839146e-08
CAL110,布袋國中,2025-06-06,23.35893,120.18026,3.4141947e-06
467571,新竹,2025-06-06,24.827853,121.014219,6.8915047e-09
C0Z290,赤柯山,2025-06-06,23.36893,121.38293,1.6795916e-08
C0X280,將軍,2025-06-06,23.214999,120.13577,4.2124477e-05
C0S690,太麻里,2025-06-06,22.60902,120.98533,2.5190053e-08
C0U880,北關,2025-06-06,24.9072,121.8734,9.873527e-09
C0G810,埔心,2025-06-06,23.947633,120.525456,1.16535785e-08
C0U970,大福,2025-06-06,24.80064,121.81389,2.093693e-08
C2H9N0,仁愛東眼,2025-06-06,24.026875,121.1205,6.184791e-09
C1E670,南礦,2025-06-06,24.538278,121.002836,3.1476473e-09
C0M520,東後寮,2025-06-06,23.369908,120.248065,2.8623044e-06
C1E461,松安,2025-06-06,24.397972,120.986022,4.2342654e-09
C2N160,西拉雅風管處,2025-06-06,23.189481,120.335297,6.9375807e-07
C2M970,碧湖,2025-06-06,23.568632,120.624165,2.721143e-09
C0A640,石碇,2025-06-06,24.993969,121.662917,4.8885522e-09
E2S960,林試太麻里2,2025-06-06,22.598,120.99775,0.46333402
C0F9Y0,桃山,2025-06-06,24.432739,121.303808,2.1470177e-08
C1I020,萬大,2025-06-06,23.979817,121.132261,3.775189e-09
C0U940,羅東,2025-06-06,24.68184,121.74934,7.485796e-09
C0M650,朴子,2025-06-06,23.43463,120.23902,3.814348e-07
C1I500,大尖山,2025-06-06,23.858572,120.994889,4.785092e-09
C0G820,田尾,2025-06-06,23.901669,120.509389,1.1518667e-08
E2K600,四湖植物園,2025-06-06,23.676986,120.163433,3.6178142e-05
C0S730,綠島,2025-06-06,22.6672,121.47533,0.4223482
12Q970,東港工作站,2025-06-06,22.479997,120.466058,0.022906223
C0E430,南庄,2025-06-06,24.601775,121.000214,1.2346011e-09
C1TA00,太魯閣,2025-06-06,24.15773,121.6236,6.9977073e-09
466920,臺北,2025-06-06,25.037658,121.514853,9.5012025e-09
C0R600,舊泰武,2025-06-06,22.588194,120.664944,7.470511e-06
C1I260,北坑,2025-06-06,23.9246,121.006903,3.2753333e-09
466910,鞍部,2025-06-06,25.182586,121.529731,2.0903044e-09
C1I230,九份二山,2025-06-06,23.961944,120.845,3.5297998e-09
C2A660,瑞芳,2025-06-06,25.113169,121.801147,1.32123645e-08
C0R270,琉球嶼,2025-06-06,22.332244,120.362236,6.521516e-05
C1T990,高寮,2025-06-06,23.394239,121.356808,2.3443464e-08
C0G620,芬園,2025-06-06,24.015678,120.6213,1.4995684e-09
C1Z140,荖溪,2025-06-06,23.890575,121.45964,6.536831e-08
C1I201,中心崙,2025-06-06,23.728722,120.712097,2.886703e-09
C1I400,凌霄,2025-06-06,24.018778,121.004456,6.1588694e-09
C1M640,十字,2025-06-06,23.492153,120.753683,7.746081e-09
G2P820,農試鳳山分所,2025-06-06,22.646611,120.356083,0.0004522288
C0Z270,蕃薯寮,2025-06-06,23.73835,121.540108,3.326849e-09
C0F9Q0,外埔,2025-06-06,24.347817,120.705686,1.4067647e-09
C0K580,高鐵雲林,2025-06-06,23.737456,120.417944,5.349519e-07
C2I090,鳳凰,2025-06-06,23.728081,120.787347,4.176355e-09
C0U990,員山,2025-06-06,24.74435,121.72247,7.883792e-09
C0V770,大社,2025-06-06,22.730306,120.346639,0.0053316695
C0X120,麻豆,2025-06-06,23.183289,120.248611,2.1999072e-05
C0C670,龍潭,2025-06-06,24.870056,121.221389,1.679424e-09
C0D680,香山濕地,2025-06-06,24.783581,120.914988,5.7330927e-09
C0S980,勝林山,2025-06-06,22.430439,120.8938,4.4346397e-08
C0V730,大寮,2025-06-06,22.605614,120.395717,0.121630795
C0R570,麟洛,2025-06-06,22.65078,120.52719,0.97770786
C2M930,石卓,2025-06-06,23.478744,120.702264,8.580314e-09
C0G9B0,和美,2025-06-06,24.105169,120.492131,7.875376e-09
CAG100,王功漁港,2025-06-06,23.96824,120.32586,0.0055772243
C0X290,北門,2025-06-06,23.267772,120.125481,4.2458894e-05
C2F930,大甲,2025-06-06,24.347667,120.640403,9.906784e-09
C0D650,湖口,2025-06-06,24.904794,121.043628,1.094074e-08
C0E420,竹南,2025-06-06,24.708978,120.888897,2.4349138e-08
C0U780,五結,2025-06-06,24.68637,121.79794,8.153234e-09
C1I250,鯉潭,2025-06-06,23.961922,120.991131,4.904766e-09
C0R130,阿禮,2025-06-06,22.742908,120.743678,4.7618025e-09
C0X100,臺南市北區,2025-06-06,23.010394,120.194228,0.001076148
C0S920,金峰嘉蘭,2025-06-06,22.594789,120.960825,0.38789994
C0V490,新興,2025-06-06,22.627422,120.298803,0.0029161228
C0F9K0,大安,2025-06-06,24.345061,120.588025,3.1313554e-08
467290,古坑,2025-06-06,23.633639,120.551889,3.5090366e-07
C2E970,八甲,2025-06-06,24.535811,120.795983,1.302152e-09
C0V440,鳳山,2025-06-06,22.646653,120.356122,0.0004522288
C1T940,大觀,2025-06-06,23.714206,121.373133,1.8237593e-09
C0E740,造橋,2025-06-06,24.637056,120.864778,4.8196425e-09
C0R100,尾寮山,2025-06-06,22.833111,120.683889,5.776394e-09
A2K630,臺大雲林校區,2025-06-06,23.730628,120.423903,5.306679e-07
467990,馬祖,2025-06-06,26.169467,119.923158,0.2955934
C0D580,寶山,2025-06-06,24.735006,121.025192,1.6174045e-09
E2P990,林試扇平站,2025-06-06,22.9677,120.6857,4.9176622e-05
C0AI30,三重,2025-06-06,25.057328,121.500629,1.02924504e-08
C0AH00,汐止,2025-06-06,25.066881,121.658778,9.5012025e-09
C1Z040,立山,2025-06-06,23.443356,121.327375,6.796176e-09
466881,新北,2025-06-06,24.959207,121.525196,8.0713365e-09
C0W130,花嶼,2025-06-06,23.40007,119.32276,0.026204774
C0A950,鼻頭角,2025-06-06,25.129036,121.923372,8.7784065e-05
C0K470,林內,2025-06-06,23.748675,120.609642,9.537482e-08
C2F990,摩天嶺,2025-06-06,24.322458,120.936819,2.1829165e-09
82C160,茶改場,2025-06-06,24.908472,121.185333,2.3242965e-09
C0Z320,清水林道,2025-06-06,23.27125,121.188272,3.841508e-08
C0R760,南仁湖,2025-06-06,22.084681,120.863353,0.9752786
C0M670,大林,2025-06-06,23.600616,120.45841,4.7519333e-07
C0M800,茶山,2025-06-06,23.299075,120.664767,6.8166486e-09
C0A9C0,天母,2025-06-06,25.117494,121.537169,1.842153e-08
72K220,南改斗南分場,2025-06-06,23.634556,120.477333,3.7255695e-06
72AI40,桃改樹林分場,2025-06-06,24.944503,121.386972,4.184823e-09
C0S910,蘭嶼燈塔,2025-06-06,22.081197,121.503117,0.1951126
C0B050,八斗子,2025-06-06,25.144754,121.79167,2.552868e-08
C0U900,內城,2025-06-06,24.71813,121.68766,6.5137287e-09
C0X320,柳營,2025-06-06,23.253328,120.375253,1.1894598e-07
C0M790,新港,2025-06-06,23.553269,120.345728,1.284213e-07
C0F9T0,西屯,2025-06-06,24.179494,120.641275,9.657227e-10
C0SA30,都歷,2025-06-06,23.020333,121.323642,0.008388308
C0C620,蘆竹,2025-06-06,25.084275,121.265767,1.5630474e-07
C0R730,大坪頂,2025-06-06,22.024633,120.69355,0.1575191
C0AJ40,石門,2025-06-06,25.273672,121.601198,7.545202e-08
C0E750,苗栗,2025-06-06,24.564569,120.824575,2.1662883e-09
C0T870,鯉魚潭,2025-06-06,23.935639,121.508944,1.8032626e-06
C1V170,排雲,2025-06-06,23.463619,120.954147,1.6790919e-08
C2H950,中寮,2025-06-06,23.884447,120.766406,4.3391037e-09
C0R350,貓鼻頭,2025-06-06,21.921774,120.7358,0.42319006
C0V660,岡山,2025-06-06,22.797078,120.294958,0.00093481696
C1H941,雙冬,2025-06-06,23.967378,120.802189,3.130822e-09
C0AJ70,田寮,2025-06-06,25.2698,121.4886,4.3558478e-07
C0AI00,五股,2025-06-06,25.07445,121.42728,4.7540163e-09
C0Z280,德武,2025-06-06,23.47426,121.41071,2.6210053e-08
C0R700,枋山,2025-06-06,22.246844,120.661086,0.025434017
C0C460,復興,2025-06-06,24.820208,121.352281,1.3319591e-09
E2H360,蓮華池,2025-06-06,23.918333,120.885278,2.6519855e-09
C0M640,中埔,2025-06-06,23.42538,120.5229,1.9080717e-08
C0W140,金沙,2025-06-06,24.488292,118.408778,0.067614675
C2A540,四堵,2025-06-06,24.8926,121.745736,2.2068625e-09
C0ACA0,新莊,2025-06-06,25.051478,121.446756,1.328575e-08
C0R220,潮州,2025-06-06,22.534361,120.54,0.09452705
U2HA40,臺大內茅埔,2025-06-06,23.689722,120.851117,6.510912e-08
467490,臺中,2025-06-06,24.145736,120.684075,1.9519413e-09
C0U960,翠峰湖,2025-06-06,24.510856,121.608044,1.4195415e-08
E2HA20,林試畢祿溪站,2025-06-06,24.226944,121.308522,9.772858e-09
C0V890,前鎮,2025-06-06,22.5718,120.3117,0.0033421142
C1F941,雪嶺,2025-06-06,24.280586,121.026642,1.4965805e-08
C2H9E0,國姓南港,2025-06-06,23.911108,120.846556,2.5101026e-09
C0AC80,文山,2025-06-06,25.00235,121.575728,7.2032225e-09
C0F9R0,龍井,2025-06-06,24.184536,120.528972,2.1789656e-08
C0M760,民雄,2025-06-06,23.551754,120.428457,5.2180775e-07
C0UA40,西德山,2025-06-06,24.560647,121.752608,7.1499753e-09
C1T920,中興,2025-06-06,23.769503,121.498653,1.3505186e-07
C0D550,雪霸,2025-06-06,24.526972,121.11605,9.589557e-09
C2F860,梨山,2025-06-06,24.247522,121.243669,1.0082313e-08
C0R320,車城,2025-06-06,22.0744,120.716247,0.035278462
C1S870,南美山,2025-06-06,23.15025,121.382333,1.3972945e-06
C0B020,基隆嶼,2025-06-06,25.19141,121.78391,0.000119418866
C1U501,牛鬥,2025-06-06,24.637836,121.573656,3.908675e-09
C0M730,嘉義市東區,2025-06-06,23.457673,120.460531,6.832102e-08
C0S700,知本,2025-06-06,22.684866,121.005642,2.4705766e-06
C1N001,沙崙,2025-06-06,22.935472,120.309406,0.07697142
C0V760,橋頭,2025-06-06,22.757806,120.30575,0.0052064974
C0G960,福寶,2025-06-06,24.0443,120.3814,9.833946e-09
C0X210,白河,2025-06-06,23.347466,120.414427,4.296995e-08
C0S810,東河,2025-06-06,22.972672,121.303986,0.02946013
C2R170,屏東,2025-06-06,22.66027,120.49403,0.9776407
C0R670,楓港,2025-06-06,22.190131,120.692156,0.021505913
C0FA50,霧峰,2025-06-06,24.0419,120.6995,1.9957127e-09
C0UB10,蘇澳,2025-06-06,24.5969,121.8571,1.4956216e-08
C0G950,防潮門,2025-06-06,24.1835,120.4871,2.2040746e-08
C0M740,六腳,2025-06-06,23.492871,120.290625,2.532203e-07
C1R250,力里,2025-06-06,22.428117,120.629228,0.007079475
C0K330,虎尾,2025-06-06,23.719183,120.442036,4.8114566e-07
C2FA00,烏石坑,2025-06-06,24.273503,120.947617,2.1812516e-09
C0V620,永安,2025-06-06,22.82315,120.236856,0.00092875736
C1I330,楓樹林,2025-06-06,23.986803,121.076117,3.7311e-09
C0W200,湖西,2025-06-06,23.596314,119.67275,0.023506524
72Q010,高雄農改場,2025-06-06,22.709333,120.525889,0.9975698
C0SA40,瑞和,2025-06-06,22.974361,121.156697,0.0005048366
C0C680,龜山,2025-06-06,25.02846,121.38656,6.6755907e-09
C2V260,月眉,2025-06-06,22.971003,120.539853,0.99657476
C0V450,鳳森,2025-06-06,22.545064,120.392592,0.2926731
C0U720,南山,2025-06-06,24.43742,121.38167,2.180242e-08
A2N290,臺南蘭花園區,2025-06-06,23.340258,120.379661,4.9651117e-08
C0R560,新園,2025-06-06,22.5434,120.461558,0.28040347
C0U890,三星,2025-06-06,24.66812,121.65302,1.0905156e-08
C1V300,御油山,2025-06-06,23.001983,120.715364,3.9296806e-09
C0U600,礁溪,2025-06-06,24.817539,121.765608,2.3152536e-08
C1T980,龍澗,2025-06-06,24.023289,121.411328,4.0010864e-08
C0D670,海天一線,2025-06-06,24.831986,120.914438,0.34974685
C0SA00,歷坵,2025-06-06,22.520969,120.89185,0.0006380977
C0M710,東石,2025-06-06,23.458927,120.15385,1.900883e-06
C0M780,鹿草,2025-06-06,23.41134,120.30835,3.001684e-07
C0U520,雙連埤,2025-06-06,24.753033,121.641303,2.7977711e-09
C0B010,七堵,2025-06-06,25.094819,121.71713,8.904248e-09
C0R480,長治,2025-06-06,22.693128,120.542622,0.9816398
C1V830,國三S383K,2025-06-06,22.781967,120.426475,0.9978442
12Q980,恆春工作站,2025-06-06,22.079678,120.714425,0.03539309
C1O940,東山服務區,2025-06-06,23.286016,120.398472,3.531189e-08
C1U840,東澳嶺,2025-06-06,24.5378,121.8485,2.3383033e-09
C1D630,飛鳳山,2025-06-06,24.766464,121.119178,1.1601611e-09
C0S940,石寧山,2025-06-06,23.223772,121.406639,1.7094516e-08
C0K410,北港,2025-06-06,23.573957,120.292802,4.3666907e-07
C2M620,瑞里,2025-06-06,23.545133,120.675197,3.0233123e-09
C0SB70,小港漁港,2025-06-06,23.158558,121.400431,0.0020585398
C2O950,安南,2025-06-06,23.076694,120.144861,0.00031146838
C0F0E0,南湖圈谷,2025-06-06,24.363714,121.444667,3.4794013e-08
467610,成功,2025-06-06,23.097486,121.373428,0.22116973
C0G890,伸港,2025-06-06,24.148933,120.484403,9.750367e-09
C2E540,龍溪,2025-06-06,24.606489,120.783933,3.95924e-09
C1V200,梅山,2025-06-06,23.268447,120.823556,7.485785e-08
C0T9H0,加路蘭山,2025-06-06,23.682947,121.5274,2.483374e-08
C2O930,玉井,2025-06-06,23.126042,120.46055,0.00012927434
C1F911,新伯公,2025-06-06,24.221361,120.841069,1.934525e-09
C0R490,九如,2025-06-06,22.7405,120.490503,0.997416
C0X200,左鎮,2025-06-06,23.056758,120.408522,0.0013331166
C0SB50,叭嗡嗡,2025-06-06,23.047062,121.343223,0.40320423
C1F891,稍來,2025-06-06,24.265689,121.001142,9.882854e-09
72N240,七股研究中心,2025-06-06,23.081672,120.062894,9.599645e-05
C0C700,中壢,2025-06-06,24.977661,121.256375,3.6066345e-09
C0M690,水上,2025-06-06,23.419734,120.388909,1.3152491e-07
C0V690,鼓山,2025-06-06,22.623325,120.275575,0.002910725
C0O860,大內,2025-06-06,23.11885,120.36083,0.00032573228
C0Z200,萬榮,2025-06-06,23.709219,121.420106,1.8306329e-08
C0T9D0,和中,2025-06-06,24.26676,121.74103,1.5378991e-07
C1O921,楠西,2025-06-06,23.183511,120.484083,1.3832695e-06
C0AJ30,淡水觀海,2025-06-06,25.184591,121.408616,4.9046275e-08
C0V810,左營,2025-06-06,22.67491,120.28491,0.0004958655
C0UA70,桃源谷,2025-06-06,24.962606,121.888875,5.869586e-09
C0X130,官田,2025-06-06,23.193217,120.315422,7.7186144e-07
C1H000,翠峰,2025-06-06,24.109397,121.205211,8.450287e-09
C0UA90,石城,2025-06-06,24.980444,121.951214,1.01777795e-08
C1E681,南勢山,2025-06-06,24.421669,120.923831,1.209833e-09
C0A9F0,內湖,2025-06-06,25.079422,121.57545,9.5012025e-09
C0K291,宜梧,2025-06-06,23.536281,120.169329,1.0810812e-06
C1K540,口湖,2025-06-06,23.585344,120.180517,4.7988968e-05
C0R780,滿州,2025-06-06,22.024403,120.839892,0.0056084488
C0V870,文安,2025-06-06,22.8025,120.2164,0.00092873257
C0U650,玉蘭,2025-06-06,24.675286,121.587061,3.5605119e-09
C0R640,東港,2025-06-06,22.46247,120.44074,0.022924948
C0AJ80,板橋,2025-06-06,25.0107,121.4489,9.169235e-09
C0S660,下馬,2025-06-06,23.150427,121.070312,3.3094466e-08
C1H9B1,阿眉,2025-06-06,24.1263,120.994672,1.0688175e-08
C0UA20,多加屯,2025-06-06,24.368614,121.373189,1.014998e-08
C0E730,頭份,2025-06-06,24.688247,120.912206,2.7212536e-08
72V140,高改旗南分場,2025-06-06,22.857861,120.516667,0.9984995
C0K480,莿桐,2025-06-06,23.761192,120.502372,7.142414e-08
C0U980,坪林石牌,2025-06-06,24.86478,121.77396,3.3812508e-09
C0T900,西林,2025-06-06,23.8119,121.441458,2.7519185e-08
C1I150,青雲,2025-06-06,23.793361,120.949378,9.589118e-09
467350,澎湖,2025-06-06,23.565503,119.563094,0.016001076
C0G800,埔鹽,2025-06-06,24.000394,120.431683,3.5453816e-08
C0H960,草屯,2025-06-06,23.973672,120.68085,1.7720195e-09
C1V780,多納林道,2025-06-06,22.888028,120.737917,1.2560858e-08
C0E920,通霄漁港,2025-06-06,24.498589,120.673876,0.00045866586
C0Z330,安通山,2025-06-06,23.290728,121.348528,2.0146824e-09
C0AH10,永和,2025-06-06,25.01125,121.508111,9.168955e-09
C0AK10,太平里,2025-06-06,25.134937,121.364899,7.6621944e-08
C2G640,鹿港,2025-06-06,24.0753,120.430481,9.828864e-09
C1E890,國三N149K,2025-06-06,24.463414,120.680019,2.5847445e-08
C1R110,口社,2025-06-06,22.770111,120.645222,0.9981695
C1M870,國三N285K,2025-06-06,23.550319,120.505833,3.2581636e-07
C1E480,鳳美,2025-06-06,24.554803,121.034747,1.8578542e-09
C0M530,奮起湖,2025-06-06,23.493903,120.699253,3.1894558e-09
C0C590,觀音,2025-06-06,25.027072,121.153317,6.905843e-07
C0T9M0,靜浦,2025-06-06,23.455167,121.495028,1.7893782e-07
C2H9M0,發祥,2025-06-06,24.154094,121.164517,6.7129253e-09
C0AI40,石牌,2025-06-06,25.115597,121.513139,1.9105553e-08
C1F871,上谷關,2025-06-06,24.203483,121.018644,1.8539462e-09
C2H9G0,百勝,2025-06-06,24.051142,120.909361,2.5394147e-09
C0G880,二水,2025-06-06,23.810742,120.6173,3.5317143e-08
C0R940,加祿堂,2025-06-06,22.3363,120.6217,0.11088657
C0W220,北竿,2025-06-06,26.220358,119.974881,0.0057756444
C0O960,崎頂,2025-06-06,22.959547,120.369317,0.09830182
C0S750,向陽,2025-06-06,23.248397,120.986133,5.486072e-09
C0T9F0,水璉,2025-06-06,23.797131,121.542514,7.8534015e-09
C1M600,頭凍,2025-06-06,23.406364,120.603339,4.1186077e-09
467660,臺東,2025-06-06,22.752211,121.154586,0.11304706
C1D380,新埔,2025-06-06,24.84745,121.03834,4.947337e-09
C2G980,田頭村,2025-06-06,23.8263,120.444175,1.6587316e-07
C0V750,路竹,2025-06-06,22.854997,120.259439,0.00035302862
C0N050,蚵寮,2025-06-06,23.301,120.1104,2.0228337e-05
72M700,南改鹿草分場,2025-06-06,23.416869,120.283061,3.8144609e-07
C1SA50,利嘉林道,2025-06-06,22.82325,121.009389,1.2196783e-08
C0A940,金山,2025-06-06,25.223628,121.643967,1.6549876e-08
C1V340,大津,2025-06-06,22.888322,120.645986,0.99742985
C0W180,七美,2025-06-06,23.219333,119.444892,0.015983311
C1F9C1,白冷,2025-06-06,24.182844,120.929889,1.2965338e-09
K2E710,苗改生物防治研究中心,2025-06-06,24.422861,120.871833,1.4944773e-09
C0N040,蘆竹溝,2025-06-06,23.2344,120.0961,4.245205e-05
C2W230,畜試所澎湖,2025-06-06,23.628342,119.513206,0.028609667
C0R880,後壁湖,2025-06-06,21.9457,120.7457,0.056848038
C1I280,埔中,2025-06-06,23.820778,120.642594,7.770705e-09
467790,墾丁雷達站,2025-06-06,21.948235,120.808028,0.01428705
C0W190,望安,2025-06-06,23.380564,119.494075,0.014962363
C0Z170,卓溪,2025-06-06,23.3443,121.3029,1.128851e-08
C0F850,東勢,2025-06-06,24.246428,120.833047,1.45838e-09
466900,淡水,2025-06-06,25.164889,121.448906,7.634725e-08
C0I370,魚池,2025-06-06,23.895703,120.94135,2.9992124e-09
C0C630,大溪,2025-06-06,24.882853,121.265547,1.736099e-09
C0A520,山佳,2025-06-06,24.974944,121.402008,4.7926823e-09
C0I110,竹山,2025-06-06,23.761225,120.688156,1.5435864e-08
82H840,茶改南部分場,2025-06-06,23.762528,120.7405,4.131795e-09
C0G660,溪湖,2025-06-06,23.94835,120.479122,1.31249065e-08
C1T800,洛韶,2025-06-06,24.204558,121.453956,1.6398705e-08
C1T810,慈恩,2025-06-06,24.192044,121.388386,7.3138384e-09
C1E451,象鼻,2025-06-06,24.368617,120.940228,1.1975321e-09
C0AC60,三峽,2025-06-06,24.939025,121.369728,3.271812e-09
C0I490,萬大林道,2025-06-06,23.928228,121.091411,5.2064077e-09
C1I290,豐丘,2025-06-06,23.668178,120.887417,3.1522613e-09
C1I320,奧萬大,2025-06-06,23.952956,121.178556,2.788129e-09
C2M910,嘉義大學,2025-06-06,23.471325,120.485903,6.186033e-08
C0U770,南澳,2025-06-06,24.44935,121.81022,4.096194e-09
C0A980,社子,2025-06-06,25.109508,121.469681,8.9331195e-08
C0V800,六龜,2025-06-06,22.997889,120.633583,0.0023800137
C1G9D0,國一S218K,2025-06-06,23.890641,120.493253,6.496931e-08
C0E570,白沙屯,2025-06-06,24.549447,120.696803,6.6589155e-07
C2F9A0,中竹林,2025-06-06,24.103556,120.751061,1.7273297e-09
C0FA40,臺中電廠,2025-06-06,24.2146,120.4907,2.178791e-08
C2G9A0,畜試所彰化,2025-06-06,23.86045,120.557964,4.542784e-08
C0H9C0,合歡山,2025-06-06,24.143442,121.272547,1.8954667e-08
C0X060,下營,2025-06-06,23.22695,120.256261,8.891623e-06
G2M350,農試溪口農場,2025-06-06,23.58565,120.408111,7.684395e-07
C0U860,頭城,2025-06-06,24.85323,121.8308,2.4963578e-08
C0R580,南州,2025-06-06,22.48591,120.50274,0.022924948
C0D430,峨眉,2025-06-06,24.6905,121.017189,1.7943307e-09
C0G780,秀水,2025-06-06,24.03405,120.503869,2.2288682e-09
72N100,臺南農改場,2025-06-06,23.0605,120.342194,0.00030398957
C0S900,蘭嶼高中,2025-06-06,22.04909,121.51214,0.5388082
C1F9W0,德基,2025-06-06,24.254783,121.190261,9.684384e-09
C1Z120,壽豐,2025-06-06,23.870853,121.508081,4.456246e-06
C0W160,烏坵,2025-06-06,24.9944,119.44956,0.33558363
C1I240,外大坪,2025-06-06,23.958697,120.917931,4.562902e-09
C1I550,國六W023K,2025-06-06,23.979067,120.867742,2.3192657e-09
C0R870,興海,2025-06-06,21.9752,120.8439,0.011605154
C0R140,瑪家,2025-06-06,22.682903,120.686639,2.3828858e-05
C0A530,坪林,2025-06-06,24.938183,121.70975,4.584292e-09
C0X260,後壁,2025-06-06,23.366358,120.362326,8.089973e-08
C0Z230,和平,2025-06-06,24.30717,121.77007,1.9874786e-07
C0G770,福興,2025-06-06,24.041289,120.437669,3.5679104e-08
C0H9A0,神木村,2025-06-06,23.532742,120.843667,6.9428268e-09
C0I460,南投,2025-06-06,23.911469,120.687331,8.4847835e-09
C0I480,梅峰,2025-06-06,24.085272,121.173572,6.5601475e-09
C1V570,吉東,2025-06-06,22.85422,120.5454,0.9986463
C2D740,屯原,2025-06-06,24.067969,121.209389,5.2229185e-09
C2A560,福山,2025-06-06,24.776203,121.502811,2.7170668e-09
C0AH30,五分山,2025-06-06,25.07125,121.780794,2.776327e-09
C0FA10,松柏,2025-06-06,24.429115,120.617482,5.388334e-08
72S200,東改班鳩分場,2025-06-06,22.829528,121.077694,0.064962395
72HA00,中改埔里分場,2025-06-06,23.903208,120.963364,2.896001e-09
C2H9W0,大坪頂農水,2025-06-06,24.043122,120.932781,4.1212718e-09
C0C650,平鎮,2025-06-06,24.897503,121.214636,2.0333168e-09
C0S930,延平,2025-06-06,22.902581,121.084058,0.0008116428
C0UA60,樟樹山,2025-06-06,24.41393,121.78325,5.521775e-09
C1S670,摩天,2025-06-06,23.199503,121.027,3.792975e-08
C0V630,茄萣,2025-06-06,22.906642,120.182608,0.0006939192
466940,基隆,2025-06-06,25.133314,121.740475,2.4822896e-08
C0X050,東河,2025-06-06,23.296598,120.385608,4.960483e-08
C0R770,保力,2025-06-06,22.071122,120.764111,0.047706023
G2L020,農試嘉義分所,2025-06-06,23.485028,120.473806,1.457479e-07
C0X240,關子嶺,2025-06-06,23.331169,120.508025,2.928976e-09
C0I380,集集,2025-06-06,23.828206,120.801467,1.4940934e-08
466990,花蓮,2025-06-06,23.975128,121.613275,5.776006e-05
C1V220,小關山,2025-06-06,23.154217,120.813603,3.8500003e-09
C1F9G1,慶福山,2025-06-06,24.180853,120.848378,1.3305803e-09
C0Z250,瑞穗林道,2025-06-06,23.49284,121.30688,5.918153e-08
C0D590,新豐,2025-06-06,24.87068,120.97721,0.088011205
C0A870,五指山,2025-06-06,25.132153,121.608692,1.5067647e-09
C0UA50,西帽山,2025-06-06,24.555361,121.802628,4.046071e-09
C0X160,仁德,2025-06-06,22.968258,120.257689,0.0046267463
C1H971,六分寮,2025-06-06,23.92507,120.6378,1.7853489e-09
C0W120,西嶼,2025-06-06,23.5626,119.468436,0.02181585
C0G650,員林,2025-06-06,23.946503,120.585597,3.7418184e-09
C0AD50,鶯歌,2025-06-06,24.951533,121.346294,3.0148473e-09
C2H9Q0,北東眼山,2025-06-06,24.120939,121.189303,7.831517e-09
C2H9T0,名間竹圍,2025-06-06,23.859914,120.637572,4.5678656e-09
C0S990,山豬窟,2025-06-06,22.318619,120.857372,0.8420289
C0X190,安平,2025-06-06,22.993161,120.152181,0.0010791468
C0K400,斗六,2025-06-06,23.720583,120.541127,2.5946986e-07
12J990,口湖工作站,2025-06-06,23.589978,120.180394,4.7587393e-05
C0O830,北寮,2025-06-06,23.079561,120.495008,0.99854165
C1D410,白蘭,2025-06-06,24.579364,121.079947,3.3674712e-09
C0S970,加津林,2025-06-06,22.416211,120.926942,0.18996206
C0D700,關西,2025-06-06,24.7977,121.1732,1.3363461e-09
C0M810,里佳,2025-06-06,23.389125,120.716647,3.912233e-09
C0U750,龜山島,2025-06-06,24.841667,121.953133,1.5333708e-07
C0R810,內獅,2025-06-06,22.305064,120.642986,0.107707314
C1M390,龍美,2025-06-06,23.406728,120.654417,3.735764e-09
C2FB60,頭櫃山,2025-06-06,24.129842,120.858925,4.7462607e-09
C1H840,國三N238K,2025-06-06,23.841008,120.707711,7.639092e-09
CAQ030,崎峰國小,2025-06-06,22.42565,120.49521,0.022924948
C2E520,大湖,2025-06-06,24.414939,120.870872,1.454072e-09
467530,阿里山,2025-06-06,23.508208,120.813242,1.1399007e-08
C1E691,南湖,2025-06-06,24.40135,120.837533,1.1911081e-09
C0FA30,梧棲,2025-06-06,24.256003,120.523381,2.1477673e-08
C1V231,高中,2025-06-06,23.134911,120.716711,2.3975288e-09
C0AK30,硬漢嶺,2025-06-06,25.136097,121.426372,1.5083059e-09
C0F9V0,新社,2025-06-06,24.200172,120.815806,1.4827227e-09
C0H890,埔里,2025-06-06,23.972169,120.952425,1.8554567e-09
C0R690,墾丁,2025-06-06,21.966756,120.810269,0.21235259
C0F0D0,審馬陣,2025-06-06,24.381675,121.4203,1.7375278e-08
C2W030,金門農試所,2025-06-06,24.448431,118.451786,0.004350048
C0R820,白鷺,2025-06-06,22.454275,120.666219,0.001031289
C1V190,南天池,2025-06-06,23.27403,120.91176,6.0749494e-09
K2E360,苗栗農改場,2025-06-06,24.495722,120.829111,1.3534196e-09
CAJ050,海口故事園區,2025-06-06,23.57543,120.14121,4.7578724e-05
C2H9D0,三隻寮,2025-06-06,24.093078,120.861578,4.0267625e-09
C0O990,媽廟,2025-06-06,22.99175,120.293525,0.0020553372
C0D480,打鐵坑,2025-06-06,24.849664,121.150789,1.6491792e-09
C0Z220,和平林道,2025-06-06,24.343922,121.656317,1.3596967e-09
C0TA10,花蓮漁港,2025-06-06,23.995322,121.638331,9.231376e-05
72C440,桃園農改場,2025-06-06,24.950944,121.030583,1.8654184e-08
C1E711,馬拉邦山,2025-06-06,24.367306,120.901656,1.8506958e-09
C0SB20,富岡,2025-06-06,22.792467,121.192669,0.34295648
C0D560,竹東,2025-06-06,24.767147,121.057881,1.545076e-09
C0F9U0,南屯,2025-06-06,24.137006,120.637969,9.64254e-10
C0M720,番路,2025-06-06,23.464657,120.554156,8.59581e-09
C0F0A0,雪山圈谷,2025-06-06,24.388594,121.236339,2.408778e-08
C1A9N0,四十份,2025-06-06,24.934158,121.593283,1.7214096e-09
C0U760,東澳,2025-06-06,24.52196,121.83318,3.7719737e-08
C0X230,鹽水,2025-06-06,23.272621,120.247641,1.8553144e-05
C2H9H0,苗改南投蜂場,2025-06-06,23.852589,120.693481,1.1176589e-08
C0R950,萬隆國小,2025-06-06,22.507667,120.587817,0.11690006
467540,大武,2025-06-06,22.35572,120.90374,0.1781781
C0V370,古亭坑,2025-06-06,22.893178,120.401947,0.014391639
C1I340,新興橋,2025-06-06,23.563333,120.868728,4.306207e-09
C0SA80,土坂,2025-06-06,22.453108,120.887572,0.71534735
C0R160,鹽埔,2025-06-06,22.739558,120.530778,0.9975813
C0AC40,大屯山,2025-06-06,25.175675,121.522408,2.4726627e-09
466850,五分山雷達站,2025-06-06,25.071182,121.781205,2.7894589e-09
C2H9L0,馬烈霸,2025-06-06,24.1512,121.201772,1.011772e-08
C1AI50,國三N016K,2025-06-06,25.034164,121.619664,7.484825e-09
C1V600,藤枝,2025-06-06,23.071961,120.757042,7.460667e-09
C1E601,南勢,2025-06-06,24.572486,120.734842,4.215363e-08
C0O980,新市,2025-06-06,23.061614,120.298197,0.0004498278
C0K420,西螺,2025-06-06,23.800407,120.467394,1.4318645e-07
C0Z050,佳心,2025-06-06,23.34567,121.21316,2.0487535e-08
C0AD30,蘆洲,2025-06-06,25.086594,121.472331,1.0283698e-08
C0V610,梓官,2025-06-06,22.760558,120.267211,0.0051933406
K2F750,種苗改良場,2025-06-06,24.225972,120.800917,1.6724268e-09
C0UA80,大溪漁港,2025-06-06,24.941801,121.902955,1.5192786e-08
C1AI60,國一39K邊坡,2025-06-06,25.064361,121.383836,7.565259e-09
C0W150,金寧,2025-06-06,24.457703,118.328989,0.004385573
C0R960,內埔,2025-06-06,22.608483,120.570714,0.29693258
V2C250,八德合作社,2025-06-06,24.93775,121.266389,2.3303335e-09
C2H9S0,龍南,2025-06-06,23.953536,120.833183,2.3754614e-09
C0AH40,平等,2025-06-06,25.129142,121.577086,1.6856949e-09
C0R540,佳冬,2025-06-06,22.419456,120.552375,0.015317981
466950,彭佳嶼,2025-06-06,25.627975,122.079744,0.9979487
C0A890,雙溪,2025-06-06,25.036003,121.864242,7.396721e-09
C0C480,桃園,2025-06-06,24.992425,121.323172,4.098679e-09
C0AH50,林口,2025-06-06,25.072181,121.38084,6.099901e-09
A2K360,水試臺西試驗場,2025-06-06,23.717231,120.190522,2.8129236e-05
C2M960,外寮,2025-06-06,23.562643,120.665688,2.6108653e-09
C0F9S0,烏日,2025-06-06,24.107058,120.624103,1.854604e-09
C0C490,八德,2025-06-06,24.928708,121.283289,2.2748365e-09
C0R190,赤山,2025-06-06,22.592333,120.614306,0.32883897
C0T820,天祥,2025-06-06,24.179597,121.495639,2.5881583e-08
C1F9E1,龍安,2025-06-06,24.1605,120.831961,1.3931628e-09
C0V820,小林,2025-06-06,23.148408,120.63325,1.2036283e-08
C2G870,芳苑,2025-06-06,23.922303,120.320025,0.0058837594
C0E850,大河,2025-06-06,24.618069,120.948578,1.3746463e-09
C1U670,寒溪,2025-06-06,24.634,121.71691,5.7255307e-09
C0N020,城西,2025-06-06,23.0568,120.0956,0.00013694426
C1Z110,三棧,2025-06-06,24.11557,121.60501,7.9196707e-07
C0R280,檳榔,2025-06-06,22.076078,120.836777,0.87946385
C2H9J0,中台,2025-06-06,23.9996,120.938739,3.9867936e-09
C0F9L0,后里,2025-06-06,24.310436,120.729725,1.9857038e-09
467441,高雄,2025-06-06,22.730432,120.312516,0.0052785166
C0Z180,新城,2025-06-06,24.040486,121.604878,4.772573e-05
C0D540,橫山,2025-06-06,24.71116,121.11693,1.2245706e-09
C1D420,太閣南,2025-06-06,24.632808,121.160575,5.58647e-09
C1E770,公館,2025-06-06,24.526914,120.830806,1.5323154e-09
CAN130,水試所海水繁養殖中心,2025-06-06,23.120802,120.07968,9.611938e-05
C1I430,翠華,2025-06-06,24.191961,121.224339,7.2604105e-09
C1M400,菜瓜坪,2025-06-06,23.251928,120.576103,7.5904945e-09
C0G730,二林,2025-06-06,23.903325,120.376081,2.0735604e-07
72M360,南改義竹分場,2025-06-06,23.360694,120.279361,2.847504e-06
V2K620,麥寮合作社,2025-06-06,23.753836,120.294783,3.7715566e-07
C0Z070,舞鶴,2025-06-06,23.46811,121.37407,1.3005615e-08
C0B040,大武崙,2025-06-06,25.166676,121.706993,1.9924807e-08
C1Z030,紅葉,2025-06-06,23.493119,121.338806,1.0541175e-07
C1I050,丹大,2025-06-06,23.753747,121.141147,8.660007e-09
C0I080,信義,2025-06-06,23.689694,120.851036,6.510899e-08
C2M920,朴子農改,2025-06-06,23.469889,120.259383,3.8143443e-07
C2A880,福隆,2025-06-06,25.017842,121.942083,1.0415304e-08
C0Z160,鳳林,2025-06-06,23.746114,121.453411,2.9071764e-08
C0V210,復興,2025-06-06,23.222403,120.806089,2.3647983e-08
C0H990,昆陽,2025-06-06,24.121322,121.273642,1.5562776e-08
C0R741,獅子,2025-06-06,22.202308,120.705236,0.0044639977
C0S710,鹿野,2025-06-06,22.917711,121.122994,3.8478665e-06
C0I530,小奇萊,2025-06-06,24.131764,121.295717,1.6369517e-08
C2K630,荷苞,2025-06-06,23.657717,120.595144,8.5007436e-08
C0Z080,富源,2025-06-06,23.587642,121.378225,1.2921596e-08
C0SB10,美和,2025-06-06,22.682078,121.060236,0.4695649
C2K620,馬光農場,2025-06-06,23.721453,120.378864,7.1031576e-07
C1I140,卡奈托灣,2025-06-06,23.754364,121.087872,4.127321e-09
C0I520,玉山風口,2025-06-06,23.470489,120.955994,2.5231262e-08
C1G691,下水埔,2025-06-06,23.816114,120.5676,4.9874547e-08
C0X110,臺南市南區,2025-06-06,22.961189,120.188378,0.004468921
C0V680,仁武,2025-06-06,22.701083,120.347722,0.00049819174
C2G840,北斗,2025-06-06,23.877586,120.514222,5.8163963e-08
C0R900,竹坑,2025-06-06,22.1385,120.7022,0.063519955
C0K250,崙背,2025-06-06,23.75555,120.318925,3.7718263e-07
C0G860,社頭,2025-06-06,23.897647,120.5862,2.8325989e-08
C0X150,安定,2025-06-06,23.102614,120.227839,0.00032811004
C0R590,里港,2025-06-06,22.77919,120.49459,0.9965702
C0E610,馬都安,2025-06-06,24.451272,120.930192,1.1729191e-09
C0E550,明德,2025-06-06,24.583486,120.885411,1.9939472e-09
C0R150,三地門,2025-06-06,22.709889,120.639944,0.99808425
C0G910,花壇,2025-06-06,24.032076,120.549461,1.8772102e-09
C1D400,鳥嘴山,2025-06-06,24.71909,121.28387,1.2581761e-09
C0K500,元長,2025-06-06,23.64981,120.315024,2.3244489e-07
C0F0B0,石岡,2025-06-06,24.276061,120.777644,1.767257e-09
C2V250,甲仙,2025-06-06,23.080106,120.591758,0.8705001
C0SA20,金崙山,2025-06-06,22.567419,120.959667,9.7744985e-09
C0V350,溪埔,2025-06-06,22.738578,120.446797,0.98269254
C0M660,溪口,2025-06-06,23.604131,120.403569,7.6855605e-07
C1S880,壽卡,2025-06-06,22.238911,120.858903,0.6485534
72D680,桃改新埔分場,2025-06-06,24.834444,121.066111,5.3005147e-09
