站號,站名,日期,lat,lon,BLBTSLS
C0R710,龍磐,2025-12-04,21.931672,120.838942,0.32003665
C1F9D1,白毛台,2025-12-04,24.158325,120.886933,5.3329935e-10
C0G940,竹塘,2025-12-04,23.848253,120.386764,0.999903
467590,恆春,2025-12-04,22.003897,120.746339,0.9618682
C1O850,環湖,2025-12-04,23.148617,120.418633,5.973501e-10
C0U710,太平山,2025-12-04,24.505486,121.525656,1.5383899e-08
C0E820,獅潭,2025-12-04,24.539133,120.920042,3.5136518e-09
C2SD70,二層坪,2025-12-04,22.94105,121.16838,1.3061817e-09
C0V880,興達,2025-12-04,22.8778,120.2127,2.2899712e-05
C0S890,關山,2025-12-04,23.0395,121.175017,1.0502654e-09
C0SB30,新蘭,2025-12-04,22.869214,121.223228,3.94728e-07
C2R970,屏科大,2025-12-04,22.648275,120.619247,9.2934666e-10
C1Z130,銅門,2025-12-04,23.965694,121.492842,1.3765965e-08
C0AD40,土城,2025-12-04,24.973208,121.445169,0.99928296
CAN140,六官養殖協會,2025-12-04,23.22881,120.29962,0.9974446
C0X180,山上,2025-12-04,23.0757,120.363253,1.4086254e-09
C0F9Z0,雪山東峰,2025-12-04,24.388792,121.268675,1.0280914e-08
C1M480,獨立山,2025-12-04,23.537022,120.607797,7.640486e-10
C0X220,學甲,2025-12-04,23.230367,120.182187,0.9999026
467650,日月潭,2025-12-04,23.881325,120.90805,1.1724897e-09
A2K570,古坑(花卉中心),2025-12-04,23.633531,120.552392,2.7427574e-09
C0K600,箔子寮,2025-12-04,23.6197,120.14,0.9998832
C0G830,埤頭,2025-12-04,23.866003,120.452806,0.9871405
C0S950,七塊厝,2025-12-04,22.954453,121.229922,1.278009e-09
467110,金門,2025-12-04,24.407306,118.289281,0.9991342
C0AH80,深坑,2025-12-04,25.002703,121.628328,0.9998032
C0A970,三貂角,2025-12-04,25.007606,122.002058,0.9999426
C2D730,寶山農場,2025-12-04,24.732444,120.976153,9.988065e-06
C0K430,褒忠,2025-12-04,23.690938,120.303634,0.9995725
467480,嘉義,2025-12-04,23.495925,120.432906,0.9989998
C0V400,阿公店,2025-12-04,22.804194,120.355528,1.0616752e-09
C0E960,觀霧分站,2025-12-04,24.505781,121.113921,2.5475697e-09
467550,玉山,2025-12-04,23.48718,120.95943,1.970079e-08
C0R440,大漢山,2025-12-04,22.405264,120.753181,3.894746e-08
C0SD30,東清國小,2025-12-04,22.057128,121.564922,0.9865842
C0K280,四湖,2025-12-04,23.630414,120.227125,0.99974585
C1F9B1,桐林,2025-12-04,24.066172,120.735194,0.0117566725
C2H9U0,鳳鵬,2025-12-04,23.763919,120.788061,4.9497795e-10
C0K390,土庫,2025-12-04,23.679029,120.395574,0.98404884
C1I450,望鄉山,2025-12-04,23.594153,120.944286,7.677714e-09
C0E910,海埔,2025-12-04,24.648767,120.772435,0.015170479
B2E890,畜試北區分所,2025-12-04,24.527806,120.770972,2.3688477e-08
C0R750,四林格山,2025-12-04,22.076989,120.802439,0.4719717
C0F0C0,中坑,2025-12-04,24.248517,120.903319,7.3373085e-10
C1I121,大鞍,2025-12-04,23.678381,120.760017,3.3821408e-09
C2G9E0,移民庄,2025-12-04,23.9784,120.40283,0.9998094
72U480,花改蘭陽分場,2025-12-04,24.686306,121.716583,8.172925e-10
C0A770,科教館,2025-12-04,25.096356,121.516507,0.99902934
C0AJ60,六塊厝,2025-12-04,25.24,121.4481,0.9998935
C0R620,墾雷,2025-12-04,21.900836,120.855269,0.39696804
467420,永康,2025-12-04,23.038386,120.2367,2.6490468e-05
C2M530,奮起湖,2025-12-04,23.493903,120.699253,1.7665224e-09
C0I410,名間,2025-12-04,23.837053,120.701447,3.261869e-08
A2C560,農工中心,2025-12-04,24.985917,121.239833,0.9993067
C0V740,旗山,2025-12-04,22.888614,120.483597,1.0056495e-09
C0Z061,玉里,2025-12-04,23.3215,121.339656,1.3617653e-09
C0S840,南田,2025-12-04,22.279725,120.889208,0.29468927
C1I470,杉林溪,2025-12-04,23.639517,120.786444,2.2861675e-09
C1X040,東原,2025-12-04,23.291597,120.463822,6.451938e-10
C0R660,枋寮,2025-12-04,22.367722,120.590647,1.9897629e-05
C1R120,上德文,2025-12-04,22.763272,120.704442,1.24574e-09
C0K450,大埤,2025-12-04,23.646074,120.431537,0.30145928
C0UA00,土場,2025-12-04,24.576533,121.495333,6.0804326e-09
467080,宜蘭,2025-12-04,24.763975,121.756528,5.7307203e-09
C0N030,四草,2025-12-04,23.0235,120.1116,0.9999516
467410,臺南,2025-12-04,22.99328,120.20492,0.92250156
C0V650,彌陀,2025-12-04,22.783806,120.246361,1.7340551e-06
C0D660,新竹市東區,2025-12-04,24.798681,120.986942,0.9994286
82S580,茶改東部分場,2025-12-04,22.907694,121.130139,1.4198745e-08
C0SB40,興隆,2025-12-04,22.913661,121.257469,0.99817383
467050,新屋,2025-12-04,25.006725,121.047492,0.9905477
C0C710,大溪永福,2025-12-04,24.892936,121.324975,0.9874636
C0FA20,溫寮,2025-12-04,24.372177,120.583125,0.00034530635
C0V640,湖內,2025-12-04,22.887139,120.2445,2.2899712e-05
C0R910,下寮,2025-12-04,22.3929,120.5548,0.002411269
C0Z020,明里,2025-12-04,23.208717,121.262342,1.7286942e-09
C0M770,嘉義梅山,2025-12-04,23.585398,120.555587,2.9356315e-09
C0C660,楊梅,2025-12-04,24.912375,121.143047,0.99924636
C0SD40,牛頭山,2025-12-04,22.676661,121.506944,0.9625162
C1E511,新開,2025-12-04,24.347703,120.827019,9.714744e-09
G2F820,農試所(霧峰),2025-12-04,24.031261,120.688133,0.15709932
C2M990,大巃頂,2025-12-04,23.5547,120.61439,1.1272046e-09
C1I070,和社,2025-12-04,23.591131,120.888861,7.0466444e-10
C2E990,新坪頂,2025-12-04,24.30201,120.8574,1.0831147e-09
C0TA80,立霧山,2025-12-04,24.183258,121.641899,1.910089e-08
C2F000,大肚,2025-12-04,24.15295,120.572117,0.32223222
C1S850,豐南,2025-12-04,23.122139,121.262389,1.2134451e-09
C2M9B0,西興,2025-12-04,23.2428,120.57617,1.0111214e-09
C2A920,富貴角,2025-12-04,25.263783,121.565258,0.99995536
CAH030,茶改場竹圍站,2025-12-04,23.860083,120.637528,2.122226e-09
C0T960,光復,2025-12-04,23.660694,121.424964,7.0523893e-09
C0F9M0,豐原,2025-12-04,24.254322,120.720692,0.0004996817
C0R720,旭海,2025-12-04,22.205403,120.887614,0.9608488
C0V710,苓雅,2025-12-04,22.622742,120.330669,2.6629796e-09
C0C740,觀音工業區,2025-12-04,25.064764,121.114856,0.9935036
CAC040,拉拉山,2025-12-04,24.699317,121.427133,2.0207333e-08
C0V790,萬山,2025-12-04,22.905944,120.688056,1.0356603e-09
U2HA30,臺大和社,2025-12-04,23.590856,120.888864,7.0466444e-10
C2H9K0,屯原,2025-12-04,24.067969,121.209389,3.5672414e-09
C0AJ90,澳底,2025-12-04,25.0552,121.9253,0.99995226
C0Z100,東華,2025-12-04,23.89525,121.549833,1.4445055e-08
C0G970,三豐,2025-12-04,23.882,120.2895,0.9866326
V2K610,大庄合作社,2025-12-04,23.8068,120.367939,0.9997836
C0V900,汕尾,2025-12-04,22.4782,120.4151,2.098898e-09
C1R630,龍泉,2025-12-04,22.66701,120.59091,9.2934666e-10
C1AC50,關渡,2025-12-04,25.133486,121.469331,0.9995387
C0C800,四稜,2025-12-04,24.64733,121.4293,1.525574e-08
C0F9I0,神岡,2025-12-04,24.272481,120.658314,7.5155054e-07
C0K460,斗南,2025-12-04,23.678734,120.478359,0.30145928
C2O810,曾文,2025-12-04,23.219681,120.497328,7.574928e-10
467280,後龍,2025-12-04,24.648563,120.831834,0.0023713221
C1F9J1,清水林,2025-12-04,24.071242,120.820419,4.6573345e-10
C2A650,火燒寮,2025-12-04,25.002719,121.742892,0.7680269
466930,竹子湖,2025-12-04,25.162078,121.544547,9.100029e-05
C1I220,樟湖,2025-12-04,23.905333,120.846983,1.355295e-09
C0I390,仁愛,2025-12-04,24.022122,121.132206,1.6504756e-09
C0Z300,東里,2025-12-04,23.26853,121.30547,1.3755826e-09
C1V590,新發,2025-12-04,23.057019,120.646064,9.526312e-10
C0K510,水林,2025-12-04,23.572924,120.24597,0.9997272
72S590,東改賓朗果園,2025-12-04,22.813889,121.071278,6.702111e-07
82A750,茶改北部分場,2025-12-04,24.955778,121.631222,2.0242075e-07
C1A750,石碇服務區,2025-12-04,25.00872,121.646242,0.9995457
C0X300,鹿寮,2025-12-04,23.386047,120.477331,1.3780932e-07
G2AI50,關渡,2025-12-04,25.11575,121.492,0.9993762
C0K590,雲林東勢,2025-12-04,23.674192,120.255721,0.9995459
C2K310,港尾布雞,2025-12-04,23.74834,120.38439,0.5377333
C0A570,桶後,2025-12-04,24.848222,121.597992,1.8778307e-08
C1S800,華源,2025-12-04,22.657883,121.02325,0.9980423
C0G720,溪州,2025-12-04,23.851589,120.499093,0.9871405
C1V160,達卡努瓦,2025-12-04,23.279811,120.705319,1.6402167e-09
C2M410,馬頭山,2025-12-04,23.324361,120.582017,4.8825577e-10
C0V850,蚵仔寮,2025-12-04,22.7256,120.2527,2.9695632e-06
C0S740,池上,2025-12-04,23.119628,121.209469,1.1489654e-09
C1V390,尖山,2025-12-04,22.813153,120.367789,1.0616752e-09
C0AH70,松山,2025-12-04,25.04871,121.55042,0.99902934
C0N010,鯤鯓國小,2025-12-04,23.1879,120.0889,0.9999251
C0R550,新埤,2025-12-04,22.467947,120.582894,4.922063e-06
C0SA60,知本（水試所）,2025-12-04,22.702394,121.082761,0.99914503
C0T9I0,豐濱,2025-12-04,23.583897,121.514806,5.5222063e-06
C0UB00,淡江大學蘭陽校園,2025-12-04,24.823239,121.730383,4.8203965e-09
C0W240,九宮,2025-12-04,24.423753,118.240186,0.99921405
C0T9N0,富里,2025-12-04,23.171639,121.249378,1.7300796e-09
U2HA50,臺大竹山,2025-12-04,23.756972,120.681556,6.4427024e-07
C0V840,鳳鼻頭,2025-12-04,22.5083,120.3591,1.9066992e-09
C0X140,西港,2025-12-04,23.125608,120.203108,0.40504682
72D080,桃改五峰分場,2025-12-04,24.612194,121.157167,1.7919982e-09
C2H9P0,伊拿谷,2025-12-04,23.963211,121.088264,8.678041e-10
C2K250,崙背,2025-12-04,23.75553,120.31893,0.9995725
C2H9F0,柑林,2025-12-04,24.018658,120.847072,4.723987e-10
C0TA20,加灣,2025-12-04,24.082025,121.608944,8.24751e-07
C0V530,阿蓮,2025-12-04,22.883208,120.327508,1.0536046e-08
C0FB30,八仙山苗圃,2025-12-04,24.192719,121.001366,7.249475e-10
C1O880,關山,2025-12-04,23.173397,120.594092,5.4711163e-10
C0E791,卓蘭,2025-12-04,24.3126,120.8244,6.4884205e-09
C1I030,武界,2025-12-04,23.913225,121.052483,1.2074517e-09
C0R520,崁頂,2025-12-04,22.514781,120.506914,1.0410299e-08
C0R341,牡丹,2025-12-04,22.130036,120.792639,0.9924249
C0R930,萬丹,2025-12-04,22.5885,120.4851,2.175576e-09
C0S760,紅石,2025-12-04,23.069131,121.126219,2.3822276e-08
C2C410,中央大學,2025-12-04,24.967652,121.185165,0.9993067
C1M610,石磐龍,2025-12-04,23.496606,120.663506,1.3339956e-09
C0C790,東眼山,2025-12-04,24.8284,121.40888,1.0069782e-08
C0UA10,鴛鴦湖,2025-12-04,24.590269,121.412228,1.4854154e-08
V2C260,八德蔬果,2025-12-04,24.978508,121.281819,0.998583
C0R800,丹路,2025-12-04,22.204481,120.750989,0.997196
C0G920,永靖,2025-12-04,23.924703,120.547533,0.681977
C2M950,太和,2025-12-04,23.538372,120.702961,1.7469877e-09
C1A630,下盆,2025-12-04,24.771003,121.538622,1.3789221e-08
B2N890,畜產試驗所,2025-12-04,23.058972,120.336406,1.8298391e-05
C0UA30,白嶺,2025-12-04,24.527819,121.519031,1.0900144e-08
467571,新竹,2025-12-04,24.828575,121.01455,0.99942553
C1V580,溪南(特生中心),2025-12-04,23.084972,120.788475,2.9981373e-09
C1T970,大農,2025-12-04,23.615233,121.413331,6.4247403e-09
C0R650,竹田,2025-12-04,22.58486,120.54344,1.5282992e-09
C1H900,清流,2025-12-04,24.080775,120.962997,6.017964e-10
C1C510,水尾,2025-12-04,24.940081,121.087161,0.9964281
C2N170,茅港尾,2025-12-04,23.2061,120.2624,0.9974446
C0F9X0,大雅(中科園區),2025-12-04,24.21528,120.62445,0.27053684
C0SB60,白守蓮,2025-12-04,23.126769,121.401914,2.0080849e-08
C0O970,虎頭埤,2025-12-04,23.021375,120.347878,4.8348343e-09
C0C730,中大臨海站,2025-12-04,24.966126,121.008581,0.9957801
C0X250,新營,2025-12-04,23.310689,120.316681,0.99960786
C0V700,三民,2025-12-04,22.645017,120.311233,2.6196942e-06
C0U870,大礁溪,2025-12-04,24.791042,121.675047,3.758499e-09
C0E870,高鐵苗栗,2025-12-04,24.60725,120.826094,0.0023713221
A2K570,古坑花卉中心,2025-12-04,23.63353,120.55239,7.316852e-09
C0TA30,鹽寮,2025-12-04,23.845606,121.592664,1.7947151e-08
C0M860,新美,2025-12-04,23.338017,120.683169,1.1192072e-09
C1E701,八卦,2025-12-04,24.491756,120.927619,1.4178198e-09
C2TA90,加納納,2025-12-04,23.466421,121.359867,5.659323e-09
C0I420,國姓,2025-12-04,24.037803,120.855072,4.628262e-10
C2D720,關西工作站,2025-12-04,24.757275,121.184792,0.981886
C0S960,香蘭,2025-12-04,22.587569,120.993375,2.490684e-08
467620,蘭嶼,2025-12-04,22.0369,121.55843,0.97039133
C0R260,春日,2025-12-04,22.370361,120.628306,1.0568984e-06
72G600,臺中農改場,2025-12-04,24.003028,120.534389,0.6919623
C0Z210,瑞穗,2025-12-04,23.5239,121.39021,1.183328e-06
C0M820,達邦,2025-12-04,23.453994,120.749517,1.3853406e-09
C0V860,南寮,2025-12-04,22.7616,120.2339,2.9549972e-06
C0G740,大城,2025-12-04,23.852487,120.320935,0.9866326
C0R920,塭仔,2025-12-04,22.4169,120.5197,0.002411269
C0R470,高樹,2025-12-04,22.826389,120.600806,1.4852305e-09
C0R680,佳樂水,2025-12-04,21.993578,120.861633,0.32003665
C1O870,大棟山,2025-12-04,23.31157,120.52226,2.4432913e-09
C0D360,梅花,2025-12-04,24.678347,121.208558,3.1655606e-08
C0Z190,富世,2025-12-04,24.14743,121.6297,1.216431e-07
C0AI10,屈尺,2025-12-04,24.92184,121.54475,0.9991983
B2U990,畜試東區分所,2025-12-04,24.669039,121.832561,7.1042283e-10
C0SB80,長濱漁港,2025-12-04,23.313644,121.459994,1.6622914e-09
C0TA50,和仁,2025-12-04,24.241394,121.712472,1.39675e-08
C0V910,大樹,2025-12-04,22.684645,120.432803,3.318762e-09
C1R610,西大武山,2025-12-04,22.617719,120.7322,9.398824e-09
C0G900,線西,2025-12-04,24.143358,120.443536,0.99995726
C0M700,竹崎,2025-12-04,23.526178,120.555508,8.323181e-09
C2E880,三義,2025-12-04,24.405478,120.749819,1.2162048e-09
C0C720,竹圍,2025-12-04,25.112692,121.239824,0.9989357
C0F9P0,清水,2025-12-04,24.312297,120.562242,0.013141441
C0Z150,吉安光華,2025-12-04,23.930925,121.595153,5.6928325e-08
C0FA80,小雪山天池,2025-12-04,24.28025,121.02627,7.372495e-09
467300,東吉島,2025-12-04,23.25727,119.66762,0.9941356
C1D640,外坪(五指山),2025-12-04,24.644447,121.090961,1.6041812e-09
C2R9A0,高士國小,2025-12-04,22.12553,120.84653,0.9924249
C0F9O0,潭子,2025-12-04,24.213106,120.703933,0.0004996817
C2H9R0,卓社,2025-12-04,23.887894,121.000086,2.8416398e-09
72T250,花蓮農改場,2025-12-04,23.975222,121.563889,4.0395573e-08
C0E780,銅鑼,2025-12-04,24.489681,120.790853,2.3688477e-08
C1T950,太安,2025-12-04,23.666719,121.370128,2.093821e-08
C0E830,苑裡,2025-12-04,24.439714,120.653053,0.00012479728
467270,田中,2025-12-04,23.873803,120.581286,0.112222224
C0SA10,檳榔四格山,2025-12-04,22.810031,121.109308,9.054812e-08
C1T830,布洛灣,2025-12-04,24.17184,121.57127,4.5220794e-08
C0F970,大坑,2025-12-04,24.173142,120.722289,0.9932534
C1U920,思源,2025-12-04,24.393125,121.347214,6.9295707e-09
C2H9Y0,松茗,2025-12-04,23.8167,120.650765,4.6077392e-10
C0A931,三和,2025-12-04,25.233153,121.595236,0.99778247
C0I010,廬山,2025-12-04,24.033311,121.181808,1.7037673e-09
C2M940,日野賀,2025-12-04,23.434056,120.727169,1.8411017e-09
C0R860,鼻頭,2025-12-04,22.1043,120.8979,0.32275525
C0UB20,壯圍,2025-12-04,24.7359,121.8163,9.955655e-09
C0R790,九棚,2025-12-04,22.14195,120.889281,0.8585672
C0W110,東莒,2025-12-04,25.9652,119.98069,0.03192669
C1U930,粉鳥林,2025-12-04,24.497088,121.842479,2.9578886e-09
C1I211,蘆竹湳,2025-12-04,23.934019,120.811994,5.617089e-10
C0S830,長濱,2025-12-04,23.286817,121.411975,1.4788561e-09
C1F9F1,伯公龍,2025-12-04,24.272392,120.849047,1.7682247e-09
C0UB90,太平山莊,2025-12-04,24.494171,121.536209,1.5573079e-08
C0E810,西湖,2025-12-04,24.562947,120.7485,0.9838932
C1I440,新高口,2025-12-04,23.478744,120.878939,5.3449614e-09
C0O840,王爺宮,2025-12-04,23.222064,120.40085,0.0001422192
C0T9G0,鳳林山,2025-12-04,23.735269,121.420131,2.2127349e-08
C0X080,佳里,2025-12-04,23.173039,120.145086,0.9999199
C0FB70,大甲溪埔,2025-12-04,24.370625,120.620067,0.00034530635
C0Z310,清水斷崖,2025-12-04,24.218294,121.689142,8.242673e-09
C0M680,太保,2025-12-04,23.455062,120.331455,0.99704224
C1S820,金峰,2025-12-04,22.590969,120.933236,8.3269445e-09
C0AD10,八里,2025-12-04,25.150211,121.403947,0.9996823
C2K240,草嶺,2025-12-04,23.59555,120.693461,1.1739554e-09
C1SA70,都蘭,2025-12-04,22.87794,121.226881,3.2976925e-07
C0K440,二崙,2025-12-04,23.772797,120.408944,0.7328198
C1A760,坪林交控,2025-12-04,24.94284,121.713442,0.72321147
C0F9N0,大里,2025-12-04,24.092464,120.701378,0.010454509
C0SA90,達仁林場,2025-12-04,22.264347,120.823972,3.5915204e-05
C1R290,石門山,2025-12-04,22.112611,120.756597,0.98729444
42HA10,萬大發電廠,2025-12-04,23.978875,121.139639,1.6021601e-09
C0R890,山海,2025-12-04,21.9878,120.7091,0.9618682
C0T9A0,月眉山,2025-12-04,23.809928,121.539828,5.2076294e-09
C0AC70,信義,2025-12-04,25.037822,121.564597,0.99932164
C0K560,棋山,2025-12-04,23.68645,120.603417,3.272669e-08
C2FB50,出雲,2025-12-04,24.206469,120.902794,8.675145e-10
C1Z240,中平林道,2025-12-04,23.42115,121.26763,4.54848e-08
U2H480,溪頭,2025-12-04,23.670306,120.798194,1.099802e-09
C0M880,好美里,2025-12-04,23.3364,120.138,0.9998112
C0T9E0,大坑,2025-12-04,23.880628,121.581981,6.5351453e-09
C0K530,臺西,2025-12-04,23.701547,120.197559,0.9997384
C1E900,國一N128K,2025-12-04,24.560997,120.844186,6.4497414e-08
C0AJ50,水湳洞,2025-12-04,25.123695,121.862238,0.9999517
C0AI20,白沙灣,2025-12-04,25.283128,121.519058,0.9998745
C2V310,美濃,2025-12-04,22.898792,120.51907,1.0056495e-09
C0A860,大坪,2025-12-04,25.165914,121.632969,0.9679454
C1U850,觀音海岸,2025-12-04,24.38319,121.77856,3.7555323e-09
C2K610,草嶺石壁,2025-12-04,23.602469,120.707731,1.2246103e-09
C0U950,鶯子嶺,2025-12-04,24.89754,121.79244,9.044365e-09
C0O900,善化,2025-12-04,23.112883,120.297219,1.8298391e-05
C0K550,蔦松,2025-12-04,23.514319,120.229736,0.9998621
E2P980,林試六龜中心,2025-12-04,22.991703,120.645722,1.2045097e-09
C0E590,通霄,2025-12-04,24.471892,120.704622,0.025418926
C1I310,西巒,2025-12-04,23.754486,120.883956,1.4198495e-09
C0A550,泰平,2025-12-04,24.971197,121.823711,2.6460803e-08
C0I360,水里,2025-12-04,23.812553,120.849792,4.4147858e-10
C0R830,高士,2025-12-04,22.121825,120.836781,0.9760285
C1I101,溪頭,2025-12-04,23.661789,120.807647,2.8009801e-09
C0AJ20,野柳,2025-12-04,25.20703,121.690021,0.99972796
C0B060,暖暖,2025-12-04,25.0957,121.7403,0.99950707
C1H920,長豐,2025-12-04,24.102039,120.879897,5.593067e-10
C2S9B0,利吉,2025-12-04,22.86246,121.15486,1.4198745e-08
C0V360,內門,2025-12-04,22.975481,120.466769,6.9034334e-10
C0R850,林邊,2025-12-04,22.4634,120.5339,0.082641676
C0E930,龍鳳,2025-12-04,24.700034,120.859125,0.9987484
C0U910,冬山,2025-12-04,24.63373,121.7937,7.1042283e-10
C1E721,泰安,2025-12-04,24.489017,120.968036,1.615302e-09
82H320,茶改中部分場,2025-12-04,23.875611,120.913583,1.0115206e-09
C0M750,布袋,2025-12-04,23.380878,120.167789,0.9999632
C1S860,利嘉,2025-12-04,22.809417,121.050528,5.001227e-09
E2S980,林試太麻里1,2025-12-04,22.598922,120.980044,1.4928059e-08
C0X170,關廟,2025-12-04,22.963017,120.327797,6.866785e-09
C0V720,林園,2025-12-04,22.507747,120.394511,2.4862166e-09
C1I510,線浸林道,2025-12-04,23.761508,120.832956,1.7475442e-09
C0D690,外湖,2025-12-04,24.917735,120.968711,0.9659081
C0C750,新興坑尾,2025-12-04,25.0061,121.0971,0.99581873
B2Q810,畜試南區分所,2025-12-04,21.945583,120.802167,0.32003665
C0S790,金崙,2025-12-04,22.538122,120.966875,1.0758102e-08
C0AH90,福山植物園,2025-12-04,24.760717,121.58135,1.3988296e-08
C0I540,奇萊稜線,2025-12-04,24.109231,121.326456,1.6148007e-08
C0M850,表湖,2025-12-04,23.24186,120.64166,1.0209349e-09
C0S770,大溪山,2025-12-04,22.478475,120.943325,6.094505e-09
C0AG80,中和,2025-12-04,24.991622,121.491792,0.99928296
C0T790,大禹嶺,2025-12-04,24.186117,121.316086,6.7686083e-09
C0T9B0,水源,2025-12-04,23.991861,121.537169,8.3302325e-09
C0R840,牡丹池山,2025-12-04,22.168389,120.841225,0.005742351
C1I131,桶頭,2025-12-04,23.641944,120.654117,6.8154365e-10
CAL110,布袋國中,2025-12-04,23.35893,120.18026,0.9998112
C2M9D0,何竹子腳,2025-12-04,23.53641,120.38203,0.9989998
467571,新竹,2025-12-04,24.827853,121.014219,0.99942553
C0Z290,赤柯山,2025-12-04,23.36893,121.38293,1.0335474e-08
C0X280,將軍,2025-12-04,23.214999,120.13577,0.99990547
C0S690,太麻里,2025-12-04,22.60902,120.98533,4.5128403e-09
C0U880,北關,2025-12-04,24.9072,121.8734,0.011842537
CAW010,東引,2025-12-04,26.3588,120.4836,0.9898705
C0G810,埔心,2025-12-04,23.947633,120.525456,0.681977
C0U970,大福,2025-12-04,24.80064,121.81389,5.7307203e-09
C2H9N0,仁愛東眼,2025-12-04,24.026875,121.1205,2.2043174e-09
C1E670,南礦,2025-12-04,24.538278,121.002836,1.7396691e-09
C0M520,東後寮,2025-12-04,23.369908,120.248065,0.99963635
C1E461,松安,2025-12-04,24.397972,120.986022,1.7416877e-09
C2N160,西拉雅風管處,2025-12-04,23.189481,120.335297,0.0017444246
C2M970,碧湖,2025-12-04,23.568632,120.624165,1.1127704e-09
C0A640,石碇,2025-12-04,24.993969,121.662917,0.72321147
E2S960,林試太麻里2,2025-12-04,22.598,120.99775,2.6539654e-08
C0F9Y0,桃山,2025-12-04,24.432739,121.303808,1.2122358e-08
C1I020,萬大,2025-12-04,23.979817,121.132261,1.6650171e-09
C2UC20,長嶺,2025-12-04,24.70894,121.61162,3.778539e-09
C0U940,羅東,2025-12-04,24.68184,121.74934,8.172925e-10
C0M650,朴子,2025-12-04,23.43463,120.23902,0.99936694
C1I500,大尖山,2025-12-04,23.858572,120.994889,4.6931756e-09
C0FB40,中橫21.6k,2025-12-04,24.2499,121.1455,8.7310364e-10
C0G820,田尾,2025-12-04,23.901669,120.509389,0.681977
E2K600,四湖植物園,2025-12-04,23.676986,120.163433,0.9998176
C0S730,綠島,2025-12-04,22.6672,121.47533,0.9358087
12Q970,東港工作站,2025-12-04,22.479997,120.466058,0.082641676
C0E430,南庄,2025-12-04,24.601775,121.000214,9.715448e-09
C1TA00,太魯閣,2025-12-04,24.15773,121.6236,9.864457e-08
466920,臺北,2025-12-04,25.037658,121.514853,0.99902934
C0R600,舊泰武,2025-12-04,22.588194,120.664944,9.317765e-10
C1I260,北坑,2025-12-04,23.9246,121.006903,1.1903655e-09
466910,鞍部,2025-12-04,25.182586,121.529731,0.0020146728
C1I230,九份二山,2025-12-04,23.961944,120.845,6.73168e-10
C2M810,里佳,2025-12-04,23.389125,120.716647,2.4930402e-09
C2A660,瑞芳,2025-12-04,25.113169,121.801147,0.9996229
C0R270,琉球嶼,2025-12-04,22.332244,120.362236,4.407655e-08
C2V580,瑞山,2025-12-04,22.90304,120.43424,7.9351864e-10
C1T990,高寮,2025-12-04,23.394239,121.356808,1.5470015e-09
C0G620,芬園,2025-12-04,24.015678,120.6213,4.997891e-06
C1Z140,荖溪,2025-12-04,23.890575,121.45964,1.8489397e-08
C1I201,中心崙,2025-12-04,23.728722,120.712097,4.882791e-10
C1I400,凌霄,2025-12-04,24.018778,121.004456,2.2181765e-09
C1M640,十字,2025-12-04,23.492153,120.753683,2.2128985e-09
G2P820,農試鳳山分所,2025-12-04,22.646611,120.356083,2.6629796e-09
C0Z270,蕃薯寮,2025-12-04,23.73835,121.540108,4.641481e-09
C2E420,竹南,2025-12-04,24.70898,120.88897,0.9987484
C0FB10,出雲山苗圃,2025-12-04,24.23105,120.90475,7.3373085e-10
C0F9Q0,外埔,2025-12-04,24.347817,120.705686,7.266925e-08
C0K580,高鐵雲林,2025-12-04,23.737456,120.417944,0.5377333
C2I090,鳳凰,2025-12-04,23.728081,120.787347,4.846428e-10
C0U990,員山,2025-12-04,24.74435,121.72247,8.172925e-10
C0V770,大社,2025-12-04,22.730306,120.346639,3.3554624e-09
C0X120,麻豆,2025-12-04,23.183289,120.248611,0.8799409
C0C670,龍潭,2025-12-04,24.870056,121.221389,0.99220854
C0D680,香山濕地,2025-12-04,24.783581,120.914988,0.96593404
C0S980,勝林山,2025-12-04,22.430439,120.8938,1.1555769e-08
C0V730,大寮,2025-12-04,22.605614,120.395717,2.6629796e-09
C0R570,麟洛,2025-12-04,22.65078,120.52719,1.1125751e-09
C2M930,石卓,2025-12-04,23.478744,120.702264,2.1609237e-09
C0G9B0,和美,2025-12-04,24.105169,120.492131,0.9999573
CAG100,王功漁港,2025-12-04,23.96824,120.32586,0.99249226
C0X290,北門,2025-12-04,23.267772,120.125481,0.99990547
C2F930,大甲,2025-12-04,24.347667,120.640403,0.00034530635
C0D650,湖口,2025-12-04,24.904794,121.043628,0.9964281
C0E420,竹南,2025-12-04,24.708978,120.888897,0.99852633
C0U780,五結,2025-12-04,24.68637,121.79794,7.1042283e-10
C1I250,鯉潭,2025-12-04,23.961922,120.991131,1.1191923e-09
C0R130,阿禮,2025-12-04,22.742908,120.743678,1.4034924e-09
C0X100,臺南市北區,2025-12-04,23.010394,120.194228,0.92250156
C0S920,金峰嘉蘭,2025-12-04,22.594789,120.960825,1.416523e-08
C0V490,新興,2025-12-04,22.627422,120.298803,8.973195e-05
C0F9K0,大安,2025-12-04,24.345061,120.588025,0.00034530635
467290,古坑,2025-12-04,23.633639,120.551889,2.7427574e-09
C2E970,八甲,2025-12-04,24.535811,120.795983,6.4497414e-08
C0V440,鳳山,2025-12-04,22.646653,120.356122,2.6629796e-09
C1T940,大觀,2025-12-04,23.714206,121.373133,5.634217e-09
C0E740,造橋,2025-12-04,24.637056,120.864778,0.0023713221
C0R100,尾寮山,2025-12-04,22.833111,120.683889,1.4915527e-09
A2K630,臺大雲林校區,2025-12-04,23.730628,120.423903,0.5377333
467990,馬祖,2025-12-04,26.169467,119.923158,1.6202646e-08
C0D580,寶山,2025-12-04,24.735006,121.025192,0.0002455293
E2P990,林試扇平站,2025-12-04,22.9677,120.6857,1.2173095e-09
C0AI30,三重,2025-12-04,25.057328,121.500629,0.99902934
C0AH00,汐止,2025-12-04,25.066881,121.658778,0.9997047
C1Z040,立山,2025-12-04,23.443356,121.327375,1.2041128e-08
466881,新北,2025-12-04,24.959207,121.525196,0.9993312
C0W130,花嶼,2025-12-04,23.40007,119.32276,0.83573085
C0A950,鼻頭角,2025-12-04,25.129036,121.923372,0.99995226
C0K470,林內,2025-12-04,23.748675,120.609642,3.272669e-08
C2F990,摩天嶺,2025-12-04,24.322458,120.936819,7.5878703e-10
C2E430,南庄,2025-12-04,24.601775,121.000214,4.252543e-08
82C160,茶改場,2025-12-04,24.908472,121.185333,0.99924636
C2TB60,南安,2025-12-04,23.29818,121.26157,1.4139363e-09
C0Z320,清水林道,2025-12-04,23.27125,121.188272,8.254961e-09
C0R760,南仁湖,2025-12-04,22.084681,120.863353,0.98729444
C0M670,大林,2025-12-04,23.600616,120.45841,0.81711626
C0M800,茶山,2025-12-04,23.299075,120.664767,1.0243952e-09
C0A9C0,天母,2025-12-04,25.117494,121.537169,0.9993042
72K220,南改斗南分場,2025-12-04,23.634556,120.477333,0.30145928
72AI40,桃改樹林分場,2025-12-04,24.944503,121.386972,0.9987273
C0S910,蘭嶼燈塔,2025-12-04,22.081197,121.503117,0.984773
C0B050,八斗子,2025-12-04,25.144754,121.79167,0.99973387
C0U900,內城,2025-12-04,24.71813,121.68766,8.5164603e-10
C0X320,柳營,2025-12-04,23.253328,120.375253,0.0001422192
C0M790,新港,2025-12-04,23.553269,120.345728,0.99974835
C0F9T0,西屯,2025-12-04,24.179494,120.641275,0.2705368
C0E950,松安,2025-12-04,24.39792,120.98599,1.7416877e-09
C0SA30,都歷,2025-12-04,23.020333,121.323642,0.9976778
C0C620,蘆竹,2025-12-04,25.084275,121.265767,0.99940836
C0R730,大坪頂,2025-12-04,22.024633,120.69355,0.8753502
C0AJ40,石門,2025-12-04,25.273672,121.601198,0.99994504
C0E750,苗栗,2025-12-04,24.564569,120.824575,6.4497414e-08
C0T870,鯉魚潭,2025-12-04,23.935639,121.508944,1.6555875e-08
C1V170,排雲,2025-12-04,23.463619,120.954147,1.6236088e-08
C2H950,中寮,2025-12-04,23.884447,120.766406,4.994409e-10
C0R350,貓鼻頭,2025-12-04,21.921774,120.7358,0.9664295
C0V660,岡山,2025-12-04,22.797078,120.294958,1.3670315e-06
C1H941,雙冬,2025-12-04,23.967378,120.802189,5.348212e-10
C0AJ70,田寮,2025-12-04,25.2698,121.4886,0.9998716
C0AI00,五股,2025-12-04,25.07445,121.42728,0.99750304
C0Z280,德武,2025-12-04,23.47426,121.41071,6.5027677e-09
C2RA10,大新,2025-12-04,22.67558,120.57788,9.293449e-10
C0R700,枋山,2025-12-04,22.246844,120.661086,0.7146485
C0C460,復興,2025-12-04,24.820208,121.352281,1.0883674e-07
C2K300,鹿南,2025-12-04,23.63855,120.3636,0.98404884
E2H360,蓮華池,2025-12-04,23.918333,120.885278,5.2994814e-10
C0M640,中埔,2025-12-04,23.42538,120.5229,2.7384829e-08
C0W140,金沙,2025-12-04,24.488292,118.408778,0.999172
C2A540,四堵,2025-12-04,24.8926,121.745736,1.2676844e-08
C0ACA0,新莊,2025-12-04,25.051478,121.446756,0.9991684
C0R220,潮州,2025-12-04,22.534361,120.54,1.0410299e-08
U2HA40,臺大內茅埔,2025-12-04,23.689722,120.851117,3.4306463e-10
467490,臺中,2025-12-04,24.145736,120.684075,0.9932534
C0UB60,明池,2025-12-04,24.650688,121.475277,1.5114457e-08
C0U960,翠峰湖,2025-12-04,24.510856,121.608044,1.4958212e-08
E2HA20,林試畢祿溪站,2025-12-04,24.226944,121.308522,2.7069953e-09
C2M9A0,大華,2025-12-04,23.4824,120.67491,1.5611376e-09
C0V890,前鎮,2025-12-04,22.5718,120.3117,5.4405973e-09
C1F941,雪嶺,2025-12-04,24.280586,121.026642,7.372495e-09
C2H9E0,國姓南港,2025-12-04,23.911108,120.846556,1.414654e-09
C0AC80,文山,2025-12-04,25.00235,121.575728,0.9998032
C0F9R0,龍井,2025-12-04,24.184536,120.528972,0.9998856
C0M760,民雄,2025-12-04,23.551754,120.428457,0.81711626
C0UA40,西德山,2025-12-04,24.560647,121.752608,1.4615607e-08
C2TA70,赤科坪,2025-12-04,23.39885,121.39168,1.2108632e-08
C1T920,中興,2025-12-04,23.769503,121.498653,8.865694e-09
C0D550,雪霸,2025-12-04,24.526972,121.11605,1.6991363e-09
C2F860,梨山,2025-12-04,24.247522,121.243669,4.574073e-09
C0R320,車城,2025-12-04,22.0744,120.716247,0.09101582
C1S870,南美山,2025-12-04,23.15025,121.382333,3.6463517e-09
C0B020,基隆嶼,2025-12-04,25.19141,121.78391,0.9997314
C1U501,牛鬥,2025-12-04,24.637836,121.573656,5.931236e-09
C0M730,嘉義市東區,2025-12-04,23.457673,120.460531,1.7032427e-07
C2R990,泰武,2025-12-04,22.60686,120.69765,4.330976e-09
C0S700,知本,2025-12-04,22.684866,121.005642,4.1938204e-09
C1N001,沙崙,2025-12-04,22.935472,120.309406,6.866811e-09
C0V760,橋頭,2025-12-04,22.757806,120.30575,3.3554624e-09
C0G960,福寶,2025-12-04,24.0443,120.3814,0.9998951
C0X210,白河,2025-12-04,23.347466,120.414427,1.3780932e-07
C0S810,東河,2025-12-04,22.972672,121.303986,0.99191844
C2R170,屏東,2025-12-04,22.66027,120.49403,1.1125751e-09
C0R670,楓港,2025-12-04,22.190131,120.692156,0.087428614
C0FA50,霧峰,2025-12-04,24.0419,120.6995,0.010454509
C0UB10,蘇澳,2025-12-04,24.5969,121.8571,7.1815026e-10
C0G950,防潮門,2025-12-04,24.1835,120.4871,0.9999542
C0M740,六腳,2025-12-04,23.492871,120.290625,0.99956673
C1R250,力里,2025-12-04,22.428117,120.629228,4.0680462e-07
C0K330,虎尾,2025-12-04,23.719183,120.442036,0.5377333
C2FA00,烏石坑,2025-12-04,24.273503,120.947617,7.545828e-10
C0V620,永安,2025-12-04,22.82315,120.236856,1.3670315e-06
C1I330,楓樹林,2025-12-04,23.986803,121.076117,4.774152e-09
C0W200,湖西,2025-12-04,23.596314,119.67275,0.96328425
72Q010,高雄農改場,2025-12-04,22.709333,120.525889,1.0560325e-09
C0SA40,瑞和,2025-12-04,22.974361,121.156697,1.3061817e-09
C0C680,龜山,2025-12-04,25.02846,121.38656,0.98520637
C2V260,月眉,2025-12-04,22.971003,120.539853,5.601255e-10
C0V450,鳳森,2025-12-04,22.545064,120.392592,2.4862166e-09
C0FA90,小雪山林道,2025-12-04,24.29515,121.03651,1.0622186e-08
C0U720,南山,2025-12-04,24.43742,121.38167,6.846527e-09
A2N290,臺南蘭花園區,2025-12-04,23.340258,120.379661,5.6479016e-06
C0R560,新園,2025-12-04,22.5434,120.461558,2.4862166e-09
C0U890,三星,2025-12-04,24.66812,121.65302,8.0979623e-10
C1V300,御油山,2025-12-04,23.001983,120.715364,2.8911609e-09
C0U600,礁溪,2025-12-04,24.817539,121.765608,5.7307203e-09
C1T980,龍澗,2025-12-04,24.023289,121.411328,1.3212894e-08
C0D670,海天一線,2025-12-04,24.831986,120.914438,0.9846918
C0SA00,歷坵,2025-12-04,22.520969,120.89185,5.5608917e-09
C0M710,東石,2025-12-04,23.458927,120.15385,0.99996287
C0M780,鹿草,2025-12-04,23.41134,120.30835,0.99936694
C0U520,雙連埤,2025-12-04,24.753033,121.641303,3.973296e-09
C0B010,七堵,2025-12-04,25.094819,121.71713,0.9997273
C0R480,長治,2025-12-04,22.693128,120.542622,1.2155532e-09
C1V830,國三S383K,2025-12-04,22.781967,120.426475,1.7599004e-09
12Q980,恆春工作站,2025-12-04,22.079678,120.714425,0.09057122
C1O940,東山服務區,2025-12-04,23.286016,120.398472,5.6479016e-06
C1U840,東澳嶺,2025-12-04,24.5378,121.8485,1.1915404e-08
C1D630,飛鳳山,2025-12-04,24.766464,121.119178,4.2302918e-07
C0S940,石寧山,2025-12-04,23.223772,121.406639,6.35744e-09
C0K410,北港,2025-12-04,23.573957,120.292802,0.9997272
C2M620,瑞里,2025-12-04,23.545133,120.675197,1.3339956e-09
C0SB70,小港漁港,2025-12-04,23.158558,121.400431,1.8671555e-08
C2O950,安南,2025-12-04,23.076694,120.144861,0.9999446
C0F0E0,南湖圈谷,2025-12-04,24.363714,121.444667,1.7356331e-08
467610,成功,2025-12-04,23.097486,121.373428,6.688595e-06
C0G890,伸港,2025-12-04,24.148933,120.484403,0.9999542
C2E540,龍溪,2025-12-04,24.606489,120.783933,6.4497414e-08
C1V200,梅山,2025-12-04,23.268447,120.823556,1.2265201e-09
C0T9H0,加路蘭山,2025-12-04,23.682947,121.5274,6.597025e-09
C2O930,玉井,2025-12-04,23.126042,120.46055,5.973501e-10
C1F911,新伯公,2025-12-04,24.221361,120.841069,1.2940039e-09
C0R490,九如,2025-12-04,22.7405,120.490503,1.0560325e-09
C0X200,左鎮,2025-12-04,23.056758,120.408522,1.4086254e-09
C2TB50,麻汝,2025-12-04,23.42554,121.39358,6.5027677e-09
C0FA60,鞍馬山工作站,2025-12-04,24.267064,121.000793,3.8467856e-09
C0SB50,叭嗡嗡,2025-12-04,23.047062,121.343223,3.806922e-05
C1F891,稍來,2025-12-04,24.265689,121.001142,3.6175063e-09
C2M9C0,紫雲,2025-12-04,23.494914,120.540253,2.7361125e-08
72N240,七股研究中心,2025-12-04,23.081672,120.062894,0.9999516
C0C700,中壢,2025-12-04,24.977661,121.256375,0.998583
C0M690,水上,2025-12-04,23.419734,120.388909,0.99704224
C0V690,鼓山,2025-12-04,22.623325,120.275575,8.973195e-05
C0O860,大內,2025-12-04,23.11885,120.36083,0.001744423
C0Z200,萬榮,2025-12-04,23.709219,121.420106,5.0519056e-09
C0T9D0,和中,2025-12-04,24.26676,121.74103,1.4102203e-08
C2S9A0,北份子寮,2025-12-04,22.78561,121.07813,0.9984371
C1O921,楠西,2025-12-04,23.183511,120.484083,5.973501e-10
C0AJ30,淡水觀海,2025-12-04,25.184591,121.408616,0.99968225
C0V810,左營,2025-12-04,22.67491,120.28491,2.6196942e-06
C0UA70,桃源谷,2025-12-04,24.962606,121.888875,3.5195655e-05
C0X130,官田,2025-12-04,23.193217,120.315422,0.001744423
C1H000,翠峰,2025-12-04,24.109397,121.205211,4.322253e-09
C0UA90,石城,2025-12-04,24.980444,121.951214,0.9999513
C1E681,南勢山,2025-12-04,24.421669,120.923831,1.3000575e-09
C0A9F0,內湖,2025-12-04,25.079422,121.57545,0.99932164
C0K291,宜梧,2025-12-04,23.536281,120.169329,0.99988395
C1K540,口湖,2025-12-04,23.585344,120.180517,0.9998832
C0R780,滿州,2025-12-04,22.024403,120.839892,0.512204
C0V870,文安,2025-12-04,22.8025,120.2164,2.969566e-06
C0U650,玉蘭,2025-12-04,24.675286,121.587061,3.7740873e-09
C0R640,東港,2025-12-04,22.46247,120.44074,1.9066992e-09
C0AJ80,板橋,2025-12-04,25.0107,121.4489,0.99928296
C0S660,下馬,2025-12-04,23.150427,121.070312,7.53299e-09
C2N190,烏樹,2025-12-04,23.32393,120.36989,5.6479016e-06
C1H9B1,阿眉,2025-12-04,24.1263,120.994672,1.5500555e-09
C0UA20,多加屯,2025-12-04,24.368614,121.373189,6.9270865e-09
C0E730,頭份,2025-12-04,24.688247,120.912206,0.9987484
72V140,高改旗南分場,2025-12-04,22.857861,120.516667,1.0056495e-09
C0K480,莿桐,2025-12-04,23.761192,120.502372,0.01818957
C0U980,坪林石牌,2025-12-04,24.86478,121.77396,8.808537e-09
C0T900,西林,2025-12-04,23.8119,121.441458,6.301809e-09
C1I150,青雲,2025-12-04,23.793361,120.949378,4.1241632e-10
C2E980,和興,2025-12-04,24.505319,120.923016,1.5216035e-09
467350,澎湖,2025-12-04,23.565503,119.563094,0.96674
C0G800,埔鹽,2025-12-04,24.000394,120.431683,0.9998771
C0H960,草屯,2025-12-04,23.973672,120.68085,1.250029e-09
C1V780,多納林道,2025-12-04,22.888028,120.737917,1.727613e-09
C0E920,通霄漁港,2025-12-04,24.498589,120.673876,0.025418926
C0Z330,安通山,2025-12-04,23.290728,121.348528,1.886395e-09
C0AH10,永和,2025-12-04,25.01125,121.508111,0.99928296
C0AK10,太平里,2025-12-04,25.134937,121.364899,0.9998712
C2G640,鹿港,2025-12-04,24.0753,120.430481,0.9999573
C1E890,國三N149K,2025-12-04,24.463414,120.680019,0.025418926
C1R110,口社,2025-12-04,22.770111,120.645222,2.5695739e-09
C1M870,國三N285K,2025-12-04,23.550319,120.505833,2.7361125e-08
C1E480,鳳美,2025-12-04,24.554803,121.034747,1.5504578e-09
C0M530,奮起湖,2025-12-04,23.493903,120.699253,1.7665257e-09
C0C590,觀音,2025-12-04,25.027072,121.153317,0.99399215
C0T9M0,靜浦,2025-12-04,23.455167,121.495028,8.348157e-06
C2H9M0,發祥,2025-12-04,24.154094,121.164517,1.0712028e-09
C2G9C0,埔南,2025-12-04,23.99124,120.46969,0.9998771
C0AI40,石牌,2025-12-04,25.115597,121.513139,0.99932164
C1F871,上谷關,2025-12-04,24.203483,121.018644,7.545828e-10
C2H9G0,百勝,2025-12-04,24.051142,120.909361,3.8771092e-10
C0G880,二水,2025-12-04,23.810742,120.6173,6.4872693e-06
C0R940,加祿堂,2025-12-04,22.3363,120.6217,0.7146485
C0W220,北竿,2025-12-04,26.220358,119.974881,4.1045596e-06
C0O960,崎頂,2025-12-04,22.959547,120.369317,6.866811e-09
C0TA40,秀林,2025-12-04,24.302864,121.731144,1.1993429e-08
C0S750,向陽,2025-12-04,23.248397,120.986133,4.7358073e-09
C0T9F0,水璉,2025-12-04,23.797131,121.542514,5.6236096e-09
C1M600,頭凍,2025-12-04,23.406364,120.603339,1.4040226e-09
467660,臺東,2025-12-04,22.752211,121.154586,0.9991012
C1D380,新埔,2025-12-04,24.84745,121.03834,0.99942553
C2G980,田頭村,2025-12-04,23.8263,120.444175,0.7328198
C0V750,路竹,2025-12-04,22.854997,120.259439,1.3670315e-06
C0N050,蚵寮,2025-12-04,23.301,120.1104,0.99990547
C2X060,下營,2025-12-04,23.226806,120.256291,0.9974446
72M700,南改鹿草分場,2025-12-04,23.416869,120.283061,0.99936694
C1SA50,利嘉林道,2025-12-04,22.82325,121.009389,2.6047386e-08
C0UB70,太平山中間站,2025-12-04,24.542003,121.513453,9.057987e-09
C0A940,金山,2025-12-04,25.223628,121.643967,0.99963987
C1V340,大津,2025-12-04,22.888322,120.645986,1.3554501e-09
C0W180,七美,2025-12-04,23.219333,119.444892,0.9602839
C1F9C1,白冷,2025-12-04,24.182844,120.929889,5.344062e-10
K2E710,苗改生物防治研究中心,2025-12-04,24.422861,120.871833,3.73523e-09
C0N040,蘆竹溝,2025-12-04,23.2344,120.0961,0.99990547
C0TB40,崇德,2025-12-04,24.166144,121.657414,7.4365175e-08
C0D760,大坪苗圃,2025-12-04,24.5362,121.1108,2.1477826e-09
C2W230,畜試所澎湖,2025-12-04,23.628342,119.513206,0.8706289
C0R880,後壁湖,2025-12-04,21.9457,120.7457,0.9618682
C1I280,埔中,2025-12-04,23.820778,120.642594,4.6006346e-10
467790,墾丁雷達站,2025-12-04,21.948235,120.808028,0.32003665
C0W190,望安,2025-12-04,23.380564,119.494075,0.89473325
C0Z170,卓溪,2025-12-04,23.3443,121.3029,1.4845649e-09
C0F850,東勢,2025-12-04,24.246428,120.833047,1.5596108e-09
466900,淡水,2025-12-04,25.164889,121.448906,0.9998065
C0I370,魚池,2025-12-04,23.895703,120.94135,5.574046e-10
C0C630,大溪,2025-12-04,24.882853,121.265547,0.99829096
C0A520,山佳,2025-12-04,24.974944,121.402008,0.9987314
C0I110,竹山,2025-12-04,23.761225,120.688156,7.841592e-07
82H840,茶改南部分場,2025-12-04,23.762528,120.7405,4.97212e-10
C2SD80,再來山,2025-12-04,23.34371,121.44122,1.5636914e-09
C0G660,溪湖,2025-12-04,23.94835,120.479122,0.681977
C1T800,洛韶,2025-12-04,24.204558,121.453956,2.4028632e-08
C1T810,慈恩,2025-12-04,24.192044,121.388386,3.5788952e-09
C1E451,象鼻,2025-12-04,24.368617,120.940228,1.2998939e-09
C0AC60,三峽,2025-12-04,24.939025,121.369728,0.998597
C0I490,萬大林道,2025-12-04,23.928228,121.091411,6.363809e-09
C1I290,豐丘,2025-12-04,23.668178,120.887417,2.4074818e-09
C1I320,奧萬大,2025-12-04,23.952956,121.178556,4.769074e-09
C2M910,嘉義大學,2025-12-04,23.471325,120.485903,1.7032427e-07
C0U770,南澳,2025-12-04,24.44935,121.81022,2.9578886e-09
C2TB30,吉安,2025-12-04,23.94538,121.54803,2.813339e-08
C0A980,社子,2025-12-04,25.109508,121.469681,0.9998132
C0V800,六龜,2025-12-04,22.997889,120.633583,1.2453075e-09
C1G9D0,國一S218K,2025-12-04,23.890641,120.493253,0.9871405
C0E570,白沙屯,2025-12-04,24.549447,120.696803,0.9838932
C2F9A0,中竹林,2025-12-04,24.103556,120.751061,7.551904e-10
C0FA40,臺中電廠,2025-12-04,24.2146,120.4907,0.99993145
C2G9A0,畜試所彰化,2025-12-04,23.86045,120.557964,0.112222224
C0H9C0,合歡山,2025-12-04,24.143442,121.272547,1.370989e-08
C0X060,下營,2025-12-04,23.22695,120.256261,0.9999548
G2M350,農試溪口農場,2025-12-04,23.58565,120.408111,0.81711626
C0U860,頭城,2025-12-04,24.85323,121.8308,2.9192952e-08
C0R580,南州,2025-12-04,22.48591,120.50274,0.082641676
C0D430,峨眉,2025-12-04,24.6905,121.017189,3.358892e-06
C0G780,秀水,2025-12-04,24.03405,120.503869,0.6919623
72N100,臺南農改場,2025-12-04,23.0605,120.342194,1.8298391e-05
C0S900,蘭嶼高中,2025-12-04,22.04909,121.51214,0.9873317
C2TA60,六十石,2025-12-04,23.22477,121.31861,9.37528e-09
C1F9W0,德基,2025-12-04,24.254783,121.190261,3.5301364e-09
C2M980,安和,2025-12-04,23.51377,120.31593,0.99956673
C1Z120,壽豐,2025-12-04,23.870853,121.508081,1.4445055e-08
C0W160,烏坵,2025-12-04,24.9944,119.44956,0.45190036
C1I240,外大坪,2025-12-04,23.958697,120.917931,6.0123767e-10
C1I550,國六W023K,2025-12-04,23.979067,120.867742,4.4955784e-10
C0R870,興海,2025-12-04,21.9752,120.8439,0.32003665
C0R140,瑪家,2025-12-04,22.682903,120.686639,8.8795155e-10
C0A530,坪林,2025-12-04,24.938183,121.70975,0.11470245
C0X260,後壁,2025-12-04,23.366358,120.362326,0.9985709
C0Z230,和平,2025-12-04,24.30717,121.77007,2.8860645e-09
C0G770,福興,2025-12-04,24.041289,120.437669,0.9998771
C0H9A0,神木村,2025-12-04,23.532742,120.843667,1.9773285e-09
C0I460,南投,2025-12-04,23.911469,120.687331,1.250029e-09
C0I480,梅峰,2025-12-04,24.085272,121.173572,2.9260947e-09
C1V570,吉東,2025-12-04,22.85422,120.5454,1.4852305e-09
C2D740,屯原,2025-12-04,24.067969,121.209389,3.459305e-08
C2A560,福山,2025-12-04,24.776203,121.502811,3.769246e-09
C0AH30,五分山,2025-12-04,25.07125,121.780794,1.1244672e-08
C0FA10,松柏,2025-12-04,24.429115,120.617482,0.00012479728
72S200,東改班鳩分場,2025-12-04,22.829528,121.077694,5.3332656e-06
72HA00,中改埔里分場,2025-12-04,23.903208,120.963364,5.4953064e-10
C2H9W0,大坪頂農水,2025-12-04,24.043122,120.932781,5.781208e-10
C0C650,平鎮,2025-12-04,24.897503,121.214636,0.99220854
C0S930,延平,2025-12-04,22.902581,121.084058,8.389997e-09
C0UA60,樟樹山,2025-12-04,24.41393,121.78325,3.4744523e-09
C2UC10,出水溪,2025-12-04,24.615822,121.652253,6.67036e-09
C1S670,摩天,2025-12-04,23.199503,121.027,2.4618261e-08
C2C590,觀音,2025-12-04,25.027072,121.153317,0.9935036
C0V630,茄萣,2025-12-04,22.906642,120.182608,2.2899712e-05
466940,基隆,2025-12-04,25.133314,121.740475,0.9997305
C0X050,東河,2025-12-04,23.296598,120.385608,5.647907e-06
C0R770,保力,2025-12-04,22.071122,120.764111,0.69403476
G2L020,農試嘉義分所,2025-12-04,23.485028,120.473806,1.7032427e-07
C0X240,關子嶺,2025-12-04,23.331169,120.508025,6.451938e-10
C0I380,集集,2025-12-04,23.828206,120.801467,4.48235e-10
466990,花蓮,2025-12-04,23.975128,121.613275,8.12292e-07
C1V220,小關山,2025-12-04,23.154217,120.813603,3.264282e-09
C1F9G1,慶福山,2025-12-04,24.180853,120.848378,5.6131155e-10
C0FB20,雪山橋,2025-12-04,24.23192,120.9786,2.9883176e-09
C0Z250,瑞穗林道,2025-12-04,23.49284,121.30688,5.5861637e-08
C0D590,新豐,2025-12-04,24.87068,120.97721,0.9846918
C0A870,五指山,2025-12-04,25.132153,121.608692,0.0008685465
C0UA50,西帽山,2025-12-04,24.555361,121.802628,1.1931551e-08
C2R980,竹田國中,2025-12-04,22.61532,120.52412,1.5282992e-09
C0X160,仁德,2025-12-04,22.968258,120.257689,2.9036219e-05
C1H971,六分寮,2025-12-04,23.92507,120.6378,6.0052824e-10
C0W120,西嶼,2025-12-04,23.5626,119.468436,0.95979965
C0G650,員林,2025-12-04,23.946503,120.585597,1.51566155e-05
C0AD50,鶯歌,2025-12-04,24.951533,121.346294,0.9986334
C2H9Q0,北東眼山,2025-12-04,24.120939,121.189303,3.09286e-09
C2H9T0,名間竹圍,2025-12-04,23.859914,120.637572,2.122226e-09
C0S990,山豬窟,2025-12-04,22.318619,120.857372,0.0009862742
C0X190,安平,2025-12-04,22.993161,120.152181,0.9411762
C0K400,斗六,2025-12-04,23.720583,120.541127,0.018189574
12J990,口湖工作站,2025-12-04,23.589978,120.180394,0.9998832
C0O830,北寮,2025-12-04,23.079561,120.495008,4.9254345e-10
C1D410,白蘭,2025-12-04,24.579364,121.079947,1.7331545e-09
C0S970,加津林,2025-12-04,22.416211,120.926942,2.5829322e-05
C0D700,關西,2025-12-04,24.7977,121.1732,0.9907758
C0M810,里佳,2025-12-04,23.389125,120.716647,2.4930402e-09
C0U750,龜山島,2025-12-04,24.841667,121.953133,4.2505157e-08
C0R810,內獅,2025-12-04,22.305064,120.642986,0.7146485
C1M390,龍美,2025-12-04,23.406728,120.654417,1.8407085e-09
C2K290,崙內,2025-12-04,23.69525,120.35601,0.98404884
C2FB60,頭櫃山,2025-12-04,24.129842,120.858925,8.5592894e-10
C1H840,國三N238K,2025-12-04,23.841008,120.707711,5.769917e-10
CAQ030,崎峰國小,2025-12-04,22.42565,120.49521,0.082641676
C2E520,大湖,2025-12-04,24.414939,120.870872,3.73523e-09
467530,阿里山,2025-12-04,23.508208,120.813242,8.1159035e-09
C1E691,南湖,2025-12-04,24.40135,120.837533,3.0587692e-09
C0FA30,梧棲,2025-12-04,24.256003,120.523381,0.9998856
C1V231,高中,2025-12-04,23.134911,120.716711,9.438288e-10
C0AK30,硬漢嶺,2025-12-04,25.136097,121.426372,0.15295033
C0F9V0,新社,2025-12-04,24.200172,120.815806,8.5247653e-10
C0H890,埔里,2025-12-04,23.972169,120.952425,4.9793897e-10
C0R690,墾丁,2025-12-04,21.966756,120.810269,0.1747277
C0SD20,富山,2025-12-04,22.822383,121.190825,0.96953267
C0F0D0,審馬陣,2025-12-04,24.381675,121.4203,1.14078595e-08
C2W030,金門農試所,2025-12-04,24.448431,118.451786,0.99918795
C0R820,白鷺,2025-12-04,22.454275,120.666219,1.8702055e-09
C0FB00,大雪山,2025-12-04,24.254668,121.007374,3.8873225e-09
C1V190,南天池,2025-12-04,23.27403,120.91176,4.2556567e-09
C0E940,雪見,2025-12-04,24.42595,121.01347,3.6420005e-09
K2E360,苗栗農改場,2025-12-04,24.495722,120.829111,5.276772e-08
CAJ050,海口故事園區,2025-12-04,23.57543,120.14121,0.9998832
C2K280,四湖,2025-12-04,23.6304,120.22717,0.9998176
C2H9D0,三隻寮,2025-12-04,24.093078,120.861578,4.918225e-10
C0O990,媽廟,2025-12-04,22.99175,120.293525,2.6490468e-05
C0D480,打鐵坑,2025-12-04,24.849664,121.150789,0.99886155
C0Z220,和平林道,2025-12-04,24.343922,121.656317,4.5773896e-09
C0TA10,花蓮漁港,2025-12-04,23.995322,121.638331,1.5028913e-06
72C440,桃園農改場,2025-12-04,24.950944,121.030583,0.9964281
C1E711,馬拉邦山,2025-12-04,24.367306,120.901656,2.373043e-09
C0SB20,富岡,2025-12-04,22.792467,121.192669,0.9512903
C0D560,竹東,2025-12-04,24.767147,121.057881,0.9103464
C0F9U0,南屯,2025-12-04,24.137006,120.637969,0.999484
C2SD60,明峰,2025-12-04,22.8671,121.11825,1.4198745e-08
C0M720,番路,2025-12-04,23.464657,120.554156,4.985586e-10
C0F0A0,雪山圈谷,2025-12-04,24.388594,121.236339,1.5128764e-08
C1A9N0,四十份,2025-12-04,24.934158,121.593283,0.3012728
C0U760,東澳,2025-12-04,24.52196,121.83318,2.6609588e-09
C0X230,鹽水,2025-12-04,23.272621,120.247641,0.9998024
C2H9H0,苗改南投蜂場,2025-12-04,23.852589,120.693481,3.261869e-08
C2TB70,達谷寮,2025-12-04,23.38,121.35968,1.5189213e-09
C0R950,萬隆國小,2025-12-04,22.507667,120.587817,2.2207423e-06
467540,大武,2025-12-04,22.35572,120.90374,0.2781053
C0V370,古亭坑,2025-12-04,22.893178,120.401947,7.9351864e-10
C1I340,新興橋,2025-12-04,23.563333,120.868728,8.7772206e-10
C0SA80,土坂,2025-12-04,22.453108,120.887572,1.0134687e-06
C0R160,鹽埔,2025-12-04,22.739558,120.530778,1.0560325e-09
C0AC40,大屯山,2025-12-04,25.175675,121.522408,1.4460763e-06
466850,五分山雷達站,2025-12-04,25.071182,121.781205,1.1235046e-08
C2H9L0,馬烈霸,2025-12-04,24.1512,121.201772,3.09286e-09
C1AI50,國三N016K,2025-12-04,25.034164,121.619664,0.9996104
C2V920,匏子寮,2025-12-04,23.04905,120.55319,5.9281907e-10
C1V600,藤枝,2025-12-04,23.071961,120.757042,2.5373716e-09
C1E601,南勢,2025-12-04,24.572486,120.734842,0.9838932
C0O980,新市,2025-12-04,23.061614,120.298197,1.8298391e-05
C0K420,西螺,2025-12-04,23.800407,120.467394,0.7328198
C0Z050,佳心,2025-12-04,23.34567,121.21316,9.070954e-09
C0AD30,蘆洲,2025-12-04,25.086594,121.472331,0.9992831
C0V610,梓官,2025-12-04,22.760558,120.267211,1.7340534e-06
K2F750,種苗改良場,2025-12-04,24.225972,120.800917,8.5247653e-10
C0UA80,大溪漁港,2025-12-04,24.941801,121.902955,0.9962077
C1AI60,國一39K邊坡,2025-12-04,25.064361,121.383836,0.99578536
C0W150,金寧,2025-12-04,24.457703,118.328989,0.9991342
C0R960,內埔,2025-12-04,22.608483,120.570714,1.5282992e-09
V2C250,八德合作社,2025-12-04,24.93775,121.266389,0.99829096
C2H9S0,龍南,2025-12-04,23.953536,120.833183,8.696168e-10
C0AH40,平等,2025-12-04,25.129142,121.577086,0.5662016
C0R540,佳冬,2025-12-04,22.419456,120.552375,0.0014133474
466950,彭佳嶼,2025-12-04,25.627975,122.079744,0.9915636
C0A890,雙溪,2025-12-04,25.036003,121.864242,0.99994665
C0C480,桃園,2025-12-04,24.992425,121.323172,0.998583
C0AH50,林口,2025-12-04,25.072181,121.38084,0.9873921
A2K360,水試臺西試驗場,2025-12-04,23.717231,120.190522,0.9997384
C2M960,外寮,2025-12-04,23.562643,120.665688,1.1793259e-09
C0F9S0,烏日,2025-12-04,24.107058,120.624103,0.999484
C2N180,鹿陶洋,2025-12-04,23.14325,120.48352,5.973513e-10
C0C490,八德,2025-12-04,24.928708,121.283289,0.99829096
C0R190,赤山,2025-12-04,22.592333,120.614306,1.2858602e-09
C0T820,天祥,2025-12-04,24.179597,121.495639,3.3076226e-08
C1F9E1,龍安,2025-12-04,24.1605,120.831961,8.2302737e-10
C2SD50,順那,2025-12-04,23.04166,121.29332,0.9877205
C0V820,小林,2025-12-04,23.148408,120.63325,7.881007e-10
C2G870,芳苑,2025-12-04,23.922303,120.320025,0.99249226
C0E850,大河,2025-12-04,24.618069,120.948578,3.4682145e-07
C1U670,寒溪,2025-12-04,24.634,121.71691,8.135753e-10
C0N020,城西,2025-12-04,23.0568,120.0956,0.99994767
C1Z110,三棧,2025-12-04,24.11557,121.60501,2.7603612e-08
C0R280,檳榔,2025-12-04,22.076078,120.836777,0.9924249
C2H9J0,中台,2025-12-04,23.9996,120.938739,5.781208e-10
C0F9L0,后里,2025-12-04,24.310436,120.729725,3.857301e-08
467441,高雄,2025-12-04,22.730432,120.312516,3.3554624e-09
C0Z180,新城,2025-12-04,24.040486,121.604878,6.09998e-07
C0D540,橫山,2025-12-04,24.71116,121.11693,0.00015431173
C1D420,太閣南,2025-12-04,24.632808,121.160575,2.1905409e-09
C1E770,公館,2025-12-04,24.526914,120.830806,1.2809619e-07
CAN130,水試所海水繁養殖中心,2025-12-04,23.120802,120.07968,0.9999516
C1I430,翠華,2025-12-04,24.191961,121.224339,6.0376726e-09
C1M400,菜瓜坪,2025-12-04,23.251928,120.576103,1.0111214e-09
C0G730,二林,2025-12-04,23.903325,120.376081,0.999903
72M360,南改義竹分場,2025-12-04,23.360694,120.279361,0.99963635
V2K620,麥寮合作社,2025-12-04,23.753836,120.294783,0.9995725
C0Z070,舞鶴,2025-12-04,23.46811,121.37407,5.3563918e-09
C0B040,大武崙,2025-12-04,25.166676,121.706993,0.9997191
C1Z030,紅葉,2025-12-04,23.493119,121.338806,6.2791443e-09
C1I050,丹大,2025-12-04,23.753747,121.141147,7.3722277e-09
C0I080,信義,2025-12-04,23.689694,120.851036,3.4306463e-10
C2TB80,庄子底,2025-12-04,23.71794,121.49438,6.4946732e-09
C0D750,樂山林道6k,2025-12-04,24.49999,121.08773,4.2148303e-09
C2M920,朴子農改,2025-12-04,23.469889,120.259383,0.99936694
C2A880,福隆,2025-12-04,25.017842,121.942083,0.99995226
C0Z160,鳳林,2025-12-04,23.746114,121.453411,6.243794e-09
C0UB80,翠峰林道6K,2025-12-04,24.49773,121.568625,1.6464897e-08
C0V210,復興,2025-12-04,23.222403,120.806089,8.9896524e-10
C0H990,昆陽,2025-12-04,24.121322,121.273642,1.006959e-08
C0R741,獅子,2025-12-04,22.202308,120.705236,0.89620835
C0S710,鹿野,2025-12-04,22.917711,121.122994,3.5843124e-09
C0I530,小奇萊,2025-12-04,24.131764,121.295717,1.0730641e-08
C0FA70,大雪山埡口,2025-12-04,24.26867,121.03062,7.2364927e-09
C2K630,荷苞,2025-12-04,23.657717,120.595144,2.7427574e-09
C0Z080,富源,2025-12-04,23.587642,121.378225,9.301328e-09
C2M9E0,旺來山,2025-12-04,23.555153,120.486463,2.7361073e-08
C0SB10,美和,2025-12-04,22.682078,121.060236,0.99910164
C2K620,馬光農場,2025-12-04,23.721453,120.378864,0.5377332
C1I140,卡奈托灣,2025-12-04,23.754364,121.087872,3.2905618e-09
C0I520,玉山風口,2025-12-04,23.470489,120.955994,1.9835396e-08
C1G691,下水埔,2025-12-04,23.816114,120.5676,0.23197569
C0X110,臺南市南區,2025-12-04,22.961189,120.188378,1.9072177e-05
C0V680,仁武,2025-12-04,22.701083,120.347722,3.3554624e-09
C2G840,北斗,2025-12-04,23.877586,120.514222,0.9871405
C2TB90,長橋,2025-12-04,23.6874,121.46186,6.215716e-09
C0R900,竹坑,2025-12-04,22.1385,120.7022,0.087428614
C0K250,崙背,2025-12-04,23.75555,120.318925,0.99974865
C0G860,社頭,2025-12-04,23.897647,120.5862,0.112222224
C0X150,安定,2025-12-04,23.102614,120.227839,0.40504682
C0R590,里港,2025-12-04,22.77919,120.49459,1.5304723e-09
C0E610,馬都安,2025-12-04,24.451272,120.930192,1.1672192e-09
C0E550,明德,2025-12-04,24.583486,120.885411,6.660238e-06
C0R150,三地門,2025-12-04,22.709889,120.639944,8.7115076e-10
C0G910,花壇,2025-12-04,24.032076,120.549461,0.691962
C1D400,鳥嘴山,2025-12-04,24.71909,121.28387,2.2208562e-09
C0K500,元長,2025-12-04,23.64981,120.315024,0.9995459
C0F0B0,石岡,2025-12-04,24.276061,120.777644,3.857301e-08
C2V250,甲仙,2025-12-04,23.080106,120.591758,8.012859e-10
C0SA20,金崙山,2025-12-04,22.567419,120.959667,4.856795e-09
C0V350,溪埔,2025-12-04,22.738578,120.446797,1.7599004e-09
C0M660,溪口,2025-12-04,23.604131,120.403569,0.81711626
C1S880,壽卡,2025-12-04,22.238911,120.858903,0.2291085
72D680,桃改新埔分場,2025-12-04,24.834444,121.066111,0.99942553
