站號,站名,日期,lat,lon,BLBTSLS
C0R710,龍磐,2025-05-18,21.931672,120.838942,0.1891187
C1F9D1,白毛台,2025-05-18,24.158325,120.886933,1.15952e-08
C0G940,竹塘,2025-05-18,23.848253,120.386764,0.007755896
467590,恆春,2025-05-18,22.003897,120.746339,0.23587449
C1O850,環湖,2025-05-18,23.148617,120.418633,0.06672576
C0U710,太平山,2025-05-18,24.505486,121.525656,8.836454e-09
C0E820,獅潭,2025-05-18,24.539133,120.920042,3.0465228e-06
C0V880,興達,2025-05-18,22.8778,120.2127,0.98177725
C0S890,關山,2025-05-18,23.0395,121.175017,0.99955326
C0SB30,新蘭,2025-05-18,22.869214,121.223228,0.99762994
C2R970,屏科大,2025-05-18,22.648275,120.619247,0.15349418
C1Z130,銅門,2025-05-18,23.965694,121.492842,0.9995544
C0AD40,土城,2025-05-18,24.973208,121.445169,0.9999249
CAN140,六官養殖協會,2025-05-18,23.22881,120.29962,0.9973168
C0X180,山上,2025-05-18,23.0757,120.363253,0.22483708
C0F9Z0,雪山東峰,2025-05-18,24.388792,121.268675,2.5986797e-08
C1M480,獨立山,2025-05-18,23.537022,120.607797,1.806873e-09
C0X220,學甲,2025-05-18,23.230367,120.182187,0.9932963
467650,日月潭,2025-05-18,23.881325,120.90805,2.3746414e-09
C0K600,箔子寮,2025-05-18,23.6197,120.14,0.74028873
C0G830,埤頭,2025-05-18,23.866003,120.452806,0.011126681
C0S950,七塊厝,2025-05-18,22.954453,121.229922,0.92050344
467110,金門,2025-05-18,24.407306,118.289281,0.24717712
C0AH80,深坑,2025-05-18,25.002703,121.628328,0.99990505
C0A970,三貂角,2025-05-18,25.007606,122.002058,0.006383728
C2D730,寶山農場,2025-05-18,24.732444,120.976153,3.5375746e-05
C0K430,褒忠,2025-05-18,23.690938,120.303634,0.9981617
467480,嘉義,2025-05-18,23.495925,120.432906,0.7536625
C0V400,阿公店,2025-05-18,22.804194,120.355528,0.99136096
467550,玉山,2025-05-18,23.48718,120.95943,2.9508351e-08
C0R440,大漢山,2025-05-18,22.405264,120.753181,1.8189418e-08
C0K280,四湖,2025-05-18,23.630414,120.227125,0.99766666
C1F9B1,桐林,2025-05-18,24.066172,120.735194,0.99951243
C2H9U0,鳳鵬,2025-05-18,23.763919,120.788061,2.3929248e-08
C0K390,土庫,2025-05-18,23.679029,120.395574,0.017127346
C1I450,望鄉山,2025-05-18,23.594153,120.944286,1.4253311e-08
C0E910,海埔,2025-05-18,24.648767,120.772435,0.99251467
B2E890,畜試北區分所,2025-05-18,24.527806,120.770972,0.9908069
C0R750,四林格山,2025-05-18,22.076989,120.802439,0.999964
C0F0C0,中坑,2025-05-18,24.248517,120.903319,2.840957e-09
C1I121,大鞍,2025-05-18,23.678381,120.760017,2.4042925e-09
72U480,花改蘭陽分場,2025-05-18,24.686306,121.716583,0.6327613
C0A770,科教館,2025-05-18,25.096356,121.516507,0.9999581
C0AJ60,六塊厝,2025-05-18,25.24,121.4481,0.999854
C0R620,墾雷,2025-05-18,21.900836,120.855269,0.19265646
467420,永康,2025-05-18,23.038386,120.2367,0.9824736
C0I410,名間,2025-05-18,23.837053,120.701447,1.6575847e-05
A2C560,農工中心,2025-05-18,24.985917,121.239833,0.00095759216
C0V740,旗山,2025-05-18,22.888614,120.483597,0.99248755
C0Z061,玉里,2025-05-18,23.3215,121.339656,0.9989621
C0S840,南田,2025-05-18,22.279725,120.889208,0.99459064
C1I470,杉林溪,2025-05-18,23.639517,120.786444,2.9114866e-09
C1X040,東原,2025-05-18,23.291597,120.463822,2.603344e-05
C0R660,枋寮,2025-05-18,22.367722,120.590647,0.967896
C1R120,上德文,2025-05-18,22.763272,120.704442,7.006177e-07
C0K450,大埤,2025-05-18,23.646074,120.431537,0.028666826
C0UA00,土場,2025-05-18,24.576533,121.495333,0.0039363517
467080,宜蘭,2025-05-18,24.763975,121.756528,0.48317027
C0N030,四草,2025-05-18,23.0235,120.1116,0.99660224
467410,臺南,2025-05-18,22.99328,120.20492,0.9538374
C0V650,彌陀,2025-05-18,22.783806,120.246361,0.92947453
C0D660,新竹市東區,2025-05-18,24.798681,120.986942,0.8895267
82S580,茶改東部分場,2025-05-18,22.907694,121.130139,0.9995958
C0SB40,興隆,2025-05-18,22.913661,121.257469,0.9979863
467050,新屋,2025-05-18,25.006725,121.047492,0.9722339
C0C710,大溪永福,2025-05-18,24.892936,121.324975,0.25379398
C0FA20,溫寮,2025-05-18,24.372177,120.583125,0.9994924
C0V640,湖內,2025-05-18,22.887139,120.2445,0.98024315
C0R910,下寮,2025-05-18,22.3929,120.5548,0.9677819
C0Z020,明里,2025-05-18,23.208717,121.262342,0.9995154
C0M770,嘉義梅山,2025-05-18,23.585398,120.555587,1.9435152e-05
C0C660,楊梅,2025-05-18,24.912375,121.143047,4.4713513e-05
C1E511,新開,2025-05-18,24.347703,120.827019,9.7065604e-05
G2F820,農試所(霧峰),2025-05-18,24.031261,120.688133,0.999085
C1I070,和社,2025-05-18,23.591131,120.888861,3.1903582e-08
C2F000,大肚,2025-05-18,24.15295,120.572117,4.654768e-07
C1S850,豐南,2025-05-18,23.122139,121.262389,0.08514308
C2A920,富貴角,2025-05-18,25.263783,121.565258,0.9987066
CAH030,茶改場竹圍站,2025-05-18,23.860083,120.637528,2.809623e-08
C0T960,光復,2025-05-18,23.660694,121.424964,0.9995261
C0F9M0,豐原,2025-05-18,24.254322,120.720692,0.1728746
C0R720,旭海,2025-05-18,22.205403,120.887614,0.98479444
C0V710,苓雅,2025-05-18,22.622742,120.330669,0.9835713
C0C740,觀音工業區,2025-05-18,25.064764,121.114856,0.9987823
CAC040,拉拉山,2025-05-18,24.699317,121.427133,5.1428866e-09
C0V790,萬山,2025-05-18,22.905944,120.688056,7.606048e-08
U2HA30,臺大和社,2025-05-18,23.590856,120.888864,3.1903582e-08
C0AJ90,澳底,2025-05-18,25.0552,121.9253,0.60942364
C0Z100,東華,2025-05-18,23.89525,121.549833,0.9983922
C0G970,三豐,2025-05-18,23.882,120.2895,0.98866
V2K610,大庄合作社,2025-05-18,23.8068,120.367939,0.9979382
C0V900,汕尾,2025-05-18,22.4782,120.4151,0.9751702
C1R630,龍泉,2025-05-18,22.66701,120.59091,0.7869936
C1AC50,關渡,2025-05-18,25.133486,121.469331,0.9999274
C0F9I0,神岡,2025-05-18,24.272481,120.658314,0.4276941
C0K460,斗南,2025-05-18,23.678734,120.478359,0.016887033
C2O810,曾文,2025-05-18,23.219681,120.497328,0.0009870082
467280,後龍,2025-05-18,24.648563,120.831834,0.982634
C1F9J1,清水林,2025-05-18,24.071242,120.820419,2.6957578e-09
C2A650,火燒寮,2025-05-18,25.002719,121.742892,2.2649856e-05
466930,竹子湖,2025-05-18,25.162078,121.544547,1.17067565e-08
C1I220,樟湖,2025-05-18,23.905333,120.846983,2.2372844e-09
C0I390,仁愛,2025-05-18,24.022122,121.132206,2.163823e-09
C0Z300,東里,2025-05-18,23.26853,121.30547,0.999263
C1V590,新發,2025-05-18,23.057019,120.646064,1.1117695e-08
C0K510,水林,2025-05-18,23.572924,120.24597,0.74861634
72S590,東改賓朗果園,2025-05-18,22.813889,121.071278,0.99969155
82A750,茶改北部分場,2025-05-18,24.955778,121.631222,6.089395e-08
C1A750,石碇服務區,2025-05-18,25.00872,121.646242,0.9998899
C0X300,鹿寮,2025-05-18,23.386047,120.477331,0.0016736272
G2AI50,關渡,2025-05-18,25.11575,121.492,0.9999336
C0K590,雲林東勢,2025-05-18,23.674192,120.255721,0.99848706
C0A570,桶後,2025-05-18,24.848222,121.597992,0.01269347
C1S800,華源,2025-05-18,22.657883,121.02325,0.9990806
C0G720,溪州,2025-05-18,23.851589,120.499093,0.0055652014
C1V160,達卡努瓦,2025-05-18,23.279811,120.705319,2.8896834e-09
C2M410,馬頭山,2025-05-18,23.324361,120.582017,2.2379272e-06
C0V850,蚵仔寮,2025-05-18,22.7256,120.2527,0.9726503
C0S740,池上,2025-05-18,23.119628,121.209469,0.9995133
C1V390,尖山,2025-05-18,22.813153,120.367789,0.990076
C0AH70,松山,2025-05-18,25.04871,121.55042,0.99995667
C0N010,鯤鯓國小,2025-05-18,23.1879,120.0889,0.9932609
C0R550,新埤,2025-05-18,22.467947,120.582894,0.9849704
C0SA60,知本（水試所）,2025-05-18,22.702394,121.082761,0.9954673
C0T9I0,豐濱,2025-05-18,23.583897,121.514806,0.9996336
C0UB00,淡江大學蘭陽校園,2025-05-18,24.823239,121.730383,6.8962414e-08
C0W240,九宮,2025-05-18,24.423753,118.240186,0.24256313
C0T9N0,富里,2025-05-18,23.171639,121.249378,0.99964696
U2HA50,臺大竹山,2025-05-18,23.756972,120.681556,2.1926688e-05
C0V840,鳳鼻頭,2025-05-18,22.5083,120.3591,0.9903387
C0X140,西港,2025-05-18,23.125608,120.203108,0.99672866
72D080,桃改五峰分場,2025-05-18,24.612194,121.157167,3.6928185e-09
C2H9P0,伊拿谷,2025-05-18,23.963211,121.088264,2.888818e-09
C2H9F0,柑林,2025-05-18,24.018658,120.847072,2.092938e-06
C0TA20,加灣,2025-05-18,24.082025,121.608944,0.99885345
C0V530,阿蓮,2025-05-18,22.883208,120.327508,0.9371663
C1O880,關山,2025-05-18,23.173397,120.594092,2.624896e-06
C0E791,卓蘭,2025-05-18,24.3126,120.8244,4.7491827e-05
C1I030,武界,2025-05-18,23.913225,121.052483,2.733404e-09
C0R520,崁頂,2025-05-18,22.514781,120.506914,0.9874138
C0R341,牡丹,2025-05-18,22.130036,120.792639,0.96228164
C0R930,萬丹,2025-05-18,22.5885,120.4851,0.98391426
C0S760,紅石,2025-05-18,23.069131,121.126219,6.4338517e-09
C2C410,中央大學,2025-05-18,24.967652,121.185165,0.00056430703
C1M610,石磐龍,2025-05-18,23.496606,120.663506,1.7083458e-09
C0UA10,鴛鴦湖,2025-05-18,24.590269,121.412228,5.7883933e-09
V2C260,八德蔬果,2025-05-18,24.978508,121.281819,0.034732044
C0R800,丹路,2025-05-18,22.204481,120.750989,0.990486
C0G920,永靖,2025-05-18,23.924703,120.547533,0.98512864
C2M950,太和,2025-05-18,23.538372,120.702961,1.8699844e-09
C1A630,下盆,2025-05-18,24.771003,121.538622,1.5662504e-08
B2N890,畜產試驗所,2025-05-18,23.058972,120.336406,0.8754857
C0UA30,白嶺,2025-05-18,24.527819,121.519031,7.092007e-09
C1V580,溪南(特生中心),2025-05-18,23.084972,120.788475,4.6177804e-09
C1T970,大農,2025-05-18,23.615233,121.413331,0.99959236
C0R650,竹田,2025-05-18,22.58486,120.54344,0.98726493
C1H900,清流,2025-05-18,24.080775,120.962997,2.8882396e-09
C1C510,水尾,2025-05-18,24.940081,121.087161,0.016186917
C0F9X0,大雅(中科園區),2025-05-18,24.21528,120.62445,0.99958867
C0SB60,白守蓮,2025-05-18,23.126769,121.401914,0.993254
C0O970,虎頭埤,2025-05-18,23.021375,120.347878,0.5234409
C0C730,中大臨海站,2025-05-18,24.966126,121.008581,0.9824479
C0X250,新營,2025-05-18,23.310689,120.316681,0.99602854
C0V700,三民,2025-05-18,22.645017,120.311233,0.9658091
C0U870,大礁溪,2025-05-18,24.791042,121.675047,2.753357e-08
C0E870,高鐵苗栗,2025-05-18,24.60725,120.826094,0.9986067
A2K570,古坑花卉中心,2025-05-18,23.63353,120.55239,0.0017448291
C0TA30,鹽寮,2025-05-18,23.845606,121.592664,0.99780715
C0M860,新美,2025-05-18,23.338017,120.683169,4.5596225e-09
C1E701,八卦,2025-05-18,24.491756,120.927619,6.8923725e-09
C0I420,國姓,2025-05-18,24.037803,120.855072,5.3964845e-07
C2D720,關西工作站,2025-05-18,24.757275,121.184792,1.9021045e-05
C0S960,香蘭,2025-05-18,22.587569,120.993375,0.9944565
467620,蘭嶼,2025-05-18,22.0369,121.55843,0.8204029
C0R260,春日,2025-05-18,22.370361,120.628306,0.98701674
72G600,臺中農改場,2025-05-18,24.003028,120.534389,0.9594685
C0Z210,瑞穗,2025-05-18,23.5239,121.39021,0.9996483
C0M820,達邦,2025-05-18,23.453994,120.749517,1.9793889e-09
C0V860,南寮,2025-05-18,22.7616,120.2339,0.97213495
C0G740,大城,2025-05-18,23.852487,120.320935,0.989426
C0R920,塭仔,2025-05-18,22.4169,120.5197,0.96061486
C0R470,高樹,2025-05-18,22.826389,120.600806,0.39853492
C0R680,佳樂水,2025-05-18,21.993578,120.861633,0.26298457
C1O870,大棟山,2025-05-18,23.31157,120.52226,2.8855416e-09
C0D360,梅花,2025-05-18,24.678347,121.208558,1.7995482e-08
C0Z190,富世,2025-05-18,24.14743,121.6297,0.99994403
C0AI10,屈尺,2025-05-18,24.92184,121.54475,0.99988604
B2U990,畜試東區分所,2025-05-18,24.669039,121.832561,0.6040522
C0SB80,長濱漁港,2025-05-18,23.313644,121.459994,0.994935
C0R240,來義,2025-05-18,22.527306,120.625111,0.9930085
C0V910,大樹,2025-05-18,22.684645,120.432803,0.9161087
C1R610,西大武山,2025-05-18,22.617719,120.7322,1.8578834e-08
C0G900,線西,2025-05-18,24.143358,120.443536,0.9990868
C0M700,竹崎,2025-05-18,23.526178,120.555508,3.110509e-05
C2E880,三義,2025-05-18,24.405478,120.749819,6.8999384e-08
C0C720,竹圍,2025-05-18,25.112692,121.239824,0.9999338
C0F9P0,清水,2025-05-18,24.312297,120.562242,0.9994101
C0Z150,吉安光華,2025-05-18,23.930925,121.595153,0.9983349
467300,東吉島,2025-05-18,23.25727,119.66762,0.999864
C1D640,外坪(五指山),2025-05-18,24.644447,121.090961,1.1782315e-08
C0F9O0,潭子,2025-05-18,24.213106,120.703933,0.7578911
C2H9R0,卓社,2025-05-18,23.887894,121.000086,2.3844948e-09
72T250,花蓮農改場,2025-05-18,23.975222,121.563889,0.9987921
C0E780,銅鑼,2025-05-18,24.489681,120.790853,0.71054447
C1T950,太安,2025-05-18,23.666719,121.370128,2.2002304e-09
C0E830,苑裡,2025-05-18,24.439714,120.653053,0.9995165
467270,田中,2025-05-18,23.873803,120.581286,0.011368493
C0SA10,檳榔四格山,2025-05-18,22.810031,121.109308,0.9970412
C1T830,布洛灣,2025-05-18,24.17184,121.57127,0.038222395
C0F970,大坑,2025-05-18,24.173142,120.722289,0.98047
C1U920,思源,2025-05-18,24.393125,121.347214,6.482075e-09
C0A931,三和,2025-05-18,25.233153,121.595236,0.99954295
C0I010,廬山,2025-05-18,24.033311,121.181808,2.657885e-09
C2M940,日野賀,2025-05-18,23.434056,120.727169,1.7735682e-09
C0R860,鼻頭,2025-05-18,22.1043,120.8979,0.25105983
C0UB20,壯圍,2025-05-18,24.7359,121.8163,0.8432488
C0R790,九棚,2025-05-18,22.14195,120.889281,0.98961246
C0W110,東莒,2025-05-18,25.9652,119.98069,0.0043305885
C1U930,粉鳥林,2025-05-18,24.497088,121.842479,0.9999284
C1I211,蘆竹湳,2025-05-18,23.934019,120.811994,6.246009e-09
C0S830,長濱,2025-05-18,23.286817,121.411975,0.9994952
C1F9F1,伯公龍,2025-05-18,24.272392,120.849047,1.4653479e-07
C0E810,西湖,2025-05-18,24.562947,120.7485,0.9885028
C1I440,新高口,2025-05-18,23.478744,120.878939,7.507587e-09
C0O840,王爺宮,2025-05-18,23.222064,120.40085,0.0015234578
C0T9G0,鳳林山,2025-05-18,23.735269,121.420131,2.2568533e-07
C0X080,佳里,2025-05-18,23.173039,120.145086,0.9932847
C0FB70,大甲溪埔,2025-05-18,24.370625,120.620067,0.9995911
C0Z310,清水斷崖,2025-05-18,24.218294,121.689142,0.9997302
C0M680,太保,2025-05-18,23.455062,120.331455,0.82024467
C1S820,金峰,2025-05-18,22.590969,120.933236,0.99341744
C0AD10,八里,2025-05-18,25.150211,121.403947,0.9999343
C2K240,草嶺,2025-05-18,23.59555,120.693461,1.655476e-09
C1SA70,都蘭,2025-05-18,22.87794,121.226881,0.9979955
C0K440,二崙,2025-05-18,23.772797,120.408944,0.020088691
C1A760,坪林交控,2025-05-18,24.94284,121.713442,9.49197e-05
C0F9N0,大里,2025-05-18,24.092464,120.701378,0.002302001
C0SA90,達仁林場,2025-05-18,22.264347,120.823972,0.0012140943
C1R290,石門山,2025-05-18,22.112611,120.756597,0.99944943
42HA10,萬大發電廠,2025-05-18,23.978875,121.139639,2.2594813e-09
C0R890,山海,2025-05-18,21.9878,120.7091,0.29467508
C0T9A0,月眉山,2025-05-18,23.809928,121.539828,8.3939114e-05
C0AC70,信義,2025-05-18,25.037822,121.564597,0.99995655
C0K560,棋山,2025-05-18,23.68645,120.603417,0.0005362
C2FB50,出雲,2025-05-18,24.206469,120.902794,2.1775106e-09
C1Z240,中平林道,2025-05-18,23.42115,121.26763,2.0880888e-09
U2H480,溪頭,2025-05-18,23.670306,120.798194,1.944784e-09
C0M880,好美里,2025-05-18,23.3364,120.138,0.99632895
C0T9E0,大坑,2025-05-18,23.880628,121.581981,0.023032581
C0K530,臺西,2025-05-18,23.701547,120.197559,0.99705327
C1E900,國一N128K,2025-05-18,24.560997,120.844186,0.995781
C0AJ50,水湳洞,2025-05-18,25.123695,121.862238,0.9999463
C0AI20,白沙灣,2025-05-18,25.283128,121.519058,0.9998391
C2V310,美濃,2025-05-18,22.898792,120.51907,0.9927319
C0A860,大坪,2025-05-18,25.165914,121.632969,4.8877432e-08
C1U850,觀音海岸,2025-05-18,24.38319,121.77856,5.5576685e-09
C2K610,草嶺石壁,2025-05-18,23.602469,120.707731,1.6482201e-09
C0U950,鶯子嶺,2025-05-18,24.89754,121.79244,6.6077797e-09
C0O900,善化,2025-05-18,23.112883,120.297219,0.9688857
C0K550,蔦松,2025-05-18,23.514319,120.229736,0.7748135
E2P980,林試六龜中心,2025-05-18,22.991703,120.645722,4.4248072e-06
C0E590,通霄,2025-05-18,24.471892,120.704622,0.993907
C1I310,西巒,2025-05-18,23.754486,120.883956,1.8761184e-09
C0A550,泰平,2025-05-18,24.971197,121.823711,4.915688e-08
C0I360,水里,2025-05-18,23.812553,120.849792,6.6753266e-08
C0R830,高士,2025-05-18,22.121825,120.836781,0.9998181
C1I101,溪頭,2025-05-18,23.661789,120.807647,3.3291023e-09
C0AJ20,野柳,2025-05-18,25.20703,121.690021,0.99993324
C0B060,暖暖,2025-05-18,25.0957,121.7403,0.9999464
C1H920,長豐,2025-05-18,24.102039,120.879897,2.8032194e-09
C0V360,內門,2025-05-18,22.975481,120.466769,0.29921862
C0R850,林邊,2025-05-18,22.4634,120.5339,0.97991633
C0E930,龍鳳,2025-05-18,24.700034,120.859125,0.91710186
C0U910,冬山,2025-05-18,24.63373,121.7937,0.6040522
C1E721,泰安,2025-05-18,24.489017,120.968036,3.0338487e-09
82H320,茶改中部分場,2025-05-18,23.875611,120.913583,3.079486e-09
C0M750,布袋,2025-05-18,23.380878,120.167789,0.83027774
C1S860,利嘉,2025-05-18,22.809417,121.050528,0.0011084683
E2S980,林試太麻里1,2025-05-18,22.598922,120.980044,0.9962303
C0X170,關廟,2025-05-18,22.963017,120.327797,0.82206655
C0V720,林園,2025-05-18,22.507747,120.394511,0.9747433
C1I510,線浸林道,2025-05-18,23.761508,120.832956,1.7025101e-09
C0D690,外湖,2025-05-18,24.917735,120.968711,0.7057345
C0C750,新興坑尾,2025-05-18,25.0061,121.0971,0.9009441
B2Q810,畜試南區分所,2025-05-18,21.945583,120.802167,0.2670196
C0S790,金崙,2025-05-18,22.538122,120.966875,0.98779273
C0AH90,福山植物園,2025-05-18,24.760717,121.58135,1.0587476e-08
C0I540,奇萊稜線,2025-05-18,24.109231,121.326456,2.1177021e-08
C0M850,表湖,2025-05-18,23.24186,120.64166,2.2272022e-09
C0S770,大溪山,2025-05-18,22.478475,120.943325,0.18801676
C0AG80,中和,2025-05-18,24.991622,121.491792,0.99992406
C0T790,大禹嶺,2025-05-18,24.186117,121.316086,1.4674603e-08
C0T9B0,水源,2025-05-18,23.991861,121.537169,4.073186e-07
C0R840,牡丹池山,2025-05-18,22.168389,120.841225,0.0015864704
C1I131,桶頭,2025-05-18,23.641944,120.654117,7.3058246e-08
CAL110,布袋國中,2025-05-18,23.35893,120.18026,0.99700516
467571,新竹,2025-05-18,24.827853,121.014219,0.6810358
C0Z290,赤柯山,2025-05-18,23.36893,121.38293,2.400321e-08
C0X280,將軍,2025-05-18,23.214999,120.13577,0.9935295
C0S690,太麻里,2025-05-18,22.60902,120.98533,0.99877405
C0U880,北關,2025-05-18,24.9072,121.8734,0.9998852
C0G810,埔心,2025-05-18,23.947633,120.525456,0.9846322
C0U970,大福,2025-05-18,24.80064,121.81389,0.59066415
C2H9N0,仁愛東眼,2025-05-18,24.026875,121.1205,2.427873e-09
C1E670,南礦,2025-05-18,24.538278,121.002836,2.837529e-09
C0M520,東後寮,2025-05-18,23.369908,120.248065,0.9967754
C1E461,松安,2025-05-18,24.397972,120.986022,2.6643563e-09
C2N160,西拉雅風管處,2025-05-18,23.189481,120.335297,0.9845969
C2M970,碧湖,2025-05-18,23.568632,120.624165,1.7116139e-09
C0A640,石碇,2025-05-18,24.993969,121.662917,0.00013794056
E2S960,林試太麻里2,2025-05-18,22.598,120.99775,0.99372137
C0F9Y0,桃山,2025-05-18,24.432739,121.303808,2.843821e-08
C1I020,萬大,2025-05-18,23.979817,121.132261,2.1696833e-09
C0U940,羅東,2025-05-18,24.68184,121.74934,0.7315123
C0M650,朴子,2025-05-18,23.43463,120.23902,0.8369878
C1I500,大尖山,2025-05-18,23.858572,120.994889,4.21952e-09
C0G820,田尾,2025-05-18,23.901669,120.509389,0.984708
E2K600,四湖植物園,2025-05-18,23.676986,120.163433,0.99767905
C0S730,綠島,2025-05-18,22.6672,121.47533,0.99834806
12Q970,東港工作站,2025-05-18,22.479997,120.466058,0.9787201
C0E430,南庄,2025-05-18,24.601775,121.000214,2.3055825e-06
C1TA00,太魯閣,2025-05-18,24.15773,121.6236,0.99990624
466920,臺北,2025-05-18,25.037658,121.514853,0.99995667
C0R600,舊泰武,2025-05-18,22.588194,120.664944,9.163221e-09
C1I260,北坑,2025-05-18,23.9246,121.006903,4.816766e-09
466910,鞍部,2025-05-18,25.182586,121.529731,8.0632425e-09
C1I230,九份二山,2025-05-18,23.961944,120.845,3.5161658e-09
C2A660,瑞芳,2025-05-18,25.113169,121.801147,0.9999086
C0R270,琉球嶼,2025-05-18,22.332244,120.362236,0.98594135
C1T990,高寮,2025-05-18,23.394239,121.356808,0.9996218
C0G620,芬園,2025-05-18,24.015678,120.6213,0.97216046
C1Z140,荖溪,2025-05-18,23.890575,121.45964,2.380833e-08
C1I201,中心崙,2025-05-18,23.728722,120.712097,2.9720777e-09
C1I400,凌霄,2025-05-18,24.018778,121.004456,2.3928415e-09
C1M640,十字,2025-05-18,23.492153,120.753683,2.5430646e-09
G2P820,農試鳳山分所,2025-05-18,22.646611,120.356083,0.96922517
C0Z270,蕃薯寮,2025-05-18,23.73835,121.540108,0.70550066
C0F9Q0,外埔,2025-05-18,24.347817,120.705686,0.8452068
C0K580,高鐵雲林,2025-05-18,23.737456,120.417944,0.018538494
C2I090,鳳凰,2025-05-18,23.728081,120.787347,2.323299e-09
C0U990,員山,2025-05-18,24.74435,121.72247,0.7633291
C0V770,大社,2025-05-18,22.730306,120.346639,0.97661006
C0X120,麻豆,2025-05-18,23.183289,120.248611,0.99681836
C0C670,龍潭,2025-05-18,24.870056,121.221389,3.5591363e-06
C0D680,香山濕地,2025-05-18,24.783581,120.914988,0.976907
C0S980,勝林山,2025-05-18,22.430439,120.8938,4.3249025e-07
C0V730,大寮,2025-05-18,22.605614,120.395717,0.9702384
C0R570,麟洛,2025-05-18,22.65078,120.52719,0.9147496
C2M930,石卓,2025-05-18,23.478744,120.702264,2.6272604e-09
C0G9B0,和美,2025-05-18,24.105169,120.492131,0.9845861
CAG100,王功漁港,2025-05-18,23.96824,120.32586,0.9807496
C0X290,北門,2025-05-18,23.267772,120.125481,0.9935941
C2F930,大甲,2025-05-18,24.347667,120.640403,0.9997475
C0D650,湖口,2025-05-18,24.904794,121.043628,0.028855437
C0E420,竹南,2025-05-18,24.708978,120.888897,0.7139299
C0U780,五結,2025-05-18,24.68637,121.79794,0.83901757
C1I250,鯉潭,2025-05-18,23.961922,120.991131,2.9194163e-09
C0R130,阿禮,2025-05-18,22.742908,120.743678,7.94663e-08
C0X100,臺南市北區,2025-05-18,23.010394,120.194228,0.9775819
C0S920,金峰嘉蘭,2025-05-18,22.594789,120.960825,0.9962386
C0V490,新興,2025-05-18,22.627422,120.298803,0.98279744
C0F9K0,大安,2025-05-18,24.345061,120.588025,0.9995717
467290,古坑,2025-05-18,23.633639,120.551889,0.0017448291
C2E970,八甲,2025-05-18,24.535811,120.795983,0.54054946
C0V440,鳳山,2025-05-18,22.646653,120.356122,0.96922517
C1T940,大觀,2025-05-18,23.714206,121.373133,2.1454953e-05
C0E740,造橋,2025-05-18,24.637056,120.864778,0.9870157
C0R100,尾寮山,2025-05-18,22.833111,120.683889,6.296429e-08
A2K630,臺大雲林校區,2025-05-18,23.730628,120.423903,0.01799562
467990,馬祖,2025-05-18,26.169467,119.923158,1.6437025e-07
C0D580,寶山,2025-05-18,24.735006,121.025192,7.174345e-05
E2P990,林試扇平站,2025-05-18,22.9677,120.6857,1.4914368e-08
C0AI30,三重,2025-05-18,25.057328,121.500629,0.9999581
C0AH00,汐止,2025-05-18,25.066881,121.658778,0.99995667
C1Z040,立山,2025-05-18,23.443356,121.327375,0.00039511386
466881,新北,2025-05-18,24.959207,121.525196,0.99991524
C0W130,花嶼,2025-05-18,23.40007,119.32276,0.9996978
C0A950,鼻頭角,2025-05-18,25.129036,121.923372,0.911906
C0K470,林內,2025-05-18,23.748675,120.609642,0.001296941
C2F990,摩天嶺,2025-05-18,24.322458,120.936819,2.2619218e-09
82C160,茶改場,2025-05-18,24.908472,121.185333,1.1696137e-05
C0Z320,清水林道,2025-05-18,23.27125,121.188272,2.0732045e-07
C0R760,南仁湖,2025-05-18,22.084681,120.863353,0.99947107
C0M670,大林,2025-05-18,23.600616,120.45841,0.7166186
C0M800,茶山,2025-05-18,23.299075,120.664767,2.4413266e-08
C0A9C0,天母,2025-05-18,25.117494,121.537169,0.9999565
72K220,南改斗南分場,2025-05-18,23.634556,120.477333,0.014782789
72AI40,桃改樹林分場,2025-05-18,24.944503,121.386972,0.99971104
C0S910,蘭嶼燈塔,2025-05-18,22.081197,121.503117,0.19625843
C0B050,八斗子,2025-05-18,25.144754,121.79167,0.9999462
C0U900,內城,2025-05-18,24.71813,121.68766,0.48681712
C0X320,柳營,2025-05-18,23.253328,120.375253,0.5454725
C0M790,新港,2025-05-18,23.553269,120.345728,0.7170258
C0F9T0,西屯,2025-05-18,24.179494,120.641275,0.9995385
C0SA30,都歷,2025-05-18,23.020333,121.323642,0.9976188
C0C620,蘆竹,2025-05-18,25.084275,121.265767,0.9999453
C0R730,大坪頂,2025-05-18,22.024633,120.69355,0.7502311
C0AJ40,石門,2025-05-18,25.273672,121.601198,0.9993336
C0E750,苗栗,2025-05-18,24.564569,120.824575,0.99662805
C0T870,鯉魚潭,2025-05-18,23.935639,121.508944,0.9995645
C1V170,排雲,2025-05-18,23.463619,120.954147,2.4754291e-08
C2H950,中寮,2025-05-18,23.884447,120.766406,0.9997477
C0R350,貓鼻頭,2025-05-18,21.921774,120.7358,0.19272983
C0V660,岡山,2025-05-18,22.797078,120.294958,0.93155396
C1H941,雙冬,2025-05-18,23.967378,120.802189,4.352856e-09
C0AJ70,田寮,2025-05-18,25.2698,121.4886,0.9998382
C0AI00,五股,2025-05-18,25.07445,121.42728,0.013470349
C0Z280,德武,2025-05-18,23.47426,121.41071,0.9995493
C0R700,枋山,2025-05-18,22.246844,120.661086,0.96180755
C0C460,復興,2025-05-18,24.820208,121.352281,2.8193663e-08
E2H360,蓮華池,2025-05-18,23.918333,120.885278,2.9212208e-09
C0M640,中埔,2025-05-18,23.42538,120.5229,2.6747082e-05
C0W140,金沙,2025-05-18,24.488292,118.408778,0.6108372
C2A540,四堵,2025-05-18,24.8926,121.745736,6.581444e-08
C0ACA0,新莊,2025-05-18,25.051478,121.446756,0.99994034
C0R220,潮州,2025-05-18,22.534361,120.54,0.9895262
U2HA40,臺大內茅埔,2025-05-18,23.689722,120.851117,8.12546e-09
467490,臺中,2025-05-18,24.145736,120.684075,0.99954426
C0U960,翠峰湖,2025-05-18,24.510856,121.608044,9.110365e-09
E2HA20,林試畢祿溪站,2025-05-18,24.226944,121.308522,7.4992155e-09
C0V890,前鎮,2025-05-18,22.5718,120.3117,0.9820704
C1F941,雪嶺,2025-05-18,24.280586,121.026642,1.24064e-08
C2H9E0,國姓南港,2025-05-18,23.911108,120.846556,2.2286089e-09
C0AC80,文山,2025-05-18,25.00235,121.575728,0.9999056
C0F9R0,龍井,2025-05-18,24.184536,120.528972,0.9993351
C0M760,民雄,2025-05-18,23.551754,120.428457,0.73072094
C0UA40,西德山,2025-05-18,24.560647,121.752608,6.0204237e-09
C1T920,中興,2025-05-18,23.769503,121.498653,0.9988558
C0D550,雪霸,2025-05-18,24.526972,121.11605,6.8886004e-09
C2F860,梨山,2025-05-18,24.247522,121.243669,7.806195e-09
C0R320,車城,2025-05-18,22.0744,120.716247,0.3446796
C1S870,南美山,2025-05-18,23.15025,121.382333,0.9996571
C0B020,基隆嶼,2025-05-18,25.19141,121.78391,0.99986523
C1U501,牛鬥,2025-05-18,24.637836,121.573656,0.0011607507
C0M730,嘉義市東區,2025-05-18,23.457673,120.460531,0.6261196
C0S700,知本,2025-05-18,22.684866,121.005642,0.004174627
C1N001,沙崙,2025-05-18,22.935472,120.309406,0.9198749
C0V760,橋頭,2025-05-18,22.757806,120.30575,0.9752436
C0G960,福寶,2025-05-18,24.0443,120.3814,0.9824608
C0X210,白河,2025-05-18,23.347466,120.414427,0.6073996
C0S810,東河,2025-05-18,22.972672,121.303986,0.99546593
C2R170,屏東,2025-05-18,22.66027,120.49403,0.9166951
C0R670,楓港,2025-05-18,22.190131,120.692156,0.97463024
C0FA50,霧峰,2025-05-18,24.0419,120.6995,0.99913126
C0UB10,蘇澳,2025-05-18,24.5969,121.8571,0.9999295
C0G950,防潮門,2025-05-18,24.1835,120.4871,0.99928945
C0M740,六腳,2025-05-18,23.492871,120.290625,0.82173425
C1R250,力里,2025-05-18,22.428117,120.629228,0.9939746
C0K330,虎尾,2025-05-18,23.719183,120.442036,0.010333237
C2FA00,烏石坑,2025-05-18,24.273503,120.947617,2.2830258e-09
C0V620,永安,2025-05-18,22.82315,120.236856,0.92947453
C1I330,楓樹林,2025-05-18,23.986803,121.076117,2.4059807e-09
C0W200,湖西,2025-05-18,23.596314,119.67275,0.99978375
72Q010,高雄農改場,2025-05-18,22.709333,120.525889,0.90274376
C0SA40,瑞和,2025-05-18,22.974361,121.156697,0.999518
C0C680,龜山,2025-05-18,25.02846,121.38656,5.0999806e-06
C2V260,月眉,2025-05-18,22.971003,120.539853,0.13466193
C0V450,鳳森,2025-05-18,22.545064,120.392592,0.98857564
C0U720,南山,2025-05-18,24.43742,121.38167,6.4684524e-09
A2N290,臺南蘭花園區,2025-05-18,23.340258,120.379661,0.7655368
C0R560,新園,2025-05-18,22.5434,120.461558,0.9747433
C0U890,三星,2025-05-18,24.66812,121.65302,0.18361218
C1V300,御油山,2025-05-18,23.001983,120.715364,4.060714e-09
C0U600,礁溪,2025-05-18,24.817539,121.765608,0.102395765
C1T980,龍澗,2025-05-18,24.023289,121.411328,1.6375887e-08
C0D670,海天一線,2025-05-18,24.831986,120.914438,0.9948693
C0SA00,歷坵,2025-05-18,22.520969,120.89185,0.017783456
C0M710,東石,2025-05-18,23.458927,120.15385,0.71857214
C0M780,鹿草,2025-05-18,23.41134,120.30835,0.73495764
C0U520,雙連埤,2025-05-18,24.753033,121.641303,2.7041482e-08
C0B010,七堵,2025-05-18,25.094819,121.71713,0.99995625
C0R480,長治,2025-05-18,22.693128,120.542622,0.84149164
C1V830,國三S383K,2025-05-18,22.781967,120.426475,0.19662018
12Q980,恆春工作站,2025-05-18,22.079678,120.714425,0.3455145
C1O940,東山服務區,2025-05-18,23.286016,120.398472,0.5595745
C1U840,東澳嶺,2025-05-18,24.5378,121.8485,4.9907163e-09
C1D630,飛鳳山,2025-05-18,24.766464,121.119178,7.851966e-08
C0S940,石寧山,2025-05-18,23.223772,121.406639,0.9986704
C0K410,北港,2025-05-18,23.573957,120.292802,0.73057747
C2M620,瑞里,2025-05-18,23.545133,120.675197,1.7596622e-09
C0SB70,小港漁港,2025-05-18,23.158558,121.400431,0.99577034
C2O950,安南,2025-05-18,23.076694,120.144861,0.9310644
C0F0E0,南湖圈谷,2025-05-18,24.363714,121.444667,3.839845e-08
467610,成功,2025-05-18,23.097486,121.373428,0.99538916
C0G890,伸港,2025-05-18,24.148933,120.484403,0.99913925
C2E540,龍溪,2025-05-18,24.606489,120.783933,0.99849105
C1V200,梅山,2025-05-18,23.268447,120.823556,3.838796e-09
C0T9H0,加路蘭山,2025-05-18,23.682947,121.5274,6.515173e-08
C2O930,玉井,2025-05-18,23.126042,120.46055,0.10687108
C1F911,新伯公,2025-05-18,24.221361,120.841069,3.1566578e-06
C0R490,九如,2025-05-18,22.7405,120.490503,0.9069394
C0X200,左鎮,2025-05-18,23.056758,120.408522,0.93528485
C0SB50,叭嗡嗡,2025-05-18,23.047062,121.343223,0.9941581
C1F891,稍來,2025-05-18,24.265689,121.001142,7.530965e-09
72N240,七股研究中心,2025-05-18,23.081672,120.062894,0.9931077
C0C700,中壢,2025-05-18,24.977661,121.256375,0.015914768
C0M690,水上,2025-05-18,23.419734,120.388909,0.78042203
C0V690,鼓山,2025-05-18,22.623325,120.275575,0.9826577
C0O860,大內,2025-05-18,23.11885,120.36083,0.88359
C0Z200,萬榮,2025-05-18,23.709219,121.420106,0.99945307
C0T9D0,和中,2025-05-18,24.26676,121.74103,0.9999328
C1O921,楠西,2025-05-18,23.183511,120.484083,0.016449796
C0AJ30,淡水觀海,2025-05-18,25.184591,121.408616,0.9999465
C0V810,左營,2025-05-18,22.67491,120.28491,0.9658917
C0UA70,桃源谷,2025-05-18,24.962606,121.888875,2.3701764e-08
C0X130,官田,2025-05-18,23.193217,120.315422,0.9900065
C1H000,翠峰,2025-05-18,24.109397,121.205211,9.787371e-09
C0UA90,石城,2025-05-18,24.980444,121.951214,0.096616834
C1E681,南勢山,2025-05-18,24.421669,120.923831,3.4708756e-09
C0A9F0,內湖,2025-05-18,25.079422,121.57545,0.99995667
C0K291,宜梧,2025-05-18,23.536281,120.169329,0.7821693
C1K540,口湖,2025-05-18,23.585344,120.180517,0.74328405
C0R780,滿州,2025-05-18,22.024403,120.839892,0.25634632
C0V870,文安,2025-05-18,22.8025,120.2164,0.9288594
C0U650,玉蘭,2025-05-18,24.675286,121.587061,4.7147736e-08
C0R640,東港,2025-05-18,22.46247,120.44074,0.97864956
C0AJ80,板橋,2025-05-18,25.0107,121.4489,0.9999287
C0S660,下馬,2025-05-18,23.150427,121.070312,5.0399834e-08
C1H9B1,阿眉,2025-05-18,24.1263,120.994672,5.319779e-09
C0UA20,多加屯,2025-05-18,24.368614,121.373189,1.3326484e-08
C0E730,頭份,2025-05-18,24.688247,120.912206,0.7280307
72V140,高改旗南分場,2025-05-18,22.857861,120.516667,0.830545
C0K480,莿桐,2025-05-18,23.761192,120.502372,0.014518391
C0U980,坪林石牌,2025-05-18,24.86478,121.77396,1.8423286e-08
C0T900,西林,2025-05-18,23.8119,121.441458,0.9993931
C1I150,青雲,2025-05-18,23.793361,120.949378,2.4117893e-08
467350,澎湖,2025-05-18,23.565503,119.563094,0.9998679
C0G800,埔鹽,2025-05-18,24.000394,120.431683,0.98041636
C0H960,草屯,2025-05-18,23.973672,120.68085,0.9993235
C1V780,多納林道,2025-05-18,22.888028,120.737917,2.63938e-09
C0E920,通霄漁港,2025-05-18,24.498589,120.673876,0.9993028
C0Z330,安通山,2025-05-18,23.290728,121.348528,0.04025695
C0AH10,永和,2025-05-18,25.01125,121.508111,0.9999297
C0AK10,太平里,2025-05-18,25.134937,121.364899,0.9999311
C2G640,鹿港,2025-05-18,24.0753,120.430481,0.9825578
C1E890,國三N149K,2025-05-18,24.463414,120.680019,0.9942314
C1R110,口社,2025-05-18,22.770111,120.645222,0.13834812
C1M870,國三N285K,2025-05-18,23.550319,120.505833,0.00013529896
C1E480,鳳美,2025-05-18,24.554803,121.034747,1.822783e-08
C0M530,奮起湖,2025-05-18,23.493903,120.699253,1.8821793e-09
C0C590,觀音,2025-05-18,25.027072,121.153317,0.9980388
C0T9M0,靜浦,2025-05-18,23.455167,121.495028,0.99957067
C2H9M0,發祥,2025-05-18,24.154094,121.164517,2.5569213e-09
C0AI40,石牌,2025-05-18,25.115597,121.513139,0.9999558
C1F871,上谷關,2025-05-18,24.203483,121.018644,2.272963e-09
C2H9G0,百勝,2025-05-18,24.051142,120.909361,2.7934144e-07
C0G880,二水,2025-05-18,23.810742,120.6173,0.0010583613
C0R940,加祿堂,2025-05-18,22.3363,120.6217,0.9690243
C0W220,北竿,2025-05-18,26.220358,119.974881,3.007911e-07
C0O960,崎頂,2025-05-18,22.959547,120.369317,0.0795107
C0S750,向陽,2025-05-18,23.248397,120.986133,5.803915e-09
C0T9F0,水璉,2025-05-18,23.797131,121.542514,0.9925066
C1M600,頭凍,2025-05-18,23.406364,120.603339,1.9583406e-09
467660,臺東,2025-05-18,22.752211,121.154586,0.9965129
C1D380,新埔,2025-05-18,24.84745,121.03834,1.0473569e-05
C2G980,田頭村,2025-05-18,23.8263,120.444175,0.020091377
C0V750,路竹,2025-05-18,22.854997,120.259439,0.9555068
C0N050,蚵寮,2025-05-18,23.301,120.1104,0.99634945
72M700,南改鹿草分場,2025-05-18,23.416869,120.283061,0.82760435
C1SA50,利嘉林道,2025-05-18,22.82325,121.009389,2.8184561e-09
C0A940,金山,2025-05-18,25.223628,121.643967,0.9999305
C1V340,大津,2025-05-18,22.888322,120.645986,0.027048357
C0W180,七美,2025-05-18,23.219333,119.444892,0.9998654
C1F9C1,白冷,2025-05-18,24.182844,120.929889,1.280535e-08
K2E710,苗改生物防治研究中心,2025-05-18,24.422861,120.871833,8.751352e-08
C0N040,蘆竹溝,2025-05-18,23.2344,120.0961,0.99358505
C2W230,畜試所澎湖,2025-05-18,23.628342,119.513206,0.99987555
C0R880,後壁湖,2025-05-18,21.9457,120.7457,0.31009066
C1I280,埔中,2025-05-18,23.820778,120.642594,2.215949e-08
467790,墾丁雷達站,2025-05-18,21.948235,120.808028,0.23670882
C0W190,望安,2025-05-18,23.380564,119.494075,0.9999102
C0Z170,卓溪,2025-05-18,23.3443,121.3029,0.9992964
C0F850,東勢,2025-05-18,24.246428,120.833047,1.2496237e-05
466900,淡水,2025-05-18,25.164889,121.448906,0.9999314
C0I370,魚池,2025-05-18,23.895703,120.94135,2.9842848e-09
C0C630,大溪,2025-05-18,24.882853,121.265547,0.00030195375
C0A520,山佳,2025-05-18,24.974944,121.402008,0.99990445
C0I110,竹山,2025-05-18,23.761225,120.688156,1.8037726e-05
82H840,茶改南部分場,2025-05-18,23.762528,120.7405,1.1404378e-08
C0G660,溪湖,2025-05-18,23.94835,120.479122,0.98167264
C1T800,洛韶,2025-05-18,24.204558,121.453956,6.1855223e-09
C1T810,慈恩,2025-05-18,24.192044,121.388386,6.375959e-09
C1E451,象鼻,2025-05-18,24.368617,120.940228,3.1594003e-09
C0AC60,三峽,2025-05-18,24.939025,121.369728,0.074498914
C0I490,萬大林道,2025-05-18,23.928228,121.091411,2.7058547e-09
C1I290,豐丘,2025-05-18,23.668178,120.887417,1.7285722e-09
C1I320,奧萬大,2025-05-18,23.952956,121.178556,2.3371707e-09
C2M910,嘉義大學,2025-05-18,23.471325,120.485903,0.0018257084
C0U770,南澳,2025-05-18,24.44935,121.81022,0.9999296
C0A980,社子,2025-05-18,25.109508,121.469681,0.99993646
C0V800,六龜,2025-05-18,22.997889,120.633583,5.8854125e-06
C1G9D0,國一S218K,2025-05-18,23.890641,120.493253,0.9901959
C0E570,白沙屯,2025-05-18,24.549447,120.696803,0.9992644
C2F9A0,中竹林,2025-05-18,24.103556,120.751061,1.492692e-08
C0FA40,臺中電廠,2025-05-18,24.2146,120.4907,0.999338
C2G9A0,畜試所彰化,2025-05-18,23.86045,120.557964,0.011903266
C0H9C0,合歡山,2025-05-18,24.143442,121.272547,2.5693987e-08
C0X060,下營,2025-05-18,23.22695,120.256261,0.99745035
G2M350,農試溪口農場,2025-05-18,23.58565,120.408111,0.7884868
C0U860,頭城,2025-05-18,24.85323,121.8308,0.19865464
C0R580,南州,2025-05-18,22.48591,120.50274,0.97864956
C0D430,峨眉,2025-05-18,24.6905,121.017189,3.3337987e-05
C0G780,秀水,2025-05-18,24.03405,120.503869,0.9598421
72N100,臺南農改場,2025-05-18,23.0605,120.342194,0.8610864
C0S900,蘭嶼高中,2025-05-18,22.04909,121.51214,0.63702327
C1F9W0,德基,2025-05-18,24.254783,121.190261,4.5986983e-09
C1Z120,壽豐,2025-05-18,23.870853,121.508081,0.9983922
C0W160,烏坵,2025-05-18,24.9944,119.44956,0.9765839
C1I240,外大坪,2025-05-18,23.958697,120.917931,2.826402e-09
C1I550,國六W023K,2025-05-18,23.979067,120.867742,2.7951483e-08
C0R870,興海,2025-05-18,21.9752,120.8439,0.2673744
C0R140,瑪家,2025-05-18,22.682903,120.686639,1.592093e-08
C0A530,坪林,2025-05-18,24.938183,121.70975,1.1441424e-05
C0X260,後壁,2025-05-18,23.366358,120.362326,0.9945401
C0Z230,和平,2025-05-18,24.30717,121.77007,0.9999315
C0G770,福興,2025-05-18,24.041289,120.437669,0.9803795
C0H9A0,神木村,2025-05-18,23.532742,120.843667,4.069716e-09
C0I460,南投,2025-05-18,23.911469,120.687331,0.99937373
C0I480,梅峰,2025-05-18,24.085272,121.173572,6.701667e-09
C1V570,吉東,2025-05-18,22.85422,120.5454,0.7238059
C2D740,屯原,2025-05-18,24.067969,121.209389,4.568127e-09
C2A560,福山,2025-05-18,24.776203,121.502811,5.2955155e-08
C0AH30,五分山,2025-05-18,25.07125,121.780794,4.9611715e-09
C0FA10,松柏,2025-05-18,24.429115,120.617482,0.99943763
72S200,東改班鳩分場,2025-05-18,22.829528,121.077694,0.9997556
72HA00,中改埔里分場,2025-05-18,23.903208,120.963364,3.4787226e-09
C2H9W0,大坪頂農水,2025-05-18,24.043122,120.932781,2.7548475e-09
C0C650,平鎮,2025-05-18,24.897503,121.214636,8.969628e-05
C0S930,延平,2025-05-18,22.902581,121.084058,0.99970835
C0UA60,樟樹山,2025-05-18,24.41393,121.78325,2.627427e-08
C1S670,摩天,2025-05-18,23.199503,121.027,6.238104e-09
C0V630,茄萣,2025-05-18,22.906642,120.182608,0.9814426
466940,基隆,2025-05-18,25.133314,121.740475,0.999946
C0X050,東河,2025-05-18,23.296598,120.385608,0.70015407
C0R770,保力,2025-05-18,22.071122,120.764111,0.3386717
G2L020,農試嘉義分所,2025-05-18,23.485028,120.473806,0.0009827806
C0X240,關子嶺,2025-05-18,23.331169,120.508025,4.1602732e-08
C0I380,集集,2025-05-18,23.828206,120.801467,1.1525297e-07
466990,花蓮,2025-05-18,23.975128,121.613275,0.99819475
C1V220,小關山,2025-05-18,23.154217,120.813603,5.40972e-09
C1F9G1,慶福山,2025-05-18,24.180853,120.848378,4.336332e-09
C0Z250,瑞穗林道,2025-05-18,23.49284,121.30688,2.2635747e-09
C0D590,新豐,2025-05-18,24.87068,120.97721,0.0014145378
C0A870,五指山,2025-05-18,25.132153,121.608692,1.0048984e-08
C0UA50,西帽山,2025-05-18,24.555361,121.802628,6.0289844e-09
C0X160,仁德,2025-05-18,22.968258,120.257689,0.9799255
C1H971,六分寮,2025-05-18,23.92507,120.6378,1.2181741e-08
C0W120,西嶼,2025-05-18,23.5626,119.468436,0.99989545
C0G650,員林,2025-05-18,23.946503,120.585597,0.97581565
C0AD50,鶯歌,2025-05-18,24.951533,121.346294,0.019873764
C2H9Q0,北東眼山,2025-05-18,24.120939,121.189303,4.6050705e-09
C2H9T0,名間竹圍,2025-05-18,23.859914,120.637572,2.7876679e-08
C0S990,山豬窟,2025-05-18,22.318619,120.857372,0.122765556
C0X190,安平,2025-05-18,22.993161,120.152181,0.9771434
C0K400,斗六,2025-05-18,23.720583,120.541127,0.010245396
12J990,口湖工作站,2025-05-18,23.589978,120.180394,0.74028873
C0O830,北寮,2025-05-18,23.079561,120.495008,0.06475014
C1D410,白蘭,2025-05-18,24.579364,121.079947,2.9315301e-09
C0S970,加津林,2025-05-18,22.416211,120.926942,0.9954904
C0D700,關西,2025-05-18,24.7977,121.1732,0.00038500165
C0M810,里佳,2025-05-18,23.389125,120.716647,1.9525854e-09
C0U750,龜山島,2025-05-18,24.841667,121.953133,0.00038556688
C0R810,內獅,2025-05-18,22.305064,120.642986,0.9689268
C1M390,龍美,2025-05-18,23.406728,120.654417,1.7781138e-09
C2FB60,頭櫃山,2025-05-18,24.129842,120.858925,2.2508397e-09
C1H840,國三N238K,2025-05-18,23.841008,120.707711,1.1558297e-07
CAQ030,崎峰國小,2025-05-18,22.42565,120.49521,0.97864956
C2E520,大湖,2025-05-18,24.414939,120.870872,0.0001417002
467530,阿里山,2025-05-18,23.508208,120.813242,6.7463106e-09
C1E691,南湖,2025-05-18,24.40135,120.837533,4.793057e-09
C0FA30,梧棲,2025-05-18,24.256003,120.523381,0.9994067
C1V231,高中,2025-05-18,23.134911,120.716711,1.9575899e-09
C0AK30,硬漢嶺,2025-05-18,25.136097,121.426372,1.2761461e-08
C0F9V0,新社,2025-05-18,24.200172,120.815806,4.730032e-08
C0H890,埔里,2025-05-18,23.972169,120.952425,1.2323688e-06
C0R690,墾丁,2025-05-18,21.966756,120.810269,0.8831702
C0F0D0,審馬陣,2025-05-18,24.381675,121.4203,3.16979e-08
C2W030,金門農試所,2025-05-18,24.448431,118.451786,0.5327539
C0R820,白鷺,2025-05-18,22.454275,120.666219,9.245842e-05
C1V190,南天池,2025-05-18,23.27403,120.91176,7.214415e-09
K2E360,苗栗農改場,2025-05-18,24.495722,120.829111,0.95756656
CAJ050,海口故事園區,2025-05-18,23.57543,120.14121,0.7432199
C2H9D0,三隻寮,2025-05-18,24.093078,120.861578,2.621334e-09
C0O990,媽廟,2025-05-18,22.99175,120.293525,0.9481354
C0D480,打鐵坑,2025-05-18,24.849664,121.150789,3.4823704e-06
C0Z220,和平林道,2025-05-18,24.343922,121.656317,3.7163326e-07
C0TA10,花蓮漁港,2025-05-18,23.995322,121.638331,0.997853
72C440,桃園農改場,2025-05-18,24.950944,121.030583,0.18689112
C1E711,馬拉邦山,2025-05-18,24.367306,120.901656,2.3877034e-09
C0SB20,富岡,2025-05-18,22.792467,121.192669,0.99701476
C0D560,竹東,2025-05-18,24.767147,121.057881,6.779889e-05
C0F9U0,南屯,2025-05-18,24.137006,120.637969,0.9827
C0M720,番路,2025-05-18,23.464657,120.554156,9.02869e-07
C0F0A0,雪山圈谷,2025-05-18,24.388594,121.236339,3.557283e-08
C1A9N0,四十份,2025-05-18,24.934158,121.593283,5.30603e-08
C0U760,東澳,2025-05-18,24.52196,121.83318,0.99993813
C0X230,鹽水,2025-05-18,23.272621,120.247641,0.99611866
C2H9H0,苗改南投蜂場,2025-05-18,23.852589,120.693481,2.4077845e-05
C0R950,萬隆國小,2025-05-18,22.507667,120.587817,0.9919431
467540,大武,2025-05-18,22.35572,120.90374,0.9944747
C0V370,古亭坑,2025-05-18,22.893178,120.401947,0.9840399
C1I340,新興橋,2025-05-18,23.563333,120.868728,1.5145241e-09
C0SA80,土坂,2025-05-18,22.453108,120.887572,0.99619645
C0R160,鹽埔,2025-05-18,22.739558,120.530778,0.8924067
C0AC40,大屯山,2025-05-18,25.175675,121.522408,7.871082e-09
466850,五分山雷達站,2025-05-18,25.071182,121.781205,4.8590003e-09
C2H9L0,馬烈霸,2025-05-18,24.1512,121.201772,4.6995803e-09
C1AI50,國三N016K,2025-05-18,25.034164,121.619664,0.9999515
C1V600,藤枝,2025-05-18,23.071961,120.757042,6.6980506e-09
C1E601,南勢,2025-05-18,24.572486,120.734842,0.7344732
C0O980,新市,2025-05-18,23.061614,120.298197,0.96607375
C0K420,西螺,2025-05-18,23.800407,120.467394,0.011328223
C0Z050,佳心,2025-05-18,23.34567,121.21316,3.8037477e-08
C0AD30,蘆洲,2025-05-18,25.086594,121.472331,0.99995786
C0V610,梓官,2025-05-18,22.760558,120.267211,0.97505444
K2F750,種苗改良場,2025-05-18,24.225972,120.800917,2.2494766e-07
C0UA80,大溪漁港,2025-05-18,24.941801,121.902955,0.23758326
C1AI60,國一39K邊坡,2025-05-18,25.064361,121.383836,1.0094551e-05
C0W150,金寧,2025-05-18,24.457703,118.328989,0.3931791
C0R960,內埔,2025-05-18,22.608483,120.570714,0.98866475
V2C250,八德合作社,2025-05-18,24.93775,121.266389,0.00058159506
C2H9S0,龍南,2025-05-18,23.953536,120.833183,2.1346402e-09
C0AH40,平等,2025-05-18,25.129142,121.577086,3.046381e-08
C0R540,佳冬,2025-05-18,22.419456,120.552375,0.96930474
466950,彭佳嶼,2025-05-18,25.627975,122.079744,0.9999792
C0A890,雙溪,2025-05-18,25.036003,121.864242,0.9998474
C0C480,桃園,2025-05-18,24.992425,121.323172,0.055913214
C0AH50,林口,2025-05-18,25.072181,121.38084,3.3880456e-06
A2K360,水試臺西試驗場,2025-05-18,23.717231,120.190522,0.996923
C2M960,外寮,2025-05-18,23.562643,120.665688,1.6726086e-09
C0F9S0,烏日,2025-05-18,24.107058,120.624103,0.9666987
C0C490,八德,2025-05-18,24.928708,121.283289,0.0005948702
C0R190,赤山,2025-05-18,22.592333,120.614306,0.98930955
C0T820,天祥,2025-05-18,24.179597,121.495639,5.0202525e-06
C1F9E1,龍安,2025-05-18,24.1605,120.831961,3.362204e-08
C0V820,小林,2025-05-18,23.148408,120.63325,2.144468e-08
C2G870,芳苑,2025-05-18,23.922303,120.320025,0.9816687
C0E850,大河,2025-05-18,24.618069,120.948578,0.9905697
C1U670,寒溪,2025-05-18,24.634,121.71691,0.04752545
C0N020,城西,2025-05-18,23.0568,120.0956,0.99591017
C1Z110,三棧,2025-05-18,24.11557,121.60501,1.1571631e-07
C0R280,檳榔,2025-05-18,22.076078,120.836777,0.99349046
C2H9J0,中台,2025-05-18,23.9996,120.938739,8.634096e-09
C0F9L0,后里,2025-05-18,24.310436,120.729725,1.9574418e-06
467441,高雄,2025-05-18,22.730432,120.312516,0.97629887
C0Z180,新城,2025-05-18,24.040486,121.604878,0.99848694
C0D540,橫山,2025-05-18,24.71116,121.11693,7.0785622e-06
C1D420,太閣南,2025-05-18,24.632808,121.160575,7.196274e-09
C1E770,公館,2025-05-18,24.526914,120.830806,0.9908069
CAN130,水試所海水繁養殖中心,2025-05-18,23.120802,120.07968,0.99295497
C1I430,翠華,2025-05-18,24.191961,121.224339,9.383044e-09
C1M400,菜瓜坪,2025-05-18,23.251928,120.576103,2.4243342e-08
C0G730,二林,2025-05-18,23.903325,120.376081,0.9825022
72M360,南改義竹分場,2025-05-18,23.360694,120.279361,0.99670374
V2K620,麥寮合作社,2025-05-18,23.753836,120.294783,0.99839485
C0Z070,舞鶴,2025-05-18,23.46811,121.37407,0.99855816
C0B040,大武崙,2025-05-18,25.166676,121.706993,0.9999437
C1Z030,紅葉,2025-05-18,23.493119,121.338806,0.99953914
C1I050,丹大,2025-05-18,23.753747,121.141147,7.674668e-09
C0I080,信義,2025-05-18,23.689694,120.851036,8.12546e-09
C2M920,朴子農改,2025-05-18,23.469889,120.259383,0.84105104
C2A880,福隆,2025-05-18,25.017842,121.942083,0.16245417
C0Z160,鳳林,2025-05-18,23.746114,121.453411,0.9993748
C0V210,復興,2025-05-18,23.222403,120.806089,1.9686206e-09
C0H990,昆陽,2025-05-18,24.121322,121.273642,1.9742544e-08
C0R741,獅子,2025-05-18,22.202308,120.705236,0.9879023
C0S710,鹿野,2025-05-18,22.917711,121.122994,0.9888528
C0I530,小奇萊,2025-05-18,24.131764,121.295717,2.08033e-08
C2K630,荷苞,2025-05-18,23.657717,120.595144,4.0504518e-05
C0Z080,富源,2025-05-18,23.587642,121.378225,0.92230386
C0SB10,美和,2025-05-18,22.682078,121.060236,0.99556035
C2K620,馬光農場,2025-05-18,23.721453,120.378864,0.023972394
C1I140,卡奈托灣,2025-05-18,23.754364,121.087872,3.0149394e-09
C0I520,玉山風口,2025-05-18,23.470489,120.955994,2.9742568e-08
C1G691,下水埔,2025-05-18,23.816114,120.5676,0.004517937
C0X110,臺南市南區,2025-05-18,22.961189,120.188378,0.98172194
C0V680,仁武,2025-05-18,22.701083,120.347722,0.9660781
C2G840,北斗,2025-05-18,23.877586,120.514222,0.9907102
C0R900,竹坑,2025-05-18,22.1385,120.7022,0.9642021
C0K250,崙背,2025-05-18,23.75555,120.318925,0.99815637
C0G860,社頭,2025-05-18,23.897647,120.5862,0.9903363
C0X150,安定,2025-05-18,23.102614,120.227839,0.9838315
C0R590,里港,2025-05-18,22.77919,120.49459,0.8885006
C0E610,馬都安,2025-05-18,24.451272,120.930192,4.2123713e-09
C0E550,明德,2025-05-18,24.583486,120.885411,0.994927
C0R150,三地門,2025-05-18,22.709889,120.639944,0.16768731
C0G910,花壇,2025-05-18,24.032076,120.549461,0.9685711
C1D400,鳥嘴山,2025-05-18,24.71909,121.28387,4.964513e-09
C0K500,元長,2025-05-18,23.64981,120.315024,0.9984915
C0F0B0,石岡,2025-05-18,24.276061,120.777644,1.8801462e-07
C2V250,甲仙,2025-05-18,23.080106,120.591758,8.7083816e-07
C0SA20,金崙山,2025-05-18,22.567419,120.959667,4.8875154e-07
C0V350,溪埔,2025-05-18,22.738578,120.446797,0.90913886
C0M660,溪口,2025-05-18,23.604131,120.403569,0.7883988
C1S880,壽卡,2025-05-18,22.238911,120.858903,0.002457959
72D680,桃改新埔分場,2025-05-18,24.834444,121.066111,1.36002345e-05
