站號,站名,日期,lat,lon,BLBTSLS
C0R710,龍磐,2025-11-17,21.931672,120.838942,0.99542475
C1F9D1,白毛台,2025-11-17,24.158325,120.886933,6.739777e-09
C0G940,竹塘,2025-11-17,23.848253,120.386764,0.97556174
467590,恆春,2025-11-17,22.003897,120.746339,0.36106876
C1O850,環湖,2025-11-17,23.148617,120.418633,0.9920178
C0U710,太平山,2025-11-17,24.505486,121.525656,2.4812339e-08
C0E820,獅潭,2025-11-17,24.539133,120.920042,0.01797051
C0V880,興達,2025-11-17,22.8778,120.2127,0.91415465
C0S890,關山,2025-11-17,23.0395,121.175017,0.018491082
C0SB30,新蘭,2025-11-17,22.869214,121.223228,0.61476344
C2R970,屏科大,2025-11-17,22.648275,120.619247,0.08762691
C1Z130,銅門,2025-11-17,23.965694,121.492842,0.88578856
C0AD40,土城,2025-11-17,24.973208,121.445169,0.12005618
CAN140,六官養殖協會,2025-11-17,23.22881,120.29962,0.99630785
C0X180,山上,2025-11-17,23.0757,120.363253,0.016949497
C0F9Z0,雪山東峰,2025-11-17,24.388792,121.268675,1.6203018e-08
C1M480,獨立山,2025-11-17,23.537022,120.607797,3.1278975e-09
C0X220,學甲,2025-11-17,23.230367,120.182187,0.9969216
467650,日月潭,2025-11-17,23.881325,120.90805,9.333992e-09
C0K600,箔子寮,2025-11-17,23.6197,120.14,0.9970483
C0G830,埤頭,2025-11-17,23.866003,120.452806,0.012866073
C0S950,七塊厝,2025-11-17,22.954453,121.229922,0.00035631258
467110,金門,2025-11-17,24.407306,118.289281,0.99981743
C0AH80,深坑,2025-11-17,25.002703,121.628328,0.11813805
C0A970,三貂角,2025-11-17,25.007606,122.002058,0.99867994
C2D730,寶山農場,2025-11-17,24.732444,120.976153,0.34929925
C0K430,褒忠,2025-11-17,23.690938,120.303634,0.9749718
467480,嘉義,2025-11-17,23.495925,120.432906,0.99883157
C0V400,阿公店,2025-11-17,22.804194,120.355528,0.0029055714
C0E960,觀霧分站,2025-11-17,24.505781,121.113921,5.290909e-09
467550,玉山,2025-11-17,23.48718,120.95943,2.2993534e-08
C0R440,大漢山,2025-11-17,22.405264,120.753181,1.00578045e-05
C0K280,四湖,2025-11-17,23.630414,120.227125,0.9984506
C1F9B1,桐林,2025-11-17,24.066172,120.735194,0.24226542
C2H9U0,鳳鵬,2025-11-17,23.763919,120.788061,8.4023213e-07
C0K390,土庫,2025-11-17,23.679029,120.395574,0.08318824
C1I450,望鄉山,2025-11-17,23.594153,120.944286,9.481271e-09
C0E910,海埔,2025-11-17,24.648767,120.772435,0.9172122
B2E890,畜試北區分所,2025-11-17,24.527806,120.770972,0.5423847
C0R750,四林格山,2025-11-17,22.076989,120.802439,0.9995793
C0F0C0,中坑,2025-11-17,24.248517,120.903319,7.671126e-09
C1I121,大鞍,2025-11-17,23.678381,120.760017,4.881834e-09
72U480,花改蘭陽分場,2025-11-17,24.686306,121.716583,0.4654996
C0A770,科教館,2025-11-17,25.096356,121.516507,0.11820123
C0AJ60,六塊厝,2025-11-17,25.24,121.4481,0.20401932
C0R620,墾雷,2025-11-17,21.900836,120.855269,0.9963347
467420,永康,2025-11-17,23.038386,120.2367,0.94609576
C0I410,名間,2025-11-17,23.837053,120.701447,7.797655e-05
A2C560,農工中心,2025-11-17,24.985917,121.239833,0.16215713
C0V740,旗山,2025-11-17,22.888614,120.483597,0.0024410728
C0Z061,玉里,2025-11-17,23.3215,121.339656,0.00046050493
C0S840,南田,2025-11-17,22.279725,120.889208,0.22832581
C1I470,杉林溪,2025-11-17,23.639517,120.786444,4.520827e-09
C1X040,東原,2025-11-17,23.291597,120.463822,0.1447737
C0R660,枋寮,2025-11-17,22.367722,120.590647,0.5333041
C1R120,上德文,2025-11-17,22.763272,120.704442,5.9707392e-05
C0K450,大埤,2025-11-17,23.646074,120.431537,0.046113584
C0UA00,土場,2025-11-17,24.576533,121.495333,0.98880833
467080,宜蘭,2025-11-17,24.763975,121.756528,0.9924792
C0N030,四草,2025-11-17,23.0235,120.1116,0.997657
467410,臺南,2025-11-17,22.99328,120.20492,0.9770991
C0V650,彌陀,2025-11-17,22.783806,120.246361,0.0009777088
C0D660,新竹市東區,2025-11-17,24.798681,120.986942,0.7471075
82S580,茶改東部分場,2025-11-17,22.907694,121.130139,0.5982172
C0SB40,興隆,2025-11-17,22.913661,121.257469,0.6621339
467050,新屋,2025-11-17,25.006725,121.047492,0.8501769
C0C710,大溪永福,2025-11-17,24.892936,121.324975,0.43664974
C0FA20,溫寮,2025-11-17,24.372177,120.583125,0.6007063
C0V640,湖內,2025-11-17,22.887139,120.2445,0.9095601
C0R910,下寮,2025-11-17,22.3929,120.5548,0.5333041
C0Z020,明里,2025-11-17,23.208717,121.262342,0.00030286223
C0M770,嘉義梅山,2025-11-17,23.585398,120.555587,0.00317689
C0C660,楊梅,2025-11-17,24.912375,121.143047,0.4004397
C1E511,新開,2025-11-17,24.347703,120.827019,4.153208e-06
G2F820,農試所(霧峰),2025-11-17,24.031261,120.688133,0.03033365
C1I070,和社,2025-11-17,23.591131,120.888861,1.011182e-07
C0TA80,立霧山,2025-11-17,24.183258,121.641899,1.6865923e-07
C2F000,大肚,2025-11-17,24.15295,120.572117,0.0283665
C1S850,豐南,2025-11-17,23.122139,121.262389,7.311519e-07
C2A920,富貴角,2025-11-17,25.263783,121.565258,0.9555981
CAH030,茶改場竹圍站,2025-11-17,23.860083,120.637528,5.4161364e-06
C0T960,光復,2025-11-17,23.660694,121.424964,0.033789944
C0F9M0,豐原,2025-11-17,24.254322,120.720692,0.013683544
C0R720,旭海,2025-11-17,22.205403,120.887614,0.22868434
C0V710,苓雅,2025-11-17,22.622742,120.330669,0.008311985
C0C740,觀音工業區,2025-11-17,25.064764,121.114856,0.9088586
CAC040,拉拉山,2025-11-17,24.699317,121.427133,5.417818e-07
C0V790,萬山,2025-11-17,22.905944,120.688056,4.2542466e-05
U2HA30,臺大和社,2025-11-17,23.590856,120.888864,1.011182e-07
C2H9K0,屯原,2025-11-17,24.067969,121.209389,1.3338283e-08
C0AJ90,澳底,2025-11-17,25.0552,121.9253,0.9955723
C0Z100,東華,2025-11-17,23.89525,121.549833,0.9506393
C0G970,三豐,2025-11-17,23.882,120.2895,0.8142733
V2K610,大庄合作社,2025-11-17,23.8068,120.367939,0.9878544
C0V900,汕尾,2025-11-17,22.4782,120.4151,3.298154e-05
C1R630,龍泉,2025-11-17,22.66701,120.59091,0.60066754
C1AC50,關渡,2025-11-17,25.133486,121.469331,0.8367668
C0C800,四稜,2025-11-17,24.64733,121.4293,3.8575295e-06
C0F9I0,神岡,2025-11-17,24.272481,120.658314,0.11954158
C0K460,斗南,2025-11-17,23.678734,120.478359,0.039599616
C2O810,曾文,2025-11-17,23.219681,120.497328,0.68353987
467280,後龍,2025-11-17,24.648563,120.831834,0.9164788
C1F9J1,清水林,2025-11-17,24.071242,120.820419,3.5541272e-09
C2A650,火燒寮,2025-11-17,25.002719,121.742892,0.99308836
466930,竹子湖,2025-11-17,25.162078,121.544547,0.74007463
C1I220,樟湖,2025-11-17,23.905333,120.846983,3.7720005e-09
C0I390,仁愛,2025-11-17,24.022122,121.132206,4.8688436e-09
C0Z300,東里,2025-11-17,23.26853,121.30547,0.0018171655
C1V590,新發,2025-11-17,23.057019,120.646064,7.3627846e-09
C0K510,水林,2025-11-17,23.572924,120.24597,0.99758893
72S590,東改賓朗果園,2025-11-17,22.813889,121.071278,0.063088804
82A750,茶改北部分場,2025-11-17,24.955778,121.631222,0.9926767
C1A750,石碇服務區,2025-11-17,25.00872,121.646242,0.15943348
C0X300,鹿寮,2025-11-17,23.386047,120.477331,0.013057911
G2AI50,關渡,2025-11-17,25.11575,121.492,0.63687605
C0K590,雲林東勢,2025-11-17,23.674192,120.255721,0.9702206
C0A570,桶後,2025-11-17,24.848222,121.597992,0.94794273
C1S800,華源,2025-11-17,22.657883,121.02325,0.47482213
C0G720,溪州,2025-11-17,23.851589,120.499093,0.007400246
C1V160,達卡努瓦,2025-11-17,23.279811,120.705319,1.4098545e-08
C2M410,馬頭山,2025-11-17,23.324361,120.582017,0.27597415
C0V850,蚵仔寮,2025-11-17,22.7256,120.2527,0.008167644
C0S740,池上,2025-11-17,23.119628,121.209469,0.7684606
C1V390,尖山,2025-11-17,22.813153,120.367789,0.0021893366
C0AH70,松山,2025-11-17,25.04871,121.55042,0.120914586
C0N010,鯤鯓國小,2025-11-17,23.1879,120.0889,0.99680877
C0R550,新埤,2025-11-17,22.467947,120.582894,3.0897994e-05
C0SA60,知本（水試所）,2025-11-17,22.702394,121.082761,0.293279
C0T9I0,豐濱,2025-11-17,23.583897,121.514806,0.013807345
C0UB00,淡江大學蘭陽校園,2025-11-17,24.823239,121.730383,0.93300694
C0W240,九宮,2025-11-17,24.423753,118.240186,0.99983174
C0T9N0,富里,2025-11-17,23.171639,121.249378,0.88764715
U2HA50,臺大竹山,2025-11-17,23.756972,120.681556,0.00046740068
C0V840,鳳鼻頭,2025-11-17,22.5083,120.3591,0.0026151687
C0X140,西港,2025-11-17,23.125608,120.203108,0.99780613
72D080,桃改五峰分場,2025-11-17,24.612194,121.157167,8.895115e-09
C2H9P0,伊拿谷,2025-11-17,23.963211,121.088264,1.0857276e-08
C2H9F0,柑林,2025-11-17,24.018658,120.847072,0.00014624138
C0TA20,加灣,2025-11-17,24.082025,121.608944,0.9893706
C0V530,阿蓮,2025-11-17,22.883208,120.327508,0.40025663
C0FB30,八仙山苗圃,2025-11-17,24.192719,121.001366,9.109601e-09
C1O880,關山,2025-11-17,23.173397,120.594092,0.0048464327
C0E791,卓蘭,2025-11-17,24.3126,120.8244,6.4800715e-06
C1I030,武界,2025-11-17,23.913225,121.052483,9.048386e-09
C0R520,崁頂,2025-11-17,22.514781,120.506914,0.00013232823
C0R341,牡丹,2025-11-17,22.130036,120.792639,0.4108626
C0R930,萬丹,2025-11-17,22.5885,120.4851,0.047060583
C0S760,紅石,2025-11-17,23.069131,121.126219,1.7424304e-07
C2C410,中央大學,2025-11-17,24.967652,121.185165,0.16185293
C1M610,石磐龍,2025-11-17,23.496606,120.663506,6.2112955e-09
C0C790,東眼山,2025-11-17,24.8284,121.40888,0.0740385
C0UA10,鴛鴦湖,2025-11-17,24.590269,121.412228,5.926331e-08
V2C260,八德蔬果,2025-11-17,24.978508,121.281819,0.19456327
C0R800,丹路,2025-11-17,22.204481,120.750989,0.115190364
C0G920,永靖,2025-11-17,23.924703,120.547533,0.15180914
C2M950,太和,2025-11-17,23.538372,120.702961,4.384436e-09
C1A630,下盆,2025-11-17,24.771003,121.538622,0.6763632
B2N890,畜產試驗所,2025-11-17,23.058972,120.336406,0.16477396
C0UA30,白嶺,2025-11-17,24.527819,121.519031,5.4398217e-08
C1V580,溪南(特生中心),2025-11-17,23.084972,120.788475,5.0487845e-09
C1T970,大農,2025-11-17,23.615233,121.413331,0.0012699515
C0R650,竹田,2025-11-17,22.58486,120.54344,0.00049967505
C1H900,清流,2025-11-17,24.080775,120.962997,6.700926e-09
C1C510,水尾,2025-11-17,24.940081,121.087161,0.70924735
C0F9X0,大雅(中科園區),2025-11-17,24.21528,120.62445,0.03941994
C0SB60,白守蓮,2025-11-17,23.126769,121.401914,0.45935872
C0O970,虎頭埤,2025-11-17,23.021375,120.347878,0.0037852777
C0C730,中大臨海站,2025-11-17,24.966126,121.008581,0.85841477
C0X250,新營,2025-11-17,23.310689,120.316681,0.9943969
C0V700,三民,2025-11-17,22.645017,120.311233,0.0057224357
C0U870,大礁溪,2025-11-17,24.791042,121.675047,0.8491501
C0E870,高鐵苗栗,2025-11-17,24.60725,120.826094,0.97178894
A2K570,古坑花卉中心,2025-11-17,23.63353,120.55239,0.09470536
C0TA30,鹽寮,2025-11-17,23.845606,121.592664,0.9682974
C0M860,新美,2025-11-17,23.338017,120.683169,3.91936e-08
C1E701,八卦,2025-11-17,24.491756,120.927619,4.1753694e-08
C0I420,國姓,2025-11-17,24.037803,120.855072,1.9787478e-05
C2D720,關西工作站,2025-11-17,24.757275,121.184792,0.33915138
C0S960,香蘭,2025-11-17,22.587569,120.993375,0.31593764
467620,蘭嶼,2025-11-17,22.0369,121.55843,0.99788475
C0R260,春日,2025-11-17,22.370361,120.628306,0.7376303
72G600,臺中農改場,2025-11-17,24.003028,120.534389,0.87504596
C0Z210,瑞穗,2025-11-17,23.5239,121.39021,0.17518559
C0M820,達邦,2025-11-17,23.453994,120.749517,8.1424485e-09
C0V860,南寮,2025-11-17,22.7616,120.2339,0.00820592
C0G740,大城,2025-11-17,23.852487,120.320935,0.8180071
C0R920,塭仔,2025-11-17,22.4169,120.5197,0.526292
C0R470,高樹,2025-11-17,22.826389,120.600806,0.59897107
C0R680,佳樂水,2025-11-17,21.993578,120.861633,0.9750246
C1O870,大棟山,2025-11-17,23.31157,120.52226,1.31904585e-08
C0D360,梅花,2025-11-17,24.678347,121.208558,0.68272394
C0Z190,富世,2025-11-17,24.14743,121.6297,0.84947807
C0AI10,屈尺,2025-11-17,24.92184,121.54475,0.34252483
B2U990,畜試東區分所,2025-11-17,24.669039,121.832561,0.4690334
C0SB80,長濱漁港,2025-11-17,23.313644,121.459994,0.014455623
C0TA50,和仁,2025-11-17,24.241394,121.712472,7.3655895e-07
C0V910,大樹,2025-11-17,22.684645,120.432803,0.8257581
C1R610,西大武山,2025-11-17,22.617719,120.7322,1.1168651e-06
C0G900,線西,2025-11-17,24.143358,120.443536,0.9891799
C0M700,竹崎,2025-11-17,23.526178,120.555508,0.0072161257
C2E880,三義,2025-11-17,24.405478,120.749819,2.7378196e-08
C0C720,竹圍,2025-11-17,25.112692,121.239824,0.63712656
C0F9P0,清水,2025-11-17,24.312297,120.562242,0.9272424
C0Z150,吉安光華,2025-11-17,23.930925,121.595153,0.983644
C0FA80,小雪山天池,2025-11-17,24.28025,121.02627,1.2564429e-08
467300,東吉島,2025-11-17,23.25727,119.66762,0.9889307
C1D640,外坪(五指山),2025-11-17,24.644447,121.090961,0.0052562132
C0F9O0,潭子,2025-11-17,24.213106,120.703933,0.056182083
C2H9R0,卓社,2025-11-17,23.887894,121.000086,2.1785076e-09
72T250,花蓮農改場,2025-11-17,23.975222,121.563889,0.9878258
C0E780,銅鑼,2025-11-17,24.489681,120.790853,0.18453622
C1T950,太安,2025-11-17,23.666719,121.370128,1.3227789e-07
C0E830,苑裡,2025-11-17,24.439714,120.653053,0.3344541
467270,田中,2025-11-17,23.873803,120.581286,0.003978759
C0SA10,檳榔四格山,2025-11-17,22.810031,121.109308,0.006680996
C1T830,布洛灣,2025-11-17,24.17184,121.57127,0.9373096
C0F970,大坑,2025-11-17,24.173142,120.722289,0.2806446
C1U920,思源,2025-11-17,24.393125,121.347214,2.2384379e-08
C0A931,三和,2025-11-17,25.233153,121.595236,0.9950299
C0I010,廬山,2025-11-17,24.033311,121.181808,3.7937617e-09
C2M940,日野賀,2025-11-17,23.434056,120.727169,4.650706e-09
C0R860,鼻頭,2025-11-17,22.1043,120.8979,0.42853823
C0UB20,壯圍,2025-11-17,24.7359,121.8163,0.4337676
C0R790,九棚,2025-11-17,22.14195,120.889281,0.3374229
C0W110,東莒,2025-11-17,25.9652,119.98069,0.7871978
C1U930,粉鳥林,2025-11-17,24.497088,121.842479,0.97433865
C1I211,蘆竹湳,2025-11-17,23.934019,120.811994,1.0474452e-08
C0S830,長濱,2025-11-17,23.286817,121.411975,4.265784e-05
C1F9F1,伯公龍,2025-11-17,24.272392,120.849047,6.0672285e-08
C0UB90,太平山莊,2025-11-17,24.494171,121.536209,2.5051628e-08
C0E810,西湖,2025-11-17,24.562947,120.7485,0.88469553
C1I440,新高口,2025-11-17,23.478744,120.878939,8.377843e-09
C0O840,王爺宮,2025-11-17,23.222064,120.40085,0.0010786689
C0T9G0,鳳林山,2025-11-17,23.735269,121.420131,1.3510467e-07
C0X080,佳里,2025-11-17,23.173039,120.145086,0.99680656
C0FB70,大甲溪埔,2025-11-17,24.370625,120.620067,0.6502497
C0Z310,清水斷崖,2025-11-17,24.218294,121.689142,3.0924815e-07
C0M680,太保,2025-11-17,23.455062,120.331455,0.9971881
C1S820,金峰,2025-11-17,22.590969,120.933236,0.62533695
C0AD10,八里,2025-11-17,25.150211,121.403947,0.63562715
C2K240,草嶺,2025-11-17,23.59555,120.693461,9.975461e-09
C1SA70,都蘭,2025-11-17,22.87794,121.226881,0.66269296
C0K440,二崙,2025-11-17,23.772797,120.408944,0.004930777
C1A760,坪林交控,2025-11-17,24.94284,121.713442,0.99870706
C0F9N0,大里,2025-11-17,24.092464,120.701378,0.9312773
C0SA90,達仁林場,2025-11-17,22.264347,120.823972,0.9995933
C1R290,石門山,2025-11-17,22.112611,120.756597,0.99525565
42HA10,萬大發電廠,2025-11-17,23.978875,121.139639,4.8700044e-09
C0R890,山海,2025-11-17,21.9878,120.7091,0.98003244
C0T9A0,月眉山,2025-11-17,23.809928,121.539828,6.187195e-07
C0AC70,信義,2025-11-17,25.037822,121.564597,0.12093222
C0K560,棋山,2025-11-17,23.68645,120.603417,0.03658964
C2FB50,出雲,2025-11-17,24.206469,120.902794,8.0115035e-09
C1Z240,中平林道,2025-11-17,23.42115,121.26763,4.3916316e-07
U2H480,溪頭,2025-11-17,23.670306,120.798194,5.3412315e-09
C0M880,好美里,2025-11-17,23.3364,120.138,0.99619657
C0T9E0,大坑,2025-11-17,23.880628,121.581981,2.2184217e-05
C0K530,臺西,2025-11-17,23.701547,120.197559,0.9982206
C1E900,國一N128K,2025-11-17,24.560997,120.844186,0.8822994
C0AJ50,水湳洞,2025-11-17,25.123695,121.862238,0.5750877
C0AI20,白沙灣,2025-11-17,25.283128,121.519058,0.2344266
C2V310,美濃,2025-11-17,22.898792,120.51907,0.0024568385
C0A860,大坪,2025-11-17,25.165914,121.632969,0.93474334
C1U850,觀音海岸,2025-11-17,24.38319,121.77856,1.959162e-07
C2K610,草嶺石壁,2025-11-17,23.602469,120.707731,8.610266e-09
C0U950,鶯子嶺,2025-11-17,24.89754,121.79244,0.00045682883
C0O900,善化,2025-11-17,23.112883,120.297219,0.42185095
C0K550,蔦松,2025-11-17,23.514319,120.229736,0.99798626
E2P980,林試六龜中心,2025-11-17,22.991703,120.645722,0.0006478331
C0E590,通霄,2025-11-17,24.471892,120.704622,0.26735812
C1I310,西巒,2025-11-17,23.754486,120.883956,6.2988286e-09
C0A550,泰平,2025-11-17,24.971197,121.823711,0.97601867
C0I360,水里,2025-11-17,23.812553,120.849792,0.00054411654
C0R830,高士,2025-11-17,22.121825,120.836781,0.99816895
C1I101,溪頭,2025-11-17,23.661789,120.807647,2.5614462e-09
C0AJ20,野柳,2025-11-17,25.20703,121.690021,0.9789204
C0B060,暖暖,2025-11-17,25.0957,121.7403,0.60796946
C1H920,長豐,2025-11-17,24.102039,120.879897,4.430588e-09
C0V360,內門,2025-11-17,22.975481,120.466769,0.09327013
C0R850,林邊,2025-11-17,22.4634,120.5339,3.1377367e-05
C0E930,龍鳳,2025-11-17,24.700034,120.859125,0.9720692
C0U910,冬山,2025-11-17,24.63373,121.7937,0.4690334
C1E721,泰安,2025-11-17,24.489017,120.968036,1.1905221e-09
82H320,茶改中部分場,2025-11-17,23.875611,120.913583,2.4793747e-08
C0M750,布袋,2025-11-17,23.380878,120.167789,0.99810016
C1S860,利嘉,2025-11-17,22.809417,121.050528,0.0120445555
E2S980,林試太麻里1,2025-11-17,22.598922,120.980044,0.42602792
C0X170,關廟,2025-11-17,22.963017,120.327797,0.009253546
C0V720,林園,2025-11-17,22.507747,120.394511,0.05391675
C1I510,線浸林道,2025-11-17,23.761508,120.832956,3.4298235e-09
C0D690,外湖,2025-11-17,24.917735,120.968711,0.8071081
C0C750,新興坑尾,2025-11-17,25.0061,121.0971,0.824979
B2Q810,畜試南區分所,2025-11-17,21.945583,120.802167,0.9755086
C0S790,金崙,2025-11-17,22.538122,120.966875,0.71245575
C0AH90,福山植物園,2025-11-17,24.760717,121.58135,0.62778294
C0I540,奇萊稜線,2025-11-17,24.109231,121.326456,4.0884764e-08
C0M850,表湖,2025-11-17,23.24186,120.64166,4.610889e-09
C0S770,大溪山,2025-11-17,22.478475,120.943325,0.9843341
C0AG80,中和,2025-11-17,24.991622,121.491792,0.12005618
C0T790,大禹嶺,2025-11-17,24.186117,121.316086,1.7722302e-08
C0T9B0,水源,2025-11-17,23.991861,121.537169,0.0025631143
C0R840,牡丹池山,2025-11-17,22.168389,120.841225,0.9977905
C1I131,桶頭,2025-11-17,23.641944,120.654117,0.00011910976
CAL110,布袋國中,2025-11-17,23.35893,120.18026,0.99715436
467571,新竹,2025-11-17,24.827853,121.014219,0.6355695
C0Z290,赤柯山,2025-11-17,23.36893,121.38293,2.8682018e-07
C0X280,將軍,2025-11-17,23.214999,120.13577,0.9969656
C0S690,太麻里,2025-11-17,22.60902,120.98533,0.11842099
C0U880,北關,2025-11-17,24.9072,121.8734,0.9973031
C0G810,埔心,2025-11-17,23.947633,120.525456,0.16004418
C0U970,大福,2025-11-17,24.80064,121.81389,0.9930769
C2H9N0,仁愛東眼,2025-11-17,24.026875,121.1205,4.187985e-09
C1E670,南礦,2025-11-17,24.538278,121.002836,2.2873452e-09
C0M520,東後寮,2025-11-17,23.369908,120.248065,0.9971061
C1E461,松安,2025-11-17,24.397972,120.986022,1.4115974e-09
C2N160,西拉雅風管處,2025-11-17,23.189481,120.335297,0.9796012
C2M970,碧湖,2025-11-17,23.568632,120.624165,1.6731327e-08
C0A640,石碇,2025-11-17,24.993969,121.662917,0.9853839
E2S960,林試太麻里2,2025-11-17,22.598,120.99775,0.30683905
C0F9Y0,桃山,2025-11-17,24.432739,121.303808,2.0007827e-08
C1I020,萬大,2025-11-17,23.979817,121.132261,4.6719637e-09
C0U940,羅東,2025-11-17,24.68184,121.74934,0.4520202
C0M650,朴子,2025-11-17,23.43463,120.23902,0.9949241
C1I500,大尖山,2025-11-17,23.858572,120.994889,5.7047647e-09
C0FB40,中橫21.6k,2025-11-17,24.2499,121.1455,2.2692592e-09
C0G820,田尾,2025-11-17,23.901669,120.509389,0.15818194
E2K600,四湖植物園,2025-11-17,23.676986,120.163433,0.998447
C0S730,綠島,2025-11-17,22.6672,121.47533,0.19988602
12Q970,東港工作站,2025-11-17,22.479997,120.466058,3.291424e-05
C0E430,南庄,2025-11-17,24.601775,121.000214,0.015926931
C1TA00,太魯閣,2025-11-17,24.15773,121.6236,0.59661317
466920,臺北,2025-11-17,25.037658,121.514853,0.120914586
C0R600,舊泰武,2025-11-17,22.588194,120.664944,1.5603465e-08
C1I260,北坑,2025-11-17,23.9246,121.006903,7.282032e-09
466910,鞍部,2025-11-17,25.182586,121.529731,0.70490634
C1I230,九份二山,2025-11-17,23.961944,120.845,2.0970502e-08
C2A660,瑞芳,2025-11-17,25.113169,121.801147,0.86044365
C0R270,琉球嶼,2025-11-17,22.332244,120.362236,0.013364601
C1T990,高寮,2025-11-17,23.394239,121.356808,0.00035126958
C0G620,芬園,2025-11-17,24.015678,120.6213,0.013495082
C1Z140,荖溪,2025-11-17,23.890575,121.45964,1.2160726e-07
C1I201,中心崙,2025-11-17,23.728722,120.712097,6.6556938e-09
C1I400,凌霄,2025-11-17,24.018778,121.004456,4.3425064e-09
C1M640,十字,2025-11-17,23.492153,120.753683,6.000293e-09
G2P820,農試鳳山分所,2025-11-17,22.646611,120.356083,0.0056336937
C0Z270,蕃薯寮,2025-11-17,23.73835,121.540108,1.9895147e-06
C0FB10,出雲山苗圃,2025-11-17,24.23105,120.90475,7.659576e-09
C0F9Q0,外埔,2025-11-17,24.347817,120.705686,0.24091339
C0K580,高鐵雲林,2025-11-17,23.737456,120.417944,0.009094113
C2I090,鳳凰,2025-11-17,23.728081,120.787347,1.1483394e-08
C0U990,員山,2025-11-17,24.74435,121.72247,0.44509405
C0V770,大社,2025-11-17,22.730306,120.346639,0.0071511674
C0X120,麻豆,2025-11-17,23.183289,120.248611,0.99693555
C0C670,龍潭,2025-11-17,24.870056,121.221389,0.5375444
C0D680,香山濕地,2025-11-17,24.783581,120.914988,0.82967365
C0S980,勝林山,2025-11-17,22.430439,120.8938,0.9067952
C0V730,大寮,2025-11-17,22.605614,120.395717,0.092615925
C0R570,麟洛,2025-11-17,22.65078,120.52719,0.75812554
C2M930,石卓,2025-11-17,23.478744,120.702264,6.3937025e-09
C0G9B0,和美,2025-11-17,24.105169,120.492131,0.9979822
CAG100,王功漁港,2025-11-17,23.96824,120.32586,0.6884397
C0X290,北門,2025-11-17,23.267772,120.125481,0.9969654
C2F930,大甲,2025-11-17,24.347667,120.640403,0.7780594
C0D650,湖口,2025-11-17,24.904794,121.043628,0.71719813
C0E420,竹南,2025-11-17,24.708978,120.888897,0.9703534
C0U780,五結,2025-11-17,24.68637,121.79794,0.4337676
C1I250,鯉潭,2025-11-17,23.961922,120.991131,7.4144055e-09
C0R130,阿禮,2025-11-17,22.742908,120.743678,3.1297256e-07
C0X100,臺南市北區,2025-11-17,23.010394,120.194228,0.98241997
C0S920,金峰嘉蘭,2025-11-17,22.594789,120.960825,0.43589148
C0V490,新興,2025-11-17,22.627422,120.298803,0.008408495
C0F9K0,大安,2025-11-17,24.345061,120.588025,0.63206077
467290,古坑,2025-11-17,23.633639,120.551889,0.09470536
C2E970,八甲,2025-11-17,24.535811,120.795983,0.811416
C0V440,鳳山,2025-11-17,22.646653,120.356122,0.0056336937
C1T940,大觀,2025-11-17,23.714206,121.373133,1.8305042e-07
C0E740,造橋,2025-11-17,24.637056,120.864778,0.91637707
C0R100,尾寮山,2025-11-17,22.833111,120.683889,1.0413664e-06
A2K630,臺大雲林校區,2025-11-17,23.730628,120.423903,0.0090086935
467990,馬祖,2025-11-17,26.169467,119.923158,0.95994616
C0D580,寶山,2025-11-17,24.735006,121.025192,0.3336971
E2P990,林試扇平站,2025-11-17,22.9677,120.6857,2.8928392e-08
C0AI30,三重,2025-11-17,25.057328,121.500629,0.11820123
C0AH00,汐止,2025-11-17,25.066881,121.658778,0.120914586
C1Z040,立山,2025-11-17,23.443356,121.327375,1.9477959e-05
466881,新北,2025-11-17,24.959207,121.525196,0.11807867
C0W130,花嶼,2025-11-17,23.40007,119.32276,0.8216523
C0A950,鼻頭角,2025-11-17,25.129036,121.923372,0.26596242
C0K470,林內,2025-11-17,23.748675,120.609642,0.018621745
C2F990,摩天嶺,2025-11-17,24.322458,120.936819,1.1346729e-08
82C160,茶改場,2025-11-17,24.908472,121.185333,0.65374094
C0Z320,清水林道,2025-11-17,23.27125,121.188272,3.1722917e-05
C0R760,南仁湖,2025-11-17,22.084681,120.863353,0.995404
C0M670,大林,2025-11-17,23.600616,120.45841,0.9992257
C0M800,茶山,2025-11-17,23.299075,120.664767,3.737313e-06
C0A9C0,天母,2025-11-17,25.117494,121.537169,0.5708015
72K220,南改斗南分場,2025-11-17,23.634556,120.477333,0.034355026
72AI40,桃改樹林分場,2025-11-17,24.944503,121.386972,0.17036463
C0S910,蘭嶼燈塔,2025-11-17,22.081197,121.503117,0.9969783
C0B050,八斗子,2025-11-17,25.144754,121.79167,0.4648454
C0U900,內城,2025-11-17,24.71813,121.68766,0.48752618
C0X320,柳營,2025-11-17,23.253328,120.375253,0.9899015
C0M790,新港,2025-11-17,23.553269,120.345728,0.99681205
C0F9T0,西屯,2025-11-17,24.179494,120.641275,0.79386556
C0E950,松安,2025-11-17,24.39792,120.98599,1.4115974e-09
C0SA30,都歷,2025-11-17,23.020333,121.323642,0.85444695
C0C620,蘆竹,2025-11-17,25.084275,121.265767,0.7513863
C0R730,大坪頂,2025-11-17,22.024633,120.69355,0.51959544
C0AJ40,石門,2025-11-17,25.273672,121.601198,0.8724362
C0E750,苗栗,2025-11-17,24.564569,120.824575,0.88245714
C0T870,鯉魚潭,2025-11-17,23.935639,121.508944,0.9626193
C1V170,排雲,2025-11-17,23.463619,120.954147,3.7605158e-08
C2H950,中寮,2025-11-17,23.884447,120.766406,5.3967375e-05
C0R350,貓鼻頭,2025-11-17,21.921774,120.7358,0.99615693
C0V660,岡山,2025-11-17,22.797078,120.294958,0.00081414095
C1H941,雙冬,2025-11-17,23.967378,120.802189,6.7297705e-09
C0AJ70,田寮,2025-11-17,25.2698,121.4886,0.22722264
C0AI00,五股,2025-11-17,25.07445,121.42728,0.16889916
C0Z280,德武,2025-11-17,23.47426,121.41071,0.00025836902
C0R700,枋山,2025-11-17,22.246844,120.661086,0.2594675
C0C460,復興,2025-11-17,24.820208,121.352281,0.9551519
E2H360,蓮華池,2025-11-17,23.918333,120.885278,4.040611e-09
C0M640,中埔,2025-11-17,23.42538,120.5229,0.0022473615
C0W140,金沙,2025-11-17,24.488292,118.408778,0.999871
C2A540,四堵,2025-11-17,24.8926,121.745736,0.99305856
C0ACA0,新莊,2025-11-17,25.051478,121.446756,0.12226186
C0R220,潮州,2025-11-17,22.534361,120.54,0.00013011157
U2HA40,臺大內茅埔,2025-11-17,23.689722,120.851117,1.2630272e-06
467490,臺中,2025-11-17,24.145736,120.684075,0.6845258
C0UB60,明池,2025-11-17,24.650688,121.475277,4.140892e-06
C0U960,翠峰湖,2025-11-17,24.510856,121.608044,4.186302e-08
E2HA20,林試畢祿溪站,2025-11-17,24.226944,121.308522,1.1293097e-08
C0V890,前鎮,2025-11-17,22.5718,120.3117,0.009467577
C1F941,雪嶺,2025-11-17,24.280586,121.026642,1.2564429e-08
C2H9E0,國姓南港,2025-11-17,23.911108,120.846556,3.570863e-09
C0AC80,文山,2025-11-17,25.00235,121.575728,0.11832708
C0F9R0,龍井,2025-11-17,24.184536,120.528972,0.9836486
C0M760,民雄,2025-11-17,23.551754,120.428457,0.99927676
C0UA40,西德山,2025-11-17,24.560647,121.752608,9.125539e-07
C1T920,中興,2025-11-17,23.769503,121.498653,0.028954482
C0D550,雪霸,2025-11-17,24.526972,121.11605,5.313755e-09
C2F860,梨山,2025-11-17,24.247522,121.243669,1.1327657e-08
C0R320,車城,2025-11-17,22.0744,120.716247,0.86365026
C1S870,南美山,2025-11-17,23.15025,121.382333,0.9091366
C0B020,基隆嶼,2025-11-17,25.19141,121.78391,0.115916215
C1U501,牛鬥,2025-11-17,24.637836,121.573656,0.8907973
C0M730,嘉義市東區,2025-11-17,23.457673,120.460531,0.9985855
C0S700,知本,2025-11-17,22.684866,121.005642,0.09583997
C1N001,沙崙,2025-11-17,22.935472,120.309406,0.014571687
C0V760,橋頭,2025-11-17,22.757806,120.30575,0.007656413
C0G960,福寶,2025-11-17,24.0443,120.3814,0.9980004
C0X210,白河,2025-11-17,23.347466,120.414427,0.9952837
C0S810,東河,2025-11-17,22.972672,121.303986,0.09304437
C2R170,屏東,2025-11-17,22.66027,120.49403,0.75915784
C0R670,楓港,2025-11-17,22.190131,120.692156,0.36946756
C0FA50,霧峰,2025-11-17,24.0419,120.6995,0.01788341
C0UB10,蘇澳,2025-11-17,24.5969,121.8571,0.93079877
C0G950,防潮門,2025-11-17,24.1835,120.4871,0.9829475
C0M740,六腳,2025-11-17,23.492871,120.290625,0.9947592
C1R250,力里,2025-11-17,22.428117,120.629228,0.006233642
C0K330,虎尾,2025-11-17,23.719183,120.442036,0.005455084
C2FA00,烏石坑,2025-11-17,24.273503,120.947617,1.3216271e-08
C0V620,永安,2025-11-17,22.82315,120.236856,0.0009777088
C1I330,楓樹林,2025-11-17,23.986803,121.076117,2.6786136e-09
C0W200,湖西,2025-11-17,23.596314,119.67275,0.9908201
72Q010,高雄農改場,2025-11-17,22.709333,120.525889,0.579681
C0SA40,瑞和,2025-11-17,22.974361,121.156697,0.7927186
C0C680,龜山,2025-11-17,25.02846,121.38656,0.9701725
C2V260,月眉,2025-11-17,22.971003,120.539853,0.8028343
C0V450,鳳森,2025-11-17,22.545064,120.392592,0.1709645
C0FA90,小雪山林道,2025-11-17,24.29515,121.03651,1.558232e-08
C0U720,南山,2025-11-17,24.43742,121.38167,5.0676967e-08
A2N290,臺南蘭花園區,2025-11-17,23.340258,120.379661,0.9976253
C0R560,新園,2025-11-17,22.5434,120.461558,0.05391675
C0U890,三星,2025-11-17,24.66812,121.65302,0.9296702
C1V300,御油山,2025-11-17,23.001983,120.715364,5.496955e-09
C0U600,礁溪,2025-11-17,24.817539,121.765608,0.99927104
C1T980,龍澗,2025-11-17,24.023289,121.411328,1.6583694e-07
C0D670,海天一線,2025-11-17,24.831986,120.914438,0.83135766
C0SA00,歷坵,2025-11-17,22.520969,120.89185,0.40664122
C0M710,東石,2025-11-17,23.458927,120.15385,0.99583423
C0M780,鹿草,2025-11-17,23.41134,120.30835,0.99437964
C0U520,雙連埤,2025-11-17,24.753033,121.641303,0.8410516
C0B010,七堵,2025-11-17,25.094819,121.71713,0.40412587
C0R480,長治,2025-11-17,22.693128,120.542622,0.80534273
C1V830,國三S383K,2025-11-17,22.781967,120.426475,0.42177197
12Q980,恆春工作站,2025-11-17,22.079678,120.714425,0.8635006
C1O940,東山服務區,2025-11-17,23.286016,120.398472,0.99440575
C1U840,東澳嶺,2025-11-17,24.5378,121.8485,1.614885e-05
C1D630,飛鳳山,2025-11-17,24.766464,121.119178,0.8251763
C0S940,石寧山,2025-11-17,23.223772,121.406639,0.006574852
C0K410,北港,2025-11-17,23.573957,120.292802,0.9972787
C2M620,瑞里,2025-11-17,23.545133,120.675197,4.800624e-09
C0SB70,小港漁港,2025-11-17,23.158558,121.400431,0.8281226
C2O950,安南,2025-11-17,23.076694,120.144861,0.97587645
C0F0E0,南湖圈谷,2025-11-17,24.363714,121.444667,4.279345e-08
467610,成功,2025-11-17,23.097486,121.373428,0.60032153
C0G890,伸港,2025-11-17,24.148933,120.484403,0.9891163
C2E540,龍溪,2025-11-17,24.606489,120.783933,0.9723489
C1V200,梅山,2025-11-17,23.268447,120.823556,5.656827e-07
C0T9H0,加路蘭山,2025-11-17,23.682947,121.5274,1.1865073e-07
C2O930,玉井,2025-11-17,23.126042,120.46055,0.981897
C1F911,新伯公,2025-11-17,24.221361,120.841069,3.569698e-07
C0R490,九如,2025-11-17,22.7405,120.490503,0.5889952
C0X200,左鎮,2025-11-17,23.056758,120.408522,0.0002859849
C0FA60,鞍馬山工作站,2025-11-17,24.267064,121.000793,4.705877e-09
C0SB50,叭嗡嗡,2025-11-17,23.047062,121.343223,0.96296847
C1F891,稍來,2025-11-17,24.265689,121.001142,4.517112e-09
72N240,七股研究中心,2025-11-17,23.081672,120.062894,0.9918538
C0C700,中壢,2025-11-17,24.977661,121.256375,0.23985764
C0M690,水上,2025-11-17,23.419734,120.388909,0.99705356
C0V690,鼓山,2025-11-17,22.623325,120.275575,0.008457803
C0O860,大內,2025-11-17,23.11885,120.36083,0.19402717
C0Z200,萬榮,2025-11-17,23.709219,121.420106,0.0004645891
C0T9D0,和中,2025-11-17,24.26676,121.74103,0.74829376
C1O921,楠西,2025-11-17,23.183511,120.484083,0.99197465
C0AJ30,淡水觀海,2025-11-17,25.184591,121.408616,0.9199983
C0V810,左營,2025-11-17,22.67491,120.28491,0.005160345
C0UA70,桃源谷,2025-11-17,24.962606,121.888875,0.92201656
C0X130,官田,2025-11-17,23.193217,120.315422,0.98027474
C1H000,翠峰,2025-11-17,24.109397,121.205211,2.715918e-08
C0UA90,石城,2025-11-17,24.980444,121.951214,0.99913484
C1E681,南勢山,2025-11-17,24.421669,120.923831,2.7491418e-09
C0A9F0,內湖,2025-11-17,25.079422,121.57545,0.120914586
C0K291,宜梧,2025-11-17,23.536281,120.169329,0.99799293
C1K540,口湖,2025-11-17,23.585344,120.180517,0.99703485
C0R780,滿州,2025-11-17,22.024403,120.839892,0.36967328
C0V870,文安,2025-11-17,22.8025,120.2164,0.0010649748
C0U650,玉蘭,2025-11-17,24.675286,121.587061,0.95855117
C0R640,東港,2025-11-17,22.46247,120.44074,3.291424e-05
C0AJ80,板橋,2025-11-17,25.0107,121.4489,0.12626703
C0S660,下馬,2025-11-17,23.150427,121.070312,2.2160075e-06
C1H9B1,阿眉,2025-11-17,24.1263,120.994672,4.0822252e-09
C0UA20,多加屯,2025-11-17,24.368614,121.373189,1.347807e-08
C0E730,頭份,2025-11-17,24.688247,120.912206,0.97106475
72V140,高改旗南分場,2025-11-17,22.857861,120.516667,0.7076465
C0K480,莿桐,2025-11-17,23.761192,120.502372,0.008182766
C0U980,坪林石牌,2025-11-17,24.86478,121.77396,0.396319
C0T900,西林,2025-11-17,23.8119,121.441458,0.00054625334
C1I150,青雲,2025-11-17,23.793361,120.949378,1.0076421e-06
467350,澎湖,2025-11-17,23.565503,119.563094,0.9884569
C0G800,埔鹽,2025-11-17,24.000394,120.431683,0.9936271
C0H960,草屯,2025-11-17,23.973672,120.68085,0.006812676
C1V780,多納林道,2025-11-17,22.888028,120.737917,1.246353e-07
C0E920,通霄漁港,2025-11-17,24.498589,120.673876,0.15160613
C0Z330,安通山,2025-11-17,23.290728,121.348528,1.2960803e-06
C0AH10,永和,2025-11-17,25.01125,121.508111,0.12606128
C0AK10,太平里,2025-11-17,25.134937,121.364899,0.60474396
C2G640,鹿港,2025-11-17,24.0753,120.430481,0.9979982
C1E890,國三N149K,2025-11-17,24.463414,120.680019,0.30027965
C1R110,口社,2025-11-17,22.770111,120.645222,0.1992325
C1M870,國三N285K,2025-11-17,23.550319,120.505833,0.026731243
C1E480,鳳美,2025-11-17,24.554803,121.034747,3.5006124e-05
C0M530,奮起湖,2025-11-17,23.493903,120.699253,4.341173e-09
C0C590,觀音,2025-11-17,25.027072,121.153317,0.8880411
C0T9M0,靜浦,2025-11-17,23.455167,121.495028,0.013522312
C2H9M0,發祥,2025-11-17,24.154094,121.164517,2.382581e-09
C0AI40,石牌,2025-11-17,25.115597,121.513139,0.52327645
C1F871,上谷關,2025-11-17,24.203483,121.018644,1.1371428e-08
C2H9G0,百勝,2025-11-17,24.051142,120.909361,9.993591e-09
C0G880,二水,2025-11-17,23.810742,120.6173,0.012798705
C0R940,加祿堂,2025-11-17,22.3363,120.6217,0.1793712
C0W220,北竿,2025-11-17,26.220358,119.974881,0.92115164
C0O960,崎頂,2025-11-17,22.959547,120.369317,0.0001304598
C0TA40,秀林,2025-11-17,24.302864,121.731144,2.813952e-07
C0S750,向陽,2025-11-17,23.248397,120.986133,2.0688509e-08
C0T9F0,水璉,2025-11-17,23.797131,121.542514,4.473616e-05
C1M600,頭凍,2025-11-17,23.406364,120.603339,1.3405514e-08
467660,臺東,2025-11-17,22.752211,121.154586,0.04079256
C1D380,新埔,2025-11-17,24.84745,121.03834,0.30310428
C2G980,田頭村,2025-11-17,23.8263,120.444175,0.0049572727
C0V750,路竹,2025-11-17,22.854997,120.259439,0.0013080519
C0N050,蚵寮,2025-11-17,23.301,120.1104,0.99619657
72M700,南改鹿草分場,2025-11-17,23.416869,120.283061,0.9944024
C1SA50,利嘉林道,2025-11-17,22.82325,121.009389,2.3204399e-05
C0UB70,太平山中間站,2025-11-17,24.542003,121.513453,4.903248e-06
C0A940,金山,2025-11-17,25.223628,121.643967,0.9821928
C1V340,大津,2025-11-17,22.888322,120.645986,0.60890245
C0W180,七美,2025-11-17,23.219333,119.444892,0.9555401
C1F9C1,白冷,2025-11-17,24.182844,120.929889,1.0120731e-08
K2E710,苗改生物防治研究中心,2025-11-17,24.422861,120.871833,0.0006705323
C0N040,蘆竹溝,2025-11-17,23.2344,120.0961,0.9969654
C0D760,大坪苗圃,2025-11-17,24.5362,121.1108,1.8464507e-09
C2W230,畜試所澎湖,2025-11-17,23.628342,119.513206,0.898559
C0R880,後壁湖,2025-11-17,21.9457,120.7457,0.9803597
C1I280,埔中,2025-11-17,23.820778,120.642594,7.486942e-08
467790,墾丁雷達站,2025-11-17,21.948235,120.808028,0.9750518
C0W190,望安,2025-11-17,23.380564,119.494075,0.9736808
C0Z170,卓溪,2025-11-17,23.3443,121.3029,0.00016696453
C0F850,東勢,2025-11-17,24.246428,120.833047,2.340905e-06
466900,淡水,2025-11-17,25.164889,121.448906,0.60483354
C0I370,魚池,2025-11-17,23.895703,120.94135,5.899959e-09
C0C630,大溪,2025-11-17,24.882853,121.265547,0.26591942
C0A520,山佳,2025-11-17,24.974944,121.402008,0.16703184
C0I110,竹山,2025-11-17,23.761225,120.688156,0.00034600758
82H840,茶改南部分場,2025-11-17,23.762528,120.7405,1.2043051e-07
C0G660,溪湖,2025-11-17,23.94835,120.479122,0.2667046
C1T800,洛韶,2025-11-17,24.204558,121.453956,1.1216615e-07
C1T810,慈恩,2025-11-17,24.192044,121.388386,2.8404655e-08
C1E451,象鼻,2025-11-17,24.368617,120.940228,3.6923324e-09
C0AC60,三峽,2025-11-17,24.939025,121.369728,0.19343399
C0I490,萬大林道,2025-11-17,23.928228,121.091411,2.9523197e-09
C1I290,豐丘,2025-11-17,23.668178,120.887417,4.9093236e-09
C1I320,奧萬大,2025-11-17,23.952956,121.178556,2.1335291e-09
C2M910,嘉義大學,2025-11-17,23.471325,120.485903,0.11139303
C0U770,南澳,2025-11-17,24.44935,121.81022,1.0257046e-06
C0A980,社子,2025-11-17,25.109508,121.469681,0.6560667
C0V800,六龜,2025-11-17,22.997889,120.633583,0.003354467
C1G9D0,國一S218K,2025-11-17,23.890641,120.493253,0.02699477
C0E570,白沙屯,2025-11-17,24.549447,120.696803,0.9284072
C2F9A0,中竹林,2025-11-17,24.103556,120.751061,1.9760161e-07
C0FA40,臺中電廠,2025-11-17,24.2146,120.4907,0.98358405
C2G9A0,畜試所彰化,2025-11-17,23.86045,120.557964,0.004027433
C0H9C0,合歡山,2025-11-17,24.143442,121.272547,2.2737531e-08
C0X060,下營,2025-11-17,23.22695,120.256261,0.99632454
G2M350,農試溪口農場,2025-11-17,23.58565,120.408111,0.9993357
C0U860,頭城,2025-11-17,24.85323,121.8308,0.99929726
C0R580,南州,2025-11-17,22.48591,120.50274,3.291424e-05
C0D430,峨眉,2025-11-17,24.6905,121.017189,0.3462574
C0G780,秀水,2025-11-17,24.03405,120.503869,0.8832724
72N100,臺南農改場,2025-11-17,23.0605,120.342194,0.16170825
C0S900,蘭嶼高中,2025-11-17,22.04909,121.51214,0.99774516
C1F9W0,德基,2025-11-17,24.254783,121.190261,5.726557e-09
C1Z120,壽豐,2025-11-17,23.870853,121.508081,0.9506393
C0W160,烏坵,2025-11-17,24.9944,119.44956,0.6294725
C1I240,外大坪,2025-11-17,23.958697,120.917931,6.663671e-09
C1I550,國六W023K,2025-11-17,23.979067,120.867742,5.169817e-08
C0R870,興海,2025-11-17,21.9752,120.8439,0.97550344
C0R140,瑪家,2025-11-17,22.682903,120.686639,3.8344513e-08
C0A530,坪林,2025-11-17,24.938183,121.70975,0.9974422
C0X260,後壁,2025-11-17,23.366358,120.362326,0.99596703
C0Z230,和平,2025-11-17,24.30717,121.77007,0.8449732
C0G770,福興,2025-11-17,24.041289,120.437669,0.99367064
C0H9A0,神木村,2025-11-17,23.532742,120.843667,8.652197e-09
C0I460,南投,2025-11-17,23.911469,120.687331,0.0021147623
C0I480,梅峰,2025-11-17,24.085272,121.173572,7.928913e-09
C1V570,吉東,2025-11-17,22.85422,120.5454,0.6827221
C2D740,屯原,2025-11-17,24.067969,121.209389,1.3338283e-08
C2A560,福山,2025-11-17,24.776203,121.502811,0.96853805
C0AH30,五分山,2025-11-17,25.07125,121.780794,0.621075
C0FA10,松柏,2025-11-17,24.429115,120.617482,0.35373187
72S200,東改班鳩分場,2025-11-17,22.829528,121.077694,0.124654144
72HA00,中改埔里分場,2025-11-17,23.903208,120.963364,5.204323e-09
C2H9W0,大坪頂農水,2025-11-17,24.043122,120.932781,4.2940274e-09
C0C650,平鎮,2025-11-17,24.897503,121.214636,0.72628576
C0S930,延平,2025-11-17,22.902581,121.084058,0.3821169
C0UA60,樟樹山,2025-11-17,24.41393,121.78325,6.3634698e-06
C1S670,摩天,2025-11-17,23.199503,121.027,2.4886356e-07
C0V630,茄萣,2025-11-17,22.906642,120.182608,0.916552
466940,基隆,2025-11-17,25.133314,121.740475,0.49158618
C0X050,東河,2025-11-17,23.296598,120.385608,0.99528635
C0R770,保力,2025-11-17,22.071122,120.764111,0.3851839
G2L020,農試嘉義分所,2025-11-17,23.485028,120.473806,0.20777266
C0X240,關子嶺,2025-11-17,23.331169,120.508025,6.38048e-05
C0I380,集集,2025-11-17,23.828206,120.801467,0.0018226114
466990,花蓮,2025-11-17,23.975128,121.613275,0.97397155
C1V220,小關山,2025-11-17,23.154217,120.813603,5.1249276e-09
C1F9G1,慶福山,2025-11-17,24.180853,120.848378,1.1478335e-08
C0FB20,雪山橋,2025-11-17,24.23192,120.9786,7.944247e-09
C0Z250,瑞穗林道,2025-11-17,23.49284,121.30688,4.0447966e-07
C0D590,新豐,2025-11-17,24.87068,120.97721,0.60716057
C0A870,五指山,2025-11-17,25.132153,121.608692,0.66842794
C0UA50,西帽山,2025-11-17,24.555361,121.802628,0.00039691827
C0X160,仁德,2025-11-17,22.968258,120.257689,0.9905413
C1H971,六分寮,2025-11-17,23.92507,120.6378,7.709148e-08
C0W120,西嶼,2025-11-17,23.5626,119.468436,0.95468074
C0G650,員林,2025-11-17,23.946503,120.585597,0.03874536
C0AD50,鶯歌,2025-11-17,24.951533,121.346294,0.22060496
C2H9Q0,北東眼山,2025-11-17,24.120939,121.189303,9.31331e-09
C2H9T0,名間竹圍,2025-11-17,23.859914,120.637572,3.7508814e-06
C0S990,山豬窟,2025-11-17,22.318619,120.857372,0.99765486
C0X190,安平,2025-11-17,22.993161,120.152181,0.9823993
C0K400,斗六,2025-11-17,23.720583,120.541127,0.002872532
12J990,口湖工作站,2025-11-17,23.589978,120.180394,0.9970483
C0O830,北寮,2025-11-17,23.079561,120.495008,0.12920608
C1D410,白蘭,2025-11-17,24.579364,121.079947,2.0009534e-09
C0S970,加津林,2025-11-17,22.416211,120.926942,0.46193093
C0D700,關西,2025-11-17,24.7977,121.1732,0.21367724
C0M810,里佳,2025-11-17,23.389125,120.716647,5.4224367e-09
C0U750,龜山島,2025-11-17,24.841667,121.953133,0.72459614
C0R810,內獅,2025-11-17,22.305064,120.642986,0.17731284
C1M390,龍美,2025-11-17,23.406728,120.654417,7.108502e-09
C2FB60,頭櫃山,2025-11-17,24.129842,120.858925,4.1661075e-09
C1H840,國三N238K,2025-11-17,23.841008,120.707711,0.00016786085
CAQ030,崎峰國小,2025-11-17,22.42565,120.49521,3.291424e-05
C2E520,大湖,2025-11-17,24.414939,120.870872,7.77747e-06
467530,阿里山,2025-11-17,23.508208,120.813242,5.838223e-09
C1E691,南湖,2025-11-17,24.40135,120.837533,6.769512e-09
C0FA30,梧棲,2025-11-17,24.256003,120.523381,0.9272672
C1V231,高中,2025-11-17,23.134911,120.716711,3.5395418e-09
C0AK30,硬漢嶺,2025-11-17,25.136097,121.426372,0.7728788
C0F9V0,新社,2025-11-17,24.200172,120.815806,3.468872e-08
C0H890,埔里,2025-11-17,23.972169,120.952425,1.0027941e-08
C0R690,墾丁,2025-11-17,21.966756,120.810269,0.8329623
C0F0D0,審馬陣,2025-11-17,24.381675,121.4203,1.9142284e-08
C2W030,金門農試所,2025-11-17,24.448431,118.451786,0.9998581
C0R820,白鷺,2025-11-17,22.454275,120.666219,0.24652301
C0FB00,大雪山,2025-11-17,24.254668,121.007374,1.0891354e-08
C1V190,南天池,2025-11-17,23.27403,120.91176,2.4599533e-08
C0E940,雪見,2025-11-17,24.42595,121.01347,2.8039413e-09
K2E360,苗栗農改場,2025-11-17,24.495722,120.829111,0.40560442
CAJ050,海口故事園區,2025-11-17,23.57543,120.14121,0.9970416
C2H9D0,三隻寮,2025-11-17,24.093078,120.861578,3.9781947e-09
C0O990,媽廟,2025-11-17,22.99175,120.293525,0.93182546
C0D480,打鐵坑,2025-11-17,24.849664,121.150789,0.55267817
C0Z220,和平林道,2025-11-17,24.343922,121.656317,1.6714637e-07
C0TA10,花蓮漁港,2025-11-17,23.995322,121.638331,0.9589863
72C440,桃園農改場,2025-11-17,24.950944,121.030583,0.77108645
C1E711,馬拉邦山,2025-11-17,24.367306,120.901656,6.8355015e-09
C0SB20,富岡,2025-11-17,22.792467,121.192669,0.09394384
C0D560,竹東,2025-11-17,24.767147,121.057881,0.29807457
C0F9U0,南屯,2025-11-17,24.137006,120.637969,0.9939638
C0M720,番路,2025-11-17,23.464657,120.554156,0.017078208
C0F0A0,雪山圈谷,2025-11-17,24.388594,121.236339,2.6319562e-08
C1A9N0,四十份,2025-11-17,24.934158,121.593283,0.996508
C0U760,東澳,2025-11-17,24.52196,121.83318,0.96805006
C0X230,鹽水,2025-11-17,23.272621,120.247641,0.99613744
C2H9H0,苗改南投蜂場,2025-11-17,23.852589,120.693481,0.000115715804
C0R950,萬隆國小,2025-11-17,22.507667,120.587817,0.00012982257
467540,大武,2025-11-17,22.35572,120.90374,0.41397434
C0V370,古亭坑,2025-11-17,22.893178,120.401947,0.0012769902
C1I340,新興橋,2025-11-17,23.563333,120.868728,6.3241448e-09
C0SA80,土坂,2025-11-17,22.453108,120.887572,0.55529565
C0R160,鹽埔,2025-11-17,22.739558,120.530778,0.54124266
C0AC40,大屯山,2025-11-17,25.175675,121.522408,0.10014888
466850,五分山雷達站,2025-11-17,25.071182,121.781205,0.6109509
C2H9L0,馬烈霸,2025-11-17,24.1512,121.201772,8.950819e-09
C1AI50,國三N016K,2025-11-17,25.034164,121.619664,0.13539493
C1V600,藤枝,2025-11-17,23.071961,120.757042,8.707177e-09
C1E601,南勢,2025-11-17,24.572486,120.734842,0.81586576
C0O980,新市,2025-11-17,23.061614,120.298197,0.3399475
C0K420,西螺,2025-11-17,23.800407,120.467394,0.0031526228
C0Z050,佳心,2025-11-17,23.34567,121.21316,6.0272e-07
C0AD30,蘆洲,2025-11-17,25.086594,121.472331,0.118283905
C0V610,梓官,2025-11-17,22.760558,120.267211,0.0077141128
K2F750,種苗改良場,2025-11-17,24.225972,120.800917,9.530935e-08
C0UA80,大溪漁港,2025-11-17,24.941801,121.902955,0.99957424
C1AI60,國一39K邊坡,2025-11-17,25.064361,121.383836,0.9502253
C0W150,金寧,2025-11-17,24.457703,118.328989,0.9998455
C0R960,內埔,2025-11-17,22.608483,120.570714,0.00045250173
V2C250,八德合作社,2025-11-17,24.93775,121.266389,0.45048133
C2H9S0,龍南,2025-11-17,23.953536,120.833183,3.7083396e-09
C0AH40,平等,2025-11-17,25.129142,121.577086,0.8951669
C0R540,佳冬,2025-11-17,22.419456,120.552375,0.53490305
466950,彭佳嶼,2025-11-17,25.627975,122.079744,0.87345403
C0A890,雙溪,2025-11-17,25.036003,121.864242,0.90586334
C0C480,桃園,2025-11-17,24.992425,121.323172,0.18742687
C0AH50,林口,2025-11-17,25.072181,121.38084,0.9770464
A2K360,水試臺西試驗場,2025-11-17,23.717231,120.190522,0.998212
C2M960,外寮,2025-11-17,23.562643,120.665688,1.2724906e-08
C0F9S0,烏日,2025-11-17,24.107058,120.624103,0.9926872
C0C490,八德,2025-11-17,24.928708,121.283289,0.47617033
C0R190,赤山,2025-11-17,22.592333,120.614306,0.00045822095
C0T820,天祥,2025-11-17,24.179597,121.495639,0.00023995555
C1F9E1,龍安,2025-11-17,24.1605,120.831961,2.1008695e-08
C0V820,小林,2025-11-17,23.148408,120.63325,4.5984197e-07
C2G870,芳苑,2025-11-17,23.922303,120.320025,0.7011545
C0E850,大河,2025-11-17,24.618069,120.948578,0.652079
C1U670,寒溪,2025-11-17,24.634,121.71691,0.5232244
C0N020,城西,2025-11-17,23.0568,120.0956,0.9976648
C1Z110,三棧,2025-11-17,24.11557,121.60501,8.017934e-06
C0R280,檳榔,2025-11-17,22.076078,120.836777,0.9556686
C2H9J0,中台,2025-11-17,23.9996,120.938739,1.4102068e-08
C0F9L0,后里,2025-11-17,24.310436,120.729725,0.032638073
467441,高雄,2025-11-17,22.730432,120.312516,0.0068481774
C0Z180,新城,2025-11-17,24.040486,121.604878,0.9816956
C0D540,橫山,2025-11-17,24.71116,121.11693,0.45244718
C1D420,太閣南,2025-11-17,24.632808,121.160575,7.4620644e-08
C1E770,公館,2025-11-17,24.526914,120.830806,0.5423847
CAN130,水試所海水繁養殖中心,2025-11-17,23.120802,120.07968,0.99186265
C1I430,翠華,2025-11-17,24.191961,121.224339,1.5374482e-08
C1M400,菜瓜坪,2025-11-17,23.251928,120.576103,1.8809636e-06
C0G730,二林,2025-11-17,23.903325,120.376081,0.98777574
72M360,南改義竹分場,2025-11-17,23.360694,120.279361,0.99713534
V2K620,麥寮合作社,2025-11-17,23.753836,120.294783,0.9753772
C0Z070,舞鶴,2025-11-17,23.46811,121.37407,5.7069374e-05
C0B040,大武崙,2025-11-17,25.166676,121.706993,0.6570107
C1Z030,紅葉,2025-11-17,23.493119,121.338806,0.0052208016
C1I050,丹大,2025-11-17,23.753747,121.141147,3.528644e-08
C0I080,信義,2025-11-17,23.689694,120.851036,1.2630272e-06
C0D750,樂山林道6k,2025-11-17,24.49999,121.08773,6.1764682e-09
C2M920,朴子農改,2025-11-17,23.469889,120.259383,0.9949301
C2A880,福隆,2025-11-17,25.017842,121.942083,0.999171
C0Z160,鳳林,2025-11-17,23.746114,121.453411,0.0023391354
C0UB80,翠峰林道6K,2025-11-17,24.49773,121.568625,2.156268e-08
C0V210,復興,2025-11-17,23.222403,120.806089,2.1370571e-08
C0H990,昆陽,2025-11-17,24.121322,121.273642,3.4491983e-08
C0R741,獅子,2025-11-17,22.202308,120.705236,0.11308466
C0S710,鹿野,2025-11-17,22.917711,121.122994,0.001612282
C0I530,小奇萊,2025-11-17,24.131764,121.295717,3.5429277e-08
C0FA70,大雪山埡口,2025-11-17,24.26867,121.03062,1.2408199e-08
C2K630,荷苞,2025-11-17,23.657717,120.595144,0.0022618424
C0Z080,富源,2025-11-17,23.587642,121.378225,0.00028391127
C0SB10,美和,2025-11-17,22.682078,121.060236,0.29581296
C2K620,馬光農場,2025-11-17,23.721453,120.378864,0.010528912
C1I140,卡奈托灣,2025-11-17,23.754364,121.087872,5.4216196e-09
C0I520,玉山風口,2025-11-17,23.470489,120.955994,2.6279132e-08
C1G691,下水埔,2025-11-17,23.816114,120.5676,0.0027824263
C0X110,臺南市南區,2025-11-17,22.961189,120.188378,0.9914184
C0V680,仁武,2025-11-17,22.701083,120.347722,0.0054067587
C2G840,北斗,2025-11-17,23.877586,120.514222,0.02455913
C0R900,竹坑,2025-11-17,22.1385,120.7022,0.84117705
C0K250,崙背,2025-11-17,23.75555,120.318925,0.9749718
C0G860,社頭,2025-11-17,23.897647,120.5862,0.006754193
C0X150,安定,2025-11-17,23.102614,120.227839,0.94106174
C0R590,里港,2025-11-17,22.77919,120.49459,0.73990977
C0E610,馬都安,2025-11-17,24.451272,120.930192,4.696211e-09
C0E550,明德,2025-11-17,24.583486,120.885411,0.8866402
C0R150,三地門,2025-11-17,22.709889,120.639944,0.23597741
C0G910,花壇,2025-11-17,24.032076,120.549461,0.75904435
C1D400,鳥嘴山,2025-11-17,24.71909,121.28387,0.115509816
C0K500,元長,2025-11-17,23.64981,120.315024,0.97360504
C0F0B0,石岡,2025-11-17,24.276061,120.777644,8.984599e-05
C2V250,甲仙,2025-11-17,23.080106,120.591758,1.0675383e-05
C0SA20,金崙山,2025-11-17,22.567419,120.959667,0.0036778045
C0V350,溪埔,2025-11-17,22.738578,120.446797,0.9268471
C0M660,溪口,2025-11-17,23.604131,120.403569,0.99933505
C1S880,壽卡,2025-11-17,22.238911,120.858903,0.9995362
72D680,桃改新埔分場,2025-11-17,24.834444,121.066111,0.3401337
