站號,站名,日期,lat,lon,BLBTSLS
C0K280,四湖,2025-09-25,23.630414,120.227125,0.23573238
C0R240,來義,2025-09-25,22.527306,120.625111,0.15812977
C0E430,南庄,2025-09-25,24.601775,121.000214,0.99162567
C0E420,竹南,2025-09-25,24.708978,120.888897,0.5061637
C0M530,奮起湖,2025-09-25,23.493903,120.699253,3.828362e-09
C0C590,觀音,2025-09-25,25.027072,121.153317,0.98506045
C0X060,下營,2025-09-25,23.22695,120.256261,0.4933217
C2D740,屯原,2025-09-25,24.067969,121.209389,5.438543e-09
C0M810,里佳,2025-09-25,23.389125,120.716647,2.8939855e-09
C0K250,崙背,2025-09-25,23.75555,120.318925,0.63565105
