站號,站名,日期,lat,lon,BlastGRU-TW
12J990,口湖工作站,2025-03-10,23.589978,120.180394,0.00038725088
12Q970,東港工作站,2025-03-10,22.479997,120.466058,0.14896284
12Q980,恆春工作站,2025-03-10,22.079678,120.714425,0.00085595576
466881,新北,2025-03-10,24.9593,121.52,0.0036503668
466900,淡水,2025-03-10,25.164889,121.448906,0.003023251
466920,臺北,2025-03-10,25.037658,121.514853,0.0059710257
466940,基隆,2025-03-10,25.133314,121.740475,0.054935943
466990,花蓮,2025-03-10,23.975128,121.613275,0.049191236
467050,新屋,2025-03-10,25.006744,121.047486,0.00055977446
467080,宜蘭,2025-03-10,24.763975,121.756528,0.019159364
467270,田中,2025-03-10,23.873803,120.581286,0.021607488
467280,後龍,2025-03-10,24.648563,120.831834,0.0004443143
467290,古坑,2025-03-10,23.633639,120.551889,0.008157348
467300,東吉島,2025-03-10,23.25695,119.667467,0.00064858433
467350,澎湖,2025-03-10,23.565503,119.563094,0.00056794815
467410,臺南,2025-03-10,22.993239,120.204772,0.0016688512
467420,永康,2025-03-10,23.038386,120.2367,0.006708805
467441,高雄,2025-03-10,22.7304,120.3125,0.12128212
467480,嘉義,2025-03-10,23.495925,120.432906,0.0058531812
467490,臺中,2025-03-10,24.145736,120.684075,0.009102392
467540,大武,2025-03-10,22.355675,120.903789,0.15790713
467571,新竹,2025-03-10,24.827853,121.014219,0.00058677775
467590,恆春,2025-03-10,22.003897,120.746339,0.007927303
467610,成功,2025-03-10,23.097486,121.373428,0.012006937
467620,蘭嶼,2025-03-10,22.036969,121.558339,3.855055e-05
467660,臺東,2025-03-10,22.752211,121.154586,0.010894247
467790,墾丁雷達站,2025-03-10,21.948235,120.808028,0.0004869458
72AI40,桃改樹林分場,2025-03-10,24.944503,121.386972,0.0055381996
72C440,桃園農改,2025-03-10,24.950944,121.030583,0.0005559159
72C440,桃園農改場,2025-03-10,24.950944,121.030583,0.0005559159
72D680,桃改新埔分場,2025-03-10,24.834444,121.066111,0.0005298385
72G600,臺中農改,2025-03-10,24.003028,120.534389,0.0014366535
72G600,臺中農改場,2025-03-10,24.003028,120.534389,0.0014366535
72K220,南改斗南分場,2025-03-10,23.634556,120.477333,0.012512734
72M360,南改義竹分場,2025-03-10,23.360694,120.279361,0.0008530627
72M700,南改鹿草分場,2025-03-10,23.416869,120.283061,0.0012506263
72N100,臺南農改,2025-03-10,23.0605,120.342194,0.015500402
72N100,臺南農改場,2025-03-10,23.0605,120.342194,0.015500402
72N240,七股研究中心,2025-03-10,23.081672,120.062894,0.00069603726
72Q010,高雄農改,2025-03-10,22.709333,120.525889,0.11146685
72Q010,高雄農改場,2025-03-10,22.709333,120.525889,0.11146685
72S200,東改班鳩分場,2025-03-10,22.829528,121.077694,0.005905921
72S590,東改賓朗果園,2025-03-10,22.813889,121.071278,0.005054293
72T250,花蓮農改,2025-03-10,23.975222,121.563889,0.032375794
72T250,花蓮農改場,2025-03-10,23.975222,121.563889,0.032375794
72U480,花改蘭陽分場,2025-03-10,24.686306,121.716583,0.080850065
72V140,高改旗南分場,2025-03-10,22.857861,120.516667,0.24747537
82A750,茶改北部分場,2025-03-10,24.955778,121.631222,0.010213492
82C160,茶改場,2025-03-10,24.908472,121.185333,0.00095232064
82H840,茶改南部分場,2025-03-10,23.762528,120.7405,0.0034579374
82S580,茶改東部分場,2025-03-10,22.907694,121.130139,0.006097461
A2C560,農工中心,2025-03-10,24.985917,121.239833,0.0017055373
A2K360,水試臺西試驗場,2025-03-10,23.717231,120.190522,0.0003374061
A2K570,古坑花卉中心,2025-03-10,23.63353,120.55239,0.008157348
A2K630,臺大雲林校區,2025-03-10,23.730628,120.423903,0.0029621331
A2N290,臺南蘭花園區,2025-03-10,23.340258,120.379661,0.0044590696
B2E890,畜試北區分所,2025-03-10,24.527806,120.770972,0.0014261467
B2N890,畜產試驗所,2025-03-10,23.058972,120.336406,0.016723387
B2N890,畜試所,2025-03-10,23.058972,120.336406,0.016723387
B2Q810,畜試南區分所,2025-03-10,21.945583,120.802167,0.00057787116
B2U990,畜試東區分所,2025-03-10,24.669039,121.832561,0.33196566
C0A520,山佳,2025-03-10,24.974944,121.402008,0.0075084884
C0A530,坪林,2025-03-10,24.938183,121.70975,0.036523864
C0A550,泰平,2025-03-10,24.971197,121.823711,0.027296146
C0A570,桶後,2025-03-10,24.848222,121.597992,0.021435667
C0A640,石碇,2025-03-10,24.993969,121.662917,0.0032416638
C0A770,科教館,2025-03-10,25.096356,121.516507,0.007135384
C0A860,大坪,2025-03-10,25.165914,121.632969,0.0063573713
C0A890,雙溪,2025-03-10,25.036003,121.864242,0.07487237
C0A931,三和,2025-03-10,25.233153,121.595236,0.02264218
C0A940,金山,2025-03-10,25.223628,121.643967,0.08224489
C0A950,鼻頭角,2025-03-10,25.129036,121.923372,0.006477462
C0A970,三貂角,2025-03-10,25.007606,122.002058,0.13758409
C0A980,社子,2025-03-10,25.109508,121.469681,0.0033538041
C0A9C0,天母,2025-03-10,25.117494,121.537169,0.01289413
C0A9F0,內湖,2025-03-10,25.079422,121.57545,0.0059710257
C0AC60,三峽,2025-03-10,24.939025,121.369728,0.005144988
C0AC70,信義,2025-03-10,25.037822,121.564597,0.0059710257
C0AC80,文山,2025-03-10,25.00235,121.575728,0.0032073963
C0ACA0,新莊,2025-03-10,25.051478,121.446756,0.006237676
C0AD10,八里,2025-03-10,25.150211,121.403947,0.0020662448
C0AD30,蘆洲,2025-03-10,25.086594,121.472331,0.0068052816
C0AD40,土城,2025-03-10,24.973208,121.445169,0.0039486103
C0AD50,鶯歌,2025-03-10,24.951533,121.346294,0.004548851
C0AG80,中和,2025-03-10,24.991622,121.491792,0.0039486103
C0AH00,汐止,2025-03-10,25.066881,121.658778,0.0059710257
C0AH10,永和,2025-03-10,25.01125,121.508111,0.004157221
C0AH40,平等,2025-03-10,25.129142,121.577086,0.0047593517
C0AH50,林口,2025-03-10,25.072181,121.38084,0.0019359475
C0AH70,松山,2025-03-10,25.04871,121.55042,0.0059710257
C0AH80,深坑,2025-03-10,25.002703,121.628328,0.0032931124
C0AI00,五股,2025-03-10,25.07445,121.42728,0.0020090388
C0AI10,屈尺,2025-03-10,24.92184,121.54475,0.012542488
C0AI20,白沙灣,2025-03-10,25.283128,121.519058,0.020354474
C0AI30,三重,2025-03-10,25.057328,121.500629,0.006398766
C0AI40,石牌,2025-03-10,25.115597,121.513139,0.013505136
C0AJ20,野柳,2025-03-10,25.20703,121.690021,0.09108494
C0AJ30,淡水觀海,2025-03-10,25.184591,121.408616,0.016944746
C0AJ40,石門,2025-03-10,25.273672,121.601198,0.0073908204
C0AJ50,水湳洞,2025-03-10,25.123695,121.862238,0.04393292
C0AJ60,六塊厝,2025-03-10,25.24,121.4481,0.023798196
C0AJ70,田寮,2025-03-10,25.2698,121.4886,0.021646054
C0AJ80,板橋,2025-03-10,25.0107,121.4489,0.004157221
C0AJ90,澳底,2025-03-10,25.0552,121.9253,0.10606436
C0AK10,太平里,2025-03-10,25.134937,121.364899,0.0020290185
C0B010,七堵,2025-03-10,25.094819,121.71713,0.013963547
C0B020,基隆嶼,2025-03-10,25.19141,121.78391,0.0038113245
C0B040,大武崙,2025-03-10,25.166676,121.706993,0.042033557
C0B050,八斗子,2025-03-10,25.144754,121.79167,0.059153207
C0B060,暖暖,2025-03-10,25.0957,121.7403,0.009846945
C0C460,復興,2025-03-10,24.820208,121.352281,0.0015916708
C0C480,桃園,2025-03-10,24.992425,121.323172,0.0037393284
C0C490,八德,2025-03-10,24.928708,121.283289,0.002118002
C0C590,觀音,2025-03-10,25.027072,121.153317,0.00042823804
C0C620,蘆竹,2025-03-10,25.084275,121.265767,0.0009266193
C0C630,大溪,2025-03-10,24.882853,121.265547,0.0014033961
C0C650,平鎮,2025-03-10,24.897503,121.214636,0.0017872195
C0C660,楊梅,2025-03-10,24.912375,121.143047,0.0010913044
C0C670,龍潭,2025-03-10,24.870056,121.221389,0.001239976
C0C680,龜山,2025-03-10,25.02846,121.38656,0.0012184052
C0C700,中壢,2025-03-10,24.977661,121.256375,0.0027378781
C0C710,大溪永福,2025-03-10,24.892936,121.324975,0.0056200176
C0C720,竹圍,2025-03-10,25.112692,121.239824,0.001099837
C0C730,中大臨海站,2025-03-10,24.966126,121.008581,0.00057711813
C0C740,觀音工業區,2025-03-10,25.064764,121.114856,0.00041176405
C0C750,新興坑尾,2025-03-10,25.0061,121.0971,0.00060245575
C0D430,峨眉,2025-03-10,24.6905,121.017189,0.00091301557
C0D480,打鐵坑,2025-03-10,24.849664,121.150789,0.0012311192
C0D540,橫山,2025-03-10,24.71116,121.11693,0.000988251
C0D560,竹東,2025-03-10,24.767147,121.057881,0.0012495618
C0D580,寶山,2025-03-10,24.735006,121.025192,0.0018703047
C0D590,新豐,2025-03-10,24.87068,120.97721,0.0001782176
C0D650,湖口,2025-03-10,24.904794,121.043628,0.0006239334
C0D660,新竹市東區,2025-03-10,24.798681,120.986942,0.000634166
C0D670,海天一線,2025-03-10,24.831986,120.914438,0.00018845305
C0D680,香山濕地,2025-03-10,24.783581,120.914988,0.0006787077
C0D690,外湖,2025-03-10,24.917735,120.968711,0.0006910672
C0D700,關西,2025-03-10,24.7977,121.1732,0.00075081433
C0E420,竹南,2025-03-10,24.708978,120.888897,0.00027874944
C0E430,南庄,2025-03-10,24.601775,121.000214,0.0023231085
C0E550,明德,2025-03-10,24.583486,120.885411,0.0007437079
C0E570,白沙屯,2025-03-10,24.549447,120.696803,0.00022025286
C0E590,通霄,2025-03-10,24.471892,120.704622,0.00028990646
C0E730,頭份,2025-03-10,24.688247,120.912206,0.0002777949
C0E740,造橋,2025-03-10,24.637056,120.864778,0.00045133967
C0E750,苗栗,2025-03-10,24.564569,120.824575,0.000775996
C0E780,銅鑼,2025-03-10,24.489681,120.790853,0.0011057146
C0E791,卓蘭,2025-03-10,24.3126,120.8244,0.0048831296
C0E810,西湖,2025-03-10,24.562947,120.7485,0.00020286237
C0E820,獅潭,2025-03-10,24.539133,120.920042,0.0032325722
C0E830,苑裡,2025-03-10,24.439714,120.653053,0.00030297023
C0E850,大河,2025-03-10,24.618069,120.948578,0.002032097
C0E870,高鐵苗栗,2025-03-10,24.60725,120.826094,0.00045176627
C0E910,海埔,2025-03-10,24.648767,120.772435,0.0005205339
C0E920,通霄漁港,2025-03-10,24.498589,120.673876,0.00024828574
C0E930,龍鳳,2025-03-10,24.700034,120.859125,0.00027574613
C0F0B0,石岡,2025-03-10,24.276061,120.777644,0.005506876
C0F850,東勢,2025-03-10,24.246428,120.833047,0.0034907283
C0F970,大坑,2025-03-10,24.173142,120.722289,0.011744362
C0F9I0,神岡,2025-03-10,24.272481,120.658314,0.003331947
C0F9K0,大安,2025-03-10,24.345061,120.588025,0.0002687748
C0F9L0,后里,2025-03-10,24.310436,120.729725,0.00661429
C0F9M0,豐原,2025-03-10,24.254322,120.720692,0.007132331
C0F9N0,大里,2025-03-10,24.092464,120.701378,0.022861432
C0F9O0,潭子,2025-03-10,24.213106,120.703933,0.0064573754
C0F9P0,清水,2025-03-10,24.312297,120.562242,0.0003434547
C0F9Q0,外埔,2025-03-10,24.347817,120.705686,0.0028417516
C0F9R0,龍井,2025-03-10,24.184536,120.528972,0.000440177
C0F9S0,烏日,2025-03-10,24.107058,120.624103,0.029008478
C0F9T0,西屯,2025-03-10,24.179494,120.641275,0.0036650263
C0F9U0,南屯,2025-03-10,24.137006,120.637969,0.0042704763
C0F9X0,大雅(中科園區),2025-03-10,24.21528,120.62445,0.0027592017
C0FA10,松柏,2025-03-10,24.429115,120.617482,0.00021968846
C0FA20,溫寮,2025-03-10,24.372177,120.583125,0.00027802936
C0FA30,梧棲,2025-03-10,24.256003,120.523381,0.00034345503
C0FA40,臺中電廠,2025-03-10,24.2146,120.4907,0.00029710663
C0FA50,霧峰,2025-03-10,24.0419,120.6995,0.025075233
C0FB70,大甲溪埔,2025-03-10,24.370625,120.620067,0.00026587237
C0G620,芬園,2025-03-10,24.015678,120.6213,0.026847888
C0G650,員林,2025-03-10,23.946503,120.585597,0.00943633
C0G660,溪湖,2025-03-10,23.94835,120.479122,0.0014545441
C0G720,溪州,2025-03-10,23.851589,120.499093,0.00799728
C0G730,二林,2025-03-10,23.903325,120.376081,0.00037977102
C0G740,大城,2025-03-10,23.852487,120.320935,0.00024396378
C0G770,福興,2025-03-10,24.041289,120.437669,0.00036230037
C0G780,秀水,2025-03-10,24.03405,120.503869,0.0014405266
C0G800,埔鹽,2025-03-10,24.000394,120.431683,0.00036345248
C0G810,埔心,2025-03-10,23.947633,120.525456,0.0014285253
C0G820,田尾,2025-03-10,23.901669,120.509389,0.008232064
C0G830,埤頭,2025-03-10,23.866003,120.452806,0.008337273
C0G860,社頭,2025-03-10,23.897647,120.5862,0.022781087
C0G880,二水,2025-03-10,23.810742,120.6173,0.0063833385
C0G890,伸港,2025-03-10,24.148933,120.484403,0.00041707934
C0G900,線西,2025-03-10,24.143358,120.443536,0.00041909164
C0G910,花壇,2025-03-10,24.032076,120.549461,0.001388366
C0G920,永靖,2025-03-10,23.924703,120.547533,0.008232064
C0G940,竹塘,2025-03-10,23.848253,120.386764,0.00038756317
C0G950,防潮門,2025-03-10,24.1835,120.4871,0.000440177
C0G960,福寶,2025-03-10,24.0443,120.3814,0.00032878667
C0G970,三豐,2025-03-10,23.882,120.2895,0.0004098688
C0G9B0,和美,2025-03-10,24.105169,120.492131,0.000438552
C0H890,埔里,2025-03-10,23.972169,120.952425,0.011485139
C0H960,草屯,2025-03-10,23.973672,120.68085,0.027633054
C0I110,竹山,2025-03-10,23.761225,120.688156,0.006597499
C0I360,水里,2025-03-10,23.812553,120.849792,0.008375443
C0I380,集集,2025-03-10,23.828206,120.801467,0.008732616
C0I410,名間,2025-03-10,23.837053,120.701447,0.009865074
C0I420,國姓,2025-03-10,24.037803,120.855072,0.006764453
C0I460,南投,2025-03-10,23.911469,120.687331,0.019808982
C0K250,崙背,2025-03-10,23.75555,120.318925,0.00092781545
C0K280,四湖,2025-03-10,23.630414,120.227125,0.00026425926
C0K291,宜梧,2025-03-10,23.536281,120.169329,0.000498993
C0K330,虎尾,2025-03-10,23.719183,120.442036,0.006630329
C0K390,土庫,2025-03-10,23.679029,120.395574,0.0018326978
C0K400,斗六,2025-03-10,23.720583,120.541127,0.012240209
C0K410,北港,2025-03-10,23.573957,120.292802,0.0006225826
C0K420,西螺,2025-03-10,23.800407,120.467394,0.0069244164
C0K430,褒忠,2025-03-10,23.690938,120.303634,0.0005427951
C0K440,二崙,2025-03-10,23.772797,120.408944,0.003094294
C0K450,大埤,2025-03-10,23.646074,120.431537,0.0038995242
C0K460,斗南,2025-03-10,23.678734,120.478359,0.012512734
C0K470,林內,2025-03-10,23.748675,120.609642,0.007512487
C0K480,莿桐,2025-03-10,23.761192,120.502372,0.013436577
C0K500,元長,2025-03-10,23.64981,120.315024,0.000862979
C0K510,水林,2025-03-10,23.572924,120.24597,0.00063435454
C0K530,臺西,2025-03-10,23.701547,120.197559,0.0003382402
C0K550,蔦松,2025-03-10,23.514319,120.229736,0.000498993
C0K560,棋山,2025-03-10,23.68645,120.603417,0.0075175553
C0K580,高鐵雲林,2025-03-10,23.737456,120.417944,0.0029621373
C0K590,雲林東勢,2025-03-10,23.674192,120.255721,0.00065051863
C0K600,箔子寮,2025-03-10,23.6197,120.14,0.00038725106
C0M520,東後寮,2025-03-10,23.369908,120.248065,0.0008461274
C0M640,中埔,2025-03-10,23.42538,120.5229,0.0031522422
C0M650,朴子,2025-03-10,23.43463,120.23902,0.0012393113
C0M660,溪口,2025-03-10,23.604131,120.403569,0.0028277526
C0M670,大林,2025-03-10,23.600616,120.45841,0.008846611
C0M680,太保,2025-03-10,23.455062,120.331455,0.008821673
C0M690,水上,2025-03-10,23.419734,120.388909,0.004534272
C0M700,竹崎,2025-03-10,23.526178,120.555508,0.0052628512
C0M710,東石,2025-03-10,23.458927,120.15385,0.0003288099
C0M720,番路,2025-03-10,23.464657,120.554156,0.007967696
C0M730,嘉義市東區,2025-03-10,23.457673,120.460531,0.015885245
C0M740,六腳,2025-03-10,23.492871,120.290625,0.0010653656
C0M750,布袋,2025-03-10,23.380878,120.167789,0.0006803345
C0M760,民雄,2025-03-10,23.551754,120.428457,0.0056141904
C0M770,嘉義梅山,2025-03-10,23.585398,120.555587,0.006112946
C0M780,鹿草,2025-03-10,23.41134,120.30835,0.0012439929
C0M790,新港,2025-03-10,23.553269,120.345728,0.0032924067
C0M800,茶山,2025-03-10,23.299075,120.664767,0.0068936613
C0M880,好美里,2025-03-10,23.3364,120.138,0.0006058822
C0N010,鯤鯓國小,2025-03-10,23.1879,120.0889,0.0009856279
C0N020,城西,2025-03-10,23.0568,120.0956,0.0017191186
C0N030,四草,2025-03-10,23.0235,120.1116,0.0017582102
C0N040,蘆竹溝,2025-03-10,23.2344,120.0961,0.0009608989
C0N050,蚵寮,2025-03-10,23.301,120.1104,0.0010290694
C0O830,北寮,2025-03-10,23.079561,120.495008,0.037742916
C0O840,王爺宮,2025-03-10,23.222064,120.40085,0.0047655175
C0O860,大內,2025-03-10,23.11885,120.36083,0.18387511
C0O900,善化,2025-03-10,23.112883,120.297219,0.010879844
C0O960,崎頂,2025-03-10,22.959547,120.369317,0.011452158
C0O970,虎頭埤,2025-03-10,23.021375,120.347878,0.014737959
C0O980,新市,2025-03-10,23.061614,120.298197,0.0057117566
C0O990,媽廟,2025-03-10,22.99175,120.293525,0.006003855
C0R150,三地門,2025-03-10,22.709889,120.639944,0.16973145
C0R160,鹽埔,2025-03-10,22.739558,120.530778,0.11146685
C0R190,赤山,2025-03-10,22.592333,120.614306,0.193199
C0R220,潮州,2025-03-10,22.534361,120.54,0.250349
C0R240,來義,2025-03-10,22.527306,120.625111,0.115724556
C0R260,春日,2025-03-10,22.370361,120.628306,0.14449592
C0R270,琉球嶼,2025-03-10,22.332244,120.362236,0.1376055
C0R280,檳榔,2025-03-10,22.076078,120.836777,0.004249332
C0R320,車城,2025-03-10,22.0744,120.716247,0.00085595576
C0R341,牡丹,2025-03-10,22.130036,120.792639,0.0045063025
C0R350,貓鼻頭,2025-03-10,21.921774,120.7358,8.60041e-05
C0R470,高樹,2025-03-10,22.826389,120.600806,0.04357609
C0R480,長治,2025-03-10,22.693128,120.542622,0.2273658
C0R490,九如,2025-03-10,22.7405,120.490503,0.12212575
C0R520,崁頂,2025-03-10,22.514781,120.506914,0.26621112
C0R540,佳冬,2025-03-10,22.419456,120.552375,0.2178935
C0R550,新埤,2025-03-10,22.467947,120.582894,0.08807286
C0R560,新園,2025-03-10,22.5434,120.461558,0.34591526
C0R570,麟洛,2025-03-10,22.65078,120.52719,0.20820886
C0R580,南州,2025-03-10,22.48591,120.50274,0.14896284
C0R590,里港,2025-03-10,22.77919,120.49459,0.43388975
C0R620,墾雷,2025-03-10,21.900836,120.855269,2.0334113e-05
C0R640,東港,2025-03-10,22.46247,120.44074,0.14896284
C0R650,竹田,2025-03-10,22.58486,120.54344,0.20682237
C0R660,枋寮,2025-03-10,22.367722,120.590647,0.22470224
C0R670,楓港,2025-03-10,22.190131,120.692156,0.002105673
C0R680,佳樂水,2025-03-10,21.993578,120.861633,0.00057647296
C0R690,墾丁,2025-03-10,21.966756,120.810269,0.00062411895
C0R700,枋山,2025-03-10,22.246844,120.661086,0.020244306
C0R710,龍磐,2025-03-10,21.931672,120.838942,5.450704e-05
C0R720,旭海,2025-03-10,22.205403,120.887614,0.0055534
C0R730,大坪頂,2025-03-10,22.024633,120.69355,0.00086369953
C0R741,獅子,2025-03-10,22.202308,120.705236,0.016309507
C0R760,南仁湖,2025-03-10,22.084681,120.863353,0.0032043413
C0R770,保力,2025-03-10,22.071122,120.764111,0.0016067398
C0R780,滿州,2025-03-10,22.024403,120.839892,0.0069903973
C0R790,九棚,2025-03-10,22.14195,120.889281,0.0031769506
C0R800,丹路,2025-03-10,22.204481,120.750989,0.017132388
C0R810,內獅,2025-03-10,22.305064,120.642986,0.046448093
C0R830,高士,2025-03-10,22.121825,120.836781,0.0024387422
C0R850,林邊,2025-03-10,22.4634,120.5339,0.13830188
C0R860,鼻頭,2025-03-10,22.1043,120.8979,0.018353045
C0R870,興海,2025-03-10,21.9752,120.8439,0.00057787116
C0R880,後壁湖,2025-03-10,21.9457,120.7457,0.00024634087
C0R890,山海,2025-03-10,21.9878,120.7091,0.00024404892
C0R900,竹坑,2025-03-10,22.1385,120.7022,0.0008494447
C0R910,下寮,2025-03-10,22.3929,120.5548,0.22470224
C0R920,塭仔,2025-03-10,22.4169,120.5197,0.2311951
C0R930,萬丹,2025-03-10,22.5885,120.4851,0.2723546
C0R940,加祿堂,2025-03-10,22.3363,120.6217,0.014258311
C0R950,萬隆國小,2025-03-10,22.507667,120.587817,0.14303488
C0R960,內埔,2025-03-10,22.608483,120.570714,0.18833007
C0S710,鹿野,2025-03-10,22.917711,121.122994,0.007929539
C0S730,綠島,2025-03-10,22.6672,121.47533,0.0026443466
C0S740,池上,2025-03-10,23.119628,121.209469,0.012382111
C0S770,大溪山,2025-03-10,22.478475,120.943325,0.03486804
C0S790,金崙,2025-03-10,22.538122,120.966875,0.07196101
C0S810,東河,2025-03-10,22.972672,121.303986,0.004184956
C0S830,長濱,2025-03-10,23.286817,121.411975,0.02516842
C0S840,南田,2025-03-10,22.279725,120.889208,0.01575452
C0S890,關山,2025-03-10,23.0395,121.175017,0.017964773
C0S900,蘭嶼高中,2025-03-10,22.04909,121.51214,9.9474055e-05
C0S910,蘭嶼燈塔,2025-03-10,22.081197,121.503117,9.200319e-05
C0S920,金峰嘉蘭,2025-03-10,22.594789,120.960825,0.09853714
C0S930,延平,2025-03-10,22.902581,121.084058,0.004929965
C0S940,石寧山,2025-03-10,23.223772,121.406639,0.05068883
C0S950,七塊厝,2025-03-10,22.954453,121.229922,0.010015924
C0S960,香蘭,2025-03-10,22.587569,120.993375,0.18186392
C0S970,加津林,2025-03-10,22.416211,120.926942,0.12396204
C0S990,山豬窟,2025-03-10,22.318619,120.857372,0.012203764
C0SA00,歷坵,2025-03-10,22.520969,120.89185,0.031504024
C0SA10,檳榔四格山,2025-03-10,22.810031,121.109308,0.0037673924
C0SA30,都歷,2025-03-10,23.020333,121.323642,0.023921981
C0SA40,瑞和,2025-03-10,22.974361,121.156697,0.010663568
C0SA60,知本（水試所）,2025-03-10,22.702394,121.082761,0.2044796
C0SA80,土坂,2025-03-10,22.453108,120.887572,0.0921291
C0SA90,達仁林場,2025-03-10,22.264347,120.823972,0.0021855275
C0SB10,美和,2025-03-10,22.682078,121.060236,0.19812836
C0SB20,富岡,2025-03-10,22.792467,121.192669,0.014871011
C0SB30,新蘭,2025-03-10,22.869214,121.223228,0.012992515
C0SB40,興隆,2025-03-10,22.913661,121.257469,0.012167535
C0SB50,叭嗡嗡,2025-03-10,23.047062,121.343223,0.031450592
C0SB60,白守蓮,2025-03-10,23.126769,121.401914,0.013319927
C0SB70,小港漁港,2025-03-10,23.158558,121.400431,0.04466706
C0SB80,長濱漁港,2025-03-10,23.313644,121.459994,0.029550295
C0T870,鯉魚潭,2025-03-10,23.935639,121.508944,0.019399649
C0T900,西林,2025-03-10,23.8119,121.441458,0.010151272
C0T960,光復,2025-03-10,23.660694,121.424964,0.017006708
C0T9A0,月眉山,2025-03-10,23.809928,121.539828,0.0018441727
C0T9D0,和中,2025-03-10,24.26676,121.74103,0.0033554556
C0T9E0,大坑,2025-03-10,23.880628,121.581981,0.0019385105
C0T9F0,水璉,2025-03-10,23.797131,121.542514,0.003614883
C0T9I0,豐濱,2025-03-10,23.583897,121.514806,0.018080015
C0T9M0,靜浦,2025-03-10,23.455167,121.495028,0.024209654
C0T9N0,富里,2025-03-10,23.171639,121.249378,0.018088894
C0TA10,花蓮漁港,2025-03-10,23.995322,121.638331,0.062304158
C0TA20,加灣,2025-03-10,24.082025,121.608944,0.0015369414
C0U600,礁溪,2025-03-10,24.817539,121.765608,0.043004517
C0U650,玉蘭,2025-03-10,24.675286,121.587061,0.016543267
C0U750,龜山島,2025-03-10,24.841667,121.953133,0.00058836146
C0U760,東澳,2025-03-10,24.52196,121.83318,0.15376887
C0U770,南澳,2025-03-10,24.44935,121.81022,0.022715142
C0U780,五結,2025-03-10,24.68637,121.79794,0.10605401
C0U860,頭城,2025-03-10,24.85323,121.8308,0.049883563
C0U870,大礁溪,2025-03-10,24.791042,121.675047,0.0084169
C0U880,北關,2025-03-10,24.9072,121.8734,0.21754436
C0U890,三星,2025-03-10,24.66812,121.65302,0.13067983
C0U900,內城,2025-03-10,24.71813,121.68766,0.06322295
C0U910,冬山,2025-03-10,24.63373,121.7937,0.33196566
C0U940,羅東,2025-03-10,24.68184,121.74934,0.09153179
C0U970,大福,2025-03-10,24.80064,121.81389,0.022208223
C0U990,員山,2025-03-10,24.74435,121.72247,0.09375961
C0UA00,土場,2025-03-10,24.576533,121.495333,0.020497853
C0UA80,大溪漁港,2025-03-10,24.941801,121.902955,0.14582759
C0UA90,石城,2025-03-10,24.980444,121.951214,0.23850779
C0UB00,淡江大學蘭陽校園,2025-03-10,24.823239,121.730383,0.027691355
C0UB10,蘇澳,2025-03-10,24.5969,121.8571,0.53997904
C0UB20,壯圍,2025-03-10,24.7359,121.8163,0.11666522
C0V350,溪埔,2025-03-10,22.738578,120.446797,0.34590295
C0V360,內門,2025-03-10,22.975481,120.466769,0.1516014
C0V370,古亭坑,2025-03-10,22.893178,120.401947,0.03916667
C0V400,阿公店,2025-03-10,22.804194,120.355528,0.33823353
C0V440,鳳山,2025-03-10,22.646653,120.356122,0.04389472
C0V450,鳳森,2025-03-10,22.545064,120.392592,0.16540806
C0V490,新興,2025-03-10,22.627422,120.298803,0.060439736
C0V530,阿蓮,2025-03-10,22.883208,120.327508,0.022827081
C0V610,梓官,2025-03-10,22.760558,120.267211,0.06812282
C0V620,永安,2025-03-10,22.82315,120.236856,0.005565806
C0V630,茄萣,2025-03-10,22.906642,120.182608,0.0009937098
C0V640,湖內,2025-03-10,22.887139,120.2445,0.0045709363
C0V650,彌陀,2025-03-10,22.783806,120.246361,0.017217044
C0V660,岡山,2025-03-10,22.797078,120.294958,0.017217044
C0V680,仁武,2025-03-10,22.701083,120.347722,0.034408692
C0V690,鼓山,2025-03-10,22.623325,120.275575,0.060439736
C0V700,三民,2025-03-10,22.645017,120.311233,0.015345737
C0V710,苓雅,2025-03-10,22.622742,120.330669,0.15100713
C0V720,林園,2025-03-10,22.507747,120.394511,0.23964489
C0V730,大寮,2025-03-10,22.605614,120.395717,0.14028116
C0V740,旗山,2025-03-10,22.888614,120.483597,0.22396655
C0V750,路竹,2025-03-10,22.854997,120.259439,0.004122592
C0V760,橋頭,2025-03-10,22.757806,120.30575,0.06812282
C0V770,大社,2025-03-10,22.730306,120.346639,0.12128212
C0V790,萬山,2025-03-10,22.905944,120.688056,0.0144724585
C0V800,六龜,2025-03-10,22.997889,120.633583,0.010260061
C0V810,左營,2025-03-10,22.67491,120.28491,0.015345737
C0V820,小林,2025-03-10,23.148408,120.63325,0.0043480857
C0V840,鳳鼻頭,2025-03-10,22.5083,120.3591,0.36376953
C0V850,蚵仔寮,2025-03-10,22.7256,120.2527,0.076676
C0V860,南寮,2025-03-10,22.7616,120.2339,0.076676
C0V870,文安,2025-03-10,22.8025,120.2164,0.018725263
C0V880,興達,2025-03-10,22.8778,120.2127,0.0050646407
C0V890,前鎮,2025-03-10,22.5718,120.3117,0.064490266
C0V900,汕尾,2025-03-10,22.4782,120.4151,0.14896284
C0V910,大樹,2025-03-10,22.684645,120.432803,0.32856283
C0W200,湖西,2025-03-10,23.596314,119.67275,0.0005748653
C0X050,東河,2025-03-10,23.296598,120.385608,0.009380907
C0X060,下營,2025-03-10,23.22695,120.256261,0.0034809473
C0X080,佳里,2025-03-10,23.173039,120.145086,0.0009856279
C0X100,臺南市北區,2025-03-10,23.010394,120.194228,0.0017163875
C0X110,臺南市南區,2025-03-10,22.961189,120.188378,0.0025189838
C0X120,麻豆,2025-03-10,23.183289,120.248611,0.005251989
C0X130,官田,2025-03-10,23.193217,120.315422,0.009453737
C0X140,西港,2025-03-10,23.125608,120.203108,0.005677591
C0X150,安定,2025-03-10,23.102614,120.227839,0.005677591
C0X160,仁德,2025-03-10,22.968258,120.257689,0.0025146478
C0X170,關廟,2025-03-10,22.963017,120.327797,0.022945123
C0X180,山上,2025-03-10,23.0757,120.363253,0.114698045
C0X190,安平,2025-03-10,22.993161,120.152181,0.0017163875
C0X200,左鎮,2025-03-10,23.056758,120.408522,0.016273813
C0X210,白河,2025-03-10,23.347466,120.414427,0.00641016
C0X220,學甲,2025-03-10,23.230367,120.182187,0.0009384737
C0X230,鹽水,2025-03-10,23.272621,120.247641,0.0015345534
C0X240,關子嶺,2025-03-10,23.331169,120.508025,0.0041247616
C0X250,新營,2025-03-10,23.310689,120.316681,0.0044078697
C0X260,後壁,2025-03-10,23.366358,120.362326,0.0044590696
C0X280,將軍,2025-03-10,23.214999,120.13577,0.00096089754
C0X290,北門,2025-03-10,23.267772,120.125481,0.0009608989
C0X300,鹿寮,2025-03-10,23.386047,120.477331,0.005928053
C0X320,柳營,2025-03-10,23.253328,120.375253,0.011239668
C0Z020,明里,2025-03-10,23.208717,121.262342,0.045055207
C0Z061,玉里,2025-03-10,23.3215,121.339656,0.013419402
C0Z070,舞鶴,2025-03-10,23.46811,121.37407,0.008190335
C0Z080,富源,2025-03-10,23.587642,121.378225,0.0140997665
C0Z100,東華,2025-03-10,23.89525,121.549833,0.050265606
C0Z150,吉安光華,2025-03-10,23.930925,121.595153,0.06866866
C0Z160,鳳林,2025-03-10,23.746114,121.453411,0.03764127
C0Z170,卓溪,2025-03-10,23.3443,121.3029,0.0068159644
C0Z180,新城,2025-03-10,24.03946,121.60454,0.042746376
C0Z190,富世,2025-03-10,24.14743,121.6297,0.0096857045
C0Z200,萬榮,2025-03-10,23.709219,121.420106,0.02030245
C0Z210,瑞穗,2025-03-10,23.5239,121.39021,0.022046195
C0Z230,和平,2025-03-10,24.30717,121.77007,0.0034500787
C0Z270,蕃薯寮,2025-03-10,23.73835,121.540108,0.0049523264
C0Z280,德武,2025-03-10,23.47426,121.41071,0.012436792
C0Z300,東里,2025-03-10,23.26853,121.30547,0.04832872
C0Z310,清水斷崖,2025-03-10,24.218294,121.689142,0.0010415646
C0Z330,安通山,2025-03-10,23.290728,121.348528,0.010804848
C2A540,四堵,2025-03-10,24.8926,121.745736,0.026418129
C2A560,福山,2025-03-10,24.776203,121.502811,0.019203035
C2A650,火燒寮,2025-03-10,25.002719,121.742892,0.07006927
C2A660,瑞芳,2025-03-10,25.113169,121.801147,0.021641066
C2A880,福隆,2025-03-10,25.017842,121.942083,0.25631553
C2A920,富貴角,2025-03-10,25.263783,121.565258,0.005947239
C2D720,關西工作站,2025-03-10,24.757275,121.184792,0.00071666046
C2D730,寶山農場,2025-03-10,24.732444,120.976153,0.0009154711
C2E520,大湖,2025-03-10,24.414939,120.870872,0.004261896
C2E540,後龍,2025-03-10,24.606489,120.783933,0.00051257614
C2E540,龍溪,2025-03-10,24.606489,120.783933,0.0005125764
C2E970,八甲,2025-03-10,24.535811,120.795983,0.0007873797
C2F000,大肚,2025-03-10,24.15295,120.572117,0.0058536446
C2F930,大甲,2025-03-10,24.347667,120.640403,0.00024858394
C2F9A0,中竹林,2025-03-10,24.103556,120.751061,0.0055816695
C2G640,鹿港,2025-03-10,24.0753,120.430481,0.00032878667
C2G840,北斗,2025-03-10,23.877586,120.514222,0.008107531
C2G870,芳苑,2025-03-10,23.922303,120.320025,0.00022074312
C2G980,田頭村,2025-03-10,23.8263,120.444175,0.008300876
C2G9A0,畜試所彰化,2025-03-10,23.86045,120.557964,0.021889782
C2H950,中寮,2025-03-10,23.884447,120.766406,0.010030753
C2H9F0,柑林,2025-03-10,24.018658,120.847072,0.0076559386
C2H9H0,苗改南投蜂場,2025-03-10,23.852589,120.693481,0.010273881
C2H9T0,名間竹圍,2025-03-10,23.859914,120.637572,0.008518106
C2H9U0,鳳鵬,2025-03-10,23.763919,120.788061,0.004330875
C2K620,馬光農場,2025-03-10,23.721453,120.378864,0.0030320715
C2K630,荷苞,2025-03-10,23.657717,120.595144,0.00603812
C2M410,馬頭山,2025-03-10,23.324361,120.582017,0.0060940846
C2M910,嘉義大學,2025-03-10,23.471325,120.485903,0.012607759
C2M920,朴子農改,2025-03-10,23.469889,120.259383,0.0009827866
C2N160,西拉雅風管處,2025-03-10,23.189481,120.335297,0.009063312
C2O810,曾文,2025-03-10,23.219681,120.497328,0.02884531
C2O930,玉井,2025-03-10,23.126042,120.46055,0.114698045
C2O950,安南,2025-03-10,23.076694,120.144861,0.0006989481
C2R170,屏東,2025-03-10,22.66027,120.49403,0.20820886
C2R970,屏科大,2025-03-10,22.648275,120.619247,0.05209743
C2V250,甲仙,2025-03-10,23.080106,120.591758,0.006966358
C2V260,月眉,2025-03-10,22.971003,120.539853,0.041218147
C2W230,畜試所澎湖,2025-03-10,23.628342,119.513206,0.0006087968
CAG100,王功漁港,2025-03-10,23.96824,120.32586,0.00025796457
CAH030,茶改場竹圍站,2025-03-10,23.860083,120.637528,0.008518106
CAJ050,海口故事園區,2025-03-10,23.57543,120.14121,0.00038507066
CAL110,布袋國中,2025-03-10,23.35893,120.18026,0.0006803339
CAN130,水試所海水繁養殖中心,2025-03-10,23.120802,120.07968,0.00069603696
CAN140,六官養殖協會,2025-03-10,23.22881,120.29962,0.0034809473
CAQ030,崎峰國小,2025-03-10,22.42565,120.49521,0.14896284
E2K600,四湖植物園,2025-03-10,23.676986,120.163433,0.00026425926
E2P980,林試六龜中心,2025-03-10,22.991703,120.645722,0.008756709
E2S960,林試太麻里2,2025-03-10,22.598014,120.989761,0.17586586
E2S960,林試太麻里2,2025-03-10,22.598,120.99775,0.19297428
E2S980,林試太麻里1,2025-03-10,22.598922,120.980044,0.10244282
G2AI50,關渡,2025-03-10,25.11575,121.492,0.003176851
G2F820,農業試驗所,2025-03-10,24.031261,120.688133,0.026594818
G2F820,農試所(霧峰),2025-03-10,24.031261,120.688133,0.026594818
G2L020,農試嘉義分所,2025-03-10,23.485028,120.473806,0.007292532
G2M350,農試溪口農場,2025-03-10,23.58565,120.408111,0.0028277526
G2P820,農試鳳山分所,2025-03-10,22.646611,120.356083,0.04389472
K2E360,苗栗農改,2025-03-10,24.495722,120.829111,0.0009959413
K2E360,苗栗農改場,2025-03-10,24.495722,120.829111,0.0009959418
K2E710,苗改生物防治研究中心,2025-03-10,24.422861,120.871833,0.00465123
K2F750,種苗改良場,2025-03-10,24.225972,120.800917,0.0035883337
K2F750,種苗繁殖,2025-03-10,24.225972,120.800917,0.0035883337
U2HA50,臺大竹山,2025-03-10,23.756972,120.681556,0.0042241137
V2C250,八德合作社,2025-03-10,24.93775,121.266389,0.0026351442
V2C260,八德蔬果,2025-03-10,24.978508,121.281819,0.002931694
V2K610,大庄合作社,2025-03-10,23.8068,120.367939,0.000659257
V2K620,麥寮合作社,2025-03-10,23.753836,120.294783,0.0005361778
