站號,站名,日期,lat,lon,BLBTSLS
C0R710,龍磐,2025-05-18,21.931672,120.838942,0.07368395
C1F9D1,白毛台,2025-05-18,24.158325,120.886933,2.149053e-09
C0G940,竹塘,2025-05-18,23.848253,120.386764,1.1760581e-08
467590,恆春,2025-05-18,22.003897,120.746339,0.35580584
C1O850,環湖,2025-05-18,23.148617,120.418633,3.765296e-08
C0U710,太平山,2025-05-18,24.505486,121.525656,8.441394e-09
C0E820,獅潭,2025-05-18,24.539133,120.920042,1.1798663e-08
C0V880,興達,2025-05-18,22.8778,120.2127,2.2406976e-08
C0S890,關山,2025-05-18,23.0395,121.175017,5.9776445e-05
C0SB30,新蘭,2025-05-18,22.869214,121.223228,0.10449682
C2R970,屏科大,2025-05-18,22.648275,120.619247,0.00016298551
C1Z130,銅門,2025-05-18,23.965694,121.492842,1.2572363e-08
C0AD40,土城,2025-05-18,24.973208,121.445169,0.007869299
CAN140,六官養殖協會,2025-05-18,23.22881,120.29962,6.7594743e-09
C0X180,山上,2025-05-18,23.0757,120.363253,2.6229756e-08
C0F9Z0,雪山東峰,2025-05-18,24.388792,121.268675,2.2045622e-08
C1M480,獨立山,2025-05-18,23.537022,120.607797,1.4501418e-09
C0X220,學甲,2025-05-18,23.230367,120.182187,6.601292e-09
467650,日月潭,2025-05-18,23.881325,120.90805,2.488114e-09
C0K600,箔子寮,2025-05-18,23.6197,120.14,1.1131424e-08
C0G830,埤頭,2025-05-18,23.866003,120.452806,3.7613175e-09
C0S950,七塊厝,2025-05-18,22.954453,121.229922,3.1748883e-07
467110,金門,2025-05-18,24.407306,118.289281,1.6097167e-07
C0AH80,深坑,2025-05-18,25.002703,121.628328,0.00109533
C0A970,三貂角,2025-05-18,25.007606,122.002058,1.3156657e-07
C2D730,寶山農場,2025-05-18,24.732444,120.976153,1.5246345e-08
C0K430,褒忠,2025-05-18,23.690938,120.303634,7.89338e-08
467480,嘉義,2025-05-18,23.495925,120.432906,4.417003e-09
C0V400,阿公店,2025-05-18,22.804194,120.355528,2.4133178e-07
467550,玉山,2025-05-18,23.48718,120.95943,2.0904848e-08
C0R440,大漢山,2025-05-18,22.405264,120.753181,5.3911173e-09
C0K280,四湖,2025-05-18,23.630414,120.227125,5.5677933e-08
C1F9B1,桐林,2025-05-18,24.066172,120.735194,1.6058697e-06
C2H9U0,鳳鵬,2025-05-18,23.763919,120.788061,2.5443065e-09
C0K390,土庫,2025-05-18,23.679029,120.395574,4.5971986e-09
C1I450,望鄉山,2025-05-18,23.594153,120.944286,9.609019e-09
C0E910,海埔,2025-05-18,24.648767,120.772435,7.9485545e-08
B2E890,畜試北區分所,2025-05-18,24.527806,120.770972,1.2236349e-08
C0R750,四林格山,2025-05-18,22.076989,120.802439,0.7722742
C0F0C0,中坑,2025-05-18,24.248517,120.903319,2.522721e-09
C1I121,大鞍,2025-05-18,23.678381,120.760017,3.2257659e-09
72U480,花改蘭陽分場,2025-05-18,24.686306,121.716583,2.9227047e-08
C0A770,科教館,2025-05-18,25.096356,121.516507,0.0020078353
C0AJ60,六塊厝,2025-05-18,25.24,121.4481,0.014770711
C0R620,墾雷,2025-05-18,21.900836,120.855269,0.025164753
467420,永康,2025-05-18,23.038386,120.2367,1.4981875e-07
C0I410,名間,2025-05-18,23.837053,120.701447,7.8416065e-09
A2C560,農工中心,2025-05-18,24.985917,121.239833,4.725397e-08
C0V740,旗山,2025-05-18,22.888614,120.483597,2.2806724e-08
C0Z061,玉里,2025-05-18,23.3215,121.339656,9.47789e-07
C0S840,南田,2025-05-18,22.279725,120.889208,0.2876865
C1I470,杉林溪,2025-05-18,23.639517,120.786444,3.7968744e-09
C1X040,東原,2025-05-18,23.291597,120.463822,8.497773e-09
C0R660,枋寮,2025-05-18,22.367722,120.590647,0.0034247881
C1R120,上德文,2025-05-18,22.763272,120.704442,1.5388888e-08
C0K450,大埤,2025-05-18,23.646074,120.431537,1.8594044e-08
C0UA00,土場,2025-05-18,24.576533,121.495333,9.519161e-09
467080,宜蘭,2025-05-18,24.763975,121.756528,4.0907818e-07
C0N030,四草,2025-05-18,23.0235,120.1116,1.106253e-08
467410,臺南,2025-05-18,22.99328,120.20492,1.7631303e-08
C0V650,彌陀,2025-05-18,22.783806,120.246361,5.310576e-08
C0D660,新竹市東區,2025-05-18,24.798681,120.986942,4.2788713e-08
82S580,茶改東部分場,2025-05-18,22.907694,121.130139,0.00091895636
C0SB40,興隆,2025-05-18,22.913661,121.257469,0.05676254
467050,新屋,2025-05-18,25.006725,121.047492,2.6623496e-07
C0C710,大溪永福,2025-05-18,24.892936,121.324975,2.5746676e-08
C0FA20,溫寮,2025-05-18,24.372177,120.583125,1.2501243e-05
C0V640,湖內,2025-05-18,22.887139,120.2445,2.1044709e-08
C0R910,下寮,2025-05-18,22.3929,120.5548,0.0034157322
C0Z020,明里,2025-05-18,23.208717,121.262342,6.7414965e-07
C0M770,嘉義梅山,2025-05-18,23.585398,120.555587,7.970139e-09
C0C660,楊梅,2025-05-18,24.912375,121.143047,1.7664695e-08
C1E511,新開,2025-05-18,24.347703,120.827019,3.6088228e-09
G2F820,農試所(霧峰),2025-05-18,24.031261,120.688133,1.2788737e-06
C1I070,和社,2025-05-18,23.591131,120.888861,4.7312656e-09
C2F000,大肚,2025-05-18,24.15295,120.572117,2.6033666e-09
C1S850,豐南,2025-05-18,23.122139,121.262389,2.3290282e-08
C2A920,富貴角,2025-05-18,25.263783,121.565258,1.7527831e-05
CAH030,茶改場竹圍站,2025-05-18,23.860083,120.637528,2.124344e-09
C0T960,光復,2025-05-18,23.660694,121.424964,6.0602283e-09
C0F9M0,豐原,2025-05-18,24.254322,120.720692,4.6061885e-08
C0R720,旭海,2025-05-18,22.205403,120.887614,0.47613013
C0V710,苓雅,2025-05-18,22.622742,120.330669,2.0890654e-06
C0C740,觀音工業區,2025-05-18,25.064764,121.114856,3.1376412e-06
CAC040,拉拉山,2025-05-18,24.699317,121.427133,9.828827e-09
C0V790,萬山,2025-05-18,22.905944,120.688056,3.3364316e-09
U2HA30,臺大和社,2025-05-18,23.590856,120.888864,4.7312656e-09
C0AJ90,澳底,2025-05-18,25.0552,121.9253,1.4416904e-05
C0Z100,東華,2025-05-18,23.89525,121.549833,3.8896754e-08
C0G970,三豐,2025-05-18,23.882,120.2895,0.0033935355
V2K610,大庄合作社,2025-05-18,23.8068,120.367939,1.9618656e-07
C0V900,汕尾,2025-05-18,22.4782,120.4151,0.015357869
C1R630,龍泉,2025-05-18,22.66701,120.59091,0.0012864077
C1AC50,關渡,2025-05-18,25.133486,121.469331,0.0063520814
C0F9I0,神岡,2025-05-18,24.272481,120.658314,1.6891814e-08
C0K460,斗南,2025-05-18,23.678734,120.478359,1.7142284e-08
C2O810,曾文,2025-05-18,23.219681,120.497328,1.4921227e-08
467280,後龍,2025-05-18,24.648563,120.831834,5.702624e-08
C1F9J1,清水林,2025-05-18,24.071242,120.820419,3.4537386e-09
C2A650,火燒寮,2025-05-18,25.002719,121.742892,3.4898495e-08
466930,竹子湖,2025-05-18,25.162078,121.544547,4.767455e-09
C1I220,樟湖,2025-05-18,23.905333,120.846983,2.2180835e-09
C0I390,仁愛,2025-05-18,24.022122,121.132206,1.9178967e-09
C0Z300,東里,2025-05-18,23.26853,121.30547,3.4199954e-06
C1V590,新發,2025-05-18,23.057019,120.646064,4.2365276e-09
C0K510,水林,2025-05-18,23.572924,120.24597,8.583572e-09
72S590,東改賓朗果園,2025-05-18,22.813889,121.071278,2.3483877e-05
82A750,茶改北部分場,2025-05-18,24.955778,121.631222,4.0526846e-08
C1A750,石碇服務區,2025-05-18,25.00872,121.646242,0.042119488
C0X300,鹿寮,2025-05-18,23.386047,120.477331,9.527116e-09
G2AI50,關渡,2025-05-18,25.11575,121.492,0.21767879
C0K590,雲林東勢,2025-05-18,23.674192,120.255721,9.0618954e-08
C0A570,桶後,2025-05-18,24.848222,121.597992,8.191392e-09
C1S800,華源,2025-05-18,22.657883,121.02325,0.4341661
C0G720,溪州,2025-05-18,23.851589,120.499093,3.338214e-09
C1V160,達卡努瓦,2025-05-18,23.279811,120.705319,4.821399e-09
C2M410,馬頭山,2025-05-18,23.324361,120.582017,4.5504653e-09
C0V850,蚵仔寮,2025-05-18,22.7256,120.2527,9.0170477e-07
C0S740,池上,2025-05-18,23.119628,121.209469,4.9769464e-05
C1V390,尖山,2025-05-18,22.813153,120.367789,1.2458908e-07
C0AH70,松山,2025-05-18,25.04871,121.55042,0.0011829964
C0N010,鯤鯓國小,2025-05-18,23.1879,120.0889,8.8907735e-09
C0R550,新埤,2025-05-18,22.467947,120.582894,0.008946272
C0SA60,知本（水試所）,2025-05-18,22.702394,121.082761,0.84171164
C0T9I0,豐濱,2025-05-18,23.583897,121.514806,6.113995e-09
C0UB00,淡江大學蘭陽校園,2025-05-18,24.823239,121.730383,8.7731085e-09
C0W240,九宮,2025-05-18,24.423753,118.240186,1.7074467e-07
C0T9N0,富里,2025-05-18,23.171639,121.249378,0.00014171521
U2HA50,臺大竹山,2025-05-18,23.756972,120.681556,5.866206e-09
C0V840,鳳鼻頭,2025-05-18,22.5083,120.3591,5.480544e-06
C0X140,西港,2025-05-18,23.125608,120.203108,1.0924287e-08
72D080,桃改五峰分場,2025-05-18,24.612194,121.157167,2.274121e-09
C2H9P0,伊拿谷,2025-05-18,23.963211,121.088264,2.2233313e-09
C2H9F0,柑林,2025-05-18,24.018658,120.847072,4.566559e-09
C0TA20,加灣,2025-05-18,24.082025,121.608944,3.0201957e-06
C0V530,阿蓮,2025-05-18,22.883208,120.327508,1.9076568e-08
C1O880,關山,2025-05-18,23.173397,120.594092,3.0611504e-09
C0E791,卓蘭,2025-05-18,24.3126,120.8244,3.9285863e-09
C1I030,武界,2025-05-18,23.913225,121.052483,2.189129e-09
C0R520,崁頂,2025-05-18,22.514781,120.506914,0.09794529
C0R341,牡丹,2025-05-18,22.130036,120.792639,0.0002287576
C0R930,萬丹,2025-05-18,22.5885,120.4851,0.0071584294
C0S760,紅石,2025-05-18,23.069131,121.126219,9.929901e-09
C2C410,中央大學,2025-05-18,24.967652,121.185165,4.430438e-08
C1M610,石磐龍,2025-05-18,23.496606,120.663506,2.8206772e-09
C0UA10,鴛鴦湖,2025-05-18,24.590269,121.412228,9.3459995e-09
V2C260,八德蔬果,2025-05-18,24.978508,121.281819,2.7949245e-08
C0R800,丹路,2025-05-18,22.204481,120.750989,0.23536107
C0G920,永靖,2025-05-18,23.924703,120.547533,1.7244734e-08
C2M950,太和,2025-05-18,23.538372,120.702961,3.3559489e-09
C1A630,下盆,2025-05-18,24.771003,121.538622,2.7049774e-09
B2N890,畜產試驗所,2025-05-18,23.058972,120.336406,8.657546e-09
C0UA30,白嶺,2025-05-18,24.527819,121.519031,6.7266264e-09
C1V580,溪南(特生中心),2025-05-18,23.084972,120.788475,4.431974e-09
C1T970,大農,2025-05-18,23.615233,121.413331,4.4724975e-09
C0R650,竹田,2025-05-18,22.58486,120.54344,0.07368819
C1H900,清流,2025-05-18,24.080775,120.962997,2.8260407e-09
C1C510,水尾,2025-05-18,24.940081,121.087161,4.5366274e-08
C0F9X0,大雅(中科園區),2025-05-18,24.21528,120.62445,4.4184802e-07
C0SB60,白守蓮,2025-05-18,23.126769,121.401914,0.83651364
C0O970,虎頭埤,2025-05-18,23.021375,120.347878,2.5596744e-08
C0C730,中大臨海站,2025-05-18,24.966126,121.008581,3.2704293e-07
C0X250,新營,2025-05-18,23.310689,120.316681,1.39299345e-08
C0V700,三民,2025-05-18,22.645017,120.311233,5.1550523e-07
C0U870,大礁溪,2025-05-18,24.791042,121.675047,4.9971365e-09
C0E870,高鐵苗栗,2025-05-18,24.60725,120.826094,1.1498246e-07
A2K570,古坑花卉中心,2025-05-18,23.63353,120.55239,1.4696059e-08
C0TA30,鹽寮,2025-05-18,23.845606,121.592664,5.504543e-08
C0M860,新美,2025-05-18,23.338017,120.683169,2.6184808e-09
C1E701,八卦,2025-05-18,24.491756,120.927619,1.328245e-09
C0I420,國姓,2025-05-18,24.037803,120.855072,3.995815e-09
C2D720,關西工作站,2025-05-18,24.757275,121.184792,1.8484144e-08
C0S960,香蘭,2025-05-18,22.587569,120.993375,0.79520625
467620,蘭嶼,2025-05-18,22.0369,121.55843,0.5749595
C0R260,春日,2025-05-18,22.370361,120.628306,0.0017468791
72G600,臺中農改場,2025-05-18,24.003028,120.534389,1.3896709e-08
C0Z210,瑞穗,2025-05-18,23.5239,121.39021,1.1134418e-08
C0M820,達邦,2025-05-18,23.453994,120.749517,3.0005456e-09
C0V860,南寮,2025-05-18,22.7616,120.2339,9.1024623e-07
C0G740,大城,2025-05-18,23.852487,120.320935,0.0034169331
C0R920,塭仔,2025-05-18,22.4169,120.5197,0.003874452
C0R470,高樹,2025-05-18,22.826389,120.600806,3.8643336e-08
C0R680,佳樂水,2025-05-18,21.993578,120.861633,0.27870375
C1O870,大棟山,2025-05-18,23.31157,120.52226,4.9066182e-09
C0D360,梅花,2025-05-18,24.678347,121.208558,4.647283e-09
C0Z190,富世,2025-05-18,24.14743,121.6297,1.0924375e-07
C0AI10,屈尺,2025-05-18,24.92184,121.54475,0.006395886
B2U990,畜試東區分所,2025-05-18,24.669039,121.832561,2.5415286e-08
C0SB80,長濱漁港,2025-05-18,23.313644,121.459994,1.8679551e-05
C0R240,來義,2025-05-18,22.527306,120.625111,0.026142305
C0V910,大樹,2025-05-18,22.684645,120.432803,9.74451e-07
C1R610,西大武山,2025-05-18,22.617719,120.7322,7.806239e-09
C0G900,線西,2025-05-18,24.143358,120.443536,0.00013259298
C0M700,竹崎,2025-05-18,23.526178,120.555508,7.813345e-09
C2E880,三義,2025-05-18,24.405478,120.749819,3.6674788e-09
C0C720,竹圍,2025-05-18,25.112692,121.239824,0.21115126
C0F9P0,清水,2025-05-18,24.312297,120.562242,3.4323763e-05
C0Z150,吉安光華,2025-05-18,23.930925,121.595153,9.1164004e-08
467300,東吉島,2025-05-18,23.25727,119.66762,0.37364966
C1D640,外坪(五指山),2025-05-18,24.644447,121.090961,2.4786502e-09
C0F9O0,潭子,2025-05-18,24.213106,120.703933,1.988142e-07
C2H9R0,卓社,2025-05-18,23.887894,121.000086,2.3735365e-09
72T250,花蓮農改場,2025-05-18,23.975222,121.563889,5.9013183e-07
C0E780,銅鑼,2025-05-18,24.489681,120.790853,5.1652114e-09
C1T950,太安,2025-05-18,23.666719,121.370128,7.967099e-09
C0E830,苑裡,2025-05-18,24.439714,120.653053,5.8456635e-06
467270,田中,2025-05-18,23.873803,120.581286,7.1060073e-09
C0SA10,檳榔四格山,2025-05-18,22.810031,121.109308,1.4902347e-06
C1T830,布洛灣,2025-05-18,24.17184,121.57127,2.811149e-07
C0F970,大坑,2025-05-18,24.173142,120.722289,1.3227967e-07
C1U920,思源,2025-05-18,24.393125,121.347214,5.1976863e-09
C0A931,三和,2025-05-18,25.233153,121.595236,2.2683622e-05
C0I010,廬山,2025-05-18,24.033311,121.181808,3.202672e-09
C2M940,日野賀,2025-05-18,23.434056,120.727169,3.1927792e-09
C0R860,鼻頭,2025-05-18,22.1043,120.8979,0.8284527
C0UB20,壯圍,2025-05-18,24.7359,121.8163,3.6735646e-08
C0R790,九棚,2025-05-18,22.14195,120.889281,0.116744004
C0W110,東莒,2025-05-18,25.9652,119.98069,2.029237e-05
C1U930,粉鳥林,2025-05-18,24.497088,121.842479,2.2652731e-08
C1I211,蘆竹湳,2025-05-18,23.934019,120.811994,3.0993026e-09
C0S830,長濱,2025-05-18,23.286817,121.411975,9.697696e-08
C1F9F1,伯公龍,2025-05-18,24.272392,120.849047,5.2201896e-09
C0E810,西湖,2025-05-18,24.562947,120.7485,1.7107604e-07
C1I440,新高口,2025-05-18,23.478744,120.878939,6.700581e-09
C0O840,王爺宮,2025-05-18,23.222064,120.40085,2.3020084e-08
C0T9G0,鳳林山,2025-05-18,23.735269,121.420131,4.702306e-09
C0X080,佳里,2025-05-18,23.173039,120.145086,8.927733e-09
C0FB70,大甲溪埔,2025-05-18,24.370625,120.620067,7.10956e-06
C0Z310,清水斷崖,2025-05-18,24.218294,121.689142,3.85922e-09
C0M680,太保,2025-05-18,23.455062,120.331455,6.36171e-09
C1S820,金峰,2025-05-18,22.590969,120.933236,0.18975301
C0AD10,八里,2025-05-18,25.150211,121.403947,0.20643792
C2K240,草嶺,2025-05-18,23.59555,120.693461,1.857011e-09
C1SA70,都蘭,2025-05-18,22.87794,121.226881,0.056821607
C0K440,二崙,2025-05-18,23.772797,120.408944,3.6153887e-09
C1A760,坪林交控,2025-05-18,24.94284,121.713442,3.7309167e-08
C0F9N0,大里,2025-05-18,24.092464,120.701378,4.2318353e-09
C0SA90,達仁林場,2025-05-18,22.264347,120.823972,9.314326e-08
C1R290,石門山,2025-05-18,22.112611,120.756597,0.98910254
42HA10,萬大發電廠,2025-05-18,23.978875,121.139639,2.5602398e-09
C0R890,山海,2025-05-18,21.9878,120.7091,0.12761232
C0T9A0,月眉山,2025-05-18,23.809928,121.539828,3.280335e-09
C0AC70,信義,2025-05-18,25.037822,121.564597,0.0012229803
C0K560,棋山,2025-05-18,23.68645,120.603417,1.2193503e-08
C2FB50,出雲,2025-05-18,24.206469,120.902794,4.097952e-09
C1Z240,中平林道,2025-05-18,23.42115,121.26763,6.6787367e-09
U2H480,溪頭,2025-05-18,23.670306,120.798194,2.5717166e-09
C0M880,好美里,2025-05-18,23.3364,120.138,6.161219e-09
C0T9E0,大坑,2025-05-18,23.880628,121.581981,4.1343173e-09
C0K530,臺西,2025-05-18,23.701547,120.197559,1.1937873e-07
C1E900,國一N128K,2025-05-18,24.560997,120.844186,2.2345773e-08
C0AJ50,水湳洞,2025-05-18,25.123695,121.862238,0.17822297
C0AI20,白沙灣,2025-05-18,25.283128,121.519058,0.0063658594
C2V310,美濃,2025-05-18,22.898792,120.51907,2.5028609e-08
C0A860,大坪,2025-05-18,25.165914,121.632969,8.38467e-09
C1U850,觀音海岸,2025-05-18,24.38319,121.77856,2.4588451e-09
C2K610,草嶺石壁,2025-05-18,23.602469,120.707731,1.8962252e-09
C0U950,鶯子嶺,2025-05-18,24.89754,121.79244,1.07168345e-08
C0O900,善化,2025-05-18,23.112883,120.297219,1.118015e-08
C0K550,蔦松,2025-05-18,23.514319,120.229736,1.2109833e-08
E2P980,林試六龜中心,2025-05-18,22.991703,120.645722,3.9189247e-09
C0E590,通霄,2025-05-18,24.471892,120.704622,1.5500837e-07
C1I310,西巒,2025-05-18,23.754486,120.883956,2.1951332e-09
C0A550,泰平,2025-05-18,24.971197,121.823711,2.2044025e-08
C0I360,水里,2025-05-18,23.812553,120.849792,3.884721e-09
C0R830,高士,2025-05-18,22.121825,120.836781,0.9618301
C1I101,溪頭,2025-05-18,23.661789,120.807647,3.7909698e-09
C0AJ20,野柳,2025-05-18,25.20703,121.690021,0.15404539
C0B060,暖暖,2025-05-18,25.0957,121.7403,0.0004390075
C1H920,長豐,2025-05-18,24.102039,120.879897,2.6715417e-09
C0V360,內門,2025-05-18,22.975481,120.466769,2.5304615e-08
C0R850,林邊,2025-05-18,22.4634,120.5339,0.014673283
C0E930,龍鳳,2025-05-18,24.700034,120.859125,3.475035e-07
C0U910,冬山,2025-05-18,24.63373,121.7937,2.5415286e-08
C1E721,泰安,2025-05-18,24.489017,120.968036,2.7748606e-09
82H320,茶改中部分場,2025-05-18,23.875611,120.913583,2.5460931e-09
C0M750,布袋,2025-05-18,23.380878,120.167789,9.129099e-09
C1S860,利嘉,2025-05-18,22.809417,121.050528,3.3890043e-07
E2S980,林試太麻里1,2025-05-18,22.598922,120.980044,0.758168
C0X170,關廟,2025-05-18,22.963017,120.327797,4.5879506e-08
C0V720,林園,2025-05-18,22.507747,120.394511,0.0015406706
C1I510,線浸林道,2025-05-18,23.761508,120.832956,3.3430885e-09
C0D690,外湖,2025-05-18,24.917735,120.968711,1.075747e-07
C0C750,新興坑尾,2025-05-18,25.0061,121.0971,1.7108208e-07
B2Q810,畜試南區分所,2025-05-18,21.945583,120.802167,0.25477093
C0S790,金崙,2025-05-18,22.538122,120.966875,0.014651555
C0AH90,福山植物園,2025-05-18,24.760717,121.58135,4.256834e-09
C0I540,奇萊稜線,2025-05-18,24.109231,121.326456,1.519638e-08
C0M850,表湖,2025-05-18,23.24186,120.64166,2.0392787e-09
C0S770,大溪山,2025-05-18,22.478475,120.943325,2.5699655e-06
C0AG80,中和,2025-05-18,24.991622,121.491792,0.007897262
C0T790,大禹嶺,2025-05-18,24.186117,121.316086,1.0361884e-08
C0T9B0,水源,2025-05-18,23.991861,121.537169,6.2645023e-09
C0R840,牡丹池山,2025-05-18,22.168389,120.841225,1.1850796e-06
C1I131,桶頭,2025-05-18,23.641944,120.654117,3.787255e-09
CAL110,布袋國中,2025-05-18,23.35893,120.18026,7.513949e-09
467571,新竹,2025-05-18,24.827853,121.014219,3.911847e-08
C0Z290,赤柯山,2025-05-18,23.36893,121.38293,1.355169e-08
C0X280,將軍,2025-05-18,23.214999,120.13577,6.8387225e-09
C0S690,太麻里,2025-05-18,22.60902,120.98533,0.0024479472
C0U880,北關,2025-05-18,24.9072,121.8734,0.004335699
C0G810,埔心,2025-05-18,23.947633,120.525456,1.7897584e-08
C0U970,大福,2025-05-18,24.80064,121.81389,4.4891138e-07
C2H9N0,仁愛東眼,2025-05-18,24.026875,121.1205,2.8888403e-09
C1E670,南礦,2025-05-18,24.538278,121.002836,2.645867e-09
C0M520,東後寮,2025-05-18,23.369908,120.248065,6.541418e-09
C1E461,松安,2025-05-18,24.397972,120.986022,3.097565e-09
C2N160,西拉雅風管處,2025-05-18,23.189481,120.335297,4.4078634e-09
C2M970,碧湖,2025-05-18,23.568632,120.624165,1.8206521e-09
C0A640,石碇,2025-05-18,24.993969,121.662917,9.318786e-08
E2S960,林試太麻里2,2025-05-18,22.598,120.99775,0.77978474
C0F9Y0,桃山,2025-05-18,24.432739,121.303808,2.3117456e-08
C1I020,萬大,2025-05-18,23.979817,121.132261,1.9212396e-09
C0U940,羅東,2025-05-18,24.68184,121.74934,3.0618295e-08
C0M650,朴子,2025-05-18,23.43463,120.23902,1.2981476e-08
C1I500,大尖山,2025-05-18,23.858572,120.994889,5.1027667e-09
C0G820,田尾,2025-05-18,23.901669,120.509389,1.7720442e-08
E2K600,四湖植物園,2025-05-18,23.676986,120.163433,5.538729e-08
C0S730,綠島,2025-05-18,22.6672,121.47533,0.96232176
12Q970,東港工作站,2025-05-18,22.479997,120.466058,0.01541454
C0E430,南庄,2025-05-18,24.601775,121.000214,1.1130681e-08
C1TA00,太魯閣,2025-05-18,24.15773,121.6236,3.6358667e-08
466920,臺北,2025-05-18,25.037658,121.514853,0.0011829964
C0R600,舊泰武,2025-05-18,22.588194,120.664944,5.714119e-09
C1I260,北坑,2025-05-18,23.9246,121.006903,2.8662004e-09
466910,鞍部,2025-05-18,25.182586,121.529731,5.2151043e-09
C1I230,九份二山,2025-05-18,23.961944,120.845,2.4014373e-09
C2A660,瑞芳,2025-05-18,25.113169,121.801147,0.008279386
C0R270,琉球嶼,2025-05-18,22.332244,120.362236,0.00041908762
C1T990,高寮,2025-05-18,23.394239,121.356808,9.224175e-09
C0G620,芬園,2025-05-18,24.015678,120.6213,3.960547e-09
C1Z140,荖溪,2025-05-18,23.890575,121.45964,1.2745042e-08
C1I201,中心崙,2025-05-18,23.728722,120.712097,1.57736e-09
C1I400,凌霄,2025-05-18,24.018778,121.004456,2.8275613e-09
C1M640,十字,2025-05-18,23.492153,120.753683,2.977485e-09
G2P820,農試鳳山分所,2025-05-18,22.646611,120.356083,3.9038088e-07
C0Z270,蕃薯寮,2025-05-18,23.73835,121.540108,4.5372137e-09
C0F9Q0,外埔,2025-05-18,24.347817,120.705686,1.47026755e-08
C0K580,高鐵雲林,2025-05-18,23.737456,120.417944,3.4499463e-09
C2I090,鳳凰,2025-05-18,23.728081,120.787347,2.0909026e-09
C0U990,員山,2025-05-18,24.74435,121.72247,3.4587178e-08
C0V770,大社,2025-05-18,22.730306,120.346639,6.580935e-07
C0X120,麻豆,2025-05-18,23.183289,120.248611,3.5843535e-09
C0C670,龍潭,2025-05-18,24.870056,121.221389,1.1982249e-08
C0D680,香山濕地,2025-05-18,24.783581,120.914988,7.714914e-08
C0S980,勝林山,2025-05-18,22.430439,120.8938,1.5890866e-08
C0V730,大寮,2025-05-18,22.605614,120.395717,0.0006008625
C0R570,麟洛,2025-05-18,22.65078,120.52719,1.8058847e-05
C2M930,石卓,2025-05-18,23.478744,120.702264,4.695199e-09
C0G9B0,和美,2025-05-18,24.105169,120.492131,2.8927232e-08
CAG100,王功漁港,2025-05-18,23.96824,120.32586,0.012201056
C0X290,北門,2025-05-18,23.267772,120.125481,6.8748447e-09
C2F930,大甲,2025-05-18,24.347667,120.640403,1.823437e-06
C0D650,湖口,2025-05-18,24.904794,121.043628,4.958884e-08
C0E420,竹南,2025-05-18,24.708978,120.888897,2.0111806e-07
C0U780,五結,2025-05-18,24.68637,121.79794,3.6787675e-08
C1I250,鯉潭,2025-05-18,23.961922,120.991131,2.4138775e-09
C0R130,阿禮,2025-05-18,22.742908,120.743678,5.6321325e-09
C0X100,臺南市北區,2025-05-18,23.010394,120.194228,2.1824013e-08
C0S920,金峰嘉蘭,2025-05-18,22.594789,120.960825,0.73427165
C0V490,新興,2025-05-18,22.627422,120.298803,2.092535e-06
C0F9K0,大安,2025-05-18,24.345061,120.588025,8.573358e-06
467290,古坑,2025-05-18,23.633639,120.551889,1.4696059e-08
C2E970,八甲,2025-05-18,24.535811,120.795983,7.2041706e-09
C0V440,鳳山,2025-05-18,22.646653,120.356122,3.9038088e-07
C1T940,大觀,2025-05-18,23.714206,121.373133,3.2709757e-09
C0E740,造橋,2025-05-18,24.637056,120.864778,6.5073614e-08
C0R100,尾寮山,2025-05-18,22.833111,120.683889,6.133501e-09
A2K630,臺大雲林校區,2025-05-18,23.730628,120.423903,3.4489858e-09
467990,馬祖,2025-05-18,26.169467,119.923158,8.056848e-09
C0D580,寶山,2025-05-18,24.735006,121.025192,2.3709495e-08
E2P990,林試扇平站,2025-05-18,22.9677,120.6857,1.022629e-08
C0AI30,三重,2025-05-18,25.057328,121.500629,0.0020078353
C0AH00,汐止,2025-05-18,25.066881,121.658778,0.0011829964
C1Z040,立山,2025-05-18,23.443356,121.327375,1.0797737e-08
466881,新北,2025-05-18,24.959207,121.525196,0.0028878998
C0W130,花嶼,2025-05-18,23.40007,119.32276,0.9738191
C0A950,鼻頭角,2025-05-18,25.129036,121.923372,0.9754381
C0K470,林內,2025-05-18,23.748675,120.609642,1.0714076e-08
C2F990,摩天嶺,2025-05-18,24.322458,120.936819,4.3225583e-09
82C160,茶改場,2025-05-18,24.908472,121.185333,1.5313345e-08
C0Z320,清水林道,2025-05-18,23.27125,121.188272,1.8742094e-08
C0R760,南仁湖,2025-05-18,22.084681,120.863353,0.98932254
C0M670,大林,2025-05-18,23.600616,120.45841,9.859544e-09
C0M800,茶山,2025-05-18,23.299075,120.664767,3.1696976e-09
C0A9C0,天母,2025-05-18,25.117494,121.537169,0.4610376
72K220,南改斗南分場,2025-05-18,23.634556,120.477333,1.658024e-08
72AI40,桃改樹林分場,2025-05-18,24.944503,121.386972,3.3420739e-07
C0S910,蘭嶼燈塔,2025-05-18,22.081197,121.503117,0.028935712
C0B050,八斗子,2025-05-18,25.144754,121.79167,0.31226373
C0U900,內城,2025-05-18,24.71813,121.68766,2.4848333e-08
C0X320,柳營,2025-05-18,23.253328,120.375253,4.121046e-08
C0M790,新港,2025-05-18,23.553269,120.345728,3.54046e-09
C0F9T0,西屯,2025-05-18,24.179494,120.641275,2.8587442e-06
C0SA30,都歷,2025-05-18,23.020333,121.323642,0.009287622
C0C620,蘆竹,2025-05-18,25.084275,121.265767,0.014384087
C0R730,大坪頂,2025-05-18,22.024633,120.69355,0.9107905
C0AJ40,石門,2025-05-18,25.273672,121.601198,4.519136e-05
C0E750,苗栗,2025-05-18,24.564569,120.824575,2.3747106e-08
C0T870,鯉魚潭,2025-05-18,23.935639,121.508944,1.660619e-08
C1V170,排雲,2025-05-18,23.463619,120.954147,1.7176355e-08
C2H950,中寮,2025-05-18,23.884447,120.766406,2.2029185e-06
C0R350,貓鼻頭,2025-05-18,21.921774,120.7358,0.04438941
C0V660,岡山,2025-05-18,22.797078,120.294958,5.27482e-08
C1H941,雙冬,2025-05-18,23.967378,120.802189,2.8012686e-09
C0AJ70,田寮,2025-05-18,25.2698,121.4886,0.0072594024
C0AI00,五股,2025-05-18,25.07445,121.42728,1.5553005e-07
C0Z280,德武,2025-05-18,23.47426,121.41071,4.601813e-09
C0R700,枋山,2025-05-18,22.246844,120.661086,0.0007762353
C0C460,復興,2025-05-18,24.820208,121.352281,7.697846e-09
E2H360,蓮華池,2025-05-18,23.918333,120.885278,2.5854534e-09
C0M640,中埔,2025-05-18,23.42538,120.5229,3.5695011e-09
C0W140,金沙,2025-05-18,24.488292,118.408778,6.6235424e-07
C2A540,四堵,2025-05-18,24.8926,121.745736,1.5440692e-08
C0ACA0,新莊,2025-05-18,25.051478,121.446756,0.0005032224
C0R220,潮州,2025-05-18,22.534361,120.54,0.09889764
U2HA40,臺大內茅埔,2025-05-18,23.689722,120.851117,5.6666027e-09
467490,臺中,2025-05-18,24.145736,120.684075,6.8367364e-05
C0U960,翠峰湖,2025-05-18,24.510856,121.608044,8.9295895e-09
E2HA20,林試畢祿溪站,2025-05-18,24.226944,121.308522,8.397538e-09
C0V890,前鎮,2025-05-18,22.5718,120.3117,2.2546988e-06
C1F941,雪嶺,2025-05-18,24.280586,121.026642,1.40490455e-08
C2H9E0,國姓南港,2025-05-18,23.911108,120.846556,2.2753444e-09
C0AC80,文山,2025-05-18,25.00235,121.575728,0.0011170077
C0F9R0,龍井,2025-05-18,24.184536,120.528972,5.8390015e-05
C0M760,民雄,2025-05-18,23.551754,120.428457,1.0980293e-08
C0UA40,西德山,2025-05-18,24.560647,121.752608,6.6959047e-09
C1T920,中興,2025-05-18,23.769503,121.498653,2.2491971e-08
C0D550,雪霸,2025-05-18,24.526972,121.11605,5.8926153e-09
C2F860,梨山,2025-05-18,24.247522,121.243669,8.659197e-09
C0R320,車城,2025-05-18,22.0744,120.716247,0.118190706
C1S870,南美山,2025-05-18,23.15025,121.382333,0.00015942793
C0B020,基隆嶼,2025-05-18,25.19141,121.78391,0.9973635
C1U501,牛鬥,2025-05-18,24.637836,121.573656,8.781312e-09
C0M730,嘉義市東區,2025-05-18,23.457673,120.460531,4.720352e-08
C0S700,知本,2025-05-18,22.684866,121.005642,6.577697e-07
C1N001,沙崙,2025-05-18,22.935472,120.309406,5.7433727e-08
C0V760,橋頭,2025-05-18,22.757806,120.30575,6.9823244e-07
C0G960,福寶,2025-05-18,24.0443,120.3814,3.58796e-08
C0X210,白河,2025-05-18,23.347466,120.414427,4.9683706e-08
C0S810,東河,2025-05-18,22.972672,121.303986,0.0023744646
C2R170,屏東,2025-05-18,22.66027,120.49403,1.8128954e-05
C0R670,楓港,2025-05-18,22.190131,120.692156,0.041666925
C0FA50,霧峰,2025-05-18,24.0419,120.6995,1.0027177e-06
C0UB10,蘇澳,2025-05-18,24.5969,121.8571,1.5099964e-08
C0G950,防潮門,2025-05-18,24.1835,120.4871,6.14702e-05
C0M740,六腳,2025-05-18,23.492871,120.290625,3.4158265e-09
C1R250,力里,2025-05-18,22.428117,120.629228,0.17126104
C0K330,虎尾,2025-05-18,23.719183,120.442036,3.181363e-09
C2FA00,烏石坑,2025-05-18,24.273503,120.947617,4.329985e-09
C0V620,永安,2025-05-18,22.82315,120.236856,5.310576e-08
C1I330,楓樹林,2025-05-18,23.986803,121.076117,2.005596e-09
C0W200,湖西,2025-05-18,23.596314,119.67275,0.983469
72Q010,高雄農改場,2025-05-18,22.709333,120.525889,2.4412186e-06
C0SA40,瑞和,2025-05-18,22.974361,121.156697,0.000389244
C0C680,龜山,2025-05-18,25.02846,121.38656,9.663095e-08
C2V260,月眉,2025-05-18,22.971003,120.539853,7.214404e-08
C0V450,鳳森,2025-05-18,22.545064,120.392592,0.00019561278
C0U720,南山,2025-05-18,24.43742,121.38167,5.4776863e-09
A2N290,臺南蘭花園區,2025-05-18,23.340258,120.379661,2.1564654e-08
C0R560,新園,2025-05-18,22.5434,120.461558,0.0015406706
C0U890,三星,2025-05-18,24.66812,121.65302,1.8615406e-08
C1V300,御油山,2025-05-18,23.001983,120.715364,4.198254e-09
C0U600,礁溪,2025-05-18,24.817539,121.765608,1.7244427e-07
C1T980,龍澗,2025-05-18,24.023289,121.411328,1.4085697e-08
C0D670,海天一線,2025-05-18,24.831986,120.914438,9.788054e-07
C0SA00,歷坵,2025-05-18,22.520969,120.89185,1.0825411e-06
C0M710,東石,2025-05-18,23.458927,120.15385,1.2283678e-08
C0M780,鹿草,2025-05-18,23.41134,120.30835,1.1029746e-08
C0U520,雙連埤,2025-05-18,24.753033,121.641303,4.915864e-09
C0B010,七堵,2025-05-18,25.094819,121.71713,0.0051631546
C0R480,長治,2025-05-18,22.693128,120.542622,6.192177e-07
C1V830,國三S383K,2025-05-18,22.781967,120.426475,5.9732784e-08
12Q980,恆春工作站,2025-05-18,22.079678,120.714425,0.11824589
C1O940,東山服務區,2025-05-18,23.286016,120.398472,6.507249e-08
C1U840,東澳嶺,2025-05-18,24.5378,121.8485,4.268851e-09
C1D630,飛鳳山,2025-05-18,24.766464,121.119178,3.456566e-09
C0S940,石寧山,2025-05-18,23.223772,121.406639,9.829626e-06
C0K410,北港,2025-05-18,23.573957,120.292802,8.140461e-09
C2M620,瑞里,2025-05-18,23.545133,120.675197,3.0872256e-09
C0SB70,小港漁港,2025-05-18,23.158558,121.400431,0.7733651
C2O950,安南,2025-05-18,23.076694,120.144861,5.0803358e-08
C0F0E0,南湖圈谷,2025-05-18,24.363714,121.444667,2.371248e-08
467610,成功,2025-05-18,23.097486,121.373428,0.7693568
C0G890,伸港,2025-05-18,24.148933,120.484403,0.00013483738
C2E540,龍溪,2025-05-18,24.606489,120.783933,1.3181611e-07
C1V200,梅山,2025-05-18,23.268447,120.823556,5.4284386e-09
C0T9H0,加路蘭山,2025-05-18,23.682947,121.5274,5.2903237e-09
C2O930,玉井,2025-05-18,23.126042,120.46055,1.2537449e-08
C1F911,新伯公,2025-05-18,24.221361,120.841069,7.920025e-09
C0R490,九如,2025-05-18,22.7405,120.490503,2.7683209e-06
C0X200,左鎮,2025-05-18,23.056758,120.408522,2.2338385e-07
C0SB50,叭嗡嗡,2025-05-18,23.047062,121.343223,0.5805807
C1F891,稍來,2025-05-18,24.265689,121.001142,9.767789e-09
72N240,七股研究中心,2025-05-18,23.081672,120.062894,2.0165135e-08
C0C700,中壢,2025-05-18,24.977661,121.256375,2.4313172e-08
C0M690,水上,2025-05-18,23.419734,120.388909,5.5155542e-09
C0V690,鼓山,2025-05-18,22.623325,120.275575,2.1170133e-06
C0O860,大內,2025-05-18,23.11885,120.36083,9.154207e-09
C0Z200,萬榮,2025-05-18,23.709219,121.420106,1.05614975e-08
C0T9D0,和中,2025-05-18,24.26676,121.74103,5.0252976e-07
C1O921,楠西,2025-05-18,23.183511,120.484083,2.8989204e-08
C0AJ30,淡水觀海,2025-05-18,25.184591,121.408616,0.8322548
C0V810,左營,2025-05-18,22.67491,120.28491,5.158116e-07
C0UA70,桃源谷,2025-05-18,24.962606,121.888875,1.188381e-08
C0X130,官田,2025-05-18,23.193217,120.315422,4.7395483e-09
C1H000,翠峰,2025-05-18,24.109397,121.205211,6.608145e-09
C0UA90,石城,2025-05-18,24.980444,121.951214,2.8606732e-07
C1E681,南勢山,2025-05-18,24.421669,120.923831,1.6208881e-09
C0A9F0,內湖,2025-05-18,25.079422,121.57545,0.0011829964
C0K291,宜梧,2025-05-18,23.536281,120.169329,1.2395213e-08
C1K540,口湖,2025-05-18,23.585344,120.180517,1.1417393e-08
C0R780,滿州,2025-05-18,22.024403,120.839892,0.40043637
C0V870,文安,2025-05-18,22.8025,120.2164,5.4612062e-08
C0U650,玉蘭,2025-05-18,24.675286,121.587061,4.996631e-09
C0R640,東港,2025-05-18,22.46247,120.44074,0.015468033
C0AJ80,板橋,2025-05-18,25.0107,121.4489,0.017356137
C0S660,下馬,2025-05-18,23.150427,121.070312,1.3892045e-08
C1H9B1,阿眉,2025-05-18,24.1263,120.994672,9.340351e-09
C0UA20,多加屯,2025-05-18,24.368614,121.373189,1.1273384e-08
C0E730,頭份,2025-05-18,24.688247,120.912206,2.3153757e-07
72V140,高改旗南分場,2025-05-18,22.857861,120.516667,1.2282413e-08
C0K480,莿桐,2025-05-18,23.761192,120.502372,6.795437e-09
C0U980,坪林石牌,2025-05-18,24.86478,121.77396,6.4867747e-09
C0T900,西林,2025-05-18,23.8119,121.441458,8.719808e-09
C1I150,青雲,2025-05-18,23.793361,120.949378,2.9116753e-09
467350,澎湖,2025-05-18,23.565503,119.563094,0.99236166
C0G800,埔鹽,2025-05-18,24.000394,120.431683,7.29726e-08
C0H960,草屯,2025-05-18,23.973672,120.68085,6.1679305e-07
C1V780,多納林道,2025-05-18,22.888028,120.737917,2.5032703e-09
C0E920,通霄漁港,2025-05-18,24.498589,120.673876,2.377252e-06
C0Z330,安通山,2025-05-18,23.290728,121.348528,6.050077e-09
C0AH10,永和,2025-05-18,25.01125,121.508111,0.01635129
C0AK10,太平里,2025-05-18,25.134937,121.364899,0.14643274
C2G640,鹿港,2025-05-18,24.0753,120.430481,3.5783717e-08
C1E890,國三N149K,2025-05-18,24.463414,120.680019,2.4227333e-07
C1R110,口社,2025-05-18,22.770111,120.645222,4.5909335e-05
C1M870,國三N285K,2025-05-18,23.550319,120.505833,1.0711746e-08
C1E480,鳳美,2025-05-18,24.554803,121.034747,1.7023218e-09
C0M530,奮起湖,2025-05-18,23.493903,120.699253,3.3689551e-09
C0C590,觀音,2025-05-18,25.027072,121.153317,1.0246233e-06
C0T9M0,靜浦,2025-05-18,23.455167,121.495028,1.1670996e-08
C2H9M0,發祥,2025-05-18,24.154094,121.164517,5.883406e-09
C0AI40,石牌,2025-05-18,25.115597,121.513139,0.48485065
C1F871,上谷關,2025-05-18,24.203483,121.018644,4.1290455e-09
C2H9G0,百勝,2025-05-18,24.051142,120.909361,5.670884e-09
C0G880,二水,2025-05-18,23.810742,120.6173,1.0193749e-08
C0R940,加祿堂,2025-05-18,22.3363,120.6217,0.00088610704
C0W220,北竿,2025-05-18,26.220358,119.974881,1.6425187e-08
C0O960,崎頂,2025-05-18,22.959547,120.369317,1.7892054e-08
C0S750,向陽,2025-05-18,23.248397,120.986133,6.744561e-09
C0T9F0,水璉,2025-05-18,23.797131,121.542514,5.6014926e-09
C1M600,頭凍,2025-05-18,23.406364,120.603339,3.7848285e-09
467660,臺東,2025-05-18,22.752211,121.154586,0.03798365
C1D380,新埔,2025-05-18,24.84745,121.03834,2.8082352e-08
C2G980,田頭村,2025-05-18,23.8263,120.444175,3.627352e-09
C0V750,路竹,2025-05-18,22.854997,120.259439,1.1812426e-07
C0N050,蚵寮,2025-05-18,23.301,120.1104,6.172205e-09
72M700,南改鹿草分場,2025-05-18,23.416869,120.283061,1.2857062e-08
C1SA50,利嘉林道,2025-05-18,22.82325,121.009389,3.2295027e-09
C0A940,金山,2025-05-18,25.223628,121.643967,0.07740037
C1V340,大津,2025-05-18,22.888322,120.645986,5.8097438e-08
C0W180,七美,2025-05-18,23.219333,119.444892,0.9639359
C1F9C1,白冷,2025-05-18,24.182844,120.929889,3.2246956e-09
K2E710,苗改生物防治研究中心,2025-05-18,24.422861,120.871833,9.712687e-09
C0N040,蘆竹溝,2025-05-18,23.2344,120.0961,6.8975408e-09
C2W230,畜試所澎湖,2025-05-18,23.628342,119.513206,0.96380585
C0R880,後壁湖,2025-05-18,21.9457,120.7457,0.13240203
C1I280,埔中,2025-05-18,23.820778,120.642594,3.3672656e-09
467790,墾丁雷達站,2025-05-18,21.948235,120.808028,0.4171625
C0W190,望安,2025-05-18,23.380564,119.494075,0.9907281
C0Z170,卓溪,2025-05-18,23.3443,121.3029,1.8021899e-06
C0F850,東勢,2025-05-18,24.246428,120.833047,4.0291903e-09
466900,淡水,2025-05-18,25.164889,121.448906,0.14682962
C0I370,魚池,2025-05-18,23.895703,120.94135,2.3880404e-09
C0C630,大溪,2025-05-18,24.882853,121.265547,2.4882576e-08
C0A520,山佳,2025-05-18,24.974944,121.402008,2.9200444e-06
C0I110,竹山,2025-05-18,23.761225,120.688156,5.3908398e-09
82H840,茶改南部分場,2025-05-18,23.762528,120.7405,2.1571145e-09
C0G660,溪湖,2025-05-18,23.94835,120.479122,2.1907757e-08
C1T800,洛韶,2025-05-18,24.204558,121.453956,9.4293675e-09
C1T810,慈恩,2025-05-18,24.192044,121.388386,4.2911537e-09
C1E451,象鼻,2025-05-18,24.368617,120.940228,1.469392e-09
C0AC60,三峽,2025-05-18,24.939025,121.369728,2.7716935e-08
C0I490,萬大林道,2025-05-18,23.928228,121.091411,3.7554035e-09
C1I290,豐丘,2025-05-18,23.668178,120.887417,3.2460223e-09
C1I320,奧萬大,2025-05-18,23.952956,121.178556,2.1668876e-09
C2M910,嘉義大學,2025-05-18,23.471325,120.485903,7.612488e-09
C0U770,南澳,2025-05-18,24.44935,121.81022,4.4074766e-09
C0A980,社子,2025-05-18,25.109508,121.469681,0.33438024
C0V800,六龜,2025-05-18,22.997889,120.633583,4.20964e-09
C1G9D0,國一S218K,2025-05-18,23.890641,120.493253,1.984232e-08
C0E570,白沙屯,2025-05-18,24.549447,120.696803,1.8131315e-06
C2F9A0,中竹林,2025-05-18,24.103556,120.751061,2.2932076e-09
C0FA40,臺中電廠,2025-05-18,24.2146,120.4907,6.0398488e-05
C2G9A0,畜試所彰化,2025-05-18,23.86045,120.557964,7.11485e-09
C0H9C0,合歡山,2025-05-18,24.143442,121.272547,1.8009388e-08
C0X060,下營,2025-05-18,23.22695,120.256261,6.7891794e-09
G2M350,農試溪口農場,2025-05-18,23.58565,120.408111,1.1998715e-08
C0U860,頭城,2025-05-18,24.85323,121.8308,2.1040961e-07
C0R580,南州,2025-05-18,22.48591,120.50274,0.015468033
C0D430,峨眉,2025-05-18,24.6905,121.017189,1.5123542e-08
C0G780,秀水,2025-05-18,24.03405,120.503869,1.392927e-08
72N100,臺南農改場,2025-05-18,23.0605,120.342194,8.482389e-09
C0S900,蘭嶼高中,2025-05-18,22.04909,121.51214,0.0125243645
C1F9W0,德基,2025-05-18,24.254783,121.190261,6.864179e-09
C1Z120,壽豐,2025-05-18,23.870853,121.508081,3.8896754e-08
C0W160,烏坵,2025-05-18,24.9944,119.44956,0.48974738
C1I240,外大坪,2025-05-18,23.958697,120.917931,2.3697684e-09
C1I550,國六W023K,2025-05-18,23.979067,120.867742,2.9311555e-09
C0R870,興海,2025-05-18,21.9752,120.8439,0.25679848
C0R140,瑪家,2025-05-18,22.682903,120.686639,5.7830083e-09
C0A530,坪林,2025-05-18,24.938183,121.70975,2.4559498e-08
C0X260,後壁,2025-05-18,23.366358,120.362326,1.5509613e-08
C0Z230,和平,2025-05-18,24.30717,121.77007,5.911987e-07
C0G770,福興,2025-05-18,24.041289,120.437669,7.490827e-08
C0H9A0,神木村,2025-05-18,23.532742,120.843667,3.8955688e-09
C0I460,南投,2025-05-18,23.911469,120.687331,6.452728e-06
C0I480,梅峰,2025-05-18,24.085272,121.173572,4.580586e-09
C1V570,吉東,2025-05-18,22.85422,120.5454,9.4582955e-09
C2D740,屯原,2025-05-18,24.067969,121.209389,3.7793386e-09
C2A560,福山,2025-05-18,24.776203,121.502811,1.2715929e-08
C0AH30,五分山,2025-05-18,25.07125,121.780794,4.9553837e-09
C0FA10,松柏,2025-05-18,24.429115,120.617482,8.328182e-06
72S200,東改班鳩分場,2025-05-18,22.829528,121.077694,0.00016766376
72HA00,中改埔里分場,2025-05-18,23.903208,120.963364,2.6692955e-09
C2H9W0,大坪頂農水,2025-05-18,24.043122,120.932781,2.658392e-09
C0C650,平鎮,2025-05-18,24.897503,121.214636,1.0913978e-08
C0S930,延平,2025-05-18,22.902581,121.084058,0.00014799628
C0UA60,樟樹山,2025-05-18,24.41393,121.78325,8.309255e-09
C1S670,摩天,2025-05-18,23.199503,121.027,1.3409912e-08
C0V630,茄萣,2025-05-18,22.906642,120.182608,2.2128742e-08
466940,基隆,2025-05-18,25.133314,121.740475,0.2711247
C0X050,東河,2025-05-18,23.296598,120.385608,8.039704e-08
C0R770,保力,2025-05-18,22.071122,120.764111,0.61127335
G2L020,農試嘉義分所,2025-05-18,23.485028,120.473806,1.8689263e-08
C0X240,關子嶺,2025-05-18,23.331169,120.508025,3.0852476e-09
C0I380,集集,2025-05-18,23.828206,120.801467,4.151971e-09
466990,花蓮,2025-05-18,23.975128,121.613275,1.6267386e-06
C1V220,小關山,2025-05-18,23.154217,120.813603,5.317192e-09
C1F9G1,慶福山,2025-05-18,24.180853,120.848378,1.2641561e-09
C0Z250,瑞穗林道,2025-05-18,23.49284,121.30688,9.024377e-09
C0D590,新豐,2025-05-18,24.87068,120.97721,1.4411364e-07
C0A870,五指山,2025-05-18,25.132153,121.608692,4.487742e-09
C0UA50,西帽山,2025-05-18,24.555361,121.802628,5.5481997e-09
C0X160,仁德,2025-05-18,22.968258,120.257689,3.9170732e-08
C1H971,六分寮,2025-05-18,23.92507,120.6378,2.526467e-09
C0W120,西嶼,2025-05-18,23.5626,119.468436,0.9911669
C0G650,員林,2025-05-18,23.946503,120.585597,1.2392281e-08
C0AD50,鶯歌,2025-05-18,24.951533,121.346294,2.2224844e-08
C2H9Q0,北東眼山,2025-05-18,24.120939,121.189303,5.532539e-09
C2H9T0,名間竹圍,2025-05-18,23.859914,120.637572,2.1243034e-09
C0S990,山豬窟,2025-05-18,22.318619,120.857372,3.3120835e-07
C0X190,安平,2025-05-18,22.993161,120.152181,2.1573088e-08
C0K400,斗六,2025-05-18,23.720583,120.541127,7.7720985e-09
12J990,口湖工作站,2025-05-18,23.589978,120.180394,1.1131424e-08
C0O830,北寮,2025-05-18,23.079561,120.495008,5.4601752e-08
C1D410,白蘭,2025-05-18,24.579364,121.079947,2.8110902e-09
C0S970,加津林,2025-05-18,22.416211,120.926942,0.33397865
C0D700,關西,2025-05-18,24.7977,121.1732,2.334285e-08
C0M810,里佳,2025-05-18,23.389125,120.716647,4.524372e-09
C0U750,龜山島,2025-05-18,24.841667,121.953133,1.6086071e-06
C0R810,內獅,2025-05-18,22.305064,120.642986,0.00094422227
C1M390,龍美,2025-05-18,23.406728,120.654417,3.9190593e-09
C2FB60,頭櫃山,2025-05-18,24.129842,120.858925,3.783587e-09
C1H840,國三N238K,2025-05-18,23.841008,120.707711,2.5663511e-09
CAQ030,崎峰國小,2025-05-18,22.42565,120.49521,0.015468033
C2E520,大湖,2025-05-18,24.414939,120.870872,7.724497e-09
467530,阿里山,2025-05-18,23.508208,120.813242,6.9494246e-09
C1E691,南湖,2025-05-18,24.40135,120.837533,1.4756272e-09
C0FA30,梧棲,2025-05-18,24.256003,120.523381,3.420727e-05
C1V231,高中,2025-05-18,23.134911,120.716711,1.5969339e-09
C0AK30,硬漢嶺,2025-05-18,25.136097,121.426372,4.947243e-09
C0F9V0,新社,2025-05-18,24.200172,120.815806,4.361374e-09
C0H890,埔里,2025-05-18,23.972169,120.952425,4.215096e-09
C0R690,墾丁,2025-05-18,21.966756,120.810269,0.85040724
C0F0D0,審馬陣,2025-05-18,24.381675,121.4203,1.8669596e-08
C2W030,金門農試所,2025-05-18,24.448431,118.451786,2.1492615e-07
C0R820,白鷺,2025-05-18,22.454275,120.666219,2.3233047e-08
C1V190,南天池,2025-05-18,23.27403,120.91176,7.0095965e-09
K2E360,苗栗農改場,2025-05-18,24.495722,120.829111,8.621787e-09
CAJ050,海口故事園區,2025-05-18,23.57543,120.14121,1.1319665e-08
C2H9D0,三隻寮,2025-05-18,24.093078,120.861578,2.656917e-09
C0O990,媽廟,2025-05-18,22.99175,120.293525,1.07805576e-07
C0D480,打鐵坑,2025-05-18,24.849664,121.150789,1.1718709e-08
C0Z220,和平林道,2025-05-18,24.343922,121.656317,2.0502222e-09
C0TA10,花蓮漁港,2025-05-18,23.995322,121.638331,3.0418112e-06
72C440,桃園農改場,2025-05-18,24.950944,121.030583,6.809492e-08
C1E711,馬拉邦山,2025-05-18,24.367306,120.901656,2.2227504e-09
C0SB20,富岡,2025-05-18,22.792467,121.192669,0.13754426
C0D560,竹東,2025-05-18,24.767147,121.057881,2.3534994e-08
C0F9U0,南屯,2025-05-18,24.137006,120.637969,6.473377e-09
C0M720,番路,2025-05-18,23.464657,120.554156,2.935682e-09
C0F0A0,雪山圈谷,2025-05-18,24.388594,121.236339,2.6323228e-08
C1A9N0,四十份,2025-05-18,24.934158,121.593283,2.4504939e-08
C0U760,東澳,2025-05-18,24.52196,121.83318,1.6307565e-08
C0X230,鹽水,2025-05-18,23.272621,120.247641,5.9393757e-09
C2H9H0,苗改南投蜂場,2025-05-18,23.852589,120.693481,8.9205665e-09
C0R950,萬隆國小,2025-05-18,22.507667,120.587817,0.06652305
467540,大武,2025-05-18,22.35572,120.90374,0.37178454
C0V370,古亭坑,2025-05-18,22.893178,120.401947,8.406515e-08
C1I340,新興橋,2025-05-18,23.563333,120.868728,1.33589e-09
C0SA80,土坂,2025-05-18,22.453108,120.887572,0.045576192
C0R160,鹽埔,2025-05-18,22.739558,120.530778,2.3658802e-06
C0AC40,大屯山,2025-05-18,25.175675,121.522408,5.7666516e-09
466850,五分山雷達站,2025-05-18,25.071182,121.781205,4.9442996e-09
C2H9L0,馬烈霸,2025-05-18,24.1512,121.201772,5.5051492e-09
C1AI50,國三N016K,2025-05-18,25.034164,121.619664,0.0002528927
C1V600,藤枝,2025-05-18,23.071961,120.757042,5.177729e-09
C1E601,南勢,2025-05-18,24.572486,120.734842,6.180419e-08
C0O980,新市,2025-05-18,23.061614,120.298197,1.0903471e-08
C0K420,西螺,2025-05-18,23.800407,120.467394,3.3987215e-09
C0Z050,佳心,2025-05-18,23.34567,121.21316,1.5481625e-08
C0AD30,蘆洲,2025-05-18,25.086594,121.472331,0.0019119031
C0V610,梓官,2025-05-18,22.760558,120.267211,7.0543894e-07
K2F750,種苗改良場,2025-05-18,24.225972,120.800917,5.638345e-09
C0UA80,大溪漁港,2025-05-18,24.941801,121.902955,2.732455e-07
C1AI60,國一39K邊坡,2025-05-18,25.064361,121.383836,1.2643007e-07
C0W150,金寧,2025-05-18,24.457703,118.328989,1.9923614e-07
C0R960,內埔,2025-05-18,22.608483,120.570714,0.070077874
V2C250,八德合作社,2025-05-18,24.93775,121.266389,1.3453901e-08
C2H9S0,龍南,2025-05-18,23.953536,120.833183,2.5256914e-09
C0AH40,平等,2025-05-18,25.129142,121.577086,7.1049366e-09
C0R540,佳冬,2025-05-18,22.419456,120.552375,0.0034536975
466950,彭佳嶼,2025-05-18,25.627975,122.079744,0.9998278
C0A890,雙溪,2025-05-18,25.036003,121.864242,0.943868
C0C480,桃園,2025-05-18,24.992425,121.323172,3.0460615e-08
C0AH50,林口,2025-05-18,25.072181,121.38084,8.004252e-08
A2K360,水試臺西試驗場,2025-05-18,23.717231,120.190522,1.2846981e-07
C2M960,外寮,2025-05-18,23.562643,120.665688,1.8422609e-09
C0F9S0,烏日,2025-05-18,24.107058,120.624103,1.2657563e-08
C0C490,八德,2025-05-18,24.928708,121.283289,1.3411243e-08
C0R190,赤山,2025-05-18,22.592333,120.614306,0.05896891
C0T820,天祥,2025-05-18,24.179597,121.495639,3.4805563e-08
C1F9E1,龍安,2025-05-18,24.1605,120.831961,3.4075687e-09
C0V820,小林,2025-05-18,23.148408,120.63325,1.949192e-09
C2G870,芳苑,2025-05-18,23.922303,120.320025,0.01072638
C0E850,大河,2025-05-18,24.618069,120.948578,8.475665e-08
C1U670,寒溪,2025-05-18,24.634,121.71691,1.2735444e-08
C0N020,城西,2025-05-18,23.0568,120.0956,9.6066195e-09
C1Z110,三棧,2025-05-18,24.11557,121.60501,3.667369e-08
C0R280,檳榔,2025-05-18,22.076078,120.836777,0.99296063
C2H9J0,中台,2025-05-18,23.9996,120.938739,3.758592e-09
C0F9L0,后里,2025-05-18,24.310436,120.729725,3.1606961e-09
467441,高雄,2025-05-18,22.730432,120.312516,6.720467e-07
C0Z180,新城,2025-05-18,24.040486,121.604878,9.965659e-07
C0D540,橫山,2025-05-18,24.71116,121.11693,1.2348584e-08
C1D420,太閣南,2025-05-18,24.632808,121.160575,7.782215e-09
C1E770,公館,2025-05-18,24.526914,120.830806,1.2236349e-08
CAN130,水試所海水繁養殖中心,2025-05-18,23.120802,120.07968,1.9892758e-08
C1I430,翠華,2025-05-18,24.191961,121.224339,6.6969523e-09
C1M400,菜瓜坪,2025-05-18,23.251928,120.576103,2.4878957e-09
C0G730,二林,2025-05-18,23.903325,120.376081,2.757681e-07
72M360,南改義竹分場,2025-05-18,23.360694,120.279361,6.6119274e-09
V2K620,麥寮合作社,2025-05-18,23.753836,120.294783,7.973989e-08
C0Z070,舞鶴,2025-05-18,23.46811,121.37407,3.6354142e-09
C0B040,大武崙,2025-05-18,25.166676,121.706993,0.09895187
C1Z030,紅葉,2025-05-18,23.493119,121.338806,5.7110356e-09
C1I050,丹大,2025-05-18,23.753747,121.141147,7.204418e-09
C0I080,信義,2025-05-18,23.689694,120.851036,5.6666027e-09
C2M920,朴子農改,2025-05-18,23.469889,120.259383,1.3113222e-08
C2A880,福隆,2025-05-18,25.017842,121.942083,3.37755e-07
C0Z160,鳳林,2025-05-18,23.746114,121.453411,1.4088357e-08
C0V210,復興,2025-05-18,23.222403,120.806089,3.0154512e-09
C0H990,昆陽,2025-05-18,24.121322,121.273642,1.2729785e-08
C0R741,獅子,2025-05-18,22.202308,120.705236,0.21953294
C0S710,鹿野,2025-05-18,22.917711,121.122994,8.5113754e-07
C0I530,小奇萊,2025-05-18,24.131764,121.295717,1.3455954e-08
C2K630,荷苞,2025-05-18,23.657717,120.595144,8.098014e-09
C0Z080,富源,2025-05-18,23.587642,121.378225,1.3775999e-08
C0SB10,美和,2025-05-18,22.682078,121.060236,0.84336656
C2K620,馬光農場,2025-05-18,23.721453,120.378864,3.629795e-09
C1I140,卡奈托灣,2025-05-18,23.754364,121.087872,2.2746673e-09
C0I520,玉山風口,2025-05-18,23.470489,120.955994,2.3014815e-08
C1G691,下水埔,2025-05-18,23.816114,120.5676,5.8705267e-09
C0X110,臺南市南區,2025-05-18,22.961189,120.188378,4.0412758e-08
C0V680,仁武,2025-05-18,22.701083,120.347722,5.110684e-07
C2G840,北斗,2025-05-18,23.877586,120.514222,1.6898325e-08
C0R900,竹坑,2025-05-18,22.1385,120.7022,0.0092440555
C0K250,崙背,2025-05-18,23.75555,120.318925,7.9055845e-08
C0G860,社頭,2025-05-18,23.897647,120.5862,2.7673513e-08
C0X150,安定,2025-05-18,23.102614,120.227839,2.9580875e-08
C0R590,里港,2025-05-18,22.77919,120.49459,4.0716714e-07
C0E610,馬都安,2025-05-18,24.451272,120.930192,1.4969478e-09
C0E550,明德,2025-05-18,24.583486,120.885411,1.9794578e-08
C0R150,三地門,2025-05-18,22.709889,120.639944,5.398055e-05
C0G910,花壇,2025-05-18,24.032076,120.549461,1.0229958e-08
C1D400,鳥嘴山,2025-05-18,24.71909,121.28387,2.845366e-09
C0K500,元長,2025-05-18,23.64981,120.315024,9.508638e-08
C0F0B0,石岡,2025-05-18,24.276061,120.777644,2.7037703e-09
C2V250,甲仙,2025-05-18,23.080106,120.591758,4.5763247e-09
C0SA20,金崙山,2025-05-18,22.567419,120.959667,4.027502e-08
C0V350,溪埔,2025-05-18,22.738578,120.446797,1.2488866e-06
C0M660,溪口,2025-05-18,23.604131,120.403569,1.1884309e-08
C1S880,壽卡,2025-05-18,22.238911,120.858903,1.2270102e-07
72D680,桃改新埔分場,2025-05-18,24.834444,121.066111,3.0213425e-08
