站號,站名,日期,lat,lon,BLBTSLS
C0R710,龍磐,2025-05-20,21.931672,120.838942,0.66585505
C1F9D1,白毛台,2025-05-20,24.158325,120.886933,1.4361916e-09
C0G940,竹塘,2025-05-20,23.848253,120.386764,1.1187109e-07
467590,恆春,2025-05-20,22.003897,120.746339,0.19148405
C1O850,環湖,2025-05-20,23.148617,120.418633,4.1660936e-08
C0U710,太平山,2025-05-20,24.505486,121.525656,6.5647163e-09
C0E820,獅潭,2025-05-20,24.539133,120.920042,2.6741824e-09
C0V880,興達,2025-05-20,22.8778,120.2127,7.874643e-08
C0S890,關山,2025-05-20,23.0395,121.175017,0.13887337
C0SB30,新蘭,2025-05-20,22.869214,121.223228,0.26774496
C2R970,屏科大,2025-05-20,22.648275,120.619247,9.5672895e-08
C1Z130,銅門,2025-05-20,23.965694,121.492842,5.0783538e-06
C0AD40,土城,2025-05-20,24.973208,121.445169,7.9025745e-07
CAN140,六官養殖協會,2025-05-20,23.22881,120.29962,7.4281075e-09
C0X180,山上,2025-05-20,23.0757,120.363253,1.7747231e-08
C0F9Z0,雪山東峰,2025-05-20,24.388792,121.268675,1.8488128e-08
C1M480,獨立山,2025-05-20,23.537022,120.607797,9.44423e-10
C0X220,學甲,2025-05-20,23.230367,120.182187,1.4814486e-08
467650,日月潭,2025-05-20,23.881325,120.90805,1.1816743e-09
C0K600,箔子寮,2025-05-20,23.6197,120.14,1.7134725e-07
C0G830,埤頭,2025-05-20,23.866003,120.452806,1.0942076e-08
C0S950,七塊厝,2025-05-20,22.954453,121.229922,0.024639504
467110,金門,2025-05-20,24.407306,118.289281,2.5369516e-08
C0AH80,深坑,2025-05-20,25.002703,121.628328,4.1300757e-07
C0A970,三貂角,2025-05-20,25.007606,122.002058,2.6700606e-08
C2D730,寶山農場,2025-05-20,24.732444,120.976153,2.569672e-09
C0K430,褒忠,2025-05-20,23.690938,120.303634,7.766304e-09
467480,嘉義,2025-05-20,23.495925,120.432906,6.0527428e-09
C0V400,阿公店,2025-05-20,22.804194,120.355528,1.6761999e-07
467550,玉山,2025-05-20,23.48718,120.95943,2.118797e-08
C0R440,大漢山,2025-05-20,22.405264,120.753181,6.2333227e-09
C0K280,四湖,2025-05-20,23.630414,120.227125,1.7199065e-07
C1F9B1,桐林,2025-05-20,24.066172,120.735194,1.6645227e-08
C2H9U0,鳳鵬,2025-05-20,23.763919,120.788061,1.1900136e-09
C0K390,土庫,2025-05-20,23.679029,120.395574,1.30139535e-08
C1I450,望鄉山,2025-05-20,23.594153,120.944286,8.902362e-09
C0E910,海埔,2025-05-20,24.648767,120.772435,9.9572315e-09
B2E890,畜試北區分所,2025-05-20,24.527806,120.770972,5.2633906e-09
C0R750,四林格山,2025-05-20,22.076989,120.802439,0.95919377
C0F0C0,中坑,2025-05-20,24.248517,120.903319,1.6138053e-09
C1I121,大鞍,2025-05-20,23.678381,120.760017,1.6735724e-09
72U480,花改蘭陽分場,2025-05-20,24.686306,121.716583,1.0736644e-07
C0A770,科教館,2025-05-20,25.096356,121.516507,3.3302538e-08
C0AJ60,六塊厝,2025-05-20,25.24,121.4481,0.113928914
C0R620,墾雷,2025-05-20,21.900836,120.855269,0.0871795
467420,永康,2025-05-20,23.038386,120.2367,1.919691e-08
C0I410,名間,2025-05-20,23.837053,120.701447,3.936898e-09
A2C560,農工中心,2025-05-20,24.985917,121.239833,0.00115619
C0V740,旗山,2025-05-20,22.888614,120.483597,1.0960854e-08
C0Z061,玉里,2025-05-20,23.3215,121.339656,0.00027024586
C0S840,南田,2025-05-20,22.279725,120.889208,0.82645017
C1I470,杉林溪,2025-05-20,23.639517,120.786444,2.1566207e-09
C1X040,東原,2025-05-20,23.291597,120.463822,5.2969975e-09
C0R660,枋寮,2025-05-20,22.367722,120.590647,0.9911988
C1R120,上德文,2025-05-20,22.763272,120.704442,3.3478248e-08
C0K450,大埤,2025-05-20,23.646074,120.431537,6.2176726e-09
C0UA00,土場,2025-05-20,24.576533,121.495333,1.1137842e-07
467080,宜蘭,2025-05-20,24.763975,121.756528,3.612088e-05
C0N030,四草,2025-05-20,23.0235,120.1116,2.8278809e-08
467410,臺南,2025-05-20,22.99328,120.20492,1.4885806e-08
C0V650,彌陀,2025-05-20,22.783806,120.246361,1.02011626e-07
C0D660,新竹市東區,2025-05-20,24.798681,120.986942,5.3199005e-09
82S580,茶改東部分場,2025-05-20,22.907694,121.130139,0.05678012
C0SB40,興隆,2025-05-20,22.913661,121.257469,0.2367826
467050,新屋,2025-05-20,25.006725,121.047492,0.23854929
C0C710,大溪永福,2025-05-20,24.892936,121.324975,6.900386e-08
C0FA20,溫寮,2025-05-20,24.372177,120.583125,1.5269663e-05
C0V640,湖內,2025-05-20,22.887139,120.2445,6.6616785e-08
C0R910,下寮,2025-05-20,22.3929,120.5548,0.9911709
C0Z020,明里,2025-05-20,23.208717,121.262342,0.00034603928
C0M770,嘉義梅山,2025-05-20,23.585398,120.555587,4.953588e-09
C0C660,楊梅,2025-05-20,24.912375,121.143047,8.5842686e-07
C1E511,新開,2025-05-20,24.347703,120.827019,2.1353204e-09
G2F820,農試所(霧峰),2025-05-20,24.031261,120.688133,1.4710053e-08
C1I070,和社,2025-05-20,23.591131,120.888861,2.2420613e-08
C2F000,大肚,2025-05-20,24.15295,120.572117,3.6753358e-09
C1S850,豐南,2025-05-20,23.122139,121.262389,0.015246252
C2A920,富貴角,2025-05-20,25.263783,121.565258,0.000223715
CAH030,茶改場竹圍站,2025-05-20,23.860083,120.637528,1.3186955e-09
C0T960,光復,2025-05-20,23.660694,121.424964,0.06431126
C0F9M0,豐原,2025-05-20,24.254322,120.720692,7.488481e-09
C0R720,旭海,2025-05-20,22.205403,120.887614,0.044540722
C0V710,苓雅,2025-05-20,22.622742,120.330669,1.4351116e-05
C0C740,觀音工業區,2025-05-20,25.064764,121.114856,0.009615077
CAC040,拉拉山,2025-05-20,24.699317,121.427133,3.4084724e-09
C0V790,萬山,2025-05-20,22.905944,120.688056,2.2212216e-08
U2HA30,臺大和社,2025-05-20,23.590856,120.888864,2.2420613e-08
C0AJ90,澳底,2025-05-20,25.0552,121.9253,1.5497659e-06
C0Z100,東華,2025-05-20,23.89525,121.549833,0.00016059865
C0G970,三豐,2025-05-20,23.882,120.2895,1.0952915e-05
V2K610,大庄合作社,2025-05-20,23.8068,120.367939,1.1601107e-08
C0V900,汕尾,2025-05-20,22.4782,120.4151,0.6689894
C1R630,龍泉,2025-05-20,22.66701,120.59091,2.869964e-07
C1AC50,關渡,2025-05-20,25.133486,121.469331,1.1580143e-07
C0F9I0,神岡,2025-05-20,24.272481,120.658314,6.7768373e-09
C0K460,斗南,2025-05-20,23.678734,120.478359,5.883227e-09
C2O810,曾文,2025-05-20,23.219681,120.497328,1.170506e-08
467280,後龍,2025-05-20,24.648563,120.831834,8.206608e-09
C1F9J1,清水林,2025-05-20,24.071242,120.820419,1.1891945e-09
C2A650,火燒寮,2025-05-20,25.002719,121.742892,8.426755e-09
466930,竹子湖,2025-05-20,25.162078,121.544547,6.6730793e-10
C1I220,樟湖,2025-05-20,23.905333,120.846983,9.864958e-10
C0I390,仁愛,2025-05-20,24.022122,121.132206,7.8099577e-10
C0Z300,東里,2025-05-20,23.26853,121.30547,0.0007189453
C1V590,新發,2025-05-20,23.057019,120.646064,2.9757419e-09
C0K510,水林,2025-05-20,23.572924,120.24597,9.895812e-09
72S590,東改賓朗果園,2025-05-20,22.813889,121.071278,0.06583123
82A750,茶改北部分場,2025-05-20,24.955778,121.631222,1.1175689e-09
C1A750,石碇服務區,2025-05-20,25.00872,121.646242,9.713097e-05
C0X300,鹿寮,2025-05-20,23.386047,120.477331,8.174239e-09
G2AI50,關渡,2025-05-20,25.11575,121.492,0.8701365
C0K590,雲林東勢,2025-05-20,23.674192,120.255721,9.178072e-09
C0A570,桶後,2025-05-20,24.848222,121.597992,3.4084364e-06
C1S800,華源,2025-05-20,22.657883,121.02325,0.17973612
C0G720,溪州,2025-05-20,23.851589,120.499093,9.8880575e-09
C1V160,達卡努瓦,2025-05-20,23.279811,120.705319,1.9582882e-09
C2M410,馬頭山,2025-05-20,23.324361,120.582017,4.2622936e-09
C0V850,蚵仔寮,2025-05-20,22.7256,120.2527,6.5259746e-07
C0S740,池上,2025-05-20,23.119628,121.209469,0.92096615
C1V390,尖山,2025-05-20,22.813153,120.367789,1.01894564e-07
C0AH70,松山,2025-05-20,25.04871,121.55042,3.0465554e-08
C0N010,鯤鯓國小,2025-05-20,23.1879,120.0889,2.3495973e-08
C0R550,新埤,2025-05-20,22.467947,120.582894,0.5524253
C0SA60,知本（水試所）,2025-05-20,22.702394,121.082761,0.13608767
C0T9I0,豐濱,2025-05-20,23.583897,121.514806,0.0036032095
C0UB00,淡江大學蘭陽校園,2025-05-20,24.823239,121.730383,3.4321683e-08
C0W240,九宮,2025-05-20,24.423753,118.240186,2.728431e-08
C0T9N0,富里,2025-05-20,23.171639,121.249378,0.44104508
U2HA50,臺大竹山,2025-05-20,23.756972,120.681556,2.0384854e-09
C0V840,鳳鼻頭,2025-05-20,22.5083,120.3591,1.591413e-05
C0X140,西港,2025-05-20,23.125608,120.203108,1.20651755e-08
72D080,桃改五峰分場,2025-05-20,24.612194,121.157167,9.545172e-10
C2H9P0,伊拿谷,2025-05-20,23.963211,121.088264,8.736517e-10
C2H9F0,柑林,2025-05-20,24.018658,120.847072,3.0955276e-09
C0TA20,加灣,2025-05-20,24.082025,121.608944,0.8990813
C0V530,阿蓮,2025-05-20,22.883208,120.327508,2.2267955e-08
C1O880,關山,2025-05-20,23.173397,120.594092,1.3642539e-08
C0E791,卓蘭,2025-05-20,24.3126,120.8244,3.0249734e-09
C1I030,武界,2025-05-20,23.913225,121.052483,8.7238955e-10
C0R520,崁頂,2025-05-20,22.514781,120.506914,0.1814952
C0R341,牡丹,2025-05-20,22.130036,120.792639,1.4523368e-07
C0R930,萬丹,2025-05-20,22.5885,120.4851,9.826025e-07
C0S760,紅石,2025-05-20,23.069131,121.126219,5.004376e-09
C2C410,中央大學,2025-05-20,24.967652,121.185165,0.00070610543
C1M610,石磐龍,2025-05-20,23.496606,120.663506,1.0891972e-09
C0UA10,鴛鴦湖,2025-05-20,24.590269,121.412228,3.3185659e-09
V2C260,八德蔬果,2025-05-20,24.978508,121.281819,1.6210684e-08
C0R800,丹路,2025-05-20,22.204481,120.750989,0.5574598
C0G920,永靖,2025-05-20,23.924703,120.547533,5.5449414e-09
C2M950,太和,2025-05-20,23.538372,120.702961,1.3075776e-09
C1A630,下盆,2025-05-20,24.771003,121.538622,7.9918117e-10
B2N890,畜產試驗所,2025-05-20,23.058972,120.336406,3.6134928e-09
C0UA30,白嶺,2025-05-20,24.527819,121.519031,3.2177896e-09
C1V580,溪南(特生中心),2025-05-20,23.084972,120.788475,2.877199e-09
C1T970,大農,2025-05-20,23.615233,121.413331,0.0013731212
C0R650,竹田,2025-05-20,22.58486,120.54344,0.0011881641
C1H900,清流,2025-05-20,24.080775,120.962997,1.0936333e-09
C1C510,水尾,2025-05-20,24.940081,121.087161,0.5012337
C0F9X0,大雅(中科園區),2025-05-20,24.21528,120.62445,1.09697424e-08
C0SB60,白守蓮,2025-05-20,23.126769,121.401914,0.9908759
C0O970,虎頭埤,2025-05-20,23.021375,120.347878,1.2924431e-08
C0C730,中大臨海站,2025-05-20,24.966126,121.008581,0.26454887
C0X250,新營,2025-05-20,23.310689,120.316681,8.030015e-09
C0V700,三民,2025-05-20,22.645017,120.311233,9.48269e-07
C0U870,大礁溪,2025-05-20,24.791042,121.675047,3.9995585e-09
C0E870,高鐵苗栗,2025-05-20,24.60725,120.826094,8.045284e-09
A2K570,古坑花卉中心,2025-05-20,23.63353,120.55239,4.4078803e-09
C0TA30,鹽寮,2025-05-20,23.845606,121.592664,0.0003876982
C0M860,新美,2025-05-20,23.338017,120.683169,1.7879218e-09
C1E701,八卦,2025-05-20,24.491756,120.927619,6.661952e-10
C0I420,國姓,2025-05-20,24.037803,120.855072,2.5460687e-09
C2D720,關西工作站,2025-05-20,24.757275,121.184792,2.8366254e-09
C0S960,香蘭,2025-05-20,22.587569,120.993375,0.0022518653
467620,蘭嶼,2025-05-20,22.0369,121.55843,0.46658632
C0R260,春日,2025-05-20,22.370361,120.628306,0.99546534
72G600,臺中農改場,2025-05-20,24.003028,120.534389,9.1617185e-09
C0Z210,瑞穗,2025-05-20,23.5239,121.39021,0.029274864
C0M820,達邦,2025-05-20,23.453994,120.749517,1.0191004e-09
C0V860,南寮,2025-05-20,22.7616,120.2339,6.5048977e-07
C0G740,大城,2025-05-20,23.852487,120.320935,1.0135074e-05
C0R920,塭仔,2025-05-20,22.4169,120.5197,0.9888602
C0R470,高樹,2025-05-20,22.826389,120.600806,1.2299034e-08
C0R680,佳樂水,2025-05-20,21.993578,120.861633,0.17554687
C1O870,大棟山,2025-05-20,23.31157,120.52226,2.1180526e-09
C0D360,梅花,2025-05-20,24.678347,121.208558,8.989224e-10
C0Z190,富世,2025-05-20,24.14743,121.6297,0.023046797
C0AI10,屈尺,2025-05-20,24.92184,121.54475,0.6547611
B2U990,畜試東區分所,2025-05-20,24.669039,121.832561,8.731778e-08
C0SB80,長濱漁港,2025-05-20,23.313644,121.459994,0.0023454754
C0R240,來義,2025-05-20,22.527306,120.625111,0.01803121
C0V910,大樹,2025-05-20,22.684645,120.432803,4.3885038e-08
C1R610,西大武山,2025-05-20,22.617719,120.7322,6.8384223e-09
C0G900,線西,2025-05-20,24.143358,120.443536,0.00015020763
C0M700,竹崎,2025-05-20,23.526178,120.555508,6.4230252e-09
C2E880,三義,2025-05-20,24.405478,120.749819,8.936996e-10
C0C720,竹圍,2025-05-20,25.112692,121.239824,0.874633
C0F9P0,清水,2025-05-20,24.312297,120.562242,0.00010829846
C0Z150,吉安光華,2025-05-20,23.930925,121.595153,0.0005266118
467300,東吉島,2025-05-20,23.25727,119.66762,0.9795263
C1D640,外坪(五指山),2025-05-20,24.644447,121.090961,9.045448e-10
C0F9O0,潭子,2025-05-20,24.213106,120.703933,1.7542543e-08
C2H9R0,卓社,2025-05-20,23.887894,121.000086,8.7686536e-10
72T250,花蓮農改場,2025-05-20,23.975222,121.563889,0.3705456
C0E780,銅鑼,2025-05-20,24.489681,120.790853,3.0695697e-09
C1T950,太安,2025-05-20,23.666719,121.370128,1.3796344e-09
C0E830,苑裡,2025-05-20,24.439714,120.653053,1.9503277e-07
467270,田中,2025-05-20,23.873803,120.581286,1.0955169e-08
C0SA10,檳榔四格山,2025-05-20,22.810031,121.109308,0.043170884
C1T830,布洛灣,2025-05-20,24.17184,121.57127,5.474602e-07
C0F970,大坑,2025-05-20,24.173142,120.722289,2.7721164e-08
C1U920,思源,2025-05-20,24.393125,121.347214,2.3589632e-09
C0A931,三和,2025-05-20,25.233153,121.595236,1.1204679e-08
C0I010,廬山,2025-05-20,24.033311,121.181808,1.632707e-09
C2M940,日野賀,2025-05-20,23.434056,120.727169,1.1076818e-09
C0R860,鼻頭,2025-05-20,22.1043,120.8979,0.47896174
C0UB20,壯圍,2025-05-20,24.7359,121.8163,1.3540367e-07
C0R790,九棚,2025-05-20,22.14195,120.889281,3.3718086e-05
C0W110,東莒,2025-05-20,25.9652,119.98069,1.7975786e-05
C1U930,粉鳥林,2025-05-20,24.497088,121.842479,0.029981466
C1I211,蘆竹湳,2025-05-20,23.934019,120.811994,1.1934459e-09
C0S830,長濱,2025-05-20,23.286817,121.411975,6.465729e-05
C1F9F1,伯公龍,2025-05-20,24.272392,120.849047,2.9228928e-09
C0E810,西湖,2025-05-20,24.562947,120.7485,1.2563517e-08
C1I440,新高口,2025-05-20,23.478744,120.878939,5.3520615e-09
C0O840,王爺宮,2025-05-20,23.222064,120.40085,8.753386e-09
C0T9G0,鳳林山,2025-05-20,23.735269,121.420131,2.5119332e-08
C0X080,佳里,2025-05-20,23.173039,120.145086,2.3463505e-08
C0FB70,大甲溪埔,2025-05-20,24.370625,120.620067,7.227064e-06
C0Z310,清水斷崖,2025-05-20,24.218294,121.689142,2.4493582e-08
C0M680,太保,2025-05-20,23.455062,120.331455,6.135022e-09
C1S820,金峰,2025-05-20,22.590969,120.933236,6.377177e-05
C0AD10,八里,2025-05-20,25.150211,121.403947,0.87970316
C2K240,草嶺,2025-05-20,23.59555,120.693461,7.098147e-10
C1SA70,都蘭,2025-05-20,22.87794,121.226881,0.23743033
C0K440,二崙,2025-05-20,23.772797,120.408944,1.2163051e-08
C1A760,坪林交控,2025-05-20,24.94284,121.713442,2.0128937e-08
C0F9N0,大里,2025-05-20,24.092464,120.701378,1.387052e-08
C0SA90,達仁林場,2025-05-20,22.264347,120.823972,2.1861221e-07
C1R290,石門山,2025-05-20,22.112611,120.756597,0.9380925
42HA10,萬大發電廠,2025-05-20,23.978875,121.139639,9.938651e-10
C0R890,山海,2025-05-20,21.9878,120.7091,0.095054604
C0T9A0,月眉山,2025-05-20,23.809928,121.539828,1.4446929e-08
C0AC70,信義,2025-05-20,25.037822,121.564597,3.0236368e-08
C0K560,棋山,2025-05-20,23.68645,120.603417,3.921654e-09
C2FB50,出雲,2025-05-20,24.206469,120.902794,1.2496452e-09
C1Z240,中平林道,2025-05-20,23.42115,121.26763,1.3791635e-09
U2H480,溪頭,2025-05-20,23.670306,120.798194,8.533485e-10
C0M880,好美里,2025-05-20,23.3364,120.138,1.4355406e-08
C0T9E0,大坑,2025-05-20,23.880628,121.581981,2.3452767e-08
C0K530,臺西,2025-05-20,23.701547,120.197559,2.338218e-07
C1E900,國一N128K,2025-05-20,24.560997,120.844186,6.0053997e-09
C0AJ50,水湳洞,2025-05-20,25.123695,121.862238,9.362899e-08
C0AI20,白沙灣,2025-05-20,25.283128,121.519058,0.08326235
C2V310,美濃,2025-05-20,22.898792,120.51907,1.1456069e-08
C0A860,大坪,2025-05-20,25.165914,121.632969,1.3900598e-09
C1U850,觀音海岸,2025-05-20,24.38319,121.77856,9.618936e-10
C2K610,草嶺石壁,2025-05-20,23.602469,120.707731,7.2848205e-10
C0U950,鶯子嶺,2025-05-20,24.89754,121.79244,1.2207134e-09
C0O900,善化,2025-05-20,23.112883,120.297219,4.0630694e-09
C0K550,蔦松,2025-05-20,23.514319,120.229736,1.727146e-08
E2P980,林試六龜中心,2025-05-20,22.991703,120.645722,5.0788125e-09
C0E590,通霄,2025-05-20,24.471892,120.704622,2.8253792e-08
C1I310,西巒,2025-05-20,23.754486,120.883956,1.0251165e-09
C0A550,泰平,2025-05-20,24.971197,121.823711,1.0085327e-09
C0I360,水里,2025-05-20,23.812553,120.849792,1.466995e-09
C0R830,高士,2025-05-20,22.121825,120.836781,0.9590125
C1I101,溪頭,2025-05-20,23.661789,120.807647,2.19141e-09
C0AJ20,野柳,2025-05-20,25.20703,121.690021,7.3525854e-08
C0B060,暖暖,2025-05-20,25.0957,121.7403,3.2253617e-08
C1H920,長豐,2025-05-20,24.102039,120.879897,1.2988282e-09
C0V360,內門,2025-05-20,22.975481,120.466769,5.36757e-09
C0R850,林邊,2025-05-20,22.4634,120.5339,0.6543483
C0E930,龍鳳,2025-05-20,24.700034,120.859125,4.554722e-08
C0U910,冬山,2025-05-20,24.63373,121.7937,8.731778e-08
C1E721,泰安,2025-05-20,24.489017,120.968036,9.0063684e-10
82H320,茶改中部分場,2025-05-20,23.875611,120.913583,1.1107771e-09
C0M750,布袋,2025-05-20,23.380878,120.167789,7.410645e-09
C1S860,利嘉,2025-05-20,22.809417,121.050528,2.0889367e-07
E2S980,林試太麻里1,2025-05-20,22.598922,120.980044,0.0005035997
C0X170,關廟,2025-05-20,22.963017,120.327797,9.4541655e-09
C0V720,林園,2025-05-20,22.507747,120.394511,0.00018576643
C1I510,線浸林道,2025-05-20,23.761508,120.832956,1.3543053e-09
C0D690,外湖,2025-05-20,24.917735,120.968711,0.6922806
C0C750,新興坑尾,2025-05-20,25.0061,121.0971,0.16904144
B2Q810,畜試南區分所,2025-05-20,21.945583,120.802167,0.17195278
C0S790,金崙,2025-05-20,22.538122,120.966875,4.3882137e-05
C0AH90,福山植物園,2025-05-20,24.760717,121.58135,1.1021939e-09
C0I540,奇萊稜線,2025-05-20,24.109231,121.326456,1.2189108e-08
C0M850,表湖,2025-05-20,23.24186,120.64166,1.6613944e-09
C0S770,大溪山,2025-05-20,22.478475,120.943325,9.001427e-06
C0AG80,中和,2025-05-20,24.991622,121.491792,7.912695e-07
C0T790,大禹嶺,2025-05-20,24.186117,121.316086,7.746199e-09
C0T9B0,水源,2025-05-20,23.991861,121.537169,9.193002e-08
C0R840,牡丹池山,2025-05-20,22.168389,120.841225,2.7989452e-07
C1I131,桶頭,2025-05-20,23.641944,120.654117,1.3719772e-09
CAL110,布袋國中,2025-05-20,23.35893,120.18026,9.0962144e-09
467571,新竹,2025-05-20,24.827853,121.014219,2.5094562e-06
C0Z290,赤柯山,2025-05-20,23.36893,121.38293,1.3794456e-08
C0X280,將軍,2025-05-20,23.214999,120.13577,1.5647306e-08
C0S690,太麻里,2025-05-20,22.60902,120.98533,0.009115708
C0U880,北關,2025-05-20,24.9072,121.8734,4.6822336e-08
C0G810,埔心,2025-05-20,23.947633,120.525456,5.5717e-09
C0U970,大福,2025-05-20,24.80064,121.81389,3.4731893e-05
C2H9N0,仁愛東眼,2025-05-20,24.026875,121.1205,1.4188938e-09
C1E670,南礦,2025-05-20,24.538278,121.002836,6.604677e-10
C0M520,東後寮,2025-05-20,23.369908,120.248065,8.26916e-09
C1E461,松安,2025-05-20,24.397972,120.986022,9.874295e-10
C2N160,西拉雅風管處,2025-05-20,23.189481,120.335297,5.7581335e-09
C2M970,碧湖,2025-05-20,23.568632,120.624165,6.825453e-10
C0A640,石碇,2025-05-20,24.993969,121.662917,6.905371e-05
E2S960,林試太麻里2,2025-05-20,22.598,120.99775,0.0028400833
C0F9Y0,桃山,2025-05-20,24.432739,121.303808,1.8445297e-08
C1I020,萬大,2025-05-20,23.979817,121.132261,7.8146817e-10
C0U940,羅東,2025-05-20,24.68184,121.74934,1.112383e-07
C0M650,朴子,2025-05-20,23.43463,120.23902,5.9826943e-09
C1I500,大尖山,2025-05-20,23.858572,120.994889,3.746246e-09
C0G820,田尾,2025-05-20,23.901669,120.509389,5.585298e-09
E2K600,四湖植物園,2025-05-20,23.676986,120.163433,1.736389e-07
C0S730,綠島,2025-05-20,22.6672,121.47533,0.115121245
12Q970,東港工作站,2025-05-20,22.479997,120.466058,0.6676035
C0E430,南庄,2025-05-20,24.601775,121.000214,2.6287492e-09
C1TA00,太魯閣,2025-05-20,24.15773,121.6236,0.005656442
466920,臺北,2025-05-20,25.037658,121.514853,3.0465554e-08
C0R600,舊泰武,2025-05-20,22.588194,120.664944,3.5841279e-09
C1I260,北坑,2025-05-20,23.9246,121.006903,1.1319963e-09
466910,鞍部,2025-05-20,25.182586,121.529731,6.1442235e-10
C1I230,九份二山,2025-05-20,23.961944,120.845,8.9609264e-10
C2A660,瑞芳,2025-05-20,25.113169,121.801147,3.797644e-08
C0R270,琉球嶼,2025-05-20,22.332244,120.362236,0.22687146
C1T990,高寮,2025-05-20,23.394239,121.356808,0.021620492
C0G620,芬園,2025-05-20,24.015678,120.6213,3.3506402e-09
C1Z140,荖溪,2025-05-20,23.890575,121.45964,1.5221616e-08
C1I201,中心崙,2025-05-20,23.728722,120.712097,6.724776e-10
C1I400,凌霄,2025-05-20,24.018778,121.004456,1.3708681e-09
C1M640,十字,2025-05-20,23.492153,120.753683,2.1084836e-09
G2P820,農試鳳山分所,2025-05-20,22.646611,120.356083,6.035862e-07
C0Z270,蕃薯寮,2025-05-20,23.73835,121.540108,2.1592764e-06
C0F9Q0,外埔,2025-05-20,24.347817,120.705686,9.801045e-09
C0K580,高鐵雲林,2025-05-20,23.737456,120.417944,1.1038775e-08
C2I090,鳳凰,2025-05-20,23.728081,120.787347,8.411816e-10
C0U990,員山,2025-05-20,24.74435,121.72247,1.2924856e-07
C0V770,大社,2025-05-20,22.730306,120.346639,4.7586542e-07
C0X120,麻豆,2025-05-20,23.183289,120.248611,3.998712e-09
C0C670,龍潭,2025-05-20,24.870056,121.221389,5.9078418e-09
C0D680,香山濕地,2025-05-20,24.783581,120.914988,6.9774226e-09
C0S980,勝林山,2025-05-20,22.430439,120.8938,2.7413572e-08
C0V730,大寮,2025-05-20,22.605614,120.395717,0.0002760092
C0R570,麟洛,2025-05-20,22.65078,120.52719,1.3894687e-07
C2M930,石卓,2025-05-20,23.478744,120.702264,2.721299e-09
C0G9B0,和美,2025-05-20,24.105169,120.492131,1.6352158e-07
CAG100,王功漁港,2025-05-20,23.96824,120.32586,2.640645e-05
C0X290,北門,2025-05-20,23.267772,120.125481,1.5607752e-08
C2F930,大甲,2025-05-20,24.347667,120.640403,1.723645e-06
C0D650,湖口,2025-05-20,24.904794,121.043628,0.5396955
C0E420,竹南,2025-05-20,24.708978,120.888897,2.7759313e-08
C0U780,五結,2025-05-20,24.68637,121.79794,1.3545663e-07
C1I250,鯉潭,2025-05-20,23.961922,120.991131,1.0561876e-09
C0R130,阿禮,2025-05-20,22.742908,120.743678,9.096562e-09
C0X100,臺南市北區,2025-05-20,23.010394,120.194228,1.7297968e-08
C0S920,金峰嘉蘭,2025-05-20,22.594789,120.960825,0.0004343199
C0V490,新興,2025-05-20,22.627422,120.298803,1.4215868e-05
C0F9K0,大安,2025-05-20,24.345061,120.588025,1.0722237e-05
467290,古坑,2025-05-20,23.633639,120.551889,4.4078803e-09
C2E970,八甲,2025-05-20,24.535811,120.795983,3.4709284e-09
C0V440,鳳山,2025-05-20,22.646653,120.356122,6.035862e-07
C1T940,大觀,2025-05-20,23.714206,121.373133,4.912642e-08
C0E740,造橋,2025-05-20,24.637056,120.864778,8.860149e-09
C0R100,尾寮山,2025-05-20,22.833111,120.683889,1.0185198e-08
A2K630,臺大雲林校區,2025-05-20,23.730628,120.423903,1.1047474e-08
467990,馬祖,2025-05-20,26.169467,119.923158,6.5381625e-09
C0D580,寶山,2025-05-20,24.735006,121.025192,2.8809386e-09
E2P990,林試扇平站,2025-05-20,22.9677,120.6857,6.794572e-08
C0AI30,三重,2025-05-20,25.057328,121.500629,3.3302538e-08
C0AH00,汐止,2025-05-20,25.066881,121.658778,3.0465554e-08
C1Z040,立山,2025-05-20,23.443356,121.327375,5.170665e-08
466881,新北,2025-05-20,24.959207,121.525196,5.490696e-07
C0W130,花嶼,2025-05-20,23.40007,119.32276,0.14329495
C0A950,鼻頭角,2025-05-20,25.129036,121.923372,0.81415415
C0K470,林內,2025-05-20,23.748675,120.609642,3.1516783e-09
C2F990,摩天嶺,2025-05-20,24.322458,120.936819,1.4711589e-09
82C160,茶改場,2025-05-20,24.908472,121.185333,2.3265535e-07
C0Z320,清水林道,2025-05-20,23.27125,121.188272,2.0622872e-08
C0R760,南仁湖,2025-05-20,22.084681,120.863353,0.9387966
C0M670,大林,2025-05-20,23.600616,120.45841,4.043001e-09
C0M800,茶山,2025-05-20,23.299075,120.664767,2.8097875e-09
C0A9C0,天母,2025-05-20,25.117494,121.537169,5.5934294e-07
72K220,南改斗南分場,2025-05-20,23.634556,120.477333,5.810738e-09
72AI40,桃改樹林分場,2025-05-20,24.944503,121.386972,0.0039620893
C0S910,蘭嶼燈塔,2025-05-20,22.081197,121.503117,0.11039388
C0B050,八斗子,2025-05-20,25.144754,121.79167,1.2501934e-07
C0U900,內城,2025-05-20,24.71813,121.68766,9.04675e-08
C0X320,柳營,2025-05-20,23.253328,120.375253,1.1982774e-08
C0M790,新港,2025-05-20,23.553269,120.345728,6.8961987e-09
C0F9T0,西屯,2025-05-20,24.179494,120.641275,4.9317848e-08
C0SA30,都歷,2025-05-20,23.020333,121.323642,0.8271922
C0C620,蘆竹,2025-05-20,25.084275,121.265767,0.8077689
C0R730,大坪頂,2025-05-20,22.024633,120.69355,0.5737894
C0AJ40,石門,2025-05-20,25.273672,121.601198,0.0018802779
C0E750,苗栗,2025-05-20,24.564569,120.824575,6.128753e-09
C0T870,鯉魚潭,2025-05-20,23.935639,121.508944,1.1625644e-05
C1V170,排雲,2025-05-20,23.463619,120.954147,1.7312194e-08
C2H950,中寮,2025-05-20,23.884447,120.766406,6.357622e-09
C0R350,貓鼻頭,2025-05-20,21.921774,120.7358,0.14714776
C0V660,岡山,2025-05-20,22.797078,120.294958,1.0104571e-07
C1H941,雙冬,2025-05-20,23.967378,120.802189,1.1104594e-09
C0AJ70,田寮,2025-05-20,25.2698,121.4886,0.08388113
C0AI00,五股,2025-05-20,25.07445,121.42728,1.9604082e-08
C0Z280,德武,2025-05-20,23.47426,121.41071,0.00010076867
C0R700,枋山,2025-05-20,22.246844,120.661086,0.22409588
C0C460,復興,2025-05-20,24.820208,121.352281,2.0732545e-09
E2H360,蓮華池,2025-05-20,23.918333,120.885278,1.0456322e-09
C0M640,中埔,2025-05-20,23.42538,120.5229,4.6695314e-09
C0W140,金沙,2025-05-20,24.488292,118.408778,4.6902066e-08
C2A540,四堵,2025-05-20,24.8926,121.745736,1.2156297e-09
C0ACA0,新莊,2025-05-20,25.051478,121.446756,3.317565e-07
C0R220,潮州,2025-05-20,22.534361,120.54,0.18729936
U2HA40,臺大內茅埔,2025-05-20,23.689722,120.851117,1.3413897e-09
467490,臺中,2025-05-20,24.145736,120.684075,3.4971126e-08
C0U960,翠峰湖,2025-05-20,24.510856,121.608044,6.816909e-09
E2HA20,林試畢祿溪站,2025-05-20,24.226944,121.308522,4.5702535e-09
C0V890,前鎮,2025-05-20,22.5718,120.3117,1.6347356e-05
C1F941,雪嶺,2025-05-20,24.280586,121.026642,8.9795975e-09
C2H9E0,國姓南港,2025-05-20,23.911108,120.846556,1.0154506e-09
C0AC80,文山,2025-05-20,25.00235,121.575728,4.2417932e-07
C0F9R0,龍井,2025-05-20,24.184536,120.528972,0.00060180674
C0M760,民雄,2025-05-20,23.551754,120.428457,4.461132e-09
C0UA40,西德山,2025-05-20,24.560647,121.752608,2.677454e-09
C1T920,中興,2025-05-20,23.769503,121.498653,0.00012894612
C0D550,雪霸,2025-05-20,24.526972,121.11605,3.648724e-09
C2F860,梨山,2025-05-20,24.247522,121.243669,4.7812057e-09
C0R320,車城,2025-05-20,22.0744,120.716247,0.1598544
C1S870,南美山,2025-05-20,23.15025,121.382333,0.4975966
C0B020,基隆嶼,2025-05-20,25.19141,121.78391,0.9325038
C1U501,牛鬥,2025-05-20,24.637836,121.573656,8.018536e-09
C0M730,嘉義市東區,2025-05-20,23.457673,120.460531,5.7834715e-09
C0S700,知本,2025-05-20,22.684866,121.005642,7.055156e-06
C1N001,沙崙,2025-05-20,22.935472,120.309406,1.02800115e-08
C0V760,橋頭,2025-05-20,22.757806,120.30575,4.903763e-07
C0G960,福寶,2025-05-20,24.0443,120.3814,2.1056839e-07
C0X210,白河,2025-05-20,23.347466,120.414427,6.668057e-09
C0S810,東河,2025-05-20,22.972672,121.303986,0.87325746
C2R170,屏東,2025-05-20,22.66027,120.49403,1.3879762e-07
C0R670,楓港,2025-05-20,22.190131,120.692156,0.0001406459
C0FA50,霧峰,2025-05-20,24.0419,120.6995,1.3261192e-08
C0UB10,蘇澳,2025-05-20,24.5969,121.8571,5.60776e-08
C0G950,防潮門,2025-05-20,24.1835,120.4871,0.00062000856
C0M740,六腳,2025-05-20,23.492871,120.290625,5.7848175e-09
C1R250,力里,2025-05-20,22.428117,120.629228,0.63413364
C0K330,虎尾,2025-05-20,23.719183,120.442036,9.916937e-09
C2FA00,烏石坑,2025-05-20,24.273503,120.947617,1.4769478e-09
C0V620,永安,2025-05-20,22.82315,120.236856,1.02011626e-07
C1I330,楓樹林,2025-05-20,23.986803,121.076117,8.063177e-10
C0W200,湖西,2025-05-20,23.596314,119.67275,0.9522899
72Q010,高雄農改場,2025-05-20,22.709333,120.525889,3.6639918e-08
C0SA40,瑞和,2025-05-20,22.974361,121.156697,0.14989235
C0C680,龜山,2025-05-20,25.02846,121.38656,0.0011160203
C2V260,月眉,2025-05-20,22.971003,120.539853,1.4275186e-08
C0V450,鳳森,2025-05-20,22.545064,120.392592,3.675808e-05
C0U720,南山,2025-05-20,24.43742,121.38167,2.492655e-09
A2N290,臺南蘭花園區,2025-05-20,23.340258,120.379661,6.729835e-09
C0R560,新園,2025-05-20,22.5434,120.461558,0.00018576643
C0U890,三星,2025-05-20,24.66812,121.65302,2.498449e-08
C1V300,御油山,2025-05-20,23.001983,120.715364,2.6672242e-09
C0U600,礁溪,2025-05-20,24.817539,121.765608,0.0005122132
C1T980,龍澗,2025-05-20,24.023289,121.411328,1.1991989e-08
C0D670,海天一線,2025-05-20,24.831986,120.914438,0.07101168
C0SA00,歷坵,2025-05-20,22.520969,120.89185,1.2453567e-06
C0M710,東石,2025-05-20,23.458927,120.15385,2.3204886e-07
C0M780,鹿草,2025-05-20,23.41134,120.30835,5.7820375e-09
C0U520,雙連埤,2025-05-20,24.753033,121.641303,3.9465964e-09
C0B010,七堵,2025-05-20,25.094819,121.71713,5.13685e-08
C0R480,長治,2025-05-20,22.693128,120.542622,3.670672e-08
C1V830,國三S383K,2025-05-20,22.781967,120.426475,2.1865803e-08
12Q980,恆春工作站,2025-05-20,22.079678,120.714425,0.15996125
C1O940,東山服務區,2025-05-20,23.286016,120.398472,9.376406e-09
C1U840,東澳嶺,2025-05-20,24.5378,121.8485,1.0567316e-09
C1D630,飛鳳山,2025-05-20,24.766464,121.119178,9.034051e-10
C0S940,石寧山,2025-05-20,23.223772,121.406639,0.001752989
C0K410,北港,2025-05-20,23.573957,120.292802,9.622206e-09
C2M620,瑞里,2025-05-20,23.545133,120.675197,1.1880813e-09
C0SB70,小港漁港,2025-05-20,23.158558,121.400431,0.9859337
C2O950,安南,2025-05-20,23.076694,120.144861,4.38642e-08
C0F0E0,南湖圈谷,2025-05-20,24.363714,121.444667,2.4098396e-08
467610,成功,2025-05-20,23.097486,121.373428,0.9936286
C0G890,伸港,2025-05-20,24.148933,120.484403,0.0001443979
C2E540,龍溪,2025-05-20,24.606489,120.783933,8.279323e-09
C1V200,梅山,2025-05-20,23.268447,120.823556,2.741931e-09
C0T9H0,加路蘭山,2025-05-20,23.682947,121.5274,2.1356716e-08
C2O930,玉井,2025-05-20,23.126042,120.46055,2.1071621e-08
C1F911,新伯公,2025-05-20,24.221361,120.841069,4.454016e-09
C0R490,九如,2025-05-20,22.7405,120.490503,4.0831928e-08
C0X200,左鎮,2025-05-20,23.056758,120.408522,2.01511e-08
C0SB50,叭嗡嗡,2025-05-20,23.047062,121.343223,0.9551806
C1F891,稍來,2025-05-20,24.265689,121.001142,6.2272383e-09
72N240,七股研究中心,2025-05-20,23.081672,120.062894,7.971875e-08
C0C700,中壢,2025-05-20,24.977661,121.256375,1.3061151e-08
C0M690,水上,2025-05-20,23.419734,120.388909,5.5073968e-09
C0V690,鼓山,2025-05-20,22.623325,120.275575,1.4651184e-05
C0O860,大內,2025-05-20,23.11885,120.36083,3.6548813e-09
C0Z200,萬榮,2025-05-20,23.709219,121.420106,0.0001323165
C0T9D0,和中,2025-05-20,24.26676,121.74103,0.087597966
C1O921,楠西,2025-05-20,23.183511,120.484083,3.2572746e-08
C0AJ30,淡水觀海,2025-05-20,25.184591,121.408616,2.1279931e-05
C0V810,左營,2025-05-20,22.67491,120.28491,9.5078644e-07
C0UA70,桃源谷,2025-05-20,24.962606,121.888875,2.6760194e-09
C0X130,官田,2025-05-20,23.193217,120.315422,6.023525e-09
C1H000,翠峰,2025-05-20,24.109397,121.205211,4.395631e-09
C0UA90,石城,2025-05-20,24.980444,121.951214,4.3806928e-08
C1E681,南勢山,2025-05-20,24.421669,120.923831,8.3687673e-10
C0A9F0,內湖,2025-05-20,25.079422,121.57545,3.0465554e-08
C0K291,宜梧,2025-05-20,23.536281,120.169329,1.7405728e-08
C1K540,口湖,2025-05-20,23.585344,120.180517,1.7067696e-07
C0R780,滿州,2025-05-20,22.024403,120.839892,0.20473947
C0V870,文安,2025-05-20,22.8025,120.2164,1.04909105e-07
C0U650,玉蘭,2025-05-20,24.675286,121.587061,4.4511537e-09
C0R640,東港,2025-05-20,22.46247,120.44074,0.66727835
C0AJ80,板橋,2025-05-20,25.0107,121.4489,8.7788925e-07
C0S660,下馬,2025-05-20,23.150427,121.070312,4.188203e-08
C1H9B1,阿眉,2025-05-20,24.1263,120.994672,3.57134e-09
C0UA20,多加屯,2025-05-20,24.368614,121.373189,7.637489e-09
C0E730,頭份,2025-05-20,24.688247,120.912206,2.9298043e-08
72V140,高改旗南分場,2025-05-20,22.857861,120.516667,7.916068e-09
C0K480,莿桐,2025-05-20,23.761192,120.502372,1.406465e-08
C0U980,坪林石牌,2025-05-20,24.86478,121.77396,8.504129e-09
C0T900,西林,2025-05-20,23.8119,121.441458,8.139452e-06
C1I150,青雲,2025-05-20,23.793361,120.949378,1.0597149e-09
467350,澎湖,2025-05-20,23.565503,119.563094,0.5115376
C0G800,埔鹽,2025-05-20,24.000394,120.431683,1.4605708e-07
C0H960,草屯,2025-05-20,23.973672,120.68085,1.0641714e-08
C1V780,多納林道,2025-05-20,22.888028,120.737917,1.0461688e-09
C0E920,通霄漁港,2025-05-20,24.498589,120.673876,9.665417e-08
C0Z330,安通山,2025-05-20,23.290728,121.348528,3.8257654e-06
C0AH10,永和,2025-05-20,25.01125,121.508111,8.5439217e-07
C0AK10,太平里,2025-05-20,25.134937,121.364899,0.8604682
C2G640,鹿港,2025-05-20,24.0753,120.430481,2.111872e-07
C1E890,國三N149K,2025-05-20,24.463414,120.680019,5.609696e-08
C1R110,口社,2025-05-20,22.770111,120.645222,1.3477407e-07
C1M870,國三N285K,2025-05-20,23.550319,120.505833,6.9385377e-09
C1E480,鳳美,2025-05-20,24.554803,121.034747,7.1364015e-10
C0M530,奮起湖,2025-05-20,23.493903,120.699253,1.3219517e-09
C0C590,觀音,2025-05-20,25.027072,121.153317,0.008519565
C0T9M0,靜浦,2025-05-20,23.455167,121.495028,0.002837492
C2H9M0,發祥,2025-05-20,24.154094,121.164517,1.2538065e-09
C0AI40,石牌,2025-05-20,25.115597,121.513139,6.0961645e-07
C1F871,上谷關,2025-05-20,24.203483,121.018644,1.2415935e-09
C2H9G0,百勝,2025-05-20,24.051142,120.909361,3.309937e-09
C0G880,二水,2025-05-20,23.810742,120.6173,3.332552e-09
C0R940,加祿堂,2025-05-20,22.3363,120.6217,0.06424249
C0W220,北竿,2025-05-20,26.220358,119.974881,1.0102428e-08
C0O960,崎頂,2025-05-20,22.959547,120.369317,6.404834e-09
C0S750,向陽,2025-05-20,23.248397,120.986133,4.3429043e-09
C0T9F0,水璉,2025-05-20,23.797131,121.542514,7.8998767e-07
C1M600,頭凍,2025-05-20,23.406364,120.603339,1.3331511e-09
467660,臺東,2025-05-20,22.752211,121.154586,0.76167315
C1D380,新埔,2025-05-20,24.84745,121.03834,8.596147e-07
C2G980,田頭村,2025-05-20,23.8263,120.444175,1.2154355e-08
C0V750,路竹,2025-05-20,22.854997,120.259439,1.1518215e-06
C0N050,蚵寮,2025-05-20,23.301,120.1104,1.43366075e-08
72M700,南改鹿草分場,2025-05-20,23.416869,120.283061,5.98758e-09
C1SA50,利嘉林道,2025-05-20,22.82325,121.009389,7.476617e-10
C0A940,金山,2025-05-20,25.223628,121.643967,5.856014e-08
C1V340,大津,2025-05-20,22.888322,120.645986,1.285067e-07
C0W180,七美,2025-05-20,23.219333,119.444892,0.30878407
C1F9C1,白冷,2025-05-20,24.182844,120.929889,1.8525641e-09
K2E710,苗改生物防治研究中心,2025-05-20,24.422861,120.871833,2.4655797e-09
C0N040,蘆竹溝,2025-05-20,23.2344,120.0961,1.5602424e-08
C2W230,畜試所澎湖,2025-05-20,23.628342,119.513206,0.092772774
C0R880,後壁湖,2025-05-20,21.9457,120.7457,0.096111156
C1I280,埔中,2025-05-20,23.820778,120.642594,1.0229231e-09
467790,墾丁雷達站,2025-05-20,21.948235,120.808028,0.19764702
C0W190,望安,2025-05-20,23.380564,119.494075,0.32538575
C0Z170,卓溪,2025-05-20,23.3443,121.3029,0.0010604697
C0F850,東勢,2025-05-20,24.246428,120.833047,3.7423824e-09
466900,淡水,2025-05-20,25.164889,121.448906,0.8617751
C0I370,魚池,2025-05-20,23.895703,120.94135,1.0162974e-09
C0C630,大溪,2025-05-20,24.882853,121.265547,5.444355e-09
C0A520,山佳,2025-05-20,24.974944,121.402008,0.8003309
C0I110,竹山,2025-05-20,23.761225,120.688156,2.1346445e-09
82H840,茶改南部分場,2025-05-20,23.762528,120.7405,1.0591167e-09
C0G660,溪湖,2025-05-20,23.94835,120.479122,6.0220775e-09
C1T800,洛韶,2025-05-20,24.204558,121.453956,3.9248045e-09
C1T810,慈恩,2025-05-20,24.192044,121.388386,2.5129336e-09
C1E451,象鼻,2025-05-20,24.368617,120.940228,1.0464503e-09
C0AC60,三峽,2025-05-20,24.939025,121.369728,8.4080064e-08
C0I490,萬大林道,2025-05-20,23.928228,121.091411,2.0610633e-09
C1I290,豐丘,2025-05-20,23.668178,120.887417,8.6473256e-10
C1I320,奧萬大,2025-05-20,23.952956,121.178556,9.364356e-10
C2M910,嘉義大學,2025-05-20,23.471325,120.485903,7.409076e-09
C0U770,南澳,2025-05-20,24.44935,121.81022,4.3804903e-06
C0A980,社子,2025-05-20,25.109508,121.469681,0.87714726
C0V800,六龜,2025-05-20,22.997889,120.633583,5.690637e-09
C1G9D0,國一S218K,2025-05-20,23.890641,120.493253,6.6511507e-09
C0E570,白沙屯,2025-05-20,24.549447,120.696803,2.3626567e-08
C2F9A0,中竹林,2025-05-20,24.103556,120.751061,1.819562e-09
C0FA40,臺中電廠,2025-05-20,24.2146,120.4907,0.00060293515
C2G9A0,畜試所彰化,2025-05-20,23.86045,120.557964,1.10645555e-08
C0H9C0,合歡山,2025-05-20,24.143442,121.272547,1.4702114e-08
C0X060,下營,2025-05-20,23.22695,120.256261,7.557874e-09
G2M350,農試溪口農場,2025-05-20,23.58565,120.408111,4.8718345e-09
C0U860,頭城,2025-05-20,24.85323,121.8308,0.00071253127
C0R580,南州,2025-05-20,22.48591,120.50274,0.66727835
C0D430,峨眉,2025-05-20,24.6905,121.017189,2.5372022e-09
C0G780,秀水,2025-05-20,24.03405,120.503869,9.159517e-09
72N100,臺南農改場,2025-05-20,23.0605,120.342194,3.557213e-09
C0S900,蘭嶼高中,2025-05-20,22.04909,121.51214,0.07353318
C1F9W0,德基,2025-05-20,24.254783,121.190261,4.6845807e-09
C1Z120,壽豐,2025-05-20,23.870853,121.508081,0.00016059865
C0W160,烏坵,2025-05-20,24.9944,119.44956,0.0006194814
C1I240,外大坪,2025-05-20,23.958697,120.917931,1.0329004e-09
C1I550,國六W023K,2025-05-20,23.979067,120.867742,2.55919e-09
C0R870,興海,2025-05-20,21.9752,120.8439,0.17214334
C0R140,瑪家,2025-05-20,22.682903,120.686639,4.0788315e-09
C0A530,坪林,2025-05-20,24.938183,121.70975,1.1447245e-08
C0X260,後壁,2025-05-20,23.366358,120.362326,7.855618e-09
C0Z230,和平,2025-05-20,24.30717,121.77007,0.1290622
C0G770,福興,2025-05-20,24.041289,120.437669,1.5032339e-07
C0H9A0,神木村,2025-05-20,23.532742,120.843667,3.054385e-09
C0I460,南投,2025-05-20,23.911469,120.687331,3.529445e-08
C0I480,梅峰,2025-05-20,24.085272,121.173572,3.243788e-09
C1V570,吉東,2025-05-20,22.85422,120.5454,7.1366233e-09
C2D740,屯原,2025-05-20,24.067969,121.209389,3.4929908e-09
C2A560,福山,2025-05-20,24.776203,121.502811,1.3784113e-09
C0AH30,五分山,2025-05-20,25.07125,121.780794,7.5352136e-10
C0FA10,松柏,2025-05-20,24.429115,120.617482,2.5789123e-07
72S200,東改班鳩分場,2025-05-20,22.829528,121.077694,0.0913241
72HA00,中改埔里分場,2025-05-20,23.903208,120.963364,1.0748437e-09
C2H9W0,大坪頂農水,2025-05-20,24.043122,120.932781,1.2837624e-09
C0C650,平鎮,2025-05-20,24.897503,121.214636,1.2824097e-08
C0S930,延平,2025-05-20,22.902581,121.084058,0.03207964
C0UA60,樟樹山,2025-05-20,24.41393,121.78325,5.430085e-09
C1S670,摩天,2025-05-20,23.199503,121.027,4.886063e-09
C0V630,茄萣,2025-05-20,22.906642,120.182608,7.8390975e-08
466940,基隆,2025-05-20,25.133314,121.740475,1.17453865e-07
C0X050,東河,2025-05-20,23.296598,120.385608,1.02894075e-08
C0R770,保力,2025-05-20,22.071122,120.764111,0.38155895
G2L020,農試嘉義分所,2025-05-20,23.485028,120.473806,9.844005e-09
C0X240,關子嶺,2025-05-20,23.331169,120.508025,2.2333704e-09
C0I380,集集,2025-05-20,23.828206,120.801467,1.5292964e-09
466990,花蓮,2025-05-20,23.975128,121.613275,0.5677015
C1V220,小關山,2025-05-20,23.154217,120.813603,3.4432477e-09
C1F9G1,慶福山,2025-05-20,24.180853,120.848378,1.2140957e-09
C0Z250,瑞穗林道,2025-05-20,23.49284,121.30688,1.5626628e-09
C0D590,新豐,2025-05-20,24.87068,120.97721,0.07764854
C0A870,五指山,2025-05-20,25.132153,121.608692,6.3270256e-10
C0UA50,西帽山,2025-05-20,24.555361,121.802628,1.1178674e-09
C0X160,仁德,2025-05-20,22.968258,120.257689,2.3494584e-08
C1H971,六分寮,2025-05-20,23.92507,120.6378,1.5604023e-09
C0W120,西嶼,2025-05-20,23.5626,119.468436,0.24700466
C0G650,員林,2025-05-20,23.946503,120.585597,4.921418e-09
C0AD50,鶯歌,2025-05-20,24.951533,121.346294,4.9227815e-08
C2H9Q0,北東眼山,2025-05-20,24.120939,121.189303,4.0136428e-09
C2H9T0,名間竹圍,2025-05-20,23.859914,120.637572,1.3185094e-09
C0S990,山豬窟,2025-05-20,22.318619,120.857372,1.5510388e-05
C0X190,安平,2025-05-20,22.993161,120.152181,1.724733e-08
C0K400,斗六,2025-05-20,23.720583,120.541127,6.637616e-09
12J990,口湖工作站,2025-05-20,23.589978,120.180394,1.7134725e-07
C0O830,北寮,2025-05-20,23.079561,120.495008,1.3197908e-08
C1D410,白蘭,2025-05-20,24.579364,121.079947,7.2958056e-10
C0S970,加津林,2025-05-20,22.416211,120.926942,0.003211492
C0D700,關西,2025-05-20,24.7977,121.1732,2.057548e-09
C0M810,里佳,2025-05-20,23.389125,120.716647,1.5390288e-09
C0U750,龜山島,2025-05-20,24.841667,121.953133,0.12904552
C0R810,內獅,2025-05-20,22.305064,120.642986,0.06495291
C1M390,龍美,2025-05-20,23.406728,120.654417,1.3213542e-09
C2FB60,頭櫃山,2025-05-20,24.129842,120.858925,1.3641205e-09
C1H840,國三N238K,2025-05-20,23.841008,120.707711,1.6477392e-09
CAQ030,崎峰國小,2025-05-20,22.42565,120.49521,0.66727835
C2E520,大湖,2025-05-20,24.414939,120.870872,1.7355329e-09
467530,阿里山,2025-05-20,23.508208,120.813242,5.5422555e-09
C1E691,南湖,2025-05-20,24.40135,120.837533,8.3872564e-10
C0FA30,梧棲,2025-05-20,24.256003,120.523381,0.000110871275
C1V231,高中,2025-05-20,23.134911,120.716711,1.2444361e-09
C0AK30,硬漢嶺,2025-05-20,25.136097,121.426372,6.956423e-10
C0F9V0,新社,2025-05-20,24.200172,120.815806,2.5085518e-09
C0H890,埔里,2025-05-20,23.972169,120.952425,2.765598e-09
C0R690,墾丁,2025-05-20,21.966756,120.810269,0.4783925
C0F0D0,審馬陣,2025-05-20,24.381675,121.4203,1.9340796e-08
C2W030,金門農試所,2025-05-20,24.448431,118.451786,3.256411e-08
C0R820,白鷺,2025-05-20,22.454275,120.666219,4.155955e-05
C1V190,南天池,2025-05-20,23.27403,120.91176,5.0190967e-09
K2E360,苗栗農改場,2025-05-20,24.495722,120.829111,4.409234e-09
CAJ050,海口故事園區,2025-05-20,23.57543,120.14121,1.7105303e-07
C2H9D0,三隻寮,2025-05-20,24.093078,120.861578,1.2588218e-09
C0O990,媽廟,2025-05-20,22.99175,120.293525,1.690216e-08
C0D480,打鐵坑,2025-05-20,24.849664,121.150789,5.87726e-09
C0Z220,和平林道,2025-05-20,24.343922,121.656317,1.7941129e-06
C0TA10,花蓮漁港,2025-05-20,23.995322,121.638331,0.6494392
72C440,桃園農改場,2025-05-20,24.950944,121.030583,0.694218
C1E711,馬拉邦山,2025-05-20,24.367306,120.901656,7.7832796e-10
C0SB20,富岡,2025-05-20,22.792467,121.192669,0.53259504
C0D560,竹東,2025-05-20,24.767147,121.057881,3.2933372e-09
C0F9U0,南屯,2025-05-20,24.137006,120.637969,1.47615715e-08
C0M720,番路,2025-05-20,23.464657,120.554156,2.5524483e-09
C0F0A0,雪山圈谷,2025-05-20,24.388594,121.236339,2.3567157e-08
C1A9N0,四十份,2025-05-20,24.934158,121.593283,3.1675944e-09
C0U760,東澳,2025-05-20,24.52196,121.83318,0.017508253
C0X230,鹽水,2025-05-20,23.272621,120.247641,1.37507445e-08
C2H9H0,苗改南投蜂場,2025-05-20,23.852589,120.693481,4.4522745e-09
C0R950,萬隆國小,2025-05-20,22.507667,120.587817,0.052621413
467540,大武,2025-05-20,22.35572,120.90374,0.008438227
C0V370,古亭坑,2025-05-20,22.893178,120.401947,3.0948797e-08
C1I340,新興橋,2025-05-20,23.563333,120.868728,7.3240813e-10
C0SA80,土坂,2025-05-20,22.453108,120.887572,0.00019206868
C0R160,鹽埔,2025-05-20,22.739558,120.530778,3.574756e-08
C0AC40,大屯山,2025-05-20,25.175675,121.522408,7.654241e-10
466850,五分山雷達站,2025-05-20,25.071182,121.781205,7.612412e-10
C2H9L0,馬烈霸,2025-05-20,24.1512,121.201772,3.0902065e-09
C1AI50,國三N016K,2025-05-20,25.034164,121.619664,2.3083265e-08
C1V600,藤枝,2025-05-20,23.071961,120.757042,4.459856e-09
C1E601,南勢,2025-05-20,24.572486,120.734842,6.554907e-09
C0O980,新市,2025-05-20,23.061614,120.298197,4.0114614e-09
C0K420,西螺,2025-05-20,23.800407,120.467394,1.1596129e-08
C0Z050,佳心,2025-05-20,23.34567,121.21316,1.7024526e-08
C0AD30,蘆洲,2025-05-20,25.086594,121.472331,3.324694e-08
C0V610,梓官,2025-05-20,22.760558,120.267211,4.980962e-07
K2F750,種苗改良場,2025-05-20,24.225972,120.800917,3.229355e-09
C0UA80,大溪漁港,2025-05-20,24.941801,121.902955,1.0155405e-07
C1AI60,國一39K邊坡,2025-05-20,25.064361,121.383836,0.00567842
C0W150,金寧,2025-05-20,24.457703,118.328989,3.0072393e-08
C0R960,內埔,2025-05-20,22.608483,120.570714,0.0009416968
V2C250,八德合作社,2025-05-20,24.93775,121.266389,2.276209e-08
C2H9S0,龍南,2025-05-20,23.953536,120.833183,1.0795034e-09
C0AH40,平等,2025-05-20,25.129142,121.577086,1.0725603e-09
C0R540,佳冬,2025-05-20,22.419456,120.552375,0.9912412
466950,彭佳嶼,2025-05-20,25.627975,122.079744,0.9993103
C0A890,雙溪,2025-05-20,25.036003,121.864242,9.286068e-08
C0C480,桃園,2025-05-20,24.992425,121.323172,1.8371844e-08
C0AH50,林口,2025-05-20,25.072181,121.38084,0.0005262721
A2K360,水試臺西試驗場,2025-05-20,23.717231,120.190522,2.5604956e-07
C2M960,外寮,2025-05-20,23.562643,120.665688,6.943671e-10
C0F9S0,烏日,2025-05-20,24.107058,120.624103,1.2922435e-08
C0C490,八德,2025-05-20,24.928708,121.283289,2.243503e-08
C0R190,赤山,2025-05-20,22.592333,120.614306,0.00057285145
C0T820,天祥,2025-05-20,24.179597,121.495639,4.5240636e-08
C1F9E1,龍安,2025-05-20,24.1605,120.831961,2.3359006e-09
C0V820,小林,2025-05-20,23.148408,120.63325,5.3116778e-09
C2G870,芳苑,2025-05-20,23.922303,120.320025,1.9128443e-05
C0E850,大河,2025-05-20,24.618069,120.948578,4.1403623e-09
C1U670,寒溪,2025-05-20,24.634,121.71691,4.0209546e-08
C0N020,城西,2025-05-20,23.0568,120.0956,2.5480375e-08
C1Z110,三棧,2025-05-20,24.11557,121.60501,2.3766544e-08
C0R280,檳榔,2025-05-20,22.076078,120.836777,0.88540393
C2H9J0,中台,2025-05-20,23.9996,120.938739,2.2169584e-09
C0F9L0,后里,2025-05-20,24.310436,120.729725,3.1209666e-09
467441,高雄,2025-05-20,22.730432,120.312516,4.69022e-07
C0Z180,新城,2025-05-20,24.040486,121.604878,0.505702
C0D540,橫山,2025-05-20,24.71116,121.11693,2.0309177e-09
C1D420,太閣南,2025-05-20,24.632808,121.160575,4.245199e-09
C1E770,公館,2025-05-20,24.526914,120.830806,5.2633804e-09
CAN130,水試所海水繁養殖中心,2025-05-20,23.120802,120.07968,7.84309e-08
C1I430,翠華,2025-05-20,24.191961,121.224339,4.5979087e-09
C1M400,菜瓜坪,2025-05-20,23.251928,120.576103,2.1328332e-09
C0G730,二林,2025-05-20,23.903325,120.376081,6.804415e-08
72M360,南改義竹分場,2025-05-20,23.360694,120.279361,8.386957e-09
V2K620,麥寮合作社,2025-05-20,23.753836,120.294783,7.773937e-09
C0Z070,舞鶴,2025-05-20,23.46811,121.37407,3.3955388e-05
C0B040,大武崙,2025-05-20,25.166676,121.706993,7.561871e-08
C1Z030,紅葉,2025-05-20,23.493119,121.338806,0.0077990964
C1I050,丹大,2025-05-20,23.753747,121.141147,5.4329443e-09
C0I080,信義,2025-05-20,23.689694,120.851036,1.3413897e-09
C2M920,朴子農改,2025-05-20,23.469889,120.259383,5.9873972e-09
C2A880,福隆,2025-05-20,25.017842,121.942083,4.9548472e-08
C0Z160,鳳林,2025-05-20,23.746114,121.453411,0.0003649834
C0V210,復興,2025-05-20,23.222403,120.806089,7.3999247e-09
C0H990,昆陽,2025-05-20,24.121322,121.273642,9.880027e-09
C0R741,獅子,2025-05-20,22.202308,120.705236,0.90543085
C0S710,鹿野,2025-05-20,22.917711,121.122994,0.032839555
C0I530,小奇萊,2025-05-20,24.131764,121.295717,1.0533575e-08
C2K630,荷苞,2025-05-20,23.657717,120.595144,2.911681e-09
C0Z080,富源,2025-05-20,23.587642,121.378225,1.4878356e-05
C0SB10,美和,2025-05-20,22.682078,121.060236,0.13908467
C2K620,馬光農場,2025-05-20,23.721453,120.378864,1.1353158e-08
C1I140,卡奈托灣,2025-05-20,23.754364,121.087872,1.5411027e-09
C0I520,玉山風口,2025-05-20,23.470489,120.955994,2.2317277e-08
C1G691,下水埔,2025-05-20,23.816114,120.5676,1.2192062e-08
C0X110,臺南市南區,2025-05-20,22.961189,120.188378,2.3940478e-08
C0V680,仁武,2025-05-20,22.701083,120.347722,9.730053e-07
C2G840,北斗,2025-05-20,23.877586,120.514222,6.257027e-09
C0R900,竹坑,2025-05-20,22.1385,120.7022,0.0017433073
C0K250,崙背,2025-05-20,23.75555,120.318925,7.768349e-09
C0G860,社頭,2025-05-20,23.897647,120.5862,7.853356e-09
C0X150,安定,2025-05-20,23.102614,120.227839,8.445597e-09
C0R590,里港,2025-05-20,22.77919,120.49459,4.4873673e-08
C0E610,馬都安,2025-05-20,24.451272,120.930192,8.280503e-10
C0E550,明德,2025-05-20,24.583486,120.885411,5.5714766e-09
C0R150,三地門,2025-05-20,22.709889,120.639944,1.4679746e-07
C0G910,花壇,2025-05-20,24.032076,120.549461,8.035178e-09
C1D400,鳥嘴山,2025-05-20,24.71909,121.28387,1.2286742e-09
C0K500,元長,2025-05-20,23.64981,120.315024,9.397301e-09
C0F0B0,石岡,2025-05-20,24.276061,120.777644,2.3837354e-09
C2V250,甲仙,2025-05-20,23.080106,120.591758,7.260895e-09
C0SA20,金崙山,2025-05-20,22.567419,120.959667,8.409222e-09
C0V350,溪埔,2025-05-20,22.738578,120.446797,5.553941e-08
C0M660,溪口,2025-05-20,23.604131,120.403569,4.8703015e-09
C1S880,壽卡,2025-05-20,22.238911,120.858903,2.834251e-07
72D680,桃改新埔分場,2025-05-20,24.834444,121.066111,8.9740246e-07
