站號,站名,日期,lat,lon,BLBTSLS
C0R710,龍磐,2025-12-27,21.931672,120.838942,0.21795647
C1F9D1,白毛台,2025-12-27,24.158325,120.886933,3.119459e-06
C0G940,竹塘,2025-12-27,23.848253,120.386764,5.2768325e-08
467590,恆春,2025-12-27,22.003897,120.746339,0.24693035
C1O850,環湖,2025-12-27,23.148617,120.418633,0.037560463
C0U710,太平山,2025-12-27,24.505486,121.525656,2.8654531e-08
C0E820,獅潭,2025-12-27,24.539133,120.920042,0.00027575615
C2SD70,二層坪,2025-12-27,22.94105,121.16838,0.059822213
C0V880,興達,2025-12-27,22.8778,120.2127,0.33072373
C0S890,關山,2025-12-27,23.0395,121.175017,0.0440478
C0SB30,新蘭,2025-12-27,22.869214,121.223228,0.99843365
C2R970,屏科大,2025-12-27,22.648275,120.619247,4.2850366e-05
C1Z130,銅門,2025-12-27,23.965694,121.492842,4.729274e-06
C0AD40,土城,2025-12-27,24.973208,121.445169,0.74297446
CAN140,六官養殖協會,2025-12-27,23.22881,120.29962,0.06939464
C0X180,山上,2025-12-27,23.0757,120.363253,0.0023998637
C0F9Z0,雪山東峰,2025-12-27,24.388792,121.268675,4.033906e-08
C1M480,獨立山,2025-12-27,23.537022,120.607797,1.1966895e-09
C0X220,學甲,2025-12-27,23.230367,120.182187,0.07037161
467650,日月潭,2025-12-27,23.881325,120.90805,8.459172e-09
C0K600,箔子寮,2025-12-27,23.6197,120.14,0.0013642157
C0G830,埤頭,2025-12-27,23.866003,120.452806,4.1646956e-08
C0S950,七塊厝,2025-12-27,22.954453,121.229922,0.0001554059
467110,金門,2025-12-27,24.407306,118.289281,2.161797e-07
C0AH80,深坑,2025-12-27,25.002703,121.628328,0.40981284
C0A970,三貂角,2025-12-27,25.007606,122.002058,0.2698403
C2D730,寶山農場,2025-12-27,24.732444,120.976153,0.26325527
C0K430,褒忠,2025-12-27,23.690938,120.303634,0.078566924
467480,嘉義,2025-12-27,23.495925,120.432906,0.0005698547
C0V400,阿公店,2025-12-27,22.804194,120.355528,0.7951248
C0E960,觀霧分站,2025-12-27,24.505781,121.113921,2.0014353e-08
467550,玉山,2025-12-27,23.48718,120.95943,5.295293e-08
C0R440,大漢山,2025-12-27,22.405264,120.753181,2.5567177e-08
C0SD30,東清國小,2025-12-27,22.057128,121.564922,0.959804
C1F9B1,桐林,2025-12-27,24.066172,120.735194,0.27156076
C2H9U0,鳳鵬,2025-12-27,23.763919,120.788061,4.524324e-06
C0K390,土庫,2025-12-27,23.679029,120.395574,4.406369e-08
C1I450,望鄉山,2025-12-27,23.594153,120.944286,3.2672986e-08
C0E910,海埔,2025-12-27,24.648767,120.772435,0.99272346
B2E890,畜試北區分所,2025-12-27,24.527806,120.770972,0.6650238
C0R750,四林格山,2025-12-27,22.076989,120.802439,0.9999689
C0F0C0,中坑,2025-12-27,24.248517,120.903319,1.12397185e-08
C1I121,大鞍,2025-12-27,23.678381,120.760017,5.567132e-09
C2G9E0,移民庄,2025-12-27,23.9784,120.40283,0.0032053024
72U480,花改蘭陽分場,2025-12-27,24.686306,121.716583,0.00031671094
C0A770,科教館,2025-12-27,25.096356,121.516507,0.78126794
C0AJ60,六塊厝,2025-12-27,25.24,121.4481,0.99767923
C0R620,墾雷,2025-12-27,21.900836,120.855269,0.22982255
467420,永康,2025-12-27,23.038386,120.2367,0.13393821
C2M530,奮起湖,2025-12-27,23.493903,120.699253,4.6179034e-09
C0I410,名間,2025-12-27,23.837053,120.701447,0.040306754
A2C560,農工中心,2025-12-27,24.985917,121.239833,0.97295016
C0V740,旗山,2025-12-27,22.888614,120.483597,0.33088472
C0Z061,玉里,2025-12-27,23.3215,121.339656,0.0011994992
C0S840,南田,2025-12-27,22.279725,120.889208,0.4838827
C1I470,杉林溪,2025-12-27,23.639517,120.786444,6.905307e-09
C1X040,東原,2025-12-27,23.291597,120.463822,1.922014e-06
C0R660,枋寮,2025-12-27,22.367722,120.590647,0.99739695
C1R120,上德文,2025-12-27,22.763272,120.704442,1.203525e-08
C0K450,大埤,2025-12-27,23.646074,120.431537,4.0531482e-08
C0UA00,土場,2025-12-27,24.576533,121.495333,3.6897057e-07
467080,宜蘭,2025-12-27,24.763975,121.756528,0.00051079807
C0N030,四草,2025-12-27,23.0235,120.1116,0.4447721
467410,臺南,2025-12-27,22.99328,120.20492,0.0837832
C0V650,彌陀,2025-12-27,22.783806,120.246361,0.9828428
C0D660,新竹市東區,2025-12-27,24.798681,120.986942,0.5040276
82S580,茶改東部分場,2025-12-27,22.907694,121.130139,0.14759359
C0SB40,興隆,2025-12-27,22.913661,121.257469,0.99700224
467050,新屋,2025-12-27,25.006725,121.047492,0.9907908
C0C710,大溪永福,2025-12-27,24.892936,121.324975,0.96671844
C0FA20,溫寮,2025-12-27,24.372177,120.583125,0.989231
C0V640,湖內,2025-12-27,22.887139,120.2445,0.13145632
C0R910,下寮,2025-12-27,22.3929,120.5548,0.9974038
C0Z020,明里,2025-12-27,23.208717,121.262342,0.0001325821
C0M770,嘉義梅山,2025-12-27,23.585398,120.555587,3.9027813e-07
C0C660,楊梅,2025-12-27,24.912375,121.143047,0.95282024
C0SD40,牛頭山,2025-12-27,22.676661,121.506944,0.7257263
C1E511,新開,2025-12-27,24.347703,120.827019,9.74731e-06
G2F820,農試所(霧峰),2025-12-27,24.031261,120.688133,0.8272422
C2M990,大巃頂,2025-12-27,23.5547,120.61439,1.7046352e-09
C1I070,和社,2025-12-27,23.591131,120.888861,2.5376183e-09
C2E990,新坪頂,2025-12-27,24.30201,120.8574,2.824916e-08
C0TA80,立霧山,2025-12-27,24.183258,121.641899,4.096282e-08
C2F000,大肚,2025-12-27,24.15295,120.572117,0.007568591
C1S850,豐南,2025-12-27,23.122139,121.262389,3.5317466e-05
C2M9B0,西興,2025-12-27,23.2428,120.57617,5.091664e-09
C2A920,富貴角,2025-12-27,25.263783,121.565258,0.98763347
CAH030,茶改場竹圍站,2025-12-27,23.860083,120.637528,5.946255e-05
C0T960,光復,2025-12-27,23.660694,121.424964,1.605259e-05
C0F9M0,豐原,2025-12-27,24.254322,120.720692,0.0021002498
C0R720,旭海,2025-12-27,22.205403,120.887614,0.9987349
C0V710,苓雅,2025-12-27,22.622742,120.330669,0.95660937
C0C740,觀音工業區,2025-12-27,25.064764,121.114856,0.99226123
CAC040,拉拉山,2025-12-27,24.699317,121.427133,2.9632037e-08
C0V790,萬山,2025-12-27,22.905944,120.688056,3.8089825e-06
U2HA30,臺大和社,2025-12-27,23.590856,120.888864,2.5376183e-09
C2H9K0,屯原,2025-12-27,24.067969,121.209389,1.3454158e-08
C0AJ90,澳底,2025-12-27,25.0552,121.9253,0.60777736
C0Z100,東華,2025-12-27,23.89525,121.549833,0.00015648485
C0G970,三豐,2025-12-27,23.882,120.2895,0.14392771
V2K610,大庄合作社,2025-12-27,23.8068,120.367939,0.06543266
C0V900,汕尾,2025-12-27,22.4782,120.4151,0.9974508
C1R630,龍泉,2025-12-27,22.66701,120.59091,0.0095271515
C1AC50,關渡,2025-12-27,25.133486,121.469331,0.9946547
C0C800,四稜,2025-12-27,24.64733,121.4293,3.147781e-08
C0F9I0,神岡,2025-12-27,24.272481,120.658314,0.010851187
C0K460,斗南,2025-12-27,23.678734,120.478359,2.8298773e-08
C2O810,曾文,2025-12-27,23.219681,120.497328,8.392207e-05
467280,後龍,2025-12-27,24.648563,120.831834,0.96087223
C1F9J1,清水林,2025-12-27,24.071242,120.820419,2.3965459e-09
C2A650,火燒寮,2025-12-27,25.002719,121.742892,0.0012123402
466930,竹子湖,2025-12-27,25.162078,121.544547,0.0037873802
C1I220,樟湖,2025-12-27,23.905333,120.846983,6.8687367e-09
C0I390,仁愛,2025-12-27,24.022122,121.132206,6.875592e-09
C0Z300,東里,2025-12-27,23.26853,121.30547,0.00070294674
C1V590,新發,2025-12-27,23.057019,120.646064,1.7882638e-08
C0K510,水林,2025-12-27,23.572924,120.24597,0.0011754105
72S590,東改賓朗果園,2025-12-27,22.813889,121.071278,0.9999539
82A750,茶改北部分場,2025-12-27,24.955778,121.631222,1.58962e-05
C1A750,石碇服務區,2025-12-27,25.00872,121.646242,0.30952564
C0X300,鹿寮,2025-12-27,23.386047,120.477331,5.2599633e-05
G2AI50,關渡,2025-12-27,25.11575,121.492,0.78190935
C0K590,雲林東勢,2025-12-27,23.674192,120.255721,0.07146708
C2K310,港尾布雞,2025-12-27,23.74834,120.38439,5.2689778e-08
C0A570,桶後,2025-12-27,24.848222,121.597992,1.7444167e-06
C1S800,華源,2025-12-27,22.657883,121.02325,0.9999769
C0G720,溪州,2025-12-27,23.851589,120.499093,2.7825893e-08
C1V160,達卡努瓦,2025-12-27,23.279811,120.705319,6.208121e-09
C2M410,馬頭山,2025-12-27,23.324361,120.582017,6.649771e-08
C0V850,蚵仔寮,2025-12-27,22.7256,120.2527,0.98663443
C0S740,池上,2025-12-27,23.119628,121.209469,0.004017314
C1V390,尖山,2025-12-27,22.813153,120.367789,0.45667523
C0AH70,松山,2025-12-27,25.04871,121.55042,0.7583149
C0N010,鯤鯓國小,2025-12-27,23.1879,120.0889,0.10005338
C0R550,新埤,2025-12-27,22.467947,120.582894,0.99622893
C0SA60,知本（水試所）,2025-12-27,22.702394,121.082761,0.9999354
C0T9I0,豐濱,2025-12-27,23.583897,121.514806,1.1448333e-05
C0UB00,淡江大學蘭陽校園,2025-12-27,24.823239,121.730383,3.1255527e-07
C0W240,九宮,2025-12-27,24.423753,118.240186,1.1468307e-09
C0T9N0,富里,2025-12-27,23.171639,121.249378,5.6754867e-05
U2HA50,臺大竹山,2025-12-27,23.756972,120.681556,0.05086685
C0V840,鳳鼻頭,2025-12-27,22.5083,120.3591,0.9974035
C0X140,西港,2025-12-27,23.125608,120.203108,0.066850245
72D080,桃改五峰分場,2025-12-27,24.612194,121.157167,2.2605944e-08
C2H9P0,伊拿谷,2025-12-27,23.963211,121.088264,1.1747555e-08
C2K250,崙背,2025-12-27,23.75553,120.31893,0.07205853
C2H9F0,柑林,2025-12-27,24.018658,120.847072,0.00028857592
C0TA20,加灣,2025-12-27,24.082025,121.608944,0.0056271483
C0V530,阿蓮,2025-12-27,22.883208,120.327508,0.054851558
C0FB30,八仙山苗圃,2025-12-27,24.192719,121.001366,1.2409808e-08
C1O880,關山,2025-12-27,23.173397,120.594092,5.180912e-08
C0E791,卓蘭,2025-12-27,24.3126,120.8244,6.8787817e-06
C1I030,武界,2025-12-27,23.913225,121.052483,1.0711542e-08
C0R520,崁頂,2025-12-27,22.514781,120.506914,0.9971011
C0R341,牡丹,2025-12-27,22.130036,120.792639,0.9998759
C0R930,萬丹,2025-12-27,22.5885,120.4851,0.99667734
C0S760,紅石,2025-12-27,23.069131,121.126219,2.5294675e-08
C2C410,中央大學,2025-12-27,24.967652,121.185165,0.96938574
C1M610,石磐龍,2025-12-27,23.496606,120.663506,3.7553174e-09
C0C790,東眼山,2025-12-27,24.8284,121.40888,4.52289e-08
C0UA10,鴛鴦湖,2025-12-27,24.590269,121.412228,2.7045711e-08
V2C260,八德蔬果,2025-12-27,24.978508,121.281819,0.97493804
C0R800,丹路,2025-12-27,22.204481,120.750989,0.99992466
C0G920,永靖,2025-12-27,23.924703,120.547533,0.0005722484
C2M950,太和,2025-12-27,23.538372,120.702961,4.582089e-09
C1A630,下盆,2025-12-27,24.771003,121.538622,1.4248711e-07
B2N890,畜產試驗所,2025-12-27,23.058972,120.336406,0.04717162
C0UA30,白嶺,2025-12-27,24.527819,121.519031,2.5998645e-08
C1V580,溪南(特生中心),2025-12-27,23.084972,120.788475,1.1023899e-08
C1T970,大農,2025-12-27,23.615233,121.413331,4.5854367e-06
C0R650,竹田,2025-12-27,22.58486,120.54344,0.9967602
C1H900,清流,2025-12-27,24.080775,120.962997,1.1687123e-08
C1C510,水尾,2025-12-27,24.940081,121.087161,0.9789723
C2N170,茅港尾,2025-12-27,23.2061,120.2624,0.09106154
C0F9X0,大雅(中科園區),2025-12-27,24.21528,120.62445,0.70366585
C0SB60,白守蓮,2025-12-27,23.126769,121.401914,0.9999526
C0O970,虎頭埤,2025-12-27,23.021375,120.347878,0.002294689
C0C730,中大臨海站,2025-12-27,24.966126,121.008581,0.7312613
C0X250,新營,2025-12-27,23.310689,120.316681,0.037541065
C0V700,三民,2025-12-27,22.645017,120.311233,0.95660937
C0U870,大礁溪,2025-12-27,24.791042,121.675047,1.3644366e-07
C0E870,高鐵苗栗,2025-12-27,24.60725,120.826094,0.9673283
A2K570,古坑花卉中心,2025-12-27,23.63353,120.55239,6.538886e-09
C0TA30,鹽寮,2025-12-27,23.845606,121.592664,0.00022457242
C0M860,新美,2025-12-27,23.338017,120.683169,9.59946e-08
C1E701,八卦,2025-12-27,24.491756,120.927619,2.1107581e-08
C2TA90,加納納,2025-12-27,23.466421,121.359867,1.9687755e-06
C0I420,國姓,2025-12-27,24.037803,120.855072,6.0134123e-05
C2D720,關西工作站,2025-12-27,24.757275,121.184792,0.39731517
C0S960,香蘭,2025-12-27,22.587569,120.993375,0.99894845
467620,蘭嶼,2025-12-27,22.0369,121.55843,0.9175617
C0R260,春日,2025-12-27,22.370361,120.628306,0.99255943
72G600,臺中農改場,2025-12-27,24.003028,120.534389,0.0019071283
C0Z210,瑞穗,2025-12-27,23.5239,121.39021,2.1158843e-05
C0M820,達邦,2025-12-27,23.453994,120.749517,3.5916419e-09
C0V860,南寮,2025-12-27,22.7616,120.2339,0.9874442
C0G740,大城,2025-12-27,23.852487,120.320935,0.07205853
C0R920,塭仔,2025-12-27,22.4169,120.5197,0.9974508
C0R470,高樹,2025-12-27,22.826389,120.600806,0.0002642487
C0R680,佳樂水,2025-12-27,21.993578,120.861633,0.25229087
C1O870,大棟山,2025-12-27,23.31157,120.52226,3.0803495e-09
C0D360,梅花,2025-12-27,24.678347,121.208558,6.347105e-06
C0Z190,富世,2025-12-27,24.14743,121.6297,0.0002055567
C0AI10,屈尺,2025-12-27,24.92184,121.54475,0.5740219
B2U990,畜試東區分所,2025-12-27,24.669039,121.832561,0.00059324666
C0SB80,長濱漁港,2025-12-27,23.313644,121.459994,0.999958
C0TA50,和仁,2025-12-27,24.241394,121.712472,0.00054610515
C0V910,大樹,2025-12-27,22.684645,120.432803,0.040762108
C1R610,西大武山,2025-12-27,22.617719,120.7322,2.5474106e-08
C0G900,線西,2025-12-27,24.143358,120.443536,0.9891812
C0M700,竹崎,2025-12-27,23.526178,120.555508,1.7465475e-06
C2E880,三義,2025-12-27,24.405478,120.749819,1.13116194e-07
C0C720,竹圍,2025-12-27,25.112692,121.239824,0.9922693
C0F9P0,清水,2025-12-27,24.312297,120.562242,0.9876663
C0Z150,吉安光華,2025-12-27,23.930925,121.595153,0.00028355038
C0FA80,小雪山天池,2025-12-27,24.28025,121.02627,2.2172765e-08
467300,東吉島,2025-12-27,23.25727,119.66762,0.9995463
C1D640,外坪(五指山),2025-12-27,24.644447,121.090961,3.4663364e-07
C2R9A0,高士國小,2025-12-27,22.12553,120.84653,0.9999109
C0F9O0,潭子,2025-12-27,24.213106,120.703933,0.018416066
C2H9R0,卓社,2025-12-27,23.887894,121.000086,6.747366e-09
72T250,花蓮農改場,2025-12-27,23.975222,121.563889,0.00015602952
C0E780,銅鑼,2025-12-27,24.489681,120.790853,0.0043576215
C1T950,太安,2025-12-27,23.666719,121.370128,1.3820001e-08
C0E830,苑裡,2025-12-27,24.439714,120.653053,0.9814063
467270,田中,2025-12-27,23.873803,120.581286,2.3744251e-08
C0SA10,檳榔四格山,2025-12-27,22.810031,121.109308,0.999091
C1T830,布洛灣,2025-12-27,24.17184,121.57127,1.4022215e-06
C0F970,大坑,2025-12-27,24.173142,120.722289,0.16106297
C1U920,思源,2025-12-27,24.393125,121.347214,1.961575e-08
C2H9Y0,松茗,2025-12-27,23.8167,120.650765,4.783105e-08
C0A931,三和,2025-12-27,25.233153,121.595236,0.9806287
C0I010,廬山,2025-12-27,24.033311,121.181808,8.368916e-09
C2M940,日野賀,2025-12-27,23.434056,120.727169,3.8109427e-09
C0R860,鼻頭,2025-12-27,22.1043,120.8979,0.29547158
C0UB20,壯圍,2025-12-27,24.7359,121.8163,0.00061460666
C0R790,九棚,2025-12-27,22.14195,120.889281,0.9966246
C0W110,東莒,2025-12-27,25.9652,119.98069,0.97761494
C1U930,粉鳥林,2025-12-27,24.497088,121.842479,0.0015172326
C1I211,蘆竹湳,2025-12-27,23.934019,120.811994,4.3981383e-09
C0S830,長濱,2025-12-27,23.286817,121.411975,5.6369634e-05
C1F9F1,伯公龍,2025-12-27,24.272392,120.849047,8.155352e-08
C0UB90,太平山莊,2025-12-27,24.494171,121.536209,2.8894808e-08
C0E810,西湖,2025-12-27,24.562947,120.7485,0.9394535
C1I440,新高口,2025-12-27,23.478744,120.878939,2.2979636e-08
C0O840,王爺宮,2025-12-27,23.222064,120.40085,0.00011846593
C0T9G0,鳳林山,2025-12-27,23.735269,121.420131,7.211556e-08
C0X080,佳里,2025-12-27,23.173039,120.145086,0.104735434
C0FB70,大甲溪埔,2025-12-27,24.370625,120.620067,0.9819633
C0Z310,清水斷崖,2025-12-27,24.218294,121.689142,6.551298e-05
C0M680,太保,2025-12-27,23.455062,120.331455,0.00054462015
C1S820,金峰,2025-12-27,22.590969,120.933236,0.99994355
C0AD10,八里,2025-12-27,25.150211,121.403947,0.99751633
C2K240,草嶺,2025-12-27,23.59555,120.693461,3.754809e-09
C1SA70,都蘭,2025-12-27,22.87794,121.226881,0.9969675
C0K440,二崙,2025-12-27,23.772797,120.408944,4.1717154e-08
C1A760,坪林交控,2025-12-27,24.94284,121.713442,0.0045696697
C0F9N0,大里,2025-12-27,24.092464,120.701378,0.87970495
C0SA90,達仁林場,2025-12-27,22.264347,120.823972,5.0279137e-05
C1R290,石門山,2025-12-27,22.112611,120.756597,0.99378544
42HA10,萬大發電廠,2025-12-27,23.978875,121.139639,7.697347e-09
C0R890,山海,2025-12-27,21.9878,120.7091,0.28114653
C0T9A0,月眉山,2025-12-27,23.809928,121.539828,1.2050944e-07
C0AC70,信義,2025-12-27,25.037822,121.564597,0.7435088
C0K560,棋山,2025-12-27,23.68645,120.603417,4.914289e-09
C2FB50,出雲,2025-12-27,24.206469,120.902794,9.052339e-09
C1Z240,中平林道,2025-12-27,23.42115,121.26763,4.4231175e-08
U2H480,溪頭,2025-12-27,23.670306,120.798194,3.0994505e-09
C0M880,好美里,2025-12-27,23.3364,120.138,0.104735434
C0T9E0,大坑,2025-12-27,23.880628,121.581981,5.615107e-07
C0K530,臺西,2025-12-27,23.701547,120.197559,0.10609786
C1E900,國一N128K,2025-12-27,24.560997,120.844186,0.8422683
C0AJ50,水湳洞,2025-12-27,25.123695,121.862238,0.59629285
C0AI20,白沙灣,2025-12-27,25.283128,121.519058,0.9974344
C2V310,美濃,2025-12-27,22.898792,120.51907,0.49509203
C0A860,大坪,2025-12-27,25.165914,121.632969,0.00011298835
C1U850,觀音海岸,2025-12-27,24.38319,121.77856,6.5586114e-08
C2K610,草嶺石壁,2025-12-27,23.602469,120.707731,3.868432e-09
C0U950,鶯子嶺,2025-12-27,24.89754,121.79244,1.14753185e-07
C0O900,善化,2025-12-27,23.112883,120.297219,0.31062737
C0K550,蔦松,2025-12-27,23.514319,120.229736,0.0013497929
E2P980,林試六龜中心,2025-12-27,22.991703,120.645722,1.8274186e-07
C0E590,通霄,2025-12-27,24.471892,120.704622,0.92155695
C1I310,西巒,2025-12-27,23.754486,120.883956,1.3594303e-08
C0A550,泰平,2025-12-27,24.971197,121.823711,1.631353e-05
C0I360,水里,2025-12-27,23.812553,120.849792,0.00045953845
C0R830,高士,2025-12-27,22.121825,120.836781,0.99926627
C1I101,溪頭,2025-12-27,23.661789,120.807647,8.027259e-09
C0AJ20,野柳,2025-12-27,25.20703,121.690021,0.9974914
C0B060,暖暖,2025-12-27,25.0957,121.7403,0.3365616
C1H920,長豐,2025-12-27,24.102039,120.879897,6.064313e-08
C2S9B0,利吉,2025-12-27,22.86246,121.15486,0.547831
C0V360,內門,2025-12-27,22.975481,120.466769,0.06083926
C0R850,林邊,2025-12-27,22.4634,120.5339,0.9970879
C0E930,龍鳳,2025-12-27,24.700034,120.859125,0.7316671
C0U910,冬山,2025-12-27,24.63373,121.7937,0.00059324666
C1E721,泰安,2025-12-27,24.489017,120.968036,1.2128372e-08
82H320,茶改中部分場,2025-12-27,23.875611,120.913583,1.4945607e-08
C0M750,布袋,2025-12-27,23.380878,120.167789,0.0015021691
C1S860,利嘉,2025-12-27,22.809417,121.050528,0.05332253
E2S980,林試太麻里1,2025-12-27,22.598922,120.980044,0.9997516
C0X170,關廟,2025-12-27,22.963017,120.327797,0.012781244
C0V720,林園,2025-12-27,22.507747,120.394511,0.9970843
C1I510,線浸林道,2025-12-27,23.761508,120.832956,3.2565584e-09
C0D690,外湖,2025-12-27,24.917735,120.968711,0.7316671
C0C750,新興坑尾,2025-12-27,25.0061,121.0971,0.98557615
B2Q810,畜試南區分所,2025-12-27,21.945583,120.802167,0.26379415
C0S790,金崙,2025-12-27,22.538122,120.966875,0.99996316
C0AH90,福山植物園,2025-12-27,24.760717,121.58135,8.8865555e-08
C0I540,奇萊稜線,2025-12-27,24.109231,121.326456,3.6443858e-08
C0M850,表湖,2025-12-27,23.24186,120.64166,1.6730212e-08
C0S770,大溪山,2025-12-27,22.478475,120.943325,0.9999585
C0AG80,中和,2025-12-27,24.991622,121.491792,0.7388968
C0T790,大禹嶺,2025-12-27,24.186117,121.316086,2.6135421e-08
C0T9B0,水源,2025-12-27,23.991861,121.537169,1.7323845e-07
C0R840,牡丹池山,2025-12-27,22.168389,120.841225,6.964035e-05
C1I131,桶頭,2025-12-27,23.641944,120.654117,4.3429896e-05
CAL110,布袋國中,2025-12-27,23.35893,120.18026,0.106019
C2M9D0,何竹子腳,2025-12-27,23.53641,120.38203,0.0013720421
467571,新竹,2025-12-27,24.827853,121.014219,0.6129868
C0Z290,赤柯山,2025-12-27,23.36893,121.38293,5.61204e-08
C0X280,將軍,2025-12-27,23.214999,120.13577,0.10005338
C0S690,太麻里,2025-12-27,22.60902,120.98533,0.99636817
C0U880,北關,2025-12-27,24.9072,121.8734,0.65436745
CAW010,東引,2025-12-27,26.3588,120.4836,0.9988278
C0G810,埔心,2025-12-27,23.947633,120.525456,0.00073613384
C0U970,大福,2025-12-27,24.80064,121.81389,0.0007848036
C2H9N0,仁愛東眼,2025-12-27,24.026875,121.1205,7.2570048e-09
C1E670,南礦,2025-12-27,24.538278,121.002836,1.1383015e-08
C0M520,東後寮,2025-12-27,23.369908,120.248065,0.07037161
C1E461,松安,2025-12-27,24.397972,120.986022,1.1738955e-08
C2N160,西拉雅風管處,2025-12-27,23.189481,120.335297,0.01739308
C2M970,碧湖,2025-12-27,23.568632,120.624165,1.6784953e-09
C0A640,石碇,2025-12-27,24.993969,121.662917,0.004536926
E2S960,林試太麻里2,2025-12-27,22.598,120.99775,0.99879193
C0F9Y0,桃山,2025-12-27,24.432739,121.303808,4.2953236e-08
C1I020,萬大,2025-12-27,23.979817,121.132261,6.766672e-09
C2UC20,長嶺,2025-12-27,24.70894,121.61162,3.6557168e-07
C0U940,羅東,2025-12-27,24.68184,121.74934,0.0004868957
C0M650,朴子,2025-12-27,23.43463,120.23902,0.0011754105
C1I500,大尖山,2025-12-27,23.858572,120.994889,1.492154e-08
C0FB40,中橫21.6k,2025-12-27,24.2499,121.1455,7.8380324e-09
C0G820,田尾,2025-12-27,23.901669,120.509389,0.00069209863
E2K600,四湖植物園,2025-12-27,23.676986,120.163433,0.08078841
C0S730,綠島,2025-12-27,22.6672,121.47533,0.88421625
12Q970,東港工作站,2025-12-27,22.479997,120.466058,0.99739695
C1TA00,太魯閣,2025-12-27,24.15773,121.6236,7.409496e-05
466920,臺北,2025-12-27,25.037658,121.514853,0.7583149
C0R600,舊泰武,2025-12-27,22.588194,120.664944,3.6973069e-07
C1I260,北坑,2025-12-27,23.9246,121.006903,6.7684246e-06
466910,鞍部,2025-12-27,25.182586,121.529731,2.0303403e-05
C1I230,九份二山,2025-12-27,23.961944,120.845,2.0240112e-09
C2M810,里佳,2025-12-27,23.389125,120.716647,4.6174193e-09
C2A660,瑞芳,2025-12-27,25.113169,121.801147,0.20863207
C0R270,琉球嶼,2025-12-27,22.332244,120.362236,0.9909686
C2V580,瑞山,2025-12-27,22.90304,120.43424,0.023865579
C1T990,高寮,2025-12-27,23.394239,121.356808,0.0077458518
C0G620,芬園,2025-12-27,24.015678,120.6213,6.5567874e-06
C1Z140,荖溪,2025-12-27,23.890575,121.45964,4.850243e-08
C1I201,中心崙,2025-12-27,23.728722,120.712097,3.6159196e-09
C1I400,凌霄,2025-12-27,24.018778,121.004456,7.154136e-09
C1M640,十字,2025-12-27,23.492153,120.753683,5.970292e-09
G2P820,農試鳳山分所,2025-12-27,22.646611,120.356083,0.8752566
C0Z270,蕃薯寮,2025-12-27,23.73835,121.540108,4.6988788e-07
C2E420,竹南,2025-12-27,24.70898,120.88897,0.6151375
C0FB10,出雲山苗圃,2025-12-27,24.23105,120.90475,1.1233567e-08
C0F9Q0,外埔,2025-12-27,24.347817,120.705686,0.08272864
C0K580,高鐵雲林,2025-12-27,23.737456,120.417944,4.1717154e-08
C2I090,鳳凰,2025-12-27,23.728081,120.787347,2.4976283e-09
C0U990,員山,2025-12-27,24.74435,121.72247,0.0004936222
C0V770,大社,2025-12-27,22.730306,120.346639,0.9501261
C0X120,麻豆,2025-12-27,23.183289,120.248611,0.066850245
C0C670,龍潭,2025-12-27,24.870056,121.221389,0.07827284
C0D680,香山濕地,2025-12-27,24.783581,120.914988,0.73059
C0S980,勝林山,2025-12-27,22.430439,120.8938,9.465125e-05
C0V730,大寮,2025-12-27,22.605614,120.395717,0.99622893
C0R570,麟洛,2025-12-27,22.65078,120.52719,0.036995772
C2M930,石卓,2025-12-27,23.478744,120.702264,5.8237757e-09
C0G9B0,和美,2025-12-27,24.105169,120.492131,0.0022256868
CAG100,王功漁港,2025-12-27,23.96824,120.32586,0.0036020624
C0X290,北門,2025-12-27,23.267772,120.125481,0.106019
C2F930,大甲,2025-12-27,24.347667,120.640403,0.6499628
C0D650,湖口,2025-12-27,24.904794,121.043628,0.30976364
C0U780,五結,2025-12-27,24.68637,121.79794,0.00059324666
C1I250,鯉潭,2025-12-27,23.961922,120.991131,6.064313e-08
C0R130,阿禮,2025-12-27,22.742908,120.743678,9.511175e-09
C0X100,臺南市北區,2025-12-27,23.010394,120.194228,0.33072373
C0S920,金峰嘉蘭,2025-12-27,22.594789,120.960825,0.99975264
C0V490,新興,2025-12-27,22.627422,120.298803,0.97969013
C0F9K0,大安,2025-12-27,24.345061,120.588025,0.9835685
467290,古坑,2025-12-27,23.633639,120.551889,6.538886e-09
C2E970,八甲,2025-12-27,24.535811,120.795983,0.0018521238
C0V440,鳳山,2025-12-27,22.646653,120.356122,0.8752566
C1T940,大觀,2025-12-27,23.714206,121.373133,1.1127034e-07
C0E740,造橋,2025-12-27,24.637056,120.864778,0.98285735
C0R100,尾寮山,2025-12-27,22.833111,120.683889,9.511737e-09
A2K630,臺大雲林校區,2025-12-27,23.730628,120.423903,4.1167485e-08
467990,馬祖,2025-12-27,26.169467,119.923158,0.00017273884
C0D580,寶山,2025-12-27,24.735006,121.025192,0.11203208
E2P990,林試扇平站,2025-12-27,22.9677,120.6857,2.6673018e-08
C0AI30,三重,2025-12-27,25.057328,121.500629,0.78126794
C0AH00,汐止,2025-12-27,25.066881,121.658778,0.60708696
C1Z040,立山,2025-12-27,23.443356,121.327375,8.195511e-07
466881,新北,2025-12-27,24.959207,121.525196,0.6719681
C0W130,花嶼,2025-12-27,23.40007,119.32276,0.9951135
C0A950,鼻頭角,2025-12-27,25.129036,121.923372,0.64935213
C0K470,林內,2025-12-27,23.748675,120.609642,7.228795e-09
C2F990,摩天嶺,2025-12-27,24.322458,120.936819,1.0146631e-08
C2E430,南庄,2025-12-27,24.601775,121.000214,0.02651018
82C160,茶改場,2025-12-27,24.908472,121.185333,0.9122077
C2TB60,南安,2025-12-27,23.29818,121.26157,0.00021576812
C0Z320,清水林道,2025-12-27,23.27125,121.188272,1.5523013e-07
C0R760,南仁湖,2025-12-27,22.084681,120.863353,0.99439085
C0M670,大林,2025-12-27,23.600616,120.45841,0.00034565333
C0M800,茶山,2025-12-27,23.299075,120.664767,6.508103e-09
C0A9C0,天母,2025-12-27,25.117494,121.537169,0.7388968
72K220,南改斗南分場,2025-12-27,23.634556,120.477333,2.5040164e-08
72AI40,桃改樹林分場,2025-12-27,24.944503,121.386972,0.6770573
C0S910,蘭嶼燈塔,2025-12-27,22.081197,121.503117,0.9511642
C0B050,八斗子,2025-12-27,25.144754,121.79167,0.6708179
C0U900,內城,2025-12-27,24.71813,121.68766,0.000245311
C0X320,柳營,2025-12-27,23.253328,120.375253,0.15504667
C0M790,新港,2025-12-27,23.553269,120.345728,0.0008800866
C0F9T0,西屯,2025-12-27,24.179494,120.641275,0.6499628
C0E950,松安,2025-12-27,24.39792,120.98599,1.1738955e-08
C0SA30,都歷,2025-12-27,23.020333,121.323642,0.99145114
C0C620,蘆竹,2025-12-27,25.084275,121.265767,0.9907634
C0R730,大坪頂,2025-12-27,22.024633,120.69355,0.3411121
C0AJ40,石門,2025-12-27,25.273672,121.601198,0.9921711
C0E750,苗栗,2025-12-27,24.564569,120.824575,0.8663414
C0T870,鯉魚潭,2025-12-27,23.935639,121.508944,9.784201e-06
C1V170,排雲,2025-12-27,23.463619,120.954147,4.7322427e-08
C2H950,中寮,2025-12-27,23.884447,120.766406,0.015938675
C0R350,貓鼻頭,2025-12-27,21.921774,120.7358,0.23590852
C0V660,岡山,2025-12-27,22.797078,120.294958,0.97975934
C1H941,雙冬,2025-12-27,23.967378,120.802189,3.275221e-09
C0AJ70,田寮,2025-12-27,25.2698,121.4886,0.9974922
C0AI00,五股,2025-12-27,25.07445,121.42728,0.1228631
C0Z280,德武,2025-12-27,23.47426,121.41071,3.918665e-06
C2RA10,大新,2025-12-27,22.67558,120.57788,0.010183991
C0R700,枋山,2025-12-27,22.246844,120.661086,0.99992394
C0C460,復興,2025-12-27,24.820208,121.352281,0.0001546405
C2K300,鹿南,2025-12-27,23.63855,120.3636,0.06723727
E2H360,蓮華池,2025-12-27,23.918333,120.885278,1.4125051e-07
C0M640,中埔,2025-12-27,23.42538,120.5229,1.14208e-06
C0W140,金沙,2025-12-27,24.488292,118.408778,2.308008e-07
C2A540,四堵,2025-12-27,24.8926,121.745736,7.788916e-05
C0ACA0,新莊,2025-12-27,25.051478,121.446756,0.7632393
C0R220,潮州,2025-12-27,22.534361,120.54,0.99674916
U2HA40,臺大內茅埔,2025-12-27,23.689722,120.851117,8.007746e-09
467490,臺中,2025-12-27,24.145736,120.684075,0.674858
C0UB60,明池,2025-12-27,24.650688,121.475277,3.1448707e-08
C0U960,翠峰湖,2025-12-27,24.510856,121.608044,2.8309731e-08
E2HA20,林試畢祿溪站,2025-12-27,24.226944,121.308522,1.5391e-08
C2M9A0,大華,2025-12-27,23.4824,120.67491,3.629809e-09
C0V890,前鎮,2025-12-27,22.5718,120.3117,0.9828428
C1F941,雪嶺,2025-12-27,24.280586,121.026642,2.2172765e-08
C2H9E0,國姓南港,2025-12-27,23.911108,120.846556,6.8731665e-09
C0AC80,文山,2025-12-27,25.00235,121.575728,0.57879215
C0F9R0,龍井,2025-12-27,24.184536,120.528972,0.9883235
C0M760,民雄,2025-12-27,23.551754,120.428457,0.00055733183
C0UA40,西德山,2025-12-27,24.560647,121.752608,3.324523e-08
C2TA70,赤科坪,2025-12-27,23.39885,121.39168,6.2411054e-08
C1T920,中興,2025-12-27,23.769503,121.498653,6.007079e-05
C0D550,雪霸,2025-12-27,24.526972,121.11605,1.770794e-08
C2F860,梨山,2025-12-27,24.247522,121.243669,1.5909972e-08
C0R320,車城,2025-12-27,22.0744,120.716247,0.27781603
C1S870,南美山,2025-12-27,23.15025,121.382333,0.017010583
C0B020,基隆嶼,2025-12-27,25.19141,121.78391,0.5790793
C1U501,牛鬥,2025-12-27,24.637836,121.573656,4.5059974e-06
C0M730,嘉義市東區,2025-12-27,23.457673,120.460531,0.00051731017
C2R990,泰武,2025-12-27,22.60686,120.69765,6.072264e-08
C0S700,知本,2025-12-27,22.684866,121.005642,0.07737564
C1N001,沙崙,2025-12-27,22.935472,120.309406,0.05331643
C0V760,橋頭,2025-12-27,22.757806,120.30575,0.97969013
C0G960,福寶,2025-12-27,24.0443,120.3814,0.0039097522
C0X210,白河,2025-12-27,23.347466,120.414427,0.118924715
C0S810,東河,2025-12-27,22.972672,121.303986,0.99862033
C2R170,屏東,2025-12-27,22.66027,120.49403,0.040295348
C0R670,楓港,2025-12-27,22.190131,120.692156,0.99992406
C0FA50,霧峰,2025-12-27,24.0419,120.6995,0.7392114
C0UB10,蘇澳,2025-12-27,24.5969,121.8571,0.0015033366
C0G950,防潮門,2025-12-27,24.1835,120.4871,0.98926634
C0M740,六腳,2025-12-27,23.492871,120.290625,0.0010492697
C1R250,力里,2025-12-27,22.428117,120.629228,0.9991619
C0K330,虎尾,2025-12-27,23.719183,120.442036,2.878139e-08
C2FA00,烏石坑,2025-12-27,24.273503,120.947617,1.0453994e-08
C0V620,永安,2025-12-27,22.82315,120.236856,0.9828428
C1I330,楓樹林,2025-12-27,23.986803,121.076117,6.6692656e-09
C0W200,湖西,2025-12-27,23.596314,119.67275,0.99911374
72Q010,高雄農改場,2025-12-27,22.709333,120.525889,0.029642629
C0SA40,瑞和,2025-12-27,22.974361,121.156697,0.12180984
C0C680,龜山,2025-12-27,25.02846,121.38656,0.014449536
C2V260,月眉,2025-12-27,22.971003,120.539853,0.007474183
C0V450,鳳森,2025-12-27,22.545064,120.392592,0.9926009
C0FA90,小雪山林道,2025-12-27,24.29515,121.03651,2.8734327e-08
C0U720,南山,2025-12-27,24.43742,121.38167,2.7910994e-08
A2N290,臺南蘭花園區,2025-12-27,23.340258,120.379661,0.26493594
C0R560,新園,2025-12-27,22.5434,120.461558,0.9970843
C0U890,三星,2025-12-27,24.66812,121.65302,4.786488e-05
C1V300,御油山,2025-12-27,23.001983,120.715364,1.081272e-08
C0U600,礁溪,2025-12-27,24.817539,121.765608,0.00038099708
C1T980,龍澗,2025-12-27,24.023289,121.411328,3.6339603e-08
C0D670,海天一線,2025-12-27,24.831986,120.914438,0.7316671
C0SA00,歷坵,2025-12-27,22.520969,120.89185,0.99989235
C0M710,東石,2025-12-27,23.458927,120.15385,0.0013805322
C0M780,鹿草,2025-12-27,23.41134,120.30835,0.00053468166
C0U520,雙連埤,2025-12-27,24.753033,121.641303,1.3362123e-07
C0B010,七堵,2025-12-27,25.094819,121.71713,0.54633915
C0R480,長治,2025-12-27,22.693128,120.542622,0.01785898
C1V830,國三S383K,2025-12-27,22.781967,120.426475,5.7598623e-05
12Q980,恆春工作站,2025-12-27,22.079678,120.714425,0.27720025
C1O940,東山服務區,2025-12-27,23.286016,120.398472,0.114443235
C1U840,東澳嶺,2025-12-27,24.5378,121.8485,4.7360984e-08
C1D630,飛鳳山,2025-12-27,24.766464,121.119178,3.4660618e-05
C0S940,石寧山,2025-12-27,23.223772,121.406639,0.99996823
C0K410,北港,2025-12-27,23.573957,120.292802,0.00093201105
C2M620,瑞里,2025-12-27,23.545133,120.675197,4.158502e-09
C0SB70,小港漁港,2025-12-27,23.158558,121.400431,0.9999555
C2O950,安南,2025-12-27,23.076694,120.144861,0.3773135
C0F0E0,南湖圈谷,2025-12-27,24.363714,121.444667,5.514274e-08
467610,成功,2025-12-27,23.097486,121.373428,0.9993528
C0G890,伸港,2025-12-27,24.148933,120.484403,0.98827106
C2E540,龍溪,2025-12-27,24.606489,120.783933,0.9858391
C1V200,梅山,2025-12-27,23.268447,120.823556,8.0854194e-09
C0T9H0,加路蘭山,2025-12-27,23.682947,121.5274,4.853584e-08
C2O930,玉井,2025-12-27,23.126042,120.46055,0.038487673
C1F911,新伯公,2025-12-27,24.221361,120.841069,4.4948413e-07
C0R490,九如,2025-12-27,22.7405,120.490503,0.031948652
C0X200,左鎮,2025-12-27,23.056758,120.408522,0.33436355
C2TB50,麻汝,2025-12-27,23.42554,121.39358,1.4791666e-06
C0FA60,鞍馬山工作站,2025-12-27,24.267064,121.000793,1.6052045e-08
C0SB50,叭嗡嗡,2025-12-27,23.047062,121.343223,0.99971503
C1F891,稍來,2025-12-27,24.265689,121.001142,1.553786e-08
C2M9C0,紫雲,2025-12-27,23.494914,120.540253,1.4640513e-05
72N240,七股研究中心,2025-12-27,23.081672,120.062894,0.44631398
C0C700,中壢,2025-12-27,24.977661,121.256375,0.96936864
C0M690,水上,2025-12-27,23.419734,120.388909,0.00060852146
C0V690,鼓山,2025-12-27,22.623325,120.275575,0.9800056
C0O860,大內,2025-12-27,23.11885,120.36083,0.05513783
C0Z200,萬榮,2025-12-27,23.709219,121.420106,9.870102e-06
C0T9D0,和中,2025-12-27,24.26676,121.74103,0.00061542087
C2S9A0,北份子寮,2025-12-27,22.78561,121.07813,0.99997485
C1O921,楠西,2025-12-27,23.183511,120.484083,0.006767533
C0AJ30,淡水觀海,2025-12-27,25.184591,121.408616,0.9976517
C0V810,左營,2025-12-27,22.67491,120.28491,0.95436543
C0UA70,桃源谷,2025-12-27,24.962606,121.888875,2.0030009e-06
C0X130,官田,2025-12-27,23.193217,120.315422,0.03428727
C1H000,翠峰,2025-12-27,24.109397,121.205211,1.9325013e-08
C0UA90,石城,2025-12-27,24.980444,121.951214,0.5742373
C1E681,南勢山,2025-12-27,24.421669,120.923831,1.2843631e-08
C0A9F0,內湖,2025-12-27,25.079422,121.57545,0.7583149
C0K291,宜梧,2025-12-27,23.536281,120.169329,0.0015021691
C1K540,口湖,2025-12-27,23.585344,120.180517,0.0014911692
C0R780,滿州,2025-12-27,22.024403,120.839892,0.22888222
C0V870,文安,2025-12-27,22.8025,120.2164,0.98663443
C0U650,玉蘭,2025-12-27,24.675286,121.587061,3.2225304e-07
C0R640,東港,2025-12-27,22.46247,120.44074,0.9974038
C0AJ80,板橋,2025-12-27,25.0107,121.4489,0.7435088
C0S660,下馬,2025-12-27,23.150427,121.070312,9.1065466e-08
C2N190,烏樹,2025-12-27,23.32393,120.36989,0.034006152
C1H9B1,阿眉,2025-12-27,24.1263,120.994672,9.984255e-09
C0UA20,多加屯,2025-12-27,24.368614,121.373189,2.3976213e-08
C0E730,頭份,2025-12-27,24.688247,120.912206,0.62185794
72V140,高改旗南分場,2025-12-27,22.857861,120.516667,0.019773064
C0K480,莿桐,2025-12-27,23.761192,120.502372,2.4733243e-08
C0U980,坪林石牌,2025-12-27,24.86478,121.77396,9.272635e-08
C0T900,西林,2025-12-27,23.8119,121.441458,4.107046e-06
C1I150,青雲,2025-12-27,23.793361,120.949378,2.437079e-08
C2E980,和興,2025-12-27,24.505319,120.923016,6.8031696e-08
467350,澎湖,2025-12-27,23.565503,119.563094,0.9983839
C0G800,埔鹽,2025-12-27,24.000394,120.431683,0.0022675714
C0H960,草屯,2025-12-27,23.973672,120.68085,0.44955158
C1V780,多納林道,2025-12-27,22.888028,120.737917,8.598844e-09
C0E920,通霄漁港,2025-12-27,24.498589,120.673876,0.99270517
C0Z330,安通山,2025-12-27,23.290728,121.348528,7.380426e-07
C0AH10,永和,2025-12-27,25.01125,121.508111,0.7631656
C0AK10,太平里,2025-12-27,25.134937,121.364899,0.9974922
C2G640,鹿港,2025-12-27,24.0753,120.430481,0.0035480168
C1E890,國三N149K,2025-12-27,24.463414,120.680019,0.80391747
C1R110,口社,2025-12-27,22.770111,120.645222,4.285045e-05
C1M870,國三N285K,2025-12-27,23.550319,120.505833,5.21237e-06
C1E480,鳳美,2025-12-27,24.554803,121.034747,1.4743401e-07
C0T9M0,靜浦,2025-12-27,23.455167,121.495028,5.665899e-05
C2H9M0,發祥,2025-12-27,24.154094,121.164517,7.839288e-09
C2G9C0,埔南,2025-12-27,23.99124,120.46969,0.0021321634
C0AI40,石牌,2025-12-27,25.115597,121.513139,0.7583149
C1F871,上谷關,2025-12-27,24.203483,121.018644,1.04033715e-08
C2H9G0,百勝,2025-12-27,24.051142,120.909361,0.007576187
C0G880,二水,2025-12-27,23.810742,120.6173,7.266742e-09
C0R940,加祿堂,2025-12-27,22.3363,120.6217,0.9969998
C0W220,北竿,2025-12-27,26.220358,119.974881,0.0011598145
C0O960,崎頂,2025-12-27,22.959547,120.369317,3.8570735e-05
C0TA40,秀林,2025-12-27,24.302864,121.731144,3.8987668e-08
C0S750,向陽,2025-12-27,23.248397,120.986133,2.5234101e-08
C0T9F0,水璉,2025-12-27,23.797131,121.542514,9.849631e-07
C1M600,頭凍,2025-12-27,23.406364,120.603339,1.5351852e-09
467660,臺東,2025-12-27,22.752211,121.154586,0.9999753
C1D380,新埔,2025-12-27,24.84745,121.03834,0.26297244
C2G980,田頭村,2025-12-27,23.8263,120.444175,4.3422602e-08
C0V750,路竹,2025-12-27,22.854997,120.259439,0.9227969
C0N050,蚵寮,2025-12-27,23.301,120.1104,0.106019
C2X060,下營,2025-12-27,23.226806,120.256291,0.10005338
72M700,南改鹿草分場,2025-12-27,23.416869,120.283061,0.000995587
C1SA50,利嘉林道,2025-12-27,22.82325,121.009389,1.2667918e-07
C0UB70,太平山中間站,2025-12-27,24.542003,121.513453,3.854749e-08
C0A940,金山,2025-12-27,25.223628,121.643967,0.9970538
C1V340,大津,2025-12-27,22.888322,120.645986,1.4359345e-06
C0W180,七美,2025-12-27,23.219333,119.444892,0.999055
C1F9C1,白冷,2025-12-27,24.182844,120.929889,9.955769e-06
K2E710,苗改生物防治研究中心,2025-12-27,24.422861,120.871833,1.0824454e-05
C0N040,蘆竹溝,2025-12-27,23.2344,120.0961,0.11711364
C0TB40,崇德,2025-12-27,24.166144,121.657414,0.00061542087
C0D760,大坪苗圃,2025-12-27,24.5362,121.1108,1.2123261e-08
C2W230,畜試所澎湖,2025-12-27,23.628342,119.513206,0.99752057
C0R880,後壁湖,2025-12-27,21.9457,120.7457,0.30340487
C1I280,埔中,2025-12-27,23.820778,120.642594,3.786455e-08
467790,墾丁雷達站,2025-12-27,21.948235,120.808028,0.2199434
C0W190,望安,2025-12-27,23.380564,119.494075,0.9988307
C0Z170,卓溪,2025-12-27,23.3443,121.3029,0.000443649
C0F850,東勢,2025-12-27,24.246428,120.833047,1.1141927e-06
466900,淡水,2025-12-27,25.164889,121.448906,0.9974914
C0I370,魚池,2025-12-27,23.895703,120.94135,2.1528514e-07
C0C630,大溪,2025-12-27,24.882853,121.265547,0.9246404
C0A520,山佳,2025-12-27,24.974944,121.402008,0.67707616
C0I110,竹山,2025-12-27,23.761225,120.688156,0.052198067
82H840,茶改南部分場,2025-12-27,23.762528,120.7405,1.3467464e-07
C2SD80,再來山,2025-12-27,23.34371,121.44122,0.99995726
C0G660,溪湖,2025-12-27,23.94835,120.479122,0.0014618956
C1T800,洛韶,2025-12-27,24.204558,121.453956,2.4199453e-08
C1T810,慈恩,2025-12-27,24.192044,121.388386,2.7751373e-08
C1E451,象鼻,2025-12-27,24.368617,120.940228,1.1525172e-08
C0AC60,三峽,2025-12-27,24.939025,121.369728,0.98784834
C0I490,萬大林道,2025-12-27,23.928228,121.091411,8.278249e-09
C1I290,豐丘,2025-12-27,23.668178,120.887417,1.0479588e-08
C1I320,奧萬大,2025-12-27,23.952956,121.178556,6.974788e-09
C2M910,嘉義大學,2025-12-27,23.471325,120.485903,8.1480386e-05
C0U770,南澳,2025-12-27,24.44935,121.81022,0.0014927399
C2TB30,吉安,2025-12-27,23.94538,121.54803,5.491597e-05
C0A980,社子,2025-12-27,25.109508,121.469681,0.78584045
C0V800,六龜,2025-12-27,22.997889,120.633583,2.9016238e-07
C1G9D0,國一S218K,2025-12-27,23.890641,120.493253,0.00071606145
C0E570,白沙屯,2025-12-27,24.549447,120.696803,0.9928199
C2F9A0,中竹林,2025-12-27,24.103556,120.751061,3.83811e-08
C0FA40,臺中電廠,2025-12-27,24.2146,120.4907,0.98827106
C2G9A0,畜試所彰化,2025-12-27,23.86045,120.557964,2.4650635e-08
C0H9C0,合歡山,2025-12-27,24.143442,121.272547,3.9037374e-08
G2M350,農試溪口農場,2025-12-27,23.58565,120.408111,0.0013818891
C0U860,頭城,2025-12-27,24.85323,121.8308,0.0005584321
C0R580,南州,2025-12-27,22.48591,120.50274,0.9974038
C0D430,峨眉,2025-12-27,24.6905,121.017189,0.2273584
C0G780,秀水,2025-12-27,24.03405,120.503869,0.0019738346
72N100,臺南農改場,2025-12-27,23.0605,120.342194,0.019879274
C0S900,蘭嶼高中,2025-12-27,22.04909,121.51214,0.9598507
C2TA60,六十石,2025-12-27,23.22477,121.31861,5.739102e-08
C1F9W0,德基,2025-12-27,24.254783,121.190261,1.2435517e-08
C2M980,安和,2025-12-27,23.51377,120.31593,0.0005511238
C1Z120,壽豐,2025-12-27,23.870853,121.508081,0.00015648485
C0W160,烏坵,2025-12-27,24.9944,119.44956,0.995537
C1I240,外大坪,2025-12-27,23.958697,120.917931,4.700129e-08
C1I550,國六W023K,2025-12-27,23.979067,120.867742,1.9400413e-07
C0R870,興海,2025-12-27,21.9752,120.8439,0.26128978
C0R140,瑪家,2025-12-27,22.682903,120.686639,2.5248834e-08
C0A530,坪林,2025-12-27,24.938183,121.70975,0.00045843417
C0X260,後壁,2025-12-27,23.366358,120.362326,0.018414978
C0Z230,和平,2025-12-27,24.30717,121.77007,0.0013496444
C0G770,福興,2025-12-27,24.041289,120.437669,0.0032053024
C0H9A0,神木村,2025-12-27,23.532742,120.843667,6.1418244e-09
C0I460,南投,2025-12-27,23.911469,120.687331,0.5554156
C0I480,梅峰,2025-12-27,24.085272,121.173572,1.4943499e-08
C1V570,吉東,2025-12-27,22.85422,120.5454,0.005799356
C2A560,福山,2025-12-27,24.776203,121.502811,4.5314474e-07
C0AH30,五分山,2025-12-27,25.07125,121.780794,3.186989e-07
C0FA10,松柏,2025-12-27,24.429115,120.617482,0.99270517
72S200,東改班鳩分場,2025-12-27,22.829528,121.077694,0.99997133
72HA00,中改埔里分場,2025-12-27,23.903208,120.963364,5.112512e-07
C2H9W0,大坪頂農水,2025-12-27,24.043122,120.932781,5.7061605e-08
C0C650,平鎮,2025-12-27,24.897503,121.214636,0.9119322
C0S930,延平,2025-12-27,22.902581,121.084058,0.017489446
C0UA60,樟樹山,2025-12-27,24.41393,121.78325,9.780805e-08
C2UC10,出水溪,2025-12-27,24.615822,121.652253,9.780805e-08
C1S670,摩天,2025-12-27,23.199503,121.027,1.7613454e-08
C2C590,觀音,2025-12-27,25.027072,121.153317,0.9832222
C0V630,茄萣,2025-12-27,22.906642,120.182608,0.3297344
466940,基隆,2025-12-27,25.133314,121.740475,0.65514296
C0X050,東河,2025-12-27,23.296598,120.385608,0.15504667
C0R770,保力,2025-12-27,22.071122,120.764111,0.20799483
G2L020,農試嘉義分所,2025-12-27,23.485028,120.473806,5.1810715e-05
C0X240,關子嶺,2025-12-27,23.331169,120.508025,9.50869e-09
C0I380,集集,2025-12-27,23.828206,120.801467,0.0007422415
466990,花蓮,2025-12-27,23.975128,121.613275,0.0069440845
C1V220,小關山,2025-12-27,23.154217,120.813603,1.03552455e-08
C1F9G1,慶福山,2025-12-27,24.180853,120.848378,7.987138e-09
C0FB20,雪山橋,2025-12-27,24.23192,120.9786,1.4918864e-08
C0Z250,瑞穗林道,2025-12-27,23.49284,121.30688,4.561538e-08
C0D590,新豐,2025-12-27,24.87068,120.97721,0.11203208
C0A870,五指山,2025-12-27,25.132153,121.608692,0.00068582693
C0UA50,西帽山,2025-12-27,24.555361,121.802628,4.845065e-08
C2R980,竹田國中,2025-12-27,22.61532,120.52412,0.99667734
C0X160,仁德,2025-12-27,22.968258,120.257689,0.13393821
C1H971,六分寮,2025-12-27,23.92507,120.6378,2.0531896e-08
C0W120,西嶼,2025-12-27,23.5626,119.468436,0.99839276
C0G650,員林,2025-12-27,23.946503,120.585597,0.0006693632
C0AD50,鶯歌,2025-12-27,24.951533,121.346294,0.98343915
C2H9Q0,北東眼山,2025-12-27,24.120939,121.189303,1.3154179e-08
C2H9T0,名間竹圍,2025-12-27,23.859914,120.637572,5.9003716e-05
C0S990,山豬窟,2025-12-27,22.318619,120.857372,0.0014789201
C0X190,安平,2025-12-27,22.993161,120.152181,0.3268555
C0K400,斗六,2025-12-27,23.720583,120.541127,1.709706e-08
12J990,口湖工作站,2025-12-27,23.589978,120.180394,0.0013642157
C0O830,北寮,2025-12-27,23.079561,120.495008,0.0045757773
C1D410,白蘭,2025-12-27,24.579364,121.079947,1.1653867e-08
C0S970,加津林,2025-12-27,22.416211,120.926942,0.99894845
C0D700,關西,2025-12-27,24.7977,121.1732,0.50814754
C0U750,龜山島,2025-12-27,24.841667,121.953133,4.1611267e-07
C0R810,內獅,2025-12-27,22.305064,120.642986,0.9970843
C1M390,龍美,2025-12-27,23.406728,120.654417,3.7951007e-09
C2K290,崙內,2025-12-27,23.69525,120.35601,0.06723727
C2FB60,頭櫃山,2025-12-27,24.129842,120.858925,7.0264354e-09
C1H840,國三N238K,2025-12-27,23.841008,120.707711,0.00068396406
CAQ030,崎峰國小,2025-12-27,22.42565,120.49521,0.9974038
C2E520,大湖,2025-12-27,24.414939,120.870872,5.0246063e-06
467530,阿里山,2025-12-27,23.508208,120.813242,2.1559266e-08
C1E691,南湖,2025-12-27,24.40135,120.837533,2.4049356e-08
C0FA30,梧棲,2025-12-27,24.256003,120.523381,0.98817956
C1V231,高中,2025-12-27,23.134911,120.716711,1.4771401e-08
C0AK30,硬漢嶺,2025-12-27,25.136097,121.426372,0.009727263
C0F9V0,新社,2025-12-27,24.200172,120.815806,4.064482e-08
C0H890,埔里,2025-12-27,23.972169,120.952425,0.029081095
C0R690,墾丁,2025-12-27,21.966756,120.810269,0.82187873
C0SD20,富山,2025-12-27,22.822383,121.190825,0.9997543
C0F0D0,審馬陣,2025-12-27,24.381675,121.4203,4.814518e-08
C2W030,金門農試所,2025-12-27,24.448431,118.451786,0.3013731
C0R820,白鷺,2025-12-27,22.454275,120.666219,8.066812e-06
C0FB00,大雪山,2025-12-27,24.254668,121.007374,1.6226398e-08
C1V190,南天池,2025-12-27,23.27403,120.91176,2.7553114e-08
C0E940,雪見,2025-12-27,24.42595,121.01347,1.7840394e-08
K2E360,苗栗農改場,2025-12-27,24.495722,120.829111,0.09948732
CAJ050,海口故事園區,2025-12-27,23.57543,120.14121,0.0013805322
C2K280,四湖,2025-12-27,23.6304,120.22717,0.09673508
C2H9D0,三隻寮,2025-12-27,24.093078,120.861578,2.1828581e-09
C0O990,媽廟,2025-12-27,22.99175,120.293525,0.07496862
C0D480,打鐵坑,2025-12-27,24.849664,121.150789,0.077957004
C0Z220,和平林道,2025-12-27,24.343922,121.656317,9.6876754e-08
C0TA10,花蓮漁港,2025-12-27,23.995322,121.638331,0.9998704
72C440,桃園農改場,2025-12-27,24.950944,121.030583,0.52263886
C1E711,馬拉邦山,2025-12-27,24.367306,120.901656,1.08710765e-08
C0SB20,富岡,2025-12-27,22.792467,121.192669,0.99997646
C0D560,竹東,2025-12-27,24.767147,121.057881,0.13816097
C0F9U0,南屯,2025-12-27,24.137006,120.637969,0.92530584
C2SD60,明峰,2025-12-27,22.8671,121.11825,0.0035696237
C0M720,番路,2025-12-27,23.464657,120.554156,2.0947915e-08
C0F0A0,雪山圈谷,2025-12-27,24.388594,121.236339,5.143556e-08
C1A9N0,四十份,2025-12-27,24.934158,121.593283,2.1966516e-05
C0U760,東澳,2025-12-27,24.52196,121.83318,0.0008252772
C0X230,鹽水,2025-12-27,23.272621,120.247641,0.07037161
C2H9H0,苗改南投蜂場,2025-12-27,23.852589,120.693481,0.06521012
C2TB70,達谷寮,2025-12-27,23.38,121.35968,0.0015205997
C0R950,萬隆國小,2025-12-27,22.507667,120.587817,0.99475783
467540,大武,2025-12-27,22.35572,120.90374,0.4648372
C0V370,古亭坑,2025-12-27,22.893178,120.401947,0.16592409
C1I340,新興橋,2025-12-27,23.563333,120.868728,3.6827952e-09
C0SA80,土坂,2025-12-27,22.453108,120.887572,0.9998741
C0R160,鹽埔,2025-12-27,22.739558,120.530778,0.021314833
C0AC40,大屯山,2025-12-27,25.175675,121.522408,1.3949377e-06
466850,五分山雷達站,2025-12-27,25.071182,121.781205,2.9899985e-07
C2H9L0,馬烈霸,2025-12-27,24.1512,121.201772,1.282395e-08
C1AI50,國三N016K,2025-12-27,25.034164,121.619664,0.6476191
C2V920,匏子寮,2025-12-27,23.04905,120.55319,1.853382e-05
C1V600,藤枝,2025-12-27,23.071961,120.757042,1.02328075e-08
C1E601,南勢,2025-12-27,24.572486,120.734842,0.098415725
C0O980,新市,2025-12-27,23.061614,120.298197,0.13393821
C0K420,西螺,2025-12-27,23.800407,120.467394,2.8373574e-08
C0Z050,佳心,2025-12-27,23.34567,121.21316,7.2685886e-08
C0AD30,蘆洲,2025-12-27,25.086594,121.472331,0.7633958
C0V610,梓官,2025-12-27,22.760558,120.267211,0.9800056
K2F750,種苗改良場,2025-12-27,24.225972,120.800917,1.0863266e-07
C0UA80,大溪漁港,2025-12-27,24.941801,121.902955,0.60708696
C1AI60,國一39K邊坡,2025-12-27,25.064361,121.383836,0.05070809
C0W150,金寧,2025-12-27,24.457703,118.328989,4.12322e-07
C0R960,內埔,2025-12-27,22.608483,120.570714,0.9962097
V2C250,八德合作社,2025-12-27,24.93775,121.266389,0.9583531
C2H9S0,龍南,2025-12-27,23.953536,120.833183,7.957e-09
C0AH40,平等,2025-12-27,25.129142,121.577086,0.5060424
C0R540,佳冬,2025-12-27,22.419456,120.552375,0.9971027
466950,彭佳嶼,2025-12-27,25.627975,122.079744,0.9997696
C0A890,雙溪,2025-12-27,25.036003,121.864242,0.45616856
C0C480,桃園,2025-12-27,24.992425,121.323172,0.9767882
C0AH50,林口,2025-12-27,25.072181,121.38084,0.00750787
A2K360,水試臺西試驗場,2025-12-27,23.717231,120.190522,0.14210767
C2M960,外寮,2025-12-27,23.562643,120.665688,3.6443353e-09
C0F9S0,烏日,2025-12-27,24.107058,120.624103,0.0005722482
C2N180,鹿陶洋,2025-12-27,23.14325,120.48352,0.0066928673
C0C490,八德,2025-12-27,24.928708,121.283289,0.9575051
C0R190,赤山,2025-12-27,22.592333,120.614306,0.9958801
C0T820,天祥,2025-12-27,24.179597,121.495639,2.562081e-07
C1F9E1,龍安,2025-12-27,24.1605,120.831961,2.824916e-08
C2SD50,順那,2025-12-27,23.04166,121.29332,0.6638813
C0V820,小林,2025-12-27,23.148408,120.63325,5.8351057e-09
C2G870,芳苑,2025-12-27,23.922303,120.320025,0.104893334
C0E850,大河,2025-12-27,24.618069,120.948578,0.26291725
C1U670,寒溪,2025-12-27,24.634,121.71691,5.1198345e-05
C0N020,城西,2025-12-27,23.0568,120.0956,0.3348792
C1Z110,三棧,2025-12-27,24.11557,121.60501,9.373334e-08
C0R280,檳榔,2025-12-27,22.076078,120.836777,0.72635704
C2H9J0,中台,2025-12-27,23.9996,120.938739,0.00029502096
C0F9L0,后里,2025-12-27,24.310436,120.729725,0.0004979793
467441,高雄,2025-12-27,22.730432,120.312516,0.9543655
C0Z180,新城,2025-12-27,24.040486,121.604878,0.0041194963
C0D540,橫山,2025-12-27,24.71116,121.11693,0.027791746
C1D420,太閣南,2025-12-27,24.632808,121.160575,3.1377645e-08
C1E770,公館,2025-12-27,24.526914,120.830806,0.6650238
CAN130,水試所海水繁養殖中心,2025-12-27,23.120802,120.07968,0.44477245
C1I430,翠華,2025-12-27,24.191961,121.224339,1.8905887e-08
C1M400,菜瓜坪,2025-12-27,23.251928,120.576103,6.7400086e-09
C0G730,二林,2025-12-27,23.903325,120.376081,0.0019738346
72M360,南改義竹分場,2025-12-27,23.360694,120.279361,0.06600742
V2K620,麥寮合作社,2025-12-27,23.753836,120.294783,0.09054725
C0Z070,舞鶴,2025-12-27,23.46811,121.37407,1.4996027e-06
C0B040,大武崙,2025-12-27,25.166676,121.706993,0.52895755
C1Z030,紅葉,2025-12-27,23.493119,121.338806,3.6716667e-06
C1I050,丹大,2025-12-27,23.753747,121.141147,2.6361965e-08
C0I080,信義,2025-12-27,23.689694,120.851036,8.007746e-09
C2TB80,庄子底,2025-12-27,23.71794,121.49438,3.645214e-05
C0D750,樂山林道6k,2025-12-27,24.49999,121.08773,2.3706692e-08
C2M920,朴子農改,2025-12-27,23.469889,120.259383,0.0013215119
C2A880,福隆,2025-12-27,25.017842,121.942083,0.60708696
C0Z160,鳳林,2025-12-27,23.746114,121.453411,2.428664e-05
C0UB80,翠峰林道6K,2025-12-27,24.49773,121.568625,2.9630058e-08
C0V210,復興,2025-12-27,23.222403,120.806089,1.3764783e-08
C0H990,昆陽,2025-12-27,24.121322,121.273642,3.134116e-08
C0R741,獅子,2025-12-27,22.202308,120.705236,0.99993193
C0S710,鹿野,2025-12-27,22.917711,121.122994,0.00033573338
C0I530,小奇萊,2025-12-27,24.131764,121.295717,3.340324e-08
C0FA70,大雪山埡口,2025-12-27,24.26867,121.03062,2.1961936e-08
C2K630,荷苞,2025-12-27,23.657717,120.595144,2.7642901e-09
C0Z080,富源,2025-12-27,23.587642,121.378225,5.638708e-07
C2M9E0,旺來山,2025-12-27,23.555153,120.486463,3.3955273e-06
C0SB10,美和,2025-12-27,22.682078,121.060236,0.99993956
C2K620,馬光農場,2025-12-27,23.721453,120.378864,5.2768325e-08
C1I140,卡奈托灣,2025-12-27,23.754364,121.087872,1.2441709e-08
C0I520,玉山風口,2025-12-27,23.470489,120.955994,5.3378937e-08
C1G691,下水埔,2025-12-27,23.816114,120.5676,1.436713e-08
C0X110,臺南市南區,2025-12-27,22.961189,120.188378,0.3166811
C0V680,仁武,2025-12-27,22.701083,120.347722,0.9501261
C2G840,北斗,2025-12-27,23.877586,120.514222,0.0006585195
C2TB90,長橋,2025-12-27,23.6874,121.46186,2.3893119e-05
C0R900,竹坑,2025-12-27,22.1385,120.7022,0.99992406
C0G860,社頭,2025-12-27,23.897647,120.5862,0.00040836615
C0X150,安定,2025-12-27,23.102614,120.227839,0.3297344
C0R590,里港,2025-12-27,22.77919,120.49459,0.022990609
C0E610,馬都安,2025-12-27,24.451272,120.930192,1.7005574e-08
C0E550,明德,2025-12-27,24.583486,120.885411,0.78064007
C0R150,三地門,2025-12-27,22.709889,120.639944,5.7598678e-05
C0G910,花壇,2025-12-27,24.032076,120.549461,0.00073613384
C1D400,鳥嘴山,2025-12-27,24.71909,121.28387,8.1955996e-08
C0K500,元長,2025-12-27,23.64981,120.315024,0.078566924
C0F0B0,石岡,2025-12-27,24.276061,120.777644,5.4774497e-05
C2V250,甲仙,2025-12-27,23.080106,120.591758,1.133074e-07
C0SA20,金崙山,2025-12-27,22.567419,120.959667,0.00013587144
C0V350,溪埔,2025-12-27,22.738578,120.446797,0.036995772
C0M660,溪口,2025-12-27,23.604131,120.403569,0.0013720421
C1S880,壽卡,2025-12-27,22.238911,120.858903,7.577732e-05
72D680,桃改新埔分場,2025-12-27,24.834444,121.066111,0.30976364
