站號,站名,日期,lat,lon,BLBTSLS
K2F750,種苗繁殖,2025-02-26,24.225972,120.800917,8.0625767e-10
C0R170,屏東,2025-02-26,22.660269,120.494072,1.4166358e-07
467990,馬祖,2025-02-26,26.169269,119.923419,4.4680533e-07
C2E540,後龍,2025-02-26,24.606489,120.783933,3.7389363e-09
467300,東吉島,2025-02-26,23.25695,119.667467,0.9760127
G2F820,農業試驗所,2025-02-26,24.031261,120.688133,6.8866657e-10
467410,臺南,2025-02-26,22.993239,120.204772,1.569147e-09
C0V310,美濃,2025-02-26,22.898742,120.519153,9.019757e-07
E2S960,林試太麻里2,2025-02-26,22.598014,120.989761,6.745465e-08
72C440,桃園農改,2025-02-26,24.950944,121.030583,2.003062e-06
C1H860,瑞岩,2025-02-26,24.123772,121.18345,6.864873e-09
72G600,臺中農改,2025-02-26,24.003028,120.534389,5.820508e-10
72N100,臺南農改,2025-02-26,23.0605,120.342194,1.6197447e-09
72T250,花蓮農改,2025-02-26,23.975222,121.563889,1.8348171e-08
467620,蘭嶼,2025-02-26,22.036969,121.558339,0.9999401
K2E360,苗栗農改,2025-02-26,24.495722,120.829111,3.243695e-09
467050,新屋,2025-02-26,25.006744,121.047486,9.853277e-06
467550,玉山,2025-02-26,23.487614,120.959522,3.281682e-08
466881,新北,2025-02-26,24.9593,121.52,3.9312194e-08
467540,大武,2025-02-26,22.355675,120.903789,0.0011540498
72Q010,高雄農改,2025-02-26,22.709333,120.525889,5.9422167e-10
U2H480,臺大溪頭,2025-02-26,23.670306,120.798194,1.8918467e-09
C0Z180,新城,2025-02-26,24.03946,121.60454,1.897659e-08
B2N890,畜試所,2025-02-26,23.058972,120.336406,1.6197447e-09
467441,高雄,2025-02-26,22.7304,120.3125,8.732119e-10
