站號,站名,日期,lat,lon,BLBTSLS
C0R710,龍磐,2025-03-26,21.931672,120.838942,0.99998105
C1F9D1,白毛台,2025-03-26,24.158325,120.886933,4.7002437e-09
C0G940,竹塘,2025-03-26,23.848253,120.386764,4.6307282e-09
467590,恆春,2025-03-26,22.003897,120.746339,0.9999902
C1O850,環湖,2025-03-26,23.148617,120.418633,3.8865884e-09
C0U710,太平山,2025-03-26,24.505486,121.525656,3.3659e-08
C0E820,獅潭,2025-03-26,24.539133,120.920042,4.4240433e-06
C0V880,興達,2025-03-26,22.8778,120.2127,2.1560573e-09
C0S890,關山,2025-03-26,23.0395,121.175017,2.3150946e-08
C0SB30,新蘭,2025-03-26,22.869214,121.223228,3.128645e-08
C2R970,屏科大,2025-03-26,22.648275,120.619247,8.3016144e-10
K2F750,種苗繁殖,2025-03-26,24.225972,120.800917,5.9730367e-09
C1Z130,銅門,2025-03-26,23.965694,121.492842,1.5909578e-08
C0AD40,土城,2025-03-26,24.973208,121.445169,0.8104808
CAN140,六官養殖協會,2025-03-26,23.22881,120.29962,1.8123472e-09
C0X180,山上,2025-03-26,23.0757,120.363253,1.3894158e-09
C0F9Z0,雪山東峰,2025-03-26,24.388792,121.268675,5.491445e-08
C1M480,獨立山,2025-03-26,23.537022,120.607797,2.9441098e-09
C0X220,學甲,2025-03-26,23.230367,120.182187,2.5590192e-09
467650,日月潭,2025-03-26,23.881325,120.90805,7.058728e-09
C0K600,箔子寮,2025-03-26,23.6197,120.14,1.6787708e-07
C0G830,埤頭,2025-03-26,23.866003,120.452806,3.4576868e-09
C0S950,七塊厝,2025-03-26,22.954453,121.229922,1.9667e-08
467110,金門,2025-03-26,24.407306,118.289281,8.0443945e-09
C0AH80,深坑,2025-03-26,25.002703,121.628328,0.699689
467990,馬祖,2025-03-26,26.169269,119.923419,8.619222e-09
C0A970,三貂角,2025-03-26,25.007606,122.002058,9.218151e-07
C2D730,寶山農場,2025-03-26,24.732444,120.976153,0.0002950626
C0K430,褒忠,2025-03-26,23.690938,120.303634,0.6103553
467480,嘉義,2025-03-26,23.495925,120.432906,1.1579575e-08
C2E540,後龍,2025-03-26,24.606489,120.783933,0.7259817
C0V400,阿公店,2025-03-26,22.804194,120.355528,8.148822e-08
467550,玉山,2025-03-26,23.48718,120.95943,5.332368e-08
C0R440,大漢山,2025-03-26,22.405264,120.753181,2.7465594e-08
C0K280,四湖,2025-03-26,23.630414,120.227125,0.9137441
C1F9B1,桐林,2025-03-26,24.066172,120.735194,1.4427247e-05
C2H9U0,鳳鵬,2025-03-26,23.763919,120.788061,1.5700541e-09
C0K390,土庫,2025-03-26,23.679029,120.395574,4.2049777e-09
C1I450,望鄉山,2025-03-26,23.594153,120.944286,3.332287e-08
C0E910,海埔,2025-03-26,24.648767,120.772435,0.0149159515
B2E890,畜試北區分所,2025-03-26,24.527806,120.770972,0.010144335
C0R750,四林格山,2025-03-26,22.076989,120.802439,0.71450496
C0F0C0,中坑,2025-03-26,24.248517,120.903319,1.1156697e-08
C1I121,大鞍,2025-03-26,23.678381,120.760017,1.2685866e-08
72U480,花改蘭陽分場,2025-03-26,24.686306,121.716583,4.8984157e-07
C0A770,科教館,2025-03-26,25.096356,121.516507,0.8367841
C0AJ60,六塊厝,2025-03-26,25.24,121.4481,0.907139
C0R620,墾雷,2025-03-26,21.900836,120.855269,0.9999781
467420,永康,2025-03-26,23.038386,120.2367,2.0152475e-09
467300,東吉島,2025-03-26,23.25695,119.667467,0.9999944
C0I410,名間,2025-03-26,23.837053,120.701447,1.3703766e-09
A2C560,農工中心,2025-03-26,24.985917,121.239833,0.24540088
C0V740,旗山,2025-03-26,22.888614,120.483597,4.5682164e-08
C0Z061,玉里,2025-03-26,23.3215,121.339656,4.2121965e-08
C0S840,南田,2025-03-26,22.279725,120.889208,7.862304e-09
C1I470,杉林溪,2025-03-26,23.639517,120.786444,1.5040952e-08
C1X040,東原,2025-03-26,23.291597,120.463822,1.2231606e-09
C0R660,枋寮,2025-03-26,22.367722,120.590647,4.1428923e-08
C1R120,上德文,2025-03-26,22.763272,120.704442,1.2622846e-08
C0K450,大埤,2025-03-26,23.646074,120.431537,3.2527405e-09
C0UA00,土場,2025-03-26,24.576533,121.495333,1.6545899e-08
467080,宜蘭,2025-03-26,24.763975,121.756528,4.284162e-06
C0N030,四草,2025-03-26,23.0235,120.1116,2.4282065e-09
467410,臺南,2025-03-26,22.99328,120.20492,1.8040596e-09
C0V650,彌陀,2025-03-26,22.783806,120.246361,2.735537e-07
C0D660,新竹市東區,2025-03-26,24.798681,120.986942,1.5406192e-06
82S580,茶改東部分場,2025-03-26,22.907694,121.130139,2.2367436e-08
C0SB40,興隆,2025-03-26,22.913661,121.257469,3.0482294e-08
467050,新屋,2025-03-26,25.006725,121.047492,0.9460792
C0C710,大溪永福,2025-03-26,24.892936,121.324975,0.2027882
C0FA20,溫寮,2025-03-26,24.372177,120.583125,0.99777406
C0V640,湖內,2025-03-26,22.887139,120.2445,2.1093365e-09
C0R910,下寮,2025-03-26,22.3929,120.5548,4.1435243e-08
C0Z020,明里,2025-03-26,23.208717,121.262342,3.3030393e-08
C0M770,嘉義梅山,2025-03-26,23.585398,120.555587,1.7581693e-09
G2F820,農業試驗所,2025-03-26,24.031261,120.688133,0.2850422
C0C660,楊梅,2025-03-26,24.912375,121.143047,0.08382304
C1E511,新開,2025-03-26,24.347703,120.827019,2.1386636e-08
G2F820,農試所(霧峰),2025-03-26,24.031261,120.688133,0.021069676
C1I070,和社,2025-03-26,23.591131,120.888861,1.4267292e-08
C2F000,大肚,2025-03-26,24.15295,120.572117,1.556817e-09
C1S850,豐南,2025-03-26,23.122139,121.262389,2.1067079e-08
C2A920,富貴角,2025-03-26,25.263783,121.565258,0.18687725
CAH030,茶改場竹圍站,2025-03-26,23.860083,120.637528,1.2737964e-09
C0T960,光復,2025-03-26,23.660694,121.424964,1.28043e-08
C0F9M0,豐原,2025-03-26,24.254322,120.720692,1.8264952e-07
C0R720,旭海,2025-03-26,22.205403,120.887614,6.551132e-09
C0V710,苓雅,2025-03-26,22.622742,120.330669,1.0990564e-07
C0C740,觀音工業區,2025-03-26,25.064764,121.114856,0.9660085
CAC040,拉拉山,2025-03-26,24.699317,121.427133,2.8394526e-08
C0V790,萬山,2025-03-26,22.905944,120.688056,1.4433784e-09
U2HA30,臺大和社,2025-03-26,23.590856,120.888864,1.4267292e-08
C0AJ90,澳底,2025-03-26,25.0552,121.9253,2.957873e-06
C0Z100,東華,2025-03-26,23.89525,121.549833,1.7508349e-08
C0G970,三豐,2025-03-26,23.882,120.2895,5.0600935e-05
V2K610,大庄合作社,2025-03-26,23.8068,120.367939,0.7218903
C0V900,汕尾,2025-03-26,22.4782,120.4151,1.771909e-08
C1R630,龍泉,2025-03-26,22.66701,120.59091,8.1447743e-10
C1AC50,關渡,2025-03-26,25.133486,121.469331,0.75088984
C0F9I0,神岡,2025-03-26,24.272481,120.658314,1.1297567e-06
C0K460,斗南,2025-03-26,23.678734,120.478359,3.2018046e-09
467410,臺南,2025-03-26,22.993239,120.204772,0.00032766204
C2O810,曾文,2025-03-26,23.219681,120.497328,9.793155e-10
467280,後龍,2025-03-26,24.648563,120.831834,0.006981975
C1F9J1,清水林,2025-03-26,24.071242,120.820419,3.1360934e-09
C2A650,火燒寮,2025-03-26,25.002719,121.742892,2.2687524e-07
466930,竹子湖,2025-03-26,25.162078,121.544547,2.3535488e-08
C1I220,樟湖,2025-03-26,23.905333,120.846983,7.659853e-09
C0I390,仁愛,2025-03-26,24.022122,121.132206,8.817934e-09
C0Z300,東里,2025-03-26,23.26853,121.30547,3.619841e-08
C1V590,新發,2025-03-26,23.057019,120.646064,5.231054e-09
C0K510,水林,2025-03-26,23.572924,120.24597,1.6834635e-07
72S590,東改賓朗果園,2025-03-26,22.813889,121.071278,1.6066593e-08
82A750,茶改北部分場,2025-03-26,24.955778,121.631222,1.9398687e-08
C1A750,石碇服務區,2025-03-26,25.00872,121.646242,0.7895422
C0X300,鹿寮,2025-03-26,23.386047,120.477331,1.6061591e-09
G2AI50,關渡,2025-03-26,25.11575,121.492,0.9467432
C0K590,雲林東勢,2025-03-26,23.674192,120.255721,0.48133594
C0A570,桶後,2025-03-26,24.848222,121.597992,1.8266602e-08
C1S800,華源,2025-03-26,22.657883,121.02325,4.295176e-08
C0G720,溪州,2025-03-26,23.851589,120.499093,3.3631384e-09
C1V160,達卡努瓦,2025-03-26,23.279811,120.705319,7.843117e-09
C2M410,馬頭山,2025-03-26,23.324361,120.582017,1.4168007e-09
C0V850,蚵仔寮,2025-03-26,22.7256,120.2527,1.7913692e-07
C0S740,池上,2025-03-26,23.119628,121.209469,2.5939306e-08
C1V390,尖山,2025-03-26,22.813153,120.367789,5.896902e-08
C0AH70,松山,2025-03-26,25.04871,121.55042,0.8170163
C0N010,鯤鯓國小,2025-03-26,23.1879,120.0889,2.9909977e-09
C0R550,新埤,2025-03-26,22.467947,120.582894,1.4185238e-08
C0SA60,知本（水試所）,2025-03-26,22.702394,121.082761,6.520071e-08
C0T9I0,豐濱,2025-03-26,23.583897,121.514806,1.8106068e-08
C0UB00,淡江大學蘭陽校園,2025-03-26,24.823239,121.730383,1.3483727e-08
C0W240,九宮,2025-03-26,24.423753,118.240186,8.11041e-09
C0T9N0,富里,2025-03-26,23.171639,121.249378,3.6183017e-08
U2HA50,臺大竹山,2025-03-26,23.756972,120.681556,1.3374808e-09
C0V840,鳳鼻頭,2025-03-26,22.5083,120.3591,7.778419e-08
C0X140,西港,2025-03-26,23.125608,120.203108,2.6220641e-09
72D080,桃改五峰分場,2025-03-26,24.612194,121.157167,2.7735814e-08
C2H9P0,伊拿谷,2025-03-26,23.963211,121.088264,5.6995657e-09
C2H9F0,柑林,2025-03-26,24.018658,120.847072,1.6051699e-09
C0TA20,加灣,2025-03-26,24.082025,121.608944,1.7090573e-08
C0V530,阿蓮,2025-03-26,22.883208,120.327508,1.5540846e-09
C1O880,關山,2025-03-26,23.173397,120.594092,1.1544528e-09
C0E791,卓蘭,2025-03-26,24.3126,120.8244,1.3697658e-08
C1I030,武界,2025-03-26,23.913225,121.052483,5.863667e-09
C0R520,崁頂,2025-03-26,22.514781,120.506914,1.6389137e-08
C0R341,牡丹,2025-03-26,22.130036,120.792639,9.550732e-09
C0R930,萬丹,2025-03-26,22.5885,120.4851,1.5783089e-08
C0S760,紅石,2025-03-26,23.069131,121.126219,2.7370312e-08
C2C410,中央大學,2025-03-26,24.967652,121.185165,0.1899738
C1M610,石磐龍,2025-03-26,23.496606,120.663506,5.7238383e-09
C0UA10,鴛鴦湖,2025-03-26,24.590269,121.412228,3.1452785e-08
V2C260,八德蔬果,2025-03-26,24.978508,121.281819,0.11876019
C0R800,丹路,2025-03-26,22.204481,120.750989,1.21162795e-08
C0G920,永靖,2025-03-26,23.924703,120.547533,7.5495926e-08
C2M950,太和,2025-03-26,23.538372,120.702961,7.68561e-09
C1A630,下盆,2025-03-26,24.771003,121.538622,2.1647114e-08
B2N890,畜產試驗所,2025-03-26,23.058972,120.336406,1.7315156e-09
C0UA30,白嶺,2025-03-26,24.527819,121.519031,2.5305484e-08
C1V580,溪南(特生中心),2025-03-26,23.084972,120.788475,1.4657036e-08
C1T970,大農,2025-03-26,23.615233,121.413331,1.7778502e-08
E2S960,林試太麻里2,2025-03-26,22.598014,120.989761,1.4387881e-07
C0R650,竹田,2025-03-26,22.58486,120.54344,1.580068e-08
C1H900,清流,2025-03-26,24.080775,120.962997,4.808349e-09
C1C510,水尾,2025-03-26,24.940081,121.087161,0.58635604
C0F9X0,大雅(中科園區),2025-03-26,24.21528,120.62445,4.559289e-05
C0SB60,白守蓮,2025-03-26,23.126769,121.401914,5.2832576e-08
C0O970,虎頭埤,2025-03-26,23.021375,120.347878,1.6240478e-09
C0C730,中大臨海站,2025-03-26,24.966126,121.008581,0.96491015
C0X250,新營,2025-03-26,23.310689,120.316681,1.486279e-09
C0V700,三民,2025-03-26,22.645017,120.311233,2.2308984e-07
C0U870,大礁溪,2025-03-26,24.791042,121.675047,1.2924973e-08
C0E870,高鐵苗栗,2025-03-26,24.60725,120.826094,0.45536
A2K570,古坑花卉中心,2025-03-26,23.63353,120.55239,1.3890025e-09
C0TA30,鹽寮,2025-03-26,23.845606,121.592664,1.7813157e-08
C0M860,新美,2025-03-26,23.338017,120.683169,2.2575686e-09
C1E701,八卦,2025-03-26,24.491756,120.927619,3.733971e-08
C0I420,國姓,2025-03-26,24.037803,120.855072,1.6932611e-09
C2D720,關西工作站,2025-03-26,24.757275,121.184792,2.8450177e-06
C0S960,香蘭,2025-03-26,22.587569,120.993375,1.4952679e-08
467620,蘭嶼,2025-03-26,22.0369,121.55843,0.9999948
C0R260,春日,2025-03-26,22.370361,120.628306,2.2549445e-08
72G600,臺中農改場,2025-03-26,24.003028,120.534389,6.1082396e-08
C0Z210,瑞穗,2025-03-26,23.5239,121.39021,2.2430022e-08
C0M820,達邦,2025-03-26,23.453994,120.749517,4.6381e-09
C0V860,南寮,2025-03-26,22.7616,120.2339,1.8045137e-07
C0G740,大城,2025-03-26,23.852487,120.320935,2.9822588e-05
C0R920,塭仔,2025-03-26,22.4169,120.5197,4.67902e-08
C0R470,高樹,2025-03-26,22.826389,120.600806,9.251957e-10
C0R680,佳樂水,2025-03-26,21.993578,120.861633,0.99998736
C1O870,大棟山,2025-03-26,23.31157,120.52226,9.903025e-09
C0D360,梅花,2025-03-26,24.678347,121.208558,4.3981657e-08
C0Z190,富世,2025-03-26,24.14743,121.6297,1.7037229e-08
C0AI10,屈尺,2025-03-26,24.92184,121.54475,0.71322465
B2U990,畜試東區分所,2025-03-26,24.669039,121.832561,4.3565623e-07
C0SB80,長濱漁港,2025-03-26,23.313644,121.459994,5.9067517e-08
C0R240,來義,2025-03-26,22.527306,120.625111,9.496781e-09
C0V910,大樹,2025-03-26,22.684645,120.432803,7.451134e-10
C1R610,西大武山,2025-03-26,22.617719,120.7322,2.8210822e-08
C0G900,線西,2025-03-26,24.143358,120.443536,0.9979537
C0M700,竹崎,2025-03-26,23.526178,120.555508,1.8148482e-09
C2E880,三義,2025-03-26,24.405478,120.749819,1.4180639e-08
C0C720,竹圍,2025-03-26,25.112692,121.239824,0.9429097
C0F9P0,清水,2025-03-26,24.312297,120.562242,0.99876374
C0Z150,吉安光華,2025-03-26,23.930925,121.595153,1.6926744e-08
467300,東吉島,2025-03-26,23.25727,119.66762,0.999996
C1D640,外坪(五指山),2025-03-26,24.644447,121.090961,4.2862066e-08
C0F9O0,潭子,2025-03-26,24.213106,120.703933,3.1780715e-08
C2H9R0,卓社,2025-03-26,23.887894,121.000086,8.169283e-09
72T250,花蓮農改場,2025-03-26,23.975222,121.563889,1.8425817e-08
C0E780,銅鑼,2025-03-26,24.489681,120.790853,0.0006439372
C1T950,太安,2025-03-26,23.666719,121.370128,8.072968e-09
C0E830,苑裡,2025-03-26,24.439714,120.653053,0.99635684
467270,田中,2025-03-26,23.873803,120.581286,2.3803006e-09
C0SA10,檳榔四格山,2025-03-26,22.810031,121.109308,1.5459582e-08
C1T830,布洛灣,2025-03-26,24.17184,121.57127,1.9896401e-08
C0F970,大坑,2025-03-26,24.173142,120.722289,3.606293e-08
C1U920,思源,2025-03-26,24.393125,121.347214,1.912816e-08
C0A931,三和,2025-03-26,25.233153,121.595236,0.1358348
C0I010,廬山,2025-03-26,24.033311,121.181808,1.606261e-08
C2M940,日野賀,2025-03-26,23.434056,120.727169,5.9370198e-09
C0R860,鼻頭,2025-03-26,22.1043,120.8979,0.99997497
C0UB20,壯圍,2025-03-26,24.7359,121.8163,7.17582e-07
C0R790,九棚,2025-03-26,22.14195,120.889281,7.393068e-09
C0W110,東莒,2025-03-26,25.9652,119.98069,5.6737868e-08
C1U930,粉鳥林,2025-03-26,24.497088,121.842479,2.2819385e-08
C1I211,蘆竹湳,2025-03-26,23.934019,120.811994,2.2401667e-09
C0S830,長濱,2025-03-26,23.286817,121.411975,3.531182e-08
C1F9F1,伯公龍,2025-03-26,24.272392,120.849047,7.101631e-09
C0E810,西湖,2025-03-26,24.562947,120.7485,0.00046379928
C1I440,新高口,2025-03-26,23.478744,120.878939,2.5827042e-08
C0O840,王爺宮,2025-03-26,23.222064,120.40085,8.805223e-10
C0T9G0,鳳林山,2025-03-26,23.735269,121.420131,1.7237236e-08
C0X080,佳里,2025-03-26,23.173039,120.145086,2.9909064e-09
C0FB70,大甲溪埔,2025-03-26,24.370625,120.620067,0.99463487
C0Z310,清水斷崖,2025-03-26,24.218294,121.689142,1.6835173e-08
C0M680,太保,2025-03-26,23.455062,120.331455,2.4711786e-08
C1S820,金峰,2025-03-26,22.590969,120.933236,1.1687169e-08
C0AD10,八里,2025-03-26,25.150211,121.403947,0.9426604
C2K240,草嶺,2025-03-26,23.59555,120.693461,5.4580482e-09
C1SA70,都蘭,2025-03-26,22.87794,121.226881,3.0455094e-08
C0K440,二崙,2025-03-26,23.772797,120.408944,3.5468337e-09
C1A760,坪林交控,2025-03-26,24.94284,121.713442,2.5747616e-07
C0F9N0,大里,2025-03-26,24.092464,120.701378,1.770013e-09
C0SA90,達仁林場,2025-03-26,22.264347,120.823972,7.99546e-09
C1R290,石門山,2025-03-26,22.112611,120.756597,0.9880458
42HA10,萬大發電廠,2025-03-26,23.978875,121.139639,7.807371e-09
C0R890,山海,2025-03-26,21.9878,120.7091,0.99989426
C0T9A0,月眉山,2025-03-26,23.809928,121.539828,1.7003886e-08
C0AC70,信義,2025-03-26,25.037822,121.564597,0.80930805
C0K560,棋山,2025-03-26,23.68645,120.603417,1.4106204e-09
C2FB50,出雲,2025-03-26,24.206469,120.902794,5.1893854e-09
C1Z240,中平林道,2025-03-26,23.42115,121.26763,1.1787687e-08
U2H480,溪頭,2025-03-26,23.670306,120.798194,6.636717e-09
C0M880,好美里,2025-03-26,23.3364,120.138,2.2306161e-09
C0T9E0,大坑,2025-03-26,23.880628,121.581981,1.6963428e-08
C0K530,臺西,2025-03-26,23.701547,120.197559,0.9536172
C1E900,國一N128K,2025-03-26,24.560997,120.844186,0.0025149144
C0AJ50,水湳洞,2025-03-26,25.123695,121.862238,0.93369645
C0AI20,白沙灣,2025-03-26,25.283128,121.519058,0.87792176
C2V310,美濃,2025-03-26,22.898792,120.51907,5.4139342e-08
C0A860,大坪,2025-03-26,25.165914,121.632969,2.2290392e-08
C1U850,觀音海岸,2025-03-26,24.38319,121.77856,8.036113e-09
C2K610,草嶺石壁,2025-03-26,23.602469,120.707731,5.659884e-09
C0U950,鶯子嶺,2025-03-26,24.89754,121.79244,1.7045906e-08
C0O900,善化,2025-03-26,23.112883,120.297219,1.8013707e-09
C0K550,蔦松,2025-03-26,23.514319,120.229736,3.1198113e-07
E2P980,林試六龜中心,2025-03-26,22.991703,120.645722,9.583098e-10
C0E590,通霄,2025-03-26,24.471892,120.704622,0.03344045
C1I310,西巒,2025-03-26,23.754486,120.883956,6.35224e-09
C0A550,泰平,2025-03-26,24.971197,121.823711,1.8816166e-08
C0I360,水里,2025-03-26,23.812553,120.849792,1.142632e-09
C0R830,高士,2025-03-26,22.121825,120.836781,0.970282
C1I101,溪頭,2025-03-26,23.661789,120.807647,1.3938439e-08
C0AJ20,野柳,2025-03-26,25.20703,121.690021,0.9334355
C0B060,暖暖,2025-03-26,25.0957,121.7403,0.7345419
C1H920,長豐,2025-03-26,24.102039,120.879897,3.039861e-09
C0V360,內門,2025-03-26,22.975481,120.466769,8.468482e-10
C0R850,林邊,2025-03-26,22.4634,120.5339,1.6412818e-08
C0E930,龍鳳,2025-03-26,24.700034,120.859125,0.014769434
C0U910,冬山,2025-03-26,24.63373,121.7937,4.3565623e-07
C1E721,泰安,2025-03-26,24.489017,120.968036,1.24535084e-08
82H320,茶改中部分場,2025-03-26,23.875611,120.913583,5.8601115e-09
C0M750,布袋,2025-03-26,23.380878,120.167789,2.3505639e-07
C1S860,利嘉,2025-03-26,22.809417,121.050528,8.359583e-09
72C440,桃園農改,2025-03-26,24.950944,121.030583,9.433484e-06
E2S980,林試太麻里1,2025-03-26,22.598922,120.980044,1.31780356e-08
C0X170,關廟,2025-03-26,22.963017,120.327797,2.465462e-09
C0V720,林園,2025-03-26,22.507747,120.394511,1.4983055e-08
C1I510,線浸林道,2025-03-26,23.761508,120.832956,7.5090485e-09
C0D690,外湖,2025-03-26,24.917735,120.968711,0.9578585
C0C750,新興坑尾,2025-03-26,25.0061,121.0971,0.8626143
B2Q810,畜試南區分所,2025-03-26,21.945583,120.802167,0.99998707
C0S790,金崙,2025-03-26,22.538122,120.966875,8.430774e-09
C0AH90,福山植物園,2025-03-26,24.760717,121.58135,2.142289e-08
C0I540,奇萊稜線,2025-03-26,24.109231,121.326456,4.5042604e-08
C0M850,表湖,2025-03-26,23.24186,120.64166,2.4636428e-09
C0S770,大溪山,2025-03-26,22.478475,120.943325,7.578849e-09
C0AG80,中和,2025-03-26,24.991622,121.491792,0.81017345
C0T790,大禹嶺,2025-03-26,24.186117,121.316086,4.0006285e-08
C0T9B0,水源,2025-03-26,23.991861,121.537169,1.5892471e-08
C0R840,牡丹池山,2025-03-26,22.168389,120.841225,7.3293114e-09
C1I131,桶頭,2025-03-26,23.641944,120.654117,1.3252336e-09
CAL110,布袋國中,2025-03-26,23.35893,120.18026,1.8941504e-09
467571,新竹,2025-03-26,24.827853,121.014219,5.4127804e-06
C0Z290,赤柯山,2025-03-26,23.36893,121.38293,3.264315e-08
C0X280,將軍,2025-03-26,23.214999,120.13577,2.5802807e-09
C0S690,太麻里,2025-03-26,22.60902,120.98533,9.2665e-08
C0U880,北關,2025-03-26,24.9072,121.8734,0.8002587
C1H860,瑞岩,2025-03-26,24.123772,121.18345,1.7975312e-08
C0G810,埔心,2025-03-26,23.947633,120.525456,8.030447e-08
C0U970,大福,2025-03-26,24.80064,121.81389,5.482996e-06
C2H9N0,仁愛東眼,2025-03-26,24.026875,121.1205,1.4599531e-08
C1E670,南礦,2025-03-26,24.538278,121.002836,1.2053376e-08
C0M520,東後寮,2025-03-26,23.369908,120.248065,1.8953357e-09
C1E461,松安,2025-03-26,24.397972,120.986022,1.22427215e-08
72G600,臺中農改,2025-03-26,24.003028,120.534389,1.3211189e-06
C2N160,西拉雅風管處,2025-03-26,23.189481,120.335297,1.6223851e-09
C2M970,碧湖,2025-03-26,23.568632,120.624165,4.792436e-09
C0A640,石碇,2025-03-26,24.993969,121.662917,3.4285443e-07
E2S960,林試太麻里2,2025-03-26,22.598,120.99775,1.5466277e-08
C0F9Y0,桃山,2025-03-26,24.432739,121.303808,5.8650457e-08
C1I020,萬大,2025-03-26,23.979817,121.132261,8.897287e-09
C0U940,羅東,2025-03-26,24.68184,121.74934,5.8999507e-07
C0M650,朴子,2025-03-26,23.43463,120.23902,1.889751e-07
C1I500,大尖山,2025-03-26,23.858572,120.994889,2.3015078e-08
C0G820,田尾,2025-03-26,23.901669,120.509389,7.992795e-08
E2K600,四湖植物園,2025-03-26,23.676986,120.163433,0.9055932
C0S730,綠島,2025-03-26,22.6672,121.47533,1.1523324e-06
12Q970,東港工作站,2025-03-26,22.479997,120.466058,1.6430043e-08
C0E430,南庄,2025-03-26,24.601775,121.000214,3.8050105e-06
C1TA00,太魯閣,2025-03-26,24.15773,121.6236,1.637114e-08
466920,臺北,2025-03-26,25.037658,121.514853,0.8170163
C0R600,舊泰武,2025-03-26,22.588194,120.664944,5.4682916e-09
C1I260,北坑,2025-03-26,23.9246,121.006903,2.3842448e-09
466910,鞍部,2025-03-26,25.182586,121.529731,2.7668236e-08
C1I230,九份二山,2025-03-26,23.961944,120.845,5.185388e-09
C2A660,瑞芳,2025-03-26,25.113169,121.801147,0.7399423
C0R270,琉球嶼,2025-03-26,22.332244,120.362236,8.927924e-08
C1T990,高寮,2025-03-26,23.394239,121.356808,2.5703546e-08
C0G620,芬園,2025-03-26,24.015678,120.6213,6.7125154e-09
C1Z140,荖溪,2025-03-26,23.890575,121.45964,2.7802392e-08
C1I201,中心崙,2025-03-26,23.728722,120.712097,2.3568e-09
C1I400,凌霄,2025-03-26,24.018778,121.004456,1.4261905e-08
C1M640,十字,2025-03-26,23.492153,120.753683,1.3175622e-08
G2P820,農試鳳山分所,2025-03-26,22.646611,120.356083,1.5329147e-07
C0Z270,蕃薯寮,2025-03-26,23.73835,121.540108,1.8032727e-08
C0F9Q0,外埔,2025-03-26,24.347817,120.705686,2.9627447e-05
C0K580,高鐵雲林,2025-03-26,23.737456,120.417944,3.9196273e-09
C2I090,鳳凰,2025-03-26,23.728081,120.787347,4.705733e-09
C0U990,員山,2025-03-26,24.74435,121.72247,5.9644844e-07
C0V770,大社,2025-03-26,22.730306,120.346639,1.3033882e-07
C0X120,麻豆,2025-03-26,23.183289,120.248611,2.0740059e-09
C0C670,龍潭,2025-03-26,24.870056,121.221389,3.696517e-06
C0D680,香山濕地,2025-03-26,24.783581,120.914988,3.863052e-06
C0S980,勝林山,2025-03-26,22.430439,120.8938,2.1537852e-08
C0V730,大寮,2025-03-26,22.605614,120.395717,2.3108242e-08
C0R570,麟洛,2025-03-26,22.65078,120.52719,8.984253e-10
C2M930,石卓,2025-03-26,23.478744,120.702264,1.2619067e-08
C0G9B0,和美,2025-03-26,24.105169,120.492131,4.161627e-07
CAG100,王功漁港,2025-03-26,23.96824,120.32586,1.62254e-05
C0X290,北門,2025-03-26,23.267772,120.125481,2.5834026e-09
C2F930,大甲,2025-03-26,24.347667,120.640403,0.97350395
C0D650,湖口,2025-03-26,24.904794,121.043628,0.6780115
C0E420,竹南,2025-03-26,24.708978,120.888897,0.0044180676
C0U780,五結,2025-03-26,24.68637,121.79794,7.1533674e-07
C1I250,鯉潭,2025-03-26,23.961922,120.991131,3.5974421e-09
C0R130,阿禮,2025-03-26,22.742908,120.743678,1.3641159e-08
C0X100,臺南市北區,2025-03-26,23.010394,120.194228,1.8521401e-09
C0S920,金峰嘉蘭,2025-03-26,22.594789,120.960825,1.3159197e-08
C0V490,新興,2025-03-26,22.627422,120.298803,1.11504676e-07
C0F9K0,大安,2025-03-26,24.345061,120.588025,0.9955685
72N100,臺南農改,2025-03-26,23.0605,120.342194,0.0001336928
467290,古坑,2025-03-26,23.633639,120.551889,1.3890025e-09
C2E970,八甲,2025-03-26,24.535811,120.795983,5.0205927e-05
C0V440,鳳山,2025-03-26,22.646653,120.356122,1.5329147e-07
C1T940,大觀,2025-03-26,23.714206,121.373133,1.8571502e-08
72T250,花蓮農改,2025-03-26,23.975222,121.563889,7.0878644e-07
C0E740,造橋,2025-03-26,24.637056,120.864778,0.009216418
C0R100,尾寮山,2025-03-26,22.833111,120.683889,1.31296645e-08
A2K630,臺大雲林校區,2025-03-26,23.730628,120.423903,3.9202854e-09
467990,馬祖,2025-03-26,26.169467,119.923158,2.4726969e-08
C0D580,寶山,2025-03-26,24.735006,121.025192,4.2689085e-06
E2P990,林試扇平站,2025-03-26,22.9677,120.6857,4.2338213e-09
C0AI30,三重,2025-03-26,25.057328,121.500629,0.8367841
C0AH00,汐止,2025-03-26,25.066881,121.658778,0.8170163
C1Z040,立山,2025-03-26,23.443356,121.327375,3.2708343e-08
466881,新北,2025-03-26,24.959207,121.525196,0.7558411
C0W130,花嶼,2025-03-26,23.40007,119.32276,0.9999913
C0A950,鼻頭角,2025-03-26,25.129036,121.923372,1.0450979e-05
C0K470,林內,2025-03-26,23.748675,120.609642,1.2313651e-09
C2F990,摩天嶺,2025-03-26,24.322458,120.936819,5.0450977e-09
82C160,茶改場,2025-03-26,24.908472,121.185333,0.016319156
C0Z320,清水林道,2025-03-26,23.27125,121.188272,2.9031812e-08
C0R760,南仁湖,2025-03-26,22.084681,120.863353,0.9879741
C0M670,大林,2025-03-26,23.600616,120.45841,1.6638213e-08
C0M800,茶山,2025-03-26,23.299075,120.664767,1.8066387e-09
C0A9C0,天母,2025-03-26,25.117494,121.537169,0.9452326
72K220,南改斗南分場,2025-03-26,23.634556,120.477333,3.2045233e-09
72AI40,桃改樹林分場,2025-03-26,24.944503,121.386972,0.88020265
C0S910,蘭嶼燈塔,2025-03-26,22.081197,121.503117,0.99982077
C0B050,八斗子,2025-03-26,25.144754,121.79167,0.9550811
C0U900,內城,2025-03-26,24.71813,121.68766,4.4005154e-07
C0X320,柳營,2025-03-26,23.253328,120.375253,4.135319e-09
C0M790,新港,2025-03-26,23.553269,120.345728,1.368577e-07
C0F9T0,西屯,2025-03-26,24.179494,120.641275,0.0022461773
C0SA30,都歷,2025-03-26,23.020333,121.323642,3.1042916e-08
C0C620,蘆竹,2025-03-26,25.084275,121.265767,0.9377032
C0R730,大坪頂,2025-03-26,22.024633,120.69355,0.9994254
C0AJ40,石門,2025-03-26,25.273672,121.601198,0.37324238
C0E750,苗栗,2025-03-26,24.564569,120.824575,0.0034895956
C0T870,鯉魚潭,2025-03-26,23.935639,121.508944,1.6148594e-08
C1V170,排雲,2025-03-26,23.463619,120.954147,4.6756387e-08
C2H950,中寮,2025-03-26,23.884447,120.766406,5.654675e-08
C0R350,貓鼻頭,2025-03-26,21.921774,120.7358,0.99995226
C0V660,岡山,2025-03-26,22.797078,120.294958,2.3030717e-07
C1H941,雙冬,2025-03-26,23.967378,120.802189,2.439501e-09
C0AJ70,田寮,2025-03-26,25.2698,121.4886,0.89153713
C0AI00,五股,2025-03-26,25.07445,121.42728,0.1377272
C0Z280,德武,2025-03-26,23.47426,121.41071,2.318002e-08
C0R700,枋山,2025-03-26,22.246844,120.661086,3.4863636e-08
C0C460,復興,2025-03-26,24.820208,121.352281,3.199987e-08
E2H360,蓮華池,2025-03-26,23.918333,120.885278,2.7313403e-09
C0M640,中埔,2025-03-26,23.42538,120.5229,2.34579e-09
C0W140,金沙,2025-03-26,24.488292,118.408778,5.941279e-09
C2A540,四堵,2025-03-26,24.8926,121.745736,1.7855065e-08
C0ACA0,新莊,2025-03-26,25.051478,121.446756,0.8752841
C0R220,潮州,2025-03-26,22.534361,120.54,1.43050585e-08
U2HA40,臺大內茅埔,2025-03-26,23.689722,120.851117,2.0752247e-09
467490,臺中,2025-03-26,24.145736,120.684075,1.382206e-05
C0U960,翠峰湖,2025-03-26,24.510856,121.608044,3.7230404e-08
E2HA20,林試畢祿溪站,2025-03-26,24.226944,121.308522,3.2056317e-08
C0V890,前鎮,2025-03-26,22.5718,120.3117,1.2938014e-07
467620,蘭嶼,2025-03-26,22.036969,121.558339,0.99999744
C1F941,雪嶺,2025-03-26,24.280586,121.026642,3.974473e-08
C2H9E0,國姓南港,2025-03-26,23.911108,120.846556,7.941974e-09
C0AC80,文山,2025-03-26,25.00235,121.575728,0.6879131
C0F9R0,龍井,2025-03-26,24.184536,120.528972,0.99912035
C0M760,民雄,2025-03-26,23.551754,120.428457,1.757979e-08
C0UA40,西德山,2025-03-26,24.560647,121.752608,1.9161572e-08
C1T920,中興,2025-03-26,23.769503,121.498653,1.666664e-08
C0D550,雪霸,2025-03-26,24.526972,121.11605,2.6367397e-08
C2F860,梨山,2025-03-26,24.247522,121.243669,3.2670496e-08
C0R320,車城,2025-03-26,22.0744,120.716247,0.9996601
C1S870,南美山,2025-03-26,23.15025,121.382333,3.6658303e-08
C0B020,基隆嶼,2025-03-26,25.19141,121.78391,0.96223044
C1U501,牛鬥,2025-03-26,24.637836,121.573656,9.519181e-08
C0M730,嘉義市東區,2025-03-26,23.457673,120.460531,3.473233e-09
C0S700,知本,2025-03-26,22.684866,121.005642,1.0721067e-08
C1N001,沙崙,2025-03-26,22.935472,120.309406,2.4753997e-09
C0V760,橋頭,2025-03-26,22.757806,120.30575,1.4084736e-07
C0G960,福寶,2025-03-26,24.0443,120.3814,5.549668e-07
C0X210,白河,2025-03-26,23.347466,120.414427,2.5999822e-09
C0S810,東河,2025-03-26,22.972672,121.303986,3.303821e-08
C2R170,屏東,2025-03-26,22.66027,120.49403,8.996342e-10
C0R670,楓港,2025-03-26,22.190131,120.692156,3.3498498e-08
C0FA50,霧峰,2025-03-26,24.0419,120.6995,0.018382328
C0UB10,蘇澳,2025-03-26,24.5969,121.8571,1.8478397e-08
C0G950,防潮門,2025-03-26,24.1835,120.4871,0.9991588
C0M740,六腳,2025-03-26,23.492871,120.290625,1.8867868e-07
C1R250,力里,2025-03-26,22.428117,120.629228,1.1503057e-08
C0K330,虎尾,2025-03-26,23.719183,120.442036,3.8073824e-09
C2FA00,烏石坑,2025-03-26,24.273503,120.947617,4.944875e-09
C0V620,永安,2025-03-26,22.82315,120.236856,2.735537e-07
C1I330,楓樹林,2025-03-26,23.986803,121.076117,1.0542338e-08
C0W200,湖西,2025-03-26,23.596314,119.67275,0.9999924
72Q010,高雄農改場,2025-03-26,22.709333,120.525889,9.358303e-10
C0SA40,瑞和,2025-03-26,22.974361,121.156697,2.4417364e-08
C0C680,龜山,2025-03-26,25.02846,121.38656,3.332367e-07
C2V260,月眉,2025-03-26,22.971003,120.539853,8.242464e-10
C0V450,鳳森,2025-03-26,22.545064,120.392592,1.0528774e-08
C0U720,南山,2025-03-26,24.43742,121.38167,1.7301234e-08
A2N290,臺南蘭花園區,2025-03-26,23.340258,120.379661,2.6971119e-08
C0R560,新園,2025-03-26,22.5434,120.461558,1.4983055e-08
C0U890,三星,2025-03-26,24.66812,121.65302,2.3015765e-07
C1V300,御油山,2025-03-26,23.001983,120.715364,1.3860628e-08
C0U600,礁溪,2025-03-26,24.817539,121.765608,5.6978843e-06
C1T980,龍澗,2025-03-26,24.023289,121.411328,3.4438077e-08
C0D670,海天一線,2025-03-26,24.831986,120.914438,0.0053800875
C0SA00,歷坵,2025-03-26,22.520969,120.89185,8.453704e-09
C0M710,東石,2025-03-26,23.458927,120.15385,8.471317e-08
C0M780,鹿草,2025-03-26,23.41134,120.30835,1.5459634e-07
C0U520,雙連埤,2025-03-26,24.753033,121.641303,1.2897441e-08
C0B010,七堵,2025-03-26,25.094819,121.71713,0.8754542
C0R480,長治,2025-03-26,22.693128,120.542622,7.52493e-10
C1V830,國三S383K,2025-03-26,22.781967,120.426475,9.1688457e-10
12Q980,恆春工作站,2025-03-26,22.079678,120.714425,0.9996605
C1O940,東山服務區,2025-03-26,23.286016,120.398472,2.851255e-09
C1U840,東澳嶺,2025-03-26,24.5378,121.8485,1.02592095e-08
C1D630,飛鳳山,2025-03-26,24.766464,121.119178,3.8831523e-08
C0S940,石寧山,2025-03-26,23.223772,121.406639,3.9187174e-08
C0K410,北港,2025-03-26,23.573957,120.292802,1.5537734e-07
C2M620,瑞里,2025-03-26,23.545133,120.675197,6.813594e-09
C0SB70,小港漁港,2025-03-26,23.158558,121.400431,6.989147e-08
C2O950,安南,2025-03-26,23.076694,120.144861,2.5775408e-09
C0F0E0,南湖圈谷,2025-03-26,24.363714,121.444667,6.114441e-08
467610,成功,2025-03-26,23.097486,121.373428,4.7668845e-08
C0G890,伸港,2025-03-26,24.148933,120.484403,0.9978487
C2E540,龍溪,2025-03-26,24.606489,120.783933,0.54697937
C1V200,梅山,2025-03-26,23.268447,120.823556,5.6785256e-09
C0T9H0,加路蘭山,2025-03-26,23.682947,121.5274,2.4975675e-08
C2O930,玉井,2025-03-26,23.126042,120.46055,1.2674498e-08
C1F911,新伯公,2025-03-26,24.221361,120.841069,5.6984355e-09
C0R490,九如,2025-03-26,22.7405,120.490503,9.382163e-10
C0X200,左鎮,2025-03-26,23.056758,120.408522,7.710001e-08
C0SB50,叭嗡嗡,2025-03-26,23.047062,121.343223,3.90021e-08
C1F891,稍來,2025-03-26,24.265689,121.001142,2.6368554e-08
72N240,七股研究中心,2025-03-26,23.081672,120.062894,4.0157486e-09
C0C700,中壢,2025-03-26,24.977661,121.256375,0.056281984
C0M690,水上,2025-03-26,23.419734,120.388909,2.1497673e-08
C0V690,鼓山,2025-03-26,22.623325,120.275575,1.2770757e-07
C0O860,大內,2025-03-26,23.11885,120.36083,1.737898e-09
C0Z200,萬榮,2025-03-26,23.709219,121.420106,1.8429683e-08
C0T9D0,和中,2025-03-26,24.26676,121.74103,1.7260033e-08
C1O921,楠西,2025-03-26,23.183511,120.484083,3.639695e-09
C0AJ30,淡水觀海,2025-03-26,25.184591,121.408616,0.9528412
C0V810,左營,2025-03-26,22.67491,120.28491,2.2237974e-07
C0UA70,桃源谷,2025-03-26,24.962606,121.888875,1.5733736e-08
C0X130,官田,2025-03-26,23.193217,120.315422,1.6478806e-09
C1H000,翠峰,2025-03-26,24.109397,121.205211,2.9388712e-08
C0UA90,石城,2025-03-26,24.980444,121.951214,2.4336082e-06
C1E681,南勢山,2025-03-26,24.421669,120.923831,2.5038158e-08
C0A9F0,內湖,2025-03-26,25.079422,121.57545,0.81701636
C0K291,宜梧,2025-03-26,23.536281,120.169329,3.1522546e-07
C1K540,口湖,2025-03-26,23.585344,120.180517,1.6811804e-07
C0R780,滿州,2025-03-26,22.024403,120.839892,0.99999046
C0V870,文安,2025-03-26,22.8025,120.2164,2.9530236e-07
C0U650,玉蘭,2025-03-26,24.675286,121.587061,1.0601358e-08
C0R640,東港,2025-03-26,22.46247,120.44074,1.642594e-08
K2E360,苗栗農改,2025-03-26,24.495722,120.829111,9.03511e-08
C0AJ80,板橋,2025-03-26,25.0107,121.4489,0.8229321
C0S660,下馬,2025-03-26,23.150427,121.070312,2.6352817e-08
C1H9B1,阿眉,2025-03-26,24.1263,120.994672,2.5192215e-08
C0UA20,多加屯,2025-03-26,24.368614,121.373189,3.7150105e-08
C0E730,頭份,2025-03-26,24.688247,120.912206,0.00589354
72V140,高改旗南分場,2025-03-26,22.857861,120.516667,8.071255e-10
C0K480,莿桐,2025-03-26,23.761192,120.502372,1.7918751e-09
C0U980,坪林石牌,2025-03-26,24.86478,121.77396,1.5423828e-08
C0T900,西林,2025-03-26,23.8119,121.441458,1.614459e-08
C1I150,青雲,2025-03-26,23.793361,120.949378,1.8409296e-09
467350,澎湖,2025-03-26,23.565503,119.563094,0.99999374
C0G800,埔鹽,2025-03-26,24.000394,120.431683,4.379937e-07
C0H960,草屯,2025-03-26,23.973672,120.68085,0.009678672
C1V780,多納林道,2025-03-26,22.888028,120.737917,6.041221e-09
C0E920,通霄漁港,2025-03-26,24.498589,120.673876,0.99956983
C0Z330,安通山,2025-03-26,23.290728,121.348528,2.8449168e-08
C0AH10,永和,2025-03-26,25.01125,121.508111,0.83018196
C0AK10,太平里,2025-03-26,25.134937,121.364899,0.9373549
C2G640,鹿港,2025-03-26,24.0753,120.430481,5.459217e-07
C1E890,國三N149K,2025-03-26,24.463414,120.680019,0.10683857
C1R110,口社,2025-03-26,22.770111,120.645222,7.817335e-10
C1M870,國三N285K,2025-03-26,23.550319,120.505833,1.7063235e-09
467050,新屋,2025-03-26,25.006744,121.047486,1.8946115e-05
C1E480,鳳美,2025-03-26,24.554803,121.034747,3.903365e-08
C0M530,奮起湖,2025-03-26,23.493903,120.699253,7.767816e-09
C0C590,觀音,2025-03-26,25.027072,121.153317,0.83480555
C0T9M0,靜浦,2025-03-26,23.455167,121.495028,2.5160329e-08
C2H9M0,發祥,2025-03-26,24.154094,121.164517,1.1294282e-08
C0AI40,石牌,2025-03-26,25.115597,121.513139,0.9520252
C1F871,上谷關,2025-03-26,24.203483,121.018644,4.75661e-09
C2H9G0,百勝,2025-03-26,24.051142,120.909361,5.1696865e-09
C0G880,二水,2025-03-26,23.810742,120.6173,1.2556612e-09
C0R940,加祿堂,2025-03-26,22.3363,120.6217,2.330619e-08
C0W220,北竿,2025-03-26,26.220358,119.974881,2.0247573e-08
C0O960,崎頂,2025-03-26,22.959547,120.369317,2.1969426e-09
C0S750,向陽,2025-03-26,23.248397,120.986133,2.0816875e-08
C0T9F0,水璉,2025-03-26,23.797131,121.542514,1.6247272e-08
C1M600,頭凍,2025-03-26,23.406364,120.603339,5.0714846e-09
467660,臺東,2025-03-26,22.752211,121.154586,2.5411117e-08
C1D380,新埔,2025-03-26,24.84745,121.03834,0.0009859857
C2G980,田頭村,2025-03-26,23.8263,120.444175,3.5602403e-09
C0V750,路竹,2025-03-26,22.854997,120.259439,2.8281434e-07
C0N050,蚵寮,2025-03-26,23.301,120.1104,2.2336517e-09
72M700,南改鹿草分場,2025-03-26,23.416869,120.283061,1.8330897e-07
C1SA50,利嘉林道,2025-03-26,22.82325,121.009389,8.800191e-09
467550,玉山,2025-03-26,23.487614,120.959522,5.6334997e-08
C0A940,金山,2025-03-26,25.223628,121.643967,0.9078139
C1V340,大津,2025-03-26,22.888322,120.645986,1.0547945e-09
C0W180,七美,2025-03-26,23.219333,119.444892,0.9999945
C1F9C1,白冷,2025-03-26,24.182844,120.929889,6.216854e-09
K2E710,苗改生物防治研究中心,2025-03-26,24.422861,120.871833,1.1986658e-06
C0N040,蘆竹溝,2025-03-26,23.2344,120.0961,2.5925544e-09
C2W230,畜試所澎湖,2025-03-26,23.628342,119.513206,0.9999947
C0R880,後壁湖,2025-03-26,21.9457,120.7457,0.9999002
C1I280,埔中,2025-03-26,23.820778,120.642594,1.7105107e-09
467790,墾丁雷達站,2025-03-26,21.948235,120.808028,0.99998903
C0W190,望安,2025-03-26,23.380564,119.494075,0.9999947
466881,新北,2025-03-26,24.9593,121.52,0.8792253
C0Z170,卓溪,2025-03-26,23.3443,121.3029,4.111036e-08
C0F850,東勢,2025-03-26,24.246428,120.833047,7.756194e-09
466900,淡水,2025-03-26,25.164889,121.448906,0.9373126
C0I370,魚池,2025-03-26,23.895703,120.94135,2.5445153e-09
C0C630,大溪,2025-03-26,24.882853,121.265547,0.02651188
C0A520,山佳,2025-03-26,24.974944,121.402008,0.8971985
C0I110,竹山,2025-03-26,23.761225,120.688156,1.3705491e-09
82H840,茶改南部分場,2025-03-26,23.762528,120.7405,1.6967333e-09
C0G660,溪湖,2025-03-26,23.94835,120.479122,8.174227e-08
C1T800,洛韶,2025-03-26,24.204558,121.453956,2.1896144e-08
C1T810,慈恩,2025-03-26,24.192044,121.388386,2.1759588e-08
C1E451,象鼻,2025-03-26,24.368617,120.940228,2.3768584e-08
C0AC60,三峽,2025-03-26,24.939025,121.369728,0.7621115
C0I490,萬大林道,2025-03-26,23.928228,121.091411,1.3594147e-08
C1I290,豐丘,2025-03-26,23.668178,120.887417,6.95851e-09
C1I320,奧萬大,2025-03-26,23.952956,121.178556,8.232382e-09
C2M910,嘉義大學,2025-03-26,23.471325,120.485903,2.2514581e-09
C0U770,南澳,2025-03-26,24.44935,121.81022,2.2225608e-08
C0A980,社子,2025-03-26,25.109508,121.469681,0.9495129
C0V800,六龜,2025-03-26,22.997889,120.633583,9.488665e-10
C1G9D0,國一S218K,2025-03-26,23.890641,120.493253,1.7999727e-07
C0E570,白沙屯,2025-03-26,24.549447,120.696803,0.728981
C2F9A0,中竹林,2025-03-26,24.103556,120.751061,1.8681234e-09
C0FA40,臺中電廠,2025-03-26,24.2146,120.4907,0.9991057
C2G9A0,畜試所彰化,2025-03-26,23.86045,120.557964,2.3789708e-09
C0H9C0,合歡山,2025-03-26,24.143442,121.272547,5.508051e-08
C0X060,下營,2025-03-26,23.22695,120.256261,1.8111826e-09
G2M350,農試溪口農場,2025-03-26,23.58565,120.408111,1.9030995e-08
C0U860,頭城,2025-03-26,24.85323,121.8308,9.561582e-06
C0R580,南州,2025-03-26,22.48591,120.50274,1.642594e-08
C0D430,峨眉,2025-03-26,24.6905,121.017189,0.00026112437
C0G780,秀水,2025-03-26,24.03405,120.503869,6.1192715e-08
72N100,臺南農改場,2025-03-26,23.0605,120.342194,1.7421661e-09
C0S900,蘭嶼高中,2025-03-26,22.04909,121.51214,0.9994452
467540,大武,2025-03-26,22.355675,120.903789,1.8355178e-07
C1F9W0,德基,2025-03-26,24.254783,121.190261,2.0247226e-08
C1Z120,壽豐,2025-03-26,23.870853,121.508081,1.7508349e-08
C0W160,烏坵,2025-03-26,24.9944,119.44956,0.00014096506
C1I240,外大坪,2025-03-26,23.958697,120.917931,3.642716e-09
C1I550,國六W023K,2025-03-26,23.979067,120.867742,1.3425133e-09
C0R870,興海,2025-03-26,21.9752,120.8439,0.99998707
C0R140,瑪家,2025-03-26,22.682903,120.686639,4.7888356e-09
C0A530,坪林,2025-03-26,24.938183,121.70975,1.7561098e-07
C0X260,後壁,2025-03-26,23.366358,120.362326,1.5058941e-09
C0Z230,和平,2025-03-26,24.30717,121.77007,1.7449839e-08
C0G770,福興,2025-03-26,24.041289,120.437669,4.507251e-07
C0H9A0,神木村,2025-03-26,23.532742,120.843667,1.8585038e-08
C0I460,南投,2025-03-26,23.911469,120.687331,1.9241729e-07
C0I480,梅峰,2025-03-26,24.085272,121.173572,2.4878874e-08
C1V570,吉東,2025-03-26,22.85422,120.5454,8.122032e-10
C2D740,屯原,2025-03-26,24.067969,121.209389,2.5066685e-08
C2A560,福山,2025-03-26,24.776203,121.502811,1.31281865e-08
C0AH30,五分山,2025-03-26,25.07125,121.780794,1.2794315e-08
C0FA10,松柏,2025-03-26,24.429115,120.617482,0.9983286
72S200,東改班鳩分場,2025-03-26,22.829528,121.077694,1.6956278e-08
72HA00,中改埔里分場,2025-03-26,23.903208,120.963364,2.5581408e-09
C2H9W0,大坪頂農水,2025-03-26,24.043122,120.932781,3.050531e-09
C0C650,平鎮,2025-03-26,24.897503,121.214636,0.031609755
C0S930,延平,2025-03-26,22.902581,121.084058,2.0971582e-08
C0UA60,樟樹山,2025-03-26,24.41393,121.78325,1.2199319e-08
C1S670,摩天,2025-03-26,23.199503,121.027,3.433301e-08
C0V630,茄萣,2025-03-26,22.906642,120.182608,2.1559463e-09
466940,基隆,2025-03-26,25.133314,121.740475,0.94890094
C0X050,東河,2025-03-26,23.296598,120.385608,2.9854577e-09
C0R770,保力,2025-03-26,22.071122,120.764111,0.99987817
G2L020,農試嘉義分所,2025-03-26,23.485028,120.473806,1.7395761e-09
C0X240,關子嶺,2025-03-26,23.331169,120.508025,1.664271e-09
C0I380,集集,2025-03-26,23.828206,120.801467,1.114593e-09
466990,花蓮,2025-03-26,23.975128,121.613275,1.8970148e-08
C1V220,小關山,2025-03-26,23.154217,120.813603,1.7081382e-08
C1F9G1,慶福山,2025-03-26,24.180853,120.848378,9.065436e-09
C0Z250,瑞穗林道,2025-03-26,23.49284,121.30688,1.21255495e-08
C0D590,新豐,2025-03-26,24.87068,120.97721,0.00012759521
C0A870,五指山,2025-03-26,25.132153,121.608692,2.4361588e-08
C0UA50,西帽山,2025-03-26,24.555361,121.802628,1.1184693e-08
C0X160,仁德,2025-03-26,22.968258,120.257689,1.8663284e-09
C1H971,六分寮,2025-03-26,23.92507,120.6378,2.0310533e-09
C0W120,西嶼,2025-03-26,23.5626,119.468436,0.9999929
C0G650,員林,2025-03-26,23.946503,120.585597,9.6137125e-09
C0AD50,鶯歌,2025-03-26,24.951533,121.346294,0.6745748
C2H9Q0,北東眼山,2025-03-26,24.120939,121.189303,2.8864898e-08
C2H9T0,名間竹圍,2025-03-26,23.859914,120.637572,1.2739252e-09
C0S990,山豬窟,2025-03-26,22.318619,120.857372,7.2258035e-09
72Q010,高雄農改,2025-03-26,22.709333,120.525889,4.982337e-09
C0X190,安平,2025-03-26,22.993161,120.152181,1.8529633e-09
C0K400,斗六,2025-03-26,23.720583,120.541127,1.6161588e-09
12J990,口湖工作站,2025-03-26,23.589978,120.180394,1.6787708e-07
C0O830,北寮,2025-03-26,23.079561,120.495008,7.974347e-10
C1D410,白蘭,2025-03-26,24.579364,121.079947,1.3209618e-08
C0S970,加津林,2025-03-26,22.416211,120.926942,8.6262935e-09
C0D700,關西,2025-03-26,24.7977,121.1732,0.10635781
C0M810,里佳,2025-03-26,23.389125,120.716647,8.372077e-09
C0U750,龜山島,2025-03-26,24.841667,121.953133,6.603562e-08
C0R810,內獅,2025-03-26,22.305064,120.642986,2.3468562e-08
C1M390,龍美,2025-03-26,23.406728,120.654417,6.2985763e-09
C2FB60,頭櫃山,2025-03-26,24.129842,120.858925,6.192239e-09
C1H840,國三N238K,2025-03-26,23.841008,120.707711,1.1686606e-09
CAQ030,崎峰國小,2025-03-26,22.42565,120.49521,1.642594e-08
C2E520,大湖,2025-03-26,24.414939,120.870872,1.4270776e-08
467530,阿里山,2025-03-26,23.508208,120.813242,2.7049477e-08
C1E691,南湖,2025-03-26,24.40135,120.837533,2.3131658e-08
C0FA30,梧棲,2025-03-26,24.256003,120.523381,0.9987691
C1V231,高中,2025-03-26,23.134911,120.716711,2.1764726e-09
C0F9V0,新社,2025-03-26,24.200172,120.815806,5.8538108e-09
C0H890,埔里,2025-03-26,23.972169,120.952425,3.8109427e-09
C0R690,墾丁,2025-03-26,21.966756,120.810269,0.9999782
C0F0D0,審馬陣,2025-03-26,24.381675,121.4203,5.6468824e-08
C2W030,金門農試所,2025-03-26,24.448431,118.451786,8.128747e-09
C0R820,白鷺,2025-03-26,22.454275,120.666219,7.674404e-09
U2H480,臺大溪頭,2025-03-26,23.670306,120.798194,6.4322934e-09
C1V190,南天池,2025-03-26,23.27403,120.91176,2.3690871e-08
K2E360,苗栗農改場,2025-03-26,24.495722,120.829111,0.0036318912
CAJ050,海口故事園區,2025-03-26,23.57543,120.14121,1.6782553e-07
C2H9D0,三隻寮,2025-03-26,24.093078,120.861578,3.1104361e-09
C0O990,媽廟,2025-03-26,22.99175,120.293525,1.963146e-09
C0D480,打鐵坑,2025-03-26,24.849664,121.150789,3.259968e-06
C0Z220,和平林道,2025-03-26,24.343922,121.656317,1.5382373e-08
C0TA10,花蓮漁港,2025-03-26,23.995322,121.638331,1.908301e-08
72C440,桃園農改場,2025-03-26,24.950944,121.030583,0.87973046
C1E711,馬拉邦山,2025-03-26,24.367306,120.901656,8.155256e-09
C0SB20,富岡,2025-03-26,22.792467,121.192669,2.7819153e-08
C0D560,竹東,2025-03-26,24.767147,121.057881,5.0994845e-06
C0F9U0,南屯,2025-03-26,24.137006,120.637969,9.567579e-09
C0M720,番路,2025-03-26,23.464657,120.554156,1.8411543e-09
C0F0A0,雪山圈谷,2025-03-26,24.388594,121.236339,6.639923e-08
C1A9N0,四十份,2025-03-26,24.934158,121.593283,2.4576975e-08
C0U760,東澳,2025-03-26,24.52196,121.83318,2.1977064e-08
C0X230,鹽水,2025-03-26,23.272621,120.247641,2.217322e-09
C2H9H0,苗改南投蜂場,2025-03-26,23.852589,120.693481,1.3611342e-09
C0R950,萬隆國小,2025-03-26,22.507667,120.587817,1.2651843e-08
467540,大武,2025-03-26,22.35572,120.90374,8.860335e-09
C0V370,古亭坑,2025-03-26,22.893178,120.401947,6.519847e-08
C1I340,新興橋,2025-03-26,23.563333,120.868728,3.462861e-09
C0SA80,土坂,2025-03-26,22.453108,120.887572,8.0359595e-09
C0R160,鹽埔,2025-03-26,22.739558,120.530778,9.398676e-10
C0AC40,大屯山,2025-03-26,25.175675,121.522408,3.3011375e-08
466850,五分山雷達站,2025-03-26,25.071182,121.781205,1.3024507e-08
C2H9L0,馬烈霸,2025-03-26,24.1512,121.201772,2.3538316e-08
C1AI50,國三N016K,2025-03-26,25.034164,121.619664,0.7050515
C1V600,藤枝,2025-03-26,23.071961,120.757042,1.8077703e-08
C1E601,南勢,2025-03-26,24.572486,120.734842,6.6674e-06
C0Z180,新城,2025-03-26,24.03946,121.60454,1.8817028e-08
C0O980,新市,2025-03-26,23.061614,120.298197,1.8088248e-09
C0K420,西螺,2025-03-26,23.800407,120.467394,3.466575e-09
C0Z050,佳心,2025-03-26,23.34567,121.21316,3.165096e-08
C0AD30,蘆洲,2025-03-26,25.086594,121.472331,0.83526236
C0V610,梓官,2025-03-26,22.760558,120.267211,1.6595052e-07
K2F750,種苗改良場,2025-03-26,24.225972,120.800917,5.7058855e-09
C0UA80,大溪漁港,2025-03-26,24.941801,121.902955,2.195963e-06
C1AI60,國一39K邊坡,2025-03-26,25.064361,121.383836,3.8656165e-07
C0W150,金寧,2025-03-26,24.457703,118.328989,8.132081e-09
C0R960,內埔,2025-03-26,22.608483,120.570714,1.4687036e-08
V2C250,八德合作社,2025-03-26,24.93775,121.266389,0.1794046
C2H9S0,龍南,2025-03-26,23.953536,120.833183,5.10861e-09
C0AH40,平等,2025-03-26,25.129142,121.577086,2.2213403e-08
C0R540,佳冬,2025-03-26,22.419456,120.552375,4.1557765e-08
466950,彭佳嶼,2025-03-26,25.627975,122.079744,0.99999064
C0A890,雙溪,2025-03-26,25.036003,121.864242,0.89526016
C0C480,桃園,2025-03-26,24.992425,121.323172,0.1396957
C0AH50,林口,2025-03-26,25.072181,121.38084,3.060341e-07
A2K360,水試臺西試驗場,2025-03-26,23.717231,120.190522,0.96185
B2N890,畜試所,2025-03-26,23.058972,120.336406,0.00019565492
C2M960,外寮,2025-03-26,23.562643,120.665688,5.0593982e-09
C0F9S0,烏日,2025-03-26,24.107058,120.624103,5.1202766e-09
C0C490,八德,2025-03-26,24.928708,121.283289,0.16941163
C0R190,赤山,2025-03-26,22.592333,120.614306,1.4466782e-08
C0T820,天祥,2025-03-26,24.179597,121.495639,1.9922489e-08
C1F9E1,龍安,2025-03-26,24.1605,120.831961,6.427339e-09
C0V820,小林,2025-03-26,23.148408,120.63325,1.455018e-09
C2G870,芳苑,2025-03-26,23.922303,120.320025,1.1279092e-05
C0E850,大河,2025-03-26,24.618069,120.948578,4.8315458e-05
C1U670,寒溪,2025-03-26,24.634,121.71691,1.7342292e-07
C0N020,城西,2025-03-26,23.0568,120.0956,2.3957962e-09
C1Z110,三棧,2025-03-26,24.11557,121.60501,2.7844688e-08
C0R280,檳榔,2025-03-26,22.076078,120.836777,0.9978607
C2H9J0,中台,2025-03-26,23.9996,120.938739,2.491999e-09
C0F9L0,后里,2025-03-26,24.310436,120.729725,2.2417823e-09
467441,高雄,2025-03-26,22.730432,120.312516,1.364507e-07
C0D540,橫山,2025-03-26,24.71116,121.11693,1.6221669e-06
C1D420,太閣南,2025-03-26,24.632808,121.160575,3.1187607e-08
C1E770,公館,2025-03-26,24.526914,120.830806,0.010144335
CAN130,水試所海水繁養殖中心,2025-03-26,23.120802,120.07968,3.9998254e-09
C1I430,翠華,2025-03-26,24.191961,121.224339,3.129391e-08
C1M400,菜瓜坪,2025-03-26,23.251928,120.576103,1.587041e-09
C0G730,二林,2025-03-26,23.903325,120.376081,9.0487055e-07
72M360,南改義竹分場,2025-03-26,23.360694,120.279361,1.8905482e-09
V2K620,麥寮合作社,2025-03-26,23.753836,120.294783,0.62173176
C0Z070,舞鶴,2025-03-26,23.46811,121.37407,2.2429296e-08
C0B040,大武崙,2025-03-26,25.166676,121.706993,0.911381
C1Z030,紅葉,2025-03-26,23.493119,121.338806,2.1288228e-08
C1I050,丹大,2025-03-26,23.753747,121.141147,2.5199519e-08
C0I080,信義,2025-03-26,23.689694,120.851036,2.0752247e-09
C2M920,朴子農改,2025-03-26,23.469889,120.259383,2.1386315e-07
C2A880,福隆,2025-03-26,25.017842,121.942083,3.1135003e-06
C0Z160,鳳林,2025-03-26,23.746114,121.453411,1.854039e-08
C0V210,復興,2025-03-26,23.222403,120.806089,2.3710207e-09
C0H990,昆陽,2025-03-26,24.121322,121.273642,4.2648164e-08
C0R741,獅子,2025-03-26,22.202308,120.705236,1.8337605e-08
C0S710,鹿野,2025-03-26,22.917711,121.122994,1.9916676e-08
C0I530,小奇萊,2025-03-26,24.131764,121.295717,4.4173085e-08
C2K630,荷苞,2025-03-26,23.657717,120.595144,1.4728546e-09
C0Z080,富源,2025-03-26,23.587642,121.378225,2.9516906e-08
467441,高雄,2025-03-26,22.7304,120.3125,0.9986838
C0SB10,美和,2025-03-26,22.682078,121.060236,6.4979105e-08
C2K620,馬光農場,2025-03-26,23.721453,120.378864,4.0907597e-09
C1I140,卡奈托灣,2025-03-26,23.754364,121.087872,1.20547785e-08
C0I520,玉山風口,2025-03-26,23.470489,120.955994,5.508135e-08
C1G691,下水埔,2025-03-26,23.816114,120.5676,1.8147063e-09
C0X110,臺南市南區,2025-03-26,22.961189,120.188378,1.8598042e-09
C0V680,仁武,2025-03-26,22.701083,120.347722,2.1159644e-07
C2G840,北斗,2025-03-26,23.877586,120.514222,1.6815652e-07
C0R900,竹坑,2025-03-26,22.1385,120.7022,3.8529922e-08
C0K250,崙背,2025-03-26,23.75555,120.318925,0.60912883
C0G860,社頭,2025-03-26,23.897647,120.5862,1.924556e-08
C0X150,安定,2025-03-26,23.102614,120.227839,1.9034254e-09
C0R590,里港,2025-03-26,22.77919,120.49459,8.9455915e-10
C0E610,馬都安,2025-03-26,24.451272,120.930192,2.3491626e-08
C0E550,明德,2025-03-26,24.583486,120.885411,0.0020845563
C0R150,三地門,2025-03-26,22.709889,120.639944,7.809377e-10
C0G910,花壇,2025-03-26,24.032076,120.549461,5.759279e-08
C1D400,鳥嘴山,2025-03-26,24.71909,121.28387,2.4271749e-08
C0K500,元長,2025-03-26,23.64981,120.315024,0.34798804
C0F0B0,石岡,2025-03-26,24.276061,120.777644,2.3542481e-09
C2V250,甲仙,2025-03-26,23.080106,120.591758,9.709644e-10
C0SA20,金崙山,2025-03-26,22.567419,120.959667,3.044319e-08
C0V350,溪埔,2025-03-26,22.738578,120.446797,8.314466e-10
C0M660,溪口,2025-03-26,23.604131,120.403569,1.9047047e-08
C1S880,壽卡,2025-03-26,22.238911,120.858903,7.964699e-09
72D680,桃改新埔分場,2025-03-26,24.834444,121.066111,0.0012204169
