站號,站名,日期,lat,lon,BlastGRU-TW
467590,恆春,2025-10-05,22.003897,120.746339,0.006391324
C0E820,獅潭,2025-10-05,24.539133,120.920042,0.0642086
C0AD40,土城,2025-10-05,24.973208,121.445169,0.020411817
467650,日月潭,2025-10-05,23.881325,120.90805,0.73738146
467110,金門,2025-10-05,24.407306,118.289281,0.024312006
C0AH80,深坑,2025-10-05,25.002703,121.628328,0.020654075
C0A970,三貂角,2025-10-05,25.007606,122.002058,0.047026362
467480,嘉義,2025-10-05,23.495925,120.432906,0.028609293
C0E960,觀霧分站,2025-10-05,24.505781,121.113921,0.24926396
467550,玉山,2025-10-05,23.48718,120.95943,0.0005444302
C0E910,海埔,2025-10-05,24.648767,120.772435,0.039898604
C0F0C0,中坑,2025-10-05,24.248517,120.903319,0.9523626
C0A770,科教館,2025-10-05,25.096356,121.516507,0.019428236
C0AJ60,六塊厝,2025-10-05,25.24,121.4481,0.02756983
467420,永康,2025-10-05,23.038386,120.2367,0.026028113
467080,宜蘭,2025-10-05,24.763975,121.756528,0.030635914
467410,臺南,2025-10-05,22.99328,120.20492,0.024979549
C0D660,新竹市東區,2025-10-05,24.798681,120.986942,0.03721363
467050,新屋,2025-10-05,25.006725,121.047492,0.060215693
C0C710,大溪永福,2025-10-05,24.892936,121.324975,0.0647
C0C660,楊梅,2025-10-05,24.912375,121.143047,0.0658202
C0F9M0,豐原,2025-10-05,24.254322,120.720692,0.059996944
C0C740,觀音工業區,2025-10-05,25.064764,121.114856,0.06696314
C0AJ90,澳底,2025-10-05,25.0552,121.9253,0.050253008
C0C800,四稜,2025-10-05,24.64733,121.4293,0.7493229
C0F9I0,神岡,2025-10-05,24.272481,120.658314,0.049093436
467280,後龍,2025-10-05,24.648563,120.831834,0.040645137
466930,竹子湖,2025-10-05,25.162078,121.544547,0.8726987
C0A570,桶後,2025-10-05,24.848222,121.597992,0.17922258
C0AH70,松山,2025-10-05,25.04871,121.55042,0.019488076
C0E791,卓蘭,2025-10-05,24.3126,120.8244,0.108620755
C0C790,東眼山,2025-10-05,24.8284,121.40888,0.87527114
C0C730,中大臨海站,2025-10-05,24.966126,121.008581,0.058432657
C0E870,高鐵苗栗,2025-10-05,24.60725,120.826094,0.053442687
467620,蘭嶼,2025-10-05,22.0369,121.55843,0.016338352
C0D360,梅花,2025-10-05,24.678347,121.208558,0.6933068
C0AI10,屈尺,2025-10-05,24.92184,121.54475,0.029953174
C0C720,竹圍,2025-10-05,25.112692,121.239824,0.024381062
C0F9P0,清水,2025-10-05,24.312297,120.562242,0.048200697
467300,東吉島,2025-10-05,23.25727,119.66762,0.04292418
C0F9O0,潭子,2025-10-05,24.213106,120.703933,0.051683515
C0E780,銅鑼,2025-10-05,24.489681,120.790853,0.046353057
C0E830,苑裡,2025-10-05,24.439714,120.653053,0.059128176
467270,田中,2025-10-05,23.873803,120.581286,0.02628873
C0F970,大坑,2025-10-05,24.173142,120.722289,0.05513992
C0A931,三和,2025-10-05,25.233153,121.595236,0.031245554
C0E810,西湖,2025-10-05,24.562947,120.7485,0.053569365
C0AD10,八里,2025-10-05,25.150211,121.403947,0.024402853
C0F9N0,大里,2025-10-05,24.092464,120.701378,0.03533617
C0AC70,信義,2025-10-05,25.037822,121.564597,0.019498706
C0AJ50,水湳洞,2025-10-05,25.123695,121.862238,0.029185778
C0AI20,白沙灣,2025-10-05,25.283128,121.519058,0.027789684
C0A860,大坪,2025-10-05,25.165914,121.632969,0.11761641
C0E590,通霄,2025-10-05,24.471892,120.704622,0.03265413
C0A550,泰平,2025-10-05,24.971197,121.823711,0.17767487
C0AJ20,野柳,2025-10-05,25.20703,121.690021,0.025631428
C0B060,暖暖,2025-10-05,25.0957,121.7403,0.027447559
C0E930,龍鳳,2025-10-05,24.700034,120.859125,0.053907678
C0D690,外湖,2025-10-05,24.917735,120.968711,0.049878687
C0C750,新興坑尾,2025-10-05,25.0061,121.0971,0.06619049
C0AH90,福山植物園,2025-10-05,24.760717,121.58135,0.9296775
C0AG80,中和,2025-10-05,24.991622,121.491792,0.020414772
467571,新竹,2025-10-05,24.827853,121.014219,0.03828499
C0A640,石碇,2025-10-05,24.993969,121.662917,0.040995516
C0E430,南庄,2025-10-05,24.601775,121.000214,0.06927424
466920,臺北,2025-10-05,25.037658,121.514853,0.019488072
466910,鞍部,2025-10-05,25.182586,121.529731,0.97298574
C0F9Q0,外埔,2025-10-05,24.347817,120.705686,0.038817357
C0C670,龍潭,2025-10-05,24.870056,121.221389,0.086623296
C0D680,香山濕地,2025-10-05,24.783581,120.914988,0.03619571
C0D650,湖口,2025-10-05,24.904794,121.043628,0.059018265
C0E420,竹南,2025-10-05,24.708978,120.888897,0.05525885
C0F9K0,大安,2025-10-05,24.345061,120.588025,0.052496955
467290,古坑,2025-10-05,23.633639,120.551889,0.046212614
C0E740,造橋,2025-10-05,24.637056,120.864778,0.04026539
467990,馬祖,2025-10-05,26.169467,119.923158,0.026370177
C0D580,寶山,2025-10-05,24.735006,121.025192,0.041940115
C0AI30,三重,2025-10-05,25.057328,121.500629,0.019428236
C0AH00,汐止,2025-10-05,25.066881,121.658778,0.019488076
466881,新北,2025-10-05,24.959207,121.525196,0.020527808
C0A950,鼻頭角,2025-10-05,25.129036,121.923372,0.054848243
C0A9C0,天母,2025-10-05,25.117494,121.537169,0.020033618
C0B050,八斗子,2025-10-05,25.144754,121.79167,0.028903574
C0E950,松安,2025-10-05,24.39792,120.98599,0.8206842
C0C620,蘆竹,2025-10-05,25.084275,121.265767,0.026562175
C0AJ40,石門,2025-10-05,25.273672,121.601198,0.030193392
C0E750,苗栗,2025-10-05,24.564569,120.824575,0.039140992
C0AJ70,田寮,2025-10-05,25.2698,121.4886,0.027738335
C0AI00,五股,2025-10-05,25.07445,121.42728,0.058722764
C0C460,復興,2025-10-05,24.820208,121.352281,0.34413084
C0ACA0,新莊,2025-10-05,25.051478,121.446756,0.018294223
467490,臺中,2025-10-05,24.145736,120.684075,0.06882018
C0AC80,文山,2025-10-05,25.00235,121.575728,0.020685567
C0F9R0,龍井,2025-10-05,24.184536,120.528972,0.05275323
C0D550,雪霸,2025-10-05,24.526972,121.11605,0.5230012
C0B020,基隆嶼,2025-10-05,25.19141,121.78391,0.03061214
C0C680,龜山,2025-10-05,25.02846,121.38656,0.031778056
C0D670,海天一線,2025-10-05,24.831986,120.914438,0.03824149
C0B010,七堵,2025-10-05,25.094819,121.71713,0.026819393
C0F0E0,南湖圈谷,2025-10-05,24.363714,121.444667,0.0015309332
467610,成功,2025-10-05,23.097486,121.373428,0.025440222
C0C700,中壢,2025-10-05,24.977661,121.256375,0.042452913
C0AJ30,淡水觀海,2025-10-05,25.184591,121.408616,0.024705771
C0A9F0,內湖,2025-10-05,25.079422,121.57545,0.019488076
C0AJ80,板橋,2025-10-05,25.0107,121.4489,0.020403303
C0E730,頭份,2025-10-05,24.688247,120.912206,0.055173673
467350,澎湖,2025-10-05,23.565503,119.563094,0.030978872
C0E920,通霄漁港,2025-10-05,24.498589,120.673876,0.041112423
C0AH10,永和,2025-10-05,25.01125,121.508111,0.020379385
C0AK10,太平里,2025-10-05,25.134937,121.364899,0.024469456
C0C590,觀音,2025-10-05,25.027072,121.153317,0.07729296
C0AI40,石牌,2025-10-05,25.115597,121.513139,0.019995166
467660,臺東,2025-10-05,22.752211,121.154586,0.031550627
C0A940,金山,2025-10-05,25.223628,121.643967,0.0258538
C0D760,大坪苗圃,2025-10-05,24.5362,121.1108,0.8913379
467790,墾丁雷達站,2025-10-05,21.948235,120.808028,0.0075161103
C0F850,東勢,2025-10-05,24.246428,120.833047,0.19266221
466900,淡水,2025-10-05,25.164889,121.448906,0.024475066
C0C630,大溪,2025-10-05,24.882853,121.265547,0.07913084
C0A520,山佳,2025-10-05,24.974944,121.402008,0.01910237
C0AC60,三峽,2025-10-05,24.939025,121.369728,0.038027126
C0A980,社子,2025-10-05,25.109508,121.469681,0.02429807
C0E570,白沙屯,2025-10-05,24.549447,120.696803,0.066969074
C0D430,峨眉,2025-10-05,24.6905,121.017189,0.04254951
C0A530,坪林,2025-10-05,24.938183,121.70975,0.044908907
C0AH30,五分山,2025-10-05,25.07125,121.780794,0.32757196
C0C650,平鎮,2025-10-05,24.897503,121.214636,0.069613725
466940,基隆,2025-10-05,25.133314,121.740475,0.02894603
466990,花蓮,2025-10-05,23.975128,121.613275,0.030875633
C0D590,新豐,2025-10-05,24.87068,120.97721,0.052303147
C0A870,五指山,2025-10-05,25.132153,121.608692,0.9580312
C0AD50,鶯歌,2025-10-05,24.951533,121.346294,0.03974652
C0D700,關西,2025-10-05,24.7977,121.1732,0.056988534
467530,阿里山,2025-10-05,23.508208,120.813242,0.03549171
C0AK30,硬漢嶺,2025-10-05,25.136097,121.426372,0.77256006
C0F0D0,審馬陣,2025-10-05,24.381675,121.4203,0.0006636562
C0E940,雪見,2025-10-05,24.42595,121.01347,0.49767333
C0D480,打鐵坑,2025-10-05,24.849664,121.150789,0.08848243
C0D560,竹東,2025-10-05,24.767147,121.057881,0.041056857
C0F0A0,雪山圈谷,2025-10-05,24.388594,121.236339,0.00027680345
467540,大武,2025-10-05,22.35572,120.90374,0.03964081
C0AC40,大屯山,2025-10-05,25.175675,121.522408,0.6893259
466850,五分山雷達站,2025-10-05,25.071182,121.781205,0.3813564
C0AD30,蘆洲,2025-10-05,25.086594,121.472331,0.019450467
C0AH40,平等,2025-10-05,25.129142,121.577086,0.19646573
466950,彭佳嶼,2025-10-05,25.627975,122.079744,0.09840206
C0A890,雙溪,2025-10-05,25.036003,121.864242,0.04647228
C0C480,桃園,2025-10-05,24.992425,121.323172,0.039374135
C0AH50,林口,2025-10-05,25.072181,121.38084,0.032390624
C0F9S0,烏日,2025-10-05,24.107058,120.624103,0.039972126
C0C490,八德,2025-10-05,24.928708,121.283289,0.05197751
C0E850,大河,2025-10-05,24.618069,120.948578,0.036789965
C0F9L0,后里,2025-10-05,24.310436,120.729725,0.0563384
467441,高雄,2025-10-05,22.730432,120.312516,0.048669044
C0D540,橫山,2025-10-05,24.71116,121.11693,0.064956896
C0B040,大武崙,2025-10-05,25.166676,121.706993,0.029449493
C0D750,樂山林道6k,2025-10-05,24.49999,121.08773,0.025683932
C0E610,馬都安,2025-10-05,24.451272,120.930192,0.91826576
C0E550,明德,2025-10-05,24.583486,120.885411,0.039723102
C0F0B0,石岡,2025-10-05,24.276061,120.777644,0.07870043
