站號,站名,日期,lat,lon,BLBTSLS
C0R710,龍磐,2025-12-10,21.931672,120.838942,0.11276853
C1F9D1,白毛台,2025-12-10,24.158325,120.886933,4.749867e-08
C0G940,竹塘,2025-12-10,23.848253,120.386764,1.3524262e-07
467590,恆春,2025-12-10,22.003897,120.746339,0.18594018
C1O850,環湖,2025-12-10,23.148617,120.418633,0.09770813
C0U710,太平山,2025-12-10,24.505486,121.525656,2.6200405e-08
C0E820,獅潭,2025-12-10,24.539133,120.920042,0.62522817
C0V880,興達,2025-12-10,22.8778,120.2127,0.97810566
C0S890,關山,2025-12-10,23.0395,121.175017,0.0058135595
C0SB30,新蘭,2025-12-10,22.869214,121.223228,0.9432155
C2R970,屏科大,2025-12-10,22.648275,120.619247,1.4073632e-07
C1Z130,銅門,2025-12-10,23.965694,121.492842,1.2567733e-06
C0AD40,土城,2025-12-10,24.973208,121.445169,0.9994851
CAN140,六官養殖協會,2025-12-10,23.22881,120.29962,0.62681276
C0X180,山上,2025-12-10,23.0757,120.363253,0.234585
C0F9Z0,雪山東峰,2025-12-10,24.388792,121.268675,3.8907217e-08
C1M480,獨立山,2025-12-10,23.537022,120.607797,1.6992497e-09
C0X220,學甲,2025-12-10,23.230367,120.182187,0.63565254
467650,日月潭,2025-12-10,23.881325,120.90805,6.0796785e-09
C0K600,箔子寮,2025-12-10,23.6197,120.14,0.94876343
C0G830,埤頭,2025-12-10,23.866003,120.452806,1.1006549e-07
C0S950,七塊厝,2025-12-10,22.954453,121.229922,3.1598072e-05
467110,金門,2025-12-10,24.407306,118.289281,0.99981385
C0AH80,深坑,2025-12-10,25.002703,121.628328,0.9995419
C0A970,三貂角,2025-12-10,25.007606,122.002058,0.84926206
C2D730,寶山農場,2025-12-10,24.732444,120.976153,0.9773962
C0K430,褒忠,2025-12-10,23.690938,120.303634,0.8009297
467480,嘉義,2025-12-10,23.495925,120.432906,0.7163388
C0V400,阿公店,2025-12-10,22.804194,120.355528,0.99964005
C0E960,觀霧分站,2025-12-10,24.505781,121.113921,1.8137452e-08
467550,玉山,2025-12-10,23.48718,120.95943,4.6747292e-08
C0R440,大漢山,2025-12-10,22.405264,120.753181,3.95817e-08
C0SD30,東清國小,2025-12-10,22.057128,121.564922,0.97346354
C1F9B1,桐林,2025-12-10,24.066172,120.735194,0.99565977
C2H9U0,鳳鵬,2025-12-10,23.763919,120.788061,5.174582e-08
C0K390,土庫,2025-12-10,23.679029,120.395574,1.2583764e-07
C1I450,望鄉山,2025-12-10,23.594153,120.944286,2.9157727e-08
C0E910,海埔,2025-12-10,24.648767,120.772435,0.9945636
B2E890,畜試北區分所,2025-12-10,24.527806,120.770972,0.9536355
C0R750,四林格山,2025-12-10,22.076989,120.802439,0.9999419
C0F0C0,中坑,2025-12-10,24.248517,120.903319,1.5931137e-08
C1I121,大鞍,2025-12-10,23.678381,120.760017,7.2810735e-09
72U480,花改蘭陽分場,2025-12-10,24.686306,121.716583,0.9532046
C0A770,科教館,2025-12-10,25.096356,121.516507,0.99944794
C0AJ60,六塊厝,2025-12-10,25.24,121.4481,0.9994374
C0R620,墾雷,2025-12-10,21.900836,120.855269,0.15783839
467420,永康,2025-12-10,23.038386,120.2367,0.9555198
C0I410,名間,2025-12-10,23.837053,120.701447,3.8384522e-09
A2C560,農工中心,2025-12-10,24.985917,121.239833,0.9988737
C0V740,旗山,2025-12-10,22.888614,120.483597,0.99952304
C0Z061,玉里,2025-12-10,23.3215,121.339656,0.09229041
C0S840,南田,2025-12-10,22.279725,120.889208,0.99843854
C1I470,杉林溪,2025-12-10,23.639517,120.786444,8.340948e-09
C1X040,東原,2025-12-10,23.291597,120.463822,4.3338204e-08
C0R660,枋寮,2025-12-10,22.367722,120.590647,0.9990221
C1R120,上德文,2025-12-10,22.763272,120.704442,3.3846256e-06
C0K450,大埤,2025-12-10,23.646074,120.431537,9.927121e-08
C0UA00,土場,2025-12-10,24.576533,121.495333,7.8731614e-07
467080,宜蘭,2025-12-10,24.763975,121.756528,0.9675622
C0N030,四草,2025-12-10,23.0235,120.1116,0.80220526
467410,臺南,2025-12-10,22.99328,120.20492,0.9217014
C0V650,彌陀,2025-12-10,22.783806,120.246361,0.9997318
C0D660,新竹市東區,2025-12-10,24.798681,120.986942,0.9832729
82S580,茶改東部分場,2025-12-10,22.907694,121.130139,0.019882172
C0SB40,興隆,2025-12-10,22.913661,121.257469,0.8977992
467050,新屋,2025-12-10,25.006725,121.047492,0.99920744
C0C710,大溪永福,2025-12-10,24.892936,121.324975,0.99873215
C0FA20,溫寮,2025-12-10,24.372177,120.583125,0.9994302
C0V640,湖內,2025-12-10,22.887139,120.2445,0.95443195
C0R910,下寮,2025-12-10,22.3929,120.5548,0.9990225
C0Z020,明里,2025-12-10,23.208717,121.262342,0.0056065843
C0M770,嘉義梅山,2025-12-10,23.585398,120.555587,4.279196e-09
C0C660,楊梅,2025-12-10,24.912375,121.143047,0.9984001
C0SD40,牛頭山,2025-12-10,22.676661,121.506944,0.980631
C1E511,新開,2025-12-10,24.347703,120.827019,0.0003801992
G2F820,農試所(霧峰),2025-12-10,24.031261,120.688133,0.9987913
C2M990,大巃頂,2025-12-10,23.5547,120.61439,4.168492e-09
C1I070,和社,2025-12-10,23.591131,120.888861,6.104245e-08
C2E990,新坪頂,2025-12-10,24.30201,120.8574,1.6185125e-07
C0TA80,立霧山,2025-12-10,24.183258,121.641899,5.1802303e-08
C2F000,大肚,2025-12-10,24.15295,120.572117,2.0345826e-06
C1S850,豐南,2025-12-10,23.122139,121.262389,8.370215e-06
C2A920,富貴角,2025-12-10,25.263783,121.565258,0.9994393
CAH030,茶改場竹圍站,2025-12-10,23.860083,120.637528,2.2969986e-09
C0T960,光復,2025-12-10,23.660694,121.424964,3.134755e-06
C0F9M0,豐原,2025-12-10,24.254322,120.720692,0.06647717
C0R720,旭海,2025-12-10,22.205403,120.887614,0.29366523
C0V710,苓雅,2025-12-10,22.622742,120.330669,0.9997289
C0C740,觀音工業區,2025-12-10,25.064764,121.114856,0.9991911
CAC040,拉拉山,2025-12-10,24.699317,121.427133,1.5840783e-08
C0V790,萬山,2025-12-10,22.905944,120.688056,6.5023458e-09
U2HA30,臺大和社,2025-12-10,23.590856,120.888864,6.104245e-08
C2H9K0,屯原,2025-12-10,24.067969,121.209389,1.6144375e-08
C0AJ90,澳底,2025-12-10,25.0552,121.9253,0.9673734
C0Z100,東華,2025-12-10,23.89525,121.549833,1.8903214e-05
C0G970,三豐,2025-12-10,23.882,120.2895,0.88207436
V2K610,大庄合作社,2025-12-10,23.8068,120.367939,0.7679936
C0V900,汕尾,2025-12-10,22.4782,120.4151,0.9990477
C1R630,龍泉,2025-12-10,22.66701,120.59091,2.10244e-05
C1AC50,關渡,2025-12-10,25.133486,121.469331,0.99956185
C0C800,四稜,2025-12-10,24.64733,121.4293,2.3532392e-08
C0F9I0,神岡,2025-12-10,24.272481,120.658314,0.2768648
C0K460,斗南,2025-12-10,23.678734,120.478359,7.0344846e-08
C2O810,曾文,2025-12-10,23.219681,120.497328,3.0033647e-07
467280,後龍,2025-12-10,24.648563,120.831834,0.98873997
C1F9J1,清水林,2025-12-10,24.071242,120.820419,1.7296276e-09
C2A650,火燒寮,2025-12-10,25.002719,121.742892,0.013026252
466930,竹子湖,2025-12-10,25.162078,121.544547,8.543734e-07
C1I220,樟湖,2025-12-10,23.905333,120.846983,5.525294e-09
C0I390,仁愛,2025-12-10,24.022122,121.132206,5.6025398e-09
C0Z300,東里,2025-12-10,23.26853,121.30547,0.05381649
C1V590,新發,2025-12-10,23.057019,120.646064,1.9208338e-08
C0K510,水林,2025-12-10,23.572924,120.24597,0.93394196
72S590,東改賓朗果園,2025-12-10,22.813889,121.071278,0.00050350325
82A750,茶改北部分場,2025-12-10,24.955778,121.631222,2.2304284e-05
C1A750,石碇服務區,2025-12-10,25.00872,121.646242,0.99955606
C0X300,鹿寮,2025-12-10,23.386047,120.477331,1.9355815e-08
G2AI50,關渡,2025-12-10,25.11575,121.492,0.99944043
C0K590,雲林東勢,2025-12-10,23.674192,120.255721,0.791273
C0A570,桶後,2025-12-10,24.848222,121.597992,2.4718704e-06
C1S800,華源,2025-12-10,22.657883,121.02325,0.2584183
C0G720,溪州,2025-12-10,23.851589,120.499093,6.882969e-08
C1V160,達卡努瓦,2025-12-10,23.279811,120.705319,9.835465e-09
C2M410,馬頭山,2025-12-10,23.324361,120.582017,2.2939567e-08
C0V850,蚵仔寮,2025-12-10,22.7256,120.2527,0.999754
C0S740,池上,2025-12-10,23.119628,121.209469,0.00060814345
C1V390,尖山,2025-12-10,22.813153,120.367789,0.999345
C0AH70,松山,2025-12-10,25.04871,121.55042,0.99947006
C0N010,鯤鯓國小,2025-12-10,23.1879,120.0889,0.7922436
C0R550,新埤,2025-12-10,22.467947,120.582894,0.99853766
C0SA60,知本（水試所）,2025-12-10,22.702394,121.082761,0.9970794
C0T9I0,豐濱,2025-12-10,23.583897,121.514806,2.4343092e-06
C0UB00,淡江大學蘭陽校園,2025-12-10,24.823239,121.730383,6.937515e-07
C0W240,九宮,2025-12-10,24.423753,118.240186,0.9998174
C0T9N0,富里,2025-12-10,23.171639,121.249378,0.002085089
U2HA50,臺大竹山,2025-12-10,23.756972,120.681556,3.965763e-09
C0V840,鳳鼻頭,2025-12-10,22.5083,120.3591,0.999754
C0X140,西港,2025-12-10,23.125608,120.203108,0.6257622
72D080,桃改五峰分場,2025-12-10,24.612194,121.157167,1.4408403e-08
C2H9P0,伊拿谷,2025-12-10,23.963211,121.088264,7.1578348e-09
C2K250,崙背,2025-12-10,23.75553,120.31893,0.7976218
C2H9F0,柑林,2025-12-10,24.018658,120.847072,4.608839e-06
C0TA20,加灣,2025-12-10,24.082025,121.608944,2.7584972e-05
C0V530,阿蓮,2025-12-10,22.883208,120.327508,0.86170846
C0FB30,八仙山苗圃,2025-12-10,24.192719,121.001366,1.7188908e-08
C1O880,關山,2025-12-10,23.173397,120.594092,1.9874326e-08
C0E791,卓蘭,2025-12-10,24.3126,120.8244,0.0002637435
C1I030,武界,2025-12-10,23.913225,121.052483,6.827631e-09
C0R520,崁頂,2025-12-10,22.514781,120.506914,0.9989184
C0R341,牡丹,2025-12-10,22.130036,120.792639,0.013637722
C0R930,萬丹,2025-12-10,22.5885,120.4851,0.9986593
C0S760,紅石,2025-12-10,23.069131,121.126219,2.3754398e-08
C2C410,中央大學,2025-12-10,24.967652,121.185165,0.99876344
C1M610,石磐龍,2025-12-10,23.496606,120.663506,4.246316e-09
C0C790,東眼山,2025-12-10,24.8284,121.40888,4.8825438e-08
C0UA10,鴛鴦湖,2025-12-10,24.590269,121.412228,1.620821e-08
V2C260,八德蔬果,2025-12-10,24.978508,121.281819,0.99892014
C0R800,丹路,2025-12-10,22.204481,120.750989,0.9537699
C0G920,永靖,2025-12-10,23.924703,120.547533,0.057991568
C2M950,太和,2025-12-10,23.538372,120.702961,4.9427156e-09
C1A630,下盆,2025-12-10,24.771003,121.538622,4.002415e-07
B2N890,畜產試驗所,2025-12-10,23.058972,120.336406,0.83502245
C0UA30,白嶺,2025-12-10,24.527819,121.519031,2.351404e-08
C1V580,溪南(特生中心),2025-12-10,23.084972,120.788475,1.7209114e-08
C1T970,大農,2025-12-10,23.615233,121.413331,1.2328472e-06
C0R650,竹田,2025-12-10,22.58486,120.54344,0.99874043
C1H900,清流,2025-12-10,24.080775,120.962997,7.0825577e-09
C1C510,水尾,2025-12-10,24.940081,121.087161,0.9990468
C2N170,茅港尾,2025-12-10,23.2061,120.2624,0.788732
C0F9X0,大雅(中科園區),2025-12-10,24.21528,120.62445,0.9536773
C0SB60,白守蓮,2025-12-10,23.126769,121.401914,0.9970243
C0O970,虎頭埤,2025-12-10,23.021375,120.347878,0.22164157
C0C730,中大臨海站,2025-12-10,24.966126,121.008581,0.9991862
C0X250,新營,2025-12-10,23.310689,120.316681,0.4943572
C0V700,三民,2025-12-10,22.645017,120.311233,0.9997289
C0U870,大礁溪,2025-12-10,24.791042,121.675047,2.3449597e-07
C0E870,高鐵苗栗,2025-12-10,24.60725,120.826094,0.9993666
A2K570,古坑花卉中心,2025-12-10,23.63353,120.55239,1.1835041e-08
C0TA30,鹽寮,2025-12-10,23.845606,121.592664,2.7584972e-05
C0M860,新美,2025-12-10,23.338017,120.683169,2.6926847e-09
C1E701,八卦,2025-12-10,24.491756,120.927619,6.126956e-08
C2TA90,加納納,2025-12-10,23.466421,121.359867,6.4558276e-07
C0I420,國姓,2025-12-10,24.037803,120.855072,7.870091e-07
C2D720,關西工作站,2025-12-10,24.757275,121.184792,0.8431846
C0S960,香蘭,2025-12-10,22.587569,120.993375,0.99813926
467620,蘭嶼,2025-12-10,22.0369,121.55843,0.7892749
C0R260,春日,2025-12-10,22.370361,120.628306,0.9967878
72G600,臺中農改場,2025-12-10,24.003028,120.534389,0.32783154
C0Z210,瑞穗,2025-12-10,23.5239,121.39021,3.7116363e-06
C0M820,達邦,2025-12-10,23.453994,120.749517,4.198022e-09
C0V860,南寮,2025-12-10,22.7616,120.2339,0.9997582
C0G740,大城,2025-12-10,23.852487,120.320935,0.7976218
C0R920,塭仔,2025-12-10,22.4169,120.5197,0.9990477
C0R470,高樹,2025-12-10,22.826389,120.600806,1.3031312e-06
C0R680,佳樂水,2025-12-10,21.993578,120.861633,0.19496118
C1O870,大棟山,2025-12-10,23.31157,120.52226,9.331998e-09
C0D360,梅花,2025-12-10,24.678347,121.208558,2.0520501e-06
C0Z190,富世,2025-12-10,24.14743,121.6297,0.0010711107
C0AI10,屈尺,2025-12-10,24.92184,121.54475,0.9995482
B2U990,畜試東區分所,2025-12-10,24.669039,121.832561,0.9714366
C0SB80,長濱漁港,2025-12-10,23.313644,121.459994,0.99059975
C0TA50,和仁,2025-12-10,24.241394,121.712472,0.0034725843
C0V910,大樹,2025-12-10,22.684645,120.432803,0.00012275789
C1R610,西大武山,2025-12-10,22.617719,120.7322,3.853073e-08
C0G900,線西,2025-12-10,24.143358,120.443536,0.9994294
C0M700,竹崎,2025-12-10,23.526178,120.555508,5.5824647e-09
C2E880,三義,2025-12-10,24.405478,120.749819,2.9650224e-07
C0C720,竹圍,2025-12-10,25.112692,121.239824,0.99945146
C0F9P0,清水,2025-12-10,24.312297,120.562242,0.99939895
C0Z150,吉安光華,2025-12-10,23.930925,121.595153,3.2824184e-05
C0FA80,小雪山天池,2025-12-10,24.28025,121.02627,2.4735979e-08
467300,東吉島,2025-12-10,23.25727,119.66762,0.9717637
C1D640,外坪(五指山),2025-12-10,24.644447,121.090961,1.1369404e-07
C0F9O0,潭子,2025-12-10,24.213106,120.703933,0.38012266
C2H9R0,卓社,2025-12-10,23.887894,121.000086,9.187337e-09
72T250,花蓮農改場,2025-12-10,23.975222,121.563889,1.8790664e-05
C0E780,銅鑼,2025-12-10,24.489681,120.790853,0.5346744
C1T950,太安,2025-12-10,23.666719,121.370128,5.838223e-09
C0E830,苑裡,2025-12-10,24.439714,120.653053,0.99936706
467270,田中,2025-12-10,23.873803,120.581286,4.626422e-08
C0SA10,檳榔四格山,2025-12-10,22.810031,121.109308,7.367645e-05
C1T830,布洛灣,2025-12-10,24.17184,121.57127,1.4822479e-06
C0F970,大坑,2025-12-10,24.173142,120.722289,0.69553125
C1U920,思源,2025-12-10,24.393125,121.347214,1.777752e-08
C2H9Y0,松茗,2025-12-10,23.8167,120.650765,4.3117714e-09
C0A931,三和,2025-12-10,25.233153,121.595236,0.99929345
C0I010,廬山,2025-12-10,24.033311,121.181808,7.4843545e-09
C2M940,日野賀,2025-12-10,23.434056,120.727169,4.294036e-09
C0R860,鼻頭,2025-12-10,22.1043,120.8979,0.42816386
C0UB20,壯圍,2025-12-10,24.7359,121.8163,0.9726874
C0R790,九棚,2025-12-10,22.14195,120.889281,0.7802108
C0W110,東莒,2025-12-10,25.9652,119.98069,0.9862148
C1U930,粉鳥林,2025-12-10,24.497088,121.842479,0.0058058007
C1I211,蘆竹湳,2025-12-10,23.934019,120.811994,2.2451414e-09
C0S830,長濱,2025-12-10,23.286817,121.411975,0.0020595873
C1F9F1,伯公龍,2025-12-10,24.272392,120.849047,7.471299e-07
C0UB90,太平山莊,2025-12-10,24.494171,121.536209,2.649742e-08
C0E810,西湖,2025-12-10,24.562947,120.7485,0.9848982
C1I440,新高口,2025-12-10,23.478744,120.878939,2.0971981e-08
C0O840,王爺宮,2025-12-10,23.222064,120.40085,3.0671197e-07
C0T9G0,鳳林山,2025-12-10,23.735269,121.420131,1.7594323e-07
C0X080,佳里,2025-12-10,23.173039,120.145086,0.7929359
C0FB70,大甲溪埔,2025-12-10,24.370625,120.620067,0.9993044
C0Z310,清水斷崖,2025-12-10,24.218294,121.689142,0.0002437687
C0M680,太保,2025-12-10,23.455062,120.331455,0.8428567
C1S820,金峰,2025-12-10,22.590969,120.933236,0.6075392
C0AD10,八里,2025-12-10,25.150211,121.403947,0.9994621
C2K240,草嶺,2025-12-10,23.59555,120.693461,4.235251e-09
C1SA70,都蘭,2025-12-10,22.87794,121.226881,0.8930529
C0K440,二崙,2025-12-10,23.772797,120.408944,1.18690224e-07
C1A760,坪林交控,2025-12-10,24.94284,121.713442,0.07923982
C0F9N0,大里,2025-12-10,24.092464,120.701378,2.608353e-08
C0SA90,達仁林場,2025-12-10,22.264347,120.823972,5.601892e-06
C1R290,石門山,2025-12-10,22.112611,120.756597,0.9856188
42HA10,萬大發電廠,2025-12-10,23.978875,121.139639,5.838223e-09
C0R890,山海,2025-12-10,21.9878,120.7091,0.2507773
C0T9A0,月眉山,2025-12-10,23.809928,121.539828,7.897431e-08
C0AC70,信義,2025-12-10,25.037822,121.564597,0.99948126
C0K560,棋山,2025-12-10,23.68645,120.603417,8.5599146e-09
C2FB50,出雲,2025-12-10,24.206469,120.902794,5.6878915e-09
C1Z240,中平林道,2025-12-10,23.42115,121.26763,6.6424284e-09
U2H480,溪頭,2025-12-10,23.670306,120.798194,5.5881535e-09
C0M880,好美里,2025-12-10,23.3364,120.138,0.7929359
C0T9E0,大坑,2025-12-10,23.880628,121.581981,1.220888e-07
C0K530,臺西,2025-12-10,23.701547,120.197559,0.8303064
C1E900,國一N128K,2025-12-10,24.560997,120.844186,0.9724199
C0AJ50,水湳洞,2025-12-10,25.123695,121.862238,0.9994833
C0AI20,白沙灣,2025-12-10,25.283128,121.519058,0.9994833
C2V310,美濃,2025-12-10,22.898792,120.51907,0.99961233
C0A860,大坪,2025-12-10,25.165914,121.632969,8.043732e-05
C1U850,觀音海岸,2025-12-10,24.38319,121.77856,8.2152404e-08
C2K610,草嶺石壁,2025-12-10,23.602469,120.707731,4.299141e-09
C0U950,鶯子嶺,2025-12-10,24.89754,121.79244,4.2094257e-08
C0O900,善化,2025-12-10,23.112883,120.297219,0.97562784
C0K550,蔦松,2025-12-10,23.514319,120.229736,0.94849634
E2P980,林試六龜中心,2025-12-10,22.991703,120.645722,1.2255946e-08
C0E590,通霄,2025-12-10,24.471892,120.704622,0.9832729
C1I310,西巒,2025-12-10,23.754486,120.883956,5.690007e-09
C0A550,泰平,2025-12-10,24.971197,121.823711,2.2984732e-05
C0I360,水里,2025-12-10,23.812553,120.849792,3.214569e-09
C0R830,高士,2025-12-10,22.121825,120.836781,0.9980324
C1I101,溪頭,2025-12-10,23.661789,120.807647,9.260048e-09
C0AJ20,野柳,2025-12-10,25.20703,121.690021,0.99947006
C0B060,暖暖,2025-12-10,25.0957,121.7403,0.9995556
C1H920,長豐,2025-12-10,24.102039,120.879897,1.7447699e-09
C0V360,內門,2025-12-10,22.975481,120.466769,2.2204226e-06
C0R850,林邊,2025-12-10,22.4634,120.5339,0.99891454
C0E930,龍鳳,2025-12-10,24.700034,120.859125,0.9948149
C0U910,冬山,2025-12-10,24.63373,121.7937,0.9714366
C1E721,泰安,2025-12-10,24.489017,120.968036,9.291877e-09
82H320,茶改中部分場,2025-12-10,23.875611,120.913583,8.0143465e-09
C0M750,布袋,2025-12-10,23.380878,120.167789,0.9508943
C1S860,利嘉,2025-12-10,22.809417,121.050528,4.6647187e-06
E2S980,林試太麻里1,2025-12-10,22.598922,120.980044,0.9904174
C0X170,關廟,2025-12-10,22.963017,120.327797,0.56466746
C0V720,林園,2025-12-10,22.507747,120.394511,0.9989115
C1I510,線浸林道,2025-12-10,23.761508,120.832956,4.496447e-09
C0D690,外湖,2025-12-10,24.917735,120.968711,0.9991903
C0C750,新興坑尾,2025-12-10,25.0061,121.0971,0.9991494
B2Q810,畜試南區分所,2025-12-10,21.945583,120.802167,0.21143945
C0S790,金崙,2025-12-10,22.538122,120.966875,0.22268489
C0AH90,福山植物園,2025-12-10,24.760717,121.58135,1.4226225e-07
C0I540,奇萊稜線,2025-12-10,24.109231,121.326456,3.3984318e-08
C0M850,表湖,2025-12-10,23.24186,120.64166,2.206492e-09
C0S770,大溪山,2025-12-10,22.478475,120.943325,0.00016626883
C0AG80,中和,2025-12-10,24.991622,121.491792,0.99948585
C0T790,大禹嶺,2025-12-10,24.186117,121.316086,2.8232892e-08
C0T9B0,水源,2025-12-10,23.991861,121.537169,2.1122608e-07
C0R840,牡丹池山,2025-12-10,22.168389,120.841225,8.892861e-06
C1I131,桶頭,2025-12-10,23.641944,120.654117,2.2468636e-09
CAL110,布袋國中,2025-12-10,23.35893,120.18026,0.7968448
467571,新竹,2025-12-10,24.827853,121.014219,0.98886746
C0Z290,赤柯山,2025-12-10,23.36893,121.38293,4.5843553e-08
C0X280,將軍,2025-12-10,23.214999,120.13577,0.7922435
C0S690,太麻里,2025-12-10,22.60902,120.98533,0.9979122
C0U880,北關,2025-12-10,24.9072,121.8734,0.99944794
CAW010,東引,2025-12-10,26.3588,120.4836,0.99990433
C0G810,埔心,2025-12-10,23.947633,120.525456,0.13703121
C0U970,大福,2025-12-10,24.80064,121.81389,0.97488064
C2H9N0,仁愛東眼,2025-12-10,24.026875,121.1205,7.0206214e-09
C1E670,南礦,2025-12-10,24.538278,121.002836,9.27693e-09
C0M520,東後寮,2025-12-10,23.369908,120.248065,0.63565254
C1E461,松安,2025-12-10,24.397972,120.986022,9.133663e-09
C2N160,西拉雅風管處,2025-12-10,23.189481,120.335297,0.3104994
C2M970,碧湖,2025-12-10,23.568632,120.624165,4.1499764e-09
C0A640,石碇,2025-12-10,24.993969,121.662917,0.07685579
E2S960,林試太麻里2,2025-12-10,22.598,120.99775,0.99843556
C0F9Y0,桃山,2025-12-10,24.432739,121.303808,4.1305125e-08
C1I020,萬大,2025-12-10,23.979817,121.132261,5.5606373e-09
C2UC20,長嶺,2025-12-10,24.70894,121.61162,3.7373164e-07
C0U940,羅東,2025-12-10,24.68184,121.74934,0.9650995
C0M650,朴子,2025-12-10,23.43463,120.23902,0.93394196
C1I500,大尖山,2025-12-10,23.858572,120.994889,1.5399516e-08
C0FB40,中橫21.6k,2025-12-10,24.2499,121.1455,2.336249e-08
C0G820,田尾,2025-12-10,23.901669,120.509389,0.13074504
E2K600,四湖植物園,2025-12-10,23.676986,120.163433,0.80978537
C0S730,綠島,2025-12-10,22.6672,121.47533,0.44225648
12Q970,東港工作站,2025-12-10,22.479997,120.466058,0.9990221
C0E430,南庄,2025-12-10,24.601775,121.000214,0.5816963
C1TA00,太魯閣,2025-12-10,24.15773,121.6236,0.00032635362
466920,臺北,2025-12-10,25.037658,121.514853,0.99947006
C0R600,舊泰武,2025-12-10,22.588194,120.664944,1.7238287e-08
C1I260,北坑,2025-12-10,23.9246,121.006903,1.9813682e-09
466910,鞍部,2025-12-10,25.182586,121.529731,1.681267e-07
C1I230,九份二山,2025-12-10,23.961944,120.845,9.082692e-09
C2A660,瑞芳,2025-12-10,25.113169,121.801147,0.9995676
C0R270,琉球嶼,2025-12-10,22.332244,120.362236,0.9964055
C1T990,高寮,2025-12-10,23.394239,121.356808,4.993327e-06
C0G620,芬園,2025-12-10,24.015678,120.6213,0.0002900657
C1Z140,荖溪,2025-12-10,23.890575,121.45964,6.268246e-08
C1I201,中心崙,2025-12-10,23.728722,120.712097,1.8481913e-09
C1I400,凌霄,2025-12-10,24.018778,121.004456,6.8678196e-09
C1M640,十字,2025-12-10,23.492153,120.753683,7.5614786e-09
G2P820,農試鳳山分所,2025-12-10,22.646611,120.356083,0.99966204
C0Z270,蕃薯寮,2025-12-10,23.73835,121.540108,2.261876e-07
C0FB10,出雲山苗圃,2025-12-10,24.23105,120.90475,1.59124e-08
C0F9Q0,外埔,2025-12-10,24.347817,120.705686,0.61534584
C0K580,高鐵雲林,2025-12-10,23.737456,120.417944,1.18690224e-07
C2I090,鳳凰,2025-12-10,23.728081,120.787347,7.0764545e-09
C0U990,員山,2025-12-10,24.74435,121.72247,0.96585727
C0V770,大社,2025-12-10,22.730306,120.346639,0.9997141
C0X120,麻豆,2025-12-10,23.183289,120.248611,0.6257622
C0C670,龍潭,2025-12-10,24.870056,121.221389,0.4913251
C0D680,香山濕地,2025-12-10,24.783581,120.914988,0.99465126
C0S980,勝林山,2025-12-10,22.430439,120.8938,2.216891e-06
C0V730,大寮,2025-12-10,22.605614,120.395717,0.99853766
C0R570,麟洛,2025-12-10,22.65078,120.52719,0.000115239665
C2M930,石卓,2025-12-10,23.478744,120.702264,7.595563e-09
C0G9B0,和美,2025-12-10,24.105169,120.492131,0.39812252
CAG100,王功漁港,2025-12-10,23.96824,120.32586,0.8303064
C0X290,北門,2025-12-10,23.267772,120.125481,0.7968448
C2F930,大甲,2025-12-10,24.347667,120.640403,0.9979783
C0D650,湖口,2025-12-10,24.904794,121.043628,0.999083
C0E420,竹南,2025-12-10,24.708978,120.888897,0.9888971
C0U780,五結,2025-12-10,24.68637,121.79794,0.9714366
C1I250,鯉潭,2025-12-10,23.961922,120.991131,1.7447699e-09
C0R130,阿禮,2025-12-10,22.742908,120.743678,3.1421698e-07
C0X100,臺南市北區,2025-12-10,23.010394,120.194228,0.97810566
C0S920,金峰嘉蘭,2025-12-10,22.594789,120.960825,0.9903823
C0V490,新興,2025-12-10,22.627422,120.298803,0.9997309
C0F9K0,大安,2025-12-10,24.345061,120.588025,0.99936634
467290,古坑,2025-12-10,23.633639,120.551889,1.1835041e-08
C2E970,八甲,2025-12-10,24.535811,120.795983,0.39945033
C0V440,鳳山,2025-12-10,22.646653,120.356122,0.99966204
C1T940,大觀,2025-12-10,23.714206,121.373133,7.424712e-08
C0E740,造橋,2025-12-10,24.637056,120.864778,0.9919975
C0R100,尾寮山,2025-12-10,22.833111,120.683889,3.0437417e-07
A2K630,臺大雲林校區,2025-12-10,23.730628,120.423903,1.0875291e-07
467990,馬祖,2025-12-10,26.169467,119.923158,5.4185594e-09
C0D580,寶山,2025-12-10,24.735006,121.025192,0.9182058
E2P990,林試扇平站,2025-12-10,22.9677,120.6857,2.593327e-08
C0AI30,三重,2025-12-10,25.057328,121.500629,0.99944794
C0AH00,汐止,2025-12-10,25.066881,121.658778,0.99947006
C1Z040,立山,2025-12-10,23.443356,121.327375,8.943791e-08
466881,新北,2025-12-10,24.959207,121.525196,0.99951583
C0W130,花嶼,2025-12-10,23.40007,119.32276,0.925111
C0A950,鼻頭角,2025-12-10,25.129036,121.923372,0.9703618
C0K470,林內,2025-12-10,23.748675,120.609642,1.4733499e-08
C2F990,摩天嶺,2025-12-10,24.322458,120.936819,5.9578356e-09
82C160,茶改場,2025-12-10,24.908472,121.185333,0.996958
C0Z320,清水林道,2025-12-10,23.27125,121.188272,1.0318498e-07
C0R760,南仁湖,2025-12-10,22.084681,120.863353,0.98680246
C0M670,大林,2025-12-10,23.600616,120.45841,0.5403088
C0M800,茶山,2025-12-10,23.299075,120.664767,4.9397846e-09
C0A9C0,天母,2025-12-10,25.117494,121.537169,0.99948585
72K220,南改斗南分場,2025-12-10,23.634556,120.477333,4.837235e-08
72AI40,桃改樹林分場,2025-12-10,24.944503,121.386972,0.99951166
C0S910,蘭嶼燈塔,2025-12-10,22.081197,121.503117,0.9430008
C0B050,八斗子,2025-12-10,25.144754,121.79167,0.9994374
C0U900,內城,2025-12-10,24.71813,121.68766,0.9416146
C0X320,柳營,2025-12-10,23.253328,120.375253,0.7163388
C0M790,新港,2025-12-10,23.553269,120.345728,0.9177449
C0F9T0,西屯,2025-12-10,24.179494,120.641275,0.9979783
C0E950,松安,2025-12-10,24.39792,120.98599,9.133663e-09
C0SA30,都歷,2025-12-10,23.020333,121.323642,0.7806248
C0C620,蘆竹,2025-12-10,25.084275,121.265767,0.99949586
C0R730,大坪頂,2025-12-10,22.024633,120.69355,0.15587196
C0AJ40,石門,2025-12-10,25.273672,121.601198,0.99952906
C0E750,苗栗,2025-12-10,24.564569,120.824575,0.9751497
C0T870,鯉魚潭,2025-12-10,23.935639,121.508944,2.1849228e-06
C1V170,排雲,2025-12-10,23.463619,120.954147,4.1909757e-08
C2H950,中寮,2025-12-10,23.884447,120.766406,0.7904397
C0R350,貓鼻頭,2025-12-10,21.921774,120.7358,0.16734213
C0V660,岡山,2025-12-10,22.797078,120.294958,0.9997313
C1H941,雙冬,2025-12-10,23.967378,120.802189,1.9444093e-09
C0AJ70,田寮,2025-12-10,25.2698,121.4886,0.9994693
C0AI00,五股,2025-12-10,25.07445,121.42728,0.9980469
C0Z280,德武,2025-12-10,23.47426,121.41071,1.0513703e-06
C2RA10,大新,2025-12-10,22.67558,120.57788,2.2777656e-05
C0R700,枋山,2025-12-10,22.246844,120.661086,0.9989115
C0C460,復興,2025-12-10,24.820208,121.352281,9.494178e-06
C2K300,鹿南,2025-12-10,23.63855,120.3636,0.7824951
E2H360,蓮華池,2025-12-10,23.918333,120.885278,1.7668054e-09
C0M640,中埔,2025-12-10,23.42538,120.5229,5.4972586e-09
C0W140,金沙,2025-12-10,24.488292,118.408778,0.9998324
C2A540,四堵,2025-12-10,24.8926,121.745736,0.000154182
C0ACA0,新莊,2025-12-10,25.051478,121.446756,0.9994637
C0R220,潮州,2025-12-10,22.534361,120.54,0.99871993
U2HA40,臺大內茅埔,2025-12-10,23.689722,120.851117,2.446943e-09
467490,臺中,2025-12-10,24.145736,120.684075,0.99821675
C0UB60,明池,2025-12-10,24.650688,121.475277,2.3702894e-08
C0U960,翠峰湖,2025-12-10,24.510856,121.608044,2.5947866e-08
E2HA20,林試畢祿溪站,2025-12-10,24.226944,121.308522,1.9010606e-08
C0V890,前鎮,2025-12-10,22.5718,120.3117,0.9997318
C1F941,雪嶺,2025-12-10,24.280586,121.026642,2.4735979e-08
C2H9E0,國姓南港,2025-12-10,23.911108,120.846556,5.6055756e-09
C0AC80,文山,2025-12-10,25.00235,121.575728,0.9995468
C0F9R0,龍井,2025-12-10,24.184536,120.528972,0.99939996
C0M760,民雄,2025-12-10,23.551754,120.428457,0.55431646
C0UA40,西德山,2025-12-10,24.560647,121.752608,2.3860746e-08
C2TA70,赤科坪,2025-12-10,23.39885,121.39168,5.0092677e-08
C1T920,中興,2025-12-10,23.769503,121.498653,8.829541e-06
C0D550,雪霸,2025-12-10,24.526972,121.11605,1.776684e-08
C2F860,梨山,2025-12-10,24.247522,121.243669,1.9379753e-08
C0R320,車城,2025-12-10,22.0744,120.716247,0.24920292
C1S870,南美山,2025-12-10,23.15025,121.382333,0.0027048269
C0B020,基隆嶼,2025-12-10,25.19141,121.78391,0.9994842
C1U501,牛鬥,2025-12-10,24.637836,121.573656,0.018531416
C0M730,嘉義市東區,2025-12-10,23.457673,120.460531,0.5414029
C2R990,泰武,2025-12-10,22.60686,120.69765,4.4375548e-07
C0S700,知本,2025-12-10,22.684866,121.005642,5.601892e-06
C1N001,沙崙,2025-12-10,22.935472,120.309406,0.85265285
C0V760,橋頭,2025-12-10,22.757806,120.30575,0.9997309
C0G960,福寶,2025-12-10,24.0443,120.3814,0.58956236
C0X210,白河,2025-12-10,23.347466,120.414427,0.29872245
C0S810,東河,2025-12-10,22.972672,121.303986,0.9523651
C2R170,屏東,2025-12-10,22.66027,120.49403,0.00011977868
C0R670,楓港,2025-12-10,22.190131,120.692156,0.998908
C0FA50,霧峰,2025-12-10,24.0419,120.6995,0.9986039
C0UB10,蘇澳,2025-12-10,24.5969,121.8571,0.0055129463
C0G950,防潮門,2025-12-10,24.1835,120.4871,0.9994311
C0M740,六腳,2025-12-10,23.492871,120.290625,0.9317907
C1R250,力里,2025-12-10,22.428117,120.629228,0.9926408
C0K330,虎尾,2025-12-10,23.719183,120.442036,7.1299326e-08
C2FA00,烏石坑,2025-12-10,24.273503,120.947617,6.026386e-09
C0V620,永安,2025-12-10,22.82315,120.236856,0.9997318
C1I330,楓樹林,2025-12-10,23.986803,121.076117,9.247181e-09
C0W200,湖西,2025-12-10,23.596314,119.67275,0.93732244
72Q010,高雄農改場,2025-12-10,22.709333,120.525889,5.5543616e-05
C0SA40,瑞和,2025-12-10,22.974361,121.156697,0.015041717
C0C680,龜山,2025-12-10,25.02846,121.38656,0.03385697
C2V260,月眉,2025-12-10,22.971003,120.539853,1.4073632e-07
C0V450,鳳森,2025-12-10,22.545064,120.392592,0.9967975
C0FA90,小雪山林道,2025-12-10,24.29515,121.03651,3.0550392e-08
C0U720,南山,2025-12-10,24.43742,121.38167,2.3651772e-08
A2N290,臺南蘭花園區,2025-12-10,23.340258,120.379661,0.73639596
C0R560,新園,2025-12-10,22.5434,120.461558,0.9989115
C0U890,三星,2025-12-10,24.66812,121.65302,0.81905204
C1V300,御油山,2025-12-10,23.001983,120.715364,1.7033068e-08
C0U600,礁溪,2025-12-10,24.817539,121.765608,0.9634773
C1T980,龍澗,2025-12-10,24.023289,121.411328,4.467878e-08
C0D670,海天一線,2025-12-10,24.831986,120.914438,0.9948149
C0SA00,歷坵,2025-12-10,22.520969,120.89185,2.4382483e-05
C0M710,東石,2025-12-10,23.458927,120.15385,0.94931006
C0M780,鹿草,2025-12-10,23.41134,120.30835,0.839656
C0U520,雙連埤,2025-12-10,24.753033,121.641303,2.254128e-07
C0B010,七堵,2025-12-10,25.094819,121.71713,0.9995005
C0R480,長治,2025-12-10,22.693128,120.542622,4.551873e-05
C1V830,國三S383K,2025-12-10,22.781967,120.426475,2.354351e-07
12Q980,恆春工作站,2025-12-10,22.079678,120.714425,0.23758653
C1O940,東山服務區,2025-12-10,23.286016,120.398472,0.2912475
C1U840,東澳嶺,2025-12-10,24.5378,121.8485,5.738927e-08
C1D630,飛鳳山,2025-12-10,24.766464,121.119178,2.7267954e-06
C0S940,石寧山,2025-12-10,23.223772,121.406639,0.19583108
C0K410,北港,2025-12-10,23.573957,120.292802,0.92904323
C2M620,瑞里,2025-12-10,23.545133,120.675197,4.5354573e-09
C0SB70,小港漁港,2025-12-10,23.158558,121.400431,0.9929815
C2O950,安南,2025-12-10,23.076694,120.144861,0.98084015
C0F0E0,南湖圈谷,2025-12-10,24.363714,121.444667,5.6116225e-08
467610,成功,2025-12-10,23.097486,121.373428,0.98290205
C0G890,伸港,2025-12-10,24.148933,120.484403,0.99940085
C2E540,龍溪,2025-12-10,24.606489,120.783933,0.9993838
C1V200,梅山,2025-12-10,23.268447,120.823556,1.3195491e-08
C0T9H0,加路蘭山,2025-12-10,23.682947,121.5274,1.05104185e-07
C2O930,玉井,2025-12-10,23.126042,120.46055,0.109637216
C1F911,新伯公,2025-12-10,24.221361,120.841069,7.0848764e-06
C0R490,九如,2025-12-10,22.7405,120.490503,5.9564987e-05
C0X200,左鎮,2025-12-10,23.056758,120.408522,0.9995291
C0FA60,鞍馬山工作站,2025-12-10,24.267064,121.000793,1.9508816e-08
C0SB50,叭嗡嗡,2025-12-10,23.047062,121.343223,0.99555975
C1F891,稍來,2025-12-10,24.265689,121.001142,1.9087889e-08
72N240,七股研究中心,2025-12-10,23.081672,120.062894,0.8931709
C0C700,中壢,2025-12-10,24.977661,121.256375,0.9987637
C0M690,水上,2025-12-10,23.419734,120.388909,0.7347362
C0V690,鼓山,2025-12-10,22.623325,120.275575,0.99973184
C0O860,大內,2025-12-10,23.11885,120.36083,0.86213833
C0Z200,萬榮,2025-12-10,23.709219,121.420106,2.1959086e-06
C0T9D0,和中,2025-12-10,24.26676,121.74103,0.004441166
C1O921,楠西,2025-12-10,23.183511,120.484083,0.02533743
C0AJ30,淡水觀海,2025-12-10,25.184591,121.408616,0.99944043
C0V810,左營,2025-12-10,22.67491,120.28491,0.9997259
C0UA70,桃源谷,2025-12-10,24.962606,121.888875,1.8043312e-07
C0X130,官田,2025-12-10,23.193217,120.315422,0.48559085
C1H000,翠峰,2025-12-10,24.109397,121.205211,2.2476447e-08
C0UA90,石城,2025-12-10,24.980444,121.951214,0.96170706
C1E681,南勢山,2025-12-10,24.421669,120.923831,1.6558559e-08
C0A9F0,內湖,2025-12-10,25.079422,121.57545,0.99947006
C0K291,宜梧,2025-12-10,23.536281,120.169329,0.9508943
C1K540,口湖,2025-12-10,23.585344,120.180517,0.9502878
C0R780,滿州,2025-12-10,22.024403,120.839892,0.15569702
C0V870,文安,2025-12-10,22.8025,120.2164,0.999754
C0U650,玉蘭,2025-12-10,24.675286,121.587061,3.4095183e-07
C0R640,東港,2025-12-10,22.46247,120.44074,0.9990225
C0AJ80,板橋,2025-12-10,25.0107,121.4489,0.99948126
C0S660,下馬,2025-12-10,23.150427,121.070312,6.7447445e-08
C1H9B1,阿眉,2025-12-10,24.1263,120.994672,1.5769036e-08
C0UA20,多加屯,2025-12-10,24.368614,121.373189,2.634367e-08
C0E730,頭份,2025-12-10,24.688247,120.912206,0.9892133
72V140,高改旗南分場,2025-12-10,22.857861,120.516667,4.738515e-05
C0K480,莿桐,2025-12-10,23.761192,120.502372,4.799033e-08
C0U980,坪林石牌,2025-12-10,24.86478,121.77396,1.4166048e-07
C0T900,西林,2025-12-10,23.8119,121.441458,1.1277759e-06
C1I150,青雲,2025-12-10,23.793361,120.949378,3.5612318e-09
C2E980,和興,2025-12-10,24.505319,120.923016,1.9337111e-07
467350,澎湖,2025-12-10,23.565503,119.563094,0.9395113
C0G800,埔鹽,2025-12-10,24.000394,120.431683,0.40057802
C0H960,草屯,2025-12-10,23.973672,120.68085,0.9977239
C1V780,多納林道,2025-12-10,22.888028,120.737917,9.551643e-09
C0E920,通霄漁港,2025-12-10,24.498589,120.673876,0.9994294
C0Z330,安通山,2025-12-10,23.290728,121.348528,8.557421e-06
C0AH10,永和,2025-12-10,25.01125,121.508111,0.9994681
C0AK10,太平里,2025-12-10,25.134937,121.364899,0.9994693
C2G640,鹿港,2025-12-10,24.0753,120.430481,0.5862998
C1E890,國三N149K,2025-12-10,24.463414,120.680019,0.96543133
C1R110,口社,2025-12-10,22.770111,120.645222,1.4073632e-07
C1M870,國三N285K,2025-12-10,23.550319,120.505833,7.583115e-09
C1E480,鳳美,2025-12-10,24.554803,121.034747,3.620798e-07
C0M530,奮起湖,2025-12-10,23.493903,120.699253,4.9580593e-09
C0C590,觀音,2025-12-10,25.027072,121.153317,0.9991215
C0T9M0,靜浦,2025-12-10,23.455167,121.495028,8.077251e-06
C2H9M0,發祥,2025-12-10,24.154094,121.164517,9.249721e-09
C0AI40,石牌,2025-12-10,25.115597,121.513139,0.99947006
C1F871,上谷關,2025-12-10,24.203483,121.018644,5.949852e-09
C2H9G0,百勝,2025-12-10,24.051142,120.909361,9.817398e-07
C0G880,二水,2025-12-10,23.810742,120.6173,1.48409285e-08
C0R940,加祿堂,2025-12-10,22.3363,120.6217,0.998908
C0W220,北竿,2025-12-10,26.220358,119.974881,6.771359e-09
C0O960,崎頂,2025-12-10,22.959547,120.369317,0.008037832
C0TA40,秀林,2025-12-10,24.302864,121.731144,6.618996e-08
C0S750,向陽,2025-12-10,23.248397,120.986133,1.8512758e-08
C0T9F0,水璉,2025-12-10,23.797131,121.542514,3.827364e-07
C1M600,頭凍,2025-12-10,23.406364,120.603339,4.138041e-09
467660,臺東,2025-12-10,22.752211,121.154586,0.99555975
C1D380,新埔,2025-12-10,24.84745,121.03834,0.9768782
C2G980,田頭村,2025-12-10,23.8263,120.444175,1.1895414e-07
C0V750,路竹,2025-12-10,22.854997,120.259439,0.99970365
C0N050,蚵寮,2025-12-10,23.301,120.1104,0.7968448
C2X060,下營,2025-12-10,23.226806,120.256291,0.7922435
72M700,南改鹿草分場,2025-12-10,23.416869,120.283061,0.92925286
C1SA50,利嘉林道,2025-12-10,22.82325,121.009389,9.324828e-09
C0UB70,太平山中間站,2025-12-10,24.542003,121.513453,4.7831413e-08
C0A940,金山,2025-12-10,25.223628,121.643967,0.9995127
C1V340,大津,2025-12-10,22.888322,120.645986,3.9919698e-08
C0W180,七美,2025-12-10,23.219333,119.444892,0.95757693
C1F9C1,白冷,2025-12-10,24.182844,120.929889,5.793831e-08
K2E710,苗改生物防治研究中心,2025-12-10,24.422861,120.871833,0.14203389
C0N040,蘆竹溝,2025-12-10,23.2344,120.0961,0.7989401
C0TB40,崇德,2025-12-10,24.166144,121.657414,0.004441164
C0D760,大坪苗圃,2025-12-10,24.5362,121.1108,9.2915045e-09
C2W230,畜試所澎湖,2025-12-10,23.628342,119.513206,0.95916635
C0R880,後壁湖,2025-12-10,21.9457,120.7457,0.29242888
C1I280,埔中,2025-12-10,23.820778,120.642594,3.8871595e-09
467790,墾丁雷達站,2025-12-10,21.948235,120.808028,0.13709399
C0W190,望安,2025-12-10,23.380564,119.494075,0.96139634
C0Z170,卓溪,2025-12-10,23.3443,121.3029,0.02776136
C0F850,東勢,2025-12-10,24.246428,120.833047,1.7993796e-05
466900,淡水,2025-12-10,25.164889,121.448906,0.99947006
C0I370,魚池,2025-12-10,23.895703,120.94135,1.8016113e-09
C0C630,大溪,2025-12-10,24.882853,121.265547,0.9974036
C0A520,山佳,2025-12-10,24.974944,121.402008,0.9995047
C0I110,竹山,2025-12-10,23.761225,120.688156,4.1751522e-09
82H840,茶改南部分場,2025-12-10,23.762528,120.7405,1.8703206e-08
C0G660,溪湖,2025-12-10,23.94835,120.479122,0.19372423
C1T800,洛韶,2025-12-10,24.204558,121.453956,2.3380903e-08
C1T810,慈恩,2025-12-10,24.192044,121.388386,1.7761014e-08
C1E451,象鼻,2025-12-10,24.368617,120.940228,1.63947e-08
C0AC60,三峽,2025-12-10,24.939025,121.369728,0.9991698
C0I490,萬大林道,2025-12-10,23.928228,121.091411,7.818249e-09
C1I290,豐丘,2025-12-10,23.668178,120.887417,4.49595e-09
C1I320,奧萬大,2025-12-10,23.952956,121.178556,9.353364e-09
C2M910,嘉義大學,2025-12-10,23.471325,120.485903,2.4932316e-08
C0U770,南澳,2025-12-10,24.44935,121.81022,0.0053041163
C2TB30,吉安,2025-12-10,23.94538,121.54803,7.7118175e-06
C0A980,社子,2025-12-10,25.109508,121.469681,0.9994374
C0V800,六龜,2025-12-10,22.997889,120.633583,1.36957246e-08
C1G9D0,國一S218K,2025-12-10,23.890641,120.493253,0.1364966
C0E570,白沙屯,2025-12-10,24.549447,120.696803,0.9994311
C2F9A0,中竹林,2025-12-10,24.103556,120.751061,1.5407508e-08
C0FA40,臺中電廠,2025-12-10,24.2146,120.4907,0.99940085
C2G9A0,畜試所彰化,2025-12-10,23.86045,120.557964,4.7331724e-08
C0H9C0,合歡山,2025-12-10,24.143442,121.272547,3.991193e-08
G2M350,農試溪口農場,2025-12-10,23.58565,120.408111,0.839656
C0U860,頭城,2025-12-10,24.85323,121.8308,0.9703618
C0R580,南州,2025-12-10,22.48591,120.50274,0.9990225
C0D430,峨眉,2025-12-10,24.6905,121.017189,0.97541124
C0G780,秀水,2025-12-10,24.03405,120.503869,0.3675266
72N100,臺南農改場,2025-12-10,23.0605,120.342194,0.6913156
C0S900,蘭嶼高中,2025-12-10,22.04909,121.51214,0.9737999
C2TA60,六十石,2025-12-10,23.22477,121.31861,4.6887845e-08
C1F9W0,德基,2025-12-10,24.254783,121.190261,1.3030148e-08
C2M980,安和,2025-12-10,23.51377,120.31593,0.84733385
C1Z120,壽豐,2025-12-10,23.870853,121.508081,1.8903196e-05
C0W160,烏坵,2025-12-10,24.9944,119.44956,0.9981605
C1I240,外大坪,2025-12-10,23.958697,120.917931,1.7226018e-09
C1I550,國六W023K,2025-12-10,23.979067,120.867742,3.552523e-08
C0R870,興海,2025-12-10,21.9752,120.8439,0.21047184
C0R140,瑪家,2025-12-10,22.682903,120.686639,2.5409372e-08
C0A530,坪林,2025-12-10,24.938183,121.70975,0.004972762
C0X260,後壁,2025-12-10,23.366358,120.362326,0.3247135
C0Z230,和平,2025-12-10,24.30717,121.77007,0.004878144
C0G770,福興,2025-12-10,24.041289,120.437669,0.5534039
C0H9A0,神木村,2025-12-10,23.532742,120.843667,1.7111773e-08
C0I460,南投,2025-12-10,23.911469,120.687331,0.9979783
C0I480,梅峰,2025-12-10,24.085272,121.173572,1.8552171e-08
C1V570,吉東,2025-12-10,22.85422,120.5454,9.540196e-06
C2A560,福山,2025-12-10,24.776203,121.502811,2.5081712e-05
C0AH30,五分山,2025-12-10,25.07125,121.780794,6.6665976e-08
C0FA10,松柏,2025-12-10,24.429115,120.617482,0.9994294
72S200,東改班鳩分場,2025-12-10,22.829528,121.077694,0.0020595873
72HA00,中改埔里分場,2025-12-10,23.903208,120.963364,1.8548375e-09
C2H9W0,大坪頂農水,2025-12-10,24.043122,120.932781,1.723236e-09
C0C650,平鎮,2025-12-10,24.897503,121.214636,0.996912
C0S930,延平,2025-12-10,22.902581,121.084058,0.003015818
C0UA60,樟樹山,2025-12-10,24.41393,121.78325,1.5135032e-07
C2UC10,出水溪,2025-12-10,24.615822,121.652253,1.5135032e-07
C1S670,摩天,2025-12-10,23.199503,121.027,2.384687e-08
C0V630,茄萣,2025-12-10,22.906642,120.182608,0.97802114
466940,基隆,2025-12-10,25.133314,121.740475,0.99944556
C0X050,東河,2025-12-10,23.296598,120.385608,0.7163388
C0R770,保力,2025-12-10,22.071122,120.764111,0.119376816
G2L020,農試嘉義分所,2025-12-10,23.485028,120.473806,1.9257126e-08
C0X240,關子嶺,2025-12-10,23.331169,120.508025,6.361855e-09
C0I380,集集,2025-12-10,23.828206,120.801467,3.587972e-09
466990,花蓮,2025-12-10,23.975128,121.613275,3.2227632e-05
C1V220,小關山,2025-12-10,23.154217,120.813603,1.778315e-08
C1F9G1,慶福山,2025-12-10,24.180853,120.848378,3.8303725e-08
C0FB20,雪山橋,2025-12-10,24.23192,120.9786,1.7695719e-08
C0Z250,瑞穗林道,2025-12-10,23.49284,121.30688,6.7081e-09
C0D590,新豐,2025-12-10,24.87068,120.97721,0.9182058
C0A870,五指山,2025-12-10,25.132153,121.608692,4.6608758e-07
C0UA50,西帽山,2025-12-10,24.555361,121.802628,5.8547073e-08
C2R980,竹田國中,2025-12-10,22.61532,120.52412,0.9986593
C0X160,仁德,2025-12-10,22.968258,120.257689,0.9555198
C1H971,六分寮,2025-12-10,23.92507,120.6378,1.1247932e-08
C0W120,西嶼,2025-12-10,23.5626,119.468436,0.9392699
C0G650,員林,2025-12-10,23.946503,120.585597,0.12776871
C0AD50,鶯歌,2025-12-10,24.951533,121.346294,0.99912375
C2H9Q0,北東眼山,2025-12-10,24.120939,121.189303,1.5942383e-08
C2H9T0,名間竹圍,2025-12-10,23.859914,120.637572,2.2958773e-09
C0S990,山豬窟,2025-12-10,22.318619,120.857372,0.00013571657
C0X190,安平,2025-12-10,22.993161,120.152181,0.97756857
C0K400,斗六,2025-12-10,23.720583,120.541127,4.0233864e-08
12J990,口湖工作站,2025-12-10,23.589978,120.180394,0.9487635
C0O830,北寮,2025-12-10,23.079561,120.495008,1.3014716e-07
C1D410,白蘭,2025-12-10,24.579364,121.079947,9.160355e-09
C0S970,加津林,2025-12-10,22.416211,120.926942,0.99813926
C0D700,關西,2025-12-10,24.7977,121.1732,0.9984679
C0M810,里佳,2025-12-10,23.389125,120.716647,4.954571e-09
C0U750,龜山島,2025-12-10,24.841667,121.953133,1.1812725e-06
C0R810,內獅,2025-12-10,22.305064,120.642986,0.9989115
C1M390,龍美,2025-12-10,23.406728,120.654417,4.2229256e-09
C2K290,崙內,2025-12-10,23.69525,120.35601,0.7824951
C2FB60,頭櫃山,2025-12-10,24.129842,120.858925,5.527223e-09
C1H840,國三N238K,2025-12-10,23.841008,120.707711,3.3497074e-09
CAQ030,崎峰國小,2025-12-10,22.42565,120.49521,0.9990225
C2E520,大湖,2025-12-10,24.414939,120.870872,0.00078842253
467530,阿里山,2025-12-10,23.508208,120.813242,1.9773296e-08
C1E691,南湖,2025-12-10,24.40135,120.837533,3.215859e-08
C0FA30,梧棲,2025-12-10,24.256003,120.523381,0.9993979
C1V231,高中,2025-12-10,23.134911,120.716711,2.1729012e-09
C0AK30,硬漢嶺,2025-12-10,25.136097,121.426372,1.2202075e-06
C0F9V0,新社,2025-12-10,24.200172,120.815806,2.7328718e-07
C0H890,埔里,2025-12-10,23.972169,120.952425,2.778615e-06
C0R690,墾丁,2025-12-10,21.966756,120.810269,0.6139266
C0SD20,富山,2025-12-10,22.822383,121.190825,0.9970436
C0F0D0,審馬陣,2025-12-10,24.381675,121.4203,4.8187623e-08
C2W030,金門農試所,2025-12-10,24.448431,118.451786,0.9998271
C0R820,白鷺,2025-12-10,22.454275,120.666219,1.183767e-06
C0FB00,大雪山,2025-12-10,24.254668,121.007374,1.9575984e-08
C1V190,南天池,2025-12-10,23.27403,120.91176,2.0510916e-08
C0E940,雪見,2025-12-10,24.42595,121.01347,1.7831004e-08
K2E360,苗栗農改場,2025-12-10,24.495722,120.829111,0.8588738
CAJ050,海口故事園區,2025-12-10,23.57543,120.14121,0.94931006
C2K280,四湖,2025-12-10,23.6304,120.22717,0.8296114
C2H9D0,三隻寮,2025-12-10,24.093078,120.861578,1.709953e-09
C0O990,媽廟,2025-12-10,22.99175,120.293525,0.91891736
C0D480,打鐵坑,2025-12-10,24.849664,121.150789,0.4210602
C0Z220,和平林道,2025-12-10,24.343922,121.656317,1.3956534e-07
C0TA10,花蓮漁港,2025-12-10,23.995322,121.638331,3.8342256e-05
72C440,桃園農改場,2025-12-10,24.950944,121.030583,0.9991933
C1E711,馬拉邦山,2025-12-10,24.367306,120.901656,6.038905e-09
C0SB20,富岡,2025-12-10,22.792467,121.192669,0.99294555
C0D560,竹東,2025-12-10,24.767147,121.057881,0.9405104
C0F9U0,南屯,2025-12-10,24.137006,120.637969,0.008421228
C0M720,番路,2025-12-10,23.464657,120.554156,6.157507e-09
C0F0A0,雪山圈谷,2025-12-10,24.388594,121.236339,4.901289e-08
C1A9N0,四十份,2025-12-10,24.934158,121.593283,1.4864711e-05
C0U760,東澳,2025-12-10,24.52196,121.83318,0.003246737
C0X230,鹽水,2025-12-10,23.272621,120.247641,0.63565254
C2H9H0,苗改南投蜂場,2025-12-10,23.852589,120.693481,4.279196e-09
C0R950,萬隆國小,2025-12-10,22.507667,120.587817,0.99790704
467540,大武,2025-12-10,22.35572,120.90374,0.99860287
C0V370,古亭坑,2025-12-10,22.893178,120.401947,0.9993239
C1I340,新興橋,2025-12-10,23.563333,120.868728,1.8607338e-09
C0SA80,土坂,2025-12-10,22.453108,120.887572,0.94492227
C0R160,鹽埔,2025-12-10,22.739558,120.530778,4.8567636e-05
C0AC40,大屯山,2025-12-10,25.175675,121.522408,7.3831366e-08
466850,五分山雷達站,2025-12-10,25.071182,121.781205,6.52119e-08
C2H9L0,馬烈霸,2025-12-10,24.1512,121.201772,1.3296346e-08
C1AI50,國三N016K,2025-12-10,25.034164,121.619664,0.99953
C1V600,藤枝,2025-12-10,23.071961,120.757042,2.3620755e-08
C1E601,南勢,2025-12-10,24.572486,120.734842,0.8578776
C0O980,新市,2025-12-10,23.061614,120.298197,0.9555198
C0K420,西螺,2025-12-10,23.800407,120.467394,7.0583404e-08
C0Z050,佳心,2025-12-10,23.34567,121.21316,5.6065193e-08
C0AD30,蘆洲,2025-12-10,25.086594,121.472331,0.9994629
C0V610,梓官,2025-12-10,22.760558,120.267211,0.99973184
K2F750,種苗改良場,2025-12-10,24.225972,120.800917,1.1628388e-06
C0UA80,大溪漁港,2025-12-10,24.941801,121.902955,0.96585727
C1AI60,國一39K邊坡,2025-12-10,25.064361,121.383836,0.13501094
C0W150,金寧,2025-12-10,24.457703,118.328989,0.999825
C0R960,內埔,2025-12-10,22.608483,120.570714,0.9984956
V2C250,八德合作社,2025-12-10,24.93775,121.266389,0.9984891
C2H9S0,龍南,2025-12-10,23.953536,120.833183,5.959654e-09
C0AH40,平等,2025-12-10,25.129142,121.577086,1.9522477e-05
C0R540,佳冬,2025-12-10,22.419456,120.552375,0.9989215
466950,彭佳嶼,2025-12-10,25.627975,122.079744,0.78193533
C0A890,雙溪,2025-12-10,25.036003,121.864242,0.9995385
C0C480,桃園,2025-12-10,24.992425,121.323172,0.9989717
C0AH50,林口,2025-12-10,25.072181,121.38084,0.018100439
A2K360,水試臺西試驗場,2025-12-10,23.717231,120.190522,0.87804896
C2M960,外寮,2025-12-10,23.562643,120.665688,4.115294e-09
C0F9S0,烏日,2025-12-10,24.107058,120.624103,0.057991568
C0C490,八德,2025-12-10,24.928708,121.283289,0.9984678
C0R190,赤山,2025-12-10,22.592333,120.614306,0.9981964
C0T820,天祥,2025-12-10,24.179597,121.495639,2.2836655e-07
C1F9E1,龍安,2025-12-10,24.1605,120.831961,1.6185125e-07
C0V820,小林,2025-12-10,23.148408,120.63325,4.564173e-09
C2G870,芳苑,2025-12-10,23.922303,120.320025,0.8300797
C0E850,大河,2025-12-10,24.618069,120.948578,0.9474452
C1U670,寒溪,2025-12-10,24.634,121.71691,0.8270278
C0N020,城西,2025-12-10,23.0568,120.0956,0.7922436
C1Z110,三棧,2025-12-10,24.11557,121.60501,1.1995482e-07
C0R280,檳榔,2025-12-10,22.076078,120.836777,0.46649995
C2H9J0,中台,2025-12-10,23.9996,120.938739,2.3552227e-09
C0F9L0,后里,2025-12-10,24.310436,120.729725,4.0641447e-05
467441,高雄,2025-12-10,22.730432,120.312516,0.9997259
C0Z180,新城,2025-12-10,24.040486,121.604878,2.3055334e-05
C0D540,橫山,2025-12-10,24.71116,121.11693,0.5943757
C1D420,太閣南,2025-12-10,24.632808,121.160575,2.3532392e-08
C1E770,公館,2025-12-10,24.526914,120.830806,0.9536355
CAN130,水試所海水繁養殖中心,2025-12-10,23.120802,120.07968,0.80220526
C1I430,翠華,2025-12-10,24.191961,121.224339,2.1861592e-08
C1M400,菜瓜坪,2025-12-10,23.251928,120.576103,5.0478315e-09
C0G730,二林,2025-12-10,23.903325,120.376081,0.3675266
72M360,南改義竹分場,2025-12-10,23.360694,120.279361,0.592172
V2K620,麥寮合作社,2025-12-10,23.753836,120.294783,0.8220368
C0Z070,舞鶴,2025-12-10,23.46811,121.37407,5.5505257e-07
C0B040,大武崙,2025-12-10,25.166676,121.706993,0.9995127
C1Z030,紅葉,2025-12-10,23.493119,121.338806,9.86883e-07
C1I050,丹大,2025-12-10,23.753747,121.141147,2.1238993e-08
C0I080,信義,2025-12-10,23.689694,120.851036,2.446943e-09
C0D750,樂山林道6k,2025-12-10,24.49999,121.08773,2.1434662e-08
C2M920,朴子農改,2025-12-10,23.469889,120.259383,0.94536686
C2A880,福隆,2025-12-10,25.017842,121.942083,0.96585727
C0Z160,鳳林,2025-12-10,23.746114,121.453411,4.3193813e-06
C0UB80,翠峰林道6K,2025-12-10,24.49773,121.568625,1.708288e-08
C0V210,復興,2025-12-10,23.222403,120.806089,2.176456e-09
C0H990,昆陽,2025-12-10,24.121322,121.273642,3.358147e-08
C0R741,獅子,2025-12-10,22.202308,120.705236,0.9967739
C0S710,鹿野,2025-12-10,22.917711,121.122994,6.131746e-05
C0I530,小奇萊,2025-12-10,24.131764,121.295717,3.4784527e-08
C0FA70,大雪山埡口,2025-12-10,24.26867,121.03062,2.45766e-08
C2K630,荷苞,2025-12-10,23.657717,120.595144,4.1751442e-09
C0Z080,富源,2025-12-10,23.587642,121.378225,2.5534095e-07
C0SB10,美和,2025-12-10,22.682078,121.060236,0.9968864
C2K620,馬光農場,2025-12-10,23.721453,120.378864,1.3524262e-07
C1I140,卡奈托灣,2025-12-10,23.754364,121.087872,1.1113837e-08
C0I520,玉山風口,2025-12-10,23.470489,120.955994,4.700981e-08
C1G691,下水埔,2025-12-10,23.816114,120.5676,2.9405925e-08
C0X110,臺南市南區,2025-12-10,22.961189,120.188378,0.9760597
C0V680,仁武,2025-12-10,22.701083,120.347722,0.9997141
C2G840,北斗,2025-12-10,23.877586,120.514222,0.10915304
C0R900,竹坑,2025-12-10,22.1385,120.7022,0.998908
C0G860,社頭,2025-12-10,23.897647,120.5862,0.04839443
C0X150,安定,2025-12-10,23.102614,120.227839,0.97802114
C0R590,里港,2025-12-10,22.77919,120.49459,4.962644e-05
C0E610,馬都安,2025-12-10,24.451272,120.930192,2.4873323e-08
C0E550,明德,2025-12-10,24.583486,120.885411,0.9615638
C0R150,三地門,2025-12-10,22.709889,120.639944,2.354351e-07
C0G910,花壇,2025-12-10,24.032076,120.549461,0.13703121
C1D400,鳥嘴山,2025-12-10,24.71909,121.28387,2.3315483e-08
C0K500,元長,2025-12-10,23.64981,120.315024,0.8009297
C0F0B0,石岡,2025-12-10,24.276061,120.777644,7.870091e-07
C2V250,甲仙,2025-12-10,23.080106,120.591758,1.0335277e-08
C0SA20,金崙山,2025-12-10,22.567419,120.959667,2.5578797e-06
C0V350,溪埔,2025-12-10,22.738578,120.446797,0.000115239665
C0M660,溪口,2025-12-10,23.604131,120.403569,0.83917683
C1S880,壽卡,2025-12-10,22.238911,120.858903,9.254246e-06
72D680,桃改新埔分場,2025-12-10,24.834444,121.066111,0.9784992
