站號,站名,日期,lat,lon,BlastGRU-TW
C0K280,四湖,2025-11-28,23.630414,120.227125,0.71251005
CAH030,茶改場竹圍站,2025-11-28,23.860083,120.637528,0.34105176
V2K610,大庄合作社,2025-11-28,23.8068,120.367939,0.30544752
G2AI50,關渡,2025-11-28,25.11575,121.492,0.46523818
V2C260,八德蔬果,2025-11-28,24.978508,121.281819,0.7054121
A2K570,古坑花卉中心,2025-11-28,23.63353,120.55239,0.09011659
467571,新竹,2025-11-28,24.827853,121.014219,0.41819808
C0E430,南庄,2025-11-28,24.601775,121.000214,0.882861
C0E420,竹南,2025-11-28,24.708978,120.888897,0.32368684
C0M530,奮起湖,2025-11-28,23.493903,120.699253,0.03437609
C0C590,觀音,2025-11-28,25.027072,121.153317,0.45217887
C0X060,下營,2025-11-28,23.22695,120.256261,0.69862854
C2D740,屯原,2025-11-28,24.067969,121.209389,0.0013800059
C0M810,里佳,2025-11-28,23.389125,120.716647,0.024937354
V2C250,八德合作社,2025-11-28,24.93775,121.266389,0.54483736
C0K250,崙背,2025-11-28,23.75555,120.318925,0.45176536
