站號,站名,日期,lat,lon,BlastGRU-TW
12J990,口湖工作站,2025-02-14,23.589978,120.180394,0.00090004184
12Q970,東港工作站,2025-02-14,22.479997,120.466058,0.010055706
12Q980,恆春工作站,2025-02-14,22.079678,120.714425,0.00010893212
466881,新北,2025-02-14,24.9593,121.52,0.00082176283
466900,淡水,2025-02-14,25.164889,121.448906,0.0010093594
466920,臺北,2025-02-14,25.037658,121.514853,0.0016110385
466940,基隆,2025-02-14,25.133314,121.740475,0.0024966625
466990,花蓮,2025-02-14,23.975128,121.613275,0.0011962669
467050,新屋,2025-02-14,25.006744,121.047486,0.00045067593
467080,宜蘭,2025-02-14,24.763975,121.756528,0.001146307
467270,田中,2025-02-14,23.873803,120.581286,0.0029200632
467280,後龍,2025-02-14,24.648563,120.831834,0.0007651436
467290,古坑,2025-02-14,23.633639,120.551889,0.0020252352
467300,東吉島,2025-02-14,23.25695,119.667467,0.00080957386
467350,澎湖,2025-02-14,23.565503,119.563094,0.0007606858
467410,臺南,2025-02-14,22.993239,120.204772,0.0014324064
467420,永康,2025-02-14,23.038386,120.2367,0.002441384
467441,高雄,2025-02-14,22.7304,120.3125,0.002820787
467480,嘉義,2025-02-14,23.495925,120.432906,0.0021911436
467490,臺中,2025-02-14,24.145736,120.684075,0.0025282823
467540,大武,2025-02-14,22.355675,120.903789,0.014264243
467571,新竹,2025-02-14,24.827853,121.014219,0.0005656592
467590,恆春,2025-02-14,22.003897,120.746339,0.00027971878
467610,成功,2025-02-14,23.097486,121.373428,0.0025884348
467620,蘭嶼,2025-02-14,22.036969,121.558339,0.00096804195
467660,臺東,2025-02-14,22.752211,121.154586,0.0019801136
467790,墾丁雷達站,2025-02-14,21.948235,120.808028,0.000117572046
72AI40,桃改樹林分場,2025-02-14,24.944503,121.386972,0.0007030633
72C440,桃園農改,2025-02-14,24.950944,121.030583,0.00047921043
72C440,桃園農改場,2025-02-14,24.950944,121.030583,0.00047921043
72D680,桃改新埔分場,2025-02-14,24.834444,121.066111,0.00067610573
72G600,臺中農改,2025-02-14,24.003028,120.534389,0.00071962184
72G600,臺中農改場,2025-02-14,24.003028,120.534389,0.00071962184
72K220,南改斗南分場,2025-02-14,23.634556,120.477333,0.0033423842
72M360,南改義竹分場,2025-02-14,23.360694,120.279361,0.0011972324
72M700,南改鹿草分場,2025-02-14,23.416869,120.283061,0.0013187678
72N100,臺南農改,2025-02-14,23.0605,120.342194,0.004982983
72N100,臺南農改場,2025-02-14,23.0605,120.342194,0.004982983
72N240,七股研究中心,2025-02-14,23.081672,120.062894,0.0008463967
72Q010,高雄農改,2025-02-14,22.709333,120.525889,0.0057108058
72Q010,高雄農改場,2025-02-14,22.709333,120.525889,0.0057108058
72S200,東改班鳩分場,2025-02-14,22.829528,121.077694,0.001294262
72S590,東改賓朗果園,2025-02-14,22.813889,121.071278,0.0011654944
72T250,花蓮農改,2025-02-14,23.975222,121.563889,0.001099255
72T250,花蓮農改場,2025-02-14,23.975222,121.563889,0.001099255
72U480,花改蘭陽分場,2025-02-14,24.686306,121.716583,0.0015885457
72V140,高改旗南分場,2025-02-14,22.857861,120.516667,0.027483555
82A750,茶改北部分場,2025-02-14,24.955778,121.631222,0.0009198631
82C160,茶改場,2025-02-14,24.908472,121.185333,0.0005686466
82H840,茶改南部分場,2025-02-14,23.762528,120.7405,0.0029037516
82S580,茶改東部分場,2025-02-14,22.907694,121.130139,0.0013077317
A2C560,農工中心,2025-02-14,24.985917,121.239833,0.00059839664
A2K360,水試臺西試驗場,2025-02-14,23.717231,120.190522,0.0008704955
A2K570,古坑花卉中心,2025-02-14,23.63353,120.55239,0.0020252352
A2K630,臺大雲林校區,2025-02-14,23.730628,120.423903,0.0012861461
A2N290,臺南蘭花園區,2025-02-14,23.340258,120.379661,0.0022749712
B2E890,畜試北區分所,2025-02-14,24.527806,120.770972,0.0007447536
B2N890,畜產試驗所,2025-02-14,23.058972,120.336406,0.005102391
B2N890,畜試所,2025-02-14,23.058972,120.336406,0.005102391
B2Q810,畜試南區分所,2025-02-14,21.945583,120.802167,9.361137e-05
B2U990,畜試東區分所,2025-02-14,24.669039,121.832561,0.0030151815
C0A520,山佳,2025-02-14,24.974944,121.402008,0.001011778
C0A530,坪林,2025-02-14,24.938183,121.70975,0.0011162987
C0A550,泰平,2025-02-14,24.971197,121.823711,0.0012371606
C0A570,桶後,2025-02-14,24.848222,121.597992,0.0014595463
C0A640,石碇,2025-02-14,24.993969,121.662917,0.00039164058
C0A770,科教館,2025-02-14,25.096356,121.516507,0.0014791004
C0A860,大坪,2025-02-14,25.165914,121.632969,0.00054397964
C0A890,雙溪,2025-02-14,25.036003,121.864242,0.0023061926
C0A931,三和,2025-02-14,25.233153,121.595236,0.0017457871
C0A940,金山,2025-02-14,25.223628,121.643967,0.0030736763
C0A950,鼻頭角,2025-02-14,25.129036,121.923372,0.0009536994
C0A970,三貂角,2025-02-14,25.007606,122.002058,0.0034320464
C0A980,社子,2025-02-14,25.109508,121.469681,0.0010622219
C0A9C0,天母,2025-02-14,25.117494,121.537169,0.0016520111
C0A9F0,內湖,2025-02-14,25.079422,121.57545,0.0016110385
C0AC60,三峽,2025-02-14,24.939025,121.369728,0.0006803773
C0AC70,信義,2025-02-14,25.037822,121.564597,0.0016110385
C0AC80,文山,2025-02-14,25.00235,121.575728,0.0007543467
C0ACA0,新莊,2025-02-14,25.051478,121.446756,0.0016403963
C0AD10,八里,2025-02-14,25.150211,121.403947,0.0012751119
C0AD30,蘆洲,2025-02-14,25.086594,121.472331,0.0014478901
C0AD40,土城,2025-02-14,24.973208,121.445169,0.0008648315
C0AD50,鶯歌,2025-02-14,24.951533,121.346294,0.00063991314
C0AG80,中和,2025-02-14,24.991622,121.491792,0.0008648315
C0AH00,汐止,2025-02-14,25.066881,121.658778,0.0016110385
C0AH10,永和,2025-02-14,25.01125,121.508111,0.0008915628
C0AH40,平等,2025-02-14,25.129142,121.577086,0.0004925524
C0AH50,林口,2025-02-14,25.072181,121.38084,0.00038165413
C0AH70,松山,2025-02-14,25.04871,121.55042,0.0016110385
C0AH80,深坑,2025-02-14,25.002703,121.628328,0.0007688189
C0AI00,五股,2025-02-14,25.07445,121.42728,0.0008984165
C0AI10,屈尺,2025-02-14,24.92184,121.54475,0.0014322556
C0AI20,白沙灣,2025-02-14,25.283128,121.519058,0.0015103993
C0AI30,三重,2025-02-14,25.057328,121.500629,0.0016703003
C0AI40,石牌,2025-02-14,25.115597,121.513139,0.0017103432
C0AJ20,野柳,2025-02-14,25.20703,121.690021,0.0034155191
C0AJ30,淡水觀海,2025-02-14,25.184591,121.408616,0.0016279063
C0AJ40,石門,2025-02-14,25.273672,121.601198,0.0010594649
C0AJ50,水湳洞,2025-02-14,25.123695,121.862238,0.0029310014
C0AJ60,六塊厝,2025-02-14,25.24,121.4481,0.0016492584
C0AJ70,田寮,2025-02-14,25.2698,121.4886,0.0015684509
C0AJ80,板橋,2025-02-14,25.0107,121.4489,0.0008915628
C0AJ90,澳底,2025-02-14,25.0552,121.9253,0.00287193
C0B010,七堵,2025-02-14,25.094819,121.71713,0.0012105025
C0B020,基隆嶼,2025-02-14,25.19141,121.78391,0.00066947896
C0B040,大武崙,2025-02-14,25.166676,121.706993,0.0021399835
C0B050,八斗子,2025-02-14,25.144754,121.79167,0.0025980007
C0B060,暖暖,2025-02-14,25.0957,121.7403,0.0010112537
C0C460,復興,2025-02-14,24.820208,121.352281,0.00064176985
C0C480,桃園,2025-02-14,24.992425,121.323172,0.0006158994
C0C490,八德,2025-02-14,24.928708,121.283289,0.000563141
C0C590,觀音,2025-02-14,25.027072,121.153317,0.00050373323
C0C620,蘆竹,2025-02-14,25.084275,121.265767,0.00058810663
C0C630,大溪,2025-02-14,24.882853,121.265547,0.00051738316
C0C650,平鎮,2025-02-14,24.897503,121.214636,0.00051615445
C0C660,楊梅,2025-02-14,24.912375,121.143047,0.00061305164
C0C670,龍潭,2025-02-14,24.870056,121.221389,0.00048747944
C0C680,龜山,2025-02-14,25.02846,121.38656,0.0005477627
C0C700,中壢,2025-02-14,24.977661,121.256375,0.00060600176
C0C710,大溪永福,2025-02-14,24.892936,121.324975,0.0006513691
C0C720,竹圍,2025-02-14,25.112692,121.239824,0.00065569946
C0C730,中大臨海站,2025-02-14,24.966126,121.008581,0.0004562074
C0C740,觀音工業區,2025-02-14,25.064764,121.114856,0.00043435674
C0C750,新興坑尾,2025-02-14,25.0061,121.0971,0.00052762503
C0D430,峨眉,2025-02-14,24.6905,121.017189,0.00052171905
C0D480,打鐵坑,2025-02-14,24.849664,121.150789,0.00048630388
C0D540,橫山,2025-02-14,24.71116,121.11693,0.0006059634
C0D560,竹東,2025-02-14,24.767147,121.057881,0.00045010363
C0D580,寶山,2025-02-14,24.735006,121.025192,0.00046117906
C0D590,新豐,2025-02-14,24.87068,120.97721,0.0005674974
C0D650,湖口,2025-02-14,24.904794,121.043628,0.0005040858
C0D660,新竹市東區,2025-02-14,24.798681,120.986942,0.00051870086
C0D670,海天一線,2025-02-14,24.831986,120.914438,0.00057839125
C0D680,香山濕地,2025-02-14,24.783581,120.914988,0.00054634025
C0D690,外湖,2025-02-14,24.917735,120.968711,0.0005521788
C0D700,關西,2025-02-14,24.7977,121.1732,0.00062522036
C0E420,竹南,2025-02-14,24.708978,120.888897,0.0005315688
C0E430,南庄,2025-02-14,24.601775,121.000214,0.00079245755
C0E550,明德,2025-02-14,24.583486,120.885411,0.00089724496
C0E590,通霄,2025-02-14,24.471892,120.704622,0.00078850257
C0E730,頭份,2025-02-14,24.688247,120.912206,0.0005353132
C0E740,造橋,2025-02-14,24.637056,120.864778,0.00078134413
C0E750,苗栗,2025-02-14,24.564569,120.824575,0.00092050125
C0E780,銅鑼,2025-02-14,24.489681,120.790853,0.0006872595
C0E791,卓蘭,2025-02-14,24.3126,120.8244,0.0009904518
C0E810,西湖,2025-02-14,24.562947,120.7485,0.00058507605
C0E820,獅潭,2025-02-14,24.539133,120.920042,0.0007804427
C0E830,苑裡,2025-02-14,24.439714,120.653053,0.0006854714
C0E850,大河,2025-02-14,24.618069,120.948578,0.00076765916
C0E870,高鐵苗栗,2025-02-14,24.60725,120.826094,0.0007743473
C0E910,海埔,2025-02-14,24.648767,120.772435,0.00046088613
C0E920,通霄漁港,2025-02-14,24.498589,120.673876,0.00072448014
C0E930,龍鳳,2025-02-14,24.700034,120.859125,0.0005456018
C0F0B0,石岡,2025-02-14,24.276061,120.777644,0.0013413453
C0F850,東勢,2025-02-14,24.246428,120.833047,0.0008872168
C0F970,大坑,2025-02-14,24.173142,120.722289,0.0035084444
C0F9I0,神岡,2025-02-14,24.272481,120.658314,0.00085924973
C0F9K0,大安,2025-02-14,24.345061,120.588025,0.0005680456
C0F9L0,后里,2025-02-14,24.310436,120.729725,0.0014582735
C0F9M0,豐原,2025-02-14,24.254322,120.720692,0.0015398272
C0F9N0,大里,2025-02-14,24.092464,120.701378,0.0028624458
C0F9O0,潭子,2025-02-14,24.213106,120.703933,0.0015861585
C0F9P0,清水,2025-02-14,24.312297,120.562242,0.0006487772
C0F9Q0,外埔,2025-02-14,24.347817,120.705686,0.0010121264
C0F9R0,龍井,2025-02-14,24.184536,120.528972,0.0010177227
C0F9S0,烏日,2025-02-14,24.107058,120.624103,0.0031377685
C0F9T0,西屯,2025-02-14,24.179494,120.641275,0.0017660982
C0F9U0,南屯,2025-02-14,24.137006,120.637969,0.0019331992
C0F9X0,大雅(中科園區),2025-02-14,24.21528,120.62445,0.00076633523
C0FA10,松柏,2025-02-14,24.429115,120.617482,0.00059443153
C0FA20,溫寮,2025-02-14,24.372177,120.583125,0.00057800504
C0FA30,梧棲,2025-02-14,24.256003,120.523381,0.0006487772
C0FA40,臺中電廠,2025-02-14,24.2146,120.4907,0.00060565415
C0FA50,霧峰,2025-02-14,24.0419,120.6995,0.0026686988
C0G620,芬園,2025-02-14,24.015678,120.6213,0.004063376
C0G650,員林,2025-02-14,23.946503,120.585597,0.0016475393
C0G660,溪湖,2025-02-14,23.94835,120.479122,0.0008808853
C0G720,溪州,2025-02-14,23.851589,120.499093,0.0026681456
C0G730,二林,2025-02-14,23.903325,120.376081,0.0008077253
C0G740,大城,2025-02-14,23.852487,120.320935,0.00095403293
C0G770,福興,2025-02-14,24.041289,120.437669,0.0007258049
C0G780,秀水,2025-02-14,24.03405,120.503869,0.0007271477
C0G800,埔鹽,2025-02-14,24.000394,120.431683,0.00072369457
C0G810,埔心,2025-02-14,23.947633,120.525456,0.000870622
C0G820,田尾,2025-02-14,23.901669,120.509389,0.0024547006
C0G830,埤頭,2025-02-14,23.866003,120.452806,0.002773283
C0G860,社頭,2025-02-14,23.897647,120.5862,0.0029899604
C0G880,二水,2025-02-14,23.810742,120.6173,0.002053895
C0G890,伸港,2025-02-14,24.148933,120.484403,0.0009732141
C0G900,線西,2025-02-14,24.143358,120.443536,0.0009796086
C0G910,花壇,2025-02-14,24.032076,120.549461,0.00071143784
C0G920,永靖,2025-02-14,23.924703,120.547533,0.0024547006
C0G940,竹塘,2025-02-14,23.848253,120.386764,0.00083284377
C0G950,防潮門,2025-02-14,24.1835,120.4871,0.0010177227
C0G960,福寶,2025-02-14,24.0443,120.3814,0.00068962504
C0G970,三豐,2025-02-14,23.882,120.2895,0.0008275656
C0H890,埔里,2025-02-14,23.972169,120.952425,0.004301587
C0H960,草屯,2025-02-14,23.973672,120.68085,0.0041505345
C0I110,竹山,2025-02-14,23.761225,120.688156,0.0013888287
C0I360,水里,2025-02-14,23.812553,120.849792,0.0027762293
C0I380,集集,2025-02-14,23.828206,120.801467,0.0028495465
C0I410,名間,2025-02-14,23.837053,120.701447,0.002355019
C0I420,國姓,2025-02-14,24.037803,120.855072,0.0038970083
C0I460,南投,2025-02-14,23.911469,120.687331,0.0026137214
C0K250,崙背,2025-02-14,23.75555,120.318925,0.0011170822
C0K280,四湖,2025-02-14,23.630414,120.227125,0.0011073586
C0K291,宜梧,2025-02-14,23.536281,120.169329,0.0010172912
C0K330,虎尾,2025-02-14,23.719183,120.442036,0.0019862934
C0K390,土庫,2025-02-14,23.679029,120.395574,0.0014762946
C0K400,斗六,2025-02-14,23.720583,120.541127,0.0024140852
C0K410,北港,2025-02-14,23.573957,120.292802,0.000962954
C0K420,西螺,2025-02-14,23.800407,120.467394,0.002186141
C0K430,褒忠,2025-02-14,23.690938,120.303634,0.00064703776
C0K440,二崙,2025-02-14,23.772797,120.408944,0.0014034089
C0K450,大埤,2025-02-14,23.646074,120.431537,0.0014362241
C0K460,斗南,2025-02-14,23.678734,120.478359,0.0033423842
C0K470,林內,2025-02-14,23.748675,120.609642,0.0021544306
C0K480,莿桐,2025-02-14,23.761192,120.502372,0.0023193108
C0K500,元長,2025-02-14,23.64981,120.315024,0.0011916318
C0K510,水林,2025-02-14,23.572924,120.24597,0.0009658613
C0K530,臺西,2025-02-14,23.701547,120.197559,0.0008646268
C0K550,蔦松,2025-02-14,23.514319,120.229736,0.0010172907
C0K560,棋山,2025-02-14,23.68645,120.603417,0.0019330916
C0K580,高鐵雲林,2025-02-14,23.737456,120.417944,0.0012861461
C0K590,雲林東勢,2025-02-14,23.674192,120.255721,0.00089033577
C0K600,箔子寮,2025-02-14,23.6197,120.14,0.00090004184
C0M520,東後寮,2025-02-14,23.369908,120.248065,0.0012096588
C0M640,中埔,2025-02-14,23.42538,120.5229,0.001522468
C0M650,朴子,2025-02-14,23.43463,120.23902,0.0013336939
C0M660,溪口,2025-02-14,23.604131,120.403569,0.0014469664
C0M670,大林,2025-02-14,23.600616,120.45841,0.0031268517
C0M680,太保,2025-02-14,23.455062,120.331455,0.0023607477
C0M690,水上,2025-02-14,23.419734,120.388909,0.0022144974
C0M700,竹崎,2025-02-14,23.526178,120.555508,0.0015987388
C0M710,東石,2025-02-14,23.458927,120.15385,0.0010729522
C0M720,番路,2025-02-14,23.464657,120.554156,0.0024595663
C0M730,嘉義市東區,2025-02-14,23.457673,120.460531,0.0021462638
C0M740,六腳,2025-02-14,23.492871,120.290625,0.0010543655
C0M750,布袋,2025-02-14,23.380878,120.167789,0.00093987444
C0M760,民雄,2025-02-14,23.551754,120.428457,0.002230317
C0M770,嘉義梅山,2025-02-14,23.585398,120.555587,0.0015999769
C0M780,鹿草,2025-02-14,23.41134,120.30835,0.0012956266
C0M790,新港,2025-02-14,23.553269,120.345728,0.0023974571
C0M800,茶山,2025-02-14,23.299075,120.664767,0.008375901
C0M880,好美里,2025-02-14,23.3364,120.138,0.00089538953
C0N010,鯤鯓國小,2025-02-14,23.1879,120.0889,0.00089887716
C0N020,城西,2025-02-14,23.0568,120.0956,0.0014989332
C0N030,四草,2025-02-14,23.0235,120.1116,0.001506833
C0N040,蘆竹溝,2025-02-14,23.2344,120.0961,0.000981783
C0N050,蚵寮,2025-02-14,23.301,120.1104,0.0010548161
C0O830,北寮,2025-02-14,23.079561,120.495008,0.0098477965
C0O840,王爺宮,2025-02-14,23.222064,120.40085,0.00217617
C0O860,大內,2025-02-14,23.11885,120.36083,0.009436267
C0O900,善化,2025-02-14,23.112883,120.297219,0.0032909238
C0O960,崎頂,2025-02-14,22.959547,120.369317,0.0033733456
C0O970,虎頭埤,2025-02-14,23.021375,120.347878,0.004356959
C0O980,新市,2025-02-14,23.061614,120.298197,0.0022985206
C0O990,媽廟,2025-02-14,22.99175,120.293525,0.0023323626
C0R150,三地門,2025-02-14,22.709889,120.639944,0.014167736
C0R160,鹽埔,2025-02-14,22.739558,120.530778,0.0057108058
C0R170,屏東,2025-02-14,22.660269,120.494072,0.008310401
C0R190,赤山,2025-02-14,22.592333,120.614306,0.011481812
C0R220,潮州,2025-02-14,22.534361,120.54,0.012824173
C0R240,來義,2025-02-14,22.527306,120.625111,0.0046657254
C0R260,春日,2025-02-14,22.370361,120.628306,0.019357478
C0R270,琉球嶼,2025-02-14,22.332244,120.362236,0.013234244
C0R280,檳榔,2025-02-14,22.076078,120.836777,0.00039957272
C0R320,車城,2025-02-14,22.0744,120.716247,0.00010893212
C0R341,牡丹,2025-02-14,22.130036,120.792639,0.00037116138
C0R350,貓鼻頭,2025-02-14,21.921774,120.7358,2.7694097e-05
C0R470,高樹,2025-02-14,22.826389,120.600806,0.0048587406
C0R480,長治,2025-02-14,22.693128,120.542622,0.0059959264
C0R490,九如,2025-02-14,22.7405,120.490503,0.0060514566
C0R520,崁頂,2025-02-14,22.514781,120.506914,0.0138982935
C0R540,佳冬,2025-02-14,22.419456,120.552375,0.0348386
C0R550,新埤,2025-02-14,22.467947,120.582894,0.0051020714
C0R560,新園,2025-02-14,22.5434,120.461558,0.011281019
C0R570,麟洛,2025-02-14,22.65078,120.52719,0.008310401
C0R580,南州,2025-02-14,22.48591,120.50274,0.010055715
C0R590,里港,2025-02-14,22.77919,120.49459,0.01546979
C0R620,墾雷,2025-02-14,21.900836,120.855269,1.4386496e-05
C0R640,東港,2025-02-14,22.46247,120.44074,0.010055706
C0R650,竹田,2025-02-14,22.58486,120.54344,0.009839477
C0R660,枋寮,2025-02-14,22.367722,120.590647,0.036401335
C0R670,楓港,2025-02-14,22.190131,120.692156,0.0041041174
C0R680,佳樂水,2025-02-14,21.993578,120.861633,9.530889e-05
C0R690,墾丁,2025-02-14,21.966756,120.810269,0.0022677989
C0R700,枋山,2025-02-14,22.246844,120.661086,0.000444642
C0R710,龍磐,2025-02-14,21.931672,120.838942,4.8065504e-05
C0R720,旭海,2025-02-14,22.205403,120.887614,0.0015275266
C0R730,大坪頂,2025-02-14,22.024633,120.69355,0.00028378106
C0R741,獅子,2025-02-14,22.202308,120.705236,0.0073480383
C0R760,南仁湖,2025-02-14,22.084681,120.863353,0.0015127973
C0R770,保力,2025-02-14,22.071122,120.764111,0.00016630768
C0R780,滿州,2025-02-14,22.024403,120.839892,0.00030626205
C0R790,九棚,2025-02-14,22.14195,120.889281,0.001700338
C0R800,丹路,2025-02-14,22.204481,120.750989,0.00037451685
C0R810,內獅,2025-02-14,22.305064,120.642986,0.0008163674
C0R830,高士,2025-02-14,22.121825,120.836781,0.0011661031
C0R850,林邊,2025-02-14,22.4634,120.5339,0.00940216
C0R860,鼻頭,2025-02-14,22.1043,120.8979,0.000265656
C0R870,興海,2025-02-14,21.9752,120.8439,9.361137e-05
C0R880,後壁湖,2025-02-14,21.9457,120.7457,7.0747934e-05
C0R890,山海,2025-02-14,21.9878,120.7091,7.150883e-05
C0R900,竹坑,2025-02-14,22.1385,120.7022,0.00010959572
C0R910,下寮,2025-02-14,22.3929,120.5548,0.036401335
C0R920,塭仔,2025-02-14,22.4169,120.5197,0.038361244
C0R930,萬丹,2025-02-14,22.5885,120.4851,0.008549276
C0R940,加祿堂,2025-02-14,22.3363,120.6217,0.019346049
C0S710,鹿野,2025-02-14,22.917711,121.122994,0.0012761586
C0S730,綠島,2025-02-14,22.6672,121.47533,0.0011046734
C0S740,池上,2025-02-14,23.119628,121.209469,0.0013885723
C0S770,大溪山,2025-02-14,22.478475,120.943325,0.0024350616
C0S790,金崙,2025-02-14,22.538122,120.966875,0.004154239
C0S810,東河,2025-02-14,22.972672,121.303986,0.0016158044
C0S830,長濱,2025-02-14,23.286817,121.411975,0.0021330826
C0S840,南田,2025-02-14,22.279725,120.889208,0.0067742122
C0S890,關山,2025-02-14,23.0395,121.175017,0.001721527
C0S900,蘭嶼高中,2025-02-14,22.04909,121.51214,0.0022398396
C0S910,蘭嶼燈塔,2025-02-14,22.081197,121.503117,0.0014214071
C0S920,金峰嘉蘭,2025-02-14,22.594789,120.960825,0.006537109
C0S930,延平,2025-02-14,22.902581,121.084058,0.0011925437
C0S940,石寧山,2025-02-14,23.223772,121.406639,0.0035617966
C0S950,七塊厝,2025-02-14,22.954453,121.229922,0.0010688682
C0S960,香蘭,2025-02-14,22.587569,120.993375,0.011047721
C0S970,加津林,2025-02-14,22.416211,120.926942,0.011489001
C0S990,山豬窟,2025-02-14,22.318619,120.857372,0.0015457424
C0SA00,歷坵,2025-02-14,22.520969,120.89185,0.0021614714
C0SA10,檳榔四格山,2025-02-14,22.810031,121.109308,0.0014806866
C0SA30,都歷,2025-02-14,23.020333,121.323642,0.002550153
C0SA40,瑞和,2025-02-14,22.974361,121.156697,0.0016540698
C0SA60,知本（水試所）,2025-02-14,22.702394,121.082761,0.013817355
C0SA80,土坂,2025-02-14,22.453108,120.887572,0.0079979645
C0SA90,達仁林場,2025-02-14,22.264347,120.823972,0.00081617647
C0T870,鯉魚潭,2025-02-14,23.935639,121.508944,0.0010020288
C0T900,西林,2025-02-14,23.8119,121.441458,0.0013362629
C0T960,光復,2025-02-14,23.660694,121.424964,0.0019598252
C0T9A0,月眉山,2025-02-14,23.809928,121.539828,0.0007124186
C0T9D0,和中,2025-02-14,24.26676,121.74103,0.0006445239
C0T9E0,大坑,2025-02-14,23.880628,121.581981,0.00075595116
C0T9F0,水璉,2025-02-14,23.797131,121.542514,0.0011145762
C0T9I0,豐濱,2025-02-14,23.583897,121.514806,0.0023744095
C0T9M0,靜浦,2025-02-14,23.455167,121.495028,0.003280804
C0T9N0,富里,2025-02-14,23.171639,121.249378,0.0019001785
C0U600,礁溪,2025-02-14,24.817539,121.765608,0.001707053
C0U650,玉蘭,2025-02-14,24.675286,121.587061,0.0012516713
C0U750,龜山島,2025-02-14,24.841667,121.953133,0.0007364033
C0U760,東澳,2025-02-14,24.52196,121.83318,0.0023497762
C0U770,南澳,2025-02-14,24.44935,121.81022,0.001300494
C0U780,五結,2025-02-14,24.68637,121.79794,0.0017177213
C0U860,頭城,2025-02-14,24.85323,121.8308,0.0017821268
C0U870,大礁溪,2025-02-14,24.791042,121.675047,0.0011406053
C0U880,北關,2025-02-14,24.9072,121.8734,0.0030348909
C0U890,三星,2025-02-14,24.66812,121.65302,0.0025331373
C0U900,內城,2025-02-14,24.71813,121.68766,0.0014882371
C0U910,冬山,2025-02-14,24.63373,121.7937,0.0030151815
C0U940,羅東,2025-02-14,24.68184,121.74934,0.0016405134
C0U970,大福,2025-02-14,24.80064,121.81389,0.0011749213
C0U990,員山,2025-02-14,24.74435,121.72247,0.0016654482
C0UA00,土場,2025-02-14,24.576533,121.495333,0.001970394
C0UA80,大溪漁港,2025-02-14,24.941801,121.902955,0.0031690341
C0UA90,石城,2025-02-14,24.980444,121.951214,0.005265296
C0UB00,淡江大學蘭陽校園,2025-02-14,24.823239,121.730383,0.0008435031
C0UB10,蘇澳,2025-02-14,24.5969,121.8571,0.006566821
C0UB20,壯圍,2025-02-14,24.7359,121.8163,0.0017596999
C0V310,美濃,2025-02-14,22.898742,120.519153,0.027483555
C0V350,溪埔,2025-02-14,22.738578,120.446797,0.008780761
C0V360,內門,2025-02-14,22.975481,120.466769,0.00908821
C0V370,古亭坑,2025-02-14,22.893178,120.401947,0.0050729467
C0V400,阿公店,2025-02-14,22.804194,120.355528,0.0040918747
C0V440,鳳山,2025-02-14,22.646653,120.356122,0.002789791
C0V450,鳳森,2025-02-14,22.545064,120.392592,0.003140005
C0V490,新興,2025-02-14,22.627422,120.298803,0.0021104065
C0V530,阿蓮,2025-02-14,22.883208,120.327508,0.0039444384
C0V610,梓官,2025-02-14,22.760558,120.267211,0.0018600038
C0V620,永安,2025-02-14,22.82315,120.236856,0.0015018679
C0V630,茄萣,2025-02-14,22.906642,120.182608,0.0013421323
C0V640,湖內,2025-02-14,22.887139,120.2445,0.0019318756
C0V650,彌陀,2025-02-14,22.783806,120.246361,0.0015801657
C0V660,岡山,2025-02-14,22.797078,120.294958,0.0015801657
C0V680,仁武,2025-02-14,22.701083,120.347722,0.0024575116
C0V690,鼓山,2025-02-14,22.623325,120.275575,0.0021104065
C0V700,三民,2025-02-14,22.645017,120.311233,0.0015633375
C0V710,苓雅,2025-02-14,22.622742,120.330669,0.004298718
C0V720,林園,2025-02-14,22.507747,120.394511,0.0065667746
C0V730,大寮,2025-02-14,22.605614,120.395717,0.0040876525
C0V740,旗山,2025-02-14,22.888614,120.483597,0.025850363
C0V750,路竹,2025-02-14,22.854997,120.259439,0.0018907837
C0V760,橋頭,2025-02-14,22.757806,120.30575,0.0018600065
C0V770,大社,2025-02-14,22.730306,120.346639,0.002820787
C0V790,萬山,2025-02-14,22.905944,120.688056,0.006073393
C0V800,六龜,2025-02-14,22.997889,120.633583,0.013596812
C0V810,左營,2025-02-14,22.67491,120.28491,0.0015633383
C0V820,小林,2025-02-14,23.148408,120.63325,0.0041669426
C0V840,鳳鼻頭,2025-02-14,22.5083,120.3591,0.01214395
C0V850,蚵仔寮,2025-02-14,22.7256,120.2527,0.0019429484
C0V860,南寮,2025-02-14,22.7616,120.2339,0.0019429484
C0V870,文安,2025-02-14,22.8025,120.2164,0.0016190362
C0V880,興達,2025-02-14,22.8778,120.2127,0.0019749703
C0V890,前鎮,2025-02-14,22.5718,120.3117,0.0021582546
C0V900,汕尾,2025-02-14,22.4782,120.4151,0.010055706
C0W200,湖西,2025-02-14,23.596314,119.67275,0.0007548937
C0X050,東河,2025-02-14,23.296598,120.385608,0.002935838
C0X060,下營,2025-02-14,23.22695,120.256261,0.0022803263
C0X080,佳里,2025-02-14,23.173039,120.145086,0.00089887716
C0X100,臺南市北區,2025-02-14,23.010394,120.194228,0.0014827889
C0X110,臺南市南區,2025-02-14,22.961189,120.188378,0.0018533284
C0X120,麻豆,2025-02-14,23.183289,120.248611,0.0028046723
C0X130,官田,2025-02-14,23.193217,120.315422,0.0033722855
C0X140,西港,2025-02-14,23.125608,120.203108,0.002636996
C0X150,安定,2025-02-14,23.102614,120.227839,0.002636996
C0X160,仁德,2025-02-14,22.968258,120.257689,0.0018382636
C0X170,關廟,2025-02-14,22.963017,120.327797,0.004435643
C0X180,山上,2025-02-14,23.0757,120.363253,0.0060137175
C0X190,安平,2025-02-14,22.993161,120.152181,0.0014827896
C0X200,左鎮,2025-02-14,23.056758,120.408522,0.0045090024
C0X210,白河,2025-02-14,23.347466,120.414427,0.0017208632
C0X220,學甲,2025-02-14,23.230367,120.182187,0.0009792839
C0X230,鹽水,2025-02-14,23.272621,120.247641,0.0015760186
C0X240,關子嶺,2025-02-14,23.331169,120.508025,0.002110691
C0X250,新營,2025-02-14,23.310689,120.316681,0.0031863102
C0X260,後壁,2025-02-14,23.366358,120.362326,0.0022749712
C0X280,將軍,2025-02-14,23.214999,120.13577,0.0009817821
C0X290,北門,2025-02-14,23.267772,120.125481,0.000981783
C0X300,鹿寮,2025-02-14,23.386047,120.477331,0.0020112952
C0X320,柳營,2025-02-14,23.253328,120.375253,0.0031957366
C0Z020,明里,2025-02-14,23.208717,121.262342,0.0026682105
C0Z061,玉里,2025-02-14,23.3215,121.339656,0.002408962
C0Z070,舞鶴,2025-02-14,23.46811,121.37407,0.0020687042
C0Z080,富源,2025-02-14,23.587642,121.378225,0.0021923701
C0Z100,東華,2025-02-14,23.89525,121.549833,0.0011719246
C0Z150,吉安光華,2025-02-14,23.930925,121.595153,0.0013295441
C0Z160,鳳林,2025-02-14,23.746114,121.453411,0.0022121577
C0Z170,卓溪,2025-02-14,23.3443,121.3029,0.0022800928
C0Z180,新城,2025-02-14,24.03946,121.60454,0.0011601229
C0Z190,富世,2025-02-14,24.14743,121.6297,0.00086382055
C0Z200,萬榮,2025-02-14,23.709219,121.420106,0.001966174
C0Z210,瑞穗,2025-02-14,23.5239,121.39021,0.002623399
C0Z230,和平,2025-02-14,24.30717,121.77007,0.00065245235
C0Z270,蕃薯寮,2025-02-14,23.73835,121.540108,0.0012950334
C0Z280,德武,2025-02-14,23.47426,121.41071,0.0020112044
C0Z300,東里,2025-02-14,23.26853,121.30547,0.0031621228
C0Z310,清水斷崖,2025-02-14,24.218294,121.689142,0.00041279223
C0Z330,安通山,2025-02-14,23.290728,121.348528,0.0016306692
C2A540,四堵,2025-02-14,24.8926,121.745736,0.00095904537
C2A560,福山,2025-02-14,24.776203,121.502811,0.005496719
C2A650,火燒寮,2025-02-14,25.002719,121.742892,0.0012287251
C2A660,瑞芳,2025-02-14,25.113169,121.801147,0.0020020562
C2A880,福隆,2025-02-14,25.017842,121.942083,0.0055791712
C2A920,富貴角,2025-02-14,25.263783,121.565258,0.0009459787
C2E520,大湖,2025-02-14,24.414939,120.870872,0.0011984177
C2E540,後龍,2025-02-14,24.606489,120.783933,0.00045765785
C2E540,龍溪,2025-02-14,24.606489,120.783933,0.00045765785
C2F000,大肚,2025-02-14,24.15295,120.572117,0.0014239304
C2F930,大甲,2025-02-14,24.347667,120.640403,0.00053888245
C2F9A0,中竹林,2025-02-14,24.103556,120.751061,0.0027184205
C2G640,鹿港,2025-02-14,24.0753,120.430481,0.00068962504
C2G840,北斗,2025-02-14,23.877586,120.514222,0.0027116525
C2G870,芳苑,2025-02-14,23.922303,120.320025,0.00096162426
C2H950,中寮,2025-02-14,23.884447,120.766406,0.004482476
C2M410,馬頭山,2025-02-14,23.324361,120.582017,0.002827883
C2N160,西拉雅風管處,2025-02-14,23.189481,120.335297,0.0033297276
C2O810,曾文,2025-02-14,23.219681,120.497328,0.0054624807
C2O930,玉井,2025-02-14,23.126042,120.46055,0.0060137175
C2O950,安南,2025-02-14,23.076694,120.144861,0.00083816587
C2V250,甲仙,2025-02-14,23.080106,120.591758,0.011184626
C2V260,月眉,2025-02-14,22.971003,120.539853,0.010568679
C2W230,畜試所澎湖,2025-02-14,23.628342,119.513206,0.00068699685
CAG100,王功漁港,2025-02-14,23.96824,120.32586,0.000959746
CAH030,茶改場竹圍站,2025-02-14,23.860083,120.637528,0.0032210755
CAJ050,海口故事園區,2025-02-14,23.57543,120.14121,0.00090212823
CAL110,布袋國中,2025-02-14,23.35893,120.18026,0.00093987444
CAN130,水試所海水繁養殖中心,2025-02-14,23.120802,120.07968,0.0008463967
CAN140,六官養殖協會,2025-02-14,23.22881,120.29962,0.0022803263
CAQ030,崎峰國小,2025-02-14,22.42565,120.49521,0.010055706
E2K600,四湖植物園,2025-02-14,23.676986,120.163433,0.0011073586
E2P980,林試六龜中心,2025-02-14,22.991703,120.645722,0.012252564
E2S960,林試太麻里2,2025-02-14,22.598014,120.989761,0.010675486
E2S960,林試太麻里2,2025-02-14,22.598,120.99775,0.011803689
E2S980,林試太麻里1,2025-02-14,22.598922,120.980044,0.006717276
G2AI50,關渡,2025-02-14,25.11575,121.492,0.001033913
G2F820,農業試驗所,2025-02-14,24.031261,120.688133,0.00275612
G2F820,農試所(霧峰),2025-02-14,24.031261,120.688133,0.00275612
G2L020,農試嘉義分所,2025-02-14,23.485028,120.473806,0.0018600206
G2M350,農試溪口農場,2025-02-14,23.58565,120.408111,0.0014469664
G2P820,農試鳳山分所,2025-02-14,22.646611,120.356083,0.002789791
K2E360,苗栗農改,2025-02-14,24.495722,120.829111,0.0010310222
K2E360,苗栗農改場,2025-02-14,24.495722,120.829111,0.0010310211
K2E710,苗改生物防治研究中心,2025-02-14,24.422861,120.871833,0.0012594339
K2F750,種苗改良場,2025-02-14,24.225972,120.800917,0.0006333644
K2F750,種苗繁殖,2025-02-14,24.225972,120.800917,0.0006333644
U2HA50,臺大竹山,2025-02-14,23.756972,120.681556,0.0040207435
V2C250,八德合作社,2025-02-14,24.93775,121.266389,0.00051315076
V2C260,八德蔬果,2025-02-14,24.978508,121.281819,0.00063195766
V2K610,大庄合作社,2025-02-14,23.8068,120.367939,0.0011014221
V2K620,麥寮合作社,2025-02-14,23.753836,120.294783,0.0006515358
