站號,站名,日期,lat,lon,BLBTSLS
C0R710,龍磐,2025-05-16,21.931672,120.838942,0.047145106
C1F9D1,白毛台,2025-05-16,24.158325,120.886933,7.724982e-09
C0G940,竹塘,2025-05-16,23.848253,120.386764,3.2838614e-08
467590,恆春,2025-05-16,22.003897,120.746339,0.0004700289
C1O850,環湖,2025-05-16,23.148617,120.418633,0.012299761
C0U710,太平山,2025-05-16,24.505486,121.525656,1.1513132e-08
C0E820,獅潭,2025-05-16,24.539133,120.920042,7.500903e-09
C0V880,興達,2025-05-16,22.8778,120.2127,2.480406e-08
C0S890,關山,2025-05-16,23.0395,121.175017,9.184131e-07
C0SB30,新蘭,2025-05-16,22.869214,121.223228,0.2990726
C2R970,屏科大,2025-05-16,22.648275,120.619247,1.3794787e-05
C1Z130,銅門,2025-05-16,23.965694,121.492842,3.060119e-08
C0AD40,土城,2025-05-16,24.973208,121.445169,7.240417e-08
CAN140,六官養殖協會,2025-05-16,23.22881,120.29962,1.6071406e-08
C0X180,山上,2025-05-16,23.0757,120.363253,0.0013643185
C0F9Z0,雪山東峰,2025-05-16,24.388792,121.268675,2.4790484e-08
C1M480,獨立山,2025-05-16,23.537022,120.607797,2.0237485e-09
C0X220,學甲,2025-05-16,23.230367,120.182187,4.4981046e-08
467650,日月潭,2025-05-16,23.881325,120.90805,7.540998e-09
C0K600,箔子寮,2025-05-16,23.6197,120.14,0.00039079456
C0G830,埤頭,2025-05-16,23.866003,120.452806,4.8380078e-09
C0S950,七塊厝,2025-05-16,22.954453,121.229922,6.274813e-08
467110,金門,2025-05-16,24.407306,118.289281,7.233684e-06
C0AH80,深坑,2025-05-16,25.002703,121.628328,4.429728e-08
C0A970,三貂角,2025-05-16,25.007606,122.002058,1.15263965e-07
C2D730,寶山農場,2025-05-16,24.732444,120.976153,1.7704462e-08
C0K430,褒忠,2025-05-16,23.690938,120.303634,2.5583859e-08
467480,嘉義,2025-05-16,23.495925,120.432906,5.5323595e-09
C0V400,阿公店,2025-05-16,22.804194,120.355528,4.977091e-06
467550,玉山,2025-05-16,23.48718,120.95943,1.7766807e-08
C0R440,大漢山,2025-05-16,22.405264,120.753181,2.442476e-09
C0K280,四湖,2025-05-16,23.630414,120.227125,1.4703006e-06
C1F9B1,桐林,2025-05-16,24.066172,120.735194,6.912898e-09
C2H9U0,鳳鵬,2025-05-16,23.763919,120.788061,5.5172062e-09
C0K390,土庫,2025-05-16,23.679029,120.395574,1.1008015e-08
C1I450,望鄉山,2025-05-16,23.594153,120.944286,7.1966992e-09
C0E910,海埔,2025-05-16,24.648767,120.772435,2.2953966e-08
B2E890,畜試北區分所,2025-05-16,24.527806,120.770972,5.8270757e-09
C0R750,四林格山,2025-05-16,22.076989,120.802439,8.338022e-09
C0F0C0,中坑,2025-05-16,24.248517,120.903319,8.428202e-09
C1I121,大鞍,2025-05-16,23.678381,120.760017,6.120027e-09
72U480,花改蘭陽分場,2025-05-16,24.686306,121.716583,4.7222702e-08
C0A770,科教館,2025-05-16,25.096356,121.516507,2.3100404e-07
C0AJ60,六塊厝,2025-05-16,25.24,121.4481,0.0018667288
C0R620,墾雷,2025-05-16,21.900836,120.855269,0.0019286567
467420,永康,2025-05-16,23.038386,120.2367,4.1128837e-07
C0I410,名間,2025-05-16,23.837053,120.701447,1.43708565e-08
A2C560,農工中心,2025-05-16,24.985917,121.239833,2.0423743e-08
C0V740,旗山,2025-05-16,22.888614,120.483597,6.2794825e-08
C0Z061,玉里,2025-05-16,23.3215,121.339656,1.9681636e-08
C0S840,南田,2025-05-16,22.279725,120.889208,8.932685e-05
C1I470,杉林溪,2025-05-16,23.639517,120.786444,6.5531944e-09
C1X040,東原,2025-05-16,23.291597,120.463822,1.1268046e-07
C0R660,枋寮,2025-05-16,22.367722,120.590647,0.0008130637
C1R120,上德文,2025-05-16,22.763272,120.704442,2.3328772e-09
C0K450,大埤,2025-05-16,23.646074,120.431537,1.1578625e-08
C0UA00,土場,2025-05-16,24.576533,121.495333,9.374532e-08
467080,宜蘭,2025-05-16,24.763975,121.756528,4.4003052e-08
C0N030,四草,2025-05-16,23.0235,120.1116,1.4279353e-08
467410,臺南,2025-05-16,22.99328,120.20492,1.0065174e-08
C0V650,彌陀,2025-05-16,22.783806,120.246361,1.8553727e-08
C0D660,新竹市東區,2025-05-16,24.798681,120.986942,5.0327692e-08
82S580,茶改東部分場,2025-05-16,22.907694,121.130139,6.983094e-05
C0SB40,興隆,2025-05-16,22.913661,121.257469,0.14299564
467050,新屋,2025-05-16,25.006725,121.047492,9.4841674e-08
C0C710,大溪永福,2025-05-16,24.892936,121.324975,9.449225e-09
C0FA20,溫寮,2025-05-16,24.372177,120.583125,0.10685122
C0V640,湖內,2025-05-16,22.887139,120.2445,2.0340703e-08
C0R910,下寮,2025-05-16,22.3929,120.5548,0.0008130637
C0Z020,明里,2025-05-16,23.208717,121.262342,2.1425913e-08
C0M770,嘉義梅山,2025-05-16,23.585398,120.555587,1.03304085e-08
C0C660,楊梅,2025-05-16,24.912375,121.143047,1.293173e-08
C1E511,新開,2025-05-16,24.347703,120.827019,4.484114e-09
G2F820,農試所(霧峰),2025-05-16,24.031261,120.688133,8.270784e-09
C1I070,和社,2025-05-16,23.591131,120.888861,1.0827724e-08
C2F000,大肚,2025-05-16,24.15295,120.572117,6.8106965e-09
C1S850,豐南,2025-05-16,23.122139,121.262389,1.1593388e-08
C2A920,富貴角,2025-05-16,25.263783,121.565258,1.5776744e-06
CAH030,茶改場竹圍站,2025-05-16,23.860083,120.637528,5.8468035e-09
C0T960,光復,2025-05-16,23.660694,121.424964,4.525565e-08
C0F9M0,豐原,2025-05-16,24.254322,120.720692,1.2876376e-08
C0R720,旭海,2025-05-16,22.205403,120.887614,0.00073542283
C0V710,苓雅,2025-05-16,22.622742,120.330669,6.794435e-07
C0C740,觀音工業區,2025-05-16,25.064764,121.114856,4.9257636e-05
CAC040,拉拉山,2025-05-16,24.699317,121.427133,1.773346e-08
C0V790,萬山,2025-05-16,22.905944,120.688056,7.828832e-08
U2HA30,臺大和社,2025-05-16,23.590856,120.888864,1.0827744e-08
C0AJ90,澳底,2025-05-16,25.0552,121.9253,0.00013805069
C0Z100,東華,2025-05-16,23.89525,121.549833,1.3930551e-07
C0G970,三豐,2025-05-16,23.882,120.2895,0.599982
V2K610,大庄合作社,2025-05-16,23.8068,120.367939,4.272266e-08
C0V900,汕尾,2025-05-16,22.4782,120.4151,5.7409584e-06
C1R630,龍泉,2025-05-16,22.66701,120.59091,5.250181e-05
C1AC50,關渡,2025-05-16,25.133486,121.469331,0.0001091588
C0F9I0,神岡,2025-05-16,24.272481,120.658314,5.7869913e-09
C0K460,斗南,2025-05-16,23.678734,120.478359,1.0636519e-08
C2O810,曾文,2025-05-16,23.219681,120.497328,1.4108655e-06
467280,後龍,2025-05-16,24.648563,120.831834,1.7989613e-08
C1F9J1,清水林,2025-05-16,24.071242,120.820419,9.636459e-09
C2A650,火燒寮,2025-05-16,25.002719,121.742892,3.2042806e-08
466930,竹子湖,2025-05-16,25.162078,121.544547,9.597078e-09
C1I220,樟湖,2025-05-16,23.905333,120.846983,5.835261e-09
C0I390,仁愛,2025-05-16,24.022122,121.132206,5.230455e-09
C0Z300,東里,2025-05-16,23.26853,121.30547,4.28857e-08
C1V590,新發,2025-05-16,23.057019,120.646064,1.6050024e-08
C0K510,水林,2025-05-16,23.572924,120.24597,2.074082e-08
72S590,東改賓朗果園,2025-05-16,22.813889,121.071278,3.7102984e-07
82A750,茶改北部分場,2025-05-16,24.955778,121.631222,3.9650462e-08
C1A750,石碇服務區,2025-05-16,25.00872,121.646242,3.1016495e-07
C0X300,鹿寮,2025-05-16,23.386047,120.477331,8.1848825e-08
G2AI50,關渡,2025-05-16,25.11575,121.492,0.0077386387
C0K590,雲林東勢,2025-05-16,23.674192,120.255721,2.4023958e-08
C0A570,桶後,2025-05-16,24.848222,121.597992,1.999436e-08
C1S800,華源,2025-05-16,22.657883,121.02325,0.04807656
C0G720,溪州,2025-05-16,23.851589,120.499093,4.525123e-09
C1V160,達卡努瓦,2025-05-16,23.279811,120.705319,9.413033e-09
C2M410,馬頭山,2025-05-16,23.324361,120.582017,3.947946e-08
C0V850,蚵仔寮,2025-05-16,22.7256,120.2527,9.0642175e-07
C0S740,池上,2025-05-16,23.119628,121.209469,0.002635929
C1V390,尖山,2025-05-16,22.813153,120.367789,1.5966705e-06
C0AH70,松山,2025-05-16,25.04871,121.55042,1.9170551e-07
C0N010,鯤鯓國小,2025-05-16,23.1879,120.0889,1.2844703e-07
C0R550,新埤,2025-05-16,22.467947,120.582894,3.449989e-06
C0SA60,知本（水試所）,2025-05-16,22.702394,121.082761,0.37537593
C0T9I0,豐濱,2025-05-16,23.583897,121.514806,1.7171311e-08
C0UB00,淡江大學蘭陽校園,2025-05-16,24.823239,121.730383,1.4996122e-08
C0W240,九宮,2025-05-16,24.423753,118.240186,1.0960501e-05
C0T9N0,富里,2025-05-16,23.171639,121.249378,9.4532095e-07
U2HA50,臺大竹山,2025-05-16,23.756972,120.681556,8.937786e-09
C0V840,鳳鼻頭,2025-05-16,22.5083,120.3591,4.0225774e-07
C0X140,西港,2025-05-16,23.125608,120.203108,2.647302e-08
72D080,桃改五峰分場,2025-05-16,24.612194,121.157167,6.2519927e-09
C2H9P0,伊拿谷,2025-05-16,23.963211,121.088264,6.181371e-09
C2H9F0,柑林,2025-05-16,24.018658,120.847072,2.2032802e-08
C0TA20,加灣,2025-05-16,24.082025,121.608944,2.1806782e-06
C0V530,阿蓮,2025-05-16,22.883208,120.327508,2.878236e-07
C1O880,關山,2025-05-16,23.173397,120.594092,5.6686595e-08
C0E791,卓蘭,2025-05-16,24.3126,120.8244,7.861569e-09
C1I030,武界,2025-05-16,23.913225,121.052483,6.044471e-09
C0R520,崁頂,2025-05-16,22.514781,120.506914,6.8161135e-05
C0R341,牡丹,2025-05-16,22.130036,120.792639,2.8205712e-05
C0R930,萬丹,2025-05-16,22.5885,120.4851,9.4302396e-07
C0S760,紅石,2025-05-16,23.069131,121.126219,9.212834e-09
C2C410,中央大學,2025-05-16,24.967652,121.185165,1.9296651e-08
C1M610,石磐龍,2025-05-16,23.496606,120.663506,4.3867026e-09
C0UA10,鴛鴦湖,2025-05-16,24.590269,121.412228,1.1656135e-08
V2C260,八德蔬果,2025-05-16,24.978508,121.281819,9.781865e-09
C0R800,丹路,2025-05-16,22.204481,120.750989,0.0014687588
C0G920,永靖,2025-05-16,23.924703,120.547533,5.952395e-09
C2M950,太和,2025-05-16,23.538372,120.702961,4.661505e-09
C1A630,下盆,2025-05-16,24.771003,121.538622,1.1019989e-08
B2N890,畜產試驗所,2025-05-16,23.058972,120.336406,1.9240407e-07
C0UA30,白嶺,2025-05-16,24.527819,121.519031,1.2228346e-08
C1V580,溪南(特生中心),2025-05-16,23.084972,120.788475,3.7063173e-09
C1T970,大農,2025-05-16,23.615233,121.413331,1.0301229e-08
C0R650,竹田,2025-05-16,22.58486,120.54344,4.823949e-05
C1H900,清流,2025-05-16,24.080775,120.962997,9.123911e-09
C1C510,水尾,2025-05-16,24.940081,121.087161,1.2571691e-08
C0F9X0,大雅(中科園區),2025-05-16,24.21528,120.62445,4.799836e-09
C0SB60,白守蓮,2025-05-16,23.126769,121.401914,0.9825287
C0O970,虎頭埤,2025-05-16,23.021375,120.347878,6.5484186e-05
C0C730,中大臨海站,2025-05-16,24.966126,121.008581,1.16742505e-07
C0X250,新營,2025-05-16,23.310689,120.316681,2.7276036e-08
C0V700,三民,2025-05-16,22.645017,120.311233,5.497293e-08
C0U870,大礁溪,2025-05-16,24.791042,121.675047,1.2688261e-08
C0E870,高鐵苗栗,2025-05-16,24.60725,120.826094,1.9628176e-08
A2K570,古坑花卉中心,2025-05-16,23.63353,120.55239,1.30662094e-08
C0TA30,鹽寮,2025-05-16,23.845606,121.592664,2.2365755e-07
C0M860,新美,2025-05-16,23.338017,120.683169,1.7471987e-08
C1E701,八卦,2025-05-16,24.491756,120.927619,3.0716605e-09
C0I420,國姓,2025-05-16,24.037803,120.855072,1.8782176e-08
C2D720,關西工作站,2025-05-16,24.757275,121.184792,3.4184353e-08
C0S960,香蘭,2025-05-16,22.587569,120.993375,0.0939462
467620,蘭嶼,2025-05-16,22.0369,121.55843,4.1660698e-08
C0R260,春日,2025-05-16,22.370361,120.628306,0.000897336
72G600,臺中農改場,2025-05-16,24.003028,120.534389,8.927375e-09
C0Z210,瑞穗,2025-05-16,23.5239,121.39021,2.538031e-08
C0M820,達邦,2025-05-16,23.453994,120.749517,5.91022e-09
C0V860,南寮,2025-05-16,22.7616,120.2339,9.063863e-07
C0G740,大城,2025-05-16,23.852487,120.320935,0.5951832
C0R920,塭仔,2025-05-16,22.4169,120.5197,0.00079848606
C0R470,高樹,2025-05-16,22.826389,120.600806,1.581451e-07
C0R680,佳樂水,2025-05-16,21.993578,120.861633,2.237546e-05
C1O870,大棟山,2025-05-16,23.31157,120.52226,8.640439e-09
C0D360,梅花,2025-05-16,24.678347,121.208558,1.1238861e-08
C0Z190,富世,2025-05-16,24.14743,121.6297,8.5540313e-07
C0AI10,屈尺,2025-05-16,24.92184,121.54475,7.98041e-08
B2U990,畜試東區分所,2025-05-16,24.669039,121.832561,2.1747182e-08
C0SB80,長濱漁港,2025-05-16,23.313644,121.459994,1.0378205e-07
C0R240,來義,2025-05-16,22.527306,120.625111,1.4947517e-05
C0V910,大樹,2025-05-16,22.684645,120.432803,4.832896e-07
C1R610,西大武山,2025-05-16,22.617719,120.7322,3.9625343e-09
C0G900,線西,2025-05-16,24.143358,120.443536,0.00427362
C0M700,竹崎,2025-05-16,23.526178,120.555508,1.0331354e-08
C2E880,三義,2025-05-16,24.405478,120.749819,3.6428203e-09
C0C720,竹圍,2025-05-16,25.112692,121.239824,0.0077386387
C0F9P0,清水,2025-05-16,24.312297,120.562242,0.117777854
C0Z150,吉安光華,2025-05-16,23.930925,121.595153,3.641013e-07
467300,東吉島,2025-05-16,23.25727,119.66762,0.07729189
C1D640,外坪(五指山),2025-05-16,24.644447,121.090961,8.669907e-09
C0F9O0,潭子,2025-05-16,24.213106,120.703933,1.9606102e-08
C2H9R0,卓社,2025-05-16,23.887894,121.000086,5.2225797e-09
72T250,花蓮農改場,2025-05-16,23.975222,121.563889,5.2710453e-05
C0E780,銅鑼,2025-05-16,24.489681,120.790853,4.14022e-09
C1T950,太安,2025-05-16,23.666719,121.370128,1.0469342e-07
C0E830,苑裡,2025-05-16,24.439714,120.653053,0.0017171107
467270,田中,2025-05-16,23.873803,120.581286,9.321503e-09
C0SA10,檳榔四格山,2025-05-16,22.810031,121.109308,5.6718065e-08
C1T830,布洛灣,2025-05-16,24.17184,121.57127,0.13225338
C0F970,大坑,2025-05-16,24.173142,120.722289,1.6893459e-08
C1U920,思源,2025-05-16,24.393125,121.347214,4.947696e-09
C0A931,三和,2025-05-16,25.233153,121.595236,3.385987e-07
C0I010,廬山,2025-05-16,24.033311,121.181808,5.446339e-09
C2M940,日野賀,2025-05-16,23.434056,120.727169,5.6416583e-09
C0R860,鼻頭,2025-05-16,22.1043,120.8979,0.006827288
C0UB20,壯圍,2025-05-16,24.7359,121.8163,5.9859616e-08
C0R790,九棚,2025-05-16,22.14195,120.889281,0.00023498185
C0W110,東莒,2025-05-16,25.9652,119.98069,1.015037e-07
C1U930,粉鳥林,2025-05-16,24.497088,121.842479,2.8303091e-08
C1I211,蘆竹湳,2025-05-16,23.934019,120.811994,7.3243083e-09
C0S830,長濱,2025-05-16,23.286817,121.411975,8.49458e-09
C1F9F1,伯公龍,2025-05-16,24.272392,120.849047,8.6989935e-09
C0E810,西湖,2025-05-16,24.562947,120.7485,3.2823277e-07
C1I440,新高口,2025-05-16,23.478744,120.878939,5.538462e-09
C0O840,王爺宮,2025-05-16,23.222064,120.40085,8.1350166e-08
C0T9G0,鳳林山,2025-05-16,23.735269,121.420131,8.80051e-09
C0X080,佳里,2025-05-16,23.173039,120.145086,1.2844703e-07
C0FB70,大甲溪埔,2025-05-16,24.370625,120.620067,0.071946226
C0Z310,清水斷崖,2025-05-16,24.218294,121.689142,5.504438e-08
C0M680,太保,2025-05-16,23.455062,120.331455,4.231682e-09
C1S820,金峰,2025-05-16,22.590969,120.933236,0.032880258
C0AD10,八里,2025-05-16,25.150211,121.403947,0.0077386387
C2K240,草嶺,2025-05-16,23.59555,120.693461,2.1598563e-09
C1SA70,都蘭,2025-05-16,22.87794,121.226881,0.14299564
C0K440,二崙,2025-05-16,23.772797,120.408944,7.365369e-09
C1A760,坪林交控,2025-05-16,24.94284,121.713442,5.0988387e-08
C0F9N0,大里,2025-05-16,24.092464,120.701378,9.890585e-09
C0SA90,達仁林場,2025-05-16,22.264347,120.823972,2.0261002e-07
C1R290,石門山,2025-05-16,22.112611,120.756597,4.393018e-07
42HA10,萬大發電廠,2025-05-16,23.978875,121.139639,8.551624e-09
C0R890,山海,2025-05-16,21.9878,120.7091,3.4256893e-05
C0T9A0,月眉山,2025-05-16,23.809928,121.539828,9.0522185e-09
C0AC70,信義,2025-05-16,25.037822,121.564597,1.9170551e-07
C0K560,棋山,2025-05-16,23.68645,120.603417,1.1835132e-08
C2FB50,出雲,2025-05-16,24.206469,120.902794,7.988052e-09
C1Z240,中平林道,2025-05-16,23.42115,121.26763,6.009848e-08
U2H480,溪頭,2025-05-16,23.670306,120.798194,4.6029545e-09
C0M880,好美里,2025-05-16,23.3364,120.138,3.157378e-08
C0T9E0,大坑,2025-05-16,23.880628,121.581981,9.778321e-09
C0K530,臺西,2025-05-16,23.701547,120.197559,2.0691903e-06
C1E900,國一N128K,2025-05-16,24.560997,120.844186,8.363251e-09
C0AJ50,水湳洞,2025-05-16,25.123695,121.862238,1.7318504e-06
C0AI20,白沙灣,2025-05-16,25.283128,121.519058,0.00111025
C2V310,美濃,2025-05-16,22.898792,120.51907,6.547775e-08
C0A860,大坪,2025-05-16,25.165914,121.632969,2.2312808e-08
C1U850,觀音海岸,2025-05-16,24.38319,121.77856,5.023675e-09
C2K610,草嶺石壁,2025-05-16,23.602469,120.707731,2.189363e-09
C0U950,鶯子嶺,2025-05-16,24.89754,121.79244,1.1791149e-08
C0O900,善化,2025-05-16,23.112883,120.297219,2.5766604e-07
C0K550,蔦松,2025-05-16,23.514319,120.229736,6.990267e-08
E2P980,林試六龜中心,2025-05-16,22.991703,120.645722,4.6212538e-08
C0E590,通霄,2025-05-16,24.471892,120.704622,9.480213e-07
C1I310,西巒,2025-05-16,23.754486,120.883956,8.099187e-09
C0A550,泰平,2025-05-16,24.971197,121.823711,2.4000189e-08
C0I360,水里,2025-05-16,23.812553,120.849792,6.971835e-09
C0R830,高士,2025-05-16,22.121825,120.836781,7.571873e-08
C1I101,溪頭,2025-05-16,23.661789,120.807647,6.4609553e-09
C0AJ20,野柳,2025-05-16,25.20703,121.690021,0.002095155
C0B060,暖暖,2025-05-16,25.0957,121.7403,3.7291738e-07
C1H920,長豐,2025-05-16,24.102039,120.879897,1.1811701e-08
C0V360,內門,2025-05-16,22.975481,120.466769,9.533535e-08
C0R850,林邊,2025-05-16,22.4634,120.5339,5.0539597e-06
C0E930,龍鳳,2025-05-16,24.700034,120.859125,9.52641e-08
C0U910,冬山,2025-05-16,24.63373,121.7937,2.1747182e-08
C1E721,泰安,2025-05-16,24.489017,120.968036,3.7747787e-09
82H320,茶改中部分場,2025-05-16,23.875611,120.913583,7.93678e-09
C0M750,布袋,2025-05-16,23.380878,120.167789,1.0797283e-08
C1S860,利嘉,2025-05-16,22.809417,121.050528,6.232434e-08
E2S980,林試太麻里1,2025-05-16,22.598922,120.980044,0.05402335
C0X170,關廟,2025-05-16,22.963017,120.327797,1.0275178e-06
C0V720,林園,2025-05-16,22.507747,120.394511,3.2918544e-07
C1I510,線浸林道,2025-05-16,23.761508,120.832956,7.1837944e-09
C0D690,外湖,2025-05-16,24.917735,120.968711,2.3139336e-08
C0C750,新興坑尾,2025-05-16,25.0061,121.0971,6.181527e-08
B2Q810,畜試南區分所,2025-05-16,21.945583,120.802167,2.4533956e-05
C0S790,金崙,2025-05-16,22.538122,120.966875,0.001410894
C0AH90,福山植物園,2025-05-16,24.760717,121.58135,2.1258852e-08
C0I540,奇萊稜線,2025-05-16,24.109231,121.326456,1.42117775e-08
C0M850,表湖,2025-05-16,23.24186,120.64166,1.5382403e-08
C0S770,大溪山,2025-05-16,22.478475,120.943325,2.9724136e-08
C0AG80,中和,2025-05-16,24.991622,121.491792,7.240417e-08
C0T790,大禹嶺,2025-05-16,24.186117,121.316086,1.0643561e-08
C0T9B0,水源,2025-05-16,23.991861,121.537169,1.0761263e-08
C0R840,牡丹池山,2025-05-16,22.168389,120.841225,4.0602944e-07
C1I131,桶頭,2025-05-16,23.641944,120.654117,4.8946167e-09
CAL110,布袋國中,2025-05-16,23.35893,120.18026,1.0797283e-08
467571,新竹,2025-05-16,24.827853,121.014219,3.7362007e-08
C0Z290,赤柯山,2025-05-16,23.36893,121.38293,3.2641406e-08
C0X280,將軍,2025-05-16,23.214999,120.13577,5.0899867e-08
C0S690,太麻里,2025-05-16,22.60902,120.98533,1.2593716e-07
C0U880,北關,2025-05-16,24.9072,121.8734,4.779881e-07
C0G810,埔心,2025-05-16,23.947633,120.525456,5.9517706e-09
C0U970,大福,2025-05-16,24.80064,121.81389,4.641465e-08
C2H9N0,仁愛東眼,2025-05-16,24.026875,121.1205,5.3098645e-09
C1E670,南礦,2025-05-16,24.538278,121.002836,3.1238907e-09
C0M520,東後寮,2025-05-16,23.369908,120.248065,9.200103e-09
C1E461,松安,2025-05-16,24.397972,120.986022,6.5415553e-09
C2N160,西拉雅風管處,2025-05-16,23.189481,120.335297,2.5223116e-07
C2M970,碧湖,2025-05-16,23.568632,120.624165,2.1578592e-09
C0A640,石碇,2025-05-16,24.993969,121.662917,3.5848e-08
E2S960,林試太麻里2,2025-05-16,22.598,120.99775,0.103048116
C0F9Y0,桃山,2025-05-16,24.432739,121.303808,2.4273184e-08
C1I020,萬大,2025-05-16,23.979817,121.132261,5.221036e-09
C0U940,羅東,2025-05-16,24.68184,121.74934,5.014755e-08
C0M650,朴子,2025-05-16,23.43463,120.23902,5.4174847e-09
C1I500,大尖山,2025-05-16,23.858572,120.994889,8.939763e-09
C0G820,田尾,2025-05-16,23.901669,120.509389,5.9517706e-09
E2K600,四湖植物園,2025-05-16,23.676986,120.163433,1.4703006e-06
C0S730,綠島,2025-05-16,22.6672,121.47533,4.3139506e-05
12Q970,東港工作站,2025-05-16,22.479997,120.466058,5.740619e-06
C0E430,南庄,2025-05-16,24.601775,121.000214,7.4409834e-09
C1TA00,太魯閣,2025-05-16,24.15773,121.6236,3.3700695e-07
466920,臺北,2025-05-16,25.037658,121.514853,1.9170551e-07
C0R600,舊泰武,2025-05-16,22.588194,120.664944,2.7496558e-09
C1I260,北坑,2025-05-16,23.9246,121.006903,6.8401054e-09
466910,鞍部,2025-05-16,25.182586,121.529731,1.0992111e-08
C1I230,九份二山,2025-05-16,23.961944,120.845,6.935362e-09
C2A660,瑞芳,2025-05-16,25.113169,121.801147,1.8709544e-07
C0R270,琉球嶼,2025-05-16,22.332244,120.362236,5.7733574e-05
C1T990,高寮,2025-05-16,23.394239,121.356808,4.0776747e-08
C0G620,芬園,2025-05-16,24.015678,120.6213,6.8442683e-09
C1Z140,荖溪,2025-05-16,23.890575,121.45964,4.173108e-08
C1I201,中心崙,2025-05-16,23.728722,120.712097,2.902853e-09
C1I400,凌霄,2025-05-16,24.018778,121.004456,5.2509765e-09
C1M640,十字,2025-05-16,23.492153,120.753683,6.3384307e-09
G2P820,農試鳳山分所,2025-05-16,22.646611,120.356083,4.249154e-08
C0Z270,蕃薯寮,2025-05-16,23.73835,121.540108,2.1564613e-08
C0F9Q0,外埔,2025-05-16,24.347817,120.705686,6.045797e-09
C0K580,高鐵雲林,2025-05-16,23.737456,120.417944,1.2614687e-08
C2I090,鳳凰,2025-05-16,23.728081,120.787347,5.3858344e-09
C0U990,員山,2025-05-16,24.74435,121.72247,5.593499e-08
C0V770,大社,2025-05-16,22.730306,120.346639,5.617555e-07
C0X120,麻豆,2025-05-16,23.183289,120.248611,1.8063192e-08
C0C670,龍潭,2025-05-16,24.870056,121.221389,4.366295e-08
C0D680,香山濕地,2025-05-16,24.783581,120.914988,8.9849976e-08
C0S980,勝林山,2025-05-16,22.430439,120.8938,7.2435213e-09
C0V730,大寮,2025-05-16,22.605614,120.395717,5.3323635e-07
C0R570,麟洛,2025-05-16,22.65078,120.52719,2.476375e-06
C2M930,石卓,2025-05-16,23.478744,120.702264,1.2070401e-08
C0G9B0,和美,2025-05-16,24.105169,120.492131,0.00021734227
CAG100,王功漁港,2025-05-16,23.96824,120.32586,0.38395274
C0X290,北門,2025-05-16,23.267772,120.125481,5.0899963e-08
C2F930,大甲,2025-05-16,24.347667,120.640403,0.012896067
C0D650,湖口,2025-05-16,24.904794,121.043628,1.3197655e-08
C0E420,竹南,2025-05-16,24.708978,120.888897,6.188936e-08
C0U780,五結,2025-05-16,24.68637,121.79794,5.9650816e-08
C1I250,鯉潭,2025-05-16,23.961922,120.991131,8.348875e-09
C0R130,阿禮,2025-05-16,22.742908,120.743678,1.479048e-09
C0X100,臺南市北區,2025-05-16,23.010394,120.194228,1.238687e-08
C0S920,金峰嘉蘭,2025-05-16,22.594789,120.960825,0.050454948
C0V490,新興,2025-05-16,22.627422,120.298803,6.794448e-07
C0F9K0,大安,2025-05-16,24.345061,120.588025,0.08460081
467290,古坑,2025-05-16,23.633639,120.551889,1.30662094e-08
C2E970,八甲,2025-05-16,24.535811,120.795983,4.7377586e-09
C0V440,鳳山,2025-05-16,22.646653,120.356122,4.249154e-08
C1T940,大觀,2025-05-16,23.714206,121.373133,1.0624779e-08
C0E740,造橋,2025-05-16,24.637056,120.864778,1.9628176e-08
C0R100,尾寮山,2025-05-16,22.833111,120.683889,2.1485242e-09
A2K630,臺大雲林校區,2025-05-16,23.730628,120.423903,1.2614687e-08
467990,馬祖,2025-05-16,26.169467,119.923158,4.4502475e-08
C0D580,寶山,2025-05-16,24.735006,121.025192,4.0724593e-08
E2P990,林試扇平站,2025-05-16,22.9677,120.6857,5.6338973e-08
C0AI30,三重,2025-05-16,25.057328,121.500629,2.3100404e-07
C0AH00,汐止,2025-05-16,25.066881,121.658778,1.9170551e-07
C1Z040,立山,2025-05-16,23.443356,121.327375,4.6156293e-07
466881,新北,2025-05-16,24.959207,121.525196,5.5993166e-08
C0W130,花嶼,2025-05-16,23.40007,119.32276,0.21393706
C0A950,鼻頭角,2025-05-16,25.129036,121.923372,0.9536993
C0K470,林內,2025-05-16,23.748675,120.609642,1.2928031e-08
C2F990,摩天嶺,2025-05-16,24.322458,120.936819,9.534751e-09
82C160,茶改場,2025-05-16,24.908472,121.185333,1.121013e-08
C0Z320,清水林道,2025-05-16,23.27125,121.188272,6.093171e-08
C0R760,南仁湖,2025-05-16,22.084681,120.863353,4.393018e-07
C0M670,大林,2025-05-16,23.600616,120.45841,6.62747e-09
C0M800,茶山,2025-05-16,23.299075,120.664767,3.5538648e-08
C0A9C0,天母,2025-05-16,25.117494,121.537169,0.0038473108
72K220,南改斗南分場,2025-05-16,23.634556,120.477333,1.0636519e-08
72AI40,桃改樹林分場,2025-05-16,24.944503,121.386972,1.80165e-08
C0S910,蘭嶼燈塔,2025-05-16,22.081197,121.503117,3.0219968e-07
C0B050,八斗子,2025-05-16,25.144754,121.79167,4.1873313e-06
C0U900,內城,2025-05-16,24.71813,121.68766,4.027717e-08
C0X320,柳營,2025-05-16,23.253328,120.375253,5.6911875e-07
C0M790,新港,2025-05-16,23.553269,120.345728,5.446692e-09
C0F9T0,西屯,2025-05-16,24.179494,120.641275,6.8247665e-09
C0SA30,都歷,2025-05-16,23.020333,121.323642,0.0046053603
C0C620,蘆竹,2025-05-16,25.084275,121.265767,0.0013442758
C0R730,大坪頂,2025-05-16,22.024633,120.69355,0.00075915066
C0AJ40,石門,2025-05-16,25.273672,121.601198,6.2486197e-06
C0E750,苗栗,2025-05-16,24.564569,120.824575,8.555377e-09
C0T870,鯉魚潭,2025-05-16,23.935639,121.508944,4.1974477e-08
C1V170,排雲,2025-05-16,23.463619,120.954147,1.3484164e-08
C2H950,中寮,2025-05-16,23.884447,120.766406,1.2729955e-08
C0R350,貓鼻頭,2025-05-16,21.921774,120.7358,0.06381164
C0V660,岡山,2025-05-16,22.797078,120.294958,1.8553727e-08
C1H941,雙冬,2025-05-16,23.967378,120.802189,6.705976e-09
C0AJ70,田寮,2025-05-16,25.2698,121.4886,0.0012756045
C0AI00,五股,2025-05-16,25.07445,121.42728,1.8400185e-07
C0Z280,德武,2025-05-16,23.47426,121.41071,1.0398749e-08
C0R700,枋山,2025-05-16,22.246844,120.661086,0.00046457583
C0C460,復興,2025-05-16,24.820208,121.352281,2.5412426e-08
E2H360,蓮華池,2025-05-16,23.918333,120.885278,6.2905205e-09
C0M640,中埔,2025-05-16,23.42538,120.5229,1.1900459e-08
C0W140,金沙,2025-05-16,24.488292,118.408778,0.00012451687
C2A540,四堵,2025-05-16,24.8926,121.745736,2.6168841e-08
C0ACA0,新莊,2025-05-16,25.051478,121.446756,2.965291e-07
C0R220,潮州,2025-05-16,22.534361,120.54,6.10694e-05
U2HA40,臺大內茅埔,2025-05-16,23.689722,120.851117,9.2506385e-09
467490,臺中,2025-05-16,24.145736,120.684075,2.6206154e-08
C0U960,翠峰湖,2025-05-16,24.510856,121.608044,1.44647405e-08
E2HA20,林試畢祿溪站,2025-05-16,24.226944,121.308522,1.5143717e-08
C0V890,前鎮,2025-05-16,22.5718,120.3117,8.19777e-07
C1F941,雪嶺,2025-05-16,24.280586,121.026642,2.4089756e-08
C2H9E0,國姓南港,2025-05-16,23.911108,120.846556,5.8411853e-09
C0AC80,文山,2025-05-16,25.00235,121.575728,4.4271435e-08
C0F9R0,龍井,2025-05-16,24.184536,120.528972,0.018065799
C0M760,民雄,2025-05-16,23.551754,120.428457,7.144168e-09
C0UA40,西德山,2025-05-16,24.560647,121.752608,1.1020746e-08
C1T920,中興,2025-05-16,23.769503,121.498653,1.6089861e-07
C0D550,雪霸,2025-05-16,24.526972,121.11605,5.98363e-09
C2F860,梨山,2025-05-16,24.247522,121.243669,1.5457696e-08
C0R320,車城,2025-05-16,22.0744,120.716247,0.008978965
C1S870,南美山,2025-05-16,23.15025,121.382333,1.1071089e-06
C0B020,基隆嶼,2025-05-16,25.19141,121.78391,0.91644704
C1U501,牛鬥,2025-05-16,24.637836,121.573656,3.5433196e-08
C0M730,嘉義市東區,2025-05-16,23.457673,120.460531,3.765533e-08
C0S700,知本,2025-05-16,22.684866,121.005642,1.5334527e-06
C1N001,沙崙,2025-05-16,22.935472,120.309406,1.3674904e-06
C0V760,橋頭,2025-05-16,22.757806,120.30575,6.0869917e-07
C0G960,福寶,2025-05-16,24.0443,120.3814,0.00040636232
C0X210,白河,2025-05-16,23.347466,120.414427,1.4061638e-07
C0S810,東河,2025-05-16,22.972672,121.303986,0.7238862
C2R170,屏東,2025-05-16,22.66027,120.49403,2.4756498e-06
C0R670,楓港,2025-05-16,22.190131,120.692156,0.003716424
C0FA50,霧峰,2025-05-16,24.0419,120.6995,7.878847e-09
C0UB10,蘇澳,2025-05-16,24.5969,121.8571,1.8199141e-07
C0G950,防潮門,2025-05-16,24.1835,120.4871,0.018054541
C0M740,六腳,2025-05-16,23.492871,120.290625,3.010951e-09
C1R250,力里,2025-05-16,22.428117,120.629228,0.00022866555
C0K330,虎尾,2025-05-16,23.719183,120.442036,1.0992384e-08
C2FA00,烏石坑,2025-05-16,24.273503,120.947617,9.633519e-09
C0V620,永安,2025-05-16,22.82315,120.236856,1.8553727e-08
C1I330,楓樹林,2025-05-16,23.986803,121.076117,5.072336e-09
C0W200,湖西,2025-05-16,23.596314,119.67275,0.45932785
72Q010,高雄農改場,2025-05-16,22.709333,120.525889,4.165832e-07
C0SA40,瑞和,2025-05-16,22.974361,121.156697,0.00013129482
C0C680,龜山,2025-05-16,25.02846,121.38656,6.348234e-08
C2V260,月眉,2025-05-16,22.971003,120.539853,5.374231e-07
C0V450,鳳森,2025-05-16,22.545064,120.392592,1.073478e-07
C0U720,南山,2025-05-16,24.43742,121.38167,8.526477e-09
A2N290,臺南蘭花園區,2025-05-16,23.340258,120.379661,7.592782e-09
C0R560,新園,2025-05-16,22.5434,120.461558,3.2918544e-07
C0U890,三星,2025-05-16,24.66812,121.65302,1.4291538e-07
C1V300,御油山,2025-05-16,23.001983,120.715364,3.7540713e-09
C0U600,礁溪,2025-05-16,24.817539,121.765608,6.5926635e-08
C1T980,龍澗,2025-05-16,24.023289,121.411328,3.470295e-08
C0D670,海天一線,2025-05-16,24.831986,120.914438,2.8342023e-07
C0SA00,歷坵,2025-05-16,22.520969,120.89185,9.4048524e-08
C0M710,東石,2025-05-16,23.458927,120.15385,3.6460555e-05
C0M780,鹿草,2025-05-16,23.41134,120.30835,5.150995e-09
C0U520,雙連埤,2025-05-16,24.753033,121.641303,1.2437557e-08
C0B010,七堵,2025-05-16,25.094819,121.71713,1.5179236e-06
C0R480,長治,2025-05-16,22.693128,120.542622,3.6454745e-07
C1V830,國三S383K,2025-05-16,22.781967,120.426475,2.1298285e-07
12Q980,恆春工作站,2025-05-16,22.079678,120.714425,0.008978965
C1O940,東山服務區,2025-05-16,23.286016,120.398472,3.389441e-07
C1U840,東澳嶺,2025-05-16,24.5378,121.8485,8.75746e-09
C1D630,飛鳳山,2025-05-16,24.766464,121.119178,2.3683235e-08
C0S940,石寧山,2025-05-16,23.223772,121.406639,7.54785e-08
C0K410,北港,2025-05-16,23.573957,120.292802,1.912287e-08
C2M620,瑞里,2025-05-16,23.545133,120.675197,4.491013e-09
C0SB70,小港漁港,2025-05-16,23.158558,121.400431,0.13776268
C2O950,安南,2025-05-16,23.076694,120.144861,1.2696123e-07
C0F0E0,南湖圈谷,2025-05-16,24.363714,121.444667,1.9203062e-08
467610,成功,2025-05-16,23.097486,121.373428,0.9718425
C0G890,伸港,2025-05-16,24.148933,120.484403,0.004275999
C2E540,龍溪,2025-05-16,24.606489,120.783933,2.089046e-08
C1V200,梅山,2025-05-16,23.268447,120.823556,5.7059538e-08
C0T9H0,加路蘭山,2025-05-16,23.682947,121.5274,9.692016e-09
C2O930,玉井,2025-05-16,23.126042,120.46055,0.0013643185
C1F911,新伯公,2025-05-16,24.221361,120.841069,1.8921472e-08
C0R490,九如,2025-05-16,22.7405,120.490503,4.854177e-07
C0X200,左鎮,2025-05-16,23.056758,120.408522,8.708836e-05
C0SB50,叭嗡嗡,2025-05-16,23.047062,121.343223,0.20022397
C1F891,稍來,2025-05-16,24.265689,121.001142,1.8498428e-08
72N240,七股研究中心,2025-05-16,23.081672,120.062894,1.35111e-07
C0C700,中壢,2025-05-16,24.977661,121.256375,8.82697e-09
C0M690,水上,2025-05-16,23.419734,120.388909,3.8482457e-09
C0V690,鼓山,2025-05-16,22.623325,120.275575,6.794435e-07
C0O860,大內,2025-05-16,23.11885,120.36083,1.994021e-07
C0Z200,萬榮,2025-05-16,23.709219,121.420106,1.041201e-07
C0T9D0,和中,2025-05-16,24.26676,121.74103,0.00069186615
C1O921,楠西,2025-05-16,23.183511,120.484083,0.0032494073
C0AJ30,淡水觀海,2025-05-16,25.184591,121.408616,0.016625764
C0V810,左營,2025-05-16,22.67491,120.28491,5.497293e-08
C0UA70,桃源谷,2025-05-16,24.962606,121.888875,1.8467828e-08
C0X130,官田,2025-05-16,23.193217,120.315422,2.848048e-07
C1H000,翠峰,2025-05-16,24.109397,121.205211,6.106257e-09
C0UA90,石城,2025-05-16,24.980444,121.951214,2.626105e-07
C1E681,南勢山,2025-05-16,24.421669,120.923831,3.5915186e-09
C0A9F0,內湖,2025-05-16,25.079422,121.57545,1.9170551e-07
C0K291,宜梧,2025-05-16,23.536281,120.169329,6.990267e-08
C1K540,口湖,2025-05-16,23.585344,120.180517,0.00039079456
C0R780,滿州,2025-05-16,22.024403,120.839892,0.0004547063
C0V870,文安,2025-05-16,22.8025,120.2164,1.9906498e-08
C0U650,玉蘭,2025-05-16,24.675286,121.587061,1.2241321e-08
C0R640,東港,2025-05-16,22.46247,120.44074,5.740619e-06
C0AJ80,板橋,2025-05-16,25.0107,121.4489,8.8874366e-08
C0S660,下馬,2025-05-16,23.150427,121.070312,3.3945124e-08
C1H9B1,阿眉,2025-05-16,24.1263,120.994672,3.2567527e-08
C0UA20,多加屯,2025-05-16,24.368614,121.373189,1.3755152e-08
C0E730,頭份,2025-05-16,24.688247,120.912206,6.992174e-08
72V140,高改旗南分場,2025-05-16,22.857861,120.516667,6.547775e-08
C0K480,莿桐,2025-05-16,23.761192,120.502372,6.400523e-09
C0U980,坪林石牌,2025-05-16,24.86478,121.77396,1.0341685e-08
C0T900,西林,2025-05-16,23.8119,121.441458,3.966695e-08
C1I150,青雲,2025-05-16,23.793361,120.949378,6.1279e-09
467350,澎湖,2025-05-16,23.565503,119.563094,0.60718054
C0G800,埔鹽,2025-05-16,24.000394,120.431683,5.4360116e-06
C0H960,草屯,2025-05-16,23.973672,120.68085,7.077534e-09
C1V780,多納林道,2025-05-16,22.888028,120.737917,2.754049e-09
C0E920,通霄漁港,2025-05-16,24.498589,120.673876,4.8160205e-06
C0Z330,安通山,2025-05-16,23.290728,121.348528,3.3283596e-09
C0AH10,永和,2025-05-16,25.01125,121.508111,8.8874366e-08
C0AK10,太平里,2025-05-16,25.134937,121.364899,0.006372598
C2G640,鹿港,2025-05-16,24.0753,120.430481,0.00040636232
C1E890,國三N149K,2025-05-16,24.463414,120.680019,8.405036e-05
C1R110,口社,2025-05-16,22.770111,120.645222,5.0290793e-05
C1M870,國三N285K,2025-05-16,23.550319,120.505833,1.368695e-08
C1E480,鳳美,2025-05-16,24.554803,121.034747,4.3692756e-09
C0M530,奮起湖,2025-05-16,23.493903,120.699253,4.66557e-09
C0C590,觀音,2025-05-16,25.027072,121.153317,3.6566166e-06
C0T9M0,靜浦,2025-05-16,23.455167,121.495028,4.3692193e-08
C2H9M0,發祥,2025-05-16,24.154094,121.164517,4.8204264e-08
C0AI40,石牌,2025-05-16,25.115597,121.513139,0.0042613777
C1F871,上谷關,2025-05-16,24.203483,121.018644,8.251403e-09
C2H9G0,百勝,2025-05-16,24.051142,120.909361,1.7620444e-08
C0G880,二水,2025-05-16,23.810742,120.6173,9.111147e-09
C0R940,加祿堂,2025-05-16,22.3363,120.6217,0.0038081848
C0W220,北竿,2025-05-16,26.220358,119.974881,5.9315443e-08
C0O960,崎頂,2025-05-16,22.959547,120.369317,2.6952588e-07
C0S750,向陽,2025-05-16,23.248397,120.986133,4.4195314e-09
C0T9F0,水璉,2025-05-16,23.797131,121.542514,2.0919925e-08
C1M600,頭凍,2025-05-16,23.406364,120.603339,2.2344281e-08
467660,臺東,2025-05-16,22.752211,121.154586,0.076526165
C1D380,新埔,2025-05-16,24.84745,121.03834,2.432064e-08
C2G980,田頭村,2025-05-16,23.8263,120.444175,7.365369e-09
C0V750,路竹,2025-05-16,22.854997,120.259439,1.9009265e-08
C0N050,蚵寮,2025-05-16,23.301,120.1104,3.157378e-08
72M700,南改鹿草分場,2025-05-16,23.416869,120.283061,5.416968e-09
C1SA50,利嘉林道,2025-05-16,22.82325,121.009389,2.662614e-09
C0A940,金山,2025-05-16,25.223628,121.643967,0.0011022363
C1V340,大津,2025-05-16,22.888322,120.645986,0.0002753757
C0W180,七美,2025-05-16,23.219333,119.444892,0.13901831
C1F9C1,白冷,2025-05-16,24.182844,120.929889,9.116779e-09
K2E710,苗改生物防治研究中心,2025-05-16,24.422861,120.871833,5.0277107e-09
C0N040,蘆竹溝,2025-05-16,23.2344,120.0961,5.0899963e-08
C2W230,畜試所澎湖,2025-05-16,23.628342,119.513206,0.7191266
C0R880,後壁湖,2025-05-16,21.9457,120.7457,3.6264013e-05
C1I280,埔中,2025-05-16,23.820778,120.642594,4.7519673e-09
467790,墾丁雷達站,2025-05-16,21.948235,120.808028,1.5487418e-05
C0W190,望安,2025-05-16,23.380564,119.494075,0.16413409
C0Z170,卓溪,2025-05-16,23.3443,121.3029,1.4921937e-08
C0F850,東勢,2025-05-16,24.246428,120.833047,7.187961e-09
466900,淡水,2025-05-16,25.164889,121.448906,0.006372598
C0I370,魚池,2025-05-16,23.895703,120.94135,6.576898e-09
C0C630,大溪,2025-05-16,24.882853,121.265547,8.166949e-08
C0A520,山佳,2025-05-16,24.974944,121.402008,1.0413119e-08
C0I110,竹山,2025-05-16,23.761225,120.688156,6.8304837e-09
82H840,茶改南部分場,2025-05-16,23.762528,120.7405,5.0098006e-09
C0G660,溪湖,2025-05-16,23.94835,120.479122,6.5065144e-09
C1T800,洛韶,2025-05-16,24.204558,121.453956,4.540878e-08
C1T810,慈恩,2025-05-16,24.192044,121.388386,3.9798644e-09
C1E451,象鼻,2025-05-16,24.368617,120.940228,3.7094432e-09
C0AC60,三峽,2025-05-16,24.939025,121.369728,1.6222653e-08
C0I490,萬大林道,2025-05-16,23.928228,121.091411,6.4861934e-09
C1I290,豐丘,2025-05-16,23.668178,120.887417,4.715086e-09
C1I320,奧萬大,2025-05-16,23.952956,121.178556,5.270412e-09
C2M910,嘉義大學,2025-05-16,23.471325,120.485903,2.5404479e-08
C0U770,南澳,2025-05-16,24.44935,121.81022,1.0705414e-08
C0A980,社子,2025-05-16,25.109508,121.469681,0.009469142
C0V800,六龜,2025-05-16,22.997889,120.633583,5.6084765e-08
C1G9D0,國一S218K,2025-05-16,23.890641,120.493253,4.8380078e-09
C0E570,白沙屯,2025-05-16,24.549447,120.696803,7.822688e-07
C2F9A0,中竹林,2025-05-16,24.103556,120.751061,1.1395811e-08
C0FA40,臺中電廠,2025-05-16,24.2146,120.4907,0.018065799
C2G9A0,畜試所彰化,2025-05-16,23.86045,120.557964,9.321503e-09
C0H9C0,合歡山,2025-05-16,24.143442,121.272547,1.804773e-08
C0X060,下營,2025-05-16,23.22695,120.256261,1.6071406e-08
G2M350,農試溪口農場,2025-05-16,23.58565,120.408111,7.57447e-09
C0U860,頭城,2025-05-16,24.85323,121.8308,7.423692e-08
C0R580,南州,2025-05-16,22.48591,120.50274,5.740619e-06
C0D430,峨眉,2025-05-16,24.6905,121.017189,1.7688565e-08
C0G780,秀水,2025-05-16,24.03405,120.503869,8.927375e-09
72N100,臺南農改場,2025-05-16,23.0605,120.342194,1.9240407e-07
C0S900,蘭嶼高中,2025-05-16,22.04909,121.51214,8.943276e-07
C1F9W0,德基,2025-05-16,24.254783,121.190261,1.6030382e-08
C1Z120,壽豐,2025-05-16,23.870853,121.508081,1.3930551e-07
C0W160,烏坵,2025-05-16,24.9944,119.44956,4.7251536e-08
C1I240,外大坪,2025-05-16,23.958697,120.917931,8.050381e-09
C1I550,國六W023K,2025-05-16,23.979067,120.867742,1.20860655e-08
C0R870,興海,2025-05-16,21.9752,120.8439,2.4533956e-05
C0R140,瑪家,2025-05-16,22.682903,120.686639,3.848319e-09
C0A530,坪林,2025-05-16,24.938183,121.70975,3.3695418e-08
C0X260,後壁,2025-05-16,23.366358,120.362326,7.592782e-09
C0Z230,和平,2025-05-16,24.30717,121.77007,0.0010599672
C0G770,福興,2025-05-16,24.041289,120.437669,5.4360116e-06
C0H9A0,神木村,2025-05-16,23.532742,120.843667,6.3742562e-09
C0I460,南投,2025-05-16,23.911469,120.687331,4.229231e-08
C0I480,梅峰,2025-05-16,24.085272,121.173572,6.0250875e-09
C1V570,吉東,2025-05-16,22.85422,120.5454,5.1147836e-08
C2D740,屯原,2025-05-16,24.067969,121.209389,5.324956e-09
C2A560,福山,2025-05-16,24.776203,121.502811,3.9720025e-08
C0AH30,五分山,2025-05-16,25.07125,121.780794,8.812856e-09
C0FA10,松柏,2025-05-16,24.429115,120.617482,0.0037678098
72S200,東改班鳩分場,2025-05-16,22.829528,121.077694,2.5305399e-06
72HA00,中改埔里分場,2025-05-16,23.903208,120.963364,6.4705747e-09
C2H9W0,大坪頂農水,2025-05-16,24.043122,120.932781,1.1746906e-08
C0C650,平鎮,2025-05-16,24.897503,121.214636,7.1728135e-09
C0S930,延平,2025-05-16,22.902581,121.084058,2.982383e-06
C0UA60,樟樹山,2025-05-16,24.41393,121.78325,7.532074e-08
C1S670,摩天,2025-05-16,23.199503,121.027,2.0490154e-08
C0V630,茄萣,2025-05-16,22.906642,120.182608,2.480406e-08
466940,基隆,2025-05-16,25.133314,121.740475,3.3473223e-06
C0X050,東河,2025-05-16,23.296598,120.385608,4.7619272e-07
C0R770,保力,2025-05-16,22.071122,120.764111,0.0041432306
G2L020,農試嘉義分所,2025-05-16,23.485028,120.473806,1.8908375e-08
C0X240,關子嶺,2025-05-16,23.331169,120.508025,1.6632312e-08
C0I380,集集,2025-05-16,23.828206,120.801467,7.238895e-09
466990,花蓮,2025-05-16,23.975128,121.613275,0.00029007567
C1V220,小關山,2025-05-16,23.154217,120.813603,4.573279e-09
C1F9G1,慶福山,2025-05-16,24.180853,120.848378,5.7740475e-09
C0Z250,瑞穗林道,2025-05-16,23.49284,121.30688,8.8342674e-08
C0D590,新豐,2025-05-16,24.87068,120.97721,7.266246e-08
C0A870,五指山,2025-05-16,25.132153,121.608692,8.744507e-09
C0UA50,西帽山,2025-05-16,24.555361,121.802628,1.3562421e-08
C0X160,仁德,2025-05-16,22.968258,120.257689,3.6875207e-08
C1H971,六分寮,2025-05-16,23.92507,120.6378,7.819532e-09
C0W120,西嶼,2025-05-16,23.5626,119.468436,0.65110505
C0G650,員林,2025-05-16,23.946503,120.585597,7.1536586e-09
C0AD50,鶯歌,2025-05-16,24.951533,121.346294,1.3164545e-08
C2H9Q0,北東眼山,2025-05-16,24.120939,121.189303,1.26966375e-08
C2H9T0,名間竹圍,2025-05-16,23.859914,120.637572,5.8468035e-09
C0S990,山豬窟,2025-05-16,22.318619,120.857372,6.677384e-06
C0X190,安平,2025-05-16,22.993161,120.152181,1.238687e-08
C0K400,斗六,2025-05-16,23.720583,120.541127,8.3997325e-09
12J990,口湖工作站,2025-05-16,23.589978,120.180394,0.0003907942
C0O830,北寮,2025-05-16,23.079561,120.495008,2.6158696e-06
C1D410,白蘭,2025-05-16,24.579364,121.079947,3.2740093e-09
C0S970,加津林,2025-05-16,22.416211,120.926942,0.0019412681
C0D700,關西,2025-05-16,24.7977,121.1732,3.8842337e-08
C0M810,里佳,2025-05-16,23.389125,120.716647,1.250764e-08
C0U750,龜山島,2025-05-16,24.841667,121.953133,4.5916318e-07
C0R810,內獅,2025-05-16,22.305064,120.642986,0.0036749248
C1M390,龍美,2025-05-16,23.406728,120.654417,1.5406098e-08
C2FB60,頭櫃山,2025-05-16,24.129842,120.858925,1.4916731e-08
C1H840,國三N238K,2025-05-16,23.841008,120.707711,6.7955277e-09
CAQ030,崎峰國小,2025-05-16,22.42565,120.49521,5.740619e-06
C2E520,大湖,2025-05-16,24.414939,120.870872,4.7282347e-09
467530,阿里山,2025-05-16,23.508208,120.813242,9.454472e-09
C1E691,南湖,2025-05-16,24.40135,120.837533,3.7511083e-09
C0FA30,梧棲,2025-05-16,24.256003,120.523381,0.117777854
C1V231,高中,2025-05-16,23.134911,120.716711,5.9501244e-09
C0AK30,硬漢嶺,2025-05-16,25.136097,121.426372,1.02262705e-08
C0F9V0,新社,2025-05-16,24.200172,120.815806,1.2055583e-08
C0H890,埔里,2025-05-16,23.972169,120.952425,9.587363e-09
C0R690,墾丁,2025-05-16,21.966756,120.810269,8.0812345e-07
C0F0D0,審馬陣,2025-05-16,24.381675,121.4203,1.894415e-08
C2W030,金門農試所,2025-05-16,24.448431,118.451786,3.311381e-05
C0R820,白鷺,2025-05-16,22.454275,120.666219,1.2831902e-08
C1V190,南天池,2025-05-16,23.27403,120.91176,4.2069757e-09
K2E360,苗栗農改場,2025-05-16,24.495722,120.829111,5.0842304e-09
CAJ050,海口故事園區,2025-05-16,23.57543,120.14121,0.00039079456
C2H9D0,三隻寮,2025-05-16,24.093078,120.861578,1.132945e-08
C0O990,媽廟,2025-05-16,22.99175,120.293525,2.9614588e-07
C0D480,打鐵坑,2025-05-16,24.849664,121.150789,4.2543846e-08
C0Z220,和平林道,2025-05-16,24.343922,121.656317,5.751822e-09
C0TA10,花蓮漁港,2025-05-16,23.995322,121.638331,0.0008350107
72C440,桃園農改場,2025-05-16,24.950944,121.030583,1.6063684e-08
C1E711,馬拉邦山,2025-05-16,24.367306,120.901656,3.7463033e-09
C0SB20,富岡,2025-05-16,22.792467,121.192669,0.78042215
C0D560,竹東,2025-05-16,24.767147,121.057881,4.452922e-08
C0F9U0,南屯,2025-05-16,24.137006,120.637969,8.759966e-09
C0M720,番路,2025-05-16,23.464657,120.554156,7.422386e-09
C0F0A0,雪山圈谷,2025-05-16,24.388594,121.236339,2.6253531e-08
C1A9N0,四十份,2025-05-16,24.934158,121.593283,1.554115e-08
C0U760,東澳,2025-05-16,24.52196,121.83318,2.3309214e-08
C0X230,鹽水,2025-05-16,23.272621,120.247641,3.042647e-08
C2H9H0,苗改南投蜂場,2025-05-16,23.852589,120.693481,1.5802879e-08
C0R950,萬隆國小,2025-05-16,22.507667,120.587817,3.185245e-05
467540,大武,2025-05-16,22.35572,120.90374,0.0017346183
C0V370,古亭坑,2025-05-16,22.893178,120.401947,1.5524952e-06
C1I340,新興橋,2025-05-16,23.563333,120.868728,2.3386735e-09
C0SA80,土坂,2025-05-16,22.453108,120.887572,0.0002470526
C0R160,鹽埔,2025-05-16,22.739558,120.530778,4.1667735e-07
C0AC40,大屯山,2025-05-16,25.175675,121.522408,1.04340145e-08
466850,五分山雷達站,2025-05-16,25.071182,121.781205,8.6954435e-09
C2H9L0,馬烈霸,2025-05-16,24.1512,121.201772,1.25632775e-08
C1AI50,國三N016K,2025-05-16,25.034164,121.619664,1.0451505e-07
C1V600,藤枝,2025-05-16,23.071961,120.757042,3.577851e-09
C1E601,南勢,2025-05-16,24.572486,120.734842,7.3035814e-08
C0O980,新市,2025-05-16,23.061614,120.298197,2.5766604e-07
C0K420,西螺,2025-05-16,23.800407,120.467394,6.6312382e-09
C0Z050,佳心,2025-05-16,23.34567,121.21316,4.3630898e-08
C0AD30,蘆洲,2025-05-16,25.086594,121.472331,2.3100404e-07
C0V610,梓官,2025-05-16,22.760558,120.267211,6.086986e-07
K2F750,種苗改良場,2025-05-16,24.225972,120.800917,1.4871503e-08
C0UA80,大溪漁港,2025-05-16,24.941801,121.902955,4.273354e-07
C1AI60,國一39K邊坡,2025-05-16,25.064361,121.383836,9.963827e-08
C0W150,金寧,2025-05-16,24.457703,118.328989,2.067977e-05
C0R960,內埔,2025-05-16,22.608483,120.570714,4.5315086e-05
V2C250,八德合作社,2025-05-16,24.93775,121.266389,8.643719e-09
C2H9S0,龍南,2025-05-16,23.953536,120.833183,5.822176e-09
C0AH40,平等,2025-05-16,25.129142,121.577086,1.7050654e-08
C0R540,佳冬,2025-05-16,22.419456,120.552375,0.0008130637
466950,彭佳嶼,2025-05-16,25.627975,122.079744,0.060473382
C0A890,雙溪,2025-05-16,25.036003,121.864242,1.4303894e-05
C0C480,桃園,2025-05-16,24.992425,121.323172,1.037646e-08
C0AH50,林口,2025-05-16,25.072181,121.38084,4.8307257e-08
A2K360,水試臺西試驗場,2025-05-16,23.717231,120.190522,2.4388405e-06
C2M960,外寮,2025-05-16,23.562643,120.665688,2.1660942e-09
C0F9S0,烏日,2025-05-16,24.107058,120.624103,1.2557983e-08
C0C490,八德,2025-05-16,24.928708,121.283289,8.635315e-09
C0R190,赤山,2025-05-16,22.592333,120.614306,3.5612513e-05
C0T820,天祥,2025-05-16,24.179597,121.495639,3.8825183e-05
C1F9E1,龍安,2025-05-16,24.1605,120.831961,1.1329817e-08
C0V820,小林,2025-05-16,23.148408,120.63325,1.1291116e-08
C2G870,芳苑,2025-05-16,23.922303,120.320025,0.37198406
C0E850,大河,2025-05-16,24.618069,120.948578,2.1083599e-08
C1U670,寒溪,2025-05-16,24.634,121.71691,1.19575e-08
C0N020,城西,2025-05-16,23.0568,120.0956,1.238687e-08
C1Z110,三棧,2025-05-16,24.11557,121.60501,1.0578705e-06
C0R280,檳榔,2025-05-16,22.076078,120.836777,2.170516e-05
C2H9J0,中台,2025-05-16,23.9996,120.938739,1.3127961e-08
C0F9L0,后里,2025-05-16,24.310436,120.729725,1.1529283e-08
467441,高雄,2025-05-16,22.730432,120.312516,5.623821e-07
C0Z180,新城,2025-05-16,24.040486,121.604878,0.00013778977
C0D540,橫山,2025-05-16,24.71116,121.11693,2.1253175e-08
C1D420,太閣南,2025-05-16,24.632808,121.160575,2.0636133e-08
C1E770,公館,2025-05-16,24.526914,120.830806,5.8270757e-09
CAN130,水試所海水繁養殖中心,2025-05-16,23.120802,120.07968,1.35111e-07
C1I430,翠華,2025-05-16,24.191961,121.224339,7.270887e-09
C1M400,菜瓜坪,2025-05-16,23.251928,120.576103,2.0602508e-08
C0G730,二林,2025-05-16,23.903325,120.376081,5.0638317e-08
72M360,南改義竹分場,2025-05-16,23.360694,120.279361,9.237221e-09
V2K620,麥寮合作社,2025-05-16,23.753836,120.294783,2.5583859e-08
C0Z070,舞鶴,2025-05-16,23.46811,121.37407,7.211691e-09
C0B040,大武崙,2025-05-16,25.166676,121.706993,9.856095e-07
C1Z030,紅葉,2025-05-16,23.493119,121.338806,9.805794e-09
C1I050,丹大,2025-05-16,23.753747,121.141147,4.8742606e-09
C0I080,信義,2025-05-16,23.689694,120.851036,9.2506385e-09
C2M920,朴子農改,2025-05-16,23.469889,120.259383,5.4174847e-09
C2A880,福隆,2025-05-16,25.017842,121.942083,3.3053843e-07
C0Z160,鳳林,2025-05-16,23.746114,121.453411,1.8794023e-07
C0V210,復興,2025-05-16,23.222403,120.806089,4.2407416e-07
C0H990,昆陽,2025-05-16,24.121322,121.273642,1.1067995e-08
C0R741,獅子,2025-05-16,22.202308,120.705236,0.0023297435
C0S710,鹿野,2025-05-16,22.917711,121.122994,1.1001911e-07
C0I530,小奇萊,2025-05-16,24.131764,121.295717,1.1709392e-08
C2K630,荷苞,2025-05-16,23.657717,120.595144,9.101698e-09
C0Z080,富源,2025-05-16,23.587642,121.378225,1.913508e-07
C0SB10,美和,2025-05-16,22.682078,121.060236,0.37537593
C2K620,馬光農場,2025-05-16,23.721453,120.378864,1.3525996e-08
C1I140,卡奈托灣,2025-05-16,23.754364,121.087872,2.2559672e-09
C0I520,玉山風口,2025-05-16,23.470489,120.955994,1.989807e-08
C1G691,下水埔,2025-05-16,23.816114,120.5676,5.663728e-09
C0X110,臺南市南區,2025-05-16,22.961189,120.188378,3.6847084e-08
C0V680,仁武,2025-05-16,22.701083,120.347722,5.4999674e-08
C2G840,北斗,2025-05-16,23.877586,120.514222,4.525123e-09
C0R900,竹坑,2025-05-16,22.1385,120.7022,0.008890629
C0K250,崙背,2025-05-16,23.75555,120.318925,2.5583859e-08
C0G860,社頭,2025-05-16,23.897647,120.5862,1.0209413e-08
C0X150,安定,2025-05-16,23.102614,120.227839,2.647302e-08
C0R590,里港,2025-05-16,22.77919,120.49459,6.6153547e-07
C0E610,馬都安,2025-05-16,24.451272,120.930192,3.6966028e-09
C0E550,明德,2025-05-16,24.583486,120.885411,7.75402e-09
C0R150,三地門,2025-05-16,22.709889,120.639944,5.8229103e-05
C0G910,花壇,2025-05-16,24.032076,120.549461,7.66377e-09
C1D400,鳥嘴山,2025-05-16,24.71909,121.28387,1.8907798e-08
C0K500,元長,2025-05-16,23.64981,120.315024,2.5870971e-08
C0F0B0,石岡,2025-05-16,24.276061,120.777644,8.955225e-09
C2V250,甲仙,2025-05-16,23.080106,120.591758,5.394576e-08
C0SA20,金崙山,2025-05-16,22.567419,120.959667,7.821813e-09
C0V350,溪埔,2025-05-16,22.738578,120.446797,1.1224475e-06
C0M660,溪口,2025-05-16,23.604131,120.403569,7.57447e-09
C1S880,壽卡,2025-05-16,22.238911,120.858903,3.36073e-07
72D680,桃改新埔分場,2025-05-16,24.834444,121.066111,2.6168292e-08
