站號,站名,日期,lat,lon,BLBTSLS
C0R710,龍磐,2025-06-13,21.931672,120.838942,0.6324473
C1F9D1,白毛台,2025-06-13,24.158325,120.886933,6.190351e-05
C0G940,竹塘,2025-06-13,23.848253,120.386764,0.0007130794
467590,恆春,2025-06-13,22.003897,120.746339,0.8699076
C1O850,環湖,2025-06-13,23.148617,120.418633,0.5307595
C0U710,太平山,2025-06-13,24.505486,121.525656,2.560744e-08
C0E820,獅潭,2025-06-13,24.539133,120.920042,3.4770397e-05
C0V880,興達,2025-06-13,22.8778,120.2127,0.96554035
C0S890,關山,2025-06-13,23.0395,121.175017,0.09564031
C0SB30,新蘭,2025-06-13,22.869214,121.223228,0.0057613607
C2R970,屏科大,2025-06-13,22.648275,120.619247,0.93503606
C1Z130,銅門,2025-06-13,23.965694,121.492842,0.8551777
C0AD40,土城,2025-06-13,24.973208,121.445169,0.110849015
CAN140,六官養殖協會,2025-06-13,23.22881,120.29962,0.0883726
C0X180,山上,2025-06-13,23.0757,120.363253,0.98792
C0F9Z0,雪山東峰,2025-06-13,24.388792,121.268675,2.8311351e-08
C1M480,獨立山,2025-06-13,23.537022,120.607797,2.7915425e-05
C0X220,學甲,2025-06-13,23.230367,120.182187,0.020716766
467650,日月潭,2025-06-13,23.881325,120.90805,1.1641758e-06
C0K600,箔子寮,2025-06-13,23.6197,120.14,0.0012484905
C0G830,埤頭,2025-06-13,23.866003,120.452806,0.0025156226
C0S950,七塊厝,2025-06-13,22.954453,121.229922,0.9648063
467110,金門,2025-06-13,24.407306,118.289281,4.214748e-07
C0AH80,深坑,2025-06-13,25.002703,121.628328,0.14691101
C0A970,三貂角,2025-06-13,25.007606,122.002058,0.25798494
C2D730,寶山農場,2025-06-13,24.732444,120.976153,4.1088664e-05
C0K430,褒忠,2025-06-13,23.690938,120.303634,0.0006670004
467480,嘉義,2025-06-13,23.495925,120.432906,0.0026654569
C0V400,阿公店,2025-06-13,22.804194,120.355528,0.98518705
C0E960,觀霧分站,2025-06-13,24.505781,121.113921,1.3508671e-08
467550,玉山,2025-06-13,23.48718,120.95943,3.7234592e-08
C0R440,大漢山,2025-06-13,22.405264,120.753181,5.3895366e-08
C0K280,四湖,2025-06-13,23.630414,120.227125,0.0005700812
C1F9B1,桐林,2025-06-13,24.066172,120.735194,0.006092972
C2H9U0,鳳鵬,2025-06-13,23.763919,120.788061,0.0020604166
C0K390,土庫,2025-06-13,23.679029,120.395574,0.0018942417
C1I450,望鄉山,2025-06-13,23.594153,120.944286,2.4272166e-08
C0E910,海埔,2025-06-13,24.648767,120.772435,8.845183e-06
B2E890,畜試北區分所,2025-06-13,24.527806,120.770972,1.6292883e-05
C0R750,四林格山,2025-06-13,22.076989,120.802439,0.99991417
C0F0C0,中坑,2025-06-13,24.248517,120.903319,6.12643e-08
C1I121,大鞍,2025-06-13,23.678381,120.760017,1.10820686e-07
72U480,花改蘭陽分場,2025-06-13,24.686306,121.716583,0.34694034
C0A770,科教館,2025-06-13,25.096356,121.516507,0.13360046
C0AJ60,六塊厝,2025-06-13,25.24,121.4481,0.011671907
C0R620,墾雷,2025-06-13,21.900836,120.855269,0.24466868
467420,永康,2025-06-13,23.038386,120.2367,0.93821913
C0I410,名間,2025-06-13,23.837053,120.701447,0.014534692
A2C560,農工中心,2025-06-13,24.985917,121.239833,0.0002739807
C0V740,旗山,2025-06-13,22.888614,120.483597,0.99580926
C0Z061,玉里,2025-06-13,23.3215,121.339656,0.0123571735
C0S840,南田,2025-06-13,22.279725,120.889208,0.16028298
C1I470,杉林溪,2025-06-13,23.639517,120.786444,4.596315e-08
C1X040,東原,2025-06-13,23.291597,120.463822,0.23091233
C0R660,枋寮,2025-06-13,22.367722,120.590647,0.122891426
C1R120,上德文,2025-06-13,22.763272,120.704442,0.9964545
C0K450,大埤,2025-06-13,23.646074,120.431537,0.0022844689
C0UA00,土場,2025-06-13,24.576533,121.495333,0.99851227
467080,宜蘭,2025-06-13,24.763975,121.756528,0.15027948
C0N030,四草,2025-06-13,23.0235,120.1116,0.59119636
467410,臺南,2025-06-13,22.99328,120.20492,0.9478224
C0V650,彌陀,2025-06-13,22.783806,120.246361,0.94686747
C0D660,新竹市東區,2025-06-13,24.798681,120.986942,8.091946e-06
82S580,茶改東部分場,2025-06-13,22.907694,121.130139,0.029696206
C0SB40,興隆,2025-06-13,22.913661,121.257469,0.0059802877
467050,新屋,2025-06-13,25.006725,121.047492,8.365312e-05
C0C710,大溪永福,2025-06-13,24.892936,121.324975,0.027859317
C0FA20,溫寮,2025-06-13,24.372177,120.583125,0.00054288434
C0V640,湖內,2025-06-13,22.887139,120.2445,0.9744406
C0R910,下寮,2025-06-13,22.3929,120.5548,0.12189616
C0Z020,明里,2025-06-13,23.208717,121.262342,0.118966796
C0M770,嘉義梅山,2025-06-13,23.585398,120.555587,0.005161883
C0C660,楊梅,2025-06-13,24.912375,121.143047,0.000316032
C1E511,新開,2025-06-13,24.347703,120.827019,0.00010111326
G2F820,農試所(霧峰),2025-06-13,24.031261,120.688133,0.002839686
C1I070,和社,2025-06-13,23.591131,120.888861,0.2563106
C2F000,大肚,2025-06-13,24.15295,120.572117,0.00035038
C1S850,豐南,2025-06-13,23.122139,121.262389,0.9817058
C2A920,富貴角,2025-06-13,25.263783,121.565258,0.03191279
CAH030,茶改場竹圍站,2025-06-13,23.860083,120.637528,0.003222662
C0T960,光復,2025-06-13,23.660694,121.424964,0.9453644
C0F9M0,豐原,2025-06-13,24.254322,120.720692,2.1980977e-05
C0R720,旭海,2025-06-13,22.205403,120.887614,0.99219537
C0V710,苓雅,2025-06-13,22.622742,120.330669,0.977228
C0C740,觀音工業區,2025-06-13,25.064764,121.114856,0.00010507838
CAC040,拉拉山,2025-06-13,24.699317,121.427133,5.5636317e-08
C0V790,萬山,2025-06-13,22.905944,120.688056,0.99592817
U2HA30,臺大和社,2025-06-13,23.590856,120.888864,0.2563106
C0AJ90,澳底,2025-06-13,25.0552,121.9253,0.13700663
C0Z100,東華,2025-06-13,23.89525,121.549833,0.061227668
C0G970,三豐,2025-06-13,23.882,120.2895,0.000309274
V2K610,大庄合作社,2025-06-13,23.8068,120.367939,0.00047473912
C0V900,汕尾,2025-06-13,22.4782,120.4151,0.0372465
C1R630,龍泉,2025-06-13,22.66701,120.59091,0.44474608
C1AC50,關渡,2025-06-13,25.133486,121.469331,0.31970105
C0C800,四稜,2025-06-13,24.64733,121.4293,2.8998556e-06
C0F9I0,神岡,2025-06-13,24.272481,120.658314,3.15607e-05
C0K460,斗南,2025-06-13,23.678734,120.478359,0.0021243417
C2O810,曾文,2025-06-13,23.219681,120.497328,0.98015285
467280,後龍,2025-06-13,24.648563,120.831834,8.5338925e-06
C1F9J1,清水林,2025-06-13,24.071242,120.820419,0.0023416525
C2A650,火燒寮,2025-06-13,25.002719,121.742892,0.94693446
466930,竹子湖,2025-06-13,25.162078,121.544547,1.662277e-05
C1I220,樟湖,2025-06-13,23.905333,120.846983,8.939272e-08
C0I390,仁愛,2025-06-13,24.022122,121.132206,1.0023515e-06
C0Z300,東里,2025-06-13,23.26853,121.30547,0.019798588
C1V590,新發,2025-06-13,23.057019,120.646064,0.18599914
C0K510,水林,2025-06-13,23.572924,120.24597,0.0021338763
72S590,東改賓朗果園,2025-06-13,22.813889,121.071278,0.2677998
82A750,茶改北部分場,2025-06-13,24.955778,121.631222,0.0073645744
C1A750,石碇服務區,2025-06-13,25.00872,121.646242,0.2010622
C0X300,鹿寮,2025-06-13,23.386047,120.477331,0.006908243
G2AI50,關渡,2025-06-13,25.11575,121.492,0.020552142
C0K590,雲林東勢,2025-06-13,23.674192,120.255721,0.0007930366
C0A570,桶後,2025-06-13,24.848222,121.597992,0.9982913
C1S800,華源,2025-06-13,22.657883,121.02325,0.0051010866
C0G720,溪州,2025-06-13,23.851589,120.499093,0.0024204198
C1V160,達卡努瓦,2025-06-13,23.279811,120.705319,1.4318033e-06
C2M410,馬頭山,2025-06-13,23.324361,120.582017,0.050053
C0V850,蚵仔寮,2025-06-13,22.7256,120.2527,0.9619098
C0S740,池上,2025-06-13,23.119628,121.209469,0.38504255
C1V390,尖山,2025-06-13,22.813153,120.367789,0.9924815
C0AH70,松山,2025-06-13,25.04871,121.55042,0.13728686
C0N010,鯤鯓國小,2025-06-13,23.1879,120.0889,0.4610641
C0R550,新埤,2025-06-13,22.467947,120.582894,0.04503013
C0SA60,知本（水試所）,2025-06-13,22.702394,121.082761,0.004023854
C0T9I0,豐濱,2025-06-13,23.583897,121.514806,0.90322834
C0UB00,淡江大學蘭陽校園,2025-06-13,24.823239,121.730383,0.3300708
C0W240,九宮,2025-06-13,24.423753,118.240186,4.5132168e-07
C0T9N0,富里,2025-06-13,23.171639,121.249378,0.1966692
U2HA50,臺大竹山,2025-06-13,23.756972,120.681556,0.008588639
C0V840,鳳鼻頭,2025-06-13,22.5083,120.3591,0.91663736
C0X140,西港,2025-06-13,23.125608,120.203108,0.3492823
72D080,桃改五峰分場,2025-06-13,24.612194,121.157167,9.526062e-09
C2H9P0,伊拿谷,2025-06-13,23.963211,121.088264,3.2853433e-05
C2H9F0,柑林,2025-06-13,24.018658,120.847072,0.007986042
C0TA20,加灣,2025-06-13,24.082025,121.608944,0.101179466
C0V530,阿蓮,2025-06-13,22.883208,120.327508,0.9758134
C0FB30,八仙山苗圃,2025-06-13,24.192719,121.001366,1.087778e-07
C1O880,關山,2025-06-13,23.173397,120.594092,0.996767
C0E791,卓蘭,2025-06-13,24.3126,120.8244,0.00011291189
C1I030,武界,2025-06-13,23.913225,121.052483,1.0499792e-05
C0R520,崁頂,2025-06-13,22.514781,120.506914,0.04930859
C0R341,牡丹,2025-06-13,22.130036,120.792639,0.991746
C0R930,萬丹,2025-06-13,22.5885,120.4851,0.103564516
C0S760,紅石,2025-06-13,23.069131,121.126219,6.606053e-09
C2C410,中央大學,2025-06-13,24.967652,121.185165,0.00027663936
C1M610,石磐龍,2025-06-13,23.496606,120.663506,1.8979014e-06
C0C790,東眼山,2025-06-13,24.8284,121.40888,1.0358721e-06
C0UA10,鴛鴦湖,2025-06-13,24.590269,121.412228,4.5548177e-08
V2C260,八德蔬果,2025-06-13,24.978508,121.281819,0.003555917
C0R800,丹路,2025-06-13,22.204481,120.750989,0.9602116
C0G920,永靖,2025-06-13,23.924703,120.547533,0.13193123
C2M950,太和,2025-06-13,23.538372,120.702961,7.6329634e-08
C1A630,下盆,2025-06-13,24.771003,121.538622,0.006255395
B2N890,畜產試驗所,2025-06-13,23.058972,120.336406,0.93378484
C0UA30,白嶺,2025-06-13,24.527819,121.519031,2.3755742e-07
C1V580,溪南(特生中心),2025-06-13,23.084972,120.788475,7.196964e-08
C1T970,大農,2025-06-13,23.615233,121.413331,0.96018696
C0R650,竹田,2025-06-13,22.58486,120.54344,0.06364185
C1H900,清流,2025-06-13,24.080775,120.962997,7.699038e-06
C1C510,水尾,2025-06-13,24.940081,121.087161,3.342687e-05
C0F9X0,大雅(中科園區),2025-06-13,24.21528,120.62445,0.013196176
C0SB60,白守蓮,2025-06-13,23.126769,121.401914,0.0053523034
C0O970,虎頭埤,2025-06-13,23.021375,120.347878,0.99359363
C0C730,中大臨海站,2025-06-13,24.966126,121.008581,0.00010658711
C0X250,新營,2025-06-13,23.310689,120.316681,0.008067664
C0V700,三民,2025-06-13,22.645017,120.311233,0.9771916
C0U870,大礁溪,2025-06-13,24.791042,121.675047,0.00039559742
C0E870,高鐵苗栗,2025-06-13,24.60725,120.826094,9.525756e-05
A2K570,古坑花卉中心,2025-06-13,23.63353,120.55239,0.00625145
C0TA30,鹽寮,2025-06-13,23.845606,121.592664,0.06393519
C0M860,新美,2025-06-13,23.338017,120.683169,0.0065589873
C1E701,八卦,2025-06-13,24.491756,120.927619,1.4518438e-05
C0I420,國姓,2025-06-13,24.037803,120.855072,0.0041650874
C2D720,關西工作站,2025-06-13,24.757275,121.184792,0.002358451
C0S960,香蘭,2025-06-13,22.587569,120.993375,0.023316264
467620,蘭嶼,2025-06-13,22.0369,121.55843,0.9221291
C0R260,春日,2025-06-13,22.370361,120.628306,0.5351815
72G600,臺中農改場,2025-06-13,24.003028,120.534389,0.38873917
C0Z210,瑞穗,2025-06-13,23.5239,121.39021,0.42172524
C0M820,達邦,2025-06-13,23.453994,120.749517,0.00079010014
C0V860,南寮,2025-06-13,22.7616,120.2339,0.96051437
C0G740,大城,2025-06-13,23.852487,120.320935,0.00032012275
C0R920,塭仔,2025-06-13,22.4169,120.5197,0.11401011
C0R470,高樹,2025-06-13,22.826389,120.600806,0.9442197
C0R680,佳樂水,2025-06-13,21.993578,120.861633,0.42711037
C1O870,大棟山,2025-06-13,23.31157,120.52226,6.6712786e-08
C0D360,梅花,2025-06-13,24.678347,121.208558,0.00024365903
C0Z190,富世,2025-06-13,24.14743,121.6297,0.19242789
C0AI10,屈尺,2025-06-13,24.92184,121.54475,0.15103185
B2U990,畜試東區分所,2025-06-13,24.669039,121.832561,0.5066402
C0SB80,長濱漁港,2025-06-13,23.313644,121.459994,0.0059458897
C0R240,來義,2025-06-13,22.527306,120.625111,0.18618259
C0V910,大樹,2025-06-13,22.684645,120.432803,0.70209605
C1R610,西大武山,2025-06-13,22.617719,120.7322,3.0848373e-08
C0G900,線西,2025-06-13,24.143358,120.443536,0.0007666116
C0M700,竹崎,2025-06-13,23.526178,120.555508,0.005402899
C2E880,三義,2025-06-13,24.405478,120.749819,3.4148867e-05
C0C720,竹圍,2025-06-13,25.112692,121.239824,0.020043442
C0F9P0,清水,2025-06-13,24.312297,120.562242,0.0007695122
C0Z150,吉安光華,2025-06-13,23.930925,121.595153,0.06332983
C0FA80,小雪山天池,2025-06-13,24.28025,121.02627,2.7656206e-08
467300,東吉島,2025-06-13,23.25727,119.66762,0.714401
C1D640,外坪(五指山),2025-06-13,24.644447,121.090961,8.390774e-05
C0F9O0,潭子,2025-06-13,24.213106,120.703933,5.446739e-05
C2H9R0,卓社,2025-06-13,23.887894,121.000086,2.4735752e-07
72T250,花蓮農改場,2025-06-13,23.975222,121.563889,0.06446989
C0E780,銅鑼,2025-06-13,24.489681,120.790853,1.2257767e-05
C1T950,太安,2025-06-13,23.666719,121.370128,3.42773e-07
C0E830,苑裡,2025-06-13,24.439714,120.653053,0.00033034227
467270,田中,2025-06-13,23.873803,120.581286,0.011261315
C0SA10,檳榔四格山,2025-06-13,22.810031,121.109308,0.70603555
C1T830,布洛灣,2025-06-13,24.17184,121.57127,0.99575675
C0F970,大坑,2025-06-13,24.173142,120.722289,9.648993e-05
C1U920,思源,2025-06-13,24.393125,121.347214,1.3366323e-08
C0A931,三和,2025-06-13,25.233153,121.595236,0.5662281
C0I010,廬山,2025-06-13,24.033311,121.181808,1.8440589e-07
C2M940,日野賀,2025-06-13,23.434056,120.727169,1.1084464e-06
C0R860,鼻頭,2025-06-13,22.1043,120.8979,0.69501776
C0UB20,壯圍,2025-06-13,24.7359,121.8163,0.34462613
C0R790,九棚,2025-06-13,22.14195,120.889281,0.9798322
C0W110,東莒,2025-06-13,25.9652,119.98069,0.99612886
C1U930,粉鳥林,2025-06-13,24.497088,121.842479,0.047198974
C1I211,蘆竹湳,2025-06-13,23.934019,120.811994,0.9754663
C0S830,長濱,2025-06-13,23.286817,121.411975,0.21661648
C1F9F1,伯公龍,2025-06-13,24.272392,120.849047,9.92197e-05
C0UB90,太平山莊,2025-06-13,24.494171,121.536209,2.4859947e-08
C0E810,西湖,2025-06-13,24.562947,120.7485,1.0364332e-05
C1I440,新高口,2025-06-13,23.478744,120.878939,2.4489799e-08
C0O840,王爺宮,2025-06-13,23.222064,120.40085,0.24335366
C0T9G0,鳳林山,2025-06-13,23.735269,121.420131,0.0029871187
C0X080,佳里,2025-06-13,23.173039,120.145086,0.4581992
C0FB70,大甲溪埔,2025-06-13,24.370625,120.620067,0.00055197446
C0Z310,清水斷崖,2025-06-13,24.218294,121.689142,0.92603403
C0M680,太保,2025-06-13,23.455062,120.331455,0.0024280932
C1S820,金峰,2025-06-13,22.590969,120.933236,0.07693745
C0AD10,八里,2025-06-13,25.150211,121.403947,0.018744137
C2K240,草嶺,2025-06-13,23.59555,120.693461,1.0150646e-06
C1SA70,都蘭,2025-06-13,22.87794,121.226881,0.0059791286
C0K440,二崙,2025-06-13,23.772797,120.408944,0.0022891643
C1A760,坪林交控,2025-06-13,24.94284,121.713442,0.9180352
C0F9N0,大里,2025-06-13,24.092464,120.701378,0.0063617257
C0SA90,達仁林場,2025-06-13,22.264347,120.823972,0.9991546
C1R290,石門山,2025-06-13,22.112611,120.756597,0.9998965
42HA10,萬大發電廠,2025-06-13,23.978875,121.139639,5.0145303e-07
C0R890,山海,2025-06-13,21.9878,120.7091,0.24610154
C0T9A0,月眉山,2025-06-13,23.809928,121.539828,0.010862642
C0AC70,信義,2025-06-13,25.037822,121.564597,0.14042142
C0K560,棋山,2025-06-13,23.68645,120.603417,0.006295564
C2FB50,出雲,2025-06-13,24.206469,120.902794,8.711948e-08
C1Z240,中平林道,2025-06-13,23.42115,121.26763,7.63829e-05
U2H480,溪頭,2025-06-13,23.670306,120.798194,3.2070076e-08
C0M880,好美里,2025-06-13,23.3364,120.138,0.004213209
C0T9E0,大坑,2025-06-13,23.880628,121.581981,0.78771657
C0K530,臺西,2025-06-13,23.701547,120.197559,0.0005304408
C1E900,國一N128K,2025-06-13,24.560997,120.844186,1.1778621e-05
C0AJ50,水湳洞,2025-06-13,25.123695,121.862238,0.5632067
C0AI20,白沙灣,2025-06-13,25.283128,121.519058,0.010198821
C2V310,美濃,2025-06-13,22.898792,120.51907,0.9950007
C0A860,大坪,2025-06-13,25.165914,121.632969,0.002075347
C1U850,觀音海岸,2025-06-13,24.38319,121.77856,0.00045926173
C2K610,草嶺石壁,2025-06-13,23.602469,120.707731,5.45587e-07
C0U950,鶯子嶺,2025-06-13,24.89754,121.79244,1.684374e-07
C0O900,善化,2025-06-13,23.112883,120.297219,0.8725079
C0K550,蔦松,2025-06-13,23.514319,120.229736,0.0016134453
E2P980,林試六龜中心,2025-06-13,22.991703,120.645722,0.99652076
C0E590,通霄,2025-06-13,24.471892,120.704622,1.6823922e-05
C1I310,西巒,2025-06-13,23.754486,120.883956,1.1168097e-06
C0A550,泰平,2025-06-13,24.971197,121.823711,0.004468959
C0I360,水里,2025-06-13,23.812553,120.849792,0.0029954922
C0R830,高士,2025-06-13,22.121825,120.836781,0.9999236
C1I101,溪頭,2025-06-13,23.661789,120.807647,3.818548e-08
C0AJ20,野柳,2025-06-13,25.20703,121.690021,0.14880377
C0B060,暖暖,2025-06-13,25.0957,121.7403,0.1883459
C1H920,長豐,2025-06-13,24.102039,120.879897,0.0044215196
C0V360,內門,2025-06-13,22.975481,120.466769,0.9652599
C0R850,林邊,2025-06-13,22.4634,120.5339,0.039317362
C0E930,龍鳳,2025-06-13,24.700034,120.859125,5.1711568e-06
C0U910,冬山,2025-06-13,24.63373,121.7937,0.5066402
C1E721,泰安,2025-06-13,24.489017,120.968036,1.7837094e-08
82H320,茶改中部分場,2025-06-13,23.875611,120.913583,0.0015230858
C0M750,布袋,2025-06-13,23.380878,120.167789,0.00256651
C1S860,利嘉,2025-06-13,22.809417,121.050528,0.9384684
E2S980,林試太麻里1,2025-06-13,22.598922,120.980044,0.03517662
C0X170,關廟,2025-06-13,22.963017,120.327797,0.9878717
C0V720,林園,2025-06-13,22.507747,120.394511,0.08082103
C1I510,線浸林道,2025-06-13,23.761508,120.832956,4.5948426e-07
C0D690,外湖,2025-06-13,24.917735,120.968711,0.000104497434
C0C750,新興坑尾,2025-06-13,25.0061,121.0971,4.786958e-05
B2Q810,畜試南區分所,2025-06-13,21.945583,120.802167,0.35873044
C0S790,金崙,2025-06-13,22.538122,120.966875,0.12256861
C0AH90,福山植物園,2025-06-13,24.760717,121.58135,0.021205852
C0I540,奇萊稜線,2025-06-13,24.109231,121.326456,2.0557641e-08
C0M850,表湖,2025-06-13,23.24186,120.64166,0.00011161381
C0S770,大溪山,2025-06-13,22.478475,120.943325,0.9886114
C0AG80,中和,2025-06-13,24.991622,121.491792,0.111069456
C0T790,大禹嶺,2025-06-13,24.186117,121.316086,1.8871985e-08
C0T9B0,水源,2025-06-13,23.991861,121.537169,0.005905823
C0R840,牡丹池山,2025-06-13,22.168389,120.841225,0.99917674
C1I131,桶頭,2025-06-13,23.641944,120.654117,0.0003436297
CAL110,布袋國中,2025-06-13,23.35893,120.18026,0.0037314296
467571,新竹,2025-06-13,24.827853,121.014219,6.583624e-06
C0Z290,赤柯山,2025-06-13,23.36893,121.38293,2.9107755e-07
C0X280,將軍,2025-06-13,23.214999,120.13577,0.019596832
C0S690,太麻里,2025-06-13,22.60902,120.98533,0.9930977
C0U880,北關,2025-06-13,24.9072,121.8734,0.1896198
C0G810,埔心,2025-06-13,23.947633,120.525456,0.15826868
C0U970,大福,2025-06-13,24.80064,121.81389,0.1492804
C2H9N0,仁愛東眼,2025-06-13,24.026875,121.1205,5.9662193e-07
C1E670,南礦,2025-06-13,24.538278,121.002836,3.2169016e-08
C0M520,東後寮,2025-06-13,23.369908,120.248065,0.0040730983
C1E461,松安,2025-06-13,24.397972,120.986022,3.691039e-08
C2N160,西拉雅風管處,2025-06-13,23.189481,120.335297,0.61669296
C2M970,碧湖,2025-06-13,23.568632,120.624165,2.7498585e-05
C0A640,石碇,2025-06-13,24.993969,121.662917,0.94825053
E2S960,林試太麻里2,2025-06-13,22.598,120.99775,0.022643246
C0F9Y0,桃山,2025-06-13,24.432739,121.303808,2.4172236e-08
C1I020,萬大,2025-06-13,23.979817,121.132261,7.779589e-07
C0U940,羅東,2025-06-13,24.68184,121.74934,0.35548666
C0M650,朴子,2025-06-13,23.43463,120.23902,0.0025251603
C1I500,大尖山,2025-06-13,23.858572,120.994889,2.8034133e-08
C0FB40,中橫21.6k,2025-06-13,24.2499,121.1455,5.745317e-07
C0G820,田尾,2025-06-13,23.901669,120.509389,0.16121352
E2K600,四湖植物園,2025-06-13,23.676986,120.163433,0.00058832386
C0S730,綠島,2025-06-13,22.6672,121.47533,3.8601276e-05
12Q970,東港工作站,2025-06-13,22.479997,120.466058,0.037867635
C0E430,南庄,2025-06-13,24.601775,121.000214,3.2735683e-05
C1TA00,太魯閣,2025-06-13,24.15773,121.6236,0.692442
466920,臺北,2025-06-13,25.037658,121.514853,0.13728686
C0R600,舊泰武,2025-06-13,22.588194,120.664944,0.00038175436
C1I260,北坑,2025-06-13,23.9246,121.006903,0.97774637
466910,鞍部,2025-06-13,25.182586,121.529731,4.6978794e-08
C1I230,九份二山,2025-06-13,23.961944,120.845,0.025804007
C2A660,瑞芳,2025-06-13,25.113169,121.801147,0.7630061
C0R270,琉球嶼,2025-06-13,22.332244,120.362236,0.3058534
C1T990,高寮,2025-06-13,23.394239,121.356808,0.2909396
C0G620,芬園,2025-06-13,24.015678,120.6213,0.14873254
C1Z140,荖溪,2025-06-13,23.890575,121.45964,9.986028e-07
C1I201,中心崙,2025-06-13,23.728722,120.712097,0.00034054878
C1I400,凌霄,2025-06-13,24.018778,121.004456,8.2842763e-07
C1M640,十字,2025-06-13,23.492153,120.753683,1.05448954e-07
G2P820,農試鳳山分所,2025-06-13,22.646611,120.356083,0.985233
C0Z270,蕃薯寮,2025-06-13,23.73835,121.540108,0.87580687
C0FB10,出雲山苗圃,2025-06-13,24.23105,120.90475,5.9564638e-08
C0F9Q0,外埔,2025-06-13,24.347817,120.705686,2.4895238e-05
C0K580,高鐵雲林,2025-06-13,23.737456,120.417944,0.002146418
C2I090,鳳凰,2025-06-13,23.728081,120.787347,3.0146302e-06
C0U990,員山,2025-06-13,24.74435,121.72247,0.3603882
C0V770,大社,2025-06-13,22.730306,120.346639,0.97810584
C0X120,麻豆,2025-06-13,23.183289,120.248611,0.30801237
C0C670,龍潭,2025-06-13,24.870056,121.221389,0.00026644638
C0D680,香山濕地,2025-06-13,24.783581,120.914988,1.1927594e-05
C0S980,勝林山,2025-06-13,22.430439,120.8938,0.99655145
C0V730,大寮,2025-06-13,22.605614,120.395717,0.17467694
C0R570,麟洛,2025-06-13,22.65078,120.52719,0.5968895
C2M930,石卓,2025-06-13,23.478744,120.702264,1.5785685e-07
C0G9B0,和美,2025-06-13,24.105169,120.492131,0.02149414
CAG100,王功漁港,2025-06-13,23.96824,120.32586,0.00018660614
C0X290,北門,2025-06-13,23.267772,120.125481,0.019287668
C2F930,大甲,2025-06-13,24.347667,120.640403,0.000933332
C0D650,湖口,2025-06-13,24.904794,121.043628,3.5700792e-05
C0E420,竹南,2025-06-13,24.708978,120.888897,5.142088e-06
C0U780,五結,2025-06-13,24.68637,121.79794,0.348733
C1I250,鯉潭,2025-06-13,23.961922,120.991131,0.7784298
C0R130,阿禮,2025-06-13,22.742908,120.743678,0.045571018
C0X100,臺南市北區,2025-06-13,23.010394,120.194228,0.9210724
C0S920,金峰嘉蘭,2025-06-13,22.594789,120.960825,0.03513381
C0V490,新興,2025-06-13,22.627422,120.298803,0.9707989
C0F9K0,大安,2025-06-13,24.345061,120.588025,0.00055752025
467290,古坑,2025-06-13,23.633639,120.551889,0.00625145
C2E970,八甲,2025-06-13,24.535811,120.795983,8.987414e-06
C0V440,鳳山,2025-06-13,22.646653,120.356122,0.985233
C1T940,大觀,2025-06-13,23.714206,121.373133,0.005012232
C0E740,造橋,2025-06-13,24.637056,120.864778,8.566118e-06
C0R100,尾寮山,2025-06-13,22.833111,120.683889,0.12051223
A2K630,臺大雲林校區,2025-06-13,23.730628,120.423903,0.001908278
467990,馬祖,2025-06-13,26.169467,119.923158,3.7565408e-07
C0D580,寶山,2025-06-13,24.735006,121.025192,0.009300861
E2P990,林試扇平站,2025-06-13,22.9677,120.6857,0.9952205
C0AI30,三重,2025-06-13,25.057328,121.500629,0.13360046
C0AH00,汐止,2025-06-13,25.066881,121.658778,0.13728686
C1Z040,立山,2025-06-13,23.443356,121.327375,0.9948241
466881,新北,2025-06-13,24.959207,121.525196,0.12800421
C0W130,花嶼,2025-06-13,23.40007,119.32276,0.99894536
C0A950,鼻頭角,2025-06-13,25.129036,121.923372,0.59635234
C0K470,林內,2025-06-13,23.748675,120.609642,0.009407722
C2F990,摩天嶺,2025-06-13,24.322458,120.936819,1.4370603e-07
82C160,茶改場,2025-06-13,24.908472,121.185333,0.00027296256
C0Z320,清水林道,2025-06-13,23.27125,121.188272,0.98506707
C0R760,南仁湖,2025-06-13,22.084681,120.863353,0.9998981
C0M670,大林,2025-06-13,23.600616,120.45841,0.0029338105
C0M800,茶山,2025-06-13,23.299075,120.664767,0.98214483
C0A9C0,天母,2025-06-13,25.117494,121.537169,0.124810874
72K220,南改斗南分場,2025-06-13,23.634556,120.477333,0.0021979033
72AI40,桃改樹林分場,2025-06-13,24.944503,121.386972,0.07789472
C0S910,蘭嶼燈塔,2025-06-13,22.081197,121.503117,0.54768306
C0B050,八斗子,2025-06-13,25.144754,121.79167,0.54297036
C0U900,內城,2025-06-13,24.71813,121.68766,0.36132422
C0X320,柳營,2025-06-13,23.253328,120.375253,0.10316352
C0M790,新港,2025-06-13,23.553269,120.345728,0.0019733545
C0F9T0,西屯,2025-06-13,24.179494,120.641275,0.0033272076
C0E950,松安,2025-06-13,24.39792,120.98599,3.691039e-08
C0SA30,都歷,2025-06-13,23.020333,121.323642,0.00759126
C0C620,蘆竹,2025-06-13,25.084275,121.265767,0.00668287
C0R730,大坪頂,2025-06-13,22.024633,120.69355,0.99388963
C0AJ40,石門,2025-06-13,25.273672,121.601198,0.016814442
C0E750,苗栗,2025-06-13,24.564569,120.824575,1.2565285e-05
C0T870,鯉魚潭,2025-06-13,23.935639,121.508944,0.66300845
C1V170,排雲,2025-06-13,23.463619,120.954147,3.0139752e-08
C2H950,中寮,2025-06-13,23.884447,120.766406,0.035264853
C0R350,貓鼻頭,2025-06-13,21.921774,120.7358,0.1335858
C0V660,岡山,2025-06-13,22.797078,120.294958,0.94810146
C1H941,雙冬,2025-06-13,23.967378,120.802189,0.97502136
C0AJ70,田寮,2025-06-13,25.2698,121.4886,0.010818188
C0AI00,五股,2025-06-13,25.07445,121.42728,0.001962202
C0Z280,德武,2025-06-13,23.47426,121.41071,0.9344523
C0R700,枋山,2025-06-13,22.246844,120.661086,0.09299247
C0C460,復興,2025-06-13,24.820208,121.352281,0.00080489053
E2H360,蓮華池,2025-06-13,23.918333,120.885278,0.51984197
C0M640,中埔,2025-06-13,23.42538,120.5229,0.0064998562
C0W140,金沙,2025-06-13,24.488292,118.408778,2.90112e-07
C2A540,四堵,2025-06-13,24.8926,121.745736,0.87158483
C0ACA0,新莊,2025-06-13,25.051478,121.446756,0.08814213
C0R220,潮州,2025-06-13,22.534361,120.54,0.054110277
U2HA40,臺大內茅埔,2025-06-13,23.689722,120.851117,0.9897272
467490,臺中,2025-06-13,24.145736,120.684075,0.0021833326
C0UB60,明池,2025-06-13,24.650688,121.475277,4.4253597e-06
C0U960,翠峰湖,2025-06-13,24.510856,121.608044,3.3895823e-08
E2HA20,林試畢祿溪站,2025-06-13,24.226944,121.308522,3.0595412e-08
C0V890,前鎮,2025-06-13,22.5718,120.3117,0.96902615
C1F941,雪嶺,2025-06-13,24.280586,121.026642,2.7656206e-08
C2H9E0,國姓南港,2025-06-13,23.911108,120.846556,7.232798e-08
C0AC80,文山,2025-06-13,25.00235,121.575728,0.15672031
C0F9R0,龍井,2025-06-13,24.184536,120.528972,0.0008222375
C0M760,民雄,2025-06-13,23.551754,120.428457,0.0028247407
C0UA40,西德山,2025-06-13,24.560647,121.752608,2.6710165e-06
C1T920,中興,2025-06-13,23.769503,121.498653,0.10475538
C0D550,雪霸,2025-06-13,24.526972,121.11605,1.7086107e-08
C2F860,梨山,2025-06-13,24.247522,121.243669,2.9592387e-08
C0R320,車城,2025-06-13,22.0744,120.716247,0.9365911
C1S870,南美山,2025-06-13,23.15025,121.382333,0.16599779
C0B020,基隆嶼,2025-06-13,25.19141,121.78391,0.8092508
C1U501,牛鬥,2025-06-13,24.637836,121.573656,0.9177806
C0M730,嘉義市東區,2025-06-13,23.457673,120.460531,0.0038185606
C0S700,知本,2025-06-13,22.684866,121.005642,0.91423327
C1N001,沙崙,2025-06-13,22.935472,120.309406,0.9820811
C0V760,橋頭,2025-06-13,22.757806,120.30575,0.9687574
C0G960,福寶,2025-06-13,24.0443,120.3814,0.023452822
C0X210,白河,2025-06-13,23.347466,120.414427,0.01778278
C0S810,東河,2025-06-13,22.972672,121.303986,0.005288554
C2R170,屏東,2025-06-13,22.66027,120.49403,0.5455048
C0R670,楓港,2025-06-13,22.190131,120.692156,0.6642969
C0FA50,霧峰,2025-06-13,24.0419,120.6995,0.003368365
C0UB10,蘇澳,2025-06-13,24.5969,121.8571,0.07651788
C0G950,防潮門,2025-06-13,24.1835,120.4871,0.00079284696
C0M740,六腳,2025-06-13,23.492871,120.290625,0.0023959032
C1R250,力里,2025-06-13,22.428117,120.629228,0.21910825
C0K330,虎尾,2025-06-13,23.719183,120.442036,0.001982451
C2FA00,烏石坑,2025-06-13,24.273503,120.947617,1.7707156e-07
C0V620,永安,2025-06-13,22.82315,120.236856,0.94686747
C1I330,楓樹林,2025-06-13,23.986803,121.076117,6.859705e-07
C0W200,湖西,2025-06-13,23.596314,119.67275,0.9663741
72Q010,高雄農改場,2025-06-13,22.709333,120.525889,0.49562955
C0SA40,瑞和,2025-06-13,22.974361,121.156697,0.038572583
C0C680,龜山,2025-06-13,25.02846,121.38656,0.025272947
C2V260,月眉,2025-06-13,22.971003,120.539853,0.9907288
C0V450,鳳森,2025-06-13,22.545064,120.392592,0.1669189
C0FA90,小雪山林道,2025-06-13,24.29515,121.03651,2.9068104e-08
C0U720,南山,2025-06-13,24.43742,121.38167,3.1203695e-06
A2N290,臺南蘭花園區,2025-06-13,23.340258,120.379661,0.003594412
C0R560,新園,2025-06-13,22.5434,120.461558,0.08082103
C0U890,三星,2025-06-13,24.66812,121.65302,0.55024135
C1V300,御油山,2025-06-13,23.001983,120.715364,7.121954e-08
C0U600,礁溪,2025-06-13,24.817539,121.765608,0.2454572
C1T980,龍澗,2025-06-13,24.023289,121.411328,2.9854082e-08
C0D670,海天一線,2025-06-13,24.831986,120.914438,3.1968505e-06
C0SA00,歷坵,2025-06-13,22.520969,120.89185,0.9584796
C0M710,東石,2025-06-13,23.458927,120.15385,0.0012956995
C0M780,鹿草,2025-06-13,23.41134,120.30835,0.0027390304
C0U520,雙連埤,2025-06-13,24.753033,121.641303,0.00036610392
C0B010,七堵,2025-06-13,25.094819,121.71713,0.12685432
C0R480,長治,2025-06-13,22.693128,120.542622,0.82506377
C1V830,國三S383K,2025-06-13,22.781967,120.426475,0.9855454
12Q980,恆春工作站,2025-06-13,22.079678,120.714425,0.9369798
C1O940,東山服務區,2025-06-13,23.286016,120.398472,0.026162026
C1U840,東澳嶺,2025-06-13,24.5378,121.8485,3.50888e-06
C1D630,飛鳳山,2025-06-13,24.766464,121.119178,0.0019146923
C0S940,石寧山,2025-06-13,23.223772,121.406639,0.010195712
C0K410,北港,2025-06-13,23.573957,120.292802,0.0022112643
C2M620,瑞里,2025-06-13,23.545133,120.675197,1.8487887e-07
C0SB70,小港漁港,2025-06-13,23.158558,121.400431,0.0056281355
C2O950,安南,2025-06-13,23.076694,120.144861,0.2821405
C0F0E0,南湖圈谷,2025-06-13,24.363714,121.444667,2.5407434e-08
467610,成功,2025-06-13,23.097486,121.373428,0.005583271
C0G890,伸港,2025-06-13,24.148933,120.484403,0.00079999946
C2E540,龍溪,2025-06-13,24.606489,120.783933,9.8691555e-05
C1V200,梅山,2025-06-13,23.268447,120.823556,0.38731858
C0T9H0,加路蘭山,2025-06-13,23.682947,121.5274,0.0011906191
C2O930,玉井,2025-06-13,23.126042,120.46055,0.3511545
C1F911,新伯公,2025-06-13,24.221361,120.841069,0.0002450263
C0R490,九如,2025-06-13,22.7405,120.490503,0.4389352
C0X200,左鎮,2025-06-13,23.056758,120.408522,0.99023193
C0FA60,鞍馬山工作站,2025-06-13,24.267064,121.000793,2.662539e-08
C0SB50,叭嗡嗡,2025-06-13,23.047062,121.343223,0.0070036496
C1F891,稍來,2025-06-13,24.265689,121.001142,2.7557686e-08
72N240,七股研究中心,2025-06-13,23.081672,120.062894,0.054858446
C0C700,中壢,2025-06-13,24.977661,121.256375,0.0036119148
C0M690,水上,2025-06-13,23.419734,120.388909,0.0028873617
C0V690,鼓山,2025-06-13,22.623325,120.275575,0.970306
C0O860,大內,2025-06-13,23.11885,120.36083,0.92829317
C0Z200,萬榮,2025-06-13,23.709219,121.420106,0.29063568
C0T9D0,和中,2025-06-13,24.26676,121.74103,0.05953257
C1O921,楠西,2025-06-13,23.183511,120.484083,0.8149873
C0AJ30,淡水觀海,2025-06-13,25.184591,121.408616,0.05803781
C0V810,左營,2025-06-13,22.67491,120.28491,0.9776073
C0UA70,桃源谷,2025-06-13,24.962606,121.888875,0.00014711244
C0X130,官田,2025-06-13,23.193217,120.315422,0.5865412
C1H000,翠峰,2025-06-13,24.109397,121.205211,1.5866696e-08
C0UA90,石城,2025-06-13,24.980444,121.951214,0.1814353
C1E681,南勢山,2025-06-13,24.421669,120.923831,3.8399772e-08
C0A9F0,內湖,2025-06-13,25.079422,121.57545,0.13728686
C0K291,宜梧,2025-06-13,23.536281,120.169329,0.0015508825
C1K540,口湖,2025-06-13,23.585344,120.180517,0.001221972
C0R780,滿州,2025-06-13,22.024403,120.839892,0.9048747
C0V870,文安,2025-06-13,22.8025,120.2164,0.93582994
C0U650,玉蘭,2025-06-13,24.675286,121.587061,0.00083767046
C0R640,東港,2025-06-13,22.46247,120.44074,0.03771007
C0AJ80,板橋,2025-06-13,25.0107,121.4489,0.10668051
C0S660,下馬,2025-06-13,23.150427,121.070312,0.00096618844
C1H9B1,阿眉,2025-06-13,24.1263,120.994672,1.4117953e-07
C0UA20,多加屯,2025-06-13,24.368614,121.373189,1.7773282e-08
C0E730,頭份,2025-06-13,24.688247,120.912206,5.1806787e-06
72V140,高改旗南分場,2025-06-13,22.857861,120.516667,0.95685554
C0K480,莿桐,2025-06-13,23.761192,120.502372,0.007281705
C0U980,坪林石牌,2025-06-13,24.86478,121.77396,0.00034037174
C0T900,西林,2025-06-13,23.8119,121.441458,0.9114935
C1I150,青雲,2025-06-13,23.793361,120.949378,0.98381406
467350,澎湖,2025-06-13,23.565503,119.563094,0.99881154
C0G800,埔鹽,2025-06-13,24.000394,120.431683,0.011305969
C0H960,草屯,2025-06-13,23.973672,120.68085,0.0047169793
C1V780,多納林道,2025-06-13,22.888028,120.737917,2.704043e-06
C0E920,通霄漁港,2025-06-13,24.498589,120.673876,0.000290222
C0Z330,安通山,2025-06-13,23.290728,121.348528,0.9898001
C0AH10,永和,2025-06-13,25.01125,121.508111,0.10288097
C0AK10,太平里,2025-06-13,25.134937,121.364899,0.01705119
C2G640,鹿港,2025-06-13,24.0753,120.430481,0.023442416
C1E890,國三N149K,2025-06-13,24.463414,120.680019,1.603992e-05
C1R110,口社,2025-06-13,22.770111,120.645222,0.91280276
C1M870,國三N285K,2025-06-13,23.550319,120.505833,0.0053056707
C1E480,鳳美,2025-06-13,24.554803,121.034747,9.529934e-05
C0M530,奮起湖,2025-06-13,23.493903,120.699253,7.194493e-08
C0C590,觀音,2025-06-13,25.027072,121.153317,4.2214913e-05
C0T9M0,靜浦,2025-06-13,23.455167,121.495028,0.24088426
C2H9M0,發祥,2025-06-13,24.154094,121.164517,4.6199187e-07
C0AI40,石牌,2025-06-13,25.115597,121.513139,0.11453954
C1F871,上谷關,2025-06-13,24.203483,121.018644,1.8812403e-07
C2H9G0,百勝,2025-06-13,24.051142,120.909361,0.010101862
C0G880,二水,2025-06-13,23.810742,120.6173,0.014592627
C0R940,加祿堂,2025-06-13,22.3363,120.6217,0.28736794
C0W220,北竿,2025-06-13,26.220358,119.974881,6.05495e-06
C0O960,崎頂,2025-06-13,22.959547,120.369317,0.9966437
C0S750,向陽,2025-06-13,23.248397,120.986133,2.254364e-08
C0T9F0,水璉,2025-06-13,23.797131,121.542514,0.9478068
C1M600,頭凍,2025-06-13,23.406364,120.603339,0.017400643
467660,臺東,2025-06-13,22.752211,121.154586,0.0021182096
C1D380,新埔,2025-06-13,24.84745,121.03834,1.3121088e-05
C2G980,田頭村,2025-06-13,23.8263,120.444175,0.0022664624
C0V750,路竹,2025-06-13,22.854997,120.259439,0.9750016
C0N050,蚵寮,2025-06-13,23.301,120.1104,0.004132206
72M700,南改鹿草分場,2025-06-13,23.416869,120.283061,0.0025659292
C1SA50,利嘉林道,2025-06-13,22.82325,121.009389,1.7533278e-08
C0UB70,太平山中間站,2025-06-13,24.542003,121.513453,9.978116e-07
C0A940,金山,2025-06-13,25.223628,121.643967,0.17864656
C1V340,大津,2025-06-13,22.888322,120.645986,0.98883194
C0W180,七美,2025-06-13,23.219333,119.444892,0.9982525
C1F9C1,白冷,2025-06-13,24.182844,120.929889,2.3764453e-05
K2E710,苗改生物防治研究中心,2025-06-13,24.422861,120.871833,3.5174548e-05
C0N040,蘆竹溝,2025-06-13,23.2344,120.0961,0.019211069
C0D760,大坪苗圃,2025-06-13,24.5362,121.1108,1.2594444e-08
C2W230,畜試所澎湖,2025-06-13,23.628342,119.513206,0.99894434
C0R880,後壁湖,2025-06-13,21.9457,120.7457,0.22664958
C1I280,埔中,2025-06-13,23.820778,120.642594,0.039360654
467790,墾丁雷達站,2025-06-13,21.948235,120.808028,0.6875153
C0W190,望安,2025-06-13,23.380564,119.494075,0.99892616
C0Z170,卓溪,2025-06-13,23.3443,121.3029,0.018263582
C0F850,東勢,2025-06-13,24.246428,120.833047,0.00017352759
466900,淡水,2025-06-13,25.164889,121.448906,0.01707075
C0I370,魚池,2025-06-13,23.895703,120.94135,0.7891293
C0C630,大溪,2025-06-13,24.882853,121.265547,0.0116014825
C0A520,山佳,2025-06-13,24.974944,121.402008,0.09261643
C0I110,竹山,2025-06-13,23.761225,120.688156,0.011217644
82H840,茶改南部分場,2025-06-13,23.762528,120.7405,0.00072724983
C0G660,溪湖,2025-06-13,23.94835,120.479122,0.16934593
C1T800,洛韶,2025-06-13,24.204558,121.453956,8.991492e-07
C1T810,慈恩,2025-06-13,24.192044,121.388386,1.4368499e-08
C1E451,象鼻,2025-06-13,24.368617,120.940228,4.147755e-08
C0AC60,三峽,2025-06-13,24.939025,121.369728,0.0028433045
C0I490,萬大林道,2025-06-13,23.928228,121.091411,9.340211e-08
C1I290,豐丘,2025-06-13,23.668178,120.887417,1.3006056e-07
C1I320,奧萬大,2025-06-13,23.952956,121.178556,4.0106605e-07
C2M910,嘉義大學,2025-06-13,23.471325,120.485903,0.0046132845
C0U770,南澳,2025-06-13,24.44935,121.81022,0.07085963
C0A980,社子,2025-06-13,25.109508,121.469681,0.021655852
C0V800,六龜,2025-06-13,22.997889,120.633583,0.99635935
C1G9D0,國一S218K,2025-06-13,23.890641,120.493253,0.10393033
C0E570,白沙屯,2025-06-13,24.549447,120.696803,0.0001452818
C2F9A0,中竹林,2025-06-13,24.103556,120.751061,0.0008599049
C0FA40,臺中電廠,2025-06-13,24.2146,120.4907,0.00082644983
C2G9A0,畜試所彰化,2025-06-13,23.86045,120.557964,0.01116451
C0H9C0,合歡山,2025-06-13,24.143442,121.272547,2.777658e-08
C0X060,下營,2025-06-13,23.22695,120.256261,0.08192829
G2M350,農試溪口農場,2025-06-13,23.58565,120.408111,0.0021792431
C0U860,頭城,2025-06-13,24.85323,121.8308,0.23720293
C0R580,南州,2025-06-13,22.48591,120.50274,0.03771007
C0D430,峨眉,2025-06-13,24.6905,121.017189,3.57295e-05
C0G780,秀水,2025-06-13,24.03405,120.503869,0.3882043
72N100,臺南農改場,2025-06-13,23.0605,120.342194,0.93569154
C0S900,蘭嶼高中,2025-06-13,22.04909,121.51214,0.376745
C1F9W0,德基,2025-06-13,24.254783,121.190261,2.0136078e-08
C1Z120,壽豐,2025-06-13,23.870853,121.508081,0.061227668
C0W160,烏坵,2025-06-13,24.9944,119.44956,0.99865675
C1I240,外大坪,2025-06-13,23.958697,120.917931,0.43789923
C1I550,國六W023K,2025-06-13,23.979067,120.867742,0.5031708
C0R870,興海,2025-06-13,21.9752,120.8439,0.36426985
C0R140,瑪家,2025-06-13,22.682903,120.686639,0.70261
C0A530,坪林,2025-06-13,24.938183,121.70975,0.9837316
C0X260,後壁,2025-06-13,23.366358,120.362326,0.006376818
C0Z230,和平,2025-06-13,24.30717,121.77007,0.056362037
C0G770,福興,2025-06-13,24.041289,120.437669,0.012471258
C0H9A0,神木村,2025-06-13,23.532742,120.843667,6.899268e-08
C0I460,南投,2025-06-13,23.911469,120.687331,0.00494235
C0I480,梅峰,2025-06-13,24.085272,121.173572,3.217472e-08
C1V570,吉東,2025-06-13,22.85422,120.5454,0.9711044
C2D740,屯原,2025-06-13,24.067969,121.209389,2.7228268e-08
C2A560,福山,2025-06-13,24.776203,121.502811,0.97824216
C0AH30,五分山,2025-06-13,25.07125,121.780794,1.1233706e-05
C0FA10,松柏,2025-06-13,24.429115,120.617482,0.00032284932
72S200,東改班鳩分場,2025-06-13,22.829528,121.077694,0.08952226
72HA00,中改埔里分場,2025-06-13,23.903208,120.963364,0.95796615
C2H9W0,大坪頂農水,2025-06-13,24.043122,120.932781,0.0031639948
C0C650,平鎮,2025-06-13,24.897503,121.214636,0.003218858
C0S930,延平,2025-06-13,22.902581,121.084058,0.16059491
C0UA60,樟樹山,2025-06-13,24.41393,121.78325,0.0007251805
C1S670,摩天,2025-06-13,23.199503,121.027,1.1363753e-08
C0V630,茄萣,2025-06-13,22.906642,120.182608,0.9665576
466940,基隆,2025-06-13,25.133314,121.740475,0.5464388
C0X050,東河,2025-06-13,23.296598,120.385608,0.025622873
C0R770,保力,2025-06-13,22.071122,120.764111,0.96307933
G2L020,農試嘉義分所,2025-06-13,23.485028,120.473806,0.004469214
C0X240,關子嶺,2025-06-13,23.331169,120.508025,0.0026910834
C0I380,集集,2025-06-13,23.828206,120.801467,0.004797953
466990,花蓮,2025-06-13,23.975128,121.613275,0.063510105
C1V220,小關山,2025-06-13,23.154217,120.813603,4.4012285e-08
C1F9G1,慶福山,2025-06-13,24.180853,120.848378,8.357701e-06
C0FB20,雪山橋,2025-06-13,24.23192,120.9786,4.12667e-08
C0Z250,瑞穗林道,2025-06-13,23.49284,121.30688,0.00070901774
C0D590,新豐,2025-06-13,24.87068,120.97721,6.421726e-06
C0A870,五指山,2025-06-13,25.132153,121.608692,2.4824092e-06
C0UA50,西帽山,2025-06-13,24.555361,121.802628,8.182038e-06
C0X160,仁德,2025-06-13,22.968258,120.257689,0.9728067
C1H971,六分寮,2025-06-13,23.92507,120.6378,0.00023359644
C0W120,西嶼,2025-06-13,23.5626,119.468436,0.9990786
C0G650,員林,2025-06-13,23.946503,120.585597,0.1445214
C0AD50,鶯歌,2025-06-13,24.951533,121.346294,0.0023855008
C2H9Q0,北東眼山,2025-06-13,24.120939,121.189303,2.9990883e-08
C2H9T0,名間竹圍,2025-06-13,23.859914,120.637572,0.0031253758
C0S990,山豬窟,2025-06-13,22.318619,120.857372,0.99848187
C0X190,安平,2025-06-13,22.993161,120.152181,0.9251662
C0K400,斗六,2025-06-13,23.720583,120.541127,0.0041390536
12J990,口湖工作站,2025-06-13,23.589978,120.180394,0.0012484905
C0O830,北寮,2025-06-13,23.079561,120.495008,0.98728675
C1D410,白蘭,2025-06-13,24.579364,121.079947,1.8907583e-08
C0S970,加津林,2025-06-13,22.416211,120.926942,0.051750124
C0D700,關西,2025-06-13,24.7977,121.1732,0.0042047626
C0M810,里佳,2025-06-13,23.389125,120.716647,1.1341248e-07
C0U750,龜山島,2025-06-13,24.841667,121.953133,0.9990959
C0R810,內獅,2025-06-13,22.305064,120.642986,0.24702881
C1M390,龍美,2025-06-13,23.406728,120.654417,3.427077e-06
C2FB60,頭櫃山,2025-06-13,24.129842,120.858925,1.4767309e-07
C1H840,國三N238K,2025-06-13,23.841008,120.707711,0.033796925
CAQ030,崎峰國小,2025-06-13,22.42565,120.49521,0.03771007
C2E520,大湖,2025-06-13,24.414939,120.870872,9.637323e-05
467530,阿里山,2025-06-13,23.508208,120.813242,2.6010449e-08
C1E691,南湖,2025-06-13,24.40135,120.837533,1.5801062e-06
C0FA30,梧棲,2025-06-13,24.256003,120.523381,0.00076902803
C1V231,高中,2025-06-13,23.134911,120.716711,1.2537538e-05
C0AK30,硬漢嶺,2025-06-13,25.136097,121.426372,4.8025595e-05
C0F9V0,新社,2025-06-13,24.200172,120.815806,7.578159e-05
C0H890,埔里,2025-06-13,23.972169,120.952425,0.0018760687
C0R690,墾丁,2025-06-13,21.966756,120.810269,0.9985477
C0F0D0,審馬陣,2025-06-13,24.381675,121.4203,2.7403116e-08
C2W030,金門農試所,2025-06-13,24.448431,118.451786,6.7046165e-07
C0R820,白鷺,2025-06-13,22.454275,120.666219,0.999611
C0FB00,大雪山,2025-06-13,24.254668,121.007374,3.1292476e-08
C1V190,南天池,2025-06-13,23.27403,120.91176,2.0368619e-08
C0E940,雪見,2025-06-13,24.42595,121.01347,2.4285365e-08
K2E360,苗栗農改場,2025-06-13,24.495722,120.829111,1.425173e-05
CAJ050,海口故事園區,2025-06-13,23.57543,120.14121,0.0012320312
C2H9D0,三隻寮,2025-06-13,24.093078,120.861578,0.0016825509
C0O990,媽廟,2025-06-13,22.99175,120.293525,0.95423543
C0D480,打鐵坑,2025-06-13,24.849664,121.150789,0.00025801823
C0Z220,和平林道,2025-06-13,24.343922,121.656317,0.05147638
C0TA10,花蓮漁港,2025-06-13,23.995322,121.638331,0.06544973
72C440,桃園農改場,2025-06-13,24.950944,121.030583,5.9092177e-05
C1E711,馬拉邦山,2025-06-13,24.367306,120.901656,9.892022e-08
C0SB20,富岡,2025-06-13,22.792467,121.192669,0.003097476
C0D560,竹東,2025-06-13,24.767147,121.057881,0.007286673
C0F9U0,南屯,2025-06-13,24.137006,120.637969,0.11578083
C0M720,番路,2025-06-13,23.464657,120.554156,0.0018516496
C0F0A0,雪山圈谷,2025-06-13,24.388594,121.236339,3.0583802e-08
C1A9N0,四十份,2025-06-13,24.934158,121.593283,0.008475344
C0U760,東澳,2025-06-13,24.52196,121.83318,0.060871884
C0X230,鹽水,2025-06-13,23.272621,120.247641,0.0045131915
C2H9H0,苗改南投蜂場,2025-06-13,23.852589,120.693481,0.015750071
C0R950,萬隆國小,2025-06-13,22.507667,120.587817,0.076272324
467540,大武,2025-06-13,22.35572,120.90374,0.048285656
C0V370,古亭坑,2025-06-13,22.893178,120.401947,0.99516
C1I340,新興橋,2025-06-13,23.563333,120.868728,9.282656e-07
C0SA80,土坂,2025-06-13,22.453108,120.887572,0.060038634
C0R160,鹽埔,2025-06-13,22.739558,120.530778,0.53081584
C0AC40,大屯山,2025-06-13,25.175675,121.522408,1.0228163e-08
466850,五分山雷達站,2025-06-13,25.071182,121.781205,7.5546573e-06
C2H9L0,馬烈霸,2025-06-13,24.1512,121.201772,2.5993092e-08
C1AI50,國三N016K,2025-06-13,25.034164,121.619664,0.16936217
C1V600,藤枝,2025-06-13,23.071961,120.757042,5.2227417e-08
C1E601,南勢,2025-06-13,24.572486,120.734842,9.038029e-06
C0O980,新市,2025-06-13,23.061614,120.298197,0.89173865
C0K420,西螺,2025-06-13,23.800407,120.467394,0.0018934862
C0Z050,佳心,2025-06-13,23.34567,121.21316,9.050381e-06
C0AD30,蘆洲,2025-06-13,25.086594,121.472331,0.1353674
C0V610,梓官,2025-06-13,22.760558,120.267211,0.9682266
K2F750,種苗改良場,2025-06-13,24.225972,120.800917,0.00014233628
C0UA80,大溪漁港,2025-06-13,24.941801,121.902955,0.30162916
C1AI60,國一39K邊坡,2025-06-13,25.064361,121.383836,0.043602142
C0W150,金寧,2025-06-13,24.457703,118.328989,5.0874394e-07
C0R960,內埔,2025-06-13,22.608483,120.570714,0.07118693
V2C250,八德合作社,2025-06-13,24.93775,121.266389,0.0025861326
C2H9S0,龍南,2025-06-13,23.953536,120.833183,3.7147842e-07
C0AH40,平等,2025-06-13,25.129142,121.577086,0.0009758012
C0R540,佳冬,2025-06-13,22.419456,120.552375,0.1311706
466950,彭佳嶼,2025-06-13,25.627975,122.079744,0.9998088
C0A890,雙溪,2025-06-13,25.036003,121.864242,0.28522727
C0C480,桃園,2025-06-13,24.992425,121.323172,0.003596351
C0AH50,林口,2025-06-13,25.072181,121.38084,0.016144525
A2K360,水試臺西試驗場,2025-06-13,23.717231,120.190522,0.0005221492
C2M960,外寮,2025-06-13,23.562643,120.665688,5.3984077e-06
C0F9S0,烏日,2025-06-13,24.107058,120.624103,0.07567865
C0C490,八德,2025-06-13,24.928708,121.283289,0.0025411993
C0R190,赤山,2025-06-13,22.592333,120.614306,0.08106848
C0T820,天祥,2025-06-13,24.179597,121.495639,0.31894094
C1F9E1,龍安,2025-06-13,24.1605,120.831961,9.435162e-05
C0V820,小林,2025-06-13,23.148408,120.63325,0.7640865
C2G870,芳苑,2025-06-13,23.922303,120.320025,0.00018565416
C0E850,大河,2025-06-13,24.618069,120.948578,1.0050211e-05
C1U670,寒溪,2025-06-13,24.634,121.71691,0.49035594
C0N020,城西,2025-06-13,23.0568,120.0956,0.6159782
C1Z110,三棧,2025-06-13,24.11557,121.60501,0.0019078974
C0R280,檳榔,2025-06-13,22.076078,120.836777,0.9997099
C2H9J0,中台,2025-06-13,23.9996,120.938739,0.9826036
C0F9L0,后里,2025-06-13,24.310436,120.729725,0.00011172776
467441,高雄,2025-06-13,22.730432,120.312516,0.9775735
C0Z180,新城,2025-06-13,24.040486,121.604878,0.063851915
C0D540,橫山,2025-06-13,24.71116,121.11693,0.0008977665
C1D420,太閣南,2025-06-13,24.632808,121.160575,1.0160933e-06
C1E770,公館,2025-06-13,24.526914,120.830806,1.6292883e-05
CAN130,水試所海水繁養殖中心,2025-06-13,23.120802,120.07968,0.055118747
C1I430,翠華,2025-06-13,24.191961,121.224339,1.7427288e-08
C1M400,菜瓜坪,2025-06-13,23.251928,120.576103,0.97848266
C0G730,二林,2025-06-13,23.903325,120.376081,0.011022508
72M360,南改義竹分場,2025-06-13,23.360694,120.279361,0.004208234
V2K620,麥寮合作社,2025-06-13,23.753836,120.294783,0.0006459047
C0Z070,舞鶴,2025-06-13,23.46811,121.37407,0.9798863
C0B040,大武崙,2025-06-13,25.166676,121.706993,0.59452206
C1Z030,紅葉,2025-06-13,23.493119,121.338806,0.940117
C1I050,丹大,2025-06-13,23.753747,121.141147,2.0379616e-08
C0I080,信義,2025-06-13,23.689694,120.851036,0.9897272
C0D750,樂山林道6k,2025-06-13,24.49999,121.08773,1.2419493e-08
C2M920,朴子農改,2025-06-13,23.469889,120.259383,0.0024817397
C2A880,福隆,2025-06-13,25.017842,121.942083,0.17633882
C0Z160,鳳林,2025-06-13,23.746114,121.453411,0.10639124
C0UB80,翠峰林道6K,2025-06-13,24.49773,121.568625,2.3200544e-08
C0V210,復興,2025-06-13,23.222403,120.806089,0.00030789332
C0H990,昆陽,2025-06-13,24.121322,121.273642,1.8440971e-08
C0R741,獅子,2025-06-13,22.202308,120.705236,0.74442
C0S710,鹿野,2025-06-13,22.917711,121.122994,0.93283653
C0I530,小奇萊,2025-06-13,24.131764,121.295717,1.9047336e-08
C0FA70,大雪山埡口,2025-06-13,24.26867,121.03062,2.766243e-08
C2K630,荷苞,2025-06-13,23.657717,120.595144,0.0068751806
C0Z080,富源,2025-06-13,23.587642,121.378225,0.7348988
C0SB10,美和,2025-06-13,22.682078,121.060236,0.004040291
C2K620,馬光農場,2025-06-13,23.721453,120.378864,0.0020772389
C1I140,卡奈托灣,2025-06-13,23.754364,121.087872,2.5075531e-08
C0I520,玉山風口,2025-06-13,23.470489,120.955994,3.8551608e-08
C1G691,下水埔,2025-06-13,23.816114,120.5676,0.0075977864
C0X110,臺南市南區,2025-06-13,22.961189,120.188378,0.96647006
C0V680,仁武,2025-06-13,22.701083,120.347722,0.9781341
C2G840,北斗,2025-06-13,23.877586,120.514222,0.10180183
C0R900,竹坑,2025-06-13,22.1385,120.7022,0.08285209
C0K250,崙背,2025-06-13,23.75555,120.318925,0.0006729862
C0G860,社頭,2025-06-13,23.897647,120.5862,0.3729072
C0X150,安定,2025-06-13,23.102614,120.227839,0.8051234
C0R590,里港,2025-06-13,22.77919,120.49459,0.9250072
C0E610,馬都安,2025-06-13,24.451272,120.930192,7.1348904e-07
C0E550,明德,2025-06-13,24.583486,120.885411,1.2003568e-05
C0R150,三地門,2025-06-13,22.709889,120.639944,0.889727
C0G910,花壇,2025-06-13,24.032076,120.549461,0.36527553
C1D400,鳥嘴山,2025-06-13,24.71909,121.28387,5.4259874e-07
C0K500,元長,2025-06-13,23.64981,120.315024,0.0007879573
C0F0B0,石岡,2025-06-13,24.276061,120.777644,0.00013795923
C2V250,甲仙,2025-06-13,23.080106,120.591758,0.99692476
C0SA20,金崙山,2025-06-13,22.567419,120.959667,0.0014640995
C0V350,溪埔,2025-06-13,22.738578,120.446797,0.7559039
C0M660,溪口,2025-06-13,23.604131,120.403569,0.002191759
C1S880,壽卡,2025-06-13,22.238911,120.858903,0.99923617
72D680,桃改新埔分場,2025-06-13,24.834444,121.066111,1.4685064e-05
