站號,站名,日期,lat,lon,BLBTSLS
C0R710,龍磐,2025-05-20,21.931672,120.838942,0.82758427
C1F9D1,白毛台,2025-05-20,24.158325,120.886933,1.0795672e-09
C0G940,竹塘,2025-05-20,23.848253,120.386764,4.246213e-08
467590,恆春,2025-05-20,22.003897,120.746339,0.4359168
C1O850,環湖,2025-05-20,23.148617,120.418633,2.7704461e-08
C0U710,太平山,2025-05-20,24.505486,121.525656,7.875767e-09
C0E820,獅潭,2025-05-20,24.539133,120.920042,1.016247e-09
C0V880,興達,2025-05-20,22.8778,120.2127,5.5062966e-08
C0S890,關山,2025-05-20,23.0395,121.175017,0.003184354
C0SB30,新蘭,2025-05-20,22.869214,121.223228,0.007548999
C2R970,屏科大,2025-05-20,22.648275,120.619247,2.525821e-07
C1Z130,銅門,2025-05-20,23.965694,121.492842,3.1677536e-07
C0AD40,土城,2025-05-20,24.973208,121.445169,3.6279488e-08
CAN140,六官養殖協會,2025-05-20,23.22881,120.29962,3.0638374e-09
C0X180,山上,2025-05-20,23.0757,120.363253,1.4928798e-08
C0F9Z0,雪山東峰,2025-05-20,24.388792,121.268675,1.8955715e-08
C1M480,獨立山,2025-05-20,23.537022,120.607797,8.234246e-10
C0X220,學甲,2025-05-20,23.230367,120.182187,5.4708575e-09
467650,日月潭,2025-05-20,23.881325,120.90805,1.1273981e-09
C0K600,箔子寮,2025-05-20,23.6197,120.14,1.8301057e-08
C0G830,埤頭,2025-05-20,23.866003,120.452806,6.687583e-09
C0S950,七塊厝,2025-05-20,22.954453,121.229922,0.00019184555
467110,金門,2025-05-20,24.407306,118.289281,1.7743e-08
C0AH80,深坑,2025-05-20,25.002703,121.628328,2.6888781e-08
C0A970,三貂角,2025-05-20,25.007606,122.002058,1.3280683e-08
C2D730,寶山農場,2025-05-20,24.732444,120.976153,9.44423e-10
C0K430,褒忠,2025-05-20,23.690938,120.303634,5.0656843e-09
467480,嘉義,2025-05-20,23.495925,120.432906,2.1100406e-09
C0V400,阿公店,2025-05-20,22.804194,120.355528,7.1420594e-08
467550,玉山,2025-05-20,23.48718,120.95943,1.9994399e-08
C0R440,大漢山,2025-05-20,22.405264,120.753181,8.643175e-09
C0K280,四湖,2025-05-20,23.630414,120.227125,1.927403e-08
C1F9B1,桐林,2025-05-20,24.066172,120.735194,7.597635e-09
C2H9U0,鳳鵬,2025-05-20,23.763919,120.788061,9.2686125e-10
C0K390,土庫,2025-05-20,23.679029,120.395574,7.658466e-09
C1I450,望鄉山,2025-05-20,23.594153,120.944286,8.473059e-09
C0E910,海埔,2025-05-20,24.648767,120.772435,4.1431902e-09
B2E890,畜試北區分所,2025-05-20,24.527806,120.770972,1.7199326e-09
C0R750,四林格山,2025-05-20,22.076989,120.802439,0.7876633
C0F0C0,中坑,2025-05-20,24.248517,120.903319,1.3131536e-09
C1I121,大鞍,2025-05-20,23.678381,120.760017,2.106948e-09
72U480,花改蘭陽分場,2025-05-20,24.686306,121.716583,2.4520787e-08
C0A770,科教館,2025-05-20,25.096356,121.516507,1.1097611e-08
C0AJ60,六塊厝,2025-05-20,25.24,121.4481,9.762618e-05
C0R620,墾雷,2025-05-20,21.900836,120.855269,0.09036909
467420,永康,2025-05-20,23.038386,120.2367,1.8768317e-08
C0I410,名間,2025-05-20,23.837053,120.701447,2.9294454e-09
A2C560,農工中心,2025-05-20,24.985917,121.239833,0.00011328483
C0V740,旗山,2025-05-20,22.888614,120.483597,8.362422e-09
C0Z061,玉里,2025-05-20,23.3215,121.339656,1.0186461e-05
C0S840,南田,2025-05-20,22.279725,120.889208,0.97893804
C1I470,杉林溪,2025-05-20,23.639517,120.786444,2.6729892e-09
C1X040,東原,2025-05-20,23.291597,120.463822,3.9039443e-09
C0R660,枋寮,2025-05-20,22.367722,120.590647,0.99524885
C1R120,上德文,2025-05-20,22.763272,120.704442,2.0193001e-08
C0K450,大埤,2025-05-20,23.646074,120.431537,4.6811333e-09
C0UA00,土場,2025-05-20,24.576533,121.495333,1.2525904e-08
467080,宜蘭,2025-05-20,24.763975,121.756528,3.5706785e-07
C0N030,四草,2025-05-20,23.0235,120.1116,1.1885329e-08
467410,臺南,2025-05-20,22.99328,120.20492,1.2595477e-08
C0V650,彌陀,2025-05-20,22.783806,120.246361,4.376876e-08
C0D660,新竹市東區,2025-05-20,24.798681,120.986942,3.1156553e-09
82S580,茶改東部分場,2025-05-20,22.907694,121.130139,0.0014059298
C0SB40,興隆,2025-05-20,22.913661,121.257469,0.0058029643
467050,新屋,2025-05-20,25.006725,121.047492,0.18496181
C0C710,大溪永福,2025-05-20,24.892936,121.324975,3.2282237e-08
C0FA20,溫寮,2025-05-20,24.372177,120.583125,5.1301722e-08
C0V640,湖內,2025-05-20,22.887139,120.2445,4.8930602e-08
C0R910,下寮,2025-05-20,22.3929,120.5548,0.99524325
C0Z020,明里,2025-05-20,23.208717,121.262342,1.4449871e-05
C0M770,嘉義梅山,2025-05-20,23.585398,120.555587,6.370683e-09
C0C660,楊梅,2025-05-20,24.912375,121.143047,9.29569e-08
C1E511,新開,2025-05-20,24.347703,120.827019,1.2636113e-09
G2F820,農試所(霧峰),2025-05-20,24.031261,120.688133,6.1742655e-09
C1I070,和社,2025-05-20,23.591131,120.888861,2.1289244e-08
C2F000,大肚,2025-05-20,24.15295,120.572117,2.4598115e-09
C1S850,豐南,2025-05-20,23.122139,121.262389,4.70896e-05
C2A920,富貴角,2025-05-20,25.263783,121.565258,5.550705e-07
CAH030,茶改場竹圍站,2025-05-20,23.860083,120.637528,1.070198e-09
C0T960,光復,2025-05-20,23.660694,121.424964,0.0059431987
C0F9M0,豐原,2025-05-20,24.254322,120.720692,4.0864943e-09
C0R720,旭海,2025-05-20,22.205403,120.887614,0.96853733
C0V710,苓雅,2025-05-20,22.622742,120.330669,4.7394872e-07
C0C740,觀音工業區,2025-05-20,25.064764,121.114856,0.0053917686
CAC040,拉拉山,2025-05-20,24.699317,121.427133,4.948366e-09
C0V790,萬山,2025-05-20,22.905944,120.688056,6.4662196e-09
U2HA30,臺大和社,2025-05-20,23.590856,120.888864,2.1289244e-08
C0AJ90,澳底,2025-05-20,25.0552,121.9253,1.0466507e-07
C0Z100,東華,2025-05-20,23.89525,121.549833,1.2697379e-05
C0G970,三豐,2025-05-20,23.882,120.2895,6.176124e-07
V2K610,大庄合作社,2025-05-20,23.8068,120.367939,8.365197e-09
C0V900,汕尾,2025-05-20,22.4782,120.4151,0.9809482
C1R630,龍泉,2025-05-20,22.66701,120.59091,1.1258159e-06
C1AC50,關渡,2025-05-20,25.133486,121.469331,2.7312009e-08
C0F9I0,神岡,2025-05-20,24.272481,120.658314,2.7132863e-09
C0K460,斗南,2025-05-20,23.678734,120.478359,4.441808e-09
C2O810,曾文,2025-05-20,23.219681,120.497328,9.667627e-09
467280,後龍,2025-05-20,24.648563,120.831834,3.577005e-09
C1F9J1,清水林,2025-05-20,24.071242,120.820419,1.103576e-09
C2A650,火燒寮,2025-05-20,25.002719,121.742892,4.4167674e-09
466930,竹子湖,2025-05-20,25.162078,121.544547,6.2434935e-10
C1I220,樟湖,2025-05-20,23.905333,120.846983,8.709547e-10
C0I390,仁愛,2025-05-20,24.022122,121.132206,7.5568607e-10
C0Z300,東里,2025-05-20,23.26853,121.30547,4.0438867e-05
C1V590,新發,2025-05-20,23.057019,120.646064,2.2299738e-09
C0K510,水林,2025-05-20,23.572924,120.24597,4.944413e-09
72S590,東改賓朗果園,2025-05-20,22.813889,121.071278,0.0016587031
82A750,茶改北部分場,2025-05-20,24.955778,121.631222,1.1864689e-09
C1A750,石碇服務區,2025-05-20,25.00872,121.646242,2.626451e-07
C0X300,鹿寮,2025-05-20,23.386047,120.477331,7.105601e-09
G2AI50,關渡,2025-05-20,25.11575,121.492,0.11469667
C0K590,雲林東勢,2025-05-20,23.674192,120.255721,5.9368386e-09
C0A570,桶後,2025-05-20,24.848222,121.597992,5.698895e-08
C1S800,華源,2025-05-20,22.657883,121.02325,0.0021115728
C0G720,溪州,2025-05-20,23.851589,120.499093,6.2438534e-09
C1V160,達卡努瓦,2025-05-20,23.279811,120.705319,2.0974733e-09
C2M410,馬頭山,2025-05-20,23.324361,120.582017,1.8147754e-09
C0V850,蚵仔寮,2025-05-20,22.7256,120.2527,1.7808087e-07
C0S740,池上,2025-05-20,23.119628,121.209469,0.080501065
C1V390,尖山,2025-05-20,22.813153,120.367789,5.1089337e-08
C0AH70,松山,2025-05-20,25.04871,121.55042,1.0514445e-08
C0N010,鯤鯓國小,2025-05-20,23.1879,120.0889,8.676474e-09
C0R550,新埤,2025-05-20,22.467947,120.582894,0.9722998
C0SA60,知本（水試所）,2025-05-20,22.702394,121.082761,0.020166202
C0T9I0,豐濱,2025-05-20,23.583897,121.514806,0.00013359913
C0UB00,淡江大學蘭陽校園,2025-05-20,24.823239,121.730383,1.348725e-08
C0W240,九宮,2025-05-20,24.423753,118.240186,1.9086796e-08
C0T9N0,富里,2025-05-20,23.171639,121.249378,0.018716522
U2HA50,臺大竹山,2025-05-20,23.756972,120.681556,2.3110522e-09
C0V840,鳳鼻頭,2025-05-20,22.5083,120.3591,2.4161295e-07
C0X140,西港,2025-05-20,23.125608,120.203108,5.217323e-09
72D080,桃改五峰分場,2025-05-20,24.612194,121.157167,8.345782e-10
C2H9P0,伊拿谷,2025-05-20,23.963211,121.088264,7.578107e-10
C2H9F0,柑林,2025-05-20,24.018658,120.847072,1.5942679e-09
C0TA20,加灣,2025-05-20,24.082025,121.608944,0.44481295
C0V530,阿蓮,2025-05-20,22.883208,120.327508,1.8943716e-08
C1O880,關山,2025-05-20,23.173397,120.594092,4.0304045e-09
C0E791,卓蘭,2025-05-20,24.3126,120.8244,1.971514e-09
C1I030,武界,2025-05-20,23.913225,121.052483,7.62424e-10
C0R520,崁頂,2025-05-20,22.514781,120.506914,0.5713699
C0R341,牡丹,2025-05-20,22.130036,120.792639,0.00010889836
C0R930,萬丹,2025-05-20,22.5885,120.4851,2.7906188e-07
C0S760,紅石,2025-05-20,23.069131,121.126219,6.000419e-09
C2C410,中央大學,2025-05-20,24.967652,121.185165,6.848978e-05
C1M610,石磐龍,2025-05-20,23.496606,120.663506,1.0372933e-09
C0UA10,鴛鴦湖,2025-05-20,24.590269,121.412228,4.8925166e-09
V2C260,八德蔬果,2025-05-20,24.978508,121.281819,1.2253234e-08
C0R800,丹路,2025-05-20,22.204481,120.750989,0.99892277
C0G920,永靖,2025-05-20,23.924703,120.547533,3.4810126e-09
C2M950,太和,2025-05-20,23.538372,120.702961,1.2578929e-09
C1A630,下盆,2025-05-20,24.771003,121.538622,9.374739e-10
B2N890,畜產試驗所,2025-05-20,23.058972,120.336406,3.4924645e-09
C0UA30,白嶺,2025-05-20,24.527819,121.519031,4.4209476e-09
C1V580,溪南(特生中心),2025-05-20,23.084972,120.788475,2.8237563e-09
C1T970,大農,2025-05-20,23.615233,121.413331,4.0029016e-05
C0R650,竹田,2025-05-20,22.58486,120.54344,0.0034431214
C1H900,清流,2025-05-20,24.080775,120.962997,1.1420089e-09
C1C510,水尾,2025-05-20,24.940081,121.087161,0.118272014
C0F9X0,大雅(中科園區),2025-05-20,24.21528,120.62445,6.2648127e-09
C0SB60,白守蓮,2025-05-20,23.126769,121.401914,0.99370074
C0O970,虎頭埤,2025-05-20,23.021375,120.347878,1.198186e-08
C0C730,中大臨海站,2025-05-20,24.966126,121.008581,0.20765968
C0X250,新營,2025-05-20,23.310689,120.316681,3.993293e-09
C0V700,三民,2025-05-20,22.645017,120.311233,1.3907442e-07
C0U870,大礁溪,2025-05-20,24.791042,121.675047,3.0371257e-09
C0E870,高鐵苗栗,2025-05-20,24.60725,120.826094,4.8207274e-09
A2K570,古坑花卉中心,2025-05-20,23.63353,120.55239,7.022336e-09
C0TA30,鹽寮,2025-05-20,23.845606,121.592664,3.0587897e-05
C0M860,新美,2025-05-20,23.338017,120.683169,1.7672873e-09
C1E701,八卦,2025-05-20,24.491756,120.927619,9.438773e-10
C0I420,國姓,2025-05-20,24.037803,120.855072,1.4198007e-09
C2D720,關西工作站,2025-05-20,24.757275,121.184792,1.1423074e-09
C0S960,香蘭,2025-05-20,22.587569,120.993375,0.0004218971
467620,蘭嶼,2025-05-20,22.0369,121.55843,0.32920828
C0R260,春日,2025-05-20,22.370361,120.628306,0.99754983
72G600,臺中農改場,2025-05-20,24.003028,120.534389,5.904023e-09
C0Z210,瑞穗,2025-05-20,23.5239,121.39021,0.0018519008
C0M820,達邦,2025-05-20,23.453994,120.749517,1.1458993e-09
C0V860,南寮,2025-05-20,22.7616,120.2339,1.7754044e-07
C0G740,大城,2025-05-20,23.852487,120.320935,5.651607e-07
C0R920,塭仔,2025-05-20,22.4169,120.5197,0.99462914
C0R470,高樹,2025-05-20,22.826389,120.600806,2.0773482e-08
C0R680,佳樂水,2025-05-20,21.993578,120.861633,0.48196006
C1O870,大棟山,2025-05-20,23.31157,120.52226,2.5370184e-09
C0D360,梅花,2025-05-20,24.678347,121.208558,7.2618195e-10
C0Z190,富世,2025-05-20,24.14743,121.6297,1.430822e-05
C0AI10,屈尺,2025-05-20,24.92184,121.54475,1.5516114e-05
B2U990,畜試東區分所,2025-05-20,24.669039,121.832561,2.22015e-08
C0SB80,長濱漁港,2025-05-20,23.313644,121.459994,9.492749e-05
C0R240,來義,2025-05-20,22.527306,120.625111,0.12820794
C0V910,大樹,2025-05-20,22.684645,120.432803,4.90765e-08
C1R610,西大武山,2025-05-20,22.617719,120.7322,7.989728e-09
C0G900,線西,2025-05-20,24.143358,120.443536,3.764829e-06
C0M700,竹崎,2025-05-20,23.526178,120.555508,6.026237e-09
C2E880,三義,2025-05-20,24.405478,120.749819,7.8853224e-10
C0C720,竹圍,2025-05-20,25.112692,121.239824,0.11806202
C0F9P0,清水,2025-05-20,24.312297,120.562242,3.5060293e-07
C0Z150,吉安光華,2025-05-20,23.930925,121.595153,3.1603016e-05
467300,東吉島,2025-05-20,23.25727,119.66762,0.93580025
C1D640,外坪(五指山),2025-05-20,24.644447,121.090961,1.0674845e-09
C0F9O0,潭子,2025-05-20,24.213106,120.703933,1.099964e-08
C2H9R0,卓社,2025-05-20,23.887894,121.000086,8.465607e-10
72T250,花蓮農改場,2025-05-20,23.975222,121.563889,0.034832515
C0E780,銅鑼,2025-05-20,24.489681,120.790853,1.1604754e-09
C1T950,太安,2025-05-20,23.666719,121.370128,1.3086655e-09
C0E830,苑裡,2025-05-20,24.439714,120.653053,1.7771248e-08
467270,田中,2025-05-20,23.873803,120.581286,6.832816e-09
C0SA10,檳榔四格山,2025-05-20,22.810031,121.109308,0.0004232381
C1T830,布洛灣,2025-05-20,24.17184,121.57127,8.779423e-08
C0F970,大坑,2025-05-20,24.173142,120.722289,1.456846e-08
C1U920,思源,2025-05-20,24.393125,121.347214,2.4090803e-09
C0A931,三和,2025-05-20,25.233153,121.595236,4.7404525e-09
C0I010,廬山,2025-05-20,24.033311,121.181808,1.910875e-09
C2M940,日野賀,2025-05-20,23.434056,120.727169,1.2692492e-09
C0R860,鼻頭,2025-05-20,22.1043,120.8979,0.91122115
C0UB20,壯圍,2025-05-20,24.7359,121.8163,3.0108378e-08
C0R790,九棚,2025-05-20,22.14195,120.889281,0.0012911488
C0W110,東莒,2025-05-20,25.9652,119.98069,6.3809557e-07
C1U930,粉鳥林,2025-05-20,24.497088,121.842479,5.4235035e-05
C1I211,蘆竹湳,2025-05-20,23.934019,120.811994,1.0346731e-09
C0S830,長濱,2025-05-20,23.286817,121.411975,1.470748e-06
C1F9F1,伯公龍,2025-05-20,24.272392,120.849047,1.916796e-09
C0E810,西湖,2025-05-20,24.562947,120.7485,4.9175144e-09
C1I440,新高口,2025-05-20,23.478744,120.878939,5.1934945e-09
C0O840,王爺宮,2025-05-20,23.222064,120.40085,6.9666246e-09
C0T9G0,鳳林山,2025-05-20,23.735269,121.420131,1.6793289e-08
C0X080,佳里,2025-05-20,23.173039,120.145086,8.735339e-09
C0FB70,大甲溪埔,2025-05-20,24.370625,120.620067,3.8323016e-08
C0Z310,清水斷崖,2025-05-20,24.218294,121.689142,6.6329333e-09
C0M680,太保,2025-05-20,23.455062,120.331455,2.4465183e-09
C1S820,金峰,2025-05-20,22.590969,120.933236,1.8667262e-05
C0AD10,八里,2025-05-20,25.150211,121.403947,0.13011049
C2K240,草嶺,2025-05-20,23.59555,120.693461,6.656681e-10
C1SA70,都蘭,2025-05-20,22.87794,121.226881,0.005842558
C0K440,二崙,2025-05-20,23.772797,120.408944,6.6583095e-09
C1A760,坪林交控,2025-05-20,24.94284,121.713442,8.262002e-09
C0F9N0,大里,2025-05-20,24.092464,120.701378,9.349583e-09
C0SA90,達仁林場,2025-05-20,22.264347,120.823972,0.0019711214
C1R290,石門山,2025-05-20,22.112611,120.756597,0.9565148
42HA10,萬大發電廠,2025-05-20,23.978875,121.139639,9.2717245e-10
C0R890,山海,2025-05-20,21.9878,120.7091,0.14351636
C0T9A0,月眉山,2025-05-20,23.809928,121.539828,5.2208966e-09
C0AC70,信義,2025-05-20,25.037822,121.564597,1.05127205e-08
C0K560,棋山,2025-05-20,23.68645,120.603417,6.153785e-09
C2FB50,出雲,2025-05-20,24.206469,120.902794,1.1267789e-09
C1Z240,中平林道,2025-05-20,23.42115,121.26763,1.8671902e-09
U2H480,溪頭,2025-05-20,23.670306,120.798194,8.844813e-10
C0M880,好美里,2025-05-20,23.3364,120.138,5.843169e-09
C0T9E0,大坑,2025-05-20,23.880628,121.581981,8.588108e-09
C0K530,臺西,2025-05-20,23.701547,120.197559,2.693508e-08
C1E900,國一N128K,2025-05-20,24.560997,120.844186,2.563357e-09
C0AJ50,水湳洞,2025-05-20,25.123695,121.862238,1.8399689e-08
C0AI20,白沙灣,2025-05-20,25.283128,121.519058,6.233916e-05
C2V310,美濃,2025-05-20,22.898792,120.51907,8.859473e-09
C0A860,大坪,2025-05-20,25.165914,121.632969,1.1513039e-09
C1U850,觀音海岸,2025-05-20,24.38319,121.77856,9.966594e-10
C2K610,草嶺石壁,2025-05-20,23.602469,120.707731,6.7927514e-10
C0U950,鶯子嶺,2025-05-20,24.89754,121.79244,1.5463083e-09
C0O900,善化,2025-05-20,23.112883,120.297219,3.8692067e-09
C0K550,蔦松,2025-05-20,23.514319,120.229736,8.372524e-09
E2P980,林試六龜中心,2025-05-20,22.991703,120.645722,3.4440686e-09
C0E590,通霄,2025-05-20,24.471892,120.704622,5.9186807e-09
C1I310,西巒,2025-05-20,23.754486,120.883956,1.124945e-09
C0A550,泰平,2025-05-20,24.971197,121.823711,1.0648694e-09
C0I360,水里,2025-05-20,23.812553,120.849792,1.2064733e-09
C0R830,高士,2025-05-20,22.121825,120.836781,0.914894
C1I101,溪頭,2025-05-20,23.661789,120.807647,2.5076763e-09
C0AJ20,野柳,2025-05-20,25.20703,121.690021,2.0651884e-08
C0B060,暖暖,2025-05-20,25.0957,121.7403,1.0897608e-08
C1H920,長豐,2025-05-20,24.102039,120.879897,1.3005659e-09
C0V360,內門,2025-05-20,22.975481,120.466769,7.869775e-09
C0R850,林邊,2025-05-20,22.4634,120.5339,0.9800084
C0E930,龍鳳,2025-05-20,24.700034,120.859125,2.0165212e-08
C0U910,冬山,2025-05-20,24.63373,121.7937,2.22015e-08
C1E721,泰安,2025-05-20,24.489017,120.968036,9.604966e-10
82H320,茶改中部分場,2025-05-20,23.875611,120.913583,1.0511874e-09
C0M750,布袋,2025-05-20,23.380878,120.167789,4.8181903e-09
C1S860,利嘉,2025-05-20,22.809417,121.050528,1.0736459e-07
E2S980,林試太麻里1,2025-05-20,22.598922,120.980044,0.00010461987
C0X170,關廟,2025-05-20,22.963017,120.327797,9.51259e-09
C0V720,林園,2025-05-20,22.507747,120.394511,5.3337844e-06
C1I510,線浸林道,2025-05-20,23.761508,120.832956,1.4143463e-09
C0D690,外湖,2025-05-20,24.917735,120.968711,0.2817168
C0C750,新興坑尾,2025-05-20,25.0061,121.0971,0.13190725
B2Q810,畜試南區分所,2025-05-20,21.945583,120.802167,0.46111345
C0S790,金崙,2025-05-20,22.538122,120.966875,2.1633474e-05
C0AH90,福山植物園,2025-05-20,24.760717,121.58135,1.3578152e-09
C0I540,奇萊稜線,2025-05-20,24.109231,121.326456,1.18479155e-08
C0M850,表湖,2025-05-20,23.24186,120.64166,1.4104025e-09
C0S770,大溪山,2025-05-20,22.478475,120.943325,6.4848628e-06
C0AG80,中和,2025-05-20,24.991622,121.491792,3.6287034e-08
C0T790,大禹嶺,2025-05-20,24.186117,121.316086,7.553608e-09
C0T9B0,水源,2025-05-20,23.991861,121.537169,2.0795484e-08
C0R840,牡丹池山,2025-05-20,22.168389,120.841225,0.0044635185
C1I131,桶頭,2025-05-20,23.641944,120.654117,1.4527164e-09
CAL110,布袋國中,2025-05-20,23.35893,120.18026,4.364128e-09
467571,新竹,2025-05-20,24.827853,121.014219,4.2767624e-07
C0Z290,赤柯山,2025-05-20,23.36893,121.38293,1.320259e-08
C0X280,將軍,2025-05-20,23.214999,120.13577,5.8115806e-09
C0S690,太麻里,2025-05-20,22.60902,120.98533,7.8191224e-05
C0U880,北關,2025-05-20,24.9072,121.8734,1.3139459e-08
C0G810,埔心,2025-05-20,23.947633,120.525456,3.562876e-09
C0U970,大福,2025-05-20,24.80064,121.81389,3.6374698e-07
C2H9N0,仁愛東眼,2025-05-20,24.026875,121.1205,1.6555265e-09
C1E670,南礦,2025-05-20,24.538278,121.002836,7.274809e-10
C0M520,東後寮,2025-05-20,23.369908,120.248065,4.0440344e-09
C1E461,松安,2025-05-20,24.397972,120.986022,1.1937328e-09
C2N160,西拉雅風管處,2025-05-20,23.189481,120.335297,3.5878556e-09
C2M970,碧湖,2025-05-20,23.568632,120.624165,6.355376e-10
C0A640,石碇,2025-05-20,24.993969,121.662917,1.411774e-06
E2S960,林試太麻里2,2025-05-20,22.598,120.99775,0.00058479514
C0F9Y0,桃山,2025-05-20,24.432739,121.303808,1.759294e-08
C1I020,萬大,2025-05-20,23.979817,121.132261,7.56983e-10
C0U940,羅東,2025-05-20,24.68184,121.74934,2.5852524e-08
C0M650,朴子,2025-05-20,23.43463,120.23902,3.4570076e-09
C1I500,大尖山,2025-05-20,23.858572,120.994889,3.7754697e-09
C0G820,田尾,2025-05-20,23.901669,120.509389,3.5451428e-09
E2K600,四湖植物園,2025-05-20,23.676986,120.163433,1.9019275e-08
C0S730,綠島,2025-05-20,22.6672,121.47533,0.026906056
12Q970,東港工作站,2025-05-20,22.479997,120.466058,0.98111975
C0E430,南庄,2025-05-20,24.601775,121.000214,1.0093121e-09
C1TA00,太魯閣,2025-05-20,24.15773,121.6236,3.7812083e-06
466920,臺北,2025-05-20,25.037658,121.514853,1.0514445e-08
C0R600,舊泰武,2025-05-20,22.588194,120.664944,1.6150248e-09
C1I260,北坑,2025-05-20,23.9246,121.006903,9.920167e-10
466910,鞍部,2025-05-20,25.182586,121.529731,6.221347e-10
C1I230,九份二山,2025-05-20,23.961944,120.845,7.6766105e-10
C2A660,瑞芳,2025-05-20,25.113169,121.801147,1.00642525e-08
C0R270,琉球嶼,2025-05-20,22.332244,120.362236,0.889311
C1T990,高寮,2025-05-20,23.394239,121.356808,0.00046197255
C0G620,芬園,2025-05-20,24.015678,120.6213,2.3808093e-09
C1Z140,荖溪,2025-05-20,23.890575,121.45964,1.6232342e-08
C1I201,中心崙,2025-05-20,23.728722,120.712097,6.4353095e-10
C1I400,凌霄,2025-05-20,24.018778,121.004456,1.6080504e-09
C1M640,十字,2025-05-20,23.492153,120.753683,2.5344162e-09
G2P820,農試鳳山分所,2025-05-20,22.646611,120.356083,1.0710811e-07
C0Z270,蕃薯寮,2025-05-20,23.73835,121.540108,5.999323e-08
C0F9Q0,外埔,2025-05-20,24.347817,120.705686,3.3257197e-09
C0K580,高鐵雲林,2025-05-20,23.737456,120.417944,6.2695706e-09
C2I090,鳳凰,2025-05-20,23.728081,120.787347,9.576246e-10
C0U990,員山,2025-05-20,24.74435,121.72247,2.8627435e-08
C0V770,大社,2025-05-20,22.730306,120.346639,1.4443712e-07
C0X120,麻豆,2025-05-20,23.183289,120.248611,2.0775255e-09
C0C670,龍潭,2025-05-20,24.870056,121.221389,3.3584653e-09
C0D680,香山濕地,2025-05-20,24.783581,120.914988,3.9394217e-09
C0S980,勝林山,2025-05-20,22.430439,120.8938,4.6732314e-08
C0V730,大寮,2025-05-20,22.605614,120.395717,1.4552802e-05
C0R570,麟洛,2025-05-20,22.65078,120.52719,1.7571351e-07
C2M930,石卓,2025-05-20,23.478744,120.702264,3.5879035e-09
C0G9B0,和美,2025-05-20,24.105169,120.492131,6.857914e-08
CAG100,王功漁港,2025-05-20,23.96824,120.32586,1.6377095e-06
C0X290,北門,2025-05-20,23.267772,120.125481,5.848599e-09
C2F930,大甲,2025-05-20,24.347667,120.640403,2.0978263e-08
C0D650,湖口,2025-05-20,24.904794,121.043628,0.13298482
C0E420,竹南,2025-05-20,24.708978,120.888897,1.3864092e-08
C0U780,五結,2025-05-20,24.68637,121.79794,3.0093798e-08
C1I250,鯉潭,2025-05-20,23.961922,120.991131,8.549891e-10
C0R130,阿禮,2025-05-20,22.742908,120.743678,7.681345e-09
C0X100,臺南市北區,2025-05-20,23.010394,120.194228,1.4316032e-08
C0S920,金峰嘉蘭,2025-05-20,22.594789,120.960825,9.177834e-05
C0V490,新興,2025-05-20,22.627422,120.298803,4.7063685e-07
C0F9K0,大安,2025-05-20,24.345061,120.588025,4.327947e-08
467290,古坑,2025-05-20,23.633639,120.551889,7.022336e-09
C2E970,八甲,2025-05-20,24.535811,120.795983,1.3959184e-09
C0V440,鳳山,2025-05-20,22.646653,120.356122,1.0710811e-07
C1T940,大觀,2025-05-20,23.714206,121.373133,8.187112e-09
C0E740,造橋,2025-05-20,24.637056,120.864778,3.7897405e-09
C0R100,尾寮山,2025-05-20,22.833111,120.683889,1.03748965e-08
A2K630,臺大雲林校區,2025-05-20,23.730628,120.423903,6.2730754e-09
467990,馬祖,2025-05-20,26.169467,119.923158,7.648277e-09
C0D580,寶山,2025-05-20,24.735006,121.025192,1.225559e-09
E2P990,林試扇平站,2025-05-20,22.9677,120.6857,2.1635268e-08
C0AI30,三重,2025-05-20,25.057328,121.500629,1.1097611e-08
C0AH00,汐止,2025-05-20,25.066881,121.658778,1.0514445e-08
C1Z040,立山,2025-05-20,23.443356,121.327375,1.912134e-08
466881,新北,2025-05-20,24.959207,121.525196,3.1440667e-08
C0W130,花嶼,2025-05-20,23.40007,119.32276,0.038086567
C0A950,鼻頭角,2025-05-20,25.129036,121.923372,0.9002965
C0K470,林內,2025-05-20,23.748675,120.609642,3.564453e-09
C2F990,摩天嶺,2025-05-20,24.322458,120.936819,1.323218e-09
82C160,茶改場,2025-05-20,24.908472,121.185333,4.1342723e-08
C0Z320,清水林道,2025-05-20,23.27125,121.188272,1.683662e-08
C0R760,南仁湖,2025-05-20,22.084681,120.863353,0.9566458
C0M670,大林,2025-05-20,23.600616,120.45841,1.9390096e-09
C0M800,茶山,2025-05-20,23.299075,120.664767,2.344095e-09
C0A9C0,天母,2025-05-20,25.117494,121.537169,8.659069e-08
72K220,南改斗南分場,2025-05-20,23.634556,120.477333,4.431678e-09
72AI40,桃改樹林分場,2025-05-20,24.944503,121.386972,5.312269e-07
C0S910,蘭嶼燈塔,2025-05-20,22.081197,121.503117,0.121969074
C0B050,八斗子,2025-05-20,25.144754,121.79167,2.2135243e-08
C0U900,內城,2025-05-20,24.71813,121.68766,2.0656255e-08
C0X320,柳營,2025-05-20,23.253328,120.375253,9.014021e-09
C0M790,新港,2025-05-20,23.553269,120.345728,2.357416e-09
C0F9T0,西屯,2025-05-20,24.179494,120.641275,2.509936e-08
C0SA30,都歷,2025-05-20,23.020333,121.323642,0.04030611
C0C620,蘆竹,2025-05-20,25.084275,121.265767,0.07261803
C0R730,大坪頂,2025-05-20,22.024633,120.69355,0.8806612
C0AJ40,石門,2025-05-20,25.273672,121.601198,1.8225486e-06
C0E750,苗栗,2025-05-20,24.564569,120.824575,2.600498e-09
C0T870,鯉魚潭,2025-05-20,23.935639,121.508944,6.4881823e-07
C1V170,排雲,2025-05-20,23.463619,120.954147,1.6231816e-08
C2H950,中寮,2025-05-20,23.884447,120.766406,3.662774e-09
C0R350,貓鼻頭,2025-05-20,21.921774,120.7358,0.25306684
C0V660,岡山,2025-05-20,22.797078,120.294958,4.3875833e-08
C1H941,雙冬,2025-05-20,23.967378,120.802189,9.782756e-10
C0AJ70,田寮,2025-05-20,25.2698,121.4886,6.6350935e-05
C0AI00,五股,2025-05-20,25.07445,121.42728,1.3970271e-08
C0Z280,德武,2025-05-20,23.47426,121.41071,1.893976e-06
C0R700,枋山,2025-05-20,22.246844,120.661086,0.9720068
C0C460,復興,2025-05-20,24.820208,121.352281,1.5573486e-09
E2H360,蓮華池,2025-05-20,23.918333,120.885278,9.429866e-10
C0M640,中埔,2025-05-20,23.42538,120.5229,3.751509e-09
C0W140,金沙,2025-05-20,24.488292,118.408778,3.6619447e-08
C2A540,四堵,2025-05-20,24.8926,121.745736,1.1045931e-09
C0ACA0,新莊,2025-05-20,25.051478,121.446756,4.1550315e-08
C0R220,潮州,2025-05-20,22.534361,120.54,0.5440941
U2HA40,臺大內茅埔,2025-05-20,23.689722,120.851117,1.1837474e-09
467490,臺中,2025-05-20,24.145736,120.684075,2.4009207e-08
C0U960,翠峰湖,2025-05-20,24.510856,121.608044,8.055756e-09
E2HA20,林試畢祿溪站,2025-05-20,24.226944,121.308522,5.207868e-09
C0V890,前鎮,2025-05-20,22.5718,120.3117,5.125082e-07
C1F941,雪嶺,2025-05-20,24.280586,121.026642,9.870797e-09
C2H9E0,國姓南港,2025-05-20,23.911108,120.846556,8.9785485e-10
C0AC80,文山,2025-05-20,25.00235,121.575728,2.6985578e-08
C0F9R0,龍井,2025-05-20,24.184536,120.528972,8.0538675e-06
C0M760,民雄,2025-05-20,23.551754,120.428457,2.0723965e-09
C0UA40,西德山,2025-05-20,24.560647,121.752608,3.8852175e-09
C1T920,中興,2025-05-20,23.769503,121.498653,3.493797e-06
C0D550,雪霸,2025-05-20,24.526972,121.11605,4.2550234e-09
C2F860,梨山,2025-05-20,24.247522,121.243669,5.394985e-09
C0R320,車城,2025-05-20,22.0744,120.716247,0.5502871
C1S870,南美山,2025-05-20,23.15025,121.382333,0.02051082
C0B020,基隆嶼,2025-05-20,25.19141,121.78391,0.1258448
C1U501,牛鬥,2025-05-20,24.637836,121.573656,3.761066e-09
C0M730,嘉義市東區,2025-05-20,23.457673,120.460531,3.4903802e-09
C0S700,知本,2025-05-20,22.684866,121.005642,9.670994e-07
C1N001,沙崙,2025-05-20,22.935472,120.309406,1.0426992e-08
C0V760,橋頭,2025-05-20,22.757806,120.30575,1.4929502e-07
C0G960,福寶,2025-05-20,24.0443,120.3814,8.276847e-08
C0X210,白河,2025-05-20,23.347466,120.414427,4.4212345e-09
C0S810,東河,2025-05-20,22.972672,121.303986,0.16502194
C2R170,屏東,2025-05-20,22.66027,120.49403,1.7546819e-07
C0R670,楓港,2025-05-20,22.190131,120.692156,0.9103802
C0FA50,霧峰,2025-05-20,24.0419,120.6995,5.7096305e-09
C0UB10,蘇澳,2025-05-20,24.5969,121.8571,1.6569743e-08
C0G950,防潮門,2025-05-20,24.1835,120.4871,7.705245e-06
C0M740,六腳,2025-05-20,23.492871,120.290625,2.0396755e-09
C1R250,力里,2025-05-20,22.428117,120.629228,0.9741281
C0K330,虎尾,2025-05-20,23.719183,120.442036,5.740325e-09
C2FA00,烏石坑,2025-05-20,24.273503,120.947617,1.3271206e-09
C0V620,永安,2025-05-20,22.82315,120.236856,4.376876e-08
C1I330,楓樹林,2025-05-20,23.986803,121.076117,8.778828e-10
C0W200,湖西,2025-05-20,23.596314,119.67275,0.9805572
72Q010,高雄農改場,2025-05-20,22.709333,120.525889,5.3823147e-08
C0SA40,瑞和,2025-05-20,22.974361,121.156697,0.004941635
C0C680,龜山,2025-05-20,25.02846,121.38656,1.667844e-05
C2V260,月眉,2025-05-20,22.971003,120.539853,2.2959002e-08
C0V450,鳳森,2025-05-20,22.545064,120.392592,1.5192414e-06
C0U720,南山,2025-05-20,24.43742,121.38167,3.4956502e-09
A2N290,臺南蘭花園區,2025-05-20,23.340258,120.379661,3.87058e-09
C0R560,新園,2025-05-20,22.5434,120.461558,5.3337844e-06
C0U890,三星,2025-05-20,24.66812,121.65302,8.292567e-09
C1V300,御油山,2025-05-20,23.001983,120.715364,2.5982125e-09
C0U600,礁溪,2025-05-20,24.817539,121.765608,2.1025487e-06
C1T980,龍澗,2025-05-20,24.023289,121.411328,1.281114e-08
C0D670,海天一線,2025-05-20,24.831986,120.914438,0.014681945
C0SA00,歷坵,2025-05-20,22.520969,120.89185,5.639692e-07
C0M710,東石,2025-05-20,23.458927,120.15385,3.0232908e-08
C0M780,鹿草,2025-05-20,23.41134,120.30835,3.3402903e-09
C0U520,雙連埤,2025-05-20,24.753033,121.641303,3.0406904e-09
C0B010,七堵,2025-05-20,25.094819,121.71713,1.5827373e-08
C0R480,長治,2025-05-20,22.693128,120.542622,4.1147388e-08
C1V830,國三S383K,2025-05-20,22.781967,120.426475,3.0672595e-08
12Q980,恆春工作站,2025-05-20,22.079678,120.714425,0.55068386
C1O940,東山服務區,2025-05-20,23.286016,120.398472,6.718305e-09
C1U840,東澳嶺,2025-05-20,24.5378,121.8485,1.2745596e-09
C1D630,飛鳳山,2025-05-20,24.766464,121.119178,8.623706e-10
C0S940,石寧山,2025-05-20,23.223772,121.406639,8.7055654e-05
C0K410,北港,2025-05-20,23.573957,120.292802,4.8082387e-09
C2M620,瑞里,2025-05-20,23.545133,120.675197,1.1507946e-09
C0SB70,小港漁港,2025-05-20,23.158558,121.400431,0.84883153
C2O950,安南,2025-05-20,23.076694,120.144861,2.0686496e-08
C0F0E0,南湖圈谷,2025-05-20,24.363714,121.444667,2.3131879e-08
467610,成功,2025-05-20,23.097486,121.373428,0.99251884
C0G890,伸港,2025-05-20,24.148933,120.484403,3.8751386e-06
C2E540,龍溪,2025-05-20,24.606489,120.783933,4.9765436e-09
C1V200,梅山,2025-05-20,23.268447,120.823556,2.415614e-09
C0T9H0,加路蘭山,2025-05-20,23.682947,121.5274,1.6922096e-08
C2O930,玉井,2025-05-20,23.126042,120.46055,1.4399639e-08
C1F911,新伯公,2025-05-20,24.221361,120.841069,3.1238907e-09
C0R490,九如,2025-05-20,22.7405,120.490503,6.015238e-08
C0X200,左鎮,2025-05-20,23.056758,120.408522,1.6975434e-08
C0SB50,叭嗡嗡,2025-05-20,23.047062,121.343223,0.27807105
C1F891,稍來,2025-05-20,24.265689,121.001142,6.9943313e-09
72N240,七股研究中心,2025-05-20,23.081672,120.062894,1.5609777e-08
C0C700,中壢,2025-05-20,24.977661,121.256375,1.0242785e-08
C0M690,水上,2025-05-20,23.419734,120.388909,2.1751154e-09
C0V690,鼓山,2025-05-20,22.623325,120.275575,4.7034206e-07
C0O860,大內,2025-05-20,23.11885,120.36083,3.5324939e-09
C0Z200,萬榮,2025-05-20,23.709219,121.420106,7.2812986e-07
C0T9D0,和中,2025-05-20,24.26676,121.74103,0.00043241892
C1O921,楠西,2025-05-20,23.183511,120.484083,2.2243928e-08
C0AJ30,淡水觀海,2025-05-20,25.184591,121.408616,7.829584e-07
C0V810,左營,2025-05-20,22.67491,120.28491,1.39265e-07
C0UA70,桃源谷,2025-05-20,24.962606,121.888875,2.6194047e-09
C0X130,官田,2025-05-20,23.193217,120.315422,3.730858e-09
C1H000,翠峰,2025-05-20,24.109397,121.205211,4.5429984e-09
C0UA90,石城,2025-05-20,24.980444,121.951214,2.0481165e-08
C1E681,南勢山,2025-05-20,24.421669,120.923831,7.8487844e-10
C0A9F0,內湖,2025-05-20,25.079422,121.57545,1.0514445e-08
C0K291,宜梧,2025-05-20,23.536281,120.169329,8.352028e-09
C1K540,口湖,2025-05-20,23.585344,120.180517,1.8266672e-08
C0R780,滿州,2025-05-20,22.024403,120.839892,0.476913
C0V870,文安,2025-05-20,22.8025,120.2164,4.561721e-08
C0U650,玉蘭,2025-05-20,24.675286,121.587061,3.1667546e-09
C0R640,東港,2025-05-20,22.46247,120.44074,0.9810725
C0AJ80,板橋,2025-05-20,25.0107,121.4489,3.875435e-08
C0S660,下馬,2025-05-20,23.150427,121.070312,2.5100174e-08
C1H9B1,阿眉,2025-05-20,24.1263,120.994672,5.3740545e-09
C0UA20,多加屯,2025-05-20,24.368614,121.373189,7.3367383e-09
C0E730,頭份,2025-05-20,24.688247,120.912206,1.4839202e-08
72V140,高改旗南分場,2025-05-20,22.857861,120.516667,1.1919018e-08
C0K480,莿桐,2025-05-20,23.761192,120.502372,8.56465e-09
C0U980,坪林石牌,2025-05-20,24.86478,121.77396,5.204035e-09
C0T900,西林,2025-05-20,23.8119,121.441458,2.9433374e-07
C1I150,青雲,2025-05-20,23.793361,120.949378,1.0250422e-09
467350,澎湖,2025-05-20,23.565503,119.563094,0.80315006
C0G800,埔鹽,2025-05-20,24.000394,120.431683,4.8121034e-08
C0H960,草屯,2025-05-20,23.973672,120.68085,4.977816e-09
C1V780,多納林道,2025-05-20,22.888028,120.737917,9.745974e-10
C0E920,通霄漁港,2025-05-20,24.498589,120.673876,9.568108e-09
C0Z330,安通山,2025-05-20,23.290728,121.348528,2.3508075e-08
C0AH10,永和,2025-05-20,25.01125,121.508111,3.8542563e-08
C0AK10,太平里,2025-05-20,25.134937,121.364899,0.074579455
C2G640,鹿港,2025-05-20,24.0753,120.430481,8.228931e-08
C1E890,國三N149K,2025-05-20,24.463414,120.680019,8.756925e-09
C1R110,口社,2025-05-20,22.770111,120.645222,2.9838714e-07
C1M870,國三N285K,2025-05-20,23.550319,120.505833,9.053824e-09
C1E480,鳳美,2025-05-20,24.554803,121.034747,8.577266e-10
C0M530,奮起湖,2025-05-20,23.493903,120.699253,1.272961e-09
C0C590,觀音,2025-05-20,25.027072,121.153317,0.005338349
C0T9M0,靜浦,2025-05-20,23.455167,121.495028,5.5171393e-05
C2H9M0,發祥,2025-05-20,24.154094,121.164517,1.5893463e-09
C0AI40,石牌,2025-05-20,25.115597,121.513139,9.395063e-08
C1F871,上谷關,2025-05-20,24.203483,121.018644,1.1097077e-09
C2H9G0,百勝,2025-05-20,24.051142,120.909361,1.9641087e-09
C0G880,二水,2025-05-20,23.810742,120.6173,2.7062779e-09
C0R940,加祿堂,2025-05-20,22.3363,120.6217,0.90128845
C0W220,北竿,2025-05-20,26.220358,119.974881,1.2458545e-08
C0O960,崎頂,2025-05-20,22.959547,120.369317,6.1682273e-09
C0S750,向陽,2025-05-20,23.248397,120.986133,4.395153e-09
C0T9F0,水璉,2025-05-20,23.797131,121.542514,5.939163e-08
C1M600,頭凍,2025-05-20,23.406364,120.603339,1.4658399e-09
467660,臺東,2025-05-20,22.752211,121.154586,0.2899079
C1D380,新埔,2025-05-20,24.84745,121.03834,3.0395032e-08
C2G980,田頭村,2025-05-20,23.8263,120.444175,6.656519e-09
C0V750,路竹,2025-05-20,22.854997,120.259439,1.2622057e-07
C0N050,蚵寮,2025-05-20,23.301,120.1104,5.841141e-09
72M700,南改鹿草分場,2025-05-20,23.416869,120.283061,3.4411007e-09
C1SA50,利嘉林道,2025-05-20,22.82325,121.009389,8.854485e-10
C0A940,金山,2025-05-20,25.223628,121.643967,1.7882774e-08
C1V340,大津,2025-05-20,22.888322,120.645986,1.8645135e-07
C0W180,七美,2025-05-20,23.219333,119.444892,0.46499926
C1F9C1,白冷,2025-05-20,24.182844,120.929889,1.5083721e-09
K2E710,苗改生物防治研究中心,2025-05-20,24.422861,120.871833,1.1076903e-09
C0N040,蘆竹溝,2025-05-20,23.2344,120.0961,5.847517e-09
C2W230,畜試所澎湖,2025-05-20,23.628342,119.513206,0.08428619
C0R880,後壁湖,2025-05-20,21.9457,120.7457,0.14122497
C1I280,埔中,2025-05-20,23.820778,120.642594,8.962157e-10
467790,墾丁雷達站,2025-05-20,21.948235,120.808028,0.6120904
C0W190,望安,2025-05-20,23.380564,119.494075,0.44580746
C0Z170,卓溪,2025-05-20,23.3443,121.3029,1.2662796e-05
C0F850,東勢,2025-05-20,24.246428,120.833047,2.6155607e-09
466900,淡水,2025-05-20,25.164889,121.448906,0.076649226
C0I370,魚池,2025-05-20,23.895703,120.94135,9.687354e-10
C0C630,大溪,2025-05-20,24.882853,121.265547,3.9540256e-09
C0A520,山佳,2025-05-20,24.974944,121.402008,5.9804493e-06
C0I110,竹山,2025-05-20,23.761225,120.688156,1.9028954e-09
82H840,茶改南部分場,2025-05-20,23.762528,120.7405,8.6521923e-10
C0G660,溪湖,2025-05-20,23.94835,120.479122,3.881114e-09
C1T800,洛韶,2025-05-20,24.204558,121.453956,5.825953e-09
C1T810,慈恩,2025-05-20,24.192044,121.388386,2.5627802e-09
C1E451,象鼻,2025-05-20,24.368617,120.940228,8.532069e-10
C0AC60,三峽,2025-05-20,24.939025,121.369728,2.7268754e-08
C0I490,萬大林道,2025-05-20,23.928228,121.091411,2.202065e-09
C1I290,豐丘,2025-05-20,23.668178,120.887417,9.023408e-10
C1I320,奧萬大,2025-05-20,23.952956,121.178556,9.056911e-10
C2M910,嘉義大學,2025-05-20,23.471325,120.485903,6.0996683e-09
C0U770,南澳,2025-05-20,24.44935,121.81022,5.024712e-08
C0A980,社子,2025-05-20,25.109508,121.469681,0.13348119
C0V800,六龜,2025-05-20,22.997889,120.633583,3.7701304e-09
C1G9D0,國一S218K,2025-05-20,23.890641,120.493253,4.006239e-09
C0E570,白沙屯,2025-05-20,24.549447,120.696803,9.7305985e-09
C2F9A0,中竹林,2025-05-20,24.103556,120.751061,1.2248299e-09
C0FA40,臺中電廠,2025-05-20,24.2146,120.4907,8.087726e-06
C2G9A0,畜試所彰化,2025-05-20,23.86045,120.557964,6.831982e-09
C0H9C0,合歡山,2025-05-20,24.143442,121.272547,1.39611345e-08
C0X060,下營,2025-05-20,23.22695,120.256261,3.081954e-09
G2M350,農試溪口農場,2025-05-20,23.58565,120.408111,2.2058777e-09
C0U860,頭城,2025-05-20,24.85323,121.8308,2.6532273e-06
C0R580,南州,2025-05-20,22.48591,120.50274,0.9810725
C0D430,峨眉,2025-05-20,24.6905,121.017189,9.419548e-10
C0G780,秀水,2025-05-20,24.03405,120.503869,5.9031673e-09
72N100,臺南農改場,2025-05-20,23.0605,120.342194,3.4461516e-09
C0S900,蘭嶼高中,2025-05-20,22.04909,121.51214,0.07316347
C1F9W0,德基,2025-05-20,24.254783,121.190261,5.2361946e-09
C1Z120,壽豐,2025-05-20,23.870853,121.508081,1.2697379e-05
C0W160,烏坵,2025-05-20,24.9944,119.44956,0.0003042708
C1I240,外大坪,2025-05-20,23.958697,120.917931,8.4328444e-10
C1I550,國六W023K,2025-05-20,23.979067,120.867742,1.6106657e-09
C0R870,興海,2025-05-20,21.9752,120.8439,0.46117133
C0R140,瑪家,2025-05-20,22.682903,120.686639,1.94927e-09
C0A530,坪林,2025-05-20,24.938183,121.70975,5.143789e-09
C0X260,後壁,2025-05-20,23.366358,120.362326,3.4816832e-09
C0Z230,和平,2025-05-20,24.30717,121.77007,0.000679508
C0G770,福興,2025-05-20,24.041289,120.437669,4.892444e-08
C0H9A0,神木村,2025-05-20,23.532742,120.843667,2.9346294e-09
C0I460,南投,2025-05-20,23.911469,120.687331,1.6409343e-08
C0I480,梅峰,2025-05-20,24.085272,121.173572,3.4927177e-09
C1V570,吉東,2025-05-20,22.85422,120.5454,1.0504283e-08
C2D740,屯原,2025-05-20,24.067969,121.209389,3.806417e-09
C2A560,福山,2025-05-20,24.776203,121.502811,1.3276978e-09
C0AH30,五分山,2025-05-20,25.07125,121.780794,9.083137e-10
C0FA10,松柏,2025-05-20,24.429115,120.617482,2.0132852e-08
72S200,東改班鳩分場,2025-05-20,22.829528,121.077694,0.003217998
72HA00,中改埔里分場,2025-05-20,23.903208,120.963364,9.578457e-10
C2H9W0,大坪頂農水,2025-05-20,24.043122,120.932781,1.2869986e-09
C0C650,平鎮,2025-05-20,24.897503,121.214636,7.2458293e-09
C0S930,延平,2025-05-20,22.902581,121.084058,0.000523586
C0UA60,樟樹山,2025-05-20,24.41393,121.78325,5.079888e-09
C1S670,摩天,2025-05-20,23.199503,121.027,5.8639578e-09
C0V630,茄萣,2025-05-20,22.906642,120.182608,5.5118342e-08
466940,基隆,2025-05-20,25.133314,121.740475,2.0974142e-08
C0X050,東河,2025-05-20,23.296598,120.385608,7.3956348e-09
C0R770,保力,2025-05-20,22.071122,120.764111,0.862791
G2L020,農試嘉義分所,2025-05-20,23.485028,120.473806,9.194086e-09
C0X240,關子嶺,2025-05-20,23.331169,120.508025,1.2687069e-09
C0I380,集集,2025-05-20,23.828206,120.801467,1.2428445e-09
466990,花蓮,2025-05-20,23.975128,121.613275,0.10187475
C1V220,小關山,2025-05-20,23.154217,120.813603,3.354816e-09
C1F9G1,慶福山,2025-05-20,24.180853,120.848378,9.2822705e-10
C0Z250,瑞穗林道,2025-05-20,23.49284,121.30688,2.0362936e-09
C0D590,新豐,2025-05-20,24.87068,120.97721,0.0010029066
C0A870,五指山,2025-05-20,25.132153,121.608692,5.99057e-10
C0UA50,西帽山,2025-05-20,24.555361,121.802628,1.3225897e-09
C0X160,仁德,2025-05-20,22.968258,120.257689,2.5191397e-08
C1H971,六分寮,2025-05-20,23.92507,120.6378,1.0965157e-09
C0W120,西嶼,2025-05-20,23.5626,119.468436,0.33382887
C0G650,員林,2025-05-20,23.946503,120.585597,2.7945446e-09
C0AD50,鶯歌,2025-05-20,24.951533,121.346294,1.8608661e-08
C2H9Q0,北東眼山,2025-05-20,24.120939,121.189303,4.8161506e-09
C2H9T0,名間竹圍,2025-05-20,23.859914,120.637572,1.0700735e-09
C0S990,山豬窟,2025-05-20,22.318619,120.857372,0.00082620216
C0X190,安平,2025-05-20,22.993161,120.152181,1.4331495e-08
C0K400,斗六,2025-05-20,23.720583,120.541127,4.618626e-09
12J990,口湖工作站,2025-05-20,23.589978,120.180394,1.8301057e-08
C0O830,北寮,2025-05-20,23.079561,120.495008,1.7001097e-08
C1D410,白蘭,2025-05-20,24.579364,121.079947,8.0840423e-10
C0S970,加津林,2025-05-20,22.416211,120.926942,0.008482022
C0D700,關西,2025-05-20,24.7977,121.1732,1.1593205e-09
C0M810,里佳,2025-05-20,23.389125,120.716647,1.7546852e-09
C0U750,龜山島,2025-05-20,24.841667,121.953133,0.0034368935
C0R810,內獅,2025-05-20,22.305064,120.642986,0.89845294
C1M390,龍美,2025-05-20,23.406728,120.654417,1.4956749e-09
C2FB60,頭櫃山,2025-05-20,24.129842,120.858925,1.4885174e-09
C1H840,國三N238K,2025-05-20,23.841008,120.707711,1.2521169e-09
CAQ030,崎峰國小,2025-05-20,22.42565,120.49521,0.9810725
C2E520,大湖,2025-05-20,24.414939,120.870872,1.057155e-09
467530,阿里山,2025-05-20,23.508208,120.813242,5.4213505e-09
C1E691,南湖,2025-05-20,24.40135,120.837533,7.035632e-10
C0FA30,梧棲,2025-05-20,24.256003,120.523381,3.4992917e-07
C1V231,高中,2025-05-20,23.134911,120.716711,9.264812e-10
C0AK30,硬漢嶺,2025-05-20,25.136097,121.426372,6.4295186e-10
C0F9V0,新社,2025-05-20,24.200172,120.815806,1.9278212e-09
C0H890,埔里,2025-05-20,23.972169,120.952425,1.7434891e-09
C0R690,墾丁,2025-05-20,21.966756,120.810269,0.9104205
C0F0D0,審馬陣,2025-05-20,24.381675,121.4203,1.868584e-08
C2W030,金門農試所,2025-05-20,24.448431,118.451786,2.2936199e-08
C0R820,白鷺,2025-05-20,22.454275,120.666219,4.8774687e-05
C1V190,南天池,2025-05-20,23.27403,120.91176,4.9587685e-09
K2E360,苗栗農改場,2025-05-20,24.495722,120.829111,1.4691287e-09
CAJ050,海口故事園區,2025-05-20,23.57543,120.14121,1.828302e-08
C2H9D0,三隻寮,2025-05-20,24.093078,120.861578,1.270814e-09
C0O990,媽廟,2025-05-20,22.99175,120.293525,1.6357095e-08
C0D480,打鐵坑,2025-05-20,24.849664,121.150789,3.338838e-09
C0Z220,和平林道,2025-05-20,24.343922,121.656317,1.6509803e-08
C0TA10,花蓮漁港,2025-05-20,23.995322,121.638331,0.16065377
72C440,桃園農改場,2025-05-20,24.950944,121.030583,0.27988765
C1E711,馬拉邦山,2025-05-20,24.367306,120.901656,7.2329426e-10
C0SB20,富岡,2025-05-20,22.792467,121.192669,0.027604949
C0D560,竹東,2025-05-20,24.767147,121.057881,1.3297735e-09
C0F9U0,南屯,2025-05-20,24.137006,120.637969,1.1428941e-08
C0M720,番路,2025-05-20,23.464657,120.554156,1.4325447e-09
C0F0A0,雪山圈谷,2025-05-20,24.388594,121.236339,2.1975932e-08
C1A9N0,四十份,2025-05-20,24.934158,121.593283,2.94977e-09
C0U760,東澳,2025-05-20,24.52196,121.83318,3.0906216e-05
C0X230,鹽水,2025-05-20,23.272621,120.247641,5.6809415e-09
C2H9H0,苗改南投蜂場,2025-05-20,23.852589,120.693481,3.2135576e-09
C0R950,萬隆國小,2025-05-20,22.507667,120.587817,0.22541294
467540,大武,2025-05-20,22.35572,120.90374,0.020363307
C0V370,古亭坑,2025-05-20,22.893178,120.401947,2.6115988e-08
C1I340,新興橋,2025-05-20,23.563333,120.868728,6.8832384e-10
C0SA80,土坂,2025-05-20,22.453108,120.887572,0.00012883969
C0R160,鹽埔,2025-05-20,22.739558,120.530778,5.244783e-08
C0AC40,大屯山,2025-05-20,25.175675,121.522408,7.7490325e-10
466850,五分山雷達站,2025-05-20,25.071182,121.781205,9.1945196e-10
C2H9L0,馬烈霸,2025-05-20,24.1512,121.201772,3.5732612e-09
C1AI50,國三N016K,2025-05-20,25.034164,121.619664,8.537445e-09
C1V600,藤枝,2025-05-20,23.071961,120.757042,5.419986e-09
C1E601,南勢,2025-05-20,24.572486,120.734842,3.0889984e-09
C0O980,新市,2025-05-20,23.061614,120.298197,3.84967e-09
C0K420,西螺,2025-05-20,23.800407,120.467394,6.467663e-09
C0Z050,佳心,2025-05-20,23.34567,121.21316,1.5768554e-08
C0AD30,蘆洲,2025-05-20,25.086594,121.472331,1.11260325e-08
C0V610,梓官,2025-05-20,22.760558,120.267211,1.4921531e-07
K2F750,種苗改良場,2025-05-20,24.225972,120.800917,2.395248e-09
C0UA80,大溪漁港,2025-05-20,24.941801,121.902955,3.5055002e-08
C1AI60,國一39K邊坡,2025-05-20,25.064361,121.383836,5.5817924e-05
C0W150,金寧,2025-05-20,24.457703,118.328989,2.0913422e-08
C0R960,內埔,2025-05-20,22.608483,120.570714,0.002811768
V2C250,八德合作社,2025-05-20,24.93775,121.266389,1.089287e-08
C2H9S0,龍南,2025-05-20,23.953536,120.833183,1.0145039e-09
C0AH40,平等,2025-05-20,25.129142,121.577086,9.2417624e-10
C0R540,佳冬,2025-05-20,22.419456,120.552375,0.9951952
466950,彭佳嶼,2025-05-20,25.627975,122.079744,0.99932915
C0A890,雙溪,2025-05-20,25.036003,121.864242,1.518809e-08
C0C480,桃園,2025-05-20,24.992425,121.323172,1.3612388e-08
C0AH50,林口,2025-05-20,25.072181,121.38084,8.939875e-06
A2K360,水試臺西試驗場,2025-05-20,23.717231,120.190522,2.821222e-08
C2M960,外寮,2025-05-20,23.562643,120.665688,6.472176e-10
C0F9S0,烏日,2025-05-20,24.107058,120.624103,7.3137127e-09
C0C490,八德,2025-05-20,24.928708,121.283289,1.0826876e-08
C0R190,赤山,2025-05-20,22.592333,120.614306,0.0016866728
C0T820,天祥,2025-05-20,24.179597,121.495639,1.4302767e-08
C1F9E1,龍安,2025-05-20,24.1605,120.831961,1.6927413e-09
C0V820,小林,2025-05-20,23.148408,120.63325,1.5900377e-09
C2G870,芳苑,2025-05-20,23.922303,120.320025,1.2386148e-06
C0E850,大河,2025-05-20,24.618069,120.948578,1.6152928e-09
C1U670,寒溪,2025-05-20,24.634,121.71691,1.1016102e-08
C0N020,城西,2025-05-20,23.0568,120.0956,1.0941637e-08
C1Z110,三棧,2025-05-20,24.11557,121.60501,2.2755971e-08
C0R280,檳榔,2025-05-20,22.076078,120.836777,0.97081506
C2H9J0,中台,2025-05-20,23.9996,120.938739,1.764788e-09
C0F9L0,后里,2025-05-20,24.310436,120.729725,2.1434856e-09
467441,高雄,2025-05-20,22.730432,120.312516,1.4326704e-07
C0Z180,新城,2025-05-20,24.040486,121.604878,0.07045958
C0D540,橫山,2025-05-20,24.71116,121.11693,9.1734287e-10
C1D420,太閣南,2025-05-20,24.632808,121.160575,6.465948e-09
C1E770,公館,2025-05-20,24.526914,120.830806,1.7199294e-09
CAN130,水試所海水繁養殖中心,2025-05-20,23.120802,120.07968,1.5398635e-08
C1I430,翠華,2025-05-20,24.191961,121.224339,4.641605e-09
C1M400,菜瓜坪,2025-05-20,23.251928,120.576103,1.6758978e-09
C0G730,二林,2025-05-20,23.903325,120.376081,2.6363475e-08
72M360,南改義竹分場,2025-05-20,23.360694,120.279361,4.0757366e-09
V2K620,麥寮合作社,2025-05-20,23.753836,120.294783,5.0753552e-09
C0Z070,舞鶴,2025-05-20,23.46811,121.37407,6.374357e-07
C0B040,大武崙,2025-05-20,25.166676,121.706993,1.6213281e-08
C1Z030,紅葉,2025-05-20,23.493119,121.338806,0.00025558303
C1I050,丹大,2025-05-20,23.753747,121.141147,5.42344e-09
C0I080,信義,2025-05-20,23.689694,120.851036,1.1837474e-09
C2M920,朴子農改,2025-05-20,23.469889,120.259383,3.5084415e-09
C2A880,福隆,2025-05-20,25.017842,121.942083,2.2176106e-08
C0Z160,鳳林,2025-05-20,23.746114,121.453411,1.7097456e-06
C0V210,復興,2025-05-20,23.222403,120.806089,2.4203688e-09
C0H990,昆陽,2025-05-20,24.121322,121.273642,9.561668e-09
C0R741,獅子,2025-05-20,22.202308,120.705236,0.9972294
C0S710,鹿野,2025-05-20,22.917711,121.122994,0.00035549808
C0I530,小奇萊,2025-05-20,24.131764,121.295717,1.0176013e-08
C2K630,荷苞,2025-05-20,23.657717,120.595144,4.3439896e-09
C0Z080,富源,2025-05-20,23.587642,121.378225,9.2112526e-07
C0SB10,美和,2025-05-20,22.682078,121.060236,0.02042438
C2K620,馬光農場,2025-05-20,23.721453,120.378864,6.5014403e-09
C1I140,卡奈托灣,2025-05-20,23.754364,121.087872,1.6953261e-09
C0I520,玉山風口,2025-05-20,23.470489,120.955994,2.1321632e-08
C1G691,下水埔,2025-05-20,23.816114,120.5676,7.287228e-09
C0X110,臺南市南區,2025-05-20,22.961189,120.188378,2.5427214e-08
C0V680,仁武,2025-05-20,22.701083,120.347722,1.4083675e-07
C2G840,北斗,2025-05-20,23.877586,120.514222,3.737396e-09
C0R900,竹坑,2025-05-20,22.1385,120.7022,0.1280551
C0K250,崙背,2025-05-20,23.75555,120.318925,5.0692606e-09
C0G860,社頭,2025-05-20,23.897647,120.5862,4.076794e-09
C0X150,安定,2025-05-20,23.102614,120.227839,7.065759e-09
C0R590,里港,2025-05-20,22.77919,120.49459,6.05076e-08
C0E610,馬都安,2025-05-20,24.451272,120.930192,7.197204e-10
C0E550,明德,2025-05-20,24.583486,120.885411,2.4262992e-09
C0R150,三地門,2025-05-20,22.709889,120.639944,3.301437e-07
C0G910,花壇,2025-05-20,24.032076,120.549461,5.106077e-09
C1D400,鳥嘴山,2025-05-20,24.71909,121.28387,9.814061e-10
C0K500,元長,2025-05-20,23.64981,120.315024,6.0432375e-09
C0F0B0,石岡,2025-05-20,24.276061,120.777644,1.7036959e-09
C2V250,甲仙,2025-05-20,23.080106,120.591758,4.3871125e-09
C0SA20,金崙山,2025-05-20,22.567419,120.959667,7.3250908e-09
C0V350,溪埔,2025-05-20,22.738578,120.446797,6.918296e-08
C0M660,溪口,2025-05-20,23.604131,120.403569,2.205516e-09
C1S880,壽卡,2025-05-20,22.238911,120.858903,0.0028480657
72D680,桃改新埔分場,2025-05-20,24.834444,121.066111,3.1775443e-08
