站號,站名,日期,lat,lon,BLBTSLS
C0R710,龍磐,2025-10-07,21.931672,120.838942,0.3893226
C1F9D1,白毛台,2025-10-07,24.158325,120.886933,1.715763e-06
C0G940,竹塘,2025-10-07,23.848253,120.386764,0.46402812
467590,恆春,2025-10-07,22.003897,120.746339,0.7200077
C1O850,環湖,2025-10-07,23.148617,120.418633,0.5688646
C0U710,太平山,2025-10-07,24.505486,121.525656,8.5150476e-10
C0E820,獅潭,2025-10-07,24.539133,120.920042,0.9919396
C2SD70,二層坪,2025-10-07,22.94105,121.16838,0.99919546
C0V880,興達,2025-10-07,22.8778,120.2127,0.14098112
C0S890,關山,2025-10-07,23.0395,121.175017,0.99962705
C0SB30,新蘭,2025-10-07,22.869214,121.223228,0.64600456
C2R970,屏科大,2025-10-07,22.648275,120.619247,0.95539796
C1Z130,銅門,2025-10-07,23.965694,121.492842,0.9914411
C0AD40,土城,2025-10-07,24.973208,121.445169,0.9755456
CAN140,六官養殖協會,2025-10-07,23.22881,120.29962,0.46978554
C0X180,山上,2025-10-07,23.0757,120.363253,0.6477828
C0F9Z0,雪山東峰,2025-10-07,24.388792,121.268675,2.9302052e-09
C1M480,獨立山,2025-10-07,23.537022,120.607797,0.014114961
C0X220,學甲,2025-10-07,23.230367,120.182187,0.29299796
467650,日月潭,2025-10-07,23.881325,120.90805,8.540834e-09
A2K570,古坑(花卉中心),2025-10-07,23.633531,120.552392,0.4852446
C0K600,箔子寮,2025-10-07,23.6197,120.14,0.46183354
C0G830,埤頭,2025-10-07,23.866003,120.452806,0.9884153
C0S950,七塊厝,2025-10-07,22.954453,121.229922,0.9386629
467110,金門,2025-10-07,24.407306,118.289281,0.80095416
C0AH80,深坑,2025-10-07,25.002703,121.628328,0.14831945
C0A970,三貂角,2025-10-07,25.007606,122.002058,0.9994247
C2D730,寶山農場,2025-10-07,24.732444,120.976153,0.8863498
C0K430,褒忠,2025-10-07,23.690938,120.303634,0.9810705
467480,嘉義,2025-10-07,23.495925,120.432906,0.98351204
C0V400,阿公店,2025-10-07,22.804194,120.355528,0.9758445
C0E960,觀霧分站,2025-10-07,24.505781,121.113921,1.5467035e-09
467550,玉山,2025-10-07,23.48718,120.95943,7.5692705e-09
C0R440,大漢山,2025-10-07,22.405264,120.753181,1.4802284e-08
C0SD30,東清國小,2025-10-07,22.057128,121.564922,0.9986075
C0K280,四湖,2025-10-07,23.630414,120.227125,0.7197916
C1F9B1,桐林,2025-10-07,24.066172,120.735194,0.9759909
C2H9U0,鳳鵬,2025-10-07,23.763919,120.788061,0.99163944
C0K390,土庫,2025-10-07,23.679029,120.395574,0.9724801
C1I450,望鄉山,2025-10-07,23.594153,120.944286,2.308779e-09
C0E910,海埔,2025-10-07,24.648767,120.772435,0.8281377
B2E890,畜試北區分所,2025-10-07,24.527806,120.770972,0.9915287
C0R750,四林格山,2025-10-07,22.076989,120.802439,0.9803407
C0F0C0,中坑,2025-10-07,24.248517,120.903319,6.732056e-09
C1I121,大鞍,2025-10-07,23.678381,120.760017,4.1219947e-09
C2G9E0,移民庄,2025-10-07,23.9784,120.40283,0.05096336
72U480,花改蘭陽分場,2025-10-07,24.686306,121.716583,0.34751394
C0A770,科教館,2025-10-07,25.096356,121.516507,0.17018181
C0AJ60,六塊厝,2025-10-07,25.24,121.4481,0.06846529
C0R620,墾雷,2025-10-07,21.900836,120.855269,0.4596285
467420,永康,2025-10-07,23.038386,120.2367,0.819758
C2M530,奮起湖,2025-10-07,23.493903,120.699253,3.2234349e-09
C0I410,名間,2025-10-07,23.837053,120.701447,0.96500975
A2C560,農工中心,2025-10-07,24.985917,121.239833,0.20423567
C0V740,旗山,2025-10-07,22.888614,120.483597,0.9948507
C0Z061,玉里,2025-10-07,23.3215,121.339656,0.9993988
C0S840,南田,2025-10-07,22.279725,120.889208,0.21345393
C1I470,杉林溪,2025-10-07,23.639517,120.786444,3.154884e-09
C1X040,東原,2025-10-07,23.291597,120.463822,0.9940754
C0R660,枋寮,2025-10-07,22.367722,120.590647,0.07634394
C1R120,上德文,2025-10-07,22.763272,120.704442,2.1570068e-07
C0K450,大埤,2025-10-07,23.646074,120.431537,0.34741202
C0UA00,土場,2025-10-07,24.576533,121.495333,0.00018639826
467080,宜蘭,2025-10-07,24.763975,121.756528,0.6521763
C0N030,四草,2025-10-07,23.0235,120.1116,0.16404696
467410,臺南,2025-10-07,22.99328,120.20492,0.53016436
C0V650,彌陀,2025-10-07,22.783806,120.246361,0.19497998
C0D660,新竹市東區,2025-10-07,24.798681,120.986942,0.9686455
82S580,茶改東部分場,2025-10-07,22.907694,121.130139,0.9926248
C0SB40,興隆,2025-10-07,22.913661,121.257469,0.97280407
467050,新屋,2025-10-07,25.006725,121.047492,0.5127992
C0C710,大溪永福,2025-10-07,24.892936,121.324975,0.8209403
C0FA20,溫寮,2025-10-07,24.372177,120.583125,0.86257356
C0V640,湖內,2025-10-07,22.887139,120.2445,0.14098112
C0R910,下寮,2025-10-07,22.3929,120.5548,0.9016619
C0Z020,明里,2025-10-07,23.208717,121.262342,0.9993108
C0M770,嘉義梅山,2025-10-07,23.585398,120.555587,0.6293346
C0C660,楊梅,2025-10-07,24.912375,121.143047,0.20846567
C0SD40,牛頭山,2025-10-07,22.676661,121.506944,0.49462536
C1E511,新開,2025-10-07,24.347703,120.827019,0.99292016
G2F820,農試所(霧峰),2025-10-07,24.031261,120.688133,0.9306985
C2M990,大巃頂,2025-10-07,23.5547,120.61439,1.39451934e-08
C1I070,和社,2025-10-07,23.591131,120.888861,2.4827477e-06
C2E990,新坪頂,2025-10-07,24.30201,120.8574,0.5056747
C0TA80,立霧山,2025-10-07,24.183258,121.641899,1.9001571e-09
C2F000,大肚,2025-10-07,24.15295,120.572117,0.9992197
C1S850,豐南,2025-10-07,23.122139,121.262389,0.9978082
C2M9B0,西興,2025-10-07,23.2428,120.57617,0.88951045
C2A920,富貴角,2025-10-07,25.263783,121.565258,0.058295727
CAH030,茶改場竹圍站,2025-10-07,23.860083,120.637528,0.99759793
C0T960,光復,2025-10-07,23.660694,121.424964,0.999606
C0F9M0,豐原,2025-10-07,24.254322,120.720692,0.96447486
C0R720,旭海,2025-10-07,22.205403,120.887614,0.6461286
C0V710,苓雅,2025-10-07,22.622742,120.330669,0.54975736
C0C740,觀音工業區,2025-10-07,25.064764,121.114856,0.9934412
CAC040,拉拉山,2025-10-07,24.699317,121.427133,3.399694e-09
C0V790,萬山,2025-10-07,22.905944,120.688056,0.9997189
U2HA30,臺大和社,2025-10-07,23.590856,120.888864,2.4827477e-06
C2H9K0,屯原,2025-10-07,24.067969,121.209389,1.4173142e-09
C0AJ90,澳底,2025-10-07,25.0552,121.9253,0.99839884
C0Z100,東華,2025-10-07,23.89525,121.549833,0.97447747
C0G970,三豐,2025-10-07,23.882,120.2895,0.12654957
V2K610,大庄合作社,2025-10-07,23.8068,120.367939,0.96228385
C0V900,汕尾,2025-10-07,22.4782,120.4151,0.9742757
C1R630,龍泉,2025-10-07,22.66701,120.59091,0.95539796
C1AC50,關渡,2025-10-07,25.133486,121.469331,0.051519275
C0C800,四稜,2025-10-07,24.64733,121.4293,3.0746499e-09
C0F9I0,神岡,2025-10-07,24.272481,120.658314,0.9367818
C0K460,斗南,2025-10-07,23.678734,120.478359,0.34741202
C2O810,曾文,2025-10-07,23.219681,120.497328,0.92912096
467280,後龍,2025-10-07,24.648563,120.831834,0.8707487
C1F9J1,清水林,2025-10-07,24.071242,120.820419,2.411978e-08
C2A650,火燒寮,2025-10-07,25.002719,121.742892,0.963435
466930,竹子湖,2025-10-07,25.162078,121.544547,0.0011438451
C1I220,樟湖,2025-10-07,23.905333,120.846983,3.0548453e-09
C0I390,仁愛,2025-10-07,24.022122,121.132206,2.6506455e-09
C0Z300,東里,2025-10-07,23.26853,121.30547,0.9993799
C1V590,新發,2025-10-07,23.057019,120.646064,5.65377e-06
C0K510,水林,2025-10-07,23.572924,120.24597,0.9470753
72S590,東改賓朗果園,2025-10-07,22.813889,121.071278,0.9972988
82A750,茶改北部分場,2025-10-07,24.955778,121.631222,0.99598956
C1A750,石碇服務區,2025-10-07,25.00872,121.646242,0.059420835
C0X300,鹿寮,2025-10-07,23.386047,120.477331,0.78663075
G2AI50,關渡,2025-10-07,25.11575,121.492,0.39731127
C0K590,雲林東勢,2025-10-07,23.674192,120.255721,0.98194927
C2K310,港尾布雞,2025-10-07,23.74834,120.38439,0.9774419
C0A570,桶後,2025-10-07,24.848222,121.597992,0.99021196
C1S800,華源,2025-10-07,22.657883,121.02325,0.2787461
C0G720,溪州,2025-10-07,23.851589,120.499093,0.9884153
C1V160,達卡努瓦,2025-10-07,23.279811,120.705319,7.766867e-09
C2M410,馬頭山,2025-10-07,23.324361,120.582017,0.9963238
C0V850,蚵仔寮,2025-10-07,22.7256,120.2527,0.19117862
C0S740,池上,2025-10-07,23.119628,121.209469,0.99968916
C1V390,尖山,2025-10-07,22.813153,120.367789,0.9758445
C0AH70,松山,2025-10-07,25.04871,121.55042,0.17018189
C0N010,鯤鯓國小,2025-10-07,23.1879,120.0889,0.35897648
C0R550,新埤,2025-10-07,22.467947,120.582894,0.07203049
C0SA60,知本（水試所）,2025-10-07,22.702394,121.082761,0.1854219
C0T9I0,豐濱,2025-10-07,23.583897,121.514806,0.98774785
C0UB00,淡江大學蘭陽校園,2025-10-07,24.823239,121.730383,0.99222517
C0W240,九宮,2025-10-07,24.423753,118.240186,0.75369287
C0T9N0,富里,2025-10-07,23.171639,121.249378,0.9994672
U2HA50,臺大竹山,2025-10-07,23.756972,120.681556,0.95907193
C0V840,鳳鼻頭,2025-10-07,22.5083,120.3591,0.9763308
C0X140,西港,2025-10-07,23.125608,120.203108,0.9393371
72D080,桃改五峰分場,2025-10-07,24.612194,121.157167,4.0524913e-08
C2H9P0,伊拿谷,2025-10-07,23.963211,121.088264,2.1171488e-08
C2K250,崙背,2025-10-07,23.75553,120.31893,0.9810705
C2H9F0,柑林,2025-10-07,24.018658,120.847072,0.99146974
C0TA20,加灣,2025-10-07,24.082025,121.608944,0.3218618
C0V530,阿蓮,2025-10-07,22.883208,120.327508,0.86429065
C0FB30,八仙山苗圃,2025-10-07,24.192719,121.001366,9.458097e-09
C1O880,關山,2025-10-07,23.173397,120.594092,0.9952281
C0E791,卓蘭,2025-10-07,24.3126,120.8244,0.9951594
C1I030,武界,2025-10-07,23.913225,121.052483,1.9923405e-07
C0R520,崁頂,2025-10-07,22.514781,120.506914,0.76616895
C0R341,牡丹,2025-10-07,22.130036,120.792639,0.88446695
C0R930,萬丹,2025-10-07,22.5885,120.4851,0.94054574
C0S760,紅石,2025-10-07,23.069131,121.126219,2.0472681e-09
C2C410,中央大學,2025-10-07,24.967652,121.185165,0.20423567
C1M610,石磐龍,2025-10-07,23.496606,120.663506,5.75664e-09
C0C790,東眼山,2025-10-07,24.8284,121.40888,6.694343e-07
C0UA10,鴛鴦湖,2025-10-07,24.590269,121.412228,1.0244363e-09
V2C260,八德蔬果,2025-10-07,24.978508,121.281819,0.92888474
C0R800,丹路,2025-10-07,22.204481,120.750989,0.445501
C0G920,永靖,2025-10-07,23.924703,120.547533,0.97809833
C2M950,太和,2025-10-07,23.538372,120.702961,3.2612077e-09
C1A630,下盆,2025-10-07,24.771003,121.538622,1.2092728e-06
B2N890,畜產試驗所,2025-10-07,23.058972,120.336406,0.5375708
C0UA30,白嶺,2025-10-07,24.527819,121.519031,7.878512e-10
C1V580,溪南(特生中心),2025-10-07,23.084972,120.788475,1.4214319e-09
C1T970,大農,2025-10-07,23.615233,121.413331,0.99966854
C0R650,竹田,2025-10-07,22.58486,120.54344,0.950264
C1H900,清流,2025-10-07,24.080775,120.962997,1.4029712e-08
C1C510,水尾,2025-10-07,24.940081,121.087161,0.14526372
C2N170,茅港尾,2025-10-07,23.2061,120.2624,0.46978536
C0F9X0,大雅(中科園區),2025-10-07,24.21528,120.62445,0.9720545
C0SB60,白守蓮,2025-10-07,23.126769,121.401914,0.7060605
C0O970,虎頭埤,2025-10-07,23.021375,120.347878,0.95799243
C0C730,中大臨海站,2025-10-07,24.966126,121.008581,0.12903363
C0X250,新營,2025-10-07,23.310689,120.316681,0.40532023
C0V700,三民,2025-10-07,22.645017,120.311233,0.032729007
C0U870,大礁溪,2025-10-07,24.791042,121.675047,3.3301134e-05
C0E870,高鐵苗栗,2025-10-07,24.60725,120.826094,0.8707487
A2K570,古坑花卉中心,2025-10-07,23.63353,120.55239,0.33363488
C0TA30,鹽寮,2025-10-07,23.845606,121.592664,0.95200586
C0M860,新美,2025-10-07,23.338017,120.683169,0.07967402
C1E701,八卦,2025-10-07,24.491756,120.927619,0.00011896697
C2TA90,加納納,2025-10-07,23.466421,121.359867,0.9960646
C0I420,國姓,2025-10-07,24.037803,120.855072,0.9915587
C2D720,關西工作站,2025-10-07,24.757275,121.184792,0.38222262
C0S960,香蘭,2025-10-07,22.587569,120.993375,0.09194474
467620,蘭嶼,2025-10-07,22.0369,121.55843,0.98417103
C0R260,春日,2025-10-07,22.370361,120.628306,0.06345707
72G600,臺中農改場,2025-10-07,24.003028,120.534389,0.94217765
C0Z210,瑞穗,2025-10-07,23.5239,121.39021,0.9894281
C0M820,達邦,2025-10-07,23.453994,120.749517,1.0179217e-08
C0V860,南寮,2025-10-07,22.7616,120.2339,0.19039914
C0G740,大城,2025-10-07,23.852487,120.320935,0.12654957
C0R920,塭仔,2025-10-07,22.4169,120.5197,0.9016619
C0R470,高樹,2025-10-07,22.826389,120.600806,0.97972524
C0R680,佳樂水,2025-10-07,21.993578,120.861633,0.3893226
C1O870,大棟山,2025-10-07,23.31157,120.52226,1.9610429e-09
C0D360,梅花,2025-10-07,24.678347,121.208558,0.99705195
C0Z190,富世,2025-10-07,24.14743,121.6297,0.99828917
C0AI10,屈尺,2025-10-07,24.92184,121.54475,0.9728703
B2U990,畜試東區分所,2025-10-07,24.669039,121.832561,0.36390662
C0SB80,長濱漁港,2025-10-07,23.313644,121.459994,0.9949032
C0TA50,和仁,2025-10-07,24.241394,121.712472,0.9886612
C0V910,大樹,2025-10-07,22.684645,120.432803,0.9751417
C1R610,西大武山,2025-10-07,22.617719,120.7322,3.3950802e-09
C0G900,線西,2025-10-07,24.143358,120.443536,0.8436772
C0M700,竹崎,2025-10-07,23.526178,120.555508,0.6417058
C2E880,三義,2025-10-07,24.405478,120.749819,5.505388e-05
C0C720,竹圍,2025-10-07,25.112692,121.239824,0.8249728
C0F9P0,清水,2025-10-07,24.312297,120.562242,0.91981524
C0Z150,吉安光華,2025-10-07,23.930925,121.595153,0.6662788
C0FA80,小雪山天池,2025-10-07,24.28025,121.02627,2.1332076e-09
467300,東吉島,2025-10-07,23.25727,119.66762,0.022674501
C1D640,外坪(五指山),2025-10-07,24.644447,121.090961,0.99866337
C2R9A0,高士國小,2025-10-07,22.12553,120.84653,0.88446695
C0F9O0,潭子,2025-10-07,24.213106,120.703933,0.96447486
C2H9R0,卓社,2025-10-07,23.887894,121.000086,1.6256935e-09
72T250,花蓮農改場,2025-10-07,23.975222,121.563889,0.8195113
C0E780,銅鑼,2025-10-07,24.489681,120.790853,0.9915287
C1T950,太安,2025-10-07,23.666719,121.370128,1.5377847e-09
C0E830,苑裡,2025-10-07,24.439714,120.653053,0.87966853
467270,田中,2025-10-07,23.873803,120.581286,0.98551047
C0SA10,檳榔四格山,2025-10-07,22.810031,121.109308,0.99816775
C1T830,布洛灣,2025-10-07,24.17184,121.57127,0.9991856
C0F970,大坑,2025-10-07,24.173142,120.722289,0.99087894
C1U920,思源,2025-10-07,24.393125,121.347214,8.8914637e-10
C2H9Y0,松茗,2025-10-07,23.8167,120.650765,0.9531914
C0A931,三和,2025-10-07,25.233153,121.595236,0.69789076
C0I010,廬山,2025-10-07,24.033311,121.181808,1.3375956e-09
C2M940,日野賀,2025-10-07,23.434056,120.727169,5.3774176e-09
C0R860,鼻頭,2025-10-07,22.1043,120.8979,0.12756509
C0UB20,壯圍,2025-10-07,24.7359,121.8163,0.7037477
C0R790,九棚,2025-10-07,22.14195,120.889281,0.77787614
C0W110,東莒,2025-10-07,25.9652,119.98069,0.1738472
C1U930,粉鳥林,2025-10-07,24.497088,121.842479,0.029200338
C1I211,蘆竹湳,2025-10-07,23.934019,120.811994,0.020042393
C0S830,長濱,2025-10-07,23.286817,121.411975,0.99889016
C1F9F1,伯公龍,2025-10-07,24.272392,120.849047,0.98550075
C0UB90,太平山莊,2025-10-07,24.494171,121.536209,8.709946e-10
C0E810,西湖,2025-10-07,24.562947,120.7485,0.8691972
C1I440,新高口,2025-10-07,23.478744,120.878939,1.1060309e-09
C0O840,王爺宮,2025-10-07,23.222064,120.40085,0.28809407
C0T9G0,鳳林山,2025-10-07,23.735269,121.420131,1.5099423e-06
C0X080,佳里,2025-10-07,23.173039,120.145086,0.35326555
C0FB70,大甲溪埔,2025-10-07,24.370625,120.620067,0.86257356
C0Z310,清水斷崖,2025-10-07,24.218294,121.689142,0.99649036
C0M680,太保,2025-10-07,23.455062,120.331455,0.94581336
C1S820,金峰,2025-10-07,22.590969,120.933236,0.24221301
C0AD10,八里,2025-10-07,25.150211,121.403947,0.6025622
C2K240,草嶺,2025-10-07,23.59555,120.693461,1.4129908e-08
C1SA70,都蘭,2025-10-07,22.87794,121.226881,0.7136437
C0K440,二崙,2025-10-07,23.772797,120.408944,0.9864115
C1A760,坪林交控,2025-10-07,24.94284,121.713442,0.9939747
C0F9N0,大里,2025-10-07,24.092464,120.701378,0.97909725
C0SA90,達仁林場,2025-10-07,22.264347,120.823972,0.9805822
C1R290,石門山,2025-10-07,22.112611,120.756597,0.94411016
42HA10,萬大發電廠,2025-10-07,23.978875,121.139639,5.963691e-09
C0R890,山海,2025-10-07,21.9878,120.7091,0.7200077
C0T9A0,月眉山,2025-10-07,23.809928,121.539828,2.4540193e-06
C0AC70,信義,2025-10-07,25.037822,121.564597,0.30737692
C0K560,棋山,2025-10-07,23.68645,120.603417,0.34634224
C2FB50,出雲,2025-10-07,24.206469,120.902794,2.5215807e-09
C1Z240,中平林道,2025-10-07,23.42115,121.26763,1.6388658e-09
U2H480,溪頭,2025-10-07,23.670306,120.798194,6.924682e-09
C0M880,好美里,2025-10-07,23.3364,120.138,0.2565544
C0T9E0,大坑,2025-10-07,23.880628,121.581981,0.99625176
C0K530,臺西,2025-10-07,23.701547,120.197559,0.8046458
C1E900,國一N128K,2025-10-07,24.560997,120.844186,0.9941267
C0AJ50,水湳洞,2025-10-07,25.123695,121.862238,0.9986193
C0AI20,白沙灣,2025-10-07,25.283128,121.519058,0.050484598
C2V310,美濃,2025-10-07,22.898792,120.51907,0.9948507
C0A860,大坪,2025-10-07,25.165914,121.632969,0.5984321
C1U850,觀音海岸,2025-10-07,24.38319,121.77856,3.3436374e-06
C2K610,草嶺石壁,2025-10-07,23.602469,120.707731,1.1613594e-08
C0U950,鶯子嶺,2025-10-07,24.89754,121.79244,8.528682e-07
C0O900,善化,2025-10-07,23.112883,120.297219,0.5375708
C0K550,蔦松,2025-10-07,23.514319,120.229736,0.36469197
E2P980,林試六龜中心,2025-10-07,22.991703,120.645722,0.99961036
C0E590,通霄,2025-10-07,24.471892,120.704622,0.0002272632
C1I310,西巒,2025-10-07,23.754486,120.883956,9.906776e-07
C0A550,泰平,2025-10-07,24.971197,121.823711,0.9959479
C0I360,水里,2025-10-07,23.812553,120.849792,0.9957504
C0R830,高士,2025-10-07,22.121825,120.836781,0.9620892
C1I101,溪頭,2025-10-07,23.661789,120.807647,2.9797518e-09
C0AJ20,野柳,2025-10-07,25.20703,121.690021,0.37287718
C0B060,暖暖,2025-10-07,25.0957,121.7403,0.92867726
C1H920,長豐,2025-10-07,24.102039,120.879897,5.100064e-08
C2S9B0,利吉,2025-10-07,22.86246,121.15486,0.9926248
C0V360,內門,2025-10-07,22.975481,120.466769,0.9915669
C0R850,林邊,2025-10-07,22.4634,120.5339,0.7076731
C0E930,龍鳳,2025-10-07,24.700034,120.859125,0.88702595
C0U910,冬山,2025-10-07,24.63373,121.7937,0.3639068
C1E721,泰安,2025-10-07,24.489017,120.968036,6.4559664e-09
82H320,茶改中部分場,2025-10-07,23.875611,120.913583,1.5902985e-07
C0M750,布袋,2025-10-07,23.380878,120.167789,0.14831181
C1S860,利嘉,2025-10-07,22.809417,121.050528,0.006508135
E2S980,林試太麻里1,2025-10-07,22.598922,120.980044,0.124613866
C0X170,關廟,2025-10-07,22.963017,120.327797,0.97493327
C0V720,林園,2025-10-07,22.507747,120.394511,0.9662485
C1I510,線浸林道,2025-10-07,23.761508,120.832956,1.5182067e-08
C0D690,外湖,2025-10-07,24.917735,120.968711,0.0003118261
C0C750,新興坑尾,2025-10-07,25.0061,121.0971,0.35752752
B2Q810,畜試南區分所,2025-10-07,21.945583,120.802167,0.3893226
C0S790,金崙,2025-10-07,22.538122,120.966875,0.76402724
C0AH90,福山植物園,2025-10-07,24.760717,121.58135,2.5046788e-07
C0I540,奇萊稜線,2025-10-07,24.109231,121.326456,5.444999e-09
C0M850,表湖,2025-10-07,23.24186,120.64166,0.0008410577
C0S770,大溪山,2025-10-07,22.478475,120.943325,0.94055396
C0AG80,中和,2025-10-07,24.991622,121.491792,0.9755456
C0T790,大禹嶺,2025-10-07,24.186117,121.316086,2.1010569e-09
C0T9B0,水源,2025-10-07,23.991861,121.537169,0.6170847
C0R840,牡丹池山,2025-10-07,22.168389,120.841225,0.9391135
C1I131,桶頭,2025-10-07,23.641944,120.654117,0.93050295
CAL110,布袋國中,2025-10-07,23.35893,120.18026,0.2565544
C2M9D0,何竹子腳,2025-10-07,23.53641,120.38203,0.98351204
467571,新竹,2025-10-07,24.827853,121.014219,0.83988464
C0Z290,赤柯山,2025-10-07,23.36893,121.38293,2.907735e-09
C0X280,將軍,2025-10-07,23.214999,120.13577,0.29140416
C0S690,太麻里,2025-10-07,22.60902,120.98533,0.98875153
C0U880,北關,2025-10-07,24.9072,121.8734,0.9988027
CAW010,東引,2025-10-07,26.3588,120.4836,0.95944417
C0G810,埔心,2025-10-07,23.947633,120.525456,0.97809833
C0U970,大福,2025-10-07,24.80064,121.81389,0.6521763
C2H9N0,仁愛東眼,2025-10-07,24.026875,121.1205,1.300241e-09
C1E670,南礦,2025-10-07,24.538278,121.002836,2.0689772e-08
C0M520,東後寮,2025-10-07,23.369908,120.248065,0.40558842
C1E461,松安,2025-10-07,24.397972,120.986022,3.9155252e-09
C2N160,西拉雅風管處,2025-10-07,23.189481,120.335297,0.44845057
C2M970,碧湖,2025-10-07,23.568632,120.624165,1.5198697e-08
C0A640,石碇,2025-10-07,24.993969,121.662917,0.9939747
E2S960,林試太麻里2,2025-10-07,22.598,120.99775,0.09037968
C0F9Y0,桃山,2025-10-07,24.432739,121.303808,4.2862536e-09
C1I020,萬大,2025-10-07,23.979817,121.132261,2.5191675e-09
C2UC20,長嶺,2025-10-07,24.70894,121.61162,3.566122e-06
C0U940,羅東,2025-10-07,24.68184,121.74934,0.34751394
C0M650,朴子,2025-10-07,23.43463,120.23902,0.74590635
C1I500,大尖山,2025-10-07,23.858572,120.994889,1.2012082e-09
C0FB40,中橫21.6k,2025-10-07,24.2499,121.1455,1.893399e-09
C0G820,田尾,2025-10-07,23.901669,120.509389,0.97809833
E2K600,四湖植物園,2025-10-07,23.676986,120.163433,0.68475914
C0S730,綠島,2025-10-07,22.6672,121.47533,0.22835787
12Q970,東港工作站,2025-10-07,22.479997,120.466058,0.7076731
C0E430,南庄,2025-10-07,24.601775,121.000214,0.97485447
C1TA00,太魯閣,2025-10-07,24.15773,121.6236,0.999022
466920,臺北,2025-10-07,25.037658,121.514853,0.17018189
C0R600,舊泰武,2025-10-07,22.588194,120.664944,9.604112e-08
C1I260,北坑,2025-10-07,23.9246,121.006903,0.98394406
466910,鞍部,2025-10-07,25.182586,121.529731,1.7673037e-05
C1I230,九份二山,2025-10-07,23.961944,120.845,1.446454e-07
C2M810,里佳,2025-10-07,23.389125,120.716647,2.890968e-09
C2A660,瑞芳,2025-10-07,25.113169,121.801147,0.83548874
C0R270,琉球嶼,2025-10-07,22.332244,120.362236,0.00026808612
C2V580,瑞山,2025-10-07,22.90304,120.43424,0.9883812
C1T990,高寮,2025-10-07,23.394239,121.356808,0.9972009
C0G620,芬園,2025-10-07,24.015678,120.6213,0.9697505
C1Z140,荖溪,2025-10-07,23.890575,121.45964,1.8011955e-09
C1I201,中心崙,2025-10-07,23.728722,120.712097,0.0057482272
C1I400,凌霄,2025-10-07,24.018778,121.004456,1.2429773e-09
C1M640,十字,2025-10-07,23.492153,120.753683,2.7953282e-09
G2P820,農試鳳山分所,2025-10-07,22.646611,120.356083,0.5497575
C0Z270,蕃薯寮,2025-10-07,23.73835,121.540108,0.22828272
C2E420,竹南,2025-10-07,24.70898,120.88897,0.88702595
C0FB10,出雲山苗圃,2025-10-07,24.23105,120.90475,6.732056e-09
C0F9Q0,外埔,2025-10-07,24.347817,120.705686,0.6999265
C0K580,高鐵雲林,2025-10-07,23.737456,120.417944,0.9774419
C2I090,鳳凰,2025-10-07,23.728081,120.787347,4.8756766e-07
C0U990,員山,2025-10-07,24.74435,121.72247,0.34751394
C0V770,大社,2025-10-07,22.730306,120.346639,0.61564106
C0X120,麻豆,2025-10-07,23.183289,120.248611,0.69629383
C0C670,龍潭,2025-10-07,24.870056,121.221389,0.37839255
C0D680,香山濕地,2025-10-07,24.783581,120.914988,0.0003118261
C0S980,勝林山,2025-10-07,22.430439,120.8938,3.5951078e-05
C0V730,大寮,2025-10-07,22.605614,120.395717,0.54975736
C0R570,麟洛,2025-10-07,22.65078,120.52719,0.6698172
C2M930,石卓,2025-10-07,23.478744,120.702264,2.8156513e-09
C0G9B0,和美,2025-10-07,24.105169,120.492131,0.6754116
CAG100,王功漁港,2025-10-07,23.96824,120.32586,0.0038356725
C0X290,北門,2025-10-07,23.267772,120.125481,0.29140416
C2F930,大甲,2025-10-07,24.347667,120.640403,0.86257356
C0D650,湖口,2025-10-07,24.904794,121.043628,0.14526375
C0E420,竹南,2025-10-07,24.708978,120.888897,0.9243079
C0U780,五結,2025-10-07,24.68637,121.79794,0.3639068
C1I250,鯉潭,2025-10-07,23.961922,120.991131,0.0028633971
C0R130,阿禮,2025-10-07,22.742908,120.743678,1.6988002e-08
C0X100,臺南市北區,2025-10-07,23.010394,120.194228,0.53016436
C0S920,金峰嘉蘭,2025-10-07,22.594789,120.960825,0.130642
C0V490,新興,2025-10-07,22.627422,120.298803,0.040073425
C0F9K0,大安,2025-10-07,24.345061,120.588025,0.86257356
467290,古坑,2025-10-07,23.633639,120.551889,0.4852446
C2E970,八甲,2025-10-07,24.535811,120.795983,0.9941267
C0V440,鳳山,2025-10-07,22.646653,120.356122,0.5497575
C1T940,大觀,2025-10-07,23.714206,121.373133,0.21862309
C0E740,造橋,2025-10-07,24.637056,120.864778,0.8707487
C0R100,尾寮山,2025-10-07,22.833111,120.683889,1.0334981e-08
A2K630,臺大雲林校區,2025-10-07,23.730628,120.423903,0.9774419
467990,馬祖,2025-10-07,26.169467,119.923158,0.022948004
C0D580,寶山,2025-10-07,24.735006,121.025192,0.99481285
E2P990,林試扇平站,2025-10-07,22.9677,120.6857,6.845375e-06
C0AI30,三重,2025-10-07,25.057328,121.500629,0.17018189
C0AH00,汐止,2025-10-07,25.066881,121.658778,0.07119922
C1Z040,立山,2025-10-07,23.443356,121.327375,0.97654015
466881,新北,2025-10-07,24.959207,121.525196,0.97584885
C0W130,花嶼,2025-10-07,23.40007,119.32276,0.011590385
C0A950,鼻頭角,2025-10-07,25.129036,121.923372,0.99839884
C0K470,林內,2025-10-07,23.748675,120.609642,0.34634224
C2F990,摩天嶺,2025-10-07,24.322458,120.936819,5.0549707e-09
C2E430,南庄,2025-10-07,24.601775,121.000214,0.9854595
82C160,茶改場,2025-10-07,24.908472,121.185333,0.20846562
C2TB60,南安,2025-10-07,23.29818,121.26157,0.99934334
C0Z320,清水林道,2025-10-07,23.27125,121.188272,0.013601686
C0R760,南仁湖,2025-10-07,22.084681,120.863353,0.94411385
C0M670,大林,2025-10-07,23.600616,120.45841,0.5947479
C0M800,茶山,2025-10-07,23.299075,120.664767,0.96748066
C0A9C0,天母,2025-10-07,25.117494,121.537169,0.27467892
72K220,南改斗南分場,2025-10-07,23.634556,120.477333,0.34741202
72AI40,桃改樹林分場,2025-10-07,24.944503,121.386972,0.9567557
C0S910,蘭嶼燈塔,2025-10-07,22.081197,121.503117,0.99547553
C0B050,八斗子,2025-10-07,25.144754,121.79167,0.29562563
C0U900,內城,2025-10-07,24.71813,121.68766,0.3637229
C0X320,柳營,2025-10-07,23.253328,120.375253,0.28809407
C0M790,新港,2025-10-07,23.553269,120.345728,0.98820025
C0F9T0,西屯,2025-10-07,24.179494,120.641275,0.9720545
C0E950,松安,2025-10-07,24.39792,120.98599,3.9155252e-09
C0SA30,都歷,2025-10-07,23.020333,121.323642,0.9758643
C0C620,蘆竹,2025-10-07,25.084275,121.265767,0.59779096
C0R730,大坪頂,2025-10-07,22.024633,120.69355,0.26277855
C0AJ40,石門,2025-10-07,25.273672,121.601198,0.05199699
C0E750,苗栗,2025-10-07,24.564569,120.824575,0.9941267
C0T870,鯉魚潭,2025-10-07,23.935639,121.508944,0.98665744
C1V170,排雲,2025-10-07,23.463619,120.954147,5.790315e-09
C2H950,中寮,2025-10-07,23.884447,120.766406,0.99380535
C0R350,貓鼻頭,2025-10-07,21.921774,120.7358,0.7557965
C0V660,岡山,2025-10-07,22.797078,120.294958,0.19713773
C1H941,雙冬,2025-10-07,23.967378,120.802189,0.023977112
C0AJ70,田寮,2025-10-07,25.2698,121.4886,0.052728392
C0AI00,五股,2025-10-07,25.07445,121.42728,0.18475276
C0Z280,德武,2025-10-07,23.47426,121.41071,0.99555117
C2RA10,大新,2025-10-07,22.67558,120.57788,0.95539796
C0R700,枋山,2025-10-07,22.246844,120.661086,0.057042625
C0C460,復興,2025-10-07,24.820208,121.352281,0.29557154
C2K300,鹿南,2025-10-07,23.63855,120.3636,0.9724801
E2H360,蓮華池,2025-10-07,23.918333,120.885278,0.10697394
C0M640,中埔,2025-10-07,23.42538,120.5229,0.9763872
C0W140,金沙,2025-10-07,24.488292,118.408778,0.7836854
C2A540,四堵,2025-10-07,24.8926,121.745736,0.99865735
C0ACA0,新莊,2025-10-07,25.051478,121.446756,0.62535554
C0R220,潮州,2025-10-07,22.534361,120.54,0.76616895
U2HA40,臺大內茅埔,2025-10-07,23.689722,120.851117,0.9949269
467490,臺中,2025-10-07,24.145736,120.684075,0.99087894
C0UB60,明池,2025-10-07,24.650688,121.475277,7.202151e-09
C0U960,翠峰湖,2025-10-07,24.510856,121.608044,8.073919e-10
E2HA20,林試畢祿溪站,2025-10-07,24.226944,121.308522,1.0385345e-09
C2M9A0,大華,2025-10-07,23.4824,120.67491,5.697718e-09
C0V890,前鎮,2025-10-07,22.5718,120.3117,0.49811777
C1F941,雪嶺,2025-10-07,24.280586,121.026642,2.1332076e-09
C2H9E0,國姓南港,2025-10-07,23.911108,120.846556,2.577634e-09
C0AC80,文山,2025-10-07,25.00235,121.575728,0.14831945
C0F9R0,龍井,2025-10-07,24.184536,120.528972,0.930413
C0M760,民雄,2025-10-07,23.551754,120.428457,0.5947479
C0UA40,西德山,2025-10-07,24.560647,121.752608,1.9978834e-09
C2TA70,赤科坪,2025-10-07,23.39885,121.39168,6.251566e-08
C1T920,中興,2025-10-07,23.769503,121.498653,0.9984747
C0D550,雪霸,2025-10-07,24.526972,121.11605,1.6475004e-09
C2F860,梨山,2025-10-07,24.247522,121.243669,1.3136873e-09
C0R320,車城,2025-10-07,22.0744,120.716247,0.11497534
C1S870,南美山,2025-10-07,23.15025,121.382333,0.88869154
C0B020,基隆嶼,2025-10-07,25.19141,121.78391,0.40752733
C1U501,牛鬥,2025-10-07,24.637836,121.573656,0.35509953
C0M730,嘉義市東區,2025-10-07,23.457673,120.460531,0.92360204
C2R990,泰武,2025-10-07,22.60686,120.69765,1.1996152e-08
C0S700,知本,2025-10-07,22.684866,121.005642,0.84952587
C1N001,沙崙,2025-10-07,22.935472,120.309406,0.97493327
C0V760,橋頭,2025-10-07,22.757806,120.30575,0.61564106
C0G960,福寶,2025-10-07,24.0443,120.3814,0.19446225
C0X210,白河,2025-10-07,23.347466,120.414427,0.78663075
C0S810,東河,2025-10-07,22.972672,121.303986,0.9832067
C2R170,屏東,2025-10-07,22.66027,120.49403,0.6698172
C0R670,楓港,2025-10-07,22.190131,120.692156,0.114259176
C0FA50,霧峰,2025-10-07,24.0419,120.6995,0.97909725
C0UB10,蘇澳,2025-10-07,24.5969,121.8571,0.33586004
C0G950,防潮門,2025-10-07,24.1835,120.4871,0.8507768
C0M740,六腳,2025-10-07,23.492871,120.290625,0.9715145
C1R250,力里,2025-10-07,22.428117,120.629228,0.060873497
C0K330,虎尾,2025-10-07,23.719183,120.442036,0.9774419
C2FA00,烏石坑,2025-10-07,24.273503,120.947617,5.534977e-09
C0V620,永安,2025-10-07,22.82315,120.236856,0.19713773
C1I330,楓樹林,2025-10-07,23.986803,121.076117,1.3151714e-09
C0W200,湖西,2025-10-07,23.596314,119.67275,0.032652073
72Q010,高雄農改場,2025-10-07,22.709333,120.525889,0.5294086
C0SA40,瑞和,2025-10-07,22.974361,121.156697,0.99919546
C0C680,龜山,2025-10-07,25.02846,121.38656,0.76661605
C2V260,月眉,2025-10-07,22.971003,120.539853,0.99159014
C0V450,鳳森,2025-10-07,22.545064,120.392592,0.9662485
C0FA90,小雪山林道,2025-10-07,24.29515,121.03651,3.391236e-09
C0U720,南山,2025-10-07,24.43742,121.38167,9.863528e-10
A2N290,臺南蘭花園區,2025-10-07,23.340258,120.379661,0.30013543
C0R560,新園,2025-10-07,22.5434,120.461558,0.9662485
C0U890,三星,2025-10-07,24.66812,121.65302,0.33523685
C1V300,御油山,2025-10-07,23.001983,120.715364,1.4215078e-09
C0U600,礁溪,2025-10-07,24.817539,121.765608,0.6521763
C1T980,龍澗,2025-10-07,24.023289,121.411328,1.7188702e-09
C0D670,海天一線,2025-10-07,24.831986,120.914438,0.0003340518
C0SA00,歷坵,2025-10-07,22.520969,120.89185,0.9714168
C0M710,東石,2025-10-07,23.458927,120.15385,0.1522135
C0M780,鹿草,2025-10-07,23.41134,120.30835,0.74590635
C0U520,雙連埤,2025-10-07,24.753033,121.641303,1.9879278e-07
C0B010,七堵,2025-10-07,25.094819,121.71713,0.46368322
C0R480,長治,2025-10-07,22.693128,120.542622,0.92310226
C1V830,國三S383K,2025-10-07,22.781967,120.426475,0.9923279
12Q980,恆春工作站,2025-10-07,22.079678,120.714425,0.11497534
C1O940,東山服務區,2025-10-07,23.286016,120.398472,0.30013543
C1U840,東澳嶺,2025-10-07,24.5378,121.8485,2.6898116e-08
C1D630,飛鳳山,2025-10-07,24.766464,121.119178,0.9960658
C0S940,石寧山,2025-10-07,23.223772,121.406639,0.86855614
C0K410,北港,2025-10-07,23.573957,120.292802,0.9470753
C2M620,瑞里,2025-10-07,23.545133,120.675197,5.75664e-09
C0SB70,小港漁港,2025-10-07,23.158558,121.400431,0.7220426
C2O950,安南,2025-10-07,23.076694,120.144861,0.1574355
C0F0E0,南湖圈谷,2025-10-07,24.363714,121.444667,5.7159832e-09
467610,成功,2025-10-07,23.097486,121.373428,0.8425359
C0G890,伸港,2025-10-07,24.148933,120.484403,0.8507768
C2E540,龍溪,2025-10-07,24.606489,120.783933,0.9941267
C1V200,梅山,2025-10-07,23.268447,120.823556,2.0926015e-07
C0T9H0,加路蘭山,2025-10-07,23.682947,121.5274,1.2074279e-06
C2O930,玉井,2025-10-07,23.126042,120.46055,0.5688646
C1F911,新伯公,2025-10-07,24.221361,120.841069,0.90620327
C0R490,九如,2025-10-07,22.7405,120.490503,0.5294086
C0X200,左鎮,2025-10-07,23.056758,120.408522,0.6477828
C2TB50,麻汝,2025-10-07,23.42554,121.39358,0.99555117
C0FA60,鞍馬山工作站,2025-10-07,24.267064,121.000793,2.3161846e-09
C0SB50,叭嗡嗡,2025-10-07,23.047062,121.343223,0.78398055
C1F891,稍來,2025-10-07,24.265689,121.001142,2.1971773e-09
C2M9C0,紫雲,2025-10-07,23.494914,120.540253,0.48277652
72N240,七股研究中心,2025-10-07,23.081672,120.062894,0.16404696
C0C700,中壢,2025-10-07,24.977661,121.256375,0.92888474
C0M690,水上,2025-10-07,23.419734,120.388909,0.94581336
C0V690,鼓山,2025-10-07,22.623325,120.275575,0.040073425
C0O860,大內,2025-10-07,23.11885,120.36083,0.44845057
C0Z200,萬榮,2025-10-07,23.709219,121.420106,0.9967719
C0T9D0,和中,2025-10-07,24.26676,121.74103,0.98862195
C2S9A0,北份子寮,2025-10-07,22.78561,121.07813,0.23895651
C1O921,楠西,2025-10-07,23.183511,120.484083,0.5688646
C0AJ30,淡水觀海,2025-10-07,25.184591,121.408616,0.6002286
C0V810,左營,2025-10-07,22.67491,120.28491,0.032729007
C0UA70,桃源谷,2025-10-07,24.962606,121.888875,0.8977929
C0X130,官田,2025-10-07,23.193217,120.315422,0.4484506
C1H000,翠峰,2025-10-07,24.109397,121.205211,1.4988678e-09
C0UA90,石城,2025-10-07,24.980444,121.951214,0.99869245
C1E681,南勢山,2025-10-07,24.421669,120.923831,1.0759584e-07
C0A9F0,內湖,2025-10-07,25.079422,121.57545,0.30737692
C0K291,宜梧,2025-10-07,23.536281,120.169329,0.46958107
C1K540,口湖,2025-10-07,23.585344,120.180517,0.46183354
C0R780,滿州,2025-10-07,22.024403,120.839892,0.19087285
C0V870,文安,2025-10-07,22.8025,120.2164,0.19117862
C0U650,玉蘭,2025-10-07,24.675286,121.587061,2.3543e-06
C0R640,東港,2025-10-07,22.46247,120.44074,0.9763308
C0AJ80,板橋,2025-10-07,25.0107,121.4489,0.9755456
C0S660,下馬,2025-10-07,23.150427,121.070312,1.7648857e-07
C2N190,烏樹,2025-10-07,23.32393,120.36989,0.30013543
C1H9B1,阿眉,2025-10-07,24.1263,120.994672,1.2403697e-09
C0UA20,多加屯,2025-10-07,24.368614,121.373189,1.7873865e-09
C0E730,頭份,2025-10-07,24.688247,120.912206,0.88702595
72V140,高改旗南分場,2025-10-07,22.857861,120.516667,0.9948507
C0K480,莿桐,2025-10-07,23.761192,120.502372,0.36585417
C0U980,坪林石牌,2025-10-07,24.86478,121.77396,0.8708462
C0T900,西林,2025-10-07,23.8119,121.441458,0.9981865
C1I150,青雲,2025-10-07,23.793361,120.949378,0.9975421
C2E980,和興,2025-10-07,24.505319,120.923016,0.97703886
467350,澎湖,2025-10-07,23.565503,119.563094,0.028455885
C0G800,埔鹽,2025-10-07,24.000394,120.431683,0.20574571
C0H960,草屯,2025-10-07,23.973672,120.68085,0.98674756
C1V780,多納林道,2025-10-07,22.888028,120.737917,8.220347e-09
C0E920,通霄漁港,2025-10-07,24.498589,120.673876,0.0002272632
C0Z330,安通山,2025-10-07,23.290728,121.348528,0.00032032424
C0AH10,永和,2025-10-07,25.01125,121.508111,0.9755456
C0AK10,太平里,2025-10-07,25.134937,121.364899,0.18183227
C2G640,鹿港,2025-10-07,24.0753,120.430481,0.6754116
C1E890,國三N149K,2025-10-07,24.463414,120.680019,0.0002272632
C1R110,口社,2025-10-07,22.770111,120.645222,0.86940247
C1M870,國三N285K,2025-10-07,23.550319,120.505833,0.48277652
C1E480,鳳美,2025-10-07,24.554803,121.034747,0.99973875
C0M530,奮起湖,2025-10-07,23.493903,120.699253,3.2234349e-09
C0C590,觀音,2025-10-07,25.027072,121.153317,0.99311966
C0T9M0,靜浦,2025-10-07,23.455167,121.495028,0.9864161
C2H9M0,發祥,2025-10-07,24.154094,121.164517,1.0820328e-09
C2G9C0,埔南,2025-10-07,23.99124,120.46969,0.20574571
C0AI40,石牌,2025-10-07,25.115597,121.513139,0.30737692
C1F871,上谷關,2025-10-07,24.203483,121.018644,5.534977e-09
C2H9G0,百勝,2025-10-07,24.051142,120.909361,4.052638e-05
C0G880,二水,2025-10-07,23.810742,120.6173,0.8325333
C0R940,加祿堂,2025-10-07,22.3363,120.6217,0.05709338
C0W220,北竿,2025-10-07,26.220358,119.974881,0.053370148
C0O960,崎頂,2025-10-07,22.959547,120.369317,0.97493327
C0TA40,秀林,2025-10-07,24.302864,121.731144,1.5815e-08
C0S750,向陽,2025-10-07,23.248397,120.986133,1.1946029e-09
C0T9F0,水璉,2025-10-07,23.797131,121.542514,0.9786014
C1M600,頭凍,2025-10-07,23.406364,120.603339,9.650879e-09
467660,臺東,2025-10-07,22.752211,121.154586,0.1894323
C1D380,新埔,2025-10-07,24.84745,121.03834,0.83988464
C2G980,田頭村,2025-10-07,23.8263,120.444175,0.9864115
C0V750,路竹,2025-10-07,22.854997,120.259439,0.19713773
C0N050,蚵寮,2025-10-07,23.301,120.1104,0.29140416
C2X060,下營,2025-10-07,23.226806,120.256291,0.46978536
72M700,南改鹿草分場,2025-10-07,23.416869,120.283061,0.74590635
C1SA50,利嘉林道,2025-10-07,22.82325,121.009389,1.2480217e-07
C0UB70,太平山中間站,2025-10-07,24.542003,121.513453,4.9355937e-09
C0A940,金山,2025-10-07,25.223628,121.643967,0.40405688
C1V340,大津,2025-10-07,22.888322,120.645986,0.9930862
C0W180,七美,2025-10-07,23.219333,119.444892,0.0149070425
C1F9C1,白冷,2025-10-07,24.182844,120.929889,4.3773293e-06
K2E710,苗改生物防治研究中心,2025-10-07,24.422861,120.871833,0.99352324
C0N040,蘆竹溝,2025-10-07,23.2344,120.0961,0.29140416
C0TB40,崇德,2025-10-07,24.166144,121.657414,0.9961604
C0D760,大坪苗圃,2025-10-07,24.5362,121.1108,7.719415e-09
C2W230,畜試所澎湖,2025-10-07,23.628342,119.513206,0.008783787
C0R880,後壁湖,2025-10-07,21.9457,120.7457,0.7200077
C1I280,埔中,2025-10-07,23.820778,120.642594,0.941369
467790,墾丁雷達站,2025-10-07,21.948235,120.808028,0.3893226
C0W190,望安,2025-10-07,23.380564,119.494075,0.02930049
C0Z170,卓溪,2025-10-07,23.3443,121.3029,0.9946485
C0F850,東勢,2025-10-07,24.246428,120.833047,0.84486467
466900,淡水,2025-10-07,25.164889,121.448906,0.096785866
C0I370,魚池,2025-10-07,23.895703,120.94135,0.00033047394
C0C630,大溪,2025-10-07,24.882853,121.265547,0.47728705
C0A520,山佳,2025-10-07,24.974944,121.402008,0.95853496
C0I110,竹山,2025-10-07,23.761225,120.688156,0.95165235
82H840,茶改南部分場,2025-10-07,23.762528,120.7405,0.9919832
C2SD80,再來山,2025-10-07,23.34371,121.44122,0.9777441
C0G660,溪湖,2025-10-07,23.94835,120.479122,0.97809833
C1T800,洛韶,2025-10-07,24.204558,121.453956,1.5980491e-09
C1T810,慈恩,2025-10-07,24.192044,121.388386,1.1194528e-09
C1E451,象鼻,2025-10-07,24.368617,120.940228,1.07924905e-07
C0AC60,三峽,2025-10-07,24.939025,121.369728,0.95655406
C0I490,萬大林道,2025-10-07,23.928228,121.091411,8.640879e-10
C1I290,豐丘,2025-10-07,23.668178,120.887417,2.1417211e-08
C1I320,奧萬大,2025-10-07,23.952956,121.178556,1.2906048e-09
C2M910,嘉義大學,2025-10-07,23.471325,120.485903,0.92360204
C0U770,南澳,2025-10-07,24.44935,121.81022,0.029200394
C2TB30,吉安,2025-10-07,23.94538,121.54803,0.94329786
C0A980,社子,2025-10-07,25.109508,121.469681,0.10098516
C0V800,六龜,2025-10-07,22.997889,120.633583,0.99954414
C1G9D0,國一S218K,2025-10-07,23.890641,120.493253,0.9884153
C0E570,白沙屯,2025-10-07,24.549447,120.696803,0.8691972
C2F9A0,中竹林,2025-10-07,24.103556,120.751061,0.7060365
C0FA40,臺中電廠,2025-10-07,24.2146,120.4907,0.8715286
C2G9A0,畜試所彰化,2025-10-07,23.86045,120.557964,0.98551047
C0H9C0,合歡山,2025-10-07,24.143442,121.272547,4.863451e-09
C0X060,下營,2025-10-07,23.22695,120.256261,0.51838064
G2M350,農試溪口農場,2025-10-07,23.58565,120.408111,0.5947479
C0U860,頭城,2025-10-07,24.85323,121.8308,0.9829551
C0R580,南州,2025-10-07,22.48591,120.50274,0.7076731
C0D430,峨眉,2025-10-07,24.6905,121.017189,0.95580477
C0G780,秀水,2025-10-07,24.03405,120.503869,0.94217765
72N100,臺南農改場,2025-10-07,23.0605,120.342194,0.5375708
C0S900,蘭嶼高中,2025-10-07,22.04909,121.51214,0.9971391
C2TA60,六十石,2025-10-07,23.22477,121.31861,7.497116e-08
C1F9W0,德基,2025-10-07,24.254783,121.190261,1.2013847e-09
C2M980,安和,2025-10-07,23.51377,120.31593,0.97151446
C1Z120,壽豐,2025-10-07,23.870853,121.508081,0.97447747
C0W160,烏坵,2025-10-07,24.9944,119.44956,0.03192752
C1I240,外大坪,2025-10-07,23.958697,120.917931,4.0385244e-06
C1I550,國六W023K,2025-10-07,23.979067,120.867742,0.9659426
C0R870,興海,2025-10-07,21.9752,120.8439,0.3893226
C0R140,瑪家,2025-10-07,22.682903,120.686639,1.2228962e-06
C0A530,坪林,2025-10-07,24.938183,121.70975,0.99621356
C0X260,後壁,2025-10-07,23.366358,120.362326,0.5360513
C0Z230,和平,2025-10-07,24.30717,121.77007,0.36128336
C0G770,福興,2025-10-07,24.041289,120.437669,0.20574571
C0H9A0,神木村,2025-10-07,23.532742,120.843667,3.5406829e-09
C0I460,南投,2025-10-07,23.911469,120.687331,0.98674756
C0I480,梅峰,2025-10-07,24.085272,121.173572,1.1838897e-09
C1V570,吉東,2025-10-07,22.85422,120.5454,0.97972524
C2D740,屯原,2025-10-07,24.067969,121.209389,1.107139e-09
C2A560,福山,2025-10-07,24.776203,121.502811,1.2789073e-05
C0AH30,五分山,2025-10-07,25.07125,121.780794,0.0004291921
C0FA10,松柏,2025-10-07,24.429115,120.617482,0.87966853
72S200,東改班鳩分場,2025-10-07,22.829528,121.077694,0.9938325
72HA00,中改埔里分場,2025-10-07,23.903208,120.963364,0.0013516446
C2H9W0,大坪頂農水,2025-10-07,24.043122,120.932781,0.00023584062
C0C650,平鎮,2025-10-07,24.897503,121.214636,0.37839255
C0S930,延平,2025-10-07,22.902581,121.084058,0.9969924
C0UA60,樟樹山,2025-10-07,24.41393,121.78325,0.0006041541
C2UC10,出水溪,2025-10-07,24.615822,121.652253,7.496101e-08
C1S670,摩天,2025-10-07,23.199503,121.027,1.4480136e-09
C2C590,觀音,2025-10-07,25.027072,121.153317,0.9934412
C0V630,茄萣,2025-10-07,22.906642,120.182608,0.14098112
466940,基隆,2025-10-07,25.133314,121.740475,0.32444638
C0X050,東河,2025-10-07,23.296598,120.385608,0.30013543
C0R770,保力,2025-10-07,22.071122,120.764111,0.22762688
G2L020,農試嘉義分所,2025-10-07,23.485028,120.473806,0.92360204
C0X240,關子嶺,2025-10-07,23.331169,120.508025,0.9940754
C0I380,集集,2025-10-07,23.828206,120.801467,0.9958135
466990,花蓮,2025-10-07,23.975128,121.613275,0.3218618
C1V220,小關山,2025-10-07,23.154217,120.813603,1.1546157e-09
C1F9G1,慶福山,2025-10-07,24.180853,120.848378,1.387875e-08
C0FB20,雪山橋,2025-10-07,24.23192,120.9786,1.9152429e-09
C0Z250,瑞穗林道,2025-10-07,23.49284,121.30688,4.622204e-09
C0D590,新豐,2025-10-07,24.87068,120.97721,0.0003340518
C0A870,五指山,2025-10-07,25.132153,121.608692,3.7436705e-05
C0UA50,西帽山,2025-10-07,24.555361,121.802628,2.784097e-08
C2R980,竹田國中,2025-10-07,22.61532,120.52412,0.950264
C0X160,仁德,2025-10-07,22.968258,120.257689,0.73475766
C1H971,六分寮,2025-10-07,23.92507,120.6378,0.9982869
C0W120,西嶼,2025-10-07,23.5626,119.468436,0.012252852
C0G650,員林,2025-10-07,23.946503,120.585597,0.9860653
C0AD50,鶯歌,2025-10-07,24.951533,121.346294,0.9817204
C2H9Q0,北東眼山,2025-10-07,24.120939,121.189303,1.2025654e-09
C2H9T0,名間竹圍,2025-10-07,23.859914,120.637572,0.99760157
C0S990,山豬窟,2025-10-07,22.318619,120.857372,0.9661708
C0X190,安平,2025-10-07,22.993161,120.152181,0.5255579
C0K400,斗六,2025-10-07,23.720583,120.541127,0.36585417
12J990,口湖工作站,2025-10-07,23.589978,120.180394,0.46183354
C0O830,北寮,2025-10-07,23.079561,120.495008,0.9904544
C1D410,白蘭,2025-10-07,24.579364,121.079947,2.1108185e-08
C0S970,加津林,2025-10-07,22.416211,120.926942,0.6988248
C0D700,關西,2025-10-07,24.7977,121.1732,0.35986662
C0M810,里佳,2025-10-07,23.389125,120.716647,2.890968e-09
C0U750,龜山島,2025-10-07,24.841667,121.953133,0.99979717
C0R810,內獅,2025-10-07,22.305064,120.642986,0.057042625
C1M390,龍美,2025-10-07,23.406728,120.654417,5.66132e-09
C2K290,崙內,2025-10-07,23.69525,120.35601,0.9724801
C2FB60,頭櫃山,2025-10-07,24.129842,120.858925,2.6378852e-09
C1H840,國三N238K,2025-10-07,23.841008,120.707711,0.9946254
CAQ030,崎峰國小,2025-10-07,22.42565,120.49521,0.7076731
C2E520,大湖,2025-10-07,24.414939,120.870872,0.99352324
467530,阿里山,2025-10-07,23.508208,120.813242,2.7859177e-09
C1E691,南湖,2025-10-07,24.40135,120.837533,1.7890345e-05
C0FA30,梧棲,2025-10-07,24.256003,120.523381,0.930413
C1V231,高中,2025-10-07,23.134911,120.716711,1.0151567e-05
C0AK30,硬漢嶺,2025-10-07,25.136097,121.426372,0.012709706
C0F9V0,新社,2025-10-07,24.200172,120.815806,0.754667
C0H890,埔里,2025-10-07,23.972169,120.952425,0.99620724
C0R690,墾丁,2025-10-07,21.966756,120.810269,0.13618569
C0SD20,富山,2025-10-07,22.822383,121.190825,0.34138924
C0F0D0,審馬陣,2025-10-07,24.381675,121.4203,3.2418583e-09
C2W030,金門農試所,2025-10-07,24.448431,118.451786,0.77692413
C0R820,白鷺,2025-10-07,22.454275,120.666219,2.0722984e-05
C0FB00,大雪山,2025-10-07,24.254668,121.007374,2.330049e-09
C1V190,南天池,2025-10-07,23.27403,120.91176,1.3266347e-09
C0E940,雪見,2025-10-07,24.42595,121.01347,3.6248828e-09
K2E360,苗栗農改場,2025-10-07,24.495722,120.829111,0.985395
CAJ050,海口故事園區,2025-10-07,23.57543,120.14121,0.46183354
C2K280,四湖,2025-10-07,23.6304,120.22717,0.68475914
C2H9D0,三隻寮,2025-10-07,24.093078,120.861578,9.619913e-09
C0O990,媽廟,2025-10-07,22.99175,120.293525,0.819758
C0D480,打鐵坑,2025-10-07,24.849664,121.150789,0.789742
C0Z220,和平林道,2025-10-07,24.343922,121.656317,0.0035849651
C0TA10,花蓮漁港,2025-10-07,23.995322,121.638331,0.29305533
72C440,桃園農改場,2025-10-07,24.950944,121.030583,0.14526375
C1E711,馬拉邦山,2025-10-07,24.367306,120.901656,4.11795e-08
C0SB20,富岡,2025-10-07,22.792467,121.192669,0.36934248
C0D560,竹東,2025-10-07,24.767147,121.057881,0.84906256
C0F9U0,南屯,2025-10-07,24.137006,120.637969,0.9494966
C2SD60,明峰,2025-10-07,22.8671,121.11825,0.9926248
C0M720,番路,2025-10-07,23.464657,120.554156,0.9053791
C0F0A0,雪山圈谷,2025-10-07,24.388594,121.236339,5.139925e-09
C1A9N0,四十份,2025-10-07,24.934158,121.593283,0.08245623
C0U760,東澳,2025-10-07,24.52196,121.83318,0.030414006
C0X230,鹽水,2025-10-07,23.272621,120.247641,0.24924679
C2H9H0,苗改南投蜂場,2025-10-07,23.852589,120.693481,0.96500975
C2TB70,達谷寮,2025-10-07,23.38,121.35968,0.97913104
C0R950,萬隆國小,2025-10-07,22.507667,120.587817,0.06615806
467540,大武,2025-10-07,22.35572,120.90374,0.20299765
C0V370,古亭坑,2025-10-07,22.893178,120.401947,0.9883812
C1I340,新興橋,2025-10-07,23.563333,120.868728,2.1383256e-07
C0SA80,土坂,2025-10-07,22.453108,120.887572,0.9172123
C0R160,鹽埔,2025-10-07,22.739558,120.530778,0.5294086
C0AC40,大屯山,2025-10-07,25.175675,121.522408,1.0822834e-07
466850,五分山雷達站,2025-10-07,25.071182,121.781205,0.00030378994
C2H9L0,馬烈霸,2025-10-07,24.1512,121.201772,1.2025654e-09
C1AI50,國三N016K,2025-10-07,25.034164,121.619664,0.065068446
C2V920,匏子寮,2025-10-07,23.04905,120.55319,0.99781185
C1V600,藤枝,2025-10-07,23.071961,120.757042,1.387996e-09
C1E601,南勢,2025-10-07,24.572486,120.734842,0.8691972
C0O980,新市,2025-10-07,23.061614,120.298197,0.5375708
C0K420,西螺,2025-10-07,23.800407,120.467394,0.9864115
C0Z050,佳心,2025-10-07,23.34567,121.21316,1.4778904e-07
C0AD30,蘆洲,2025-10-07,25.086594,121.472331,0.73987585
C0V610,梓官,2025-10-07,22.760558,120.267211,0.19497998
K2F750,種苗改良場,2025-10-07,24.225972,120.800917,0.754667
C0UA80,大溪漁港,2025-10-07,24.941801,121.902955,0.99936754
C1AI60,國一39K邊坡,2025-10-07,25.064361,121.383836,0.16917916
C0W150,金寧,2025-10-07,24.457703,118.328989,0.80095416
C0R960,內埔,2025-10-07,22.608483,120.570714,0.950264
V2C250,八德合作社,2025-10-07,24.93775,121.266389,0.47728705
C2H9S0,龍南,2025-10-07,23.953536,120.833183,2.7463014e-09
C0AH40,平等,2025-10-07,25.129142,121.577086,0.16282661
C0R540,佳冬,2025-10-07,22.419456,120.552375,0.9137121
466950,彭佳嶼,2025-10-07,25.627975,122.079744,0.9978032
C0A890,雙溪,2025-10-07,25.036003,121.864242,0.9991303
C0C480,桃園,2025-10-07,24.992425,121.323172,0.92888474
C0AH50,林口,2025-10-07,25.072181,121.38084,0.15790446
A2K360,水試臺西試驗場,2025-10-07,23.717231,120.190522,0.8046458
C2M960,外寮,2025-10-07,23.562643,120.665688,1.0697271e-08
C0F9S0,烏日,2025-10-07,24.107058,120.624103,0.9494966
C2N180,鹿陶洋,2025-10-07,23.14325,120.48352,0.5688646
C0C490,八德,2025-10-07,24.928708,121.283289,0.47728705
C0R190,赤山,2025-10-07,22.592333,120.614306,0.9730301
C0T820,天祥,2025-10-07,24.179597,121.495639,0.023624789
C1F9E1,龍安,2025-10-07,24.1605,120.831961,0.5495564
C2SD50,順那,2025-10-07,23.04166,121.29332,0.9841974
C0V820,小林,2025-10-07,23.148408,120.63325,0.9994955
C2G870,芳苑,2025-10-07,23.922303,120.320025,0.0038356725
C0E850,大河,2025-10-07,24.618069,120.948578,0.93616015
C1U670,寒溪,2025-10-07,24.634,121.71691,0.33648145
C0N020,城西,2025-10-07,23.0568,120.0956,0.16212744
C1Z110,三棧,2025-10-07,24.11557,121.60501,2.7913214e-07
C0R280,檳榔,2025-10-07,22.076078,120.836777,0.88446695
C2H9J0,中台,2025-10-07,23.9996,120.938739,0.00023584062
C0F9L0,后里,2025-10-07,24.310436,120.729725,0.980954
467441,高雄,2025-10-07,22.730432,120.312516,0.61564106
C0Z180,新城,2025-10-07,24.040486,121.604878,0.34821728
C0D540,橫山,2025-10-07,24.71116,121.11693,0.99567413
C1D420,太閣南,2025-10-07,24.632808,121.160575,2.6823828e-08
C1E770,公館,2025-10-07,24.526914,120.830806,0.99142957
CAN130,水試所海水繁養殖中心,2025-10-07,23.120802,120.07968,0.16404696
C1I430,翠華,2025-10-07,24.191961,121.224339,1.6482232e-09
C1M400,菜瓜坪,2025-10-07,23.251928,120.576103,0.88951045
C0G730,二林,2025-10-07,23.903325,120.376081,0.46402812
72M360,南改義竹分場,2025-10-07,23.360694,120.279361,0.40558827
V2K620,麥寮合作社,2025-10-07,23.753836,120.294783,0.9810705
C0Z070,舞鶴,2025-10-07,23.46811,121.37407,0.9956121
C0B040,大武崙,2025-10-07,25.166676,121.706993,0.49177343
C1Z030,紅葉,2025-10-07,23.493119,121.338806,0.9959788
C1I050,丹大,2025-10-07,23.753747,121.141147,1.7382197e-09
C0I080,信義,2025-10-07,23.689694,120.851036,0.9949269
C2TB80,庄子底,2025-10-07,23.71794,121.49438,0.99856293
C0D750,樂山林道6k,2025-10-07,24.49999,121.08773,1.6380877e-09
C2M920,朴子農改,2025-10-07,23.469889,120.259383,0.74590635
C2A880,福隆,2025-10-07,25.017842,121.942083,0.99839884
C0Z160,鳳林,2025-10-07,23.746114,121.453411,0.9985544
C0UB80,翠峰林道6K,2025-10-07,24.49773,121.568625,9.705127e-10
C0V210,復興,2025-10-07,23.222403,120.806089,0.00020518662
C0H990,昆陽,2025-10-07,24.121322,121.273642,3.3669894e-09
C0R741,獅子,2025-10-07,22.202308,120.705236,0.04604223
C0S710,鹿野,2025-10-07,22.917711,121.122994,0.9897861
C0I530,小奇萊,2025-10-07,24.131764,121.295717,3.6413197e-09
C0FA70,大雪山埡口,2025-10-07,24.26867,121.03062,2.0877304e-09
C2K630,荷苞,2025-10-07,23.657717,120.595144,0.4852446
C0Z080,富源,2025-10-07,23.587642,121.378225,0.99980295
C2M9E0,旺來山,2025-10-07,23.555153,120.486463,0.4827766
C0SB10,美和,2025-10-07,22.682078,121.060236,0.1894323
C2K620,馬光農場,2025-10-07,23.721453,120.378864,0.9774419
C1I140,卡奈托灣,2025-10-07,23.754364,121.087872,1.0692431e-09
C0I520,玉山風口,2025-10-07,23.470489,120.955994,7.652041e-09
C1G691,下水埔,2025-10-07,23.816114,120.5676,0.9075433
C0X110,臺南市南區,2025-10-07,22.961189,120.188378,0.7373159
C0V680,仁武,2025-10-07,22.701083,120.347722,0.61564106
C2G840,北斗,2025-10-07,23.877586,120.514222,0.9884153
C2TB90,長橋,2025-10-07,23.6874,121.46186,0.99858266
C0R900,竹坑,2025-10-07,22.1385,120.7022,0.114259176
C0K250,崙背,2025-10-07,23.75555,120.318925,0.9804301
C0G860,社頭,2025-10-07,23.897647,120.5862,0.98551047
C0X150,安定,2025-10-07,23.102614,120.227839,0.9393371
C0R590,里港,2025-10-07,22.77919,120.49459,0.99571365
C0E610,馬都安,2025-10-07,24.451272,120.930192,1.939847e-05
C0E550,明德,2025-10-07,24.583486,120.885411,0.58894384
C0R150,三地門,2025-10-07,22.709889,120.639944,0.9634579
C0G910,花壇,2025-10-07,24.032076,120.549461,0.94217765
C1D400,鳥嘴山,2025-10-07,24.71909,121.28387,1.3728884e-06
C0K500,元長,2025-10-07,23.64981,120.315024,0.98194927
C0F0B0,石岡,2025-10-07,24.276061,120.777644,0.980954
C2V250,甲仙,2025-10-07,23.080106,120.591758,0.9989713
C0SA20,金崙山,2025-10-07,22.567419,120.959667,0.000185374
C0V350,溪埔,2025-10-07,22.738578,120.446797,0.9923279
C0M660,溪口,2025-10-07,23.604131,120.403569,0.5947479
C1S880,壽卡,2025-10-07,22.238911,120.858903,0.7252794
72D680,桃改新埔分場,2025-10-07,24.834444,121.066111,0.83988464
