站號,站名,日期,lat,lon,BlastGRU-TW
CAH030,茶改場竹圍站,2025-12-17,23.860083,120.637528,0.05869651
V2K610,大庄合作社,2025-12-17,23.8068,120.367939,0.14723974
G2AI50,關渡,2025-12-17,25.11575,121.492,0.027965829
V2C260,八德蔬果,2025-12-17,24.978508,121.281819,0.0152457645
A2K570,古坑花卉中心,2025-12-17,23.63353,120.55239,0.009920608
467571,新竹,2025-12-17,24.827853,121.014219,0.0025413071
C0E430,南庄,2025-12-17,24.601775,121.000214,0.0037214418
C0E420,竹南,2025-12-17,24.708978,120.888897,0.0016772179
C0M530,奮起湖,2025-12-17,23.493903,120.699253,0.0015706404
C0C590,觀音,2025-12-17,25.027072,121.153317,0.0004928685
C0M810,里佳,2025-12-17,23.389125,120.716647,0.0007951111
V2C250,八德合作社,2025-12-17,24.93775,121.266389,0.010444417
