站號,站名,日期,lat,lon,BlastGRU-TW
12J990,口湖工作站,2025-01-29,23.589978,120.180394,0.0006668424
12Q970,東港工作站,2025-01-29,22.479997,120.466058,0.0044063046
12Q980,恆春工作站,2025-01-29,22.079678,120.714425,0.00025790633
466881,新北,2025-01-29,24.9593,121.52,0.0012877875
466900,淡水,2025-01-29,25.164889,121.448906,0.0030335824
466920,臺北,2025-01-29,25.037658,121.514853,0.002228199
466940,基隆,2025-01-29,25.133314,121.740475,0.0006110572
466990,花蓮,2025-01-29,23.975128,121.613275,0.00039461625
467050,新屋,2025-01-29,25.006744,121.047486,0.00049213006
467080,宜蘭,2025-01-29,24.763975,121.756528,0.00096155365
467270,田中,2025-01-29,23.873803,120.581286,0.0029238907
467280,後龍,2025-01-29,24.648563,120.831834,0.0010428131
467290,古坑,2025-01-29,23.633639,120.551889,0.0013247846
467300,東吉島,2025-01-29,23.25695,119.667467,0.0005130882
467350,澎湖,2025-01-29,23.565503,119.563094,0.00048182515
467410,臺南,2025-01-29,22.993239,120.204772,0.0010495177
467420,永康,2025-01-29,23.038386,120.2367,0.0011401137
467441,高雄,2025-01-29,22.7304,120.3125,0.0018843856
467480,嘉義,2025-01-29,23.495925,120.432906,0.0014715224
467490,臺中,2025-01-29,24.145736,120.684075,0.001667022
467540,大武,2025-01-29,22.355675,120.903789,0.0015697298
467571,新竹,2025-01-29,24.827853,121.014219,0.0009472543
467590,恆春,2025-01-29,22.003897,120.746339,0.0016890053
467610,成功,2025-01-29,23.097486,121.373428,0.00048322175
467620,蘭嶼,2025-01-29,22.036969,121.558339,0.0006138921
467660,臺東,2025-01-29,22.752211,121.154586,0.0014435545
467790,墾丁雷達站,2025-01-29,21.948235,120.808028,0.0010329457
72AI40,桃改樹林分場,2025-01-29,24.944503,121.386972,0.0013088126
72C440,桃園農改,2025-01-29,24.950944,121.030583,0.0004954753
72C440,桃園農改場,2025-01-29,24.950944,121.030583,0.0004954753
72D680,桃改新埔分場,2025-01-29,24.834444,121.066111,0.0014754181
72G600,臺中農改,2025-01-29,24.003028,120.534389,0.0008252541
72G600,臺中農改場,2025-01-29,24.003028,120.534389,0.0008252541
72K220,南改斗南分場,2025-01-29,23.634556,120.477333,0.0015242639
72M360,南改義竹分場,2025-01-29,23.360694,120.279361,0.0008964831
72M700,南改鹿草分場,2025-01-29,23.416869,120.283061,0.0010059697
72N100,臺南農改,2025-01-29,23.0605,120.342194,0.0031331005
72N100,臺南農改場,2025-01-29,23.0605,120.342194,0.0031331005
72N240,七股研究中心,2025-01-29,23.081672,120.062894,0.0007949213
72Q010,高雄農改,2025-01-29,22.709333,120.525889,0.0021987099
72Q010,高雄農改場,2025-01-29,22.709333,120.525889,0.0021987099
72S200,東改班鳩分場,2025-01-29,22.829528,121.077694,0.0004153166
72S590,東改賓朗果園,2025-01-29,22.813889,121.071278,0.00041903785
72T250,花蓮農改,2025-01-29,23.975222,121.563889,0.00037642807
72T250,花蓮農改場,2025-01-29,23.975222,121.563889,0.00037642807
72U480,花改蘭陽分場,2025-01-29,24.686306,121.716583,0.0011561424
72V140,高改旗南分場,2025-01-29,22.857861,120.516667,0.0074494975
82A750,茶改北部分場,2025-01-29,24.955778,121.631222,0.0013563817
82C160,茶改場,2025-01-29,24.908472,121.185333,0.001031877
82H840,茶改南部分場,2025-01-29,23.762528,120.7405,0.0021398356
82S580,茶改東部分場,2025-01-29,22.907694,121.130139,0.0005252118
A2C560,農工中心,2025-01-29,24.985917,121.239833,0.0014687581
A2K360,水試臺西試驗場,2025-01-29,23.717231,120.190522,0.0006556688
A2K570,古坑花卉中心,2025-01-29,23.63353,120.55239,0.0013247846
A2K630,臺大雲林校區,2025-01-29,23.730628,120.423903,0.0012826371
A2N290,臺南蘭花園區,2025-01-29,23.340258,120.379661,0.0014879488
B2E890,畜試北區分所,2025-01-29,24.527806,120.770972,0.0007301586
B2N890,畜產試驗所,2025-01-29,23.058972,120.336406,0.0031378237
B2N890,畜試所,2025-01-29,23.058972,120.336406,0.0031378237
B2Q810,畜試南區分所,2025-01-29,21.945583,120.802167,0.0009960785
B2U990,畜試東區分所,2025-01-29,24.669039,121.832561,0.014417792
C0A520,山佳,2025-01-29,24.974944,121.402008,0.0012736485
C0A530,坪林,2025-01-29,24.938183,121.70975,0.0028562555
C0A550,泰平,2025-01-29,24.971197,121.823711,0.0015216136
C0A570,桶後,2025-01-29,24.848222,121.597992,0.0016287428
C0A640,石碇,2025-01-29,24.993969,121.662917,0.002058154
C0A770,科教館,2025-01-29,25.096356,121.516507,0.0036656952
C0A860,大坪,2025-01-29,25.165914,121.632969,0.0015703376
C0A890,雙溪,2025-01-29,25.036003,121.864242,0.0019699053
C0A931,三和,2025-01-29,25.233153,121.595236,0.0012435509
C0A940,金山,2025-01-29,25.223628,121.643967,0.0011529427
C0A950,鼻頭角,2025-01-29,25.129036,121.923372,0.0021846157
C0A970,三貂角,2025-01-29,25.007606,122.002058,0.003098053
C0A980,社子,2025-01-29,25.109508,121.469681,0.0030353176
C0A9C0,天母,2025-01-29,25.117494,121.537169,0.003162287
C0A9F0,內湖,2025-01-29,25.079422,121.57545,0.002228199
C0AC60,三峽,2025-01-29,24.939025,121.369728,0.00130288
C0AC70,信義,2025-01-29,25.037822,121.564597,0.002228199
C0AC80,文山,2025-01-29,25.00235,121.575728,0.0013032753
C0ACA0,新莊,2025-01-29,25.051478,121.446756,0.0022268137
C0AD10,八里,2025-01-29,25.150211,121.403947,0.0033794958
C0AD30,蘆洲,2025-01-29,25.086594,121.472331,0.0036683765
C0AD40,土城,2025-01-29,24.973208,121.445169,0.0012702341
C0AD50,鶯歌,2025-01-29,24.951533,121.346294,0.0012981322
C0AG80,中和,2025-01-29,24.991622,121.491792,0.0012702341
C0AH00,汐止,2025-01-29,25.066881,121.658778,0.002228199
C0AH10,永和,2025-01-29,25.01125,121.508111,0.0012534425
C0AH40,平等,2025-01-29,25.129142,121.577086,0.0014402756
C0AH50,林口,2025-01-29,25.072181,121.38084,0.0025372247
C0AH70,松山,2025-01-29,25.04871,121.55042,0.002228199
C0AH80,深坑,2025-01-29,25.002703,121.628328,0.001299003
C0AI00,五股,2025-01-29,25.07445,121.42728,0.0026060569
C0AI10,屈尺,2025-01-29,24.92184,121.54475,0.00056660076
C0AI20,白沙灣,2025-01-29,25.283128,121.519058,0.0012135394
C0AI30,三重,2025-01-29,25.057328,121.500629,0.0022458665
C0AI40,石牌,2025-01-29,25.115597,121.513139,0.0031661054
C0AJ20,野柳,2025-01-29,25.20703,121.690021,0.000972543
C0AJ30,淡水觀海,2025-01-29,25.184591,121.408616,0.0023972956
C0AJ40,石門,2025-01-29,25.273672,121.601198,0.0014559424
C0AJ50,水湳洞,2025-01-29,25.123695,121.862238,0.0010001753
C0AJ60,六塊厝,2025-01-29,25.24,121.4481,0.0011726884
C0AJ70,田寮,2025-01-29,25.2698,121.4886,0.0011989533
C0AJ80,板橋,2025-01-29,25.0107,121.4489,0.0012534425
C0AJ90,澳底,2025-01-29,25.0552,121.9253,0.0019420093
C0B010,七堵,2025-01-29,25.094819,121.71713,0.0016842906
C0B020,基隆嶼,2025-01-29,25.19141,121.78391,0.0009894934
C0B040,大武崙,2025-01-29,25.166676,121.706993,0.00061847497
C0B050,八斗子,2025-01-29,25.144754,121.79167,0.00061349035
C0B060,暖暖,2025-01-29,25.0957,121.7403,0.001706304
C0C460,復興,2025-01-29,24.820208,121.352281,0.0007473297
C0C480,桃園,2025-01-29,24.992425,121.323172,0.0017146562
C0C490,八德,2025-01-29,24.928708,121.283289,0.0008330866
C0C590,觀音,2025-01-29,25.027072,121.153317,0.00066290144
C0C620,蘆竹,2025-01-29,25.084275,121.265767,0.0007098588
C0C630,大溪,2025-01-29,24.882853,121.265547,0.0008004069
C0C650,平鎮,2025-01-29,24.897503,121.214636,0.0007920574
C0C660,楊梅,2025-01-29,24.912375,121.143047,0.0010947869
C0C670,龍潭,2025-01-29,24.870056,121.221389,0.00076688605
C0C680,龜山,2025-01-29,25.02846,121.38656,0.0011309405
C0C700,中壢,2025-01-29,24.977661,121.256375,0.0013290491
C0C710,大溪永福,2025-01-29,24.892936,121.324975,0.000843072
C0C720,竹圍,2025-01-29,25.112692,121.239824,0.0007829929
C0C730,中大臨海站,2025-01-29,24.966126,121.008581,0.0004976976
C0C740,觀音工業區,2025-01-29,25.064764,121.114856,0.00047102236
C0C750,新興坑尾,2025-01-29,25.0061,121.0971,0.0006995132
C0D430,峨眉,2025-01-29,24.6905,121.017189,0.0006474998
C0D480,打鐵坑,2025-01-29,24.849664,121.150789,0.0007654582
C0D540,橫山,2025-01-29,24.71116,121.11693,0.0008523685
C0D560,竹東,2025-01-29,24.767147,121.057881,0.0006200083
C0D580,寶山,2025-01-29,24.735006,121.025192,0.0006021897
C0D590,新豐,2025-01-29,24.87068,120.97721,0.00092632964
C0D650,湖口,2025-01-29,24.904794,121.043628,0.00087800855
C0D660,新竹市東區,2025-01-29,24.798681,120.986942,0.00074272446
C0D670,海天一線,2025-01-29,24.831986,120.914438,0.0005848857
C0D680,香山濕地,2025-01-29,24.783581,120.914988,0.0007749076
C0D690,外湖,2025-01-29,24.917735,120.968711,0.0009541938
C0D700,關西,2025-01-29,24.7977,121.1732,0.00092100975
C0E420,竹南,2025-01-29,24.708978,120.888897,0.00075900013
C0E430,南庄,2025-01-29,24.601775,121.000214,0.00090682966
C0E550,明德,2025-01-29,24.583486,120.885411,0.0010027416
C0E590,通霄,2025-01-29,24.471892,120.704622,0.0008342082
C0E730,頭份,2025-01-29,24.688247,120.912206,0.00076422864
C0E740,造橋,2025-01-29,24.637056,120.864778,0.001056017
C0E750,苗栗,2025-01-29,24.564569,120.824575,0.0010204897
C0E780,銅鑼,2025-01-29,24.489681,120.790853,0.0006728843
C0E791,卓蘭,2025-01-29,24.3126,120.8244,0.0010009515
C0E810,西湖,2025-01-29,24.562947,120.7485,0.00055300654
C0E820,獅潭,2025-01-29,24.539133,120.920042,0.0008678032
C0E830,苑裡,2025-01-29,24.439714,120.653053,0.0005529157
C0E850,大河,2025-01-29,24.618069,120.948578,0.0010014328
C0E870,高鐵苗栗,2025-01-29,24.60725,120.826094,0.0010519094
C0E910,海埔,2025-01-29,24.648767,120.772435,0.00050387706
C0E920,通霄漁港,2025-01-29,24.498589,120.673876,0.00063309015
C0E930,龍鳳,2025-01-29,24.700034,120.859125,0.00078247336
C0F0B0,石岡,2025-01-29,24.276061,120.777644,0.0010831315
C0F850,東勢,2025-01-29,24.246428,120.833047,0.0009815899
C0F970,大坑,2025-01-29,24.173142,120.722289,0.0015198324
C0F9I0,神岡,2025-01-29,24.272481,120.658314,0.00081797846
C0F9K0,大安,2025-01-29,24.345061,120.588025,0.00045280703
C0F9L0,后里,2025-01-29,24.310436,120.729725,0.0011567798
C0F9M0,豐原,2025-01-29,24.254322,120.720692,0.0011984475
C0F9N0,大里,2025-01-29,24.092464,120.701378,0.0021763004
C0F9O0,潭子,2025-01-29,24.213106,120.703933,0.0013082842
C0F9P0,清水,2025-01-29,24.312297,120.562242,0.0005595494
C0F9Q0,外埔,2025-01-29,24.347817,120.705686,0.0008230119
C0F9R0,龍井,2025-01-29,24.184536,120.528972,0.00096638326
C0F9S0,烏日,2025-01-29,24.107058,120.624103,0.002299864
C0F9T0,西屯,2025-01-29,24.179494,120.641275,0.0013260028
C0F9U0,南屯,2025-01-29,24.137006,120.637969,0.0013741676
C0F9X0,大雅(中科園區),2025-01-29,24.21528,120.62445,0.00080744206
C0FA10,松柏,2025-01-29,24.429115,120.617482,0.00045740293
C0FA20,溫寮,2025-01-29,24.372177,120.583125,0.0004595742
C0FA30,梧棲,2025-01-29,24.256003,120.523381,0.00055794336
C0FA40,臺中電廠,2025-01-29,24.2146,120.4907,0.00055661914
C0FA50,霧峰,2025-01-29,24.0419,120.6995,0.002489267
C0G620,芬園,2025-01-29,24.015678,120.6213,0.003152211
C0G650,員林,2025-01-29,23.946503,120.585597,0.001601688
C0G660,溪湖,2025-01-29,23.94835,120.479122,0.0008556642
C0G720,溪州,2025-01-29,23.851589,120.499093,0.0022007518
C0G730,二林,2025-01-29,23.903325,120.376081,0.0007997086
C0G740,大城,2025-01-29,23.852487,120.320935,0.00087281945
C0G770,福興,2025-01-29,24.041289,120.437669,0.0007384257
C0G780,秀水,2025-01-29,24.03405,120.503869,0.00083115546
C0G800,埔鹽,2025-01-29,24.000394,120.431683,0.0007371208
C0G810,埔心,2025-01-29,23.947633,120.525456,0.00084771315
C0G820,田尾,2025-01-29,23.901669,120.509389,0.0020264941
C0G830,埤頭,2025-01-29,23.866003,120.452806,0.0022441926
C0G860,社頭,2025-01-29,23.897647,120.5862,0.0029799968
C0G880,二水,2025-01-29,23.810742,120.6173,0.0013200085
C0G890,伸港,2025-01-29,24.148933,120.484403,0.0009941908
C0G900,線西,2025-01-29,24.143358,120.443536,0.0009983564
C0G910,花壇,2025-01-29,24.032076,120.549461,0.0008142107
C0G920,永靖,2025-01-29,23.924703,120.547533,0.0020264941
C0G940,竹塘,2025-01-29,23.848253,120.386764,0.0008218799
C0G950,防潮門,2025-01-29,24.1835,120.4871,0.00096638326
C0G960,福寶,2025-01-29,24.0443,120.3814,0.00072935
C0G970,三豐,2025-01-29,23.882,120.2895,0.00066770567
C0H890,埔里,2025-01-29,23.972169,120.952425,0.0026746807
C0H960,草屯,2025-01-29,23.973672,120.68085,0.003205427
C0I110,竹山,2025-01-29,23.761225,120.688156,0.0015078994
C0I360,水里,2025-01-29,23.812553,120.849792,0.0025640407
C0I380,集集,2025-01-29,23.828206,120.801467,0.0025938954
C0I410,名間,2025-01-29,23.837053,120.701447,0.0024588292
C0I420,國姓,2025-01-29,24.037803,120.855072,0.002891666
C0I460,南投,2025-01-29,23.911469,120.687331,0.0033825582
C0K250,崙背,2025-01-29,23.75555,120.318925,0.0011198045
C0K280,四湖,2025-01-29,23.630414,120.227125,0.00081924564
C0K291,宜梧,2025-01-29,23.536281,120.169329,0.0007982627
C0K330,虎尾,2025-01-29,23.719183,120.442036,0.0017037214
C0K390,土庫,2025-01-29,23.679029,120.395574,0.0011572521
C0K400,斗六,2025-01-29,23.720583,120.541127,0.0014373624
C0K410,北港,2025-01-29,23.573957,120.292802,0.0008615227
C0K420,西螺,2025-01-29,23.800407,120.467394,0.0018454214
C0K430,褒忠,2025-01-29,23.690938,120.303634,0.00062216056
C0K440,二崙,2025-01-29,23.772797,120.408944,0.001383433
C0K450,大埤,2025-01-29,23.646074,120.431537,0.0011418669
C0K460,斗南,2025-01-29,23.678734,120.478359,0.0015242639
C0K470,林內,2025-01-29,23.748675,120.609642,0.0014156374
C0K480,莿桐,2025-01-29,23.761192,120.502372,0.0015825937
C0K500,元長,2025-01-29,23.64981,120.315024,0.001095462
C0K510,水林,2025-01-29,23.572924,120.24597,0.00086536974
C0K530,臺西,2025-01-29,23.701547,120.197559,0.0006510088
C0K550,蔦松,2025-01-29,23.514319,120.229736,0.0007982627
C0K560,棋山,2025-01-29,23.68645,120.603417,0.0013046626
C0K580,高鐵雲林,2025-01-29,23.737456,120.417944,0.0012826371
C0K590,雲林東勢,2025-01-29,23.674192,120.255721,0.00084137305
C0K600,箔子寮,2025-01-29,23.6197,120.14,0.0006668424
C0M520,東後寮,2025-01-29,23.369908,120.248065,0.0008998309
C0M640,中埔,2025-01-29,23.42538,120.5229,0.0018329264
C0M650,朴子,2025-01-29,23.43463,120.23902,0.0010105103
C0M660,溪口,2025-01-29,23.604131,120.403569,0.0010764555
C0M670,大林,2025-01-29,23.600616,120.45841,0.001388934
C0M680,太保,2025-01-29,23.455062,120.331455,0.0017033969
C0M690,水上,2025-01-29,23.419734,120.388909,0.0015294608
C0M700,竹崎,2025-01-29,23.526178,120.555508,0.0015338397
C0M710,東石,2025-01-29,23.458927,120.15385,0.00077550526
C0M720,番路,2025-01-29,23.464657,120.554156,0.0022050554
C0M730,嘉義市東區,2025-01-29,23.457673,120.460531,0.0021405525
C0M740,六腳,2025-01-29,23.492871,120.290625,0.0008517161
C0M750,布袋,2025-01-29,23.380878,120.167789,0.0007625591
C0M760,民雄,2025-01-29,23.551754,120.428457,0.0013590837
C0M770,嘉義梅山,2025-01-29,23.585398,120.555587,0.0014391484
C0M780,鹿草,2025-01-29,23.41134,120.30835,0.0009985927
C0M790,新港,2025-01-29,23.553269,120.345728,0.0015505488
C0M800,茶山,2025-01-29,23.299075,120.664767,0.0051285145
C0M880,好美里,2025-01-29,23.3364,120.138,0.0007706573
C0N010,鯤鯓國小,2025-01-29,23.1879,120.0889,0.00081812456
C0N020,城西,2025-01-29,23.0568,120.0956,0.0010540291
C0N030,四草,2025-01-29,23.0235,120.1116,0.0010602686
C0N040,蘆竹溝,2025-01-29,23.2344,120.0961,0.0008023718
C0N050,蚵寮,2025-01-29,23.301,120.1104,0.0007602927
C0O830,北寮,2025-01-29,23.079561,120.495008,0.006233048
C0O840,王爺宮,2025-01-29,23.222064,120.40085,0.0021739358
C0O860,大內,2025-01-29,23.11885,120.36083,0.0030596082
C0O900,善化,2025-01-29,23.112883,120.297219,0.0023040376
C0O960,崎頂,2025-01-29,22.959547,120.369317,0.0029838812
C0O970,虎頭埤,2025-01-29,23.021375,120.347878,0.0041805203
C0O980,新市,2025-01-29,23.061614,120.298197,0.0014105298
C0O990,媽廟,2025-01-29,22.99175,120.293525,0.0011274554
C0R150,三地門,2025-01-29,22.709889,120.639944,0.0032717106
C0R160,鹽埔,2025-01-29,22.739558,120.530778,0.0021987099
C0R170,屏東,2025-01-29,22.660269,120.494072,0.0026405912
C0R190,赤山,2025-01-29,22.592333,120.614306,0.0025678326
C0R220,潮州,2025-01-29,22.534361,120.54,0.0037964282
C0R240,來義,2025-01-29,22.527306,120.625111,0.0015056804
C0R260,春日,2025-01-29,22.370361,120.628306,0.0022031174
C0R270,琉球嶼,2025-01-29,22.332244,120.362236,0.0036394778
C0R280,檳榔,2025-01-29,22.076078,120.836777,0.0010171332
C0R320,車城,2025-01-29,22.0744,120.716247,0.00025790633
C0R341,牡丹,2025-01-29,22.130036,120.792639,0.0010101334
C0R350,貓鼻頭,2025-01-29,21.921774,120.7358,0.00017374913
C0R470,高樹,2025-01-29,22.826389,120.600806,0.0027147906
C0R480,長治,2025-01-29,22.693128,120.542622,0.003311985
C0R490,九如,2025-01-29,22.7405,120.490503,0.0022408692
C0R520,崁頂,2025-01-29,22.514781,120.506914,0.0041789985
C0R540,佳冬,2025-01-29,22.419456,120.552375,0.0038087491
C0R550,新埤,2025-01-29,22.467947,120.582894,0.0015886811
C0R560,新園,2025-01-29,22.5434,120.461558,0.0038903817
C0R570,麟洛,2025-01-29,22.65078,120.52719,0.0026405912
C0R580,南州,2025-01-29,22.48591,120.50274,0.0044063046
C0R590,里港,2025-01-29,22.77919,120.49459,0.0087081315
C0R620,墾雷,2025-01-29,21.900836,120.855269,0.00087815284
C0R640,東港,2025-01-29,22.46247,120.44074,0.0044063046
C0R650,竹田,2025-01-29,22.58486,120.54344,0.0024028944
C0R660,枋寮,2025-01-29,22.367722,120.590647,0.0040249224
C0R670,楓港,2025-01-29,22.190131,120.692156,0.00032257638
C0R680,佳樂水,2025-01-29,21.993578,120.861633,0.0010068604
C0R690,墾丁,2025-01-29,21.966756,120.810269,0.0014017319
C0R700,枋山,2025-01-29,22.246844,120.661086,0.0007378166
C0R710,龍磐,2025-01-29,21.931672,120.838942,0.00059481635
C0R720,旭海,2025-01-29,22.205403,120.887614,0.0008104453
C0R730,大坪頂,2025-01-29,22.024633,120.69355,0.00064533984
C0R741,獅子,2025-01-29,22.202308,120.705236,0.0010219349
C0R760,南仁湖,2025-01-29,22.084681,120.863353,0.0005521344
C0R770,保力,2025-01-29,22.071122,120.764111,0.00059925363
C0R780,滿州,2025-01-29,22.024403,120.839892,0.0016866432
C0R790,九棚,2025-01-29,22.14195,120.889281,0.0006657506
C0R800,丹路,2025-01-29,22.204481,120.750989,0.0014744118
C0R810,內獅,2025-01-29,22.305064,120.642986,0.0009695076
C0R830,高士,2025-01-29,22.121825,120.836781,0.0003843758
C0R850,林邊,2025-01-29,22.4634,120.5339,0.0040227133
C0R860,鼻頭,2025-01-29,22.1043,120.8979,0.0009072338
C0R870,興海,2025-01-29,21.9752,120.8439,0.0009960785
C0R880,後壁湖,2025-01-29,21.9457,120.7457,0.0004462126
C0R890,山海,2025-01-29,21.9878,120.7091,0.00045522783
C0R900,竹坑,2025-01-29,22.1385,120.7022,0.00026229233
C0R910,下寮,2025-01-29,22.3929,120.5548,0.0040249224
C0R920,塭仔,2025-01-29,22.4169,120.5197,0.0042192587
C0R930,萬丹,2025-01-29,22.5885,120.4851,0.0027773571
C0R940,加祿堂,2025-01-29,22.3363,120.6217,0.0011949012
C0S710,鹿野,2025-01-29,22.917711,121.122994,0.0005619477
C0S730,綠島,2025-01-29,22.6672,121.47533,0.0006676812
C0S740,池上,2025-01-29,23.119628,121.209469,0.0005035143
C0S770,大溪山,2025-01-29,22.478475,120.943325,0.0005423007
C0S790,金崙,2025-01-29,22.538122,120.966875,0.0008086745
C0S810,東河,2025-01-29,22.972672,121.303986,0.0003952972
C0S830,長濱,2025-01-29,23.286817,121.411975,0.0006989857
C0S840,南田,2025-01-29,22.279725,120.889208,0.001179702
C0S890,關山,2025-01-29,23.0395,121.175017,0.00044548628
C0S900,蘭嶼高中,2025-01-29,22.04909,121.51214,0.0007147599
C0S910,蘭嶼燈塔,2025-01-29,22.081197,121.503117,0.00068362546
C0S920,金峰嘉蘭,2025-01-29,22.594789,120.960825,0.0007735043
C0S930,延平,2025-01-29,22.902581,121.084058,0.00036314584
C0S940,石寧山,2025-01-29,23.223772,121.406639,0.00071054033
C0S950,七塊厝,2025-01-29,22.954453,121.229922,0.0005988888
C0S960,香蘭,2025-01-29,22.587569,120.993375,0.0012991726
C0S970,加津林,2025-01-29,22.416211,120.926942,0.0014724588
C0S990,山豬窟,2025-01-29,22.318619,120.857372,0.00043755668
C0SA00,歷坵,2025-01-29,22.520969,120.89185,0.0005377357
C0SA10,檳榔四格山,2025-01-29,22.810031,121.109308,0.00034071703
C0SA30,都歷,2025-01-29,23.020333,121.323642,0.0004148704
C0SA40,瑞和,2025-01-29,22.974361,121.156697,0.0003814666
C0SA60,知本（水試所）,2025-01-29,22.702394,121.082761,0.0014874054
C0SA80,土坂,2025-01-29,22.453108,120.887572,0.0012997146
C0SA90,達仁林場,2025-01-29,22.264347,120.823972,0.00025925488
C0T870,鯉魚潭,2025-01-29,23.935639,121.508944,0.00040333022
C0T900,西林,2025-01-29,23.8119,121.441458,0.0004427305
C0T960,光復,2025-01-29,23.660694,121.424964,0.00039404075
C0T9A0,月眉山,2025-01-29,23.809928,121.539828,0.00063733914
C0T9D0,和中,2025-01-29,24.26676,121.74103,0.0009440518
C0T9E0,大坑,2025-01-29,23.880628,121.581981,0.00059573405
C0T9F0,水璉,2025-01-29,23.797131,121.542514,0.00046798444
C0T9I0,豐濱,2025-01-29,23.583897,121.514806,0.00045222708
C0T9M0,靜浦,2025-01-29,23.455167,121.495028,0.0006334341
C0T9N0,富里,2025-01-29,23.171639,121.249378,0.0005834356
C0U600,礁溪,2025-01-29,24.817539,121.765608,0.0013571688
C0U650,玉蘭,2025-01-29,24.675286,121.587061,0.0009778888
C0U750,龜山島,2025-01-29,24.841667,121.953133,0.0020974025
C0U760,東澳,2025-01-29,24.52196,121.83318,0.003707727
C0U770,南澳,2025-01-29,24.44935,121.81022,0.001122616
C0U780,五結,2025-01-29,24.68637,121.79794,0.0012014575
C0U860,頭城,2025-01-29,24.85323,121.8308,0.0013482736
C0U870,大礁溪,2025-01-29,24.791042,121.675047,0.0011805254
C0U880,北關,2025-01-29,24.9072,121.8734,0.0015081664
C0U890,三星,2025-01-29,24.66812,121.65302,0.0051307753
C0U900,內城,2025-01-29,24.71813,121.68766,0.0011253105
C0U910,冬山,2025-01-29,24.63373,121.7937,0.014417792
C0U940,羅東,2025-01-29,24.68184,121.74934,0.0011709377
C0U970,大福,2025-01-29,24.80064,121.81389,0.0009582928
C0U990,員山,2025-01-29,24.74435,121.72247,0.0011847081
C0UA00,土場,2025-01-29,24.576533,121.495333,0.0010562853
C0UA80,大溪漁港,2025-01-29,24.941801,121.902955,0.0047923145
C0UA90,石城,2025-01-29,24.980444,121.951214,0.0031948697
C0UB00,淡江大學蘭陽校園,2025-01-29,24.823239,121.730383,0.0020622008
C0UB10,蘇澳,2025-01-29,24.5969,121.8571,0.03027852
C0UB20,壯圍,2025-01-29,24.7359,121.8163,0.0012077407
C0V310,美濃,2025-01-29,22.898742,120.519153,0.0074494975
C0V350,溪埔,2025-01-29,22.738578,120.446797,0.005336509
C0V360,內門,2025-01-29,22.975481,120.466769,0.0065499423
C0V370,古亭坑,2025-01-29,22.893178,120.401947,0.0060105114
C0V400,阿公店,2025-01-29,22.804194,120.355528,0.00459808
C0V440,鳳山,2025-01-29,22.646653,120.356122,0.0013548312
C0V450,鳳森,2025-01-29,22.545064,120.392592,0.0015600721
C0V490,新興,2025-01-29,22.627422,120.298803,0.0017288711
C0V530,阿蓮,2025-01-29,22.883208,120.327508,0.0031371047
C0V610,梓官,2025-01-29,22.760558,120.267211,0.0016462501
C0V620,永安,2025-01-29,22.82315,120.236856,0.0014487664
C0V630,茄萣,2025-01-29,22.906642,120.182608,0.001023176
C0V640,湖內,2025-01-29,22.887139,120.2445,0.0015244895
C0V650,彌陀,2025-01-29,22.783806,120.246361,0.0014194924
C0V660,岡山,2025-01-29,22.797078,120.294958,0.0014140995
C0V680,仁武,2025-01-29,22.701083,120.347722,0.0019212927
C0V690,鼓山,2025-01-29,22.623325,120.275575,0.0017288711
C0V700,三民,2025-01-29,22.645017,120.311233,0.0017028091
C0V710,苓雅,2025-01-29,22.622742,120.330669,0.0016540879
C0V720,林園,2025-01-29,22.507747,120.394511,0.0021707513
C0V730,大寮,2025-01-29,22.605614,120.395717,0.00161683
C0V740,旗山,2025-01-29,22.888614,120.483597,0.0072057513
C0V750,路竹,2025-01-29,22.854997,120.259439,0.0015172876
C0V760,橋頭,2025-01-29,22.757806,120.30575,0.0016462501
C0V770,大社,2025-01-29,22.730306,120.346639,0.0018843856
C0V790,萬山,2025-01-29,22.905944,120.688056,0.0011823666
C0V800,六龜,2025-01-29,22.997889,120.633583,0.0025223228
C0V810,左營,2025-01-29,22.67491,120.28491,0.0017028091
C0V820,小林,2025-01-29,23.148408,120.63325,0.002816395
C0V840,鳳鼻頭,2025-01-29,22.5083,120.3591,0.0042629284
C0V850,蚵仔寮,2025-01-29,22.7256,120.2527,0.0016675338
C0V860,南寮,2025-01-29,22.7616,120.2339,0.0016675338
C0V870,文安,2025-01-29,22.8025,120.2164,0.0014259388
C0V880,興達,2025-01-29,22.8778,120.2127,0.001527256
C0V890,前鎮,2025-01-29,22.5718,120.3117,0.0017578067
C0V900,汕尾,2025-01-29,22.4782,120.4151,0.0044063046
C0W200,湖西,2025-01-29,23.596314,119.67275,0.0004886385
C0X050,東河,2025-01-29,23.296598,120.385608,0.002619523
C0X060,下營,2025-01-29,23.22695,120.256261,0.0014824478
C0X080,佳里,2025-01-29,23.173039,120.145086,0.00081812456
C0X100,臺南市北區,2025-01-29,23.010394,120.194228,0.0010576401
C0X110,臺南市南區,2025-01-29,22.961189,120.188378,0.0009589677
C0X120,麻豆,2025-01-29,23.183289,120.248611,0.002044528
C0X130,官田,2025-01-29,23.193217,120.315422,0.002429262
C0X140,西港,2025-01-29,23.125608,120.203108,0.0018867934
C0X150,安定,2025-01-29,23.102614,120.227839,0.0018867934
C0X160,仁德,2025-01-29,22.968258,120.257689,0.00096062286
C0X170,關廟,2025-01-29,22.963017,120.327797,0.0035099639
C0X180,山上,2025-01-29,23.0757,120.363253,0.0046419674
C0X190,安平,2025-01-29,22.993161,120.152181,0.0010576401
C0X200,左鎮,2025-01-29,23.056758,120.408522,0.0042708027
C0X210,白河,2025-01-29,23.347466,120.414427,0.0021052002
C0X220,學甲,2025-01-29,23.230367,120.182187,0.0007989508
C0X230,鹽水,2025-01-29,23.272621,120.247641,0.0011378457
C0X240,關子嶺,2025-01-29,23.331169,120.508025,0.0024843297
C0X250,新營,2025-01-29,23.310689,120.316681,0.0015834899
C0X260,後壁,2025-01-29,23.366358,120.362326,0.0014940526
C0X280,將軍,2025-01-29,23.214999,120.13577,0.0008023718
C0X290,北門,2025-01-29,23.267772,120.125481,0.0008023718
C0X300,鹿寮,2025-01-29,23.386047,120.477331,0.002514508
C0X320,柳營,2025-01-29,23.253328,120.375253,0.0028435653
C0Z020,明里,2025-01-29,23.208717,121.262342,0.000716403
C0Z061,玉里,2025-01-29,23.3215,121.339656,0.0007075193
C0Z070,舞鶴,2025-01-29,23.46811,121.37407,0.0008820338
C0Z080,富源,2025-01-29,23.587642,121.378225,0.0008800388
C0Z100,東華,2025-01-29,23.89525,121.549833,0.0004567483
C0Z150,吉安光華,2025-01-29,23.930925,121.595153,0.00046179423
C0Z160,鳳林,2025-01-29,23.746114,121.453411,0.00057027896
C0Z170,卓溪,2025-01-29,23.3443,121.3029,0.00085553207
C0Z180,新城,2025-01-29,24.03946,121.60454,0.000386228
C0Z190,富世,2025-01-29,24.14743,121.6297,0.00032859776
C0Z200,萬榮,2025-01-29,23.709219,121.420106,0.000553948
C0Z210,瑞穗,2025-01-29,23.5239,121.39021,0.0005019287
C0Z230,和平,2025-01-29,24.30717,121.77007,0.0009493912
C0Z270,蕃薯寮,2025-01-29,23.73835,121.540108,0.00054275116
C0Z280,德武,2025-01-29,23.47426,121.41071,0.0006230595
C0Z300,東里,2025-01-29,23.26853,121.30547,0.00070833496
C0Z310,清水斷崖,2025-01-29,24.218294,121.689142,0.0007739906
C0Z330,安通山,2025-01-29,23.290728,121.348528,0.00092853577
C2A540,四堵,2025-01-29,24.8926,121.745736,0.00255195
C2A560,福山,2025-01-29,24.776203,121.502811,0.0018103576
C2A650,火燒寮,2025-01-29,25.002719,121.742892,0.0027104844
C2A660,瑞芳,2025-01-29,25.113169,121.801147,0.0010707037
C2A880,福隆,2025-01-29,25.017842,121.942083,0.0032068123
C2A920,富貴角,2025-01-29,25.263783,121.565258,0.0014485022
C2E520,大湖,2025-01-29,24.414939,120.870872,0.00089981203
C2E540,後龍,2025-01-29,24.606489,120.783933,0.00050022977
C2E540,龍溪,2025-01-29,24.606489,120.783933,0.00050022977
C2F000,大肚,2025-01-29,24.15295,120.572117,0.0010510325
C2F930,大甲,2025-01-29,24.347667,120.640403,0.00042807256
C2F9A0,中竹林,2025-01-29,24.103556,120.751061,0.0017751373
C2G640,鹿港,2025-01-29,24.0753,120.430481,0.00072935
C2G840,北斗,2025-01-29,23.877586,120.514222,0.002209957
C2G870,芳苑,2025-01-29,23.922303,120.320025,0.0008607419
C2H950,中寮,2025-01-29,23.884447,120.766406,0.0029349993
C2M410,馬頭山,2025-01-29,23.324361,120.582017,0.0029456853
C2N160,西拉雅風管處,2025-01-29,23.189481,120.335297,0.0024053277
C2O810,曾文,2025-01-29,23.219681,120.497328,0.005098171
C2O930,玉井,2025-01-29,23.126042,120.46055,0.0046419674
C2O950,安南,2025-01-29,23.076694,120.144861,0.00079143466
C2V250,甲仙,2025-01-29,23.080106,120.591758,0.004620253
C2V260,月眉,2025-01-29,22.971003,120.539853,0.0032446757
C2W230,畜試所澎湖,2025-01-29,23.628342,119.513206,0.00043535634
CAG100,王功漁港,2025-01-29,23.96824,120.32586,0.00082288403
CAH030,茶改場竹圍站,2025-01-29,23.860083,120.637528,0.002811542
CAJ050,海口故事園區,2025-01-29,23.57543,120.14121,0.00066785625
CAL110,布袋國中,2025-01-29,23.35893,120.18026,0.0007625591
CAN130,水試所海水繁養殖中心,2025-01-29,23.120802,120.07968,0.0007949213
CAN140,六官養殖協會,2025-01-29,23.22881,120.29962,0.0014824478
CAQ030,崎峰國小,2025-01-29,22.42565,120.49521,0.0044063046
E2K600,四湖植物園,2025-01-29,23.676986,120.163433,0.00081924564
E2P980,林試六龜中心,2025-01-29,22.991703,120.645722,0.002443123
E2S960,林試太麻里2,2025-01-29,22.598014,120.989761,0.001254564
E2S960,林試太麻里2,2025-01-29,22.598,120.99775,0.0013757475
E2S980,林試太麻里1,2025-01-29,22.598922,120.980044,0.0007851125
G2AI50,關渡,2025-01-29,25.11575,121.492,0.0030405384
G2F820,農業試驗所,2025-01-29,24.031261,120.688133,0.0025442676
G2F820,農試所(霧峰),2025-01-29,24.031261,120.688133,0.0025442676
G2L020,農試嘉義分所,2025-01-29,23.485028,120.473806,0.0016519404
G2M350,農試溪口農場,2025-01-29,23.58565,120.408111,0.0010764555
G2P820,農試鳳山分所,2025-01-29,22.646611,120.356083,0.0013548312
K2E360,苗栗農改,2025-01-29,24.495722,120.829111,0.0010166774
K2E360,苗栗農改場,2025-01-29,24.495722,120.829111,0.0010166774
K2E710,苗改生物防治研究中心,2025-01-29,24.422861,120.871833,0.0009350071
K2F750,種苗改良場,2025-01-29,24.225972,120.800917,0.00078218145
K2F750,種苗繁殖,2025-01-29,24.225972,120.800917,0.00078218145
U2HA50,臺大竹山,2025-01-29,23.756972,120.681556,0.001995045
V2C250,八德合作社,2025-01-29,24.93775,121.266389,0.0009984829
V2C260,八德蔬果,2025-01-29,24.978508,121.281819,0.0013856561
V2K610,大庄合作社,2025-01-29,23.8068,120.367939,0.0010687558
V2K620,麥寮合作社,2025-01-29,23.753836,120.294783,0.00062461465
