站號,站名,日期,lat,lon,BLBTSLS
K2F750,種苗繁殖,2025-03-31,24.225972,120.800917,5.5858877e-06
467990,馬祖,2025-03-31,26.169269,119.923419,1.0104259e-08
C2E540,後龍,2025-03-31,24.606489,120.783933,0.027500229
467300,東吉島,2025-03-31,23.25695,119.667467,0.99999243
G2F820,農業試驗所,2025-03-31,24.031261,120.688133,0.0010347308
467410,臺南,2025-03-31,22.993239,120.204772,0.9925212
E2S960,林試太麻里2,2025-03-31,22.598014,120.989761,0.7385619
72C440,桃園農改,2025-03-31,24.950944,121.030583,0.006567748
C1H860,瑞岩,2025-03-31,24.123772,121.18345,6.529451e-09
72G600,臺中農改,2025-03-31,24.003028,120.534389,0.0001747655
72N100,臺南農改,2025-03-31,23.0605,120.342194,0.99091595
72T250,花蓮農改,2025-03-31,23.975222,121.563889,0.98011196
467620,蘭嶼,2025-03-31,22.036969,121.558339,0.99991274
K2E360,苗栗農改,2025-03-31,24.495722,120.829111,0.024387015
467050,新屋,2025-03-31,25.006744,121.047486,0.024246093
467550,玉山,2025-03-31,23.487614,120.959522,4.8969067e-08
466881,新北,2025-03-31,24.9593,121.52,0.63401395
467540,大武,2025-03-31,22.355675,120.903789,0.8250367
72Q010,高雄農改,2025-03-31,22.709333,120.525889,0.87823886
U2H480,臺大溪頭,2025-03-31,23.670306,120.798194,7.772069e-09
C0Z180,新城,2025-03-31,24.03946,121.60454,6.043984e-07
B2N890,畜試所,2025-03-31,23.058972,120.336406,0.99153805
467441,高雄,2025-03-31,22.7304,120.3125,0.9989695
