站號,站名,日期,lat,lon,BLBTSLS
C0R710,龍磐,2025-03-26,21.931672,120.838942,0.9999125
C1F9D1,白毛台,2025-03-26,24.158325,120.886933,2.7975844e-09
C0G940,竹塘,2025-03-26,23.848253,120.386764,1.2212902e-06
467590,恆春,2025-03-26,22.003897,120.746339,0.99986166
C1O850,環湖,2025-03-26,23.148617,120.418633,6.489383e-10
C0U710,太平山,2025-03-26,24.505486,121.525656,3.112723e-08
C0E820,獅潭,2025-03-26,24.539133,120.920042,4.3165294e-08
C0V880,興達,2025-03-26,22.8778,120.2127,1.3687205e-09
C0S890,關山,2025-03-26,23.0395,121.175017,1.1755647e-08
C0SB30,新蘭,2025-03-26,22.869214,121.223228,2.0541846e-08
C2R970,屏科大,2025-03-26,22.648275,120.619247,1.0121228e-09
K2F750,種苗繁殖,2025-03-26,24.225972,120.800917,5.9730367e-09
C1Z130,銅門,2025-03-26,23.965694,121.492842,5.3585376e-09
C0AD40,土城,2025-03-26,24.973208,121.445169,0.00033262456
CAN140,六官養殖協會,2025-03-26,23.22881,120.29962,7.6292295e-10
C0X180,山上,2025-03-26,23.0757,120.363253,7.996401e-10
C0F9Z0,雪山東峰,2025-03-26,24.388792,121.268675,5.062441e-08
C1M480,獨立山,2025-03-26,23.537022,120.607797,2.757539e-09
C0X220,學甲,2025-03-26,23.230367,120.182187,9.769674e-08
467650,日月潭,2025-03-26,23.881325,120.90805,6.128987e-09
C0K600,箔子寮,2025-03-26,23.6197,120.14,0.0001870786
C0G830,埤頭,2025-03-26,23.866003,120.452806,3.1202124e-08
C0S950,七塊厝,2025-03-26,22.954453,121.229922,1.2667151e-08
467110,金門,2025-03-26,24.407306,118.289281,1.1160187e-08
C0AH80,深坑,2025-03-26,25.002703,121.628328,0.0002310088
467990,馬祖,2025-03-26,26.169269,119.923419,8.619222e-09
C0A970,三貂角,2025-03-26,25.007606,122.002058,2.4192937e-06
C2D730,寶山農場,2025-03-26,24.732444,120.976153,3.1364923e-06
C0K430,褒忠,2025-03-26,23.690938,120.303634,4.7350597e-05
467480,嘉義,2025-03-26,23.495925,120.432906,1.316361e-09
C2E540,後龍,2025-03-26,24.606489,120.783933,0.7259817
C0V400,阿公店,2025-03-26,22.804194,120.355528,1.0784909e-09
467550,玉山,2025-03-26,23.48718,120.95943,4.912698e-08
C0R440,大漢山,2025-03-26,22.405264,120.753181,2.693729e-08
C0K280,四湖,2025-03-26,23.630414,120.227125,0.004985521
C1F9B1,桐林,2025-03-26,24.066172,120.735194,3.381683e-09
C2H9U0,鳳鵬,2025-03-26,23.763919,120.788061,1.2372249e-09
C0K390,土庫,2025-03-26,23.679029,120.395574,7.593481e-08
C1I450,望鄉山,2025-03-26,23.594153,120.944286,3.0999903e-08
C0E910,海埔,2025-03-26,24.648767,120.772435,0.08464893
B2E890,畜試北區分所,2025-03-26,24.527806,120.770972,5.5728506e-08
C0R750,四林格山,2025-03-26,22.076989,120.802439,0.07299864
C0F0C0,中坑,2025-03-26,24.248517,120.903319,6.6674977e-09
C1I121,大鞍,2025-03-26,23.678381,120.760017,1.3375606e-08
72U480,花改蘭陽分場,2025-03-26,24.686306,121.716583,3.8739792e-08
C0A770,科教館,2025-03-26,25.096356,121.516507,9.268024e-06
C0AJ60,六塊厝,2025-03-26,25.24,121.4481,0.30705968
C0R620,墾雷,2025-03-26,21.900836,120.855269,0.9878156
467420,永康,2025-03-26,23.038386,120.2367,9.561681e-10
467300,東吉島,2025-03-26,23.25695,119.667467,0.9999944
C0I410,名間,2025-03-26,23.837053,120.701447,1.1248742e-09
A2C560,農工中心,2025-03-26,24.985917,121.239833,0.0018321981
C0V740,旗山,2025-03-26,22.888614,120.483597,1.1934687e-09
C0Z061,玉里,2025-03-26,23.3215,121.339656,1.2871466e-08
C0S840,南田,2025-03-26,22.279725,120.889208,1.3686585e-08
C1I470,杉林溪,2025-03-26,23.639517,120.786444,1.5748897e-08
C1X040,東原,2025-03-26,23.291597,120.463822,1.3080067e-09
C0R660,枋寮,2025-03-26,22.367722,120.590647,3.284391e-07
C1R120,上德文,2025-03-26,22.763272,120.704442,1.050292e-08
C0K450,大埤,2025-03-26,23.646074,120.431537,3.70607e-09
C0UA00,土場,2025-03-26,24.576533,121.495333,7.962663e-09
467080,宜蘭,2025-03-26,24.763975,121.756528,7.90836e-08
C0N030,四草,2025-03-26,23.0235,120.1116,9.162255e-10
467410,臺南,2025-03-26,22.99328,120.20492,1.4313294e-09
C0V650,彌陀,2025-03-26,22.783806,120.246361,1.7074173e-09
C0D660,新竹市東區,2025-03-26,24.798681,120.986942,0.0089992555
82S580,茶改東部分場,2025-03-26,22.907694,121.130139,1.5549334e-08
C0SB40,興隆,2025-03-26,22.913661,121.257469,2.0373047e-08
467050,新屋,2025-03-26,25.006725,121.047492,0.8479471
C0C710,大溪永福,2025-03-26,24.892936,121.324975,0.005481156
C0FA20,溫寮,2025-03-26,24.372177,120.583125,0.07627967
C0V640,湖內,2025-03-26,22.887139,120.2445,1.3468195e-09
C0R910,下寮,2025-03-26,22.3929,120.5548,3.2915278e-07
C0Z020,明里,2025-03-26,23.208717,121.262342,1.1827144e-08
C0M770,嘉義梅山,2025-03-26,23.585398,120.555587,1.5149545e-09
G2F820,農業試驗所,2025-03-26,24.031261,120.688133,0.2850422
C0C660,楊梅,2025-03-26,24.912375,121.143047,0.026257757
C1E511,新開,2025-03-26,24.347703,120.827019,9.403199e-09
G2F820,農試所(霧峰),2025-03-26,24.031261,120.688133,6.4453607e-09
C1I070,和社,2025-03-26,23.591131,120.888861,1.4551992e-08
C2F000,大肚,2025-03-26,24.15295,120.572117,1.2702033e-09
C1S850,豐南,2025-03-26,23.122139,121.262389,1.2063036e-08
C2A920,富貴角,2025-03-26,25.263783,121.565258,0.0282802
CAH030,茶改場竹圍站,2025-03-26,23.860083,120.637528,1.2470569e-09
C0T960,光復,2025-03-26,23.660694,121.424964,5.6182277e-09
C0F9M0,豐原,2025-03-26,24.254322,120.720692,1.0246439e-08
C0R720,旭海,2025-03-26,22.205403,120.887614,9.517127e-09
C0V710,苓雅,2025-03-26,22.622742,120.330669,1.2286507e-09
C0C740,觀音工業區,2025-03-26,25.064764,121.114856,0.8456398
CAC040,拉拉山,2025-03-26,24.699317,121.427133,2.8994403e-08
C0V790,萬山,2025-03-26,22.905944,120.688056,1.4396007e-09
U2HA30,臺大和社,2025-03-26,23.590856,120.888864,1.4551992e-08
C0AJ90,澳底,2025-03-26,25.0552,121.9253,0.025346864
C0Z100,東華,2025-03-26,23.89525,121.549833,4.7344706e-09
C0G970,三豐,2025-03-26,23.882,120.2895,0.49505958
V2K610,大庄合作社,2025-03-26,23.8068,120.367939,0.0008448811
C0V900,汕尾,2025-03-26,22.4782,120.4151,8.074879e-07
C1R630,龍泉,2025-03-26,22.66701,120.59091,9.862041e-10
C1AC50,關渡,2025-03-26,25.133486,121.469331,3.5553978e-06
C0F9I0,神岡,2025-03-26,24.272481,120.658314,3.4682174e-08
C0K460,斗南,2025-03-26,23.678734,120.478359,3.6223393e-09
467410,臺南,2025-03-26,22.993239,120.204772,0.00032766204
C2O810,曾文,2025-03-26,23.219681,120.497328,1.0657858e-09
467280,後龍,2025-03-26,24.648563,120.831834,0.031494696
C1F9J1,清水林,2025-03-26,24.071242,120.820419,3.0864955e-09
C2A650,火燒寮,2025-03-26,25.002719,121.742892,3.080669e-07
466930,竹子湖,2025-03-26,25.162078,121.544547,2.079731e-08
C1I220,樟湖,2025-03-26,23.905333,120.846983,6.4669967e-09
C0I390,仁愛,2025-03-26,24.022122,121.132206,7.644061e-09
C0Z300,東里,2025-03-26,23.26853,121.30547,1.1469165e-08
C1V590,新發,2025-03-26,23.057019,120.646064,5.1883364e-09
C0K510,水林,2025-03-26,23.572924,120.24597,8.242629e-08
72S590,東改賓朗果園,2025-03-26,22.813889,121.071278,1.3385968e-08
82A750,茶改北部分場,2025-03-26,24.955778,121.631222,1.3504909e-08
C1A750,石碇服務區,2025-03-26,25.00872,121.646242,0.0010623029
C0X300,鹿寮,2025-03-26,23.386047,120.477331,1.1769462e-09
G2AI50,關渡,2025-03-26,25.11575,121.492,0.16934969
C0K590,雲林東勢,2025-03-26,23.674192,120.255721,5.2305704e-06
C0A570,桶後,2025-03-26,24.848222,121.597992,6.8926744e-09
C1S800,華源,2025-03-26,22.657883,121.02325,9.927516e-09
C0G720,溪州,2025-03-26,23.851589,120.499093,2.882644e-08
C1V160,達卡努瓦,2025-03-26,23.279811,120.705319,7.676527e-09
C2M410,馬頭山,2025-03-26,23.324361,120.582017,1.2206994e-09
C0V850,蚵仔寮,2025-03-26,22.7256,120.2527,1.4857292e-09
C0S740,池上,2025-03-26,23.119628,121.209469,2.1082595e-08
C1V390,尖山,2025-03-26,22.813153,120.367789,1.0683991e-09
C0AH70,松山,2025-03-26,25.04871,121.55042,7.708442e-06
C0N010,鯤鯓國小,2025-03-26,23.1879,120.0889,6.712211e-08
C0R550,新埤,2025-03-26,22.467947,120.582894,4.4952444e-07
C0SA60,知本（水試所）,2025-03-26,22.702394,121.082761,9.909865e-09
C0T9I0,豐濱,2025-03-26,23.583897,121.514806,8.390269e-09
C0UB00,淡江大學蘭陽校園,2025-03-26,24.823239,121.730383,1.1631306e-08
C0W240,九宮,2025-03-26,24.423753,118.240186,1.1274911e-08
C0T9N0,富里,2025-03-26,23.171639,121.249378,2.196621e-08
U2HA50,臺大竹山,2025-03-26,23.756972,120.681556,1.4399604e-09
C0V840,鳳鼻頭,2025-03-26,22.5083,120.3591,9.48948e-10
C0X140,西港,2025-03-26,23.125608,120.203108,1.2250331e-09
72D080,桃改五峰分場,2025-03-26,24.612194,121.157167,1.6732605e-08
C2H9P0,伊拿谷,2025-03-26,23.963211,121.088264,4.7479265e-09
C2H9F0,柑林,2025-03-26,24.018658,120.847072,1.395559e-09
C0TA20,加灣,2025-03-26,24.082025,121.608944,8.674505e-09
C0V530,阿蓮,2025-03-26,22.883208,120.327508,7.6920004e-10
C1O880,關山,2025-03-26,23.173397,120.594092,9.645851e-10
C0E791,卓蘭,2025-03-26,24.3126,120.8244,6.898067e-09
C1I030,武界,2025-03-26,23.913225,121.052483,4.932262e-09
C0R520,崁頂,2025-03-26,22.514781,120.506914,9.685253e-09
C0R341,牡丹,2025-03-26,22.130036,120.792639,6.6262187e-09
C0R930,萬丹,2025-03-26,22.5885,120.4851,4.0957486e-09
C0S760,紅石,2025-03-26,23.069131,121.126219,3.302126e-08
C2C410,中央大學,2025-03-26,24.967652,121.185165,0.0012821405
C1M610,石磐龍,2025-03-26,23.496606,120.663506,6.1579533e-09
C0UA10,鴛鴦湖,2025-03-26,24.590269,121.412228,3.1855848e-08
V2C260,八德蔬果,2025-03-26,24.978508,121.281819,7.488064e-06
C0R800,丹路,2025-03-26,22.204481,120.750989,6.213203e-09
C0G920,永靖,2025-03-26,23.924703,120.547533,1.2173843e-08
C2M950,太和,2025-03-26,23.538372,120.702961,8.097411e-09
C1A630,下盆,2025-03-26,24.771003,121.538622,1.793661e-08
B2N890,畜產試驗所,2025-03-26,23.058972,120.336406,8.79324e-10
C0UA30,白嶺,2025-03-26,24.527819,121.519031,2.3603866e-08
C1V580,溪南(特生中心),2025-03-26,23.084972,120.788475,1.4048805e-08
C1T970,大農,2025-03-26,23.615233,121.413331,8.529406e-09
E2S960,林試太麻里2,2025-03-26,22.598014,120.989761,1.4387881e-07
C0R650,竹田,2025-03-26,22.58486,120.54344,2.8613774e-09
C1H900,清流,2025-03-26,24.080775,120.962997,3.903542e-09
C1C510,水尾,2025-03-26,24.940081,121.087161,0.7754612
C0F9X0,大雅(中科園區),2025-03-26,24.21528,120.62445,1.3524861e-08
C0SB60,白守蓮,2025-03-26,23.126769,121.401914,3.9609116e-08
C0O970,虎頭埤,2025-03-26,23.021375,120.347878,8.774693e-10
C0C730,中大臨海站,2025-03-26,24.966126,121.008581,0.89368373
C0X250,新營,2025-03-26,23.310689,120.316681,7.8321105e-10
C0V700,三民,2025-03-26,22.645017,120.311233,4.8427347e-09
C0U870,大礁溪,2025-03-26,24.791042,121.675047,1.2025888e-08
C0E870,高鐵苗栗,2025-03-26,24.60725,120.826094,0.046690393
A2K570,古坑花卉中心,2025-03-26,23.63353,120.55239,1.3293754e-09
C0TA30,鹽寮,2025-03-26,23.845606,121.592664,4.6306665e-09
C0M860,新美,2025-03-26,23.338017,120.683169,2.3351834e-09
C1E701,八卦,2025-03-26,24.491756,120.927619,2.8814677e-08
C0I420,國姓,2025-03-26,24.037803,120.855072,1.4516528e-09
C2D720,關西工作站,2025-03-26,24.757275,121.184792,4.8772483e-07
C0S960,香蘭,2025-03-26,22.587569,120.993375,1.1090755e-08
467620,蘭嶼,2025-03-26,22.0369,121.55843,0.99999124
C0R260,春日,2025-03-26,22.370361,120.628306,1.5237265e-07
72G600,臺中農改場,2025-03-26,24.003028,120.534389,8.3123295e-09
C0Z210,瑞穗,2025-03-26,23.5239,121.39021,9.111529e-09
C0M820,達邦,2025-03-26,23.453994,120.749517,5.0028106e-09
C0V860,南寮,2025-03-26,22.7616,120.2339,1.4838233e-09
C0G740,大城,2025-03-26,23.852487,120.320935,0.37048602
C0R920,塭仔,2025-03-26,22.4169,120.5197,3.4363907e-07
C0R470,高樹,2025-03-26,22.826389,120.600806,1.127254e-09
C0R680,佳樂水,2025-03-26,21.993578,120.861633,0.99993014
C1O870,大棟山,2025-03-26,23.31157,120.52226,9.291469e-09
C0D360,梅花,2025-03-26,24.678347,121.208558,2.2982968e-08
C0Z190,富世,2025-03-26,24.14743,121.6297,1.1966787e-08
C0AI10,屈尺,2025-03-26,24.92184,121.54475,0.01831038
B2U990,畜試東區分所,2025-03-26,24.669039,121.832561,2.7190382e-08
C0SB80,長濱漁港,2025-03-26,23.313644,121.459994,1.2226271e-08
C0R240,來義,2025-03-26,22.527306,120.625111,7.859545e-09
C0V910,大樹,2025-03-26,22.684645,120.432803,9.042929e-10
C1R610,西大武山,2025-03-26,22.617719,120.7322,2.8029323e-08
C0G900,線西,2025-03-26,24.143358,120.443536,0.0050435476
C0M700,竹崎,2025-03-26,23.526178,120.555508,1.4150938e-09
C2E880,三義,2025-03-26,24.405478,120.749819,1.0639908e-08
C0C720,竹圍,2025-03-26,25.112692,121.239824,0.16892137
C0F9P0,清水,2025-03-26,24.312297,120.562242,0.07610067
C0Z150,吉安光華,2025-03-26,23.930925,121.595153,4.5787254e-09
467300,東吉島,2025-03-26,23.25727,119.66762,0.99999356
C1D640,外坪(五指山),2025-03-26,24.644447,121.090961,1.9884185e-08
C0F9O0,潭子,2025-03-26,24.213106,120.703933,4.280143e-09
C2H9R0,卓社,2025-03-26,23.887894,121.000086,8.020861e-09
72T250,花蓮農改場,2025-03-26,23.975222,121.563889,5.617885e-09
C0E780,銅鑼,2025-03-26,24.489681,120.790853,4.33779e-08
C1T950,太安,2025-03-26,23.666719,121.370128,8.187893e-09
C0E830,苑裡,2025-03-26,24.439714,120.653053,0.4202727
467270,田中,2025-03-26,23.873803,120.581286,4.416245e-09
C0SA10,檳榔四格山,2025-03-26,22.810031,121.109308,1.2627927e-08
C1T830,布洛灣,2025-03-26,24.17184,121.57127,1.2178582e-08
C0F970,大坑,2025-03-26,24.173142,120.722289,3.2456633e-09
C1U920,思源,2025-03-26,24.393125,121.347214,1.856541e-08
C0A931,三和,2025-03-26,25.233153,121.595236,5.8997484e-06
C0I010,廬山,2025-03-26,24.033311,121.181808,1.5396903e-08
C2M940,日野賀,2025-03-26,23.434056,120.727169,6.3128045e-09
C0R860,鼻頭,2025-03-26,22.1043,120.8979,0.47967482
C0UB20,壯圍,2025-03-26,24.7359,121.8163,4.022765e-08
C0R790,九棚,2025-03-26,22.14195,120.889281,1.560936e-08
C0W110,東莒,2025-03-26,25.9652,119.98069,3.6566195e-08
C1U930,粉鳥林,2025-03-26,24.497088,121.842479,6.0828103e-09
C1I211,蘆竹湳,2025-03-26,23.934019,120.811994,2.251879e-09
C0S830,長濱,2025-03-26,23.286817,121.411975,1.3876076e-08
C1F9F1,伯公龍,2025-03-26,24.272392,120.849047,3.7814947e-09
C0E810,西湖,2025-03-26,24.562947,120.7485,0.9970146
C1I440,新高口,2025-03-26,23.478744,120.878939,2.469996e-08
C0O840,王爺宮,2025-03-26,23.222064,120.40085,8.923472e-10
C0T9G0,鳳林山,2025-03-26,23.735269,121.420131,1.388092e-08
C0X080,佳里,2025-03-26,23.173039,120.145086,6.711763e-08
C0FB70,大甲溪埔,2025-03-26,24.370625,120.620067,0.028312938
C0Z310,清水斷崖,2025-03-26,24.218294,121.689142,9.989513e-09
C0M680,太保,2025-03-26,23.455062,120.331455,1.2007776e-09
C1S820,金峰,2025-03-26,22.590969,120.933236,1.0655871e-08
C0AD10,八里,2025-03-26,25.150211,121.403947,0.16461909
C2K240,草嶺,2025-03-26,23.59555,120.693461,5.566771e-09
C1SA70,都蘭,2025-03-26,22.87794,121.226881,2.03605e-08
C0K440,二崙,2025-03-26,23.772797,120.408944,4.1014655e-08
C1A760,坪林交控,2025-03-26,24.94284,121.713442,1.1590285e-07
C0F9N0,大里,2025-03-26,24.092464,120.701378,1.6091948e-09
C0SA90,達仁林場,2025-03-26,22.264347,120.823972,1.1142087e-08
C1R290,石門山,2025-03-26,22.112611,120.756597,0.7797891
42HA10,萬大發電廠,2025-03-26,23.978875,121.139639,6.2227503e-09
C0R890,山海,2025-03-26,21.9878,120.7091,0.9997995
C0T9A0,月眉山,2025-03-26,23.809928,121.539828,8.435503e-09
C0AC70,信義,2025-03-26,25.037822,121.564597,7.464991e-06
C0K560,棋山,2025-03-26,23.68645,120.603417,1.3357982e-09
C2FB50,出雲,2025-03-26,24.206469,120.902794,4.076001e-09
C1Z240,中平林道,2025-03-26,23.42115,121.26763,1.4724566e-08
U2H480,溪頭,2025-03-26,23.670306,120.798194,5.7525353e-09
C0M880,好美里,2025-03-26,23.3364,120.138,5.1682097e-08
C0T9E0,大坑,2025-03-26,23.880628,121.581981,7.1682185e-09
C0K530,臺西,2025-03-26,23.701547,120.197559,0.008767797
C1E900,國一N128K,2025-03-26,24.560997,120.844186,1.7475877e-07
C0AJ50,水湳洞,2025-03-26,25.123695,121.862238,0.2793711
C0AI20,白沙灣,2025-03-26,25.283128,121.519058,0.25021785
C2V310,美濃,2025-03-26,22.898792,120.51907,1.1874107e-09
C0A860,大坪,2025-03-26,25.165914,121.632969,1.753572e-08
C1U850,觀音海岸,2025-03-26,24.38319,121.77856,1.0260345e-08
C2K610,草嶺石壁,2025-03-26,23.602469,120.707731,5.7571454e-09
C0U950,鶯子嶺,2025-03-26,24.89754,121.79244,1.6473756e-08
C0O900,善化,2025-03-26,23.112883,120.297219,8.788629e-10
C0K550,蔦松,2025-03-26,23.514319,120.229736,7.283744e-08
E2P980,林試六龜中心,2025-03-26,22.991703,120.645722,1.1266436e-09
C0E590,通霄,2025-03-26,24.471892,120.704622,0.09310607
C1I310,西巒,2025-03-26,23.754486,120.883956,6.1521304e-09
C0A550,泰平,2025-03-26,24.971197,121.823711,1.624188e-08
C0I360,水里,2025-03-26,23.812553,120.849792,1.1108767e-09
C0R830,高士,2025-03-26,22.121825,120.836781,0.61931366
C1I101,溪頭,2025-03-26,23.661789,120.807647,1.4386571e-08
C0AJ20,野柳,2025-03-26,25.20703,121.690021,0.00026277368
C0B060,暖暖,2025-03-26,25.0957,121.7403,0.0007840998
C1H920,長豐,2025-03-26,24.102039,120.879897,3.246598e-09
C0V360,內門,2025-03-26,22.975481,120.466769,1.1459277e-09
C0R850,林邊,2025-03-26,22.4634,120.5339,6.3483003e-07
C0E930,龍鳳,2025-03-26,24.700034,120.859125,0.46019426
C0U910,冬山,2025-03-26,24.63373,121.7937,2.7190382e-08
C1E721,泰安,2025-03-26,24.489017,120.968036,1.14081855e-08
82H320,茶改中部分場,2025-03-26,23.875611,120.913583,5.1236766e-09
C0M750,布袋,2025-03-26,23.380878,120.167789,5.110269e-08
C1S860,利嘉,2025-03-26,22.809417,121.050528,9.695103e-09
72C440,桃園農改,2025-03-26,24.950944,121.030583,9.433484e-06
E2S980,林試太麻里1,2025-03-26,22.598922,120.980044,1.10058735e-08
C0X170,關廟,2025-03-26,22.963017,120.327797,1.1787524e-09
C0V720,林園,2025-03-26,22.507747,120.394511,1.0700679e-08
C1I510,線浸林道,2025-03-26,23.761508,120.832956,8.313107e-09
C0D690,外湖,2025-03-26,24.917735,120.968711,0.96791553
C0C750,新興坑尾,2025-03-26,25.0061,121.0971,0.6814377
B2Q810,畜試南區分所,2025-03-26,21.945583,120.802167,0.9999262
C0S790,金崙,2025-03-26,22.538122,120.966875,9.163169e-09
C0AH90,福山植物園,2025-03-26,24.760717,121.58135,1.3777628e-08
C0I540,奇萊稜線,2025-03-26,24.109231,121.326456,4.508859e-08
C0M850,表湖,2025-03-26,23.24186,120.64166,2.6025722e-09
C0S770,大溪山,2025-03-26,22.478475,120.943325,9.153457e-09
C0AG80,中和,2025-03-26,24.991622,121.491792,0.00033164077
C0T790,大禹嶺,2025-03-26,24.186117,121.316086,3.6957097e-08
C0T9B0,水源,2025-03-26,23.991861,121.537169,1.0080813e-08
C0R840,牡丹池山,2025-03-26,22.168389,120.841225,1.4721644e-08
C1I131,桶頭,2025-03-26,23.641944,120.654117,1.4002196e-09
CAL110,布袋國中,2025-03-26,23.35893,120.18026,1.5617639e-08
467571,新竹,2025-03-26,24.827853,121.014219,0.015459009
C0Z290,赤柯山,2025-03-26,23.36893,121.38293,3.0707486e-08
C0X280,將軍,2025-03-26,23.214999,120.13577,1.14234425e-07
C0S690,太麻里,2025-03-26,22.60902,120.98533,4.640341e-08
C0U880,北關,2025-03-26,24.9072,121.8734,0.0038044164
C1H860,瑞岩,2025-03-26,24.123772,121.18345,1.7975312e-08
C0G810,埔心,2025-03-26,23.947633,120.525456,1.2258611e-08
C0U970,大福,2025-03-26,24.80064,121.81389,8.3808835e-08
C2H9N0,仁愛東眼,2025-03-26,24.026875,121.1205,1.40292835e-08
C1E670,南礦,2025-03-26,24.538278,121.002836,1.0891228e-08
C0M520,東後寮,2025-03-26,23.369908,120.248065,1.3862823e-08
C1E461,松安,2025-03-26,24.397972,120.986022,1.1246409e-08
72G600,臺中農改,2025-03-26,24.003028,120.534389,1.3211189e-06
C2N160,西拉雅風管處,2025-03-26,23.189481,120.335297,5.357595e-10
C2M970,碧湖,2025-03-26,23.568632,120.624165,4.9164175e-09
C0A640,石碇,2025-03-26,24.993969,121.662917,1.471229e-07
E2S960,林試太麻里2,2025-03-26,22.598,120.99775,1.1266183e-08
C0F9Y0,桃山,2025-03-26,24.432739,121.303808,5.286947e-08
C1I020,萬大,2025-03-26,23.979817,121.132261,7.72348e-09
C0U940,羅東,2025-03-26,24.68184,121.74934,3.953552e-08
C0M650,朴子,2025-03-26,23.43463,120.23902,4.2074912e-08
C1I500,大尖山,2025-03-26,23.858572,120.994889,2.1120467e-08
C0G820,田尾,2025-03-26,23.901669,120.509389,1.2265628e-08
E2K600,四湖植物園,2025-03-26,23.676986,120.163433,0.004326746
C0S730,綠島,2025-03-26,22.6672,121.47533,0.9750326
12Q970,東港工作站,2025-03-26,22.479997,120.466058,8.011176e-07
C0E430,南庄,2025-03-26,24.601775,121.000214,4.2619135e-08
C1TA00,太魯閣,2025-03-26,24.15773,121.6236,1.1886439e-08
466920,臺北,2025-03-26,25.037658,121.514853,7.708442e-06
C0R600,舊泰武,2025-03-26,22.588194,120.664944,4.6568216e-09
C1I260,北坑,2025-03-26,23.9246,121.006903,2.3594944e-09
466910,鞍部,2025-03-26,25.182586,121.529731,3.141016e-08
C1I230,九份二山,2025-03-26,23.961944,120.845,4.3409e-09
C2A660,瑞芳,2025-03-26,25.113169,121.801147,0.09261372
C0R270,琉球嶼,2025-03-26,22.332244,120.362236,0.0053096083
C1T990,高寮,2025-03-26,23.394239,121.356808,7.5971425e-09
C0G620,芬園,2025-03-26,24.015678,120.6213,1.6535447e-09
C1Z140,荖溪,2025-03-26,23.890575,121.45964,2.8799676e-08
C1I201,中心崙,2025-03-26,23.728722,120.712097,2.478187e-09
C1I400,凌霄,2025-03-26,24.018778,121.004456,1.3708217e-08
C1M640,十字,2025-03-26,23.492153,120.753683,1.4311718e-08
G2P820,農試鳳山分所,2025-03-26,22.646611,120.356083,5.2994027e-09
C0Z270,蕃薯寮,2025-03-26,23.73835,121.540108,7.889614e-09
C0F9Q0,外埔,2025-03-26,24.347817,120.705686,7.504742e-08
C0K580,高鐵雲林,2025-03-26,23.737456,120.417944,5.454398e-08
C2I090,鳳凰,2025-03-26,23.728081,120.787347,3.94309e-09
C0U990,員山,2025-03-26,24.74435,121.72247,3.9848036e-08
C0V770,大社,2025-03-26,22.730306,120.346639,1.4567897e-09
C0X120,麻豆,2025-03-26,23.183289,120.248611,8.3015667e-10
C0C670,龍潭,2025-03-26,24.870056,121.221389,4.5853392e-07
C0D680,香山濕地,2025-03-26,24.783581,120.914988,0.014050859
C0S980,勝林山,2025-03-26,22.430439,120.8938,2.1546892e-08
C0V730,大寮,2025-03-26,22.605614,120.395717,3.514022e-08
C0R570,麟洛,2025-03-26,22.65078,120.52719,9.761564e-10
C2M930,石卓,2025-03-26,23.478744,120.702264,1.3729281e-08
C0G9B0,和美,2025-03-26,24.105169,120.492131,1.0419023e-07
CAG100,王功漁港,2025-03-26,23.96824,120.32586,0.7279893
C0X290,北門,2025-03-26,23.267772,120.125481,1.1406558e-07
C2F930,大甲,2025-03-26,24.347667,120.640403,0.0022656606
C0D650,湖口,2025-03-26,24.904794,121.043628,0.8078925
C0E420,竹南,2025-03-26,24.708978,120.888897,0.16830266
C0U780,五結,2025-03-26,24.68637,121.79794,3.9913377e-08
C1I250,鯉潭,2025-03-26,23.961922,120.991131,4.108267e-09
C0R130,阿禮,2025-03-26,22.742908,120.743678,1.1498275e-08
C0X100,臺南市北區,2025-03-26,23.010394,120.194228,1.4617719e-09
C0S920,金峰嘉蘭,2025-03-26,22.594789,120.960825,1.0803051e-08
C0V490,新興,2025-03-26,22.627422,120.298803,1.2302735e-09
C0F9K0,大安,2025-03-26,24.345061,120.588025,0.035103757
72N100,臺南農改,2025-03-26,23.0605,120.342194,0.0001336928
467290,古坑,2025-03-26,23.633639,120.551889,1.3293754e-09
C2E970,八甲,2025-03-26,24.535811,120.795983,8.730163e-08
C0V440,鳳山,2025-03-26,22.646653,120.356122,5.2994027e-09
C1T940,大觀,2025-03-26,23.714206,121.373133,9.486842e-09
72T250,花蓮農改,2025-03-26,23.975222,121.563889,7.0878644e-07
C0E740,造橋,2025-03-26,24.637056,120.864778,0.047334243
C0R100,尾寮山,2025-03-26,22.833111,120.683889,1.1376005e-08
A2K630,臺大雲林校區,2025-03-26,23.730628,120.423903,5.4545648e-08
467990,馬祖,2025-03-26,26.169467,119.923158,1.4214434e-08
C0D580,寶山,2025-03-26,24.735006,121.025192,4.7170673e-08
E2P990,林試扇平站,2025-03-26,22.9677,120.6857,4.2089017e-09
C0AI30,三重,2025-03-26,25.057328,121.500629,9.268024e-06
C0AH00,汐止,2025-03-26,25.066881,121.658778,7.708442e-06
C1Z040,立山,2025-03-26,23.443356,121.327375,1.7907043e-08
466881,新北,2025-03-26,24.959207,121.525196,0.00032523548
C0W130,花嶼,2025-03-26,23.40007,119.32276,0.9999829
C0A950,鼻頭角,2025-03-26,25.129036,121.923372,0.9015612
C0K470,林內,2025-03-26,23.748675,120.609642,1.4109837e-09
C2F990,摩天嶺,2025-03-26,24.322458,120.936819,3.8899257e-09
82C160,茶改場,2025-03-26,24.908472,121.185333,0.005258949
C0Z320,清水林道,2025-03-26,23.27125,121.188272,2.5759151e-08
C0R760,南仁湖,2025-03-26,22.084681,120.863353,0.77851254
C0M670,大林,2025-03-26,23.600616,120.45841,2.9450253e-09
C0M800,茶山,2025-03-26,23.299075,120.664767,1.9455073e-09
C0A9C0,天母,2025-03-26,25.117494,121.537169,1.470798e-05
72K220,南改斗南分場,2025-03-26,23.634556,120.477333,3.6287982e-09
72AI40,桃改樹林分場,2025-03-26,24.944503,121.386972,0.42883307
C0S910,蘭嶼燈塔,2025-03-26,22.081197,121.503117,0.9999027
C0B050,八斗子,2025-03-26,25.144754,121.79167,0.368002
C0U900,內城,2025-03-26,24.71813,121.68766,3.777438e-08
C0X320,柳營,2025-03-26,23.253328,120.375253,6.415823e-10
C0M790,新港,2025-03-26,23.553269,120.345728,1.3306729e-07
C0F9T0,西屯,2025-03-26,24.179494,120.641275,1.6774946e-08
C0SA30,都歷,2025-03-26,23.020333,121.323642,1.2311661e-08
C0C620,蘆竹,2025-03-26,25.084275,121.265767,0.1994614
C0R730,大坪頂,2025-03-26,22.024633,120.69355,0.99315673
C0AJ40,石門,2025-03-26,25.273672,121.601198,0.047728885
C0E750,苗栗,2025-03-26,24.564569,120.824575,1.9562589e-07
C0T870,鯉魚潭,2025-03-26,23.935639,121.508944,5.136201e-09
C1V170,排雲,2025-03-26,23.463619,120.954147,4.280651e-08
C2H950,中寮,2025-03-26,23.884447,120.766406,1.8138792e-09
C0R350,貓鼻頭,2025-03-26,21.921774,120.7358,0.9998319
C0V660,岡山,2025-03-26,22.797078,120.294958,1.7233149e-09
C1H941,雙冬,2025-03-26,23.967378,120.802189,2.4132791e-09
C0AJ70,田寮,2025-03-26,25.2698,121.4886,0.27790442
C0AI00,五股,2025-03-26,25.07445,121.42728,1.0035558e-05
C0Z280,德武,2025-03-26,23.47426,121.41071,8.111509e-09
C0R700,枋山,2025-03-26,22.246844,120.661086,0.075352274
C0C460,復興,2025-03-26,24.820208,121.352281,2.6666507e-08
E2H360,蓮華池,2025-03-26,23.918333,120.885278,2.686288e-09
C0M640,中埔,2025-03-26,23.42538,120.5229,1.7846851e-09
C0W140,金沙,2025-03-26,24.488292,118.408778,6.091553e-09
C2A540,四堵,2025-03-26,24.8926,121.745736,2.2311532e-08
C0ACA0,新莊,2025-03-26,25.051478,121.446756,9.964575e-06
C0R220,潮州,2025-03-26,22.534361,120.54,9.676168e-09
U2HA40,臺大內茅埔,2025-03-26,23.689722,120.851117,2.5318314e-09
467490,臺中,2025-03-26,24.145736,120.684075,2.6542475e-09
C0U960,翠峰湖,2025-03-26,24.510856,121.608044,3.3263113e-08
E2HA20,林試畢祿溪站,2025-03-26,24.226944,121.308522,3.0991448e-08
C0V890,前鎮,2025-03-26,22.5718,120.3117,1.2379707e-09
467620,蘭嶼,2025-03-26,22.036969,121.558339,0.99999744
C1F941,雪嶺,2025-03-26,24.280586,121.026642,3.7550684e-08
C2H9E0,國姓南港,2025-03-26,23.911108,120.846556,6.746105e-09
C0AC80,文山,2025-03-26,25.00235,121.575728,0.00021633893
C0F9R0,龍井,2025-03-26,24.184536,120.528972,0.048361972
C0M760,民雄,2025-03-26,23.551754,120.428457,2.9568958e-09
C0UA40,西德山,2025-03-26,24.560647,121.752608,1.5589722e-08
C1T920,中興,2025-03-26,23.769503,121.498653,5.1391504e-09
C0D550,雪霸,2025-03-26,24.526972,121.11605,2.3962588e-08
C2F860,梨山,2025-03-26,24.247522,121.243669,3.159854e-08
C0R320,車城,2025-03-26,22.0744,120.716247,0.9973491
C1S870,南美山,2025-03-26,23.15025,121.382333,2.2442904e-08
C0B020,基隆嶼,2025-03-26,25.19141,121.78391,0.987515
C1U501,牛鬥,2025-03-26,24.637836,121.573656,2.7170682e-08
C0M730,嘉義市東區,2025-03-26,23.457673,120.460531,1.2951892e-09
C0S700,知本,2025-03-26,22.684866,121.005642,1.1199679e-08
C1N001,沙崙,2025-03-26,22.935472,120.309406,1.1739039e-09
C0V760,橋頭,2025-03-26,22.757806,120.30575,1.4853778e-09
C0G960,福寶,2025-03-26,24.0443,120.3814,1.09607114e-07
C0X210,白河,2025-03-26,23.347466,120.414427,8.718955e-10
C0S810,東河,2025-03-26,22.972672,121.303986,4.674212e-08
C2R170,屏東,2025-03-26,22.66027,120.49403,9.753375e-10
C0R670,楓港,2025-03-26,22.190131,120.692156,2.241531e-08
C0FA50,霧峰,2025-03-26,24.0419,120.6995,6.227274e-09
C0UB10,蘇澳,2025-03-26,24.5969,121.8571,3.960864e-09
C0G950,防潮門,2025-03-26,24.1835,120.4871,0.050450876
C0M740,六腳,2025-03-26,23.492871,120.290625,1.694476e-07
C1R250,力里,2025-03-26,22.428117,120.629228,1.1847757e-08
C0K330,虎尾,2025-03-26,23.719183,120.442036,5.2079695e-08
C2FA00,烏石坑,2025-03-26,24.273503,120.947617,3.801367e-09
C0V620,永安,2025-03-26,22.82315,120.236856,1.7074173e-09
C1I330,楓樹林,2025-03-26,23.986803,121.076117,1.0411649e-08
C0W200,湖西,2025-03-26,23.596314,119.67275,0.99998987
72Q010,高雄農改場,2025-03-26,22.709333,120.525889,1.0483141e-09
C0SA40,瑞和,2025-03-26,22.974361,121.156697,1.3212012e-08
C0C680,龜山,2025-03-26,25.02846,121.38656,2.199634e-07
C2V260,月眉,2025-03-26,22.971003,120.539853,1.0406244e-09
C0V450,鳳森,2025-03-26,22.545064,120.392592,9.15295e-09
C0U720,南山,2025-03-26,24.43742,121.38167,1.6748059e-08
A2N290,臺南蘭花園區,2025-03-26,23.340258,120.379661,8.8890556e-10
C0R560,新園,2025-03-26,22.5434,120.461558,1.0700679e-08
C0U890,三星,2025-03-26,24.66812,121.65302,3.2232215e-08
C1V300,御油山,2025-03-26,23.001983,120.715364,1.3164721e-08
C0U600,礁溪,2025-03-26,24.817539,121.765608,9.485162e-08
C1T980,龍澗,2025-03-26,24.023289,121.411328,3.6277967e-08
C0D670,海天一線,2025-03-26,24.831986,120.914438,0.9294288
C0SA00,歷坵,2025-03-26,22.520969,120.89185,1.0098806e-08
C0M710,東石,2025-03-26,23.458927,120.15385,2.5296748e-08
C0M780,鹿草,2025-03-26,23.41134,120.30835,3.74272e-08
C0U520,雙連埤,2025-03-26,24.753033,121.641303,1.203548e-08
C0B010,七堵,2025-03-26,25.094819,121.71713,0.0017351295
C0R480,長治,2025-03-26,22.693128,120.542622,8.9978347e-10
C1V830,國三S383K,2025-03-26,22.781967,120.426475,1.0369292e-09
12Q980,恆春工作站,2025-03-26,22.079678,120.714425,0.99735063
C1O940,東山服務區,2025-03-26,23.286016,120.398472,6.4473493e-10
C1U840,東澳嶺,2025-03-26,24.5378,121.8485,9.624611e-09
C1D630,飛鳳山,2025-03-26,24.766464,121.119178,3.4494285e-08
C0S940,石寧山,2025-03-26,23.223772,121.406639,1.1143724e-08
C0K410,北港,2025-03-26,23.573957,120.292802,7.877888e-08
C2M620,瑞里,2025-03-26,23.545133,120.675197,7.242969e-09
C0SB70,小港漁港,2025-03-26,23.158558,121.400431,3.0809684e-08
C2O950,安南,2025-03-26,23.076694,120.144861,1.1805089e-06
C0F0E0,南湖圈谷,2025-03-26,24.363714,121.444667,5.5469116e-08
467610,成功,2025-03-26,23.097486,121.373428,3.4873278e-08
C0G890,伸港,2025-03-26,24.148933,120.484403,0.0047574076
C2E540,龍溪,2025-03-26,24.606489,120.783933,0.06036159
C1V200,梅山,2025-03-26,23.268447,120.823556,5.4588085e-09
C0T9H0,加路蘭山,2025-03-26,23.682947,121.5274,2.1078854e-08
C2O930,玉井,2025-03-26,23.126042,120.46055,6.3270983e-10
C1F911,新伯公,2025-03-26,24.221361,120.841069,2.9667933e-09
C0R490,九如,2025-03-26,22.7405,120.490503,1.0434785e-09
C0X200,左鎮,2025-03-26,23.056758,120.408522,1.4159011e-09
C0SB50,叭嗡嗡,2025-03-26,23.047062,121.343223,1.2681414e-08
C1F891,稍來,2025-03-26,24.265689,121.001142,2.4792376e-08
72N240,七股研究中心,2025-03-26,23.081672,120.062894,9.4056595e-08
C0C700,中壢,2025-03-26,24.977661,121.256375,4.5176153e-06
C0M690,水上,2025-03-26,23.419734,120.388909,1.1741368e-09
C0V690,鼓山,2025-03-26,22.623325,120.275575,1.2280276e-09
C0O860,大內,2025-03-26,23.11885,120.36083,8.795253e-10
C0Z200,萬榮,2025-03-26,23.709219,121.420106,6.366893e-09
C0T9D0,和中,2025-03-26,24.26676,121.74103,1.3722971e-08
C1O921,楠西,2025-03-26,23.183511,120.484083,6.556104e-10
C0AJ30,淡水觀海,2025-03-26,25.184591,121.408616,0.010701247
C0V810,左營,2025-03-26,22.67491,120.28491,5.7658487e-09
C0UA70,桃源谷,2025-03-26,24.962606,121.888875,1.6277701e-08
C0X130,官田,2025-03-26,23.193217,120.315422,5.3554905e-10
C1H000,翠峰,2025-03-26,24.109397,121.205211,2.8387811e-08
C0UA90,石城,2025-03-26,24.980444,121.951214,7.771242e-06
C1E681,南勢山,2025-03-26,24.421669,120.923831,1.6027142e-08
C0A9F0,內湖,2025-03-26,25.079422,121.57545,7.708442e-06
C0K291,宜梧,2025-03-26,23.536281,120.169329,7.271903e-08
C1K540,口湖,2025-03-26,23.585344,120.180517,0.0001877584
C0R780,滿州,2025-03-26,22.024403,120.839892,0.9998385
C0V870,文安,2025-03-26,22.8025,120.2164,1.7465113e-09
C0U650,玉蘭,2025-03-26,24.675286,121.587061,9.93568e-09
C0R640,東港,2025-03-26,22.46247,120.44074,8.0381375e-07
K2E360,苗栗農改,2025-03-26,24.495722,120.829111,9.03511e-08
C0AJ80,板橋,2025-03-26,25.0107,121.4489,0.0003793506
C0S660,下馬,2025-03-26,23.150427,121.070312,2.4076574e-08
C1H9B1,阿眉,2025-03-26,24.1263,120.994672,2.4828482e-08
C0UA20,多加屯,2025-03-26,24.368614,121.373189,3.2403456e-08
C0E730,頭份,2025-03-26,24.688247,120.912206,0.23843741
72V140,高改旗南分場,2025-03-26,22.857861,120.516667,9.793005e-10
C0K480,莿桐,2025-03-26,23.761192,120.502372,5.184162e-09
C0U980,坪林石牌,2025-03-26,24.86478,121.77396,1.3928021e-08
C0T900,西林,2025-03-26,23.8119,121.441458,5.879951e-09
C1I150,青雲,2025-03-26,23.793361,120.949378,1.943423e-09
467350,澎湖,2025-03-26,23.565503,119.563094,0.9999913
C0G800,埔鹽,2025-03-26,24.000394,120.431683,1.2227278e-07
C0H960,草屯,2025-03-26,23.973672,120.68085,6.151989e-09
C1V780,多納林道,2025-03-26,22.888028,120.737917,5.7062772e-09
C0E920,通霄漁港,2025-03-26,24.498589,120.673876,0.7760035
C0Z330,安通山,2025-03-26,23.290728,121.348528,1.6107249e-08
C0AH10,永和,2025-03-26,25.01125,121.508111,0.00041222008
C0AK10,太平里,2025-03-26,25.134937,121.364899,0.15149723
C2G640,鹿港,2025-03-26,24.0753,120.430481,1.096067e-07
C1E890,國三N149K,2025-03-26,24.463414,120.680019,0.049759638
C1R110,口社,2025-03-26,22.770111,120.645222,1.0142582e-09
C1M870,國三N285K,2025-03-26,23.550319,120.505833,1.4964711e-09
467050,新屋,2025-03-26,25.006744,121.047486,1.8946115e-05
C1E480,鳳美,2025-03-26,24.554803,121.034747,2.6666811e-08
C0M530,奮起湖,2025-03-26,23.493903,120.699253,8.196518e-09
C0C590,觀音,2025-03-26,25.027072,121.153317,0.5387164
C0T9M0,靜浦,2025-03-26,23.455167,121.495028,7.613665e-09
C2H9M0,發祥,2025-03-26,24.154094,121.164517,1.117983e-08
C0AI40,石牌,2025-03-26,25.115597,121.513139,1.5983485e-05
C1F871,上谷關,2025-03-26,24.203483,121.018644,3.7004686e-09
C2H9G0,百勝,2025-03-26,24.051142,120.909361,2.65486e-09
C0G880,二水,2025-03-26,23.810742,120.6173,1.1125094e-09
C0R940,加祿堂,2025-03-26,22.3363,120.6217,3.7901618e-08
C0W220,北竿,2025-03-26,26.220358,119.974881,1.0578272e-08
C0O960,崎頂,2025-03-26,22.959547,120.369317,1.1691845e-09
C0S750,向陽,2025-03-26,23.248397,120.986133,2.0569917e-08
C0T9F0,水璉,2025-03-26,23.797131,121.542514,6.580851e-09
C1M600,頭凍,2025-03-26,23.406364,120.603339,5.783902e-09
467660,臺東,2025-03-26,22.752211,121.154586,2.7649033e-08
C1D380,新埔,2025-03-26,24.84745,121.03834,0.26161492
C2G980,田頭村,2025-03-26,23.8263,120.444175,4.1015827e-08
C0V750,路竹,2025-03-26,22.854997,120.259439,2.787842e-09
C0N050,蚵寮,2025-03-26,23.301,120.1104,5.1680423e-08
72M700,南改鹿草分場,2025-03-26,23.416869,120.283061,4.209e-08
C1SA50,利嘉林道,2025-03-26,22.82325,121.009389,9.598396e-09
467550,玉山,2025-03-26,23.487614,120.959522,5.6334997e-08
C0A940,金山,2025-03-26,25.223628,121.643967,0.00020306633
C1V340,大津,2025-03-26,22.888322,120.645986,1.36176e-09
C0W180,七美,2025-03-26,23.219333,119.444892,0.99999154
C1F9C1,白冷,2025-03-26,24.182844,120.929889,3.7865324e-09
K2E710,苗改生物防治研究中心,2025-03-26,24.422861,120.871833,2.8051463e-08
C0N040,蘆竹溝,2025-03-26,23.2344,120.0961,1.1414991e-07
C2W230,畜試所澎湖,2025-03-26,23.628342,119.513206,0.99999
C0R880,後壁湖,2025-03-26,21.9457,120.7457,0.99979013
C1I280,埔中,2025-03-26,23.820778,120.642594,1.6539674e-09
467790,墾丁雷達站,2025-03-26,21.948235,120.808028,0.9999498
C0W190,望安,2025-03-26,23.380564,119.494075,0.99999225
466881,新北,2025-03-26,24.9593,121.52,0.8792253
C0Z170,卓溪,2025-03-26,23.3443,121.3029,1.29537e-08
C0F850,東勢,2025-03-26,24.246428,120.833047,3.4104428e-09
466900,淡水,2025-03-26,25.164889,121.448906,0.14790423
C0I370,魚池,2025-03-26,23.895703,120.94135,2.4178681e-09
C0C630,大溪,2025-03-26,24.882853,121.265547,0.00011728024
C0A520,山佳,2025-03-26,24.974944,121.402008,0.0027393887
C0I110,竹山,2025-03-26,23.761225,120.688156,1.1784804e-09
82H840,茶改南部分場,2025-03-26,23.762528,120.7405,1.3228421e-09
C0G660,溪湖,2025-03-26,23.94835,120.479122,1.2483664e-08
C1T800,洛韶,2025-03-26,24.204558,121.453956,2.2187402e-08
C1T810,慈恩,2025-03-26,24.192044,121.388386,2.0583025e-08
C1E451,象鼻,2025-03-26,24.368617,120.940228,1.4632958e-08
C0AC60,三峽,2025-03-26,24.939025,121.369728,0.188411
C0I490,萬大林道,2025-03-26,23.928228,121.091411,1.2724566e-08
C1I290,豐丘,2025-03-26,23.668178,120.887417,7.132568e-09
C1I320,奧萬大,2025-03-26,23.952956,121.178556,8.078898e-09
C2M910,嘉義大學,2025-03-26,23.471325,120.485903,1.7251665e-09
C0U770,南澳,2025-03-26,24.44935,121.81022,8.030505e-09
C0A980,社子,2025-03-26,25.109508,121.469681,0.18626909
C0V800,六龜,2025-03-26,22.997889,120.633583,1.1087895e-09
C1G9D0,國一S218K,2025-03-26,23.890641,120.493253,2.5337842e-08
C0E570,白沙屯,2025-03-26,24.549447,120.696803,0.99883336
C2F9A0,中竹林,2025-03-26,24.103556,120.751061,1.4116459e-09
C0FA40,臺中電廠,2025-03-26,24.2146,120.4907,0.048318196
C2G9A0,畜試所彰化,2025-03-26,23.86045,120.557964,4.4140305e-09
C0H9C0,合歡山,2025-03-26,24.143442,121.272547,5.070568e-08
C0X060,下營,2025-03-26,23.22695,120.256261,7.63833e-10
G2M350,農試溪口農場,2025-03-26,23.58565,120.408111,3.0188234e-09
C0U860,頭城,2025-03-26,24.85323,121.8308,9.925834e-08
C0R580,南州,2025-03-26,22.48591,120.50274,8.0381375e-07
C0D430,峨眉,2025-03-26,24.6905,121.017189,3.0789322e-06
C0G780,秀水,2025-03-26,24.03405,120.503869,8.304517e-09
72N100,臺南農改場,2025-03-26,23.0605,120.342194,8.85663e-10
C0S900,蘭嶼高中,2025-03-26,22.04909,121.51214,0.99956816
467540,大武,2025-03-26,22.355675,120.903789,1.8355178e-07
C1F9W0,德基,2025-03-26,24.254783,121.190261,1.9953786e-08
C1Z120,壽豐,2025-03-26,23.870853,121.508081,4.7344706e-09
C0W160,烏坵,2025-03-26,24.9944,119.44956,9.5114467e-07
C1I240,外大坪,2025-03-26,23.958697,120.917931,4.150665e-09
C1I550,國六W023K,2025-03-26,23.979067,120.867742,1.3624589e-09
C0R870,興海,2025-03-26,21.9752,120.8439,0.99992627
C0R140,瑪家,2025-03-26,22.682903,120.686639,4.2348796e-09
C0A530,坪林,2025-03-26,24.938183,121.70975,8.880337e-08
C0X260,後壁,2025-03-26,23.366358,120.362326,7.9598345e-10
C0Z230,和平,2025-03-26,24.30717,121.77007,1.4070768e-08
C0G770,福興,2025-03-26,24.041289,120.437669,1.2461962e-07
C0H9A0,神木村,2025-03-26,23.532742,120.843667,1.9887523e-08
C0I460,南投,2025-03-26,23.911469,120.687331,1.7107913e-09
C0I480,梅峰,2025-03-26,24.085272,121.173572,2.375612e-08
C1V570,吉東,2025-03-26,22.85422,120.5454,9.874671e-10
C2D740,屯原,2025-03-26,24.067969,121.209389,2.3307168e-08
C2A560,福山,2025-03-26,24.776203,121.502811,1.0700862e-08
C0AH30,五分山,2025-03-26,25.07125,121.780794,2.084087e-08
C0FA10,松柏,2025-03-26,24.429115,120.617482,0.6232201
72S200,東改班鳩分場,2025-03-26,22.829528,121.077694,1.4185833e-08
72HA00,中改埔里分場,2025-03-26,23.903208,120.963364,2.538819e-09
C2H9W0,大坪頂農水,2025-03-26,24.043122,120.932781,3.2542982e-09
C0C650,平鎮,2025-03-26,24.897503,121.214636,0.0018291477
C0S930,延平,2025-03-26,22.902581,121.084058,1.4689893e-08
C0UA60,樟樹山,2025-03-26,24.41393,121.78325,1.0012728e-08
C1S670,摩天,2025-03-26,23.199503,121.027,3.9349253e-08
C0V630,茄萣,2025-03-26,22.906642,120.182608,1.370178e-09
466940,基隆,2025-03-26,25.133314,121.740475,0.3383885
C0X050,東河,2025-03-26,23.296598,120.385608,6.3838534e-10
C0R770,保力,2025-03-26,22.071122,120.764111,0.99602336
G2L020,農試嘉義分所,2025-03-26,23.485028,120.473806,1.377841e-09
C0X240,關子嶺,2025-03-26,23.331169,120.508025,1.4052576e-09
C0I380,集集,2025-03-26,23.828206,120.801467,1.0938085e-09
466990,花蓮,2025-03-26,23.975128,121.613275,5.5675353e-09
C1V220,小關山,2025-03-26,23.154217,120.813603,1.6363835e-08
C1F9G1,慶福山,2025-03-26,24.180853,120.848378,4.954637e-09
C0Z250,瑞穗林道,2025-03-26,23.49284,121.30688,1.5223359e-08
C0D590,新豐,2025-03-26,24.87068,120.97721,0.8543512
C0A870,五指山,2025-03-26,25.132153,121.608692,2.1868932e-08
C0UA50,西帽山,2025-03-26,24.555361,121.802628,1.1711179e-08
C0X160,仁德,2025-03-26,22.968258,120.257689,9.0673336e-10
C1H971,六分寮,2025-03-26,23.92507,120.6378,1.6050015e-09
C0W120,西嶼,2025-03-26,23.5626,119.468436,0.999991
C0G650,員林,2025-03-26,23.946503,120.585597,1.4133755e-09
C0AD50,鶯歌,2025-03-26,24.951533,121.346294,0.106098495
C2H9Q0,北東眼山,2025-03-26,24.120939,121.189303,2.7509214e-08
C2H9T0,名間竹圍,2025-03-26,23.859914,120.637572,1.2471402e-09
C0S990,山豬窟,2025-03-26,22.318619,120.857372,9.989665e-09
72Q010,高雄農改,2025-03-26,22.709333,120.525889,4.982337e-09
C0X190,安平,2025-03-26,22.993161,120.152181,1.4589754e-09
C0K400,斗六,2025-03-26,23.720583,120.541127,3.7751384e-09
12J990,口湖工作站,2025-03-26,23.589978,120.180394,0.0001870786
C0O830,北寮,2025-03-26,23.079561,120.495008,1.092447e-09
C1D410,白蘭,2025-03-26,24.579364,121.079947,1.2111566e-08
C0S970,加津林,2025-03-26,22.416211,120.926942,1.2090792e-08
C0D700,關西,2025-03-26,24.7977,121.1732,7.4631775e-05
C0M810,里佳,2025-03-26,23.389125,120.716647,9.220146e-09
C0U750,龜山島,2025-03-26,24.841667,121.953133,4.328313e-06
C0R810,內獅,2025-03-26,22.305064,120.642986,3.8662357e-08
C1M390,龍美,2025-03-26,23.406728,120.654417,7.0623636e-09
C2FB60,頭櫃山,2025-03-26,24.129842,120.858925,5.305491e-09
C1H840,國三N238K,2025-03-26,23.841008,120.707711,1.1637736e-09
CAQ030,崎峰國小,2025-03-26,22.42565,120.49521,8.0381375e-07
C2E520,大湖,2025-03-26,24.414939,120.870872,9.093907e-09
467530,阿里山,2025-03-26,23.508208,120.813242,2.7871362e-08
C1E691,南湖,2025-03-26,24.40135,120.837533,1.3516764e-08
C0FA30,梧棲,2025-03-26,24.256003,120.523381,0.076117285
C1V231,高中,2025-03-26,23.134911,120.716711,2.1364936e-09
C0F9V0,新社,2025-03-26,24.200172,120.815806,3.3996617e-09
C0H890,埔里,2025-03-26,23.972169,120.952425,2.2895015e-09
C0R690,墾丁,2025-03-26,21.966756,120.810269,0.9999771
C0F0D0,審馬陣,2025-03-26,24.381675,121.4203,4.9513233e-08
C2W030,金門農試所,2025-03-26,24.448431,118.451786,1.1436791e-08
C0R820,白鷺,2025-03-26,22.454275,120.666219,1.10131815e-08
U2H480,臺大溪頭,2025-03-26,23.670306,120.798194,6.4322934e-09
C1V190,南天池,2025-03-26,23.27403,120.91176,2.3235794e-08
K2E360,苗栗農改場,2025-03-26,24.495722,120.829111,5.0973995e-08
CAJ050,海口故事園區,2025-03-26,23.57543,120.14121,0.00018748146
C2H9D0,三隻寮,2025-03-26,24.093078,120.861578,3.335528e-09
C0O990,媽廟,2025-03-26,22.99175,120.293525,9.599471e-10
C0D480,打鐵坑,2025-03-26,24.849664,121.150789,4.3395693e-07
C0Z220,和平林道,2025-03-26,24.343922,121.656317,1.1201367e-08
C0TA10,花蓮漁港,2025-03-26,23.995322,121.638331,5.5242717e-09
72C440,桃園農改場,2025-03-26,24.950944,121.030583,0.9258995
C1E711,馬拉邦山,2025-03-26,24.367306,120.901656,6.3207684e-09
C0SB20,富岡,2025-03-26,22.792467,121.192669,2.6970449e-08
C0D560,竹東,2025-03-26,24.767147,121.057881,6.000668e-07
C0F9U0,南屯,2025-03-26,24.137006,120.637969,3.569147e-09
C0M720,番路,2025-03-26,23.464657,120.554156,1.698294e-09
C0F0A0,雪山圈谷,2025-03-26,24.388594,121.236339,5.975501e-08
C1A9N0,四十份,2025-03-26,24.934158,121.593283,2.504561e-08
C0U760,東澳,2025-03-26,24.52196,121.83318,6.0875576e-09
C0X230,鹽水,2025-03-26,23.272621,120.247641,4.284817e-08
C2H9H0,苗改南投蜂場,2025-03-26,23.852589,120.693481,1.1135624e-09
C0R950,萬隆國小,2025-03-26,22.507667,120.587817,8.501307e-09
467540,大武,2025-03-26,22.35572,120.90374,1.2620607e-08
C0V370,古亭坑,2025-03-26,22.893178,120.401947,1.2354185e-09
C1I340,新興橋,2025-03-26,23.563333,120.868728,3.7162133e-09
C0SA80,土坂,2025-03-26,22.453108,120.887572,8.605653e-09
C0R160,鹽埔,2025-03-26,22.739558,120.530778,1.0492383e-09
C0AC40,大屯山,2025-03-26,25.175675,121.522408,3.838205e-08
466850,五分山雷達站,2025-03-26,25.071182,121.781205,2.110742e-08
C2H9L0,馬烈霸,2025-03-26,24.1512,121.201772,2.3960578e-08
C1AI50,國三N016K,2025-03-26,25.034164,121.619664,4.752677e-06
C1V600,藤枝,2025-03-26,23.071961,120.757042,1.7292624e-08
C1E601,南勢,2025-03-26,24.572486,120.734842,0.96816367
C0Z180,新城,2025-03-26,24.03946,121.60454,5.5952993e-09
C0O980,新市,2025-03-26,23.061614,120.298197,8.781407e-10
C0K420,西螺,2025-03-26,23.800407,120.467394,4.0982982e-08
C0Z050,佳心,2025-03-26,23.34567,121.21316,2.9622827e-08
C0AD30,蘆洲,2025-03-26,25.086594,121.472331,9.103331e-06
C0V610,梓官,2025-03-26,22.760558,120.267211,1.482703e-09
K2F750,種苗改良場,2025-03-26,24.225972,120.800917,3.1190206e-09
C0UA80,大溪漁港,2025-03-26,24.941801,121.902955,4.5388992e-07
C1AI60,國一39K邊坡,2025-03-26,25.064361,121.383836,2.4211997e-07
C0W150,金寧,2025-03-26,24.457703,118.328989,1.13796945e-08
C0R960,內埔,2025-03-26,22.608483,120.570714,2.8525224e-09
V2C250,八德合作社,2025-03-26,24.93775,121.266389,0.013667746
C2H9S0,龍南,2025-03-26,23.953536,120.833183,4.185749e-09
C0AH40,平等,2025-03-26,25.129142,121.577086,1.820917e-08
C0R540,佳冬,2025-03-26,22.419456,120.552375,3.098173e-07
466950,彭佳嶼,2025-03-26,25.627975,122.079744,0.99998635
C0A890,雙溪,2025-03-26,25.036003,121.864242,0.7449515
C0C480,桃園,2025-03-26,24.992425,121.323172,9.159036e-06
C0AH50,林口,2025-03-26,25.072181,121.38084,2.0691593e-07
A2K360,水試臺西試驗場,2025-03-26,23.717231,120.190522,0.01160349
B2N890,畜試所,2025-03-26,23.058972,120.336406,0.00019565492
C2M960,外寮,2025-03-26,23.562643,120.665688,5.173563e-09
C0F9S0,烏日,2025-03-26,24.107058,120.624103,1.2339232e-09
C0C490,八德,2025-03-26,24.928708,121.283289,0.013188713
C0R190,赤山,2025-03-26,22.592333,120.614306,2.8346567e-09
C0T820,天祥,2025-03-26,24.179597,121.495639,1.3777943e-08
C1F9E1,龍安,2025-03-26,24.1605,120.831961,3.4225438e-09
C0V820,小林,2025-03-26,23.148408,120.63325,1.1722258e-09
C2G870,芳苑,2025-03-26,23.922303,120.320025,0.5922772
C0E850,大河,2025-03-26,24.618069,120.948578,1.4429029e-08
C1U670,寒溪,2025-03-26,24.634,121.71691,2.4606855e-08
C0N020,城西,2025-03-26,23.0568,120.0956,9.132821e-10
C1Z110,三棧,2025-03-26,24.11557,121.60501,2.932365e-08
C0R280,檳榔,2025-03-26,22.076078,120.836777,0.9026181
C2H9J0,中台,2025-03-26,23.9996,120.938739,2.5974445e-09
C0F9L0,后里,2025-03-26,24.310436,120.729725,2.1973157e-09
467441,高雄,2025-03-26,22.730432,120.312516,1.4456707e-09
C0D540,橫山,2025-03-26,24.71116,121.11693,4.496895e-08
C1D420,太閣南,2025-03-26,24.632808,121.160575,2.6300945e-08
C1E770,公館,2025-03-26,24.526914,120.830806,5.5728506e-08
CAN130,水試所海水繁養殖中心,2025-03-26,23.120802,120.07968,9.209675e-08
C1I430,翠華,2025-03-26,24.191961,121.224339,2.926604e-08
C1M400,菜瓜坪,2025-03-26,23.251928,120.576103,1.6310293e-09
C0G730,二林,2025-03-26,23.903325,120.376081,4.123401e-07
72M360,南改義竹分場,2025-03-26,23.360694,120.279361,1.3885899e-08
V2K620,麥寮合作社,2025-03-26,23.753836,120.294783,5.622661e-05
C0Z070,舞鶴,2025-03-26,23.46811,121.37407,8.347617e-09
C0B040,大武崙,2025-03-26,25.166676,121.706993,0.21665867
C1Z030,紅葉,2025-03-26,23.493119,121.338806,9.391584e-09
C1I050,丹大,2025-03-26,23.753747,121.141147,2.5272056e-08
C0I080,信義,2025-03-26,23.689694,120.851036,2.5318363e-09
C2M920,朴子農改,2025-03-26,23.469889,120.259383,4.1952227e-08
C2A880,福隆,2025-03-26,25.017842,121.942083,9.53072e-06
C0Z160,鳳林,2025-03-26,23.746114,121.453411,6.1816183e-09
C0V210,復興,2025-03-26,23.222403,120.806089,2.3634894e-09
C0H990,昆陽,2025-03-26,24.121322,121.273642,4.0043464e-08
C0R741,獅子,2025-03-26,22.202308,120.705236,7.346078e-09
C0S710,鹿野,2025-03-26,22.917711,121.122994,1.2626385e-08
C0I530,小奇萊,2025-03-26,24.131764,121.295717,4.142094e-08
C2K630,荷苞,2025-03-26,23.657717,120.595144,1.3586468e-09
C0Z080,富源,2025-03-26,23.587642,121.378225,1.36796166e-08
467441,高雄,2025-03-26,22.7304,120.3125,0.9986838
C0SB10,美和,2025-03-26,22.682078,121.060236,9.918809e-09
C2K620,馬光農場,2025-03-26,23.721453,120.378864,5.969076e-08
C1I140,卡奈托灣,2025-03-26,23.754364,121.087872,1.2283936e-08
C0I520,玉山風口,2025-03-26,23.470489,120.955994,5.1541917e-08
C1G691,下水埔,2025-03-26,23.816114,120.5676,5.05908e-09
C0X110,臺南市南區,2025-03-26,22.961189,120.188378,9.075379e-10
C0V680,仁武,2025-03-26,22.701083,120.347722,5.8157723e-09
C2G840,北斗,2025-03-26,23.877586,120.514222,2.3957105e-08
C0R900,竹坑,2025-03-26,22.1385,120.7022,8.739751e-05
C0K250,崙背,2025-03-26,23.75555,120.318925,4.714096e-05
C0G860,社頭,2025-03-26,23.897647,120.5862,3.0517588e-09
C0X150,安定,2025-03-26,23.102614,120.227839,2.4037834e-09
C0R590,里港,2025-03-26,22.77919,120.49459,1.0078463e-09
C0E610,馬都安,2025-03-26,24.451272,120.930192,1.4105673e-08
C0E550,明德,2025-03-26,24.583486,120.885411,1.6908568e-07
C0R150,三地門,2025-03-26,22.709889,120.639944,1.0065898e-09
C0G910,花壇,2025-03-26,24.032076,120.549461,7.920206e-09
C1D400,鳥嘴山,2025-03-26,24.71909,121.28387,1.7148007e-08
C0K500,元長,2025-03-26,23.64981,120.315024,3.3209249e-06
C0F0B0,石岡,2025-03-26,24.276061,120.777644,2.2770374e-09
C2V250,甲仙,2025-03-26,23.080106,120.591758,9.831203e-10
C0SA20,金崙山,2025-03-26,22.567419,120.959667,2.299143e-08
C0V350,溪埔,2025-03-26,22.738578,120.446797,9.016578e-10
C0M660,溪口,2025-03-26,23.604131,120.403569,3.0204879e-09
C1S880,壽卡,2025-03-26,22.238911,120.858903,1.1075514e-08
72D680,桃改新埔分場,2025-03-26,24.834444,121.066111,0.27233955
