站號,站名,日期,lat,lon,BLBTSLS
C0R710,龍磐,2025-05-18,21.931672,120.838942,0.013389359
C1F9D1,白毛台,2025-05-18,24.158325,120.886933,2.1843867e-09
C0G940,竹塘,2025-05-18,23.848253,120.386764,1.1368695e-08
467590,恆春,2025-05-18,22.003897,120.746339,0.8935759
C1O850,環湖,2025-05-18,23.148617,120.418633,5.8768148e-08
C0U710,太平山,2025-05-18,24.505486,121.525656,8.961017e-09
C0E820,獅潭,2025-05-18,24.539133,120.920042,3.487133e-09
C0V880,興達,2025-05-18,22.8778,120.2127,4.2164082e-08
C0S890,關山,2025-05-18,23.0395,121.175017,8.917182e-09
C0SB30,新蘭,2025-05-18,22.869214,121.223228,1.5196399e-06
C2R970,屏科大,2025-05-18,22.648275,120.619247,2.1844944e-07
C1Z130,銅門,2025-05-18,23.965694,121.492842,7.1751125e-09
C0AD40,土城,2025-05-18,24.973208,121.445169,2.4581976e-07
CAN140,六官養殖協會,2025-05-18,23.22881,120.29962,2.4537714e-09
C0X180,山上,2025-05-18,23.0757,120.363253,1.2031005e-08
C0F9Z0,雪山東峰,2025-05-18,24.388792,121.268675,2.1231298e-08
C1M480,獨立山,2025-05-18,23.537022,120.607797,1.3269789e-09
C0X220,學甲,2025-05-18,23.230367,120.182187,2.8956255e-09
467650,日月潭,2025-05-18,23.881325,120.90805,2.2602744e-09
C0K600,箔子寮,2025-05-18,23.6197,120.14,2.8647372e-08
C0G830,埤頭,2025-05-18,23.866003,120.452806,1.3732784e-09
C0S950,七塊厝,2025-05-18,22.954453,121.229922,2.8017335e-09
467110,金門,2025-05-18,24.407306,118.289281,5.669465e-07
C0AH80,深坑,2025-05-18,25.002703,121.628328,1.404147e-07
C0A970,三貂角,2025-05-18,25.007606,122.002058,2.2407916e-08
C2D730,寶山農場,2025-05-18,24.732444,120.976153,4.7701656e-09
C0K430,褒忠,2025-05-18,23.690938,120.303634,2.9743403e-09
467480,嘉義,2025-05-18,23.495925,120.432906,1.6634268e-09
C0V400,阿公店,2025-05-18,22.804194,120.355528,1.3069268e-07
467550,玉山,2025-05-18,23.48718,120.95943,1.629407e-08
C0R440,大漢山,2025-05-18,22.405264,120.753181,5.737928e-09
C0K280,四湖,2025-05-18,23.630414,120.227125,1.4950968e-08
C1F9B1,桐林,2025-05-18,24.066172,120.735194,2.9678913e-09
C2H9U0,鳳鵬,2025-05-18,23.763919,120.788061,1.6672321e-09
C0K390,土庫,2025-05-18,23.679029,120.395574,1.5980827e-09
C1I450,望鄉山,2025-05-18,23.594153,120.944286,7.0203003e-09
C0E910,海埔,2025-05-18,24.648767,120.772435,8.500901e-09
B2E890,畜試北區分所,2025-05-18,24.527806,120.770972,1.8420325e-09
C0R750,四林格山,2025-05-18,22.076989,120.802439,0.01945243
C0F0C0,中坑,2025-05-18,24.248517,120.903319,3.58421e-09
C1I121,大鞍,2025-05-18,23.678381,120.760017,3.474903e-09
72U480,花改蘭陽分場,2025-05-18,24.686306,121.716583,2.1404665e-09
C0A770,科教館,2025-05-18,25.096356,121.516507,3.1022768e-07
C0AJ60,六塊厝,2025-05-18,25.24,121.4481,2.71963e-05
C0R620,墾雷,2025-05-18,21.900836,120.855269,0.0027579227
467420,永康,2025-05-18,23.038386,120.2367,6.712874e-09
C0I410,名間,2025-05-18,23.837053,120.701447,4.0611865e-09
A2C560,農工中心,2025-05-18,24.985917,121.239833,2.758698e-08
C0V740,旗山,2025-05-18,22.888614,120.483597,6.2879173e-09
C0Z061,玉里,2025-05-18,23.3215,121.339656,4.3100936e-09
C0S840,南田,2025-05-18,22.279725,120.889208,0.19955489
C1I470,杉林溪,2025-05-18,23.639517,120.786444,4.1104773e-09
C1X040,東原,2025-05-18,23.291597,120.463822,2.4226967e-09
C0R660,枋寮,2025-05-18,22.367722,120.590647,0.00385367
C1R120,上德文,2025-05-18,22.763272,120.704442,1.8227194e-09
C0K450,大埤,2025-05-18,23.646074,120.431537,3.3665783e-09
C0UA00,土場,2025-05-18,24.576533,121.495333,7.544782e-09
467080,宜蘭,2025-05-18,24.763975,121.756528,4.0625423e-09
C0N030,四草,2025-05-18,23.0235,120.1116,6.182479e-09
467410,臺南,2025-05-18,22.99328,120.20492,4.8561097e-09
C0V650,彌陀,2025-05-18,22.783806,120.246361,1.04430935e-08
C0D660,新竹市東區,2025-05-18,24.798681,120.986942,1.0342948e-08
82S580,茶改東部分場,2025-05-18,22.907694,121.130139,5.271501e-08
C0SB40,興隆,2025-05-18,22.913661,121.257469,9.486761e-07
467050,新屋,2025-05-18,25.006725,121.047492,1.7723559e-07
C0C710,大溪永福,2025-05-18,24.892936,121.324975,1.0466903e-08
C0FA20,溫寮,2025-05-18,24.372177,120.583125,1.4560369e-07
C0V640,湖內,2025-05-18,22.887139,120.2445,3.5015244e-08
C0R910,下寮,2025-05-18,22.3929,120.5548,0.0038536664
C0Z020,明里,2025-05-18,23.208717,121.262342,5.3011213e-09
C0M770,嘉義梅山,2025-05-18,23.585398,120.555587,5.724843e-09
C0C660,楊梅,2025-05-18,24.912375,121.143047,1.056843e-08
C1E511,新開,2025-05-18,24.347703,120.827019,1.7546115e-09
G2F820,農試所(霧峰),2025-05-18,24.031261,120.688133,3.6318448e-09
C1I070,和社,2025-05-18,23.591131,120.888861,6.82232e-09
C2F000,大肚,2025-05-18,24.15295,120.572117,1.4123838e-09
C1S850,豐南,2025-05-18,23.122139,121.262389,2.0827629e-09
C2A920,富貴角,2025-05-18,25.263783,121.565258,1.1475444e-06
CAH030,茶改場竹圍站,2025-05-18,23.860083,120.637528,1.4344669e-09
C0T960,光復,2025-05-18,23.660694,121.424964,6.6262063e-09
C0F9M0,豐原,2025-05-18,24.254322,120.720692,2.5923812e-09
C0R720,旭海,2025-05-18,22.205403,120.887614,0.87491256
C0V710,苓雅,2025-05-18,22.622742,120.330669,2.4578897e-08
C0C740,觀音工業區,2025-05-18,25.064764,121.114856,3.6807155e-06
CAC040,拉拉山,2025-05-18,24.699317,121.427133,1.4303204e-08
C0V790,萬山,2025-05-18,22.905944,120.688056,5.6929386e-09
U2HA30,臺大和社,2025-05-18,23.590856,120.888864,6.82232e-09
C0AJ90,澳底,2025-05-18,25.0552,121.9253,2.956594e-07
C0Z100,東華,2025-05-18,23.89525,121.549833,1.795102e-08
C0G970,三豐,2025-05-18,23.882,120.2895,0.13659653
V2K610,大庄合作社,2025-05-18,23.8068,120.367939,6.6205086e-09
C0V900,汕尾,2025-05-18,22.4782,120.4151,1.3987149e-05
C1R630,龍泉,2025-05-18,22.66701,120.59091,8.4240725e-07
C1AC50,關渡,2025-05-18,25.133486,121.469331,3.789309e-07
C0F9I0,神岡,2025-05-18,24.272481,120.658314,1.5197936e-09
C0K460,斗南,2025-05-18,23.678734,120.478359,3.2295706e-09
C2O810,曾文,2025-05-18,23.219681,120.497328,4.5789528e-09
467280,後龍,2025-05-18,24.648563,120.831834,6.404724e-09
C1F9J1,清水林,2025-05-18,24.071242,120.820419,3.3259544e-09
C2A650,火燒寮,2025-05-18,25.002719,121.742892,1.0492808e-08
466930,竹子湖,2025-05-18,25.162078,121.544547,2.062239e-09
C1I220,樟湖,2025-05-18,23.905333,120.846983,1.6086578e-09
C0I390,仁愛,2025-05-18,24.022122,121.132206,1.4128715e-09
C0Z300,東里,2025-05-18,23.26853,121.30547,8.01664e-09
C1V590,新發,2025-05-18,23.057019,120.646064,3.2495842e-09
C0K510,水林,2025-05-18,23.572924,120.24597,2.0975373e-09
72S590,東改賓朗果園,2025-05-18,22.813889,121.071278,1.750855e-08
82A750,茶改北部分場,2025-05-18,24.955778,121.631222,1.5230329e-08
C1A750,石碇服務區,2025-05-18,25.00872,121.646242,3.7561756e-07
C0X300,鹿寮,2025-05-18,23.386047,120.477331,4.3158934e-09
G2AI50,關渡,2025-05-18,25.11575,121.492,0.0001091256
C0K590,雲林東勢,2025-05-18,23.674192,120.255721,2.7818503e-09
C0A570,桶後,2025-05-18,24.848222,121.597992,6.7708683e-09
C1S800,華源,2025-05-18,22.657883,121.02325,8.0153564e-05
C0G720,溪州,2025-05-18,23.851589,120.499093,1.311124e-09
C1V160,達卡努瓦,2025-05-18,23.279811,120.705319,3.402795e-09
C2M410,馬頭山,2025-05-18,23.324361,120.582017,1.8325252e-09
C0V850,蚵仔寮,2025-05-18,22.7256,120.2527,3.8920057e-08
C0S740,池上,2025-05-18,23.119628,121.209469,3.0246898e-07
C1V390,尖山,2025-05-18,22.813153,120.367789,6.8208266e-08
C0AH70,松山,2025-05-18,25.04871,121.55042,2.7549078e-07
C0N010,鯤鯓國小,2025-05-18,23.1879,120.0889,5.7788294e-09
C0R550,新埤,2025-05-18,22.467947,120.582894,8.228167e-06
C0SA60,知本（水試所）,2025-05-18,22.702394,121.082761,0.17577147
C0T9I0,豐濱,2025-05-18,23.583897,121.514806,4.8432427e-09
C0UB00,淡江大學蘭陽校園,2025-05-18,24.823239,121.730383,7.601563e-09
C0W240,九宮,2025-05-18,24.423753,118.240186,6.295102e-07
C0T9N0,富里,2025-05-18,23.171639,121.249378,3.044168e-08
U2HA50,臺大竹山,2025-05-18,23.756972,120.681556,4.2727284e-09
C0V840,鳳鼻頭,2025-05-18,22.5083,120.3591,1.6620895e-08
C0X140,西港,2025-05-18,23.125608,120.203108,4.030543e-09
72D080,桃改五峰分場,2025-05-18,24.612194,121.157167,2.8226093e-09
C2H9P0,伊拿谷,2025-05-18,23.963211,121.088264,1.3354466e-09
C2H9F0,柑林,2025-05-18,24.018658,120.847072,2.5912592e-09
C0TA20,加灣,2025-05-18,24.082025,121.608944,8.710237e-08
C0V530,阿蓮,2025-05-18,22.883208,120.327508,5.222291e-09
C1O880,關山,2025-05-18,23.173397,120.594092,2.1195115e-09
C0E791,卓蘭,2025-05-18,24.3126,120.8244,1.8492878e-09
C1I030,武界,2025-05-18,23.913225,121.052483,1.3557242e-09
C0R520,崁頂,2025-05-18,22.514781,120.506914,3.7491398e-06
C0R341,牡丹,2025-05-18,22.130036,120.792639,0.0047507314
C0R930,萬丹,2025-05-18,22.5885,120.4851,3.5269483e-08
C0S760,紅石,2025-05-18,23.069131,121.126219,9.635871e-09
C2C410,中央大學,2025-05-18,24.967652,121.185165,2.6160807e-08
C1M610,石磐龍,2025-05-18,23.496606,120.663506,1.9218735e-09
C0UA10,鴛鴦湖,2025-05-18,24.590269,121.412228,1.6346117e-08
V2C260,八德蔬果,2025-05-18,24.978508,121.281819,1.19313e-08
C0R800,丹路,2025-05-18,22.204481,120.750989,0.29087052
C0G920,永靖,2025-05-18,23.924703,120.547533,1.4678179e-09
C2M950,太和,2025-05-18,23.538372,120.702961,2.4133942e-09
C1A630,下盆,2025-05-18,24.771003,121.538622,3.460821e-09
B2N890,畜產試驗所,2025-05-18,23.058972,120.336406,2.8700462e-09
C0UA30,白嶺,2025-05-18,24.527819,121.519031,6.3415264e-09
C1V580,溪南(特生中心),2025-05-18,23.084972,120.788475,3.060514e-09
C1T970,大農,2025-05-18,23.615233,121.413331,3.3135312e-09
C0R650,竹田,2025-05-18,22.58486,120.54344,2.1471465e-06
C1H900,清流,2025-05-18,24.080775,120.962997,2.376132e-09
C1C510,水尾,2025-05-18,24.940081,121.087161,2.5099409e-08
C0F9X0,大雅(中科園區),2025-05-18,24.21528,120.62445,1.6672512e-09
C0SB60,白守蓮,2025-05-18,23.126769,121.401914,0.9581842
C0O970,虎頭埤,2025-05-18,23.021375,120.347878,1.2258097e-08
C0C730,中大臨海站,2025-05-18,24.966126,121.008581,2.1448714e-07
C0X250,新營,2025-05-18,23.310689,120.316681,2.8043532e-09
C0V700,三民,2025-05-18,22.645017,120.311233,1.9366155e-08
C0U870,大礁溪,2025-05-18,24.791042,121.675047,3.7066212e-09
C0E870,高鐵苗栗,2025-05-18,24.60725,120.826094,7.4478415e-09
A2K570,古坑花卉中心,2025-05-18,23.63353,120.55239,9.748916e-09
C0TA30,鹽寮,2025-05-18,23.845606,121.592664,2.4256199e-08
C0M860,新美,2025-05-18,23.338017,120.683169,3.7513943e-09
C1E701,八卦,2025-05-18,24.491756,120.927619,2.791178e-09
C0I420,國姓,2025-05-18,24.037803,120.855072,2.4292905e-09
C2D720,關西工作站,2025-05-18,24.757275,121.184792,6.64547e-09
C0S960,香蘭,2025-05-18,22.587569,120.993375,0.05430132
467620,蘭嶼,2025-05-18,22.0369,121.55843,0.8560927
C0R260,春日,2025-05-18,22.370361,120.628306,0.0011272986
72G600,臺中農改場,2025-05-18,24.003028,120.534389,2.4956712e-09
C0Z210,瑞穗,2025-05-18,23.5239,121.39021,1.0538317e-08
C0M820,達邦,2025-05-18,23.453994,120.749517,2.8490479e-09
C0V860,南寮,2025-05-18,22.7616,120.2339,3.8884366e-08
C0G740,大城,2025-05-18,23.852487,120.320935,0.12798451
C0R920,塭仔,2025-05-18,22.4169,120.5197,0.004193416
C0R470,高樹,2025-05-18,22.826389,120.600806,7.642356e-09
C0R680,佳樂水,2025-05-18,21.993578,120.861633,0.4260085
C1O870,大棟山,2025-05-18,23.31157,120.52226,4.5428425e-09
C0D360,梅花,2025-05-18,24.678347,121.208558,1.8247996e-09
C0Z190,富世,2025-05-18,24.14743,121.6297,5.4713585e-09
C0AI10,屈尺,2025-05-18,24.92184,121.54475,6.970655e-08
B2U990,畜試東區分所,2025-05-18,24.669039,121.832561,1.8660082e-09
C0SB80,長濱漁港,2025-05-18,23.313644,121.459994,1.21608705e-08
C0R240,來義,2025-05-18,22.527306,120.625111,9.2380316e-07
C0V910,大樹,2025-05-18,22.684645,120.432803,1.2460827e-08
C1R610,西大武山,2025-05-18,22.617719,120.7322,6.51076e-09
C0G900,線西,2025-05-18,24.143358,120.443536,1.0360064e-06
C0M700,竹崎,2025-05-18,23.526178,120.555508,2.958814e-09
C2E880,三義,2025-05-18,24.405478,120.749819,2.923495e-09
C0C720,竹圍,2025-05-18,25.112692,121.239824,0.00010918149
C0F9P0,清水,2025-05-18,24.312297,120.562242,2.4672963e-07
C0Z150,吉安光華,2025-05-18,23.930925,121.595153,3.742841e-08
467300,東吉島,2025-05-18,23.25727,119.66762,0.0010784453
C1D640,外坪(五指山),2025-05-18,24.644447,121.090961,4.4717723e-09
C0F9O0,潭子,2025-05-18,24.213106,120.703933,4.018798e-09
C2H9R0,卓社,2025-05-18,23.887894,121.000086,1.8996424e-09
72T250,花蓮農改場,2025-05-18,23.975222,121.563889,3.0577476e-07
C0E780,銅鑼,2025-05-18,24.489681,120.790853,1.5256546e-09
C1T950,太安,2025-05-18,23.666719,121.370128,6.5557195e-09
C0E830,苑裡,2025-05-18,24.439714,120.653053,7.5321026e-08
467270,田中,2025-05-18,23.873803,120.581286,4.133505e-09
C0SA10,檳榔四格山,2025-05-18,22.810031,121.109308,5.7649467e-09
C1T830,布洛灣,2025-05-18,24.17184,121.57127,5.3986207e-07
C0F970,大坑,2025-05-18,24.173142,120.722289,2.5731346e-09
C1U920,思源,2025-05-18,24.393125,121.347214,3.451447e-09
C0A931,三和,2025-05-18,25.233153,121.595236,1.6435717e-08
C0I010,廬山,2025-05-18,24.033311,121.181808,2.6436273e-09
C2M940,日野賀,2025-05-18,23.434056,120.727169,3.16977e-09
C0R860,鼻頭,2025-05-18,22.1043,120.8979,0.9905985
C0UB20,壯圍,2025-05-18,24.7359,121.8163,2.3346356e-09
C0R790,九棚,2025-05-18,22.14195,120.889281,0.91424274
C0W110,東莒,2025-05-18,25.9652,119.98069,3.2635546e-06
C1U930,粉鳥林,2025-05-18,24.497088,121.842479,4.1521773e-09
C1I211,蘆竹湳,2025-05-18,23.934019,120.811994,2.4058109e-09
C0S830,長濱,2025-05-18,23.286817,121.411975,2.5296496e-09
C1F9F1,伯公龍,2025-05-18,24.272392,120.849047,2.7436626e-09
C0E810,西湖,2025-05-18,24.562947,120.7485,7.434518e-08
C1I440,新高口,2025-05-18,23.478744,120.878939,4.478174e-09
C0O840,王爺宮,2025-05-18,23.222064,120.40085,3.5937937e-09
C0T9G0,鳳林山,2025-05-18,23.735269,121.420131,2.5500249e-09
C0X080,佳里,2025-05-18,23.173039,120.145086,5.779083e-09
C0FB70,大甲溪埔,2025-05-18,24.370625,120.620067,7.626196e-08
C0Z310,清水斷崖,2025-05-18,24.218294,121.689142,2.0328477e-09
C0M680,太保,2025-05-18,23.455062,120.331455,1.7974822e-09
C1S820,金峰,2025-05-18,22.590969,120.933236,2.85691e-06
C0AD10,八里,2025-05-18,25.150211,121.403947,0.000109293054
C2K240,草嶺,2025-05-18,23.59555,120.693461,1.163028e-09
C1SA70,都蘭,2025-05-18,22.87794,121.226881,9.486761e-07
C0K440,二崙,2025-05-18,23.772797,120.408944,1.4827765e-09
C1A760,坪林交控,2025-05-18,24.94284,121.713442,1.0982387e-08
C0F9N0,大里,2025-05-18,24.092464,120.701378,2.5191003e-09
C0SA90,達仁林場,2025-05-18,22.264347,120.823972,9.444812e-05
C1R290,石門山,2025-05-18,22.112611,120.756597,0.6704759
42HA10,萬大發電廠,2025-05-18,23.978875,121.139639,1.7578876e-09
C0R890,山海,2025-05-18,21.9878,120.7091,0.21973051
C0T9A0,月眉山,2025-05-18,23.809928,121.539828,2.0259152e-09
C0AC70,信義,2025-05-18,25.037822,121.564597,2.7462252e-07
C0K560,棋山,2025-05-18,23.68645,120.603417,8.871479e-09
C2FB50,出雲,2025-05-18,24.206469,120.902794,2.8985043e-09
C1Z240,中平林道,2025-05-18,23.42115,121.26763,9.043107e-09
U2H480,溪頭,2025-05-18,23.670306,120.798194,2.5101743e-09
C0M880,好美里,2025-05-18,23.3364,120.138,3.0091427e-09
C0T9E0,大坑,2025-05-18,23.880628,121.581981,2.8474725e-09
C0K530,臺西,2025-05-18,23.701547,120.197559,2.5799816e-08
C1E900,國一N128K,2025-05-18,24.560997,120.844186,1.9794266e-09
C0AJ50,水湳洞,2025-05-18,25.123695,121.862238,6.2428796e-08
C0AI20,白沙灣,2025-05-18,25.283128,121.519058,1.903293e-05
C2V310,美濃,2025-05-18,22.898792,120.51907,6.408585e-09
C0A860,大坪,2025-05-18,25.165914,121.632969,2.8934724e-09
C1U850,觀音海岸,2025-05-18,24.38319,121.77856,1.0023118e-09
C2K610,草嶺石壁,2025-05-18,23.602469,120.707731,1.1868084e-09
C0U950,鶯子嶺,2025-05-18,24.89754,121.79244,8.084078e-09
C0O900,善化,2025-05-18,23.112883,120.297219,3.1193121e-09
C0K550,蔦松,2025-05-18,23.514319,120.229736,4.0327115e-09
E2P980,林試六龜中心,2025-05-18,22.991703,120.645722,3.397516e-09
C0E590,通霄,2025-05-18,24.471892,120.704622,2.1321265e-08
C1I310,西巒,2025-05-18,23.754486,120.883956,2.2159141e-09
C0A550,泰平,2025-05-18,24.971197,121.823711,8.653518e-09
C0I360,水里,2025-05-18,23.812553,120.849792,1.9103321e-09
C0R830,高士,2025-05-18,22.121825,120.836781,0.38850158
C1I101,溪頭,2025-05-18,23.661789,120.807647,3.5677585e-09
C0AJ20,野柳,2025-05-18,25.20703,121.690021,1.4723955e-07
C0B060,暖暖,2025-05-18,25.0957,121.7403,9.587256e-08
C1H920,長豐,2025-05-18,24.102039,120.879897,3.375445e-09
C0V360,內門,2025-05-18,22.975481,120.466769,4.28051e-09
C0R850,林邊,2025-05-18,22.4634,120.5339,1.2396604e-05
C0E930,龍鳳,2025-05-18,24.700034,120.859125,1.3314015e-07
C0U910,冬山,2025-05-18,24.63373,121.7937,1.8660082e-09
C1E721,泰安,2025-05-18,24.489017,120.968036,2.5329423e-09
82H320,茶改中部分場,2025-05-18,23.875611,120.913583,2.1062128e-09
C0M750,布袋,2025-05-18,23.380878,120.167789,2.6631422e-09
C1S860,利嘉,2025-05-18,22.809417,121.050528,6.9248935e-09
E2S980,林試太麻里1,2025-05-18,22.598922,120.980044,0.0003919254
C0X170,關廟,2025-05-18,22.963017,120.327797,6.923969e-09
C0V720,林園,2025-05-18,22.507747,120.394511,1.2040095e-08
C1I510,線浸林道,2025-05-18,23.761508,120.832956,2.822114e-09
C0D690,外湖,2025-05-18,24.917735,120.968711,4.9499448e-08
C0C750,新興坑尾,2025-05-18,25.0061,121.0971,1.1695948e-07
B2Q810,畜試南區分所,2025-05-18,21.945583,120.802167,0.4129514
C0S790,金崙,2025-05-18,22.538122,120.966875,1.92208e-06
C0AH90,福山植物園,2025-05-18,24.760717,121.58135,6.054625e-09
C0I540,奇萊稜線,2025-05-18,24.109231,121.326456,1.3420967e-08
C0M850,表湖,2025-05-18,23.24186,120.64166,2.9095546e-09
C0S770,大溪山,2025-05-18,22.478475,120.943325,8.23793e-08
C0AG80,中和,2025-05-18,24.991622,121.491792,2.458472e-07
C0T790,大禹嶺,2025-05-18,24.186117,121.316086,7.710763e-09
C0T9B0,水源,2025-05-18,23.991861,121.537169,2.0634943e-09
C0R840,牡丹池山,2025-05-18,22.168389,120.841225,0.030936237
C1I131,桶頭,2025-05-18,23.641944,120.654117,3.3939667e-09
CAL110,布袋國中,2025-05-18,23.35893,120.18026,2.4747955e-09
467571,新竹,2025-05-18,24.827853,121.014219,2.283005e-08
C0Z290,赤柯山,2025-05-18,23.36893,121.38293,1.2303304e-08
C0X280,將軍,2025-05-18,23.214999,120.13577,3.192024e-09
C0S690,太麻里,2025-05-18,22.60902,120.98533,1.2781022e-08
C0U880,北關,2025-05-18,24.9072,121.8734,3.1955224e-08
C0G810,埔心,2025-05-18,23.947633,120.525456,1.4676863e-09
C0U970,大福,2025-05-18,24.80064,121.81389,4.1518686e-09
C2H9N0,仁愛東眼,2025-05-18,24.026875,121.1205,2.3735094e-09
C1E670,南礦,2025-05-18,24.538278,121.002836,2.3577937e-09
C0M520,東後寮,2025-05-18,23.369908,120.248065,2.2388937e-09
C1E461,松安,2025-05-18,24.397972,120.986022,3.6291097e-09
C2N160,西拉雅風管處,2025-05-18,23.189481,120.335297,3.1113203e-09
C2M970,碧湖,2025-05-18,23.568632,120.624165,1.0917617e-09
C0A640,石碇,2025-05-18,24.993969,121.662917,5.5617008e-08
E2S960,林試太麻里2,2025-05-18,22.598,120.99775,0.094299555
C0F9Y0,桃山,2025-05-18,24.432739,121.303808,1.9119188e-08
C1I020,萬大,2025-05-18,23.979817,121.132261,1.4177819e-09
C0U940,羅東,2025-05-18,24.68184,121.74934,2.1887825e-09
C0M650,朴子,2025-05-18,23.43463,120.23902,1.9985924e-09
C1I500,大尖山,2025-05-18,23.858572,120.994889,4.708211e-09
C0G820,田尾,2025-05-18,23.901669,120.509389,1.4677675e-09
E2K600,四湖植物園,2025-05-18,23.676986,120.163433,1.4946178e-08
C0S730,綠島,2025-05-18,22.6672,121.47533,0.001675794
12Q970,東港工作站,2025-05-18,22.479997,120.466058,1.4068418e-05
C0E430,南庄,2025-05-18,24.601775,121.000214,3.4383911e-09
C1TA00,太魯閣,2025-05-18,24.15773,121.6236,3.9139647e-09
466920,臺北,2025-05-18,25.037658,121.514853,2.7549157e-07
C0R600,舊泰武,2025-05-18,22.588194,120.664944,1.5862361e-09
C1I260,北坑,2025-05-18,23.9246,121.006903,2.3341948e-09
466910,鞍部,2025-05-18,25.182586,121.529731,2.5959637e-09
C1I230,九份二山,2025-05-18,23.961944,120.845,1.3117067e-09
C2A660,瑞芳,2025-05-18,25.113169,121.801147,2.7366815e-08
C0R270,琉球嶼,2025-05-18,22.332244,120.362236,1.6775174e-06
C1T990,高寮,2025-05-18,23.394239,121.356808,5.9714305e-09
C0G620,芬園,2025-05-18,24.015678,120.6213,2.33924e-09
C1Z140,荖溪,2025-05-18,23.890575,121.45964,1.2797902e-08
C1I201,中心崙,2025-05-18,23.728722,120.712097,1.7191718e-09
C1I400,凌霄,2025-05-18,24.018778,121.004456,2.3056457e-09
C1M640,十字,2025-05-18,23.492153,120.753683,3.5949386e-09
G2P820,農試鳳山分所,2025-05-18,22.646611,120.356083,1.591073e-08
C0Z270,蕃薯寮,2025-05-18,23.73835,121.540108,2.3954352e-09
C0F9Q0,外埔,2025-05-18,24.347817,120.705686,1.7964025e-09
C0K580,高鐵雲林,2025-05-18,23.737456,120.417944,1.4482374e-09
C2I090,鳳凰,2025-05-18,23.728081,120.787347,2.3108144e-09
C0U990,員山,2025-05-18,24.74435,121.72247,2.2773023e-09
C0V770,大社,2025-05-18,22.730306,120.346639,3.0358763e-08
C0X120,麻豆,2025-05-18,23.183289,120.248611,2.0955457e-09
C0C670,龍潭,2025-05-18,24.870056,121.221389,5.961325e-09
C0D680,香山濕地,2025-05-18,24.783581,120.914988,1.5186295e-08
C0S980,勝林山,2025-05-18,22.430439,120.8938,1.835286e-08
C0V730,大寮,2025-05-18,22.605614,120.395717,1.911328e-08
C0R570,麟洛,2025-05-18,22.65078,120.52719,5.5600143e-08
C2M930,石卓,2025-05-18,23.478744,120.702264,6.6199277e-09
C0G9B0,和美,2025-05-18,24.105169,120.492131,7.096665e-08
CAG100,王功漁港,2025-05-18,23.96824,120.32586,0.006697119
C0X290,北門,2025-05-18,23.267772,120.125481,3.192365e-09
C2F930,大甲,2025-05-18,24.347667,120.640403,2.1063904e-08
C0D650,湖口,2025-05-18,24.904794,121.043628,2.6682788e-08
C0E420,竹南,2025-05-18,24.708978,120.888897,8.124518e-08
C0U780,五結,2025-05-18,24.68637,121.79794,2.332953e-09
C1I250,鯉潭,2025-05-18,23.961922,120.991131,1.8121813e-09
C0R130,阿禮,2025-05-18,22.742908,120.743678,1.3631477e-09
C0X100,臺南市北區,2025-05-18,23.010394,120.194228,5.5867897e-09
C0S920,金峰嘉蘭,2025-05-18,22.594789,120.960825,0.00025165206
C0V490,新興,2025-05-18,22.627422,120.298803,2.4765908e-08
C0F9K0,大安,2025-05-18,24.345061,120.588025,9.766265e-08
467290,古坑,2025-05-18,23.633639,120.551889,9.748916e-09
C2E970,八甲,2025-05-18,24.535811,120.795983,1.3841257e-09
C0V440,鳳山,2025-05-18,22.646653,120.356122,1.591073e-08
C1T940,大觀,2025-05-18,23.714206,121.373133,2.0285407e-09
C0E740,造橋,2025-05-18,24.637056,120.864778,7.1052484e-09
C0R100,尾寮山,2025-05-18,22.833111,120.683889,1.9877047e-09
A2K630,臺大雲林校區,2025-05-18,23.730628,120.423903,1.4482374e-09
467990,馬祖,2025-05-18,26.169467,119.923158,1.8525864e-08
C0D580,寶山,2025-05-18,24.735006,121.025192,6.1181713e-09
E2P990,林試扇平站,2025-05-18,22.9677,120.6857,1.0019128e-08
C0AI30,三重,2025-05-18,25.057328,121.500629,3.1022768e-07
C0AH00,汐止,2025-05-18,25.066881,121.658778,2.7549078e-07
C1Z040,立山,2025-05-18,23.443356,121.327375,1.077858e-08
466881,新北,2025-05-18,24.959207,121.525196,1.8842748e-07
C0W130,花嶼,2025-05-18,23.40007,119.32276,0.8458168
C0A950,鼻頭角,2025-05-18,25.129036,121.923372,0.9832617
C0K470,林內,2025-05-18,23.748675,120.609642,5.5059055e-09
C2F990,摩天嶺,2025-05-18,24.322458,120.936819,3.4209056e-09
82C160,茶改場,2025-05-18,24.908472,121.185333,9.451209e-09
C0Z320,清水林道,2025-05-18,23.27125,121.188272,1.5466101e-08
C0R760,南仁湖,2025-05-18,22.084681,120.863353,0.6713961
C0M670,大林,2025-05-18,23.600616,120.45841,2.5097961e-09
C0M800,茶山,2025-05-18,23.299075,120.664767,4.4690354e-09
C0A9C0,天母,2025-05-18,25.117494,121.537169,2.705201e-06
72K220,南改斗南分場,2025-05-18,23.634556,120.477333,3.229355e-09
72AI40,桃改樹林分場,2025-05-18,24.944503,121.386972,1.6616298e-08
C0S910,蘭嶼燈塔,2025-05-18,22.081197,121.503117,0.080154814
C0B050,八斗子,2025-05-18,25.144754,121.79167,7.9809276e-08
C0U900,內城,2025-05-18,24.71813,121.68766,1.954195e-09
C0X320,柳營,2025-05-18,23.253328,120.375253,7.4443336e-09
C0M790,新港,2025-05-18,23.553269,120.345728,1.3911738e-09
C0F9T0,西屯,2025-05-18,24.179494,120.641275,2.9538745e-09
C0SA30,都歷,2025-05-18,23.020333,121.323642,2.893061e-07
C0C620,蘆竹,2025-05-18,25.084275,121.265767,3.4889777e-05
C0R730,大坪頂,2025-05-18,22.024633,120.69355,0.9946012
C0AJ40,石門,2025-05-18,25.273672,121.601198,1.8901704e-06
C0E750,苗栗,2025-05-18,24.564569,120.824575,2.010391e-09
C0T870,鯉魚潭,2025-05-18,23.935639,121.508944,8.974444e-09
C1V170,排雲,2025-05-18,23.463619,120.954147,1.2732262e-08
C2H950,中寮,2025-05-18,23.884447,120.766406,5.646858e-09
C0R350,貓鼻頭,2025-05-18,21.921774,120.7358,0.023386056
C0V660,岡山,2025-05-18,22.797078,120.294958,1.0443432e-08
C1H941,雙冬,2025-05-18,23.967378,120.802189,2.314683e-09
C0AJ70,田寮,2025-05-18,25.2698,121.4886,2.0122745e-05
C0AI00,五股,2025-05-18,25.07445,121.42728,8.0932764e-08
C0Z280,德武,2025-05-18,23.47426,121.41071,2.6927567e-09
C0R700,枋山,2025-05-18,22.246844,120.661086,0.002655492
C0C460,復興,2025-05-18,24.820208,121.352281,2.4985194e-09
E2H360,蓮華池,2025-05-18,23.918333,120.885278,2.3176385e-09
C0M640,中埔,2025-05-18,23.42538,120.5229,1.9185773e-09
C0W140,金沙,2025-05-18,24.488292,118.408778,2.078545e-05
C2A540,四堵,2025-05-18,24.8926,121.745736,3.7629104e-09
C0ACA0,新莊,2025-05-18,25.051478,121.446756,7.053226e-07
C0R220,潮州,2025-05-18,22.534361,120.54,3.3363972e-06
U2HA40,臺大內茅埔,2025-05-18,23.689722,120.851117,5.627279e-09
467490,臺中,2025-05-18,24.145736,120.684075,2.897327e-09
C0U960,翠峰湖,2025-05-18,24.510856,121.608044,9.2905825e-09
E2HA20,林試畢祿溪站,2025-05-18,24.226944,121.308522,8.098955e-09
C0V890,前鎮,2025-05-18,22.5718,120.3117,2.7445381e-08
C1F941,雪嶺,2025-05-18,24.280586,121.026642,1.4180369e-08
C2H9E0,國姓南港,2025-05-18,23.911108,120.846556,1.6688452e-09
C0AC80,文山,2025-05-18,25.00235,121.575728,1.3960089e-07
C0F9R0,龍井,2025-05-18,24.184536,120.528972,9.581395e-07
C0M760,民雄,2025-05-18,23.551754,120.428457,2.5993279e-09
C0UA40,西德山,2025-05-18,24.560647,121.752608,6.1674035e-09
C1T920,中興,2025-05-18,23.769503,121.498653,7.6860065e-09
C0D550,雪霸,2025-05-18,24.526972,121.11605,6.036959e-09
C2F860,梨山,2025-05-18,24.247522,121.243669,8.359551e-09
C0R320,車城,2025-05-18,22.0744,120.716247,0.7716691
C1S870,南美山,2025-05-18,23.15025,121.382333,3.3383305e-08
C0B020,基隆嶼,2025-05-18,25.19141,121.78391,0.96864355
C1U501,牛鬥,2025-05-18,24.637836,121.573656,3.1249219e-09
C0M730,嘉義市東區,2025-05-18,23.457673,120.460531,3.0361411e-09
C0S700,知本,2025-05-18,22.684866,121.005642,1.1099516e-08
C1N001,沙崙,2025-05-18,22.935472,120.309406,7.664209e-09
C0V760,橋頭,2025-05-18,22.757806,120.30575,3.2147856e-08
C0G960,福寶,2025-05-18,24.0443,120.3814,9.3960665e-08
C0X210,白河,2025-05-18,23.347466,120.414427,5.0745035e-09
C0S810,東河,2025-05-18,22.972672,121.303986,8.568615e-05
C2R170,屏東,2025-05-18,22.66027,120.49403,5.5586252e-08
C0R670,楓港,2025-05-18,22.190131,120.692156,0.41387644
C0FA50,霧峰,2025-05-18,24.0419,120.6995,3.5487284e-09
C0UB10,蘇澳,2025-05-18,24.5969,121.8571,6.4228782e-09
C0G950,防潮門,2025-05-18,24.1835,120.4871,9.56e-07
C0M740,六腳,2025-05-18,23.492871,120.290625,1.3540393e-09
C1R250,力里,2025-05-18,22.428117,120.629228,2.8288494e-05
C0K330,虎尾,2025-05-18,23.719183,120.442036,1.3821629e-09
C2FA00,烏石坑,2025-05-18,24.273503,120.947617,3.42677e-09
C0V620,永安,2025-05-18,22.82315,120.236856,1.04430935e-08
C1I330,楓樹林,2025-05-18,23.986803,121.076117,1.662691e-09
C0W200,湖西,2025-05-18,23.596314,119.67275,0.8850744
72Q010,高雄農改場,2025-05-18,22.709333,120.525889,1.497997e-08
C0SA40,瑞和,2025-05-18,22.974361,121.156697,3.3743785e-08
C0C680,龜山,2025-05-18,25.02846,121.38656,1.3061032e-07
C2V260,月眉,2025-05-18,22.971003,120.539853,1.064811e-08
C0V450,鳳森,2025-05-18,22.545064,120.392592,6.039988e-09
C0U720,南山,2025-05-18,24.43742,121.38167,5.110559e-09
A2N290,臺南蘭花園區,2025-05-18,23.340258,120.379661,2.2626208e-09
C0R560,新園,2025-05-18,22.5434,120.461558,1.2040095e-08
C0U890,三星,2025-05-18,24.66812,121.65302,4.642632e-09
C1V300,御油山,2025-05-18,23.001983,120.715364,2.8990628e-09
C0U600,礁溪,2025-05-18,24.817539,121.765608,1.1324826e-08
C1T980,龍澗,2025-05-18,24.023289,121.411328,1.566573e-08
C0D670,海天一線,2025-05-18,24.831986,120.914438,2.224055e-06
C0SA00,歷坵,2025-05-18,22.520969,120.89185,1.9798883e-08
C0M710,東石,2025-05-18,23.458927,120.15385,3.9318195e-08
C0M780,鹿草,2025-05-18,23.41134,120.30835,1.909436e-09
C0U520,雙連埤,2025-05-18,24.753033,121.641303,3.680843e-09
C0B010,七堵,2025-05-18,25.094819,121.71713,1.8318629e-07
C0R480,長治,2025-05-18,22.693128,120.542622,1.0113572e-08
C1V830,國三S383K,2025-05-18,22.781967,120.426475,1.6997403e-08
12Q980,恆春工作站,2025-05-18,22.079678,120.714425,0.7718383
C1O940,東山服務區,2025-05-18,23.286016,120.398472,5.361165e-09
C1U840,東澳嶺,2025-05-18,24.5378,121.8485,2.6417422e-09
C1D630,飛鳳山,2025-05-18,24.766464,121.119178,3.213104e-09
C0S940,石寧山,2025-05-18,23.223772,121.406639,1.1329861e-08
C0K410,北港,2025-05-18,23.573957,120.292802,2.0391193e-09
C2M620,瑞里,2025-05-18,23.545133,120.675197,2.1756796e-09
C0SB70,小港漁港,2025-05-18,23.158558,121.400431,0.0044423444
C2O950,安南,2025-05-18,23.076694,120.144861,1.7266554e-08
C0F0E0,南湖圈谷,2025-05-18,24.363714,121.444667,1.9118822e-08
467610,成功,2025-05-18,23.097486,121.373428,0.8783055
C0G890,伸港,2025-05-18,24.148933,120.484403,1.0364818e-06
C2E540,龍溪,2025-05-18,24.606489,120.783933,7.974944e-09
C1V200,梅山,2025-05-18,23.268447,120.823556,3.3858134e-09
C0T9H0,加路蘭山,2025-05-18,23.682947,121.5274,3.573302e-09
C2O930,玉井,2025-05-18,23.126042,120.46055,1.4434094e-08
C1F911,新伯公,2025-05-18,24.221361,120.841069,3.949134e-09
C0R490,九如,2025-05-18,22.7405,120.490503,1.687301e-08
C0X200,左鎮,2025-05-18,23.056758,120.408522,1.5995441e-08
C0SB50,叭嗡嗡,2025-05-18,23.047062,121.343223,8.3861e-06
C1F891,稍來,2025-05-18,24.265689,121.001142,1.0268743e-08
72N240,七股研究中心,2025-05-18,23.081672,120.062894,1.8775118e-08
C0C700,中壢,2025-05-18,24.977661,121.256375,1.0781951e-08
C0M690,水上,2025-05-18,23.419734,120.388909,1.7208481e-09
C0V690,鼓山,2025-05-18,22.623325,120.275575,2.4769404e-08
C0O860,大內,2025-05-18,23.11885,120.36083,2.9386287e-09
C0Z200,萬榮,2025-05-18,23.709219,121.420106,4.156591e-09
C0T9D0,和中,2025-05-18,24.26676,121.74103,2.1088507e-08
C1O921,楠西,2025-05-18,23.183511,120.484083,3.974594e-08
C0AJ30,淡水觀海,2025-05-18,25.184591,121.408616,3.863641e-05
C0V810,左營,2025-05-18,22.67491,120.28491,1.936464e-08
C0UA70,桃源谷,2025-05-18,24.962606,121.888875,1.3849159e-08
C0X130,官田,2025-05-18,23.193217,120.315422,3.2251446e-09
C1H000,翠峰,2025-05-18,24.109397,121.205211,5.5470992e-09
C0UA90,石城,2025-05-18,24.980444,121.951214,3.3682053e-08
C1E681,南勢山,2025-05-18,24.421669,120.923831,2.3829172e-09
C0A9F0,內湖,2025-05-18,25.079422,121.57545,2.7549078e-07
C0K291,宜梧,2025-05-18,23.536281,120.169329,4.0348502e-09
C1K540,口湖,2025-05-18,23.585344,120.180517,2.865136e-08
C0R780,滿州,2025-05-18,22.024403,120.839892,0.8993862
C0V870,文安,2025-05-18,22.8025,120.2164,1.0790819e-08
C0U650,玉蘭,2025-05-18,24.675286,121.587061,3.2146672e-09
C0R640,東港,2025-05-18,22.46247,120.44074,1.4068418e-05
C0AJ80,板橋,2025-05-18,25.0107,121.4489,2.9715954e-07
C0S660,下馬,2025-05-18,23.150427,121.070312,1.0316644e-08
C1H9B1,阿眉,2025-05-18,24.1263,120.994672,1.588447e-08
C0UA20,多加屯,2025-05-18,24.368614,121.373189,8.227437e-09
C0E730,頭份,2025-05-18,24.688247,120.912206,9.3525465e-08
72V140,高改旗南分場,2025-05-18,22.857861,120.516667,4.500325e-09
C0K480,莿桐,2025-05-18,23.761192,120.502372,3.1290253e-09
C0U980,坪林石牌,2025-05-18,24.86478,121.77396,5.928736e-09
C0T900,西林,2025-05-18,23.8119,121.441458,3.9729473e-09
C1I150,青雲,2025-05-18,23.793361,120.949378,2.312018e-09
467350,澎湖,2025-05-18,23.565503,119.563094,0.94857734
C0G800,埔鹽,2025-05-18,24.000394,120.431683,4.6035534e-08
C0H960,草屯,2025-05-18,23.973672,120.68085,3.2779146e-09
C1V780,多納林道,2025-05-18,22.888028,120.737917,1.3064658e-09
C0E920,通霄漁港,2025-05-18,24.498589,120.673876,5.0782916e-08
C0Z330,安通山,2025-05-18,23.290728,121.348528,1.5592687e-09
C0AH10,永和,2025-05-18,25.01125,121.508111,2.9848078e-07
C0AK10,太平里,2025-05-18,25.134937,121.364899,8.581134e-05
C2G640,鹿港,2025-05-18,24.0753,120.430481,9.396515e-08
C1E890,國三N149K,2025-05-18,24.463414,120.680019,2.8582368e-08
C1R110,口社,2025-05-18,22.770111,120.645222,3.807679e-07
C1M870,國三N285K,2025-05-18,23.550319,120.505833,7.14504e-09
C1E480,鳳美,2025-05-18,24.554803,121.034747,3.4705314e-09
C0M530,奮起湖,2025-05-18,23.493903,120.699253,2.4401199e-09
C0C590,觀音,2025-05-18,25.027072,121.153317,1.0681704e-06
C0T9M0,靜浦,2025-05-18,23.455167,121.495028,6.7771992e-09
C2H9M0,發祥,2025-05-18,24.154094,121.164517,7.946975e-09
C0AI40,石牌,2025-05-18,25.115597,121.513139,2.918786e-06
C1F871,上谷關,2025-05-18,24.203483,121.018644,2.8390827e-09
C2H9G0,百勝,2025-05-18,24.051142,120.909361,3.8211034e-09
C0G880,二水,2025-05-18,23.810742,120.6173,3.9810106e-09
C0R940,加祿堂,2025-05-18,22.3363,120.6217,0.09056339
C0W220,北竿,2025-05-18,26.220358,119.974881,4.221333e-08
C0O960,崎頂,2025-05-18,22.959547,120.369317,4.424896e-09
C0S750,向陽,2025-05-18,23.248397,120.986133,4.606186e-09
C0T9F0,水璉,2025-05-18,23.797131,121.542514,2.900158e-09
C1M600,頭凍,2025-05-18,23.406364,120.603339,3.5466985e-09
467660,臺東,2025-05-18,22.752211,121.154586,0.0008254061
C1D380,新埔,2025-05-18,24.84745,121.03834,1.43581715e-08
C2G980,田頭村,2025-05-18,23.8263,120.444175,1.4827567e-09
C0V750,路竹,2025-05-18,22.854997,120.259439,3.8933347e-08
C0N050,蚵寮,2025-05-18,23.301,120.1104,3.0091483e-09
72M700,南改鹿草分場,2025-05-18,23.416869,120.283061,1.9985467e-09
C1SA50,利嘉林道,2025-05-18,22.82325,121.009389,2.7122307e-09
C0A940,金山,2025-05-18,25.223628,121.643967,1.14676055e-07
C1V340,大津,2025-05-18,22.888322,120.645986,2.0513053e-07
C0W180,七美,2025-05-18,23.219333,119.444892,0.6496317
C1F9C1,白冷,2025-05-18,24.182844,120.929889,2.681205e-09
K2E710,苗改生物防治研究中心,2025-05-18,24.422861,120.871833,4.5352153e-09
C0N040,蘆竹溝,2025-05-18,23.2344,120.0961,3.1925356e-09
C2W230,畜試所澎湖,2025-05-18,23.628342,119.513206,0.8626419
C0R880,後壁湖,2025-05-18,21.9457,120.7457,0.18456882
C1I280,埔中,2025-05-18,23.820778,120.642594,2.022128e-09
467790,墾丁雷達站,2025-05-18,21.948235,120.808028,0.43795106
C0W190,望安,2025-05-18,23.380564,119.494075,0.8802454
C0Z170,卓溪,2025-05-18,23.3443,121.3029,2.6061786e-09
C0F850,東勢,2025-05-18,24.246428,120.833047,2.0687867e-09
466900,淡水,2025-05-18,25.164889,121.448906,8.5853164e-05
C0I370,魚池,2025-05-18,23.895703,120.94135,2.4095397e-09
C0C630,大溪,2025-05-18,24.882853,121.265547,7.487353e-09
C0A520,山佳,2025-05-18,24.974944,121.402008,4.649298e-08
C0I110,竹山,2025-05-18,23.761225,120.688156,3.1194014e-09
82H840,茶改南部分場,2025-05-18,23.762528,120.7405,1.5975767e-09
C0G660,溪湖,2025-05-18,23.94835,120.479122,1.5390611e-09
C1T800,洛韶,2025-05-18,24.204558,121.453956,1.0042105e-08
C1T810,慈恩,2025-05-18,24.192044,121.388386,2.8936378e-09
C1E451,象鼻,2025-05-18,24.368617,120.940228,1.6293067e-09
C0AC60,三峽,2025-05-18,24.939025,121.369728,1.04684e-08
C0I490,萬大林道,2025-05-18,23.928228,121.091411,3.4349563e-09
C1I290,豐丘,2025-05-18,23.668178,120.887417,2.6126987e-09
C1I320,奧萬大,2025-05-18,23.952956,121.178556,1.8440784e-09
C2M910,嘉義大學,2025-05-18,23.471325,120.485903,2.680479e-09
C0U770,南澳,2025-05-18,24.44935,121.81022,1.4730822e-09
C0A980,社子,2025-05-18,25.109508,121.469681,0.00014159377
C0V800,六龜,2025-05-18,22.997889,120.633583,3.6239356e-09
C1G9D0,國一S218K,2025-05-18,23.890641,120.493253,1.4054801e-09
C0E570,白沙屯,2025-05-18,24.549447,120.696803,1.4557259e-07
C2F9A0,中竹林,2025-05-18,24.103556,120.751061,1.8497818e-09
C0FA40,臺中電廠,2025-05-18,24.2146,120.4907,9.583478e-07
C2G9A0,畜試所彰化,2025-05-18,23.86045,120.557964,4.133395e-09
C0H9C0,合歡山,2025-05-18,24.143442,121.272547,1.4304077e-08
C0X060,下營,2025-05-18,23.22695,120.256261,2.4545623e-09
G2M350,農試溪口農場,2025-05-18,23.58565,120.408111,2.7126807e-09
C0U860,頭城,2025-05-18,24.85323,121.8308,1.2277471e-08
C0R580,南州,2025-05-18,22.48591,120.50274,1.4068418e-05
C0D430,峨眉,2025-05-18,24.6905,121.017189,4.7637463e-09
C0G780,秀水,2025-05-18,24.03405,120.503869,2.495614e-09
72N100,臺南農改場,2025-05-18,23.0605,120.342194,2.8713385e-09
C0S900,蘭嶼高中,2025-05-18,22.04909,121.51214,0.008359766
C1F9W0,德基,2025-05-18,24.254783,121.190261,8.389804e-09
C1Z120,壽豐,2025-05-18,23.870853,121.508081,1.795102e-08
C0W160,烏坵,2025-05-18,24.9944,119.44956,0.0013308604
C1I240,外大坪,2025-05-18,23.958697,120.917931,1.800045e-09
C1I550,國六W023K,2025-05-18,23.979067,120.867742,2.7109999e-09
C0R870,興海,2025-05-18,21.9752,120.8439,0.4129514
C0R140,瑪家,2025-05-18,22.682903,120.686639,2.1405153e-09
C0A530,坪林,2025-05-18,24.938183,121.70975,8.32353e-09
C0X260,後壁,2025-05-18,23.366358,120.362326,2.0537094e-09
C0Z230,和平,2025-05-18,24.30717,121.77007,2.3985452e-08
C0G770,福興,2025-05-18,24.041289,120.437669,4.6035623e-08
C0H9A0,神木村,2025-05-18,23.532742,120.843667,3.5024108e-09
C0I460,南投,2025-05-18,23.911469,120.687331,8.271494e-09
C0I480,梅峰,2025-05-18,24.085272,121.173572,4.1200376e-09
C1V570,吉東,2025-05-18,22.85422,120.5454,4.018829e-09
C2D740,屯原,2025-05-18,24.067969,121.209389,3.6447105e-09
C2A560,福山,2025-05-18,24.776203,121.502811,5.0587032e-09
C0AH30,五分山,2025-05-18,25.07125,121.780794,3.2641452e-09
C0FA10,松柏,2025-05-18,24.429115,120.617482,1.08053634e-07
72S200,東改班鳩分場,2025-05-18,22.829528,121.077694,5.4104245e-08
72HA00,中改埔里分場,2025-05-18,23.903208,120.963364,2.3056368e-09
C2H9W0,大坪頂農水,2025-05-18,24.043122,120.932781,3.3591765e-09
C0C650,平鎮,2025-05-18,24.897503,121.214636,5.350265e-09
C0S930,延平,2025-05-18,22.902581,121.084058,1.3852805e-08
C0UA60,樟樹山,2025-05-18,24.41393,121.78325,9.540063e-09
C1S670,摩天,2025-05-18,23.199503,121.027,1.129844e-08
C0V630,茄萣,2025-05-18,22.906642,120.182608,4.2164082e-08
466940,基隆,2025-05-18,25.133314,121.740475,7.3729204e-08
C0X050,東河,2025-05-18,23.296598,120.385608,5.9547793e-09
C0R770,保力,2025-05-18,22.071122,120.764111,0.9880368
G2L020,農試嘉義分所,2025-05-18,23.485028,120.473806,4.250943e-09
C0X240,關子嶺,2025-05-18,23.331169,120.508025,1.444334e-09
C0I380,集集,2025-05-18,23.828206,120.801467,1.9309638e-09
466990,花蓮,2025-05-18,23.975128,121.613275,6.767249e-07
C1V220,小關山,2025-05-18,23.154217,120.813603,3.7786756e-09
C1F9G1,慶福山,2025-05-18,24.180853,120.848378,1.8816373e-09
C0Z250,瑞穗林道,2025-05-18,23.49284,121.30688,1.1311227e-08
C0D590,新豐,2025-05-18,24.87068,120.97721,2.2711163e-07
C0A870,五指山,2025-05-18,25.132153,121.608692,2.018421e-09
C0UA50,西帽山,2025-05-18,24.555361,121.802628,3.674025e-09
C0X160,仁德,2025-05-18,22.968258,120.257689,6.5789685e-09
C1H971,六分寮,2025-05-18,23.92507,120.6378,1.8923736e-09
C0W120,西嶼,2025-05-18,23.5626,119.468436,0.9415611
C0G650,員林,2025-05-18,23.946503,120.585597,2.391742e-09
C0AD50,鶯歌,2025-05-18,24.951533,121.346294,9.071058e-09
C2H9Q0,北東眼山,2025-05-18,24.120939,121.189303,6.192605e-09
C2H9T0,名間竹圍,2025-05-18,23.859914,120.637572,1.4344751e-09
C0S990,山豬窟,2025-05-18,22.318619,120.857372,2.4083036e-05
C0X190,安平,2025-05-18,22.993161,120.152181,5.5867257e-09
C0K400,斗六,2025-05-18,23.720583,120.541127,2.7775824e-09
12J990,口湖工作站,2025-05-18,23.589978,120.180394,2.8647372e-08
C0O830,北寮,2025-05-18,23.079561,120.495008,1.1475489e-08
C1D410,白蘭,2025-05-18,24.579364,121.079947,2.535896e-09
C0S970,加津林,2025-05-18,22.416211,120.926942,0.861861
C0D700,關西,2025-05-18,24.7977,121.1732,7.0001236e-09
C0M810,里佳,2025-05-18,23.389125,120.716647,4.208324e-09
C0U750,龜山島,2025-05-18,24.841667,121.953133,9.261323e-08
C0R810,內獅,2025-05-18,22.305064,120.642986,0.09455542
C1M390,龍美,2025-05-18,23.406728,120.654417,3.6658774e-09
C2FB60,頭櫃山,2025-05-18,24.129842,120.858925,3.9560697e-09
C1H840,國三N238K,2025-05-18,23.841008,120.707711,1.5350857e-09
CAQ030,崎峰國小,2025-05-18,22.42565,120.49521,1.4068418e-05
C2E520,大湖,2025-05-18,24.414939,120.870872,3.9193657e-09
467530,阿里山,2025-05-18,23.508208,120.813242,5.57289e-09
C1E691,南湖,2025-05-18,24.40135,120.837533,2.2170472e-09
C0FA30,梧棲,2025-05-18,24.256003,120.523381,2.4672963e-07
C1V231,高中,2025-05-18,23.134911,120.716711,1.7257984e-09
C0AK30,硬漢嶺,2025-05-18,25.136097,121.426372,2.1032018e-09
C0F9V0,新社,2025-05-18,24.200172,120.815806,3.0423322e-09
C0H890,埔里,2025-05-18,23.972169,120.952425,3.1783245e-09
C0R690,墾丁,2025-05-18,21.966756,120.810269,0.827736
C0F0D0,審馬陣,2025-05-18,24.381675,121.4203,1.4589705e-08
C2W030,金門農試所,2025-05-18,24.448431,118.451786,8.701541e-07
C0R820,白鷺,2025-05-18,22.454275,120.666219,3.862438e-09
C1V190,南天池,2025-05-18,23.27403,120.91176,4.685957e-09
K2E360,苗栗農改場,2025-05-18,24.495722,120.829111,1.7035139e-09
CAJ050,海口故事園區,2025-05-18,23.57543,120.14121,2.865005e-08
C2H9D0,三隻寮,2025-05-18,24.093078,120.861578,3.3454803e-09
C0O990,媽廟,2025-05-18,22.99175,120.293525,5.8581224e-09
C0D480,打鐵坑,2025-05-18,24.849664,121.150789,5.8296323e-09
C0Z220,和平林道,2025-05-18,24.343922,121.656317,1.0408984e-09
C0TA10,花蓮漁港,2025-05-18,23.995322,121.638331,1.104621e-06
72C440,桃園農改場,2025-05-18,24.950944,121.030583,3.384466e-08
C1E711,馬拉邦山,2025-05-18,24.367306,120.901656,1.3632101e-09
C0SB20,富岡,2025-05-18,22.792467,121.192669,1.3009002e-05
C0D560,竹東,2025-05-18,24.767147,121.057881,7.5435445e-09
C0F9U0,南屯,2025-05-18,24.137006,120.637969,2.3753164e-09
C0M720,番路,2025-05-18,23.464657,120.554156,1.3533912e-09
C0F0A0,雪山圈谷,2025-05-18,24.388594,121.236339,2.0639794e-08
C1A9N0,四十份,2025-05-18,24.934158,121.593283,7.977302e-09
C0U760,東澳,2025-05-18,24.52196,121.83318,3.6676118e-09
C0X230,鹽水,2025-05-18,23.272621,120.247641,2.8803013e-09
C2H9H0,苗改南投蜂場,2025-05-18,23.852589,120.693481,4.3568593e-09
C0R950,萬隆國小,2025-05-18,22.507667,120.587817,1.7211713e-06
467540,大武,2025-05-18,22.35572,120.90374,0.89615333
C0V370,古亭坑,2025-05-18,22.893178,120.401947,4.3789136e-08
C1I340,新興橋,2025-05-18,23.563333,120.868728,1.5527928e-09
C0SA80,土坂,2025-05-18,22.453108,120.887572,0.00056623796
C0R160,鹽埔,2025-05-18,22.739558,120.530778,1.4903051e-08
C0AC40,大屯山,2025-05-18,25.175675,121.522408,3.0871548e-09
466850,五分山雷達站,2025-05-18,25.071182,121.781205,3.2602065e-09
C2H9L0,馬烈霸,2025-05-18,24.1512,121.201772,5.984931e-09
C1AI50,國三N016K,2025-05-18,25.034164,121.619664,1.667827e-07
C1V600,藤枝,2025-05-18,23.071961,120.757042,3.4622007e-09
C1E601,南勢,2025-05-18,24.572486,120.734842,2.2841942e-08
C0O980,新市,2025-05-18,23.061614,120.298197,3.12005e-09
C0K420,西螺,2025-05-18,23.800407,120.467394,1.427085e-09
C0Z050,佳心,2025-05-18,23.34567,121.21316,1.3153827e-08
C0AD30,蘆洲,2025-05-18,25.086594,121.472331,3.1026553e-07
C0V610,梓官,2025-05-18,22.760558,120.267211,3.2148286e-08
K2F750,種苗改良場,2025-05-18,24.225972,120.800917,3.4197836e-09
C0UA80,大溪漁港,2025-05-18,24.941801,121.902955,3.691236e-08
C1AI60,國一39K邊坡,2025-05-18,25.064361,121.383836,1.7980065e-07
C0W150,金寧,2025-05-18,24.457703,118.328989,7.7631364e-07
C0R960,內埔,2025-05-18,22.608483,120.570714,1.9258193e-06
V2C250,八德合作社,2025-05-18,24.93775,121.266389,6.283625e-09
C2H9S0,龍南,2025-05-18,23.953536,120.833183,2.047229e-09
C0AH40,平等,2025-05-18,25.129142,121.577086,2.594434e-09
C0R540,佳冬,2025-05-18,22.419456,120.552375,0.0038695363
466950,彭佳嶼,2025-05-18,25.627975,122.079744,0.9997283
C0A890,雙溪,2025-05-18,25.036003,121.864242,1.580982e-07
C0C480,桃園,2025-05-18,24.992425,121.323172,1.2710958e-08
C0AH50,林口,2025-05-18,25.072181,121.38084,1.0474616e-07
A2K360,水試臺西試驗場,2025-05-18,23.717231,120.190522,2.8659887e-08
C2M960,外寮,2025-05-18,23.562643,120.665688,1.1181255e-09
C0F9S0,烏日,2025-05-18,24.107058,120.624103,3.005053e-09
C0C490,八德,2025-05-18,24.928708,121.283289,6.2511223e-09
C0R190,赤山,2025-05-18,22.592333,120.614306,1.5502685e-06
C0T820,天祥,2025-05-18,24.179597,121.495639,4.886261e-08
C1F9E1,龍安,2025-05-18,24.1605,120.831961,2.4507638e-09
C0V820,小林,2025-05-18,23.148408,120.63325,1.3079543e-09
C2G870,芳苑,2025-05-18,23.922303,120.320025,0.005212191
C0E850,大河,2025-05-18,24.618069,120.948578,5.0924314e-09
C1U670,寒溪,2025-05-18,24.634,121.71691,1.4927822e-09
C0N020,城西,2025-05-18,23.0568,120.0956,5.7225065e-09
C1Z110,三棧,2025-05-18,24.11557,121.60501,2.7507063e-08
C0R280,檳榔,2025-05-18,22.076078,120.836777,0.9329786
C2H9J0,中台,2025-05-18,23.9996,120.938739,2.83196e-09
C0F9L0,后里,2025-05-18,24.310436,120.729725,1.906852e-09
467441,高雄,2025-05-18,22.730432,120.312516,3.0342843e-08
C0Z180,新城,2025-05-18,24.040486,121.604878,4.900163e-07
C0D540,橫山,2025-05-18,24.71116,121.11693,4.5372484e-09
C1D420,太閣南,2025-05-18,24.632808,121.160575,9.790993e-09
C1E770,公館,2025-05-18,24.526914,120.830806,1.8420325e-09
CAN130,水試所海水繁養殖中心,2025-05-18,23.120802,120.07968,1.8618033e-08
C1I430,翠華,2025-05-18,24.191961,121.224339,4.9821374e-09
C1M400,菜瓜坪,2025-05-18,23.251928,120.576103,2.369922e-09
C0G730,二林,2025-05-18,23.903325,120.376081,9.551643e-09
72M360,南改義竹分場,2025-05-18,23.360694,120.279361,2.2647277e-09
V2K620,麥寮合作社,2025-05-18,23.753836,120.294783,2.9750722e-09
C0Z070,舞鶴,2025-05-18,23.46811,121.37407,2.15392e-09
C0B040,大武崙,2025-05-18,25.166676,121.706993,5.3123898e-08
C1Z030,紅葉,2025-05-18,23.493119,121.338806,4.48734e-09
C1I050,丹大,2025-05-18,23.753747,121.141147,5.22007e-09
C0I080,信義,2025-05-18,23.689694,120.851036,5.6272684e-09
C2M920,朴子農改,2025-05-18,23.469889,120.259383,2.0002704e-09
C2A880,福隆,2025-05-18,25.017842,121.942083,3.7001673e-08
C0Z160,鳳林,2025-05-18,23.746114,121.453411,5.0310778e-09
C0V210,復興,2025-05-18,23.222403,120.806089,4.749267e-09
C0H990,昆陽,2025-05-18,24.121322,121.273642,9.9126245e-09
C0R741,獅子,2025-05-18,22.202308,120.705236,0.22983436
C0S710,鹿野,2025-05-18,22.917711,121.122994,3.4441014e-09
C0I530,小奇萊,2025-05-18,24.131764,121.295717,1.0469239e-08
C2K630,荷苞,2025-05-18,23.657717,120.595144,6.746684e-09
C0Z080,富源,2025-05-18,23.587642,121.378225,1.3404031e-08
C0SB10,美和,2025-05-18,22.682078,121.060236,0.17608151
C2K620,馬光農場,2025-05-18,23.721453,120.378864,1.4906881e-09
C1I140,卡奈托灣,2025-05-18,23.754364,121.087872,1.9362305e-09
C0I520,玉山風口,2025-05-18,23.470489,120.955994,1.828968e-08
C1G691,下水埔,2025-05-18,23.816114,120.5676,2.8438467e-09
C0X110,臺南市南區,2025-05-18,22.961189,120.188378,6.618097e-09
C0V680,仁武,2025-05-18,22.701083,120.347722,1.9414568e-08
C2G840,北斗,2025-05-18,23.877586,120.514222,1.3435303e-09
C0R900,竹坑,2025-05-18,22.1385,120.7022,0.10392658
C0K250,崙背,2025-05-18,23.75555,120.318925,2.9745615e-09
C0G860,社頭,2025-05-18,23.897647,120.5862,4.60313e-09
C0X150,安定,2025-05-18,23.102614,120.227839,3.956236e-09
C0R590,里港,2025-05-18,22.77919,120.49459,5.0373018e-08
C0E610,馬都安,2025-05-18,24.451272,120.930192,2.2419235e-09
C0E550,明德,2025-05-18,24.583486,120.885411,1.886773e-09
C0R150,三地門,2025-05-18,22.709889,120.639944,4.1949704e-07
C0G910,花壇,2025-05-18,24.032076,120.549461,2.2679396e-09
C1D400,鳥嘴山,2025-05-18,24.71909,121.28387,3.0498502e-09
C0K500,元長,2025-05-18,23.64981,120.315024,2.864009e-09
C0F0B0,石岡,2025-05-18,24.276061,120.777644,1.6908245e-09
C2V250,甲仙,2025-05-18,23.080106,120.591758,3.2068346e-09
C0SA20,金崙山,2025-05-18,22.567419,120.959667,3.3435283e-09
C0V350,溪埔,2025-05-18,22.738578,120.446797,3.758128e-08
C0M660,溪口,2025-05-18,23.604131,120.403569,2.7126084e-09
C1S880,壽卡,2025-05-18,22.238911,120.858903,0.000304187
72D680,桃改新埔分場,2025-05-18,24.834444,121.066111,1.5212649e-08
