站號,站名,日期,lat,lon,BlastGRU-TW
12J990,口湖工作站,2025-04-03,23.589978,120.180394,0.25105762
12Q970,東港工作站,2025-04-03,22.479997,120.466058,0.8621678
12Q980,恆春工作站,2025-04-03,22.079678,120.714425,0.0642554
466881,新北,2025-04-03,24.959207,121.525196,0.73307025
466900,淡水,2025-04-03,25.164889,121.448906,0.8424701
466920,臺北,2025-04-03,25.037658,121.514853,0.9066807
466940,基隆,2025-04-03,25.133314,121.740475,0.77316797
466990,花蓮,2025-04-03,23.975128,121.613275,0.52982575
467050,新屋,2025-04-03,25.006725,121.047492,0.087320514
467080,宜蘭,2025-04-03,24.763975,121.756528,0.3000739
467270,田中,2025-04-03,23.873803,120.581286,0.9962021
467280,後龍,2025-04-03,24.648563,120.831834,0.9916063
467290,古坑,2025-04-03,23.633639,120.551889,0.9940564
467300,東吉島,2025-04-03,23.25727,119.66762,0.036120713
467350,澎湖,2025-04-03,23.565503,119.563094,0.05175426
467410,臺南,2025-04-03,22.99328,120.20492,0.89292836
467420,永康,2025-04-03,23.038386,120.2367,0.99499923
467441,高雄,2025-04-03,22.730432,120.312516,0.73542744
467480,嘉義,2025-04-03,23.495925,120.432906,0.98670626
467490,臺中,2025-04-03,24.145736,120.684075,0.99543375
467540,大武,2025-04-03,22.35572,120.90374,0.8946757
467571,新竹,2025-04-03,24.827853,121.014219,0.95879257
467590,恆春,2025-04-03,22.003897,120.746339,0.78665286
467610,成功,2025-04-03,23.097486,121.373428,0.7820196
467620,蘭嶼,2025-04-03,22.0369,121.55843,0.045005433
467660,臺東,2025-04-03,22.752211,121.154586,0.53792816
467790,墾丁雷達站,2025-04-03,21.948235,120.808028,0.21148902
72AI40,桃改樹林分場,2025-04-03,24.944503,121.386972,0.9616466
72C440,桃園農改場,2025-04-03,24.950944,121.030583,0.332132
72D680,桃改新埔分場,2025-04-03,24.834444,121.066111,0.9521927
72G600,臺中農改場,2025-04-03,24.003028,120.534389,0.92728794
72K220,南改斗南分場,2025-04-03,23.634556,120.477333,0.99779654
72M360,南改義竹分場,2025-04-03,23.360694,120.279361,0.8464522
72M700,南改鹿草分場,2025-04-03,23.416869,120.283061,0.96791404
72N100,臺南農改場,2025-04-03,23.0605,120.342194,0.9875946
72N240,七股研究中心,2025-04-03,23.081672,120.062894,0.1899389
72Q010,高雄農改場,2025-04-03,22.709333,120.525889,0.9875304
72S200,東改班鳩分場,2025-04-03,22.829528,121.077694,0.265796
72S590,東改賓朗果園,2025-04-03,22.813889,121.071278,0.20223115
72T250,花蓮農改場,2025-04-03,23.975222,121.563889,0.46278724
72U480,花改蘭陽分場,2025-04-03,24.686306,121.716583,0.44264832
72V140,高改旗南分場,2025-04-03,22.857861,120.516667,0.9780239
82A750,茶改北部分場,2025-04-03,24.955778,121.631222,0.16996045
82C160,茶改場,2025-04-03,24.908472,121.185333,0.52508956
82H840,茶改南部分場,2025-04-03,23.762528,120.7405,0.2804611
82S580,茶改東部分場,2025-04-03,22.907694,121.130139,0.74017906
A2C560,農工中心,2025-04-03,24.985917,121.239833,0.6526382
A2K360,水試臺西試驗場,2025-04-03,23.717231,120.190522,0.15830912
A2K570,古坑花卉中心,2025-04-03,23.63353,120.55239,0.9940564
A2K630,臺大雲林校區,2025-04-03,23.730628,120.423903,0.90133286
A2N290,臺南蘭花園區,2025-04-03,23.340258,120.379661,0.9630641
B2E890,畜試北區分所,2025-04-03,24.527806,120.770972,0.999038
B2N890,畜產試驗所,2025-04-03,23.058972,120.336406,0.9878375
B2Q810,畜試南區分所,2025-04-03,21.945583,120.802167,0.28132808
B2U990,畜試東區分所,2025-04-03,24.669039,121.832561,0.5373054
C0A520,山佳,2025-04-03,24.974944,121.402008,0.8428816
C0A530,坪林,2025-04-03,24.938183,121.70975,0.062022254
C0A550,泰平,2025-04-03,24.971197,121.823711,0.2575404
C0A570,桶後,2025-04-03,24.848222,121.597992,0.10938271
C0A640,石碇,2025-04-03,24.993969,121.662917,0.16643366
C0A770,科教館,2025-04-03,25.096356,121.516507,0.9221851
C0A860,大坪,2025-04-03,25.165914,121.632969,0.7321086
C0A890,雙溪,2025-04-03,25.036003,121.864242,0.49356726
C0A931,三和,2025-04-03,25.233153,121.595236,0.98712134
C0A940,金山,2025-04-03,25.223628,121.643967,0.99485725
C0A950,鼻頭角,2025-04-03,25.129036,121.923372,0.4252688
C0A970,三貂角,2025-04-03,25.007606,122.002058,0.7639979
C0A980,社子,2025-04-03,25.109508,121.469681,0.8633677
C0A9C0,天母,2025-04-03,25.117494,121.537169,0.9584689
C0A9F0,內湖,2025-04-03,25.079422,121.57545,0.9066807
C0AC60,三峽,2025-04-03,24.939025,121.369728,0.9552651
C0AC70,信義,2025-04-03,25.037822,121.564597,0.9066807
C0AC80,文山,2025-04-03,25.00235,121.575728,0.69166744
C0ACA0,新莊,2025-04-03,25.051478,121.446756,0.90657526
C0AD10,八里,2025-04-03,25.150211,121.403947,0.708247
C0AD30,蘆洲,2025-04-03,25.086594,121.472331,0.9196811
C0AD40,土城,2025-04-03,24.973208,121.445169,0.7628536
C0AD50,鶯歌,2025-04-03,24.951533,121.346294,0.9431422
C0AG80,中和,2025-04-03,24.991622,121.491792,0.7628536
C0AH00,汐止,2025-04-03,25.066881,121.658778,0.9066807
C0AH10,永和,2025-04-03,25.01125,121.508111,0.7748078
C0AH40,平等,2025-04-03,25.129142,121.577086,0.65107507
C0AH50,林口,2025-04-03,25.072181,121.38084,0.14588279
C0AH70,松山,2025-04-03,25.04871,121.55042,0.9066807
C0AH80,深坑,2025-04-03,25.002703,121.628328,0.7017322
C0AI00,五股,2025-04-03,25.07445,121.42728,0.18904614
C0AI10,屈尺,2025-04-03,24.92184,121.54475,0.813119
C0AI20,白沙灣,2025-04-03,25.283128,121.519058,0.98758465
C0AI30,三重,2025-04-03,25.057328,121.500629,0.91263753
C0AI40,石牌,2025-04-03,25.115597,121.513139,0.96194595
C0AJ20,野柳,2025-04-03,25.20703,121.690021,0.99346054
C0AJ30,淡水觀海,2025-04-03,25.184591,121.408616,0.98584735
C0AJ40,石門,2025-04-03,25.273672,121.601198,0.95018315
C0AJ50,水湳洞,2025-04-03,25.123695,121.862238,0.79421
C0AJ60,六塊厝,2025-04-03,25.24,121.4481,0.9896328
C0AJ70,田寮,2025-04-03,25.2698,121.4886,0.98846185
C0AJ80,板橋,2025-04-03,25.0107,121.4489,0.7748078
C0AJ90,澳底,2025-04-03,25.0552,121.9253,0.61223304
C0AK10,太平里,2025-04-03,25.134937,121.364899,0.6988004
C0B010,七堵,2025-04-03,25.094819,121.71713,0.49039942
C0B020,基隆嶼,2025-04-03,25.19141,121.78391,0.15369461
C0B040,大武崙,2025-04-03,25.166676,121.706993,0.705218
C0B050,八斗子,2025-04-03,25.144754,121.79167,0.78879
C0B060,暖暖,2025-04-03,25.0957,121.7403,0.36100993
C0C460,復興,2025-04-03,24.820208,121.352281,0.19401367
C0C480,桃園,2025-04-03,24.992425,121.323172,0.7921589
C0C490,八德,2025-04-03,24.928708,121.283289,0.85870737
C0C590,觀音,2025-04-03,25.027072,121.153317,0.028109472
C0C620,蘆竹,2025-04-03,25.084275,121.265767,0.12134854
C0C630,大溪,2025-04-03,24.882853,121.265547,0.38873562
C0C650,平鎮,2025-04-03,24.897503,121.214636,0.78886616
C0C660,楊梅,2025-04-03,24.912375,121.143047,0.61987364
C0C670,龍潭,2025-04-03,24.870056,121.221389,0.31084886
C0C680,龜山,2025-04-03,25.02846,121.38656,0.10902671
C0C700,中壢,2025-04-03,24.977661,121.256375,0.6631202
C0C710,大溪永福,2025-04-03,24.892936,121.324975,0.75639653
C0C720,竹圍,2025-04-03,25.112692,121.239824,0.41283134
C0C730,中大臨海站,2025-04-03,24.966126,121.008581,0.0974021
C0C740,觀音工業區,2025-04-03,25.064764,121.114856,0.03766386
C0C750,新興坑尾,2025-04-03,25.0061,121.0971,0.074245445
C0D430,峨眉,2025-04-03,24.6905,121.017189,0.98976773
C0D480,打鐵坑,2025-04-03,24.849664,121.150789,0.3068707
C0D540,橫山,2025-04-03,24.71116,121.11693,0.97873455
C0D560,竹東,2025-04-03,24.767147,121.057881,0.98814327
C0D580,寶山,2025-04-03,24.735006,121.025192,0.9878598
C0D590,新豐,2025-04-03,24.87068,120.97721,0.08238364
C0D650,湖口,2025-04-03,24.904794,121.043628,0.32145885
C0D660,新竹市東區,2025-04-03,24.798681,120.986942,0.951215
C0D670,海天一線,2025-04-03,24.831986,120.914438,0.15623547
C0D680,香山濕地,2025-04-03,24.783581,120.914988,0.97530574
C0D690,外湖,2025-04-03,24.917735,120.968711,0.47815138
C0D700,關西,2025-04-03,24.7977,121.1732,0.985909
C0E420,竹南,2025-04-03,24.708978,120.888897,0.19056511
C0E430,南庄,2025-04-03,24.601775,121.000214,0.9920582
C0E550,明德,2025-04-03,24.583486,120.885411,0.990207
C0E570,白沙屯,2025-04-03,24.549447,120.696803,0.50258416
C0E590,通霄,2025-04-03,24.471892,120.704622,0.55981416
C0E730,頭份,2025-04-03,24.688247,120.912206,0.20061427
C0E740,造橋,2025-04-03,24.637056,120.864778,0.9926213
C0E750,苗栗,2025-04-03,24.564569,120.824575,0.99172884
C0E780,銅鑼,2025-04-03,24.489681,120.790853,0.99844444
C0E791,卓蘭,2025-04-03,24.3126,120.8244,0.9960073
C0E810,西湖,2025-04-03,24.562947,120.7485,0.18913054
C0E820,獅潭,2025-04-03,24.539133,120.920042,0.997237
C0E830,苑裡,2025-04-03,24.439714,120.653053,0.9943947
C0E850,大河,2025-04-03,24.618069,120.948578,0.9956595
C0E870,高鐵苗栗,2025-04-03,24.60725,120.826094,0.992369
C0E910,海埔,2025-04-03,24.648767,120.772435,0.99644077
C0E920,通霄漁港,2025-04-03,24.498589,120.673876,0.47666812
C0E930,龍鳳,2025-04-03,24.700034,120.859125,0.2346484
C0F0B0,石岡,2025-04-03,24.276061,120.777644,0.99672353
C0F850,東勢,2025-04-03,24.246428,120.833047,0.9870794
C0F970,大坑,2025-04-03,24.173142,120.722289,0.99569464
C0F9I0,神岡,2025-04-03,24.272481,120.658314,0.9024134
C0F9K0,大安,2025-04-03,24.345061,120.588025,0.7567377
C0F9L0,后里,2025-04-03,24.310436,120.729725,0.99755883
C0F9M0,豐原,2025-04-03,24.254322,120.720692,0.9978796
C0F9N0,大里,2025-04-03,24.092464,120.701378,0.9977648
C0F9O0,潭子,2025-04-03,24.213106,120.703933,0.9970598
C0F9P0,清水,2025-04-03,24.312297,120.562242,0.19021486
C0F9Q0,外埔,2025-04-03,24.347817,120.705686,0.98720527
C0F9R0,龍井,2025-04-03,24.184536,120.528972,0.4677846
C0F9S0,烏日,2025-04-03,24.107058,120.624103,0.9979509
C0F9T0,西屯,2025-04-03,24.179494,120.641275,0.99246943
C0F9U0,南屯,2025-04-03,24.137006,120.637969,0.99444133
C0F9X0,大雅(中科園區),2025-04-03,24.21528,120.62445,0.8915744
C0FA10,松柏,2025-04-03,24.429115,120.617482,0.9977281
C0FA20,溫寮,2025-04-03,24.372177,120.583125,0.8286025
C0FA30,梧棲,2025-04-03,24.256003,120.523381,0.19021486
C0FA40,臺中電廠,2025-04-03,24.2146,120.4907,0.25984383
C0FA50,霧峰,2025-04-03,24.0419,120.6995,0.99659187
C0FB70,大甲溪埔,2025-04-03,24.370625,120.620067,0.71668404
C0G620,芬園,2025-04-03,24.015678,120.6213,0.99541074
C0G650,員林,2025-04-03,23.946503,120.585597,0.99280494
C0G660,溪湖,2025-04-03,23.94835,120.479122,0.6171664
C0G720,溪州,2025-04-03,23.851589,120.499093,0.9323313
C0G730,二林,2025-04-03,23.903325,120.376081,0.3085736
C0G740,大城,2025-04-03,23.852487,120.320935,0.327153
C0G770,福興,2025-04-03,24.041289,120.437669,0.47361624
C0G780,秀水,2025-04-03,24.03405,120.503869,0.93107677
C0G800,埔鹽,2025-04-03,24.000394,120.431683,0.46871933
C0G810,埔心,2025-04-03,23.947633,120.525456,0.58586633
C0G820,田尾,2025-04-03,23.901669,120.509389,0.87989485
C0G830,埤頭,2025-04-03,23.866003,120.452806,0.9400977
C0G860,社頭,2025-04-03,23.897647,120.5862,0.99634004
C0G880,二水,2025-04-03,23.810742,120.6173,0.9944116
C0G890,伸港,2025-04-03,24.148933,120.484403,0.86279976
C0G900,線西,2025-04-03,24.143358,120.443536,0.8673907
C0G910,花壇,2025-04-03,24.032076,120.549461,0.9113591
C0G920,永靖,2025-04-03,23.924703,120.547533,0.87989485
C0G940,竹塘,2025-04-03,23.848253,120.386764,0.3699575
C0G950,防潮門,2025-04-03,24.1835,120.4871,0.4677846
C0G960,福寶,2025-04-03,24.0443,120.3814,0.6891565
C0G970,三豐,2025-04-03,23.882,120.2895,0.33194298
C0G9B0,和美,2025-04-03,24.105169,120.492131,0.7816792
C0H890,埔里,2025-04-03,23.972169,120.952425,0.658738
C0H960,草屯,2025-04-03,23.973672,120.68085,0.99559355
C0I110,竹山,2025-04-03,23.761225,120.688156,0.9917036
C0I360,水里,2025-04-03,23.812553,120.849792,0.49723962
C0I380,集集,2025-04-03,23.828206,120.801467,0.5122497
C0I410,名間,2025-04-03,23.837053,120.701447,0.99059373
C0I420,國姓,2025-04-03,24.037803,120.855072,0.9604617
C0I460,南投,2025-04-03,23.911469,120.687331,0.9954112
C0K250,崙背,2025-04-03,23.75555,120.318925,0.6446091
C0K280,四湖,2025-04-03,23.630414,120.227125,0.32243642
C0K291,宜梧,2025-04-03,23.536281,120.169329,0.7267444
C0K330,虎尾,2025-04-03,23.719183,120.442036,0.9071092
C0K390,土庫,2025-04-03,23.679029,120.395574,0.97217953
C0K400,斗六,2025-04-03,23.720583,120.541127,0.9856014
C0K410,北港,2025-04-03,23.573957,120.292802,0.8601339
C0K420,西螺,2025-04-03,23.800407,120.467394,0.87194765
C0K430,褒忠,2025-04-03,23.690938,120.303634,0.605731
C0K440,二崙,2025-04-03,23.772797,120.408944,0.8662359
C0K450,大埤,2025-04-03,23.646074,120.431537,0.997748
C0K460,斗南,2025-04-03,23.678734,120.478359,0.99779654
C0K470,林內,2025-04-03,23.748675,120.609642,0.98941946
C0K480,莿桐,2025-04-03,23.761192,120.502372,0.9899225
C0K500,元長,2025-04-03,23.64981,120.315024,0.84203064
C0K510,水林,2025-04-03,23.572924,120.24597,0.8699946
C0K530,臺西,2025-04-03,23.701547,120.197559,0.14958252
C0K550,蔦松,2025-04-03,23.514319,120.229736,0.7267444
C0K560,棋山,2025-04-03,23.68645,120.603417,0.9936813
C0K580,高鐵雲林,2025-04-03,23.737456,120.417944,0.90133286
C0K590,雲林東勢,2025-04-03,23.674192,120.255721,0.7571791
C0K600,箔子寮,2025-04-03,23.6197,120.14,0.25105762
C0M520,東後寮,2025-04-03,23.369908,120.248065,0.85025483
C0M640,中埔,2025-04-03,23.42538,120.5229,0.99294376
C0M650,朴子,2025-04-03,23.43463,120.23902,0.9685215
C0M660,溪口,2025-04-03,23.604131,120.403569,0.99779797
C0M670,大林,2025-04-03,23.600616,120.45841,0.9978129
C0M680,太保,2025-04-03,23.455062,120.331455,0.92265266
C0M690,水上,2025-04-03,23.419734,120.388909,0.9389743
C0M700,竹崎,2025-04-03,23.526178,120.555508,0.9956572
C0M710,東石,2025-04-03,23.458927,120.15385,0.24841395
C0M720,番路,2025-04-03,23.464657,120.554156,0.9913769
C0M730,嘉義市東區,2025-04-03,23.457673,120.460531,0.99554175
C0M740,六腳,2025-04-03,23.492871,120.290625,0.9012853
C0M750,布袋,2025-04-03,23.380878,120.167789,0.85964656
C0M760,民雄,2025-04-03,23.551754,120.428457,0.99769145
C0M770,嘉義梅山,2025-04-03,23.585398,120.555587,0.99314666
C0M780,鹿草,2025-04-03,23.41134,120.30835,0.96592695
C0M790,新港,2025-04-03,23.553269,120.345728,0.9586664
C0M800,茶山,2025-04-03,23.299075,120.664767,0.72917604
C0M880,好美里,2025-04-03,23.3364,120.138,0.8229063
C0N010,鯤鯓國小,2025-04-03,23.1879,120.0889,0.24166831
C0N020,城西,2025-04-03,23.0568,120.0956,0.9000982
C0N030,四草,2025-04-03,23.0235,120.1116,0.90092236
C0N040,蘆竹溝,2025-04-03,23.2344,120.0961,0.5392882
C0N050,蚵寮,2025-04-03,23.301,120.1104,0.8605071
C0O830,北寮,2025-04-03,23.079561,120.495008,0.78962886
C0O840,王爺宮,2025-04-03,23.222064,120.40085,0.9578359
C0O860,大內,2025-04-03,23.11885,120.36083,0.99199545
C0O900,善化,2025-04-03,23.112883,120.297219,0.9894301
C0O960,崎頂,2025-04-03,22.959547,120.369317,0.991263
C0O970,虎頭埤,2025-04-03,23.021375,120.347878,0.96303934
C0O980,新市,2025-04-03,23.061614,120.298197,0.9895935
C0O990,媽廟,2025-04-03,22.99175,120.293525,0.9947762
C0R150,三地門,2025-04-03,22.709889,120.639944,0.7389994
C0R160,鹽埔,2025-04-03,22.739558,120.530778,0.9875304
C0R190,赤山,2025-04-03,22.592333,120.614306,0.89222467
C0R220,潮州,2025-04-03,22.534361,120.54,0.85840994
C0R240,來義,2025-04-03,22.527306,120.625111,0.79515666
C0R260,春日,2025-04-03,22.370361,120.628306,0.2958614
C0R270,琉球嶼,2025-04-03,22.332244,120.362236,0.28856578
C0R280,檳榔,2025-04-03,22.076078,120.836777,0.18489303
C0R320,車城,2025-04-03,22.0744,120.716247,0.0642554
C0R341,牡丹,2025-04-03,22.130036,120.792639,0.19038256
C0R350,貓鼻頭,2025-04-03,21.921774,120.7358,0.024264418
C0R470,高樹,2025-04-03,22.826389,120.600806,0.98095846
C0R480,長治,2025-04-03,22.693128,120.542622,0.9479974
C0R490,九如,2025-04-03,22.7405,120.490503,0.9878103
C0R520,崁頂,2025-04-03,22.514781,120.506914,0.86098665
C0R540,佳冬,2025-04-03,22.419456,120.552375,0.32545763
C0R550,新埤,2025-04-03,22.467947,120.582894,0.8470343
C0R560,新園,2025-04-03,22.5434,120.461558,0.9212692
C0R570,麟洛,2025-04-03,22.65078,120.52719,0.9885459
C0R580,南州,2025-04-03,22.48591,120.50274,0.8621678
C0R590,里港,2025-04-03,22.77919,120.49459,0.9905476
C0R620,墾雷,2025-04-03,21.900836,120.855269,0.08431898
C0R640,東港,2025-04-03,22.46247,120.44074,0.8621678
C0R650,竹田,2025-04-03,22.58486,120.54344,0.838614
C0R660,枋寮,2025-04-03,22.367722,120.590647,0.33462498
C0R670,楓港,2025-04-03,22.190131,120.692156,0.3121089
C0R680,佳樂水,2025-04-03,21.993578,120.861633,0.27442628
C0R690,墾丁,2025-04-03,21.966756,120.810269,0.095865384
C0R700,枋山,2025-04-03,22.246844,120.661086,0.18328522
C0R710,龍磐,2025-04-03,21.931672,120.838942,0.017706906
C0R720,旭海,2025-04-03,22.205403,120.887614,0.50601125
C0R730,大坪頂,2025-04-03,22.024633,120.69355,0.042739928
C0R741,獅子,2025-04-03,22.202308,120.705236,0.74802655
C0R760,南仁湖,2025-04-03,22.084681,120.863353,0.084138095
C0R770,保力,2025-04-03,22.071122,120.764111,0.09134017
C0R780,滿州,2025-04-03,22.024403,120.839892,0.7639319
C0R790,九棚,2025-04-03,22.14195,120.889281,0.39731222
C0R800,丹路,2025-04-03,22.204481,120.750989,0.49796668
C0R810,內獅,2025-04-03,22.305064,120.642986,0.27971786
C0R830,高士,2025-04-03,22.121825,120.836781,0.04872209
C0R850,林邊,2025-04-03,22.4634,120.5339,0.8579507
C0R860,鼻頭,2025-04-03,22.1043,120.8979,0.32733774
C0R870,興海,2025-04-03,21.9752,120.8439,0.28132808
C0R880,後壁湖,2025-04-03,21.9457,120.7457,0.061898023
C0R890,山海,2025-04-03,21.9878,120.7091,0.06165961
C0R900,竹坑,2025-04-03,22.1385,120.7022,0.064952604
C0R910,下寮,2025-04-03,22.3929,120.5548,0.33462498
C0R920,塭仔,2025-04-03,22.4169,120.5197,0.33172333
C0R930,萬丹,2025-04-03,22.5885,120.4851,0.9818784
C0R940,加祿堂,2025-04-03,22.3363,120.6217,0.30419603
C0R950,萬隆國小,2025-04-03,22.507667,120.587817,0.8288996
C0R960,內埔,2025-04-03,22.608483,120.570714,0.8288001
C0S710,鹿野,2025-04-03,22.917711,121.122994,0.5207609
C0S730,綠島,2025-04-03,22.6672,121.47533,0.9594588
C0S740,池上,2025-04-03,23.119628,121.209469,0.3363555
C0S770,大溪山,2025-04-03,22.478475,120.943325,0.5837913
C0S790,金崙,2025-04-03,22.538122,120.966875,0.90449375
C0S810,東河,2025-04-03,22.972672,121.303986,0.45855707
C0S830,長濱,2025-04-03,23.286817,121.411975,0.36400238
C0S840,南田,2025-04-03,22.279725,120.889208,0.8057804
C0S890,關山,2025-04-03,23.0395,121.175017,0.27634004
C0S900,蘭嶼高中,2025-04-03,22.04909,121.51214,0.0909837
C0S910,蘭嶼燈塔,2025-04-03,22.081197,121.503117,0.25697818
C0S920,金峰嘉蘭,2025-04-03,22.594789,120.960825,0.9746597
C0S930,延平,2025-04-03,22.902581,121.084058,0.65992975
C0S940,石寧山,2025-04-03,23.223772,121.406639,0.552532
C0S950,七塊厝,2025-04-03,22.954453,121.229922,0.476462
C0S960,香蘭,2025-04-03,22.587569,120.993375,0.9774053
C0S970,加津林,2025-04-03,22.416211,120.926942,0.8941965
C0S990,山豬窟,2025-04-03,22.318619,120.857372,0.5189881
C0SA00,歷坵,2025-04-03,22.520969,120.89185,0.590321
C0SA10,檳榔四格山,2025-04-03,22.810031,121.109308,0.27833483
C0SA30,都歷,2025-04-03,23.020333,121.323642,0.52995646
C0SA40,瑞和,2025-04-03,22.974361,121.156697,0.7168873
C0SA60,知本（水試所）,2025-04-03,22.702394,121.082761,0.9838167
C0SA80,土坂,2025-04-03,22.453108,120.887572,0.87876946
C0SA90,達仁林場,2025-04-03,22.264347,120.823972,0.040366586
C0SB10,美和,2025-04-03,22.682078,121.060236,0.98364264
C0SB20,富岡,2025-04-03,22.792467,121.192669,0.6667651
C0SB30,新蘭,2025-04-03,22.869214,121.223228,0.8784418
C0SB40,興隆,2025-04-03,22.913661,121.257469,0.87125176
C0SB50,叭嗡嗡,2025-04-03,23.047062,121.343223,0.6709436
C0SB60,白守蓮,2025-04-03,23.126769,121.401914,0.8270407
C0SB70,小港漁港,2025-04-03,23.158558,121.400431,0.94865346
C0SB80,長濱漁港,2025-04-03,23.313644,121.459994,0.769736
C0T870,鯉魚潭,2025-04-03,23.935639,121.508944,0.5589201
C0T900,西林,2025-04-03,23.8119,121.441458,0.6297799
C0T960,光復,2025-04-03,23.660694,121.424964,0.69977325
C0T9A0,月眉山,2025-04-03,23.809928,121.539828,0.16046435
C0T9D0,和中,2025-04-03,24.26676,121.74103,0.17638838
C0T9E0,大坑,2025-04-03,23.880628,121.581981,0.15120007
C0T9F0,水璉,2025-04-03,23.797131,121.542514,0.51366305
C0T9I0,豐濱,2025-04-03,23.583897,121.514806,0.7561235
C0T9M0,靜浦,2025-04-03,23.455167,121.495028,0.47862068
C0T9N0,富里,2025-04-03,23.171639,121.249378,0.6943159
C0TA10,花蓮漁港,2025-04-03,23.995322,121.638331,0.5750265
C0TA20,加灣,2025-04-03,24.082025,121.608944,0.20967804
C0TA30,鹽寮,2025-04-03,23.845606,121.592664,0.84371156
C0U600,礁溪,2025-04-03,24.817539,121.765608,0.34361687
C0U650,玉蘭,2025-04-03,24.675286,121.587061,0.05742646
C0U750,龜山島,2025-04-03,24.841667,121.953133,0.000821085
C0U760,東澳,2025-04-03,24.52196,121.83318,0.770757
C0U770,南澳,2025-04-03,24.44935,121.81022,0.44171563
C0U780,五結,2025-04-03,24.68637,121.79794,0.50693256
C0U860,頭城,2025-04-03,24.85323,121.8308,0.37337703
C0U870,大礁溪,2025-04-03,24.791042,121.675047,0.022959186
C0U880,北關,2025-04-03,24.9072,121.8734,0.5863699
C0U890,三星,2025-04-03,24.66812,121.65302,0.5256725
C0U900,內城,2025-04-03,24.71813,121.68766,0.38622853
C0U910,冬山,2025-04-03,24.63373,121.7937,0.5373054
C0U940,羅東,2025-04-03,24.68184,121.74934,0.47143903
C0U970,大福,2025-04-03,24.80064,121.81389,0.32658702
C0U990,員山,2025-04-03,24.74435,121.72247,0.47859293
C0UA00,土場,2025-04-03,24.576533,121.495333,0.18420501
C0UA80,大溪漁港,2025-04-03,24.941801,121.902955,0.5528339
C0UA90,石城,2025-04-03,24.980444,121.951214,0.8949335
C0UB00,淡江大學蘭陽校園,2025-04-03,24.823239,121.730383,0.09682109
C0UB10,蘇澳,2025-04-03,24.5969,121.8571,0.82220614
C0UB20,壯圍,2025-04-03,24.7359,121.8163,0.5275326
C0V350,溪埔,2025-04-03,22.738578,120.446797,0.9832021
C0V360,內門,2025-04-03,22.975481,120.466769,0.85468096
C0V370,古亭坑,2025-04-03,22.893178,120.401947,0.9055227
C0V400,阿公店,2025-04-03,22.804194,120.355528,0.8960897
C0V440,鳳山,2025-04-03,22.646653,120.356122,0.80478746
C0V450,鳳森,2025-04-03,22.545064,120.392592,0.88372797
C0V490,新興,2025-04-03,22.627422,120.298803,0.8371078
C0V530,阿蓮,2025-04-03,22.883208,120.327508,0.95489514
C0V610,梓官,2025-04-03,22.760558,120.267211,0.7224003
C0V620,永安,2025-04-03,22.82315,120.236856,0.84742326
C0V630,茄萣,2025-04-03,22.906642,120.182608,0.96526945
C0V640,湖內,2025-04-03,22.887139,120.2445,0.946476
C0V650,彌陀,2025-04-03,22.783806,120.246361,0.8610818
C0V660,岡山,2025-04-03,22.797078,120.294958,0.8610818
C0V680,仁武,2025-04-03,22.701083,120.347722,0.84835804
C0V690,鼓山,2025-04-03,22.623325,120.275575,0.8371078
C0V700,三民,2025-04-03,22.645017,120.311233,0.8365837
C0V710,苓雅,2025-04-03,22.622742,120.330669,0.8079528
C0V720,林園,2025-04-03,22.507747,120.394511,0.92005867
C0V730,大寮,2025-04-03,22.605614,120.395717,0.8064434
C0V740,旗山,2025-04-03,22.888614,120.483597,0.9772022
C0V750,路竹,2025-04-03,22.854997,120.259439,0.9442256
C0V760,橋頭,2025-04-03,22.757806,120.30575,0.7224003
C0V770,大社,2025-04-03,22.730306,120.346639,0.73542744
C0V790,萬山,2025-04-03,22.905944,120.688056,0.92542285
C0V800,六龜,2025-04-03,22.997889,120.633583,0.9403793
C0V810,左營,2025-04-03,22.67491,120.28491,0.8365837
C0V820,小林,2025-04-03,23.148408,120.63325,0.41875738
C0V840,鳳鼻頭,2025-04-03,22.5083,120.3591,0.9231587
C0V850,蚵仔寮,2025-04-03,22.7256,120.2527,0.72697866
C0V860,南寮,2025-04-03,22.7616,120.2339,0.72697866
C0V870,文安,2025-04-03,22.8025,120.2164,0.8657274
C0V880,興達,2025-04-03,22.8778,120.2127,0.94873303
C0V890,前鎮,2025-04-03,22.5718,120.3117,0.8347021
C0V900,汕尾,2025-04-03,22.4782,120.4151,0.8621678
C0V910,大樹,2025-04-03,22.684645,120.432803,0.93012685
C0W200,湖西,2025-04-03,23.596314,119.67275,0.11923597
C0X050,東河,2025-04-03,23.296598,120.385608,0.92643356
C0X060,下營,2025-04-03,23.22695,120.256261,0.91445553
C0X080,佳里,2025-04-03,23.173039,120.145086,0.24166831
C0X100,臺南市北區,2025-04-03,23.010394,120.194228,0.8982148
C0X110,臺南市南區,2025-04-03,22.961189,120.188378,0.9912086
C0X120,麻豆,2025-04-03,23.183289,120.248611,0.9015548
C0X130,官田,2025-04-03,23.193217,120.315422,0.9814482
C0X140,西港,2025-04-03,23.125608,120.203108,0.90396655
C0X150,安定,2025-04-03,23.102614,120.227839,0.90396655
C0X160,仁德,2025-04-03,22.968258,120.257689,0.991149
C0X170,關廟,2025-04-03,22.963017,120.327797,0.9932184
C0X180,山上,2025-04-03,23.0757,120.363253,0.86856973
C0X190,安平,2025-04-03,22.993161,120.152181,0.8982148
C0X200,左鎮,2025-04-03,23.056758,120.408522,0.964278
C0X210,白河,2025-04-03,23.347466,120.414427,0.9916291
C0X220,學甲,2025-04-03,23.230367,120.182187,0.5190621
C0X230,鹽水,2025-04-03,23.272621,120.247641,0.7487937
C0X240,關子嶺,2025-04-03,23.331169,120.508025,0.88125646
C0X250,新營,2025-04-03,23.310689,120.316681,0.8638042
C0X260,後壁,2025-04-03,23.366358,120.362326,0.9630641
C0X280,將軍,2025-04-03,23.214999,120.13577,0.5392882
C0X290,北門,2025-04-03,23.267772,120.125481,0.5392882
C0X300,鹿寮,2025-04-03,23.386047,120.477331,0.9908153
C0X320,柳營,2025-04-03,23.253328,120.375253,0.96812075
C0Z020,明里,2025-04-03,23.208717,121.262342,0.39397678
C0Z061,玉里,2025-04-03,23.3215,121.339656,0.54357135
C0Z070,舞鶴,2025-04-03,23.46811,121.37407,0.24708813
C0Z080,富源,2025-04-03,23.587642,121.378225,0.7558771
C0Z100,東華,2025-04-03,23.89525,121.549833,0.8062964
C0Z150,吉安光華,2025-04-03,23.930925,121.595153,0.8230077
C0Z160,鳳林,2025-04-03,23.746114,121.453411,0.94667536
C0Z170,卓溪,2025-04-03,23.3443,121.3029,0.3001269
C0Z180,新城,2025-04-03,24.03946,121.60454,0.5068725
C0Z190,富世,2025-04-03,24.14743,121.6297,0.2217369
C0Z200,萬榮,2025-04-03,23.709219,121.420106,0.93038434
C0Z210,瑞穗,2025-04-03,23.5239,121.39021,0.6586992
C0Z230,和平,2025-04-03,24.30717,121.77007,0.18437049
C0Z270,蕃薯寮,2025-04-03,23.73835,121.540108,0.8259603
C0Z280,德武,2025-04-03,23.47426,121.41071,0.26486146
C0Z300,東里,2025-04-03,23.26853,121.30547,0.48513812
C0Z310,清水斷崖,2025-04-03,24.218294,121.689142,0.004987101
C0Z330,安通山,2025-04-03,23.290728,121.348528,0.22689873
C2A540,四堵,2025-04-03,24.8926,121.745736,0.039991654
C2A560,福山,2025-04-03,24.776203,121.502811,0.20736074
C2A650,火燒寮,2025-04-03,25.002719,121.742892,0.30963954
C2A660,瑞芳,2025-04-03,25.113169,121.801147,0.5920852
C2A880,福隆,2025-04-03,25.017842,121.942083,0.9072017
C2A920,富貴角,2025-04-03,25.263783,121.565258,0.9274564
C2C410,中央大學,2025-04-03,24.967652,121.185165,0.39299726
C2D720,關西工作站,2025-04-03,24.757275,121.184792,0.9844844
C2D730,寶山農場,2025-04-03,24.732444,120.976153,0.9900448
C2E520,大湖,2025-04-03,24.414939,120.870872,0.99918854
C2E540,龍溪,2025-04-03,24.606489,120.783933,0.9961346
C2E970,八甲,2025-04-03,24.535811,120.795983,0.990431
C2F000,大肚,2025-04-03,24.15295,120.572117,0.9851937
C2F930,大甲,2025-04-03,24.347667,120.640403,0.44563773
C2F9A0,中竹林,2025-04-03,24.103556,120.751061,0.93391293
C2G640,鹿港,2025-04-03,24.0753,120.430481,0.6891565
C2G840,北斗,2025-04-03,23.877586,120.514222,0.93424755
C2G870,芳苑,2025-04-03,23.922303,120.320025,0.26478887
C2G980,田頭村,2025-04-03,23.8263,120.444175,0.89938706
C2G9A0,畜試所彰化,2025-04-03,23.86045,120.557964,0.9962437
C2H950,中寮,2025-04-03,23.884447,120.766406,0.9899042
C2H9F0,柑林,2025-04-03,24.018658,120.847072,0.9686093
C2H9H0,苗改南投蜂場,2025-04-03,23.852589,120.693481,0.99124116
C2H9T0,名間竹圍,2025-04-03,23.859914,120.637572,0.81850487
C2H9U0,鳳鵬,2025-04-03,23.763919,120.788061,0.3655752
C2K620,馬光農場,2025-04-03,23.721453,120.378864,0.9119441
C2K630,荷苞,2025-04-03,23.657717,120.595144,0.9921642
C2M410,馬頭山,2025-04-03,23.324361,120.582017,0.9379397
C2M910,嘉義大學,2025-04-03,23.471325,120.485903,0.995054
C2M920,朴子農改,2025-04-03,23.469889,120.259383,0.96968615
C2N160,西拉雅風管處,2025-04-03,23.189481,120.335297,0.98131996
C2O810,曾文,2025-04-03,23.219681,120.497328,0.7813875
C2O930,玉井,2025-04-03,23.126042,120.46055,0.86856973
C2O950,安南,2025-04-03,23.076694,120.144861,0.17007527
C2R170,屏東,2025-04-03,22.66027,120.49403,0.9885459
C2R970,屏科大,2025-04-03,22.648275,120.619247,0.8444413
C2V250,甲仙,2025-04-03,23.080106,120.591758,0.59438664
C2V260,月眉,2025-04-03,22.971003,120.539853,0.93764555
C2V310,美濃,2025-04-03,22.898792,120.51907,0.9780239
C2W230,畜試所澎湖,2025-04-03,23.628342,119.513206,0.026400847
CAG100,王功漁港,2025-04-03,23.96824,120.32586,0.21841653
CAH030,茶改場竹圍站,2025-04-03,23.860083,120.637528,0.81850487
CAJ050,海口故事園區,2025-04-03,23.57543,120.14121,0.25187477
CAL110,布袋國中,2025-04-03,23.35893,120.18026,0.85964656
CAN130,水試所海水繁養殖中心,2025-04-03,23.120802,120.07968,0.1899389
CAN140,六官養殖協會,2025-04-03,23.22881,120.29962,0.91445553
CAQ030,崎峰國小,2025-04-03,22.42565,120.49521,0.8621678
E2K600,四湖植物園,2025-04-03,23.676986,120.163433,0.32243642
E2P980,林試六龜中心,2025-04-03,22.991703,120.645722,0.9333832
E2S960,林試太麻里2,2025-04-03,22.598,120.99775,0.97743326
E2S980,林試太麻里1,2025-04-03,22.598922,120.980044,0.97466457
G2AI50,關渡,2025-04-03,25.11575,121.492,0.8529013
G2F820,農試所(霧峰),2025-04-03,24.031261,120.688133,0.99676985
G2L020,農試嘉義分所,2025-04-03,23.485028,120.473806,0.996468
G2M350,農試溪口農場,2025-04-03,23.58565,120.408111,0.99779797
G2P820,農試鳳山分所,2025-04-03,22.646611,120.356083,0.80478746
K2E360,苗栗農改場,2025-04-03,24.495722,120.829111,0.9964948
K2E710,苗改生物防治研究中心,2025-04-03,24.422861,120.871833,0.9992525
K2F750,種苗改良場,2025-04-03,24.225972,120.800917,0.7653149
U2HA50,臺大竹山,2025-04-03,23.756972,120.681556,0.986354
V2C250,八德合作社,2025-04-03,24.93775,121.266389,0.8596637
V2C260,八德蔬果,2025-04-03,24.978508,121.281819,0.7087036
V2K610,大庄合作社,2025-04-03,23.8068,120.367939,0.43843108
V2K620,麥寮合作社,2025-04-03,23.753836,120.294783,0.6190531
