站號,站名,日期,lat,lon,BlastGRU-TW
K2F750,種苗繁殖,2025-02-09,24.225972,120.800917,0.0045178365
C0R170,屏東,2025-02-09,22.660269,120.494072,0.024622882
467990,馬祖,2025-02-09,26.169269,119.923419,0.0003139575
C2E540,後龍,2025-02-09,24.606489,120.783933,0.0011615831
467300,東吉島,2025-02-09,23.25695,119.667467,0.0003844561
G2F820,農業試驗所,2025-02-09,24.031261,120.688133,0.011551369
467410,臺南,2025-02-09,22.993239,120.204772,0.007148032
C0V310,美濃,2025-02-09,22.898742,120.519153,0.077578545
E2S960,林試太麻里2,2025-02-09,22.598014,120.989761,0.005098265
72C440,桃園農改,2025-02-09,24.950944,121.030583,0.0011131024
C1H860,瑞岩,2025-02-09,24.123772,121.18345,0.0005950338
72G600,臺中農改,2025-02-09,24.003028,120.534389,0.0084154885
72N100,臺南農改,2025-02-09,23.0605,120.342194,0.056337103
72T250,花蓮農改,2025-02-09,23.975222,121.563889,0.00039164413
467620,蘭嶼,2025-02-09,22.036969,121.558339,0.0003026951
K2E360,苗栗農改,2025-02-09,24.495722,120.829111,0.0009006071
467050,新屋,2025-02-09,25.006744,121.047486,0.0012974618
467550,玉山,2025-02-09,23.487614,120.959522,0.0003982131
466881,新北,2025-02-09,24.9593,121.52,0.0062622246
467540,大武,2025-02-09,22.355675,120.903789,0.013594819
72Q010,高雄農改,2025-02-09,22.709333,120.525889,0.008194061
U2H480,臺大溪頭,2025-02-09,23.670306,120.798194,0.0018312137
C0Z180,新城,2025-02-09,24.03946,121.60454,0.00039737902
B2N890,畜試所,2025-02-09,23.058972,120.336406,0.056337103
467441,高雄,2025-02-09,22.7304,120.3125,0.027140895
