站號,站名,日期,lat,lon,BLBTSLS
C0R710,龍磐,2025-01-31,21.931672,120.838942,0.9508899
C1F9D1,白毛台,2025-01-31,24.158325,120.886933,0.1841849
C0G940,竹塘,2025-01-31,23.848253,120.386764,0.05425684
467590,恆春,2025-01-31,22.003897,120.746339,0.98733366
C1O850,環湖,2025-01-31,23.148617,120.418633,0.015206734
C0U710,太平山,2025-01-31,24.505486,121.525656,0.7134452
C0E820,獅潭,2025-01-31,24.539133,120.920042,0.040734816
C0V880,興達,2025-01-31,22.8778,120.2127,0.032252546
C0S890,關山,2025-01-31,23.0395,121.175017,0.6885539
C0SB30,新蘭,2025-01-31,22.869214,121.223228,0.80390793
C2R970,屏科大,2025-01-31,22.648275,120.619247,0.97634435
K2F750,種苗繁殖,2025-01-31,24.225972,120.800917,0.06844941
C1Z130,銅門,2025-01-31,23.965694,121.492842,0.9966301
C0AD40,土城,2025-01-31,24.973208,121.445169,0.273274
CAN140,六官養殖協會,2025-01-31,23.22881,120.29962,0.03853076
C0X180,山上,2025-01-31,23.0757,120.363253,0.021067036
C0F9Z0,雪山東峰,2025-01-31,24.388792,121.268675,0.21461973
C1M480,獨立山,2025-01-31,23.537022,120.607797,0.22789188
C0X220,學甲,2025-01-31,23.230367,120.182187,0.014276257
C0R170,屏東,2025-01-31,22.660269,120.494072,0.84590834
467650,日月潭,2025-01-31,23.881325,120.90805,0.22412327
C0K600,箔子寮,2025-01-31,23.6197,120.14,0.8757972
C0G830,埤頭,2025-01-31,23.866003,120.452806,0.013193637
C0S950,七塊厝,2025-01-31,22.954453,121.229922,0.5526876
467110,金門,2025-01-31,24.407306,118.289281,0.07974802
C0AH80,深坑,2025-01-31,25.002703,121.628328,0.24481148
467990,馬祖,2025-01-31,26.169269,119.923419,0.24070048
C0A970,三貂角,2025-01-31,25.007606,122.002058,0.065642074
C2D730,寶山農場,2025-01-31,24.732444,120.976153,0.033660334
C0K430,褒忠,2025-01-31,23.690938,120.303634,0.019586913
467480,嘉義,2025-01-31,23.495925,120.432906,0.035568133
C2E540,後龍,2025-01-31,24.606489,120.783933,0.049629062
C0V400,阿公店,2025-01-31,22.804194,120.355528,0.1902195
C0R440,大漢山,2025-01-31,22.405264,120.753181,0.14837754
C0K280,四湖,2025-01-31,23.630414,120.227125,0.90421003
C1F9B1,桐林,2025-01-31,24.066172,120.735194,0.019923156
C2H9U0,鳳鵬,2025-01-31,23.763919,120.788061,0.31793064
C0K390,土庫,2025-01-31,23.679029,120.395574,0.018442523
C1I450,望鄉山,2025-01-31,23.594153,120.944286,0.17085215
C0E910,海埔,2025-01-31,24.648767,120.772435,0.04839376
B2E890,畜試北區分所,2025-01-31,24.527806,120.770972,0.17328306
C0R750,四林格山,2025-01-31,22.076989,120.802439,0.50442207
C0F0C0,中坑,2025-01-31,24.248517,120.903319,0.18870223
C1I121,大鞍,2025-01-31,23.678381,120.760017,0.3868266
72U480,花改蘭陽分場,2025-01-31,24.686306,121.716583,0.08757712
C0A770,科教館,2025-01-31,25.096356,121.516507,0.19553043
C0AJ60,六塊厝,2025-01-31,25.24,121.4481,0.038202953
C0R620,墾雷,2025-01-31,21.900836,120.855269,0.707964
467420,永康,2025-01-31,23.038386,120.2367,0.07611554
467300,東吉島,2025-01-31,23.25695,119.667467,0.053383797
C0I410,名間,2025-01-31,23.837053,120.701447,0.054029223
A2C560,農工中心,2025-01-31,24.985917,121.239833,0.014268112
C0V740,旗山,2025-01-31,22.888614,120.483597,0.41862062
C0Z061,玉里,2025-01-31,23.3215,121.339656,0.9813273
C0S840,南田,2025-01-31,22.279725,120.889208,0.9987462
C1I470,杉林溪,2025-01-31,23.639517,120.786444,0.39228368
C1X040,東原,2025-01-31,23.291597,120.463822,0.037287086
C0R660,枋寮,2025-01-31,22.367722,120.590647,0.9595022
C1R120,上德文,2025-01-31,22.763272,120.704442,0.21461195
C0K450,大埤,2025-01-31,23.646074,120.431537,0.05336476
C0UA00,土場,2025-01-31,24.576533,121.495333,0.92772317
467080,宜蘭,2025-01-31,24.763975,121.756528,0.27890536
C0N030,四草,2025-01-31,23.0235,120.1116,0.02962984
C0V650,彌陀,2025-01-31,22.783806,120.246361,0.84420526
C0D660,新竹市東區,2025-01-31,24.798681,120.986942,0.08560144
82S580,茶改東部分場,2025-01-31,22.907694,121.130139,0.6396201
C0SB40,興隆,2025-01-31,22.913661,121.257469,0.78661394
C0C710,大溪永福,2025-01-31,24.892936,121.324975,0.036886282
C0FA20,溫寮,2025-01-31,24.372177,120.583125,0.3058369
C0V640,湖內,2025-01-31,22.887139,120.2445,0.03251387
C0R910,下寮,2025-01-31,22.3929,120.5548,0.9595022
C0Z020,明里,2025-01-31,23.208717,121.262342,0.94829583
C0M770,嘉義梅山,2025-01-31,23.585398,120.555587,0.12953712
G2F820,農業試驗所,2025-01-31,24.031261,120.688133,0.03231766
C0C660,楊梅,2025-01-31,24.912375,121.143047,0.020417525
C1E511,新開,2025-01-31,24.347703,120.827019,0.013903209
G2F820,農試所(霧峰),2025-01-31,24.031261,120.688133,0.03231766
C1I070,和社,2025-01-31,23.591131,120.888861,0.23764937
C2F000,大肚,2025-01-31,24.15295,120.572117,0.020113705
C1S850,豐南,2025-01-31,23.122139,121.262389,0.6174928
C2A920,富貴角,2025-01-31,25.263783,121.565258,0.04384766
CAH030,茶改場竹圍站,2025-01-31,23.860083,120.637528,0.16797617
C0T960,光復,2025-01-31,23.660694,121.424964,0.4392394
C0F9M0,豐原,2025-01-31,24.254322,120.720692,0.015280668
C0R720,旭海,2025-01-31,22.205403,120.887614,0.62000066
C0V710,苓雅,2025-01-31,22.622742,120.330669,0.97383946
C0C740,觀音工業區,2025-01-31,25.064764,121.114856,0.014681785
CAC040,拉拉山,2025-01-31,24.699317,121.427133,0.7694365
C0V790,萬山,2025-01-31,22.905944,120.688056,0.49015877
U2HA30,臺大和社,2025-01-31,23.590856,120.888864,0.23764937
C0AJ90,澳底,2025-01-31,25.0552,121.9253,0.028045475
C0Z100,東華,2025-01-31,23.89525,121.549833,0.9987835
C0G970,三豐,2025-01-31,23.882,120.2895,0.108215496
V2K610,大庄合作社,2025-01-31,23.8068,120.367939,0.01805307
C0V900,汕尾,2025-01-31,22.4782,120.4151,0.96008134
C1R630,龍泉,2025-01-31,22.66701,120.59091,0.9837144
C1AC50,關渡,2025-01-31,25.133486,121.469331,0.023779918
C0F9I0,神岡,2025-01-31,24.272481,120.658314,0.017216569
C0K460,斗南,2025-01-31,23.678734,120.478359,0.052007418
467410,臺南,2025-01-31,22.993239,120.204772,0.02911021
C2O810,曾文,2025-01-31,23.219681,120.497328,0.01579937
467280,後龍,2025-01-31,24.648563,120.831834,0.051178105
C1F9J1,清水林,2025-01-31,24.071242,120.820419,0.07150812
C2A650,火燒寮,2025-01-31,25.002719,121.742892,0.07705319
466930,竹子湖,2025-01-31,25.162078,121.544547,0.1207155
C1I220,樟湖,2025-01-31,23.905333,120.846983,0.22582209
C0I390,仁愛,2025-01-31,24.022122,121.132206,0.23861788
C0Z300,東里,2025-01-31,23.26853,121.30547,0.9570301
C0V310,美濃,2025-01-31,22.898742,120.519153,0.45012927
C1V590,新發,2025-01-31,23.057019,120.646064,0.55430585
C0K510,水林,2025-01-31,23.572924,120.24597,0.019503051
72S590,東改賓朗果園,2025-01-31,22.813889,121.071278,0.4100867
82A750,茶改北部分場,2025-01-31,24.955778,121.631222,0.10357333
C1A750,石碇服務區,2025-01-31,25.00872,121.646242,0.07479433
C0X300,鹿寮,2025-01-31,23.386047,120.477331,0.025743369
G2AI50,關渡,2025-01-31,25.11575,121.492,0.013091125
C0K590,雲林東勢,2025-01-31,23.674192,120.255721,0.020233294
C0A570,桶後,2025-01-31,24.848222,121.597992,0.11756023
C1S800,華源,2025-01-31,22.657883,121.02325,0.7614465
C0G720,溪州,2025-01-31,23.851589,120.499093,0.0133443205
C1V160,達卡努瓦,2025-01-31,23.279811,120.705319,0.15282275
C2M410,馬頭山,2025-01-31,23.324361,120.582017,0.03808198
C0V850,蚵仔寮,2025-01-31,22.7256,120.2527,0.9798516
C0S740,池上,2025-01-31,23.119628,121.209469,0.33623114
C1V390,尖山,2025-01-31,22.813153,120.367789,0.15827598
C0AH70,松山,2025-01-31,25.04871,121.55042,0.19504136
C0N010,鯤鯓國小,2025-01-31,23.1879,120.0889,0.015037558
C0R550,新埤,2025-01-31,22.467947,120.582894,0.95740575
C0SA60,知本（水試所）,2025-01-31,22.702394,121.082761,0.78796965
C0T9I0,豐濱,2025-01-31,23.583897,121.514806,0.55460936
C0UB00,淡江大學蘭陽校園,2025-01-31,24.823239,121.730383,0.12237564
C0W240,九宮,2025-01-31,24.423753,118.240186,0.08452769
C0T9N0,富里,2025-01-31,23.171639,121.249378,0.35275617
U2HA50,臺大竹山,2025-01-31,23.756972,120.681556,0.1344662
C0V840,鳳鼻頭,2025-01-31,22.5083,120.3591,0.9364826
C0X140,西港,2025-01-31,23.125608,120.203108,0.08184571
72D080,桃改五峰分場,2025-01-31,24.612194,121.157167,0.10710625
C2H9P0,伊拿谷,2025-01-31,23.963211,121.088264,0.31994635
C2H9F0,柑林,2025-01-31,24.018658,120.847072,0.027749453
C0TA20,加灣,2025-01-31,24.082025,121.608944,0.9744814
C0V530,阿蓮,2025-01-31,22.883208,120.327508,0.062043466
C1O880,關山,2025-01-31,23.173397,120.594092,0.0803259
C0E791,卓蘭,2025-01-31,24.3126,120.8244,0.018051082
C1I030,武界,2025-01-31,23.913225,121.052483,0.30129182
C0R520,崁頂,2025-01-31,22.514781,120.506914,0.96643496
C0R341,牡丹,2025-01-31,22.130036,120.792639,0.35714412
C0R930,萬丹,2025-01-31,22.5885,120.4851,0.93904126
C0S760,紅石,2025-01-31,23.069131,121.126219,0.77539945
C1M610,石磐龍,2025-01-31,23.496606,120.663506,0.13383517
C0UA10,鴛鴦湖,2025-01-31,24.590269,121.412228,0.33727908
V2C260,八德蔬果,2025-01-31,24.978508,121.281819,0.0133926105
C0R800,丹路,2025-01-31,22.204481,120.750989,0.49511972
C0G920,永靖,2025-01-31,23.924703,120.547533,0.0164669
C2M950,太和,2025-01-31,23.538372,120.702961,0.13507639
C1A630,下盆,2025-01-31,24.771003,121.538622,0.15937214
B2N890,畜產試驗所,2025-01-31,23.058972,120.336406,0.048040643
C0UA30,白嶺,2025-01-31,24.527819,121.519031,0.85844344
C1V580,溪南(特生中心),2025-01-31,23.084972,120.788475,0.17634824
C1T970,大農,2025-01-31,23.615233,121.413331,0.54790986
E2S960,林試太麻里2,2025-01-31,22.598014,120.989761,0.86880094
C0R650,竹田,2025-01-31,22.58486,120.54344,0.9852503
C1H900,清流,2025-01-31,24.080775,120.962997,0.09329382
C1C510,水尾,2025-01-31,24.940081,121.087161,0.01743889
C0F9X0,大雅(中科園區),2025-01-31,24.21528,120.62445,0.0109886015
C0SB60,白守蓮,2025-01-31,23.126769,121.401914,0.6684492
C0O970,虎頭埤,2025-01-31,23.021375,120.347878,0.030979587
C0C730,中大臨海站,2025-01-31,24.966126,121.008581,0.0130649125
C0X250,新營,2025-01-31,23.310689,120.316681,0.029760322
C0V700,三民,2025-01-31,22.645017,120.311233,0.97101486
C0U870,大礁溪,2025-01-31,24.791042,121.675047,0.1579378
C0E870,高鐵苗栗,2025-01-31,24.60725,120.826094,0.049987927
A2K570,古坑花卉中心,2025-01-31,23.63353,120.55239,0.1241526
C0M860,新美,2025-01-31,23.338017,120.683169,0.09614052
C1E701,八卦,2025-01-31,24.491756,120.927619,0.037426326
C0I420,國姓,2025-01-31,24.037803,120.855072,0.02773751
C2D720,關西工作站,2025-01-31,24.757275,121.184792,0.1218771
C0S960,香蘭,2025-01-31,22.587569,120.993375,0.86880094
C0R260,春日,2025-01-31,22.370361,120.628306,0.95585847
72G600,臺中農改場,2025-01-31,24.003028,120.534389,0.025744038
C0Z210,瑞穗,2025-01-31,23.5239,121.39021,0.9503268
C0M820,達邦,2025-01-31,23.453994,120.749517,0.114406385
C0V860,南寮,2025-01-31,22.7616,120.2339,0.9798554
C0G740,大城,2025-01-31,23.852487,120.320935,0.10684248
C0R920,塭仔,2025-01-31,22.4169,120.5197,0.9594587
C0R470,高樹,2025-01-31,22.826389,120.600806,0.47778282
C0R680,佳樂水,2025-01-31,21.993578,120.861633,0.40379995
C1O870,大棟山,2025-01-31,23.31157,120.52226,0.08927878
C0D360,梅花,2025-01-31,24.678347,121.208558,0.04407406
C0Z190,富世,2025-01-31,24.14743,121.6297,0.9278274
C0AI10,屈尺,2025-01-31,24.92184,121.54475,0.091599144
B2U990,畜試東區分所,2025-01-31,24.669039,121.832561,0.024687503
C0SB80,長濱漁港,2025-01-31,23.313644,121.459994,0.98930275
C0R240,來義,2025-01-31,22.527306,120.625111,0.9458425
C0V910,大樹,2025-01-31,22.684645,120.432803,0.9350074
C1R610,西大武山,2025-01-31,22.617719,120.7322,0.84749436
C0G900,線西,2025-01-31,24.143358,120.443536,0.041956853
C0M700,竹崎,2025-01-31,23.526178,120.555508,0.137055
C2E880,三義,2025-01-31,24.405478,120.749819,0.017512362
C0C720,竹圍,2025-01-31,25.112692,121.239824,0.013083007
C0F9P0,清水,2025-01-31,24.312297,120.562242,0.25035945
C0Z150,吉安光華,2025-01-31,23.930925,121.595153,0.99816453
C1D640,外坪(五指山),2025-01-31,24.644447,121.090961,0.08739918
C0F9O0,潭子,2025-01-31,24.213106,120.703933,0.015073612
C2H9R0,卓社,2025-01-31,23.887894,121.000086,0.2870806
72T250,花蓮農改場,2025-01-31,23.975222,121.563889,0.9931684
C0E780,銅鑼,2025-01-31,24.489681,120.790853,0.1929486
C1T950,太安,2025-01-31,23.666719,121.370128,0.95049626
C0E830,苑裡,2025-01-31,24.439714,120.653053,0.346517
467270,田中,2025-01-31,23.873803,120.581286,0.04666342
C0SA10,檳榔四格山,2025-01-31,22.810031,121.109308,0.37223962
C1T830,布洛灣,2025-01-31,24.17184,121.57127,0.9930172
C0F970,大坑,2025-01-31,24.173142,120.722289,0.01927217
C1U920,思源,2025-01-31,24.393125,121.347214,0.2816551
C0A931,三和,2025-01-31,25.233153,121.595236,0.078622244
C0I010,廬山,2025-01-31,24.033311,121.181808,0.18930984
C2M940,日野賀,2025-01-31,23.434056,120.727169,0.11540317
C0R860,鼻頭,2025-01-31,22.1043,120.8979,0.40411612
C0UB20,壯圍,2025-01-31,24.7359,121.8163,0.09040116
C0R790,九棚,2025-01-31,22.14195,120.889281,0.31696862
C0W110,東莒,2025-01-31,25.9652,119.98069,0.09854546
C1U930,粉鳥林,2025-01-31,24.497088,121.842479,0.055526465
C1I211,蘆竹湳,2025-01-31,23.934019,120.811994,0.15142192
C0S830,長濱,2025-01-31,23.286817,121.411975,0.9727839
C1F9F1,伯公龍,2025-01-31,24.272392,120.849047,0.15736865
C0E810,西湖,2025-01-31,24.562947,120.7485,0.23181939
C1I440,新高口,2025-01-31,23.478744,120.878939,0.1428061
C0O840,王爺宮,2025-01-31,23.222064,120.40085,0.015302798
C0T9G0,鳳林山,2025-01-31,23.735269,121.420131,0.5722787
C0X080,佳里,2025-01-31,23.173039,120.145086,0.015037558
C0FB70,大甲溪埔,2025-01-31,24.370625,120.620067,0.32039246
C0Z310,清水斷崖,2025-01-31,24.218294,121.689142,0.68613434
C0M680,太保,2025-01-31,23.455062,120.331455,0.02792015
C1S820,金峰,2025-01-31,22.590969,120.933236,0.85587066
C0AD10,八里,2025-01-31,25.150211,121.403947,0.013083007
C2K240,草嶺,2025-01-31,23.59555,120.693461,0.24086455
C1SA70,都蘭,2025-01-31,22.87794,121.226881,0.78661394
C0K440,二崙,2025-01-31,23.772797,120.408944,0.016901359
C1A760,坪林交控,2025-01-31,24.94284,121.713442,0.119792394
C0F9N0,大里,2025-01-31,24.092464,120.701378,0.020355064
C0SA90,達仁林場,2025-01-31,22.264347,120.823972,0.5639406
C1R290,石門山,2025-01-31,22.112611,120.756597,0.39036205
42HA10,萬大發電廠,2025-01-31,23.978875,121.139639,0.22480011
C0R890,山海,2025-01-31,21.9878,120.7091,0.030560937
C0T9A0,月眉山,2025-01-31,23.809928,121.539828,0.8817154
C0AC70,信義,2025-01-31,25.037822,121.564597,0.19504136
C0K560,棋山,2025-01-31,23.68645,120.603417,0.12285242
C2FB50,出雲,2025-01-31,24.206469,120.902794,0.18106653
C1Z240,中平林道,2025-01-31,23.42115,121.26763,0.949426
U2H480,溪頭,2025-01-31,23.670306,120.798194,0.24637473
C0M880,好美里,2025-01-31,23.3364,120.138,0.014130623
C0T9E0,大坑,2025-01-31,23.880628,121.581981,0.9945396
C0K530,臺西,2025-01-31,23.701547,120.197559,0.92780006
C1E900,國一N128K,2025-01-31,24.560997,120.844186,0.10902315
C0AJ50,水湳洞,2025-01-31,25.123695,121.862238,0.036418725
C0AI20,白沙灣,2025-01-31,25.283128,121.519058,0.03884846
C0A860,大坪,2025-01-31,25.165914,121.632969,0.111258455
C1U850,觀音海岸,2025-01-31,24.38319,121.77856,0.600132
C2K610,草嶺石壁,2025-01-31,23.602469,120.707731,0.24342018
C0U950,鶯子嶺,2025-01-31,24.89754,121.79244,0.18287636
C0O900,善化,2025-01-31,23.112883,120.297219,0.043812934
C0K550,蔦松,2025-01-31,23.514319,120.229736,0.018858735
E2P980,林試六龜中心,2025-01-31,22.991703,120.645722,0.6402538
C0E590,通霄,2025-01-31,24.471892,120.704622,0.6424656
C1I310,西巒,2025-01-31,23.754486,120.883956,0.14229505
C0A550,泰平,2025-01-31,24.971197,121.823711,0.16803558
C0I360,水里,2025-01-31,23.812553,120.849792,0.37235367
C0R830,高士,2025-01-31,22.121825,120.836781,0.41681102
C1I101,溪頭,2025-01-31,23.661789,120.807647,0.42759198
C0AJ20,野柳,2025-01-31,25.20703,121.690021,0.060540225
C0B060,暖暖,2025-01-31,25.0957,121.7403,0.07041131
C1H920,長豐,2025-01-31,24.102039,120.879897,0.11285467
C0V360,內門,2025-01-31,22.975481,120.466769,0.033082437
C0R850,林邊,2025-01-31,22.4634,120.5339,0.95938736
C0E930,龍鳳,2025-01-31,24.700034,120.859125,0.044364702
C0U910,冬山,2025-01-31,24.63373,121.7937,0.024687503
C1E721,泰安,2025-01-31,24.489017,120.968036,0.090834886
82H320,茶改中部分場,2025-01-31,23.875611,120.913583,0.25101638
C0M750,布袋,2025-01-31,23.380878,120.167789,0.018455457
C1S860,利嘉,2025-01-31,22.809417,121.050528,0.7165922
72C440,桃園農改,2025-01-31,24.950944,121.030583,0.016846998
E2S980,林試太麻里1,2025-01-31,22.598922,120.980044,0.8632416
C0X170,關廟,2025-01-31,22.963017,120.327797,0.048998658
C0V720,林園,2025-01-31,22.507747,120.394511,0.93409383
C1I510,線浸林道,2025-01-31,23.761508,120.832956,0.17085528
C0D690,外湖,2025-01-31,24.917735,120.968711,0.01636243
C0C750,新興坑尾,2025-01-31,25.0061,121.0971,0.013547715
B2Q810,畜試南區分所,2025-01-31,21.945583,120.802167,0.37767464
C0S790,金崙,2025-01-31,22.538122,120.966875,0.93137515
C0AH90,福山植物園,2025-01-31,24.760717,121.58135,0.5404802
C0I540,奇萊稜線,2025-01-31,24.109231,121.326456,0.20087488
C0M850,表湖,2025-01-31,23.24186,120.64166,0.16805084
C0S770,大溪山,2025-01-31,22.478475,120.943325,0.9537754
C0AG80,中和,2025-01-31,24.991622,121.491792,0.273274
C0T790,大禹嶺,2025-01-31,24.186117,121.316086,0.1403269
C0T9B0,水源,2025-01-31,23.991861,121.537169,0.96613246
C0R840,牡丹池山,2025-01-31,22.168389,120.841225,0.95371103
C1I131,桶頭,2025-01-31,23.641944,120.654117,0.13057718
CAL110,布袋國中,2025-01-31,23.35893,120.18026,0.01843698
467571,新竹,2025-01-31,24.827853,121.014219,0.030154258
C0Z290,赤柯山,2025-01-31,23.36893,121.38293,0.9364728
C0X280,將軍,2025-01-31,23.214999,120.13577,0.014329129
C0S690,太麻里,2025-01-31,22.60902,120.98533,0.7842724
C0U880,北關,2025-01-31,24.9072,121.8734,0.11013883
C1H860,瑞岩,2025-01-31,24.123772,121.18345,0.118971184
C0G810,埔心,2025-01-31,23.947633,120.525456,0.016481683
C0U970,大福,2025-01-31,24.80064,121.81389,0.2847502
C2H9N0,仁愛東眼,2025-01-31,24.026875,121.1205,0.19447292
C1E670,南礦,2025-01-31,24.538278,121.002836,0.17319465
C0M520,東後寮,2025-01-31,23.369908,120.248065,0.018368099
C1E461,松安,2025-01-31,24.397972,120.986022,0.14687364
72G600,臺中農改,2025-01-31,24.003028,120.534389,0.025744038
C2N160,西拉雅風管處,2025-01-31,23.189481,120.335297,0.024272991
C2M970,碧湖,2025-01-31,23.568632,120.624165,0.23717575
C0A640,石碇,2025-01-31,24.993969,121.662917,0.06635764
E2S960,林試太麻里2,2025-01-31,22.598,120.99775,0.8698256
C0F9Y0,桃山,2025-01-31,24.432739,121.303808,0.3016167
C1I020,萬大,2025-01-31,23.979817,121.132261,0.23660247
C0U940,羅東,2025-01-31,24.68184,121.74934,0.087916
C0M650,朴子,2025-01-31,23.43463,120.23902,0.025231535
C1I500,大尖山,2025-01-31,23.858572,120.994889,0.24070291
C0G820,田尾,2025-01-31,23.901669,120.509389,0.016481683
E2K600,四湖植物園,2025-01-31,23.676986,120.163433,0.90421003
C0S730,綠島,2025-01-31,22.6672,121.47533,0.012629592
12Q970,東港工作站,2025-01-31,22.479997,120.466058,0.96008134
C0E430,南庄,2025-01-31,24.601775,121.000214,0.04047287
C1TA00,太魯閣,2025-01-31,24.15773,121.6236,0.92992085
466920,臺北,2025-01-31,25.037658,121.514853,0.19504136
C0R600,舊泰武,2025-01-31,22.588194,120.664944,0.3550158
C1I260,北坑,2025-01-31,23.9246,121.006903,0.14407046
466910,鞍部,2025-01-31,25.182586,121.529731,0.1392223
C1I230,九份二山,2025-01-31,23.961944,120.845,0.3764534
C2A660,瑞芳,2025-01-31,25.113169,121.801147,0.036883395
C0R270,琉球嶼,2025-01-31,22.332244,120.362236,0.031062074
C1T990,高寮,2025-01-31,23.394239,121.356808,0.99078035
C0G620,芬園,2025-01-31,24.015678,120.6213,0.03188489
C1Z140,荖溪,2025-01-31,23.890575,121.45964,0.90875846
C1I201,中心崙,2025-01-31,23.728722,120.712097,0.22837609
C1I400,凌霄,2025-01-31,24.018778,121.004456,0.19697222
C1M640,十字,2025-01-31,23.492153,120.753683,0.17803214
G2P820,農試鳳山分所,2025-01-31,22.646611,120.356083,0.9694159
C0Z270,蕃薯寮,2025-01-31,23.73835,121.540108,0.61930376
C0F9Q0,外埔,2025-01-31,24.347817,120.705686,0.074706286
C0K580,高鐵雲林,2025-01-31,23.737456,120.417944,0.019918293
C2I090,鳳凰,2025-01-31,23.728081,120.787347,0.11127631
C0U990,員山,2025-01-31,24.74435,121.72247,0.08992886
C0V770,大社,2025-01-31,22.730306,120.346639,0.97740906
C0X120,麻豆,2025-01-31,23.183289,120.248611,0.069257244
C0C670,龍潭,2025-01-31,24.870056,121.221389,0.0627254
C0D680,香山濕地,2025-01-31,24.783581,120.914988,0.09218941
C0S980,勝林山,2025-01-31,22.430439,120.8938,0.5503582
C0V730,大寮,2025-01-31,22.605614,120.395717,0.9729971
C0R570,麟洛,2025-01-31,22.65078,120.52719,0.84590834
C2M930,石卓,2025-01-31,23.478744,120.702264,0.13405298
C0G9B0,和美,2025-01-31,24.105169,120.492131,0.020076534
CAG100,王功漁港,2025-01-31,23.96824,120.32586,0.04454217
C0X290,北門,2025-01-31,23.267772,120.125481,0.014329121
C2F930,大甲,2025-01-31,24.347667,120.640403,0.36088702
C0D650,湖口,2025-01-31,24.904794,121.043628,0.017431913
C0E420,竹南,2025-01-31,24.708978,120.888897,0.04637841
C0U780,五結,2025-01-31,24.68637,121.79794,0.09040116
C1I250,鯉潭,2025-01-31,23.961922,120.991131,0.45382956
C0R130,阿禮,2025-01-31,22.742908,120.743678,0.1866118
C0X100,臺南市北區,2025-01-31,23.010394,120.194228,0.029571211
C0S920,金峰嘉蘭,2025-01-31,22.594789,120.960825,0.8634202
C0V490,新興,2025-01-31,22.627422,120.298803,0.97383946
C0F9K0,大安,2025-01-31,24.345061,120.588025,0.31640974
72N100,臺南農改,2025-01-31,23.0605,120.342194,0.048040643
467290,古坑,2025-01-31,23.633639,120.551889,0.1241526
C2E970,八甲,2025-01-31,24.535811,120.795983,0.12144527
C0V440,鳳山,2025-01-31,22.646653,120.356122,0.96941596
C1T940,大觀,2025-01-31,23.714206,121.373133,0.5854601
72T250,花蓮農改,2025-01-31,23.975222,121.563889,0.9931684
C0E740,造橋,2025-01-31,24.637056,120.864778,0.049700655
C0R100,尾寮山,2025-01-31,22.833111,120.683889,0.14810543
A2K630,臺大雲林校區,2025-01-31,23.730628,120.423903,0.019903636
C0D580,寶山,2025-01-31,24.735006,121.025192,0.036942624
E2P990,林試扇平站,2025-01-31,22.9677,120.6857,0.7238285
C0AI30,三重,2025-01-31,25.057328,121.500629,0.19553043
C0AH00,汐止,2025-01-31,25.066881,121.658778,0.19504136
C1Z040,立山,2025-01-31,23.443356,121.327375,0.9824574
C0W130,花嶼,2025-01-31,23.40007,119.32276,0.061678126
C0A950,鼻頭角,2025-01-31,25.129036,121.923372,0.08898873
C0K470,林內,2025-01-31,23.748675,120.609642,0.1434658
C2F990,摩天嶺,2025-01-31,24.322458,120.936819,0.19282095
82C160,茶改場,2025-01-31,24.908472,121.185333,0.021575551
C0Z320,清水林道,2025-01-31,23.27125,121.188272,0.974259
C0R760,南仁湖,2025-01-31,22.084681,120.863353,0.38994893
C0M670,大林,2025-01-31,23.600616,120.45841,0.031011174
C0M800,茶山,2025-01-31,23.299075,120.664767,0.10278565
C0A9C0,天母,2025-01-31,25.117494,121.537169,0.022477644
72K220,南改斗南分場,2025-01-31,23.634556,120.477333,0.05259723
72AI40,桃改樹林分場,2025-01-31,24.944503,121.386972,0.020340655
C0S910,蘭嶼燈塔,2025-01-31,22.081197,121.503117,0.7970723
C0B050,八斗子,2025-01-31,25.144754,121.79167,0.036354173
C0U900,內城,2025-01-31,24.71813,121.68766,0.08401316
C0X320,柳營,2025-01-31,23.253328,120.375253,0.01551092
C0M790,新港,2025-01-31,23.553269,120.345728,0.018312084
C0F9T0,西屯,2025-01-31,24.179494,120.641275,0.01600548
C0SA30,都歷,2025-01-31,23.020333,121.323642,0.81419027
C0C620,蘆竹,2025-01-31,25.084275,121.265767,0.012654811
C0R730,大坪頂,2025-01-31,22.024633,120.69355,0.9228791
C0AJ40,石門,2025-01-31,25.273672,121.601198,0.04281217
C0E750,苗栗,2025-01-31,24.564569,120.824575,0.1090706
C0T870,鯉魚潭,2025-01-31,23.935639,121.508944,0.99723506
C1V170,排雲,2025-01-31,23.463619,120.954147,0.1966813
C2H950,中寮,2025-01-31,23.884447,120.766406,0.054692674
C0R350,貓鼻頭,2025-01-31,21.921774,120.7358,0.9674366
C0V660,岡山,2025-01-31,22.797078,120.294958,0.8441684
C1H941,雙冬,2025-01-31,23.967378,120.802189,0.1437448
C0AJ70,田寮,2025-01-31,25.2698,121.4886,0.038841445
C0AI00,五股,2025-01-31,25.07445,121.42728,0.010480607
C0Z280,德武,2025-01-31,23.47426,121.41071,0.9592104
C0R700,枋山,2025-01-31,22.246844,120.661086,0.9762377
C0C460,復興,2025-01-31,24.820208,121.352281,0.13535234
E2H360,蓮華池,2025-01-31,23.918333,120.885278,0.13304625
C0M640,中埔,2025-01-31,23.42538,120.5229,0.053047873
C0W140,金沙,2025-01-31,24.488292,118.408778,0.031558897
C2A540,四堵,2025-01-31,24.8926,121.745736,0.12420934
C0ACA0,新莊,2025-01-31,25.051478,121.446756,0.031979155
C0R220,潮州,2025-01-31,22.534361,120.54,0.9650928
U2HA40,臺大內茅埔,2025-01-31,23.689722,120.851117,0.19132607
467490,臺中,2025-01-31,24.145736,120.684075,0.01935122
C0U960,翠峰湖,2025-01-31,24.510856,121.608044,0.7622536
E2HA20,林試畢祿溪站,2025-01-31,24.226944,121.308522,0.13651416
C0V890,前鎮,2025-01-31,22.5718,120.3117,0.9748953
467620,蘭嶼,2025-01-31,22.036969,121.558339,0.9086757
C1F941,雪嶺,2025-01-31,24.280586,121.026642,0.17530863
C2H9E0,國姓南港,2025-01-31,23.911108,120.846556,0.21831319
C0AC80,文山,2025-01-31,25.00235,121.575728,0.24423271
C0F9R0,龍井,2025-01-31,24.184536,120.528972,0.10933459
C0M760,民雄,2025-01-31,23.551754,120.428457,0.03064338
C0UA40,西德山,2025-01-31,24.560647,121.752608,0.57885164
C1T920,中興,2025-01-31,23.769503,121.498653,0.93623126
C0D550,雪霸,2025-01-31,24.526972,121.11605,0.12589061
C2F860,梨山,2025-01-31,24.247522,121.243669,0.13699894
C0R320,車城,2025-01-31,22.0744,120.716247,0.9451822
C1S870,南美山,2025-01-31,23.15025,121.382333,0.35848707
C0B020,基隆嶼,2025-01-31,25.19141,121.78391,0.07993558
C1U501,牛鬥,2025-01-31,24.637836,121.573656,0.14021732
C0M730,嘉義市東區,2025-01-31,23.457673,120.460531,0.052671153
C0S700,知本,2025-01-31,22.684866,121.005642,0.62031776
C1N001,沙崙,2025-01-31,22.935472,120.309406,0.050289772
C0V760,橋頭,2025-01-31,22.757806,120.30575,0.9784415
C0G960,福寶,2025-01-31,24.0443,120.3814,0.019308988
C0X210,白河,2025-01-31,23.347466,120.414427,0.025934586
C0S810,東河,2025-01-31,22.972672,121.303986,0.981311
C2R170,屏東,2025-01-31,22.66027,120.49403,0.84590834
C0R670,楓港,2025-01-31,22.190131,120.692156,0.93715996
C0FA50,霧峰,2025-01-31,24.0419,120.6995,0.03177506
C0UB10,蘇澳,2025-01-31,24.5969,121.8571,0.11862248
C0G950,防潮門,2025-01-31,24.1835,120.4871,0.10952655
C0M740,六腳,2025-01-31,23.492871,120.290625,0.020607073
C1R250,力里,2025-01-31,22.428117,120.629228,0.944402
C0K330,虎尾,2025-01-31,23.719183,120.442036,0.02018226
C2FA00,烏石坑,2025-01-31,24.273503,120.947617,0.19011828
C0V620,永安,2025-01-31,22.82315,120.236856,0.84420526
C1I330,楓樹林,2025-01-31,23.986803,121.076117,0.21636994
C0W200,湖西,2025-01-31,23.596314,119.67275,0.04531427
72Q010,高雄農改場,2025-01-31,22.709333,120.525889,0.76012397
C0SA40,瑞和,2025-01-31,22.974361,121.156697,0.66081876
C0C680,龜山,2025-01-31,25.02846,121.38656,0.010511301
C2V260,月眉,2025-01-31,22.971003,120.539853,0.80868787
C0V450,鳳森,2025-01-31,22.545064,120.392592,0.8975401
C0U720,南山,2025-01-31,24.43742,121.38167,0.84215415
A2N290,臺南蘭花園區,2025-01-31,23.340258,120.379661,0.029398847
C0R560,新園,2025-01-31,22.5434,120.461558,0.93409383
C0U890,三星,2025-01-31,24.66812,121.65302,0.13456264
C1V300,御油山,2025-01-31,23.001983,120.715364,0.23982929
C0U600,礁溪,2025-01-31,24.817539,121.765608,0.073249996
C1T980,龍澗,2025-01-31,24.023289,121.411328,0.94546914
C0D670,海天一線,2025-01-31,24.831986,120.914438,0.096183956
C0SA00,歷坵,2025-01-31,22.520969,120.89185,0.9169563
C0M710,東石,2025-01-31,23.458927,120.15385,0.019000567
C0M780,鹿草,2025-01-31,23.41134,120.30835,0.02553328
C0U520,雙連埤,2025-01-31,24.753033,121.641303,0.15797676
C0B010,七堵,2025-01-31,25.094819,121.71713,0.068626374
C0R480,長治,2025-01-31,22.693128,120.542622,0.92478925
C1V830,國三S383K,2025-01-31,22.781967,120.426475,0.11671169
12Q980,恆春工作站,2025-01-31,22.079678,120.714425,0.94518214
C1O940,東山服務區,2025-01-31,23.286016,120.398472,0.014671664
C1U840,東澳嶺,2025-01-31,24.5378,121.8485,0.14848875
C1D630,飛鳳山,2025-01-31,24.766464,121.119178,0.13048446
C0S940,石寧山,2025-01-31,23.223772,121.406639,0.9629109
C0K410,北港,2025-01-31,23.573957,120.292802,0.020414852
C2M620,瑞里,2025-01-31,23.545133,120.675197,0.13481478
C0SB70,小港漁港,2025-01-31,23.158558,121.400431,0.47924975
C2O950,安南,2025-01-31,23.076694,120.144861,0.011020809
C0F0E0,南湖圈谷,2025-01-31,24.363714,121.444667,0.27111605
467610,成功,2025-01-31,23.097486,121.373428,0.6062449
C0G890,伸港,2025-01-31,24.148933,120.484403,0.041827787
C2E540,龍溪,2025-01-31,24.606489,120.783933,0.04962909
C1V200,梅山,2025-01-31,23.268447,120.823556,0.30229348
C0T9H0,加路蘭山,2025-01-31,23.682947,121.5274,0.59529305
C2O930,玉井,2025-01-31,23.126042,120.46055,0.021116557
C1F911,新伯公,2025-01-31,24.221361,120.841069,0.06788064
C0R490,九如,2025-01-31,22.7405,120.490503,0.75602496
C0X200,左鎮,2025-01-31,23.056758,120.408522,0.031579968
C0SB50,叭嗡嗡,2025-01-31,23.047062,121.343223,0.87203217
C1F891,稍來,2025-01-31,24.265689,121.001142,0.15673617
72N240,七股研究中心,2025-01-31,23.081672,120.062894,0.011020179
C0C700,中壢,2025-01-31,24.977661,121.256375,0.013490494
C0M690,水上,2025-01-31,23.419734,120.388909,0.028336043
C0V690,鼓山,2025-01-31,22.623325,120.275575,0.97383946
C0O860,大內,2025-01-31,23.11885,120.36083,0.042520087
C0Z200,萬榮,2025-01-31,23.709219,121.420106,0.66414744
C0T9D0,和中,2025-01-31,24.26676,121.74103,0.5970484
C1O921,楠西,2025-01-31,23.183511,120.484083,0.015496175
C0AJ30,淡水觀海,2025-01-31,25.184591,121.408616,0.032416128
C0V810,左營,2025-01-31,22.67491,120.28491,0.97101486
C0UA70,桃源谷,2025-01-31,24.962606,121.888875,0.1765312
C0X130,官田,2025-01-31,23.193217,120.315422,0.024593225
C1H000,翠峰,2025-01-31,24.109397,121.205211,0.221375
C0UA90,石城,2025-01-31,24.980444,121.951214,0.06484044
C1E681,南勢山,2025-01-31,24.421669,120.923831,0.051399942
C0A9F0,內湖,2025-01-31,25.079422,121.57545,0.19504136
C0K291,宜梧,2025-01-31,23.536281,120.169329,0.018858744
C1K540,口湖,2025-01-31,23.585344,120.180517,0.875881
C0R780,滿州,2025-01-31,22.024403,120.839892,0.98931134
C0V870,文安,2025-01-31,22.8025,120.2164,0.85314894
C0U650,玉蘭,2025-01-31,24.675286,121.587061,0.25601292
C0R640,東港,2025-01-31,22.46247,120.44074,0.96008134
K2E360,苗栗農改,2025-01-31,24.495722,120.829111,0.1789349
C0AJ80,板橋,2025-01-31,25.0107,121.4489,0.2853215
C0S660,下馬,2025-01-31,23.150427,121.070312,0.90959835
C1H9B1,阿眉,2025-01-31,24.1263,120.994672,0.07013452
C0UA20,多加屯,2025-01-31,24.368614,121.373189,0.23252922
C0E730,頭份,2025-01-31,24.688247,120.912206,0.045753397
72V140,高改旗南分場,2025-01-31,22.857861,120.516667,0.45012927
C0K480,莿桐,2025-01-31,23.761192,120.502372,0.05049716
C0U980,坪林石牌,2025-01-31,24.86478,121.77396,0.130339
C0T900,西林,2025-01-31,23.8119,121.441458,0.9213064
C1I150,青雲,2025-01-31,23.793361,120.949378,0.1062009
467350,澎湖,2025-01-31,23.565503,119.563094,0.063679956
C0G800,埔鹽,2025-01-31,24.000394,120.431683,0.058687378
C0H960,草屯,2025-01-31,23.973672,120.68085,0.031728163
C1V780,多納林道,2025-01-31,22.888028,120.737917,0.18629564
C0E920,通霄漁港,2025-01-31,24.498589,120.673876,0.636798
C0Z330,安通山,2025-01-31,23.290728,121.348528,0.9469305
C0AH10,永和,2025-01-31,25.01125,121.508111,0.2855986
C0AK10,太平里,2025-01-31,25.134937,121.364899,0.013051085
C2G640,鹿港,2025-01-31,24.0753,120.430481,0.019308988
C1E890,國三N149K,2025-01-31,24.463414,120.680019,0.3799111
C1R110,口社,2025-01-31,22.770111,120.645222,0.97849953
C1M870,國三N285K,2025-01-31,23.550319,120.505833,0.13397607
467050,新屋,2025-01-31,25.006744,121.047486,0.013167711
C1E480,鳳美,2025-01-31,24.554803,121.034747,0.057918176
C0M530,奮起湖,2025-01-31,23.493903,120.699253,0.13500826
C0C590,觀音,2025-01-31,25.027072,121.153317,0.014916526
C0T9M0,靜浦,2025-01-31,23.455167,121.495028,0.9724892
C2H9M0,發祥,2025-01-31,24.154094,121.164517,0.05422907
C0AI40,石牌,2025-01-31,25.115597,121.513139,0.022749031
C1F871,上谷關,2025-01-31,24.203483,121.018644,0.18657812
C2H9G0,百勝,2025-01-31,24.051142,120.909361,0.08688365
C0G880,二水,2025-01-31,23.810742,120.6173,0.120134525
C0R940,加祿堂,2025-01-31,22.3363,120.6217,0.9744717
C0W220,北竿,2025-01-31,26.220358,119.974881,0.14820533
C0O960,崎頂,2025-01-31,22.959547,120.369317,0.043480568
C0S750,向陽,2025-01-31,23.248397,120.986133,0.25640762
C0T9F0,水璉,2025-01-31,23.797131,121.542514,0.9077631
C1M600,頭凍,2025-01-31,23.406364,120.603339,0.13582993
467660,臺東,2025-01-31,22.752211,121.154586,0.97098446
C1D380,新埔,2025-01-31,24.84745,121.03834,0.030515937
C2G980,田頭村,2025-01-31,23.8263,120.444175,0.016901359
C0V750,路竹,2025-01-31,22.854997,120.259439,0.031504754
C0N050,蚵寮,2025-01-31,23.301,120.1104,0.014034473
72M700,南改鹿草分場,2025-01-31,23.416869,120.283061,0.025231535
C1SA50,利嘉林道,2025-01-31,22.82325,121.009389,0.8041708
467550,玉山,2025-01-31,23.487614,120.959522,0.1561655
C0A940,金山,2025-01-31,25.223628,121.643967,0.06128289
C1V340,大津,2025-01-31,22.888322,120.645986,0.7957111
C0W180,七美,2025-01-31,23.219333,119.444892,0.24320906
C1F9C1,白冷,2025-01-31,24.182844,120.929889,0.069051355
K2E710,苗改生物防治研究中心,2025-01-31,24.422861,120.871833,0.013952044
C0N040,蘆竹溝,2025-01-31,23.2344,120.0961,0.014329129
C2W230,畜試所澎湖,2025-01-31,23.628342,119.513206,0.042635307
C0R880,後壁湖,2025-01-31,21.9457,120.7457,0.025288977
C1I280,埔中,2025-01-31,23.820778,120.642594,0.2870734
467790,墾丁雷達站,2025-01-31,21.948235,120.808028,0.6989913
C0W190,望安,2025-01-31,23.380564,119.494075,0.17627563
466881,新北,2025-01-31,24.9593,121.52,0.26879323
C0Z170,卓溪,2025-01-31,23.3443,121.3029,0.9883668
C0F850,東勢,2025-01-31,24.246428,120.833047,0.0199118
466900,淡水,2025-01-31,25.164889,121.448906,0.013051085
C0I370,魚池,2025-01-31,23.895703,120.94135,0.110693924
C0C630,大溪,2025-01-31,24.882853,121.265547,0.054088857
C0A520,山佳,2025-01-31,24.974944,121.402008,0.067496255
C0I110,竹山,2025-01-31,23.761225,120.688156,0.121310174
82H840,茶改南部分場,2025-01-31,23.762528,120.7405,0.30036542
C0G660,溪湖,2025-01-31,23.94835,120.479122,0.016529385
C1T800,洛韶,2025-01-31,24.204558,121.453956,0.94959813
C1T810,慈恩,2025-01-31,24.192044,121.388386,0.24303003
C1E451,象鼻,2025-01-31,24.368617,120.940228,0.12961987
C0AC60,三峽,2025-01-31,24.939025,121.369728,0.020531796
C0I490,萬大林道,2025-01-31,23.928228,121.091411,0.22023168
C1I290,豐丘,2025-01-31,23.668178,120.887417,0.24617787
C1I320,奧萬大,2025-01-31,23.952956,121.178556,0.257558
C2M910,嘉義大學,2025-01-31,23.471325,120.485903,0.05180171
C0U770,南澳,2025-01-31,24.44935,121.81022,0.19995083
C0A980,社子,2025-01-31,25.109508,121.469681,0.013078982
C0V800,六龜,2025-01-31,22.997889,120.633583,0.66882175
C1G9D0,國一S218K,2025-01-31,23.890641,120.493253,0.013193637
C0E570,白沙屯,2025-01-31,24.549447,120.696803,0.21629885
C2F9A0,中竹林,2025-01-31,24.103556,120.751061,0.048400126
C0FA40,臺中電廠,2025-01-31,24.2146,120.4907,0.10933459
C2G9A0,畜試所彰化,2025-01-31,23.86045,120.557964,0.04666342
C0H9C0,合歡山,2025-01-31,24.143442,121.272547,0.13652188
C0X060,下營,2025-01-31,23.22695,120.256261,0.03853076
G2M350,農試溪口農場,2025-01-31,23.58565,120.408111,0.031364035
C0U860,頭城,2025-01-31,24.85323,121.8308,0.06556818
C0R580,南州,2025-01-31,22.48591,120.50274,0.96008134
C0D430,峨眉,2025-01-31,24.6905,121.017189,0.033548065
C0G780,秀水,2025-01-31,24.03405,120.503869,0.02574402
72N100,臺南農改場,2025-01-31,23.0605,120.342194,0.048040643
C0S900,蘭嶼高中,2025-01-31,22.04909,121.51214,0.69490594
467540,大武,2025-01-31,22.355675,120.903789,0.8621123
C1F9W0,德基,2025-01-31,24.254783,121.190261,0.15382904
C1Z120,壽豐,2025-01-31,23.870853,121.508081,0.9987835
C0W160,烏坵,2025-01-31,24.9944,119.44956,0.057646595
C1I240,外大坪,2025-01-31,23.958697,120.917931,0.43669075
C1I550,國六W023K,2025-01-31,23.979067,120.867742,0.07182648
C0R870,興海,2025-01-31,21.9752,120.8439,0.37767464
C0R140,瑪家,2025-01-31,22.682903,120.686639,0.3739927
C0A530,坪林,2025-01-31,24.938183,121.70975,0.1229448
C0X260,後壁,2025-01-31,23.366358,120.362326,0.029398847
C0Z230,和平,2025-01-31,24.30717,121.77007,0.5941422
C0G770,福興,2025-01-31,24.041289,120.437669,0.058687378
C0H9A0,神木村,2025-01-31,23.532742,120.843667,0.17849994
C0I460,南投,2025-01-31,23.911469,120.687331,0.055245098
C0I480,梅峰,2025-01-31,24.085272,121.173572,0.13528891
C1V570,吉東,2025-01-31,22.85422,120.5454,0.41368958
C2D740,屯原,2025-01-31,24.067969,121.209389,0.1370749
C2A560,福山,2025-01-31,24.776203,121.502811,0.54688823
C0AH30,五分山,2025-01-31,25.07125,121.780794,0.08154154
C0FA10,松柏,2025-01-31,24.429115,120.617482,0.33281228
72S200,東改班鳩分場,2025-01-31,22.829528,121.077694,0.46617886
72HA00,中改埔里分場,2025-01-31,23.903208,120.963364,0.13795981
C2H9W0,大坪頂農水,2025-01-31,24.043122,120.932781,0.112023324
C0C650,平鎮,2025-01-31,24.897503,121.214636,0.026153889
C0S930,延平,2025-01-31,22.902581,121.084058,0.58081204
C0UA60,樟樹山,2025-01-31,24.41393,121.78325,0.84755707
C1S670,摩天,2025-01-31,23.199503,121.027,0.9115647
C0V630,茄萣,2025-01-31,22.906642,120.182608,0.032252546
466940,基隆,2025-01-31,25.133314,121.740475,0.0362877
C0X050,東河,2025-01-31,23.296598,120.385608,0.014595199
C0R770,保力,2025-01-31,22.071122,120.764111,0.65812665
G2L020,農試嘉義分所,2025-01-31,23.485028,120.473806,0.12566733
C0X240,關子嶺,2025-01-31,23.331169,120.508025,0.041655928
C0I380,集集,2025-01-31,23.828206,120.801467,0.37516704
466990,花蓮,2025-01-31,23.975128,121.613275,0.99374574
C1V220,小關山,2025-01-31,23.154217,120.813603,0.16758348
C1F9G1,慶福山,2025-01-31,24.180853,120.848378,0.17889617
C0Z250,瑞穗林道,2025-01-31,23.49284,121.30688,0.9608299
C0D590,新豐,2025-01-31,24.87068,120.97721,0.09542382
C0A870,五指山,2025-01-31,25.132153,121.608692,0.12599276
C0UA50,西帽山,2025-01-31,24.555361,121.802628,0.63341415
C0X160,仁德,2025-01-31,22.968258,120.257689,0.078822345
C1H971,六分寮,2025-01-31,23.92507,120.6378,0.052924953
C0W120,西嶼,2025-01-31,23.5626,119.468436,0.045315478
C0G650,員林,2025-01-31,23.946503,120.585597,0.0366209
C0AD50,鶯歌,2025-01-31,24.951533,121.346294,0.021047423
C2H9Q0,北東眼山,2025-01-31,24.120939,121.189303,0.12145857
C2H9T0,名間竹圍,2025-01-31,23.859914,120.637572,0.16797617
C0S990,山豬窟,2025-01-31,22.318619,120.857372,0.6791623
72Q010,高雄農改,2025-01-31,22.709333,120.525889,0.76012397
C0X190,安平,2025-01-31,22.993161,120.152181,0.029566215
C0K400,斗六,2025-01-31,23.720583,120.541127,0.049623318
12J990,口湖工作站,2025-01-31,23.589978,120.180394,0.8757972
C0O830,北寮,2025-01-31,23.079561,120.495008,0.07654934
C1D410,白蘭,2025-01-31,24.579364,121.079947,0.17567818
C0S970,加津林,2025-01-31,22.416211,120.926942,0.8673006
C0D700,關西,2025-01-31,24.7977,121.1732,0.122998044
C0M810,里佳,2025-01-31,23.389125,120.716647,0.14815518
C0U750,龜山島,2025-01-31,24.841667,121.953133,0.052594632
C0R810,內獅,2025-01-31,22.305064,120.642986,0.9746392
C1M390,龍美,2025-01-31,23.406728,120.654417,0.14230481
C2FB60,頭櫃山,2025-01-31,24.129842,120.858925,0.072037585
C1H840,國三N238K,2025-01-31,23.841008,120.707711,0.17845702
CAQ030,崎峰國小,2025-01-31,22.42565,120.49521,0.96008134
C2E520,大湖,2025-01-31,24.414939,120.870872,0.014436505
467530,阿里山,2025-01-31,23.508208,120.813242,0.21731627
C1E691,南湖,2025-01-31,24.40135,120.837533,0.040920477
C0FA30,梧棲,2025-01-31,24.256003,120.523381,0.25035945
C1V231,高中,2025-01-31,23.134911,120.716711,0.08935233
C0F9V0,新社,2025-01-31,24.200172,120.815806,0.06971234
C0H890,埔里,2025-01-31,23.972169,120.952425,0.06599839
C0R690,墾丁,2025-01-31,21.966756,120.810269,0.86896557
C0F0D0,審馬陣,2025-01-31,24.381675,121.4203,0.22489552
C0R820,白鷺,2025-01-31,22.454275,120.666219,0.2637982
U2H480,臺大溪頭,2025-01-31,23.670306,120.798194,0.24637473
C1V190,南天池,2025-01-31,23.27403,120.91176,0.21018964
K2E360,苗栗農改場,2025-01-31,24.495722,120.829111,0.1789349
CAJ050,海口故事園區,2025-01-31,23.57543,120.14121,0.87588114
C2H9D0,三隻寮,2025-01-31,24.093078,120.861578,0.10965614
C0O990,媽廟,2025-01-31,22.99175,120.293525,0.073588
C0D480,打鐵坑,2025-01-31,24.849664,121.150789,0.062898114
C0Z220,和平林道,2025-01-31,24.343922,121.656317,0.6070575
C0TA10,花蓮漁港,2025-01-31,23.995322,121.638331,0.99401104
72C440,桃園農改場,2025-01-31,24.950944,121.030583,0.016846998
C1E711,馬拉邦山,2025-01-31,24.367306,120.901656,0.13866472
C0SB20,富岡,2025-01-31,22.792467,121.192669,0.8256685
C0D560,竹東,2025-01-31,24.767147,121.057881,0.11727198
C0F9U0,南屯,2025-01-31,24.137006,120.637969,0.015090337
C0M720,番路,2025-01-31,23.464657,120.554156,0.058720488
C0F0A0,雪山圈谷,2025-01-31,24.388594,121.236339,0.21930802
C1A9N0,四十份,2025-01-31,24.934158,121.593283,0.051042743
C0U760,東澳,2025-01-31,24.52196,121.83318,0.056717575
C0X230,鹽水,2025-01-31,23.272621,120.247641,0.014216818
C2H9H0,苗改南投蜂場,2025-01-31,23.852589,120.693481,0.05407456
C0R950,萬隆國小,2025-01-31,22.507667,120.587817,0.95867425
C0V370,古亭坑,2025-01-31,22.893178,120.401947,0.028308885
C1I340,新興橋,2025-01-31,23.563333,120.868728,0.2311192
C0SA80,土坂,2025-01-31,22.453108,120.887572,0.95454055
C0R160,鹽埔,2025-01-31,22.739558,120.530778,0.76012397
C0AC40,大屯山,2025-01-31,25.175675,121.522408,0.15055755
466850,五分山雷達站,2025-01-31,25.071182,121.781205,0.081279926
C2H9L0,馬烈霸,2025-01-31,24.1512,121.201772,0.12135216
C1AI50,國三N016K,2025-01-31,25.034164,121.619664,0.18518648
C1V600,藤枝,2025-01-31,23.071961,120.757042,0.18083864
C1E601,南勢,2025-01-31,24.572486,120.734842,0.27873176
C0Z180,新城,2025-01-31,24.03946,121.60454,0.99347675
C0O980,新市,2025-01-31,23.061614,120.298197,0.043812957
C0K420,西螺,2025-01-31,23.800407,120.467394,0.017042786
C0Z050,佳心,2025-01-31,23.34567,121.21316,0.9491354
C0AD30,蘆洲,2025-01-31,25.086594,121.472331,0.19555221
C0V610,梓官,2025-01-31,22.760558,120.267211,0.9784415
K2F750,種苗改良場,2025-01-31,24.225972,120.800917,0.06844944
C0UA80,大溪漁港,2025-01-31,24.941801,121.902955,0.1128496
C1AI60,國一39K邊坡,2025-01-31,25.064361,121.383836,0.01048079
C0W150,金寧,2025-01-31,24.457703,118.328989,0.08741756
C0R960,內埔,2025-01-31,22.608483,120.570714,0.9847356
V2C250,八德合作社,2025-01-31,24.93775,121.266389,0.023824891
C2H9S0,龍南,2025-01-31,23.953536,120.833183,0.11153927
C0AH40,平等,2025-01-31,25.129142,121.577086,0.11432974
C0R540,佳冬,2025-01-31,22.419456,120.552375,0.9595022
466950,彭佳嶼,2025-01-31,25.627975,122.079744,0.048604507
C0A890,雙溪,2025-01-31,25.036003,121.864242,0.028555421
C0C480,桃園,2025-01-31,24.992425,121.323172,0.013414326
C0AH50,林口,2025-01-31,25.072181,121.38084,0.0105722295
A2K360,水試臺西試驗場,2025-01-31,23.717231,120.190522,0.92910933
B2N890,畜試所,2025-01-31,23.058972,120.336406,0.048040655
C2M960,外寮,2025-01-31,23.562643,120.665688,0.24016915
C0F9S0,烏日,2025-01-31,24.107058,120.624103,0.020785745
C0C490,八德,2025-01-31,24.928708,121.283289,0.02403807
C0R190,赤山,2025-01-31,22.592333,120.614306,0.98504615
C0T820,天祥,2025-01-31,24.179597,121.495639,0.9916059
C1F9E1,龍安,2025-01-31,24.1605,120.831961,0.10271361
C0V820,小林,2025-01-31,23.148408,120.63325,0.06336237
C2G870,芳苑,2025-01-31,23.922303,120.320025,0.044621058
C0E850,大河,2025-01-31,24.618069,120.948578,0.030934777
C1U670,寒溪,2025-01-31,24.634,121.71691,0.024776548
C0N020,城西,2025-01-31,23.0568,120.0956,0.029571211
C1Z110,三棧,2025-01-31,24.11557,121.60501,0.9890634
C0R280,檳榔,2025-01-31,22.076078,120.836777,0.35632327
C2H9J0,中台,2025-01-31,23.9996,120.938739,0.22770567
C0F9L0,后里,2025-01-31,24.310436,120.729725,0.0158438
C0D540,橫山,2025-01-31,24.71116,121.11693,0.03781725
C1D420,太閣南,2025-01-31,24.632808,121.160575,0.12999061
C1E770,公館,2025-01-31,24.526914,120.830806,0.17328306
CAN130,水試所海水繁養殖中心,2025-01-31,23.120802,120.07968,0.011020179
C1I430,翠華,2025-01-31,24.191961,121.224339,0.14222644
C1M400,菜瓜坪,2025-01-31,23.251928,120.576103,0.08122621
C0G730,二林,2025-01-31,23.903325,120.376081,0.080738924
72M360,南改義竹分場,2025-01-31,23.360694,120.279361,0.018368099
V2K620,麥寮合作社,2025-01-31,23.753836,120.294783,0.019586913
C0Z070,舞鶴,2025-01-31,23.46811,121.37407,0.95431286
C0B040,大武崙,2025-01-31,25.166676,121.706993,0.03651667
C1Z030,紅葉,2025-01-31,23.493119,121.338806,0.929334
C1I050,丹大,2025-01-31,23.753747,121.141147,0.27816606
C0I080,信義,2025-01-31,23.689694,120.851036,0.19132607
C2M920,朴子農改,2025-01-31,23.469889,120.259383,0.025231535
C2A880,福隆,2025-01-31,25.017842,121.942083,0.063856535
C0Z160,鳳林,2025-01-31,23.746114,121.453411,0.6780928
C0V210,復興,2025-01-31,23.222403,120.806089,0.3459303
C0H990,昆陽,2025-01-31,24.121322,121.273642,0.22169577
C0R741,獅子,2025-01-31,22.202308,120.705236,0.499507
C0S710,鹿野,2025-01-31,22.917711,121.122994,0.5689722
C0I530,小奇萊,2025-01-31,24.131764,121.295717,0.2201719
C2K630,荷苞,2025-01-31,23.657717,120.595144,0.12359024
C0Z080,富源,2025-01-31,23.587642,121.378225,0.9499749
467441,高雄,2025-01-31,22.7304,120.3125,0.97740906
C0SB10,美和,2025-01-31,22.682078,121.060236,0.78796965
C2K620,馬光農場,2025-01-31,23.721453,120.378864,0.02012889
C1I140,卡奈托灣,2025-01-31,23.754364,121.087872,0.19577703
C0I520,玉山風口,2025-01-31,23.470489,120.955994,0.14715055
C1G691,下水埔,2025-01-31,23.816114,120.5676,0.050019532
C0X110,臺南市南區,2025-01-31,22.961189,120.188378,0.078879096
C0V680,仁武,2025-01-31,22.701083,120.347722,0.9710015
C2G840,北斗,2025-01-31,23.877586,120.514222,0.013363658
C0R900,竹坑,2025-01-31,22.1385,120.7022,0.9472692
C0K250,崙背,2025-01-31,23.75555,120.318925,0.019586913
C0G860,社頭,2025-01-31,23.897647,120.5862,0.046551645
C0X150,安定,2025-01-31,23.102614,120.227839,0.08184571
C0R590,里港,2025-01-31,22.77919,120.49459,0.15426412
C0E610,馬都安,2025-01-31,24.451272,120.930192,0.042430393
C0E550,明德,2025-01-31,24.583486,120.885411,0.11075672
C0R150,三地門,2025-01-31,22.709889,120.639944,0.9798177
C0G910,花壇,2025-01-31,24.032076,120.549461,0.025535053
C1D400,鳥嘴山,2025-01-31,24.71909,121.28387,0.07290098
C0K500,元長,2025-01-31,23.64981,120.315024,0.019448707
C0F0B0,石岡,2025-01-31,24.276061,120.777644,0.01708873
C2V250,甲仙,2025-01-31,23.080106,120.591758,0.049186032
C0SA20,金崙山,2025-01-31,22.567419,120.959667,0.6602867
C0V350,溪埔,2025-01-31,22.738578,120.446797,0.5042714
C0M660,溪口,2025-01-31,23.604131,120.403569,0.031337906
C1S880,壽卡,2025-01-31,22.238911,120.858903,0.5688544
72D680,桃改新埔分場,2025-01-31,24.834444,121.066111,0.031294957
