站號,站名,日期,lat,lon,BLBTSLS
C0R710,龍磐,2025-12-04,21.931672,120.838942,0.99972844
C1F9D1,白毛台,2025-12-04,24.158325,120.886933,0.9746513
C0G940,竹塘,2025-12-04,23.848253,120.386764,0.9999931
467590,恆春,2025-12-04,22.003897,120.746339,0.9998079
C1O850,環湖,2025-12-04,23.148617,120.418633,0.9999921
C0U710,太平山,2025-12-04,24.505486,121.525656,2.1258122e-08
C0E820,獅潭,2025-12-04,24.539133,120.920042,0.9999863
C0V880,興達,2025-12-04,22.8778,120.2127,0.9999916
C0S890,關山,2025-12-04,23.0395,121.175017,0.7320672
C0SB30,新蘭,2025-12-04,22.869214,121.223228,0.99996716
C2R970,屏科大,2025-12-04,22.648275,120.619247,0.9994941
C1Z130,銅門,2025-12-04,23.965694,121.492842,1.4912142e-07
C0AD40,土城,2025-12-04,24.973208,121.445169,0.9979975
CAN140,六官養殖協會,2025-12-04,23.22881,120.29962,0.9999929
C0X180,山上,2025-12-04,23.0757,120.363253,0.99999213
C0F9Z0,雪山東峰,2025-12-04,24.388792,121.268675,4.7368932e-08
C1M480,獨立山,2025-12-04,23.537022,120.607797,1.8372919e-05
C0X220,學甲,2025-12-04,23.230367,120.182187,0.9999929
467650,日月潭,2025-12-04,23.881325,120.90805,2.6513646e-08
C0K600,箔子寮,2025-12-04,23.6197,120.14,0.9999903
C0G830,埤頭,2025-12-04,23.866003,120.452806,0.99999297
C0S950,七塊厝,2025-12-04,22.954453,121.229922,0.0005903336
467110,金門,2025-12-04,24.407306,118.289281,0.9992829
C0AH80,深坑,2025-12-04,25.002703,121.628328,0.9989697
C0A970,三貂角,2025-12-04,25.007606,122.002058,0.9999821
C2D730,寶山農場,2025-12-04,24.732444,120.976153,0.9999196
C0K430,褒忠,2025-12-04,23.690938,120.303634,0.99999195
467480,嘉義,2025-12-04,23.495925,120.432906,0.99999124
C0V400,阿公店,2025-12-04,22.804194,120.355528,0.99997914
C0E960,觀霧分站,2025-12-04,24.505781,121.113921,2.2802068e-08
467550,玉山,2025-12-04,23.48718,120.95943,5.3741697e-08
C0R440,大漢山,2025-12-04,22.405264,120.753181,6.5034776e-08
C0SD30,東清國小,2025-12-04,22.057128,121.564922,0.9999506
C0K280,四湖,2025-12-04,23.630414,120.227125,0.99974585
C1F9B1,桐林,2025-12-04,24.066172,120.735194,0.9999966
C2H9U0,鳳鵬,2025-12-04,23.763919,120.788061,0.9996651
C0K390,土庫,2025-12-04,23.679029,120.395574,0.999993
C1I450,望鄉山,2025-12-04,23.594153,120.944286,3.3449783e-08
C0E910,海埔,2025-12-04,24.648767,120.772435,0.99996406
B2E890,畜試北區分所,2025-12-04,24.527806,120.770972,0.9999902
C0R750,四林格山,2025-12-04,22.076989,120.802439,0.9941612
C0F0C0,中坑,2025-12-04,24.248517,120.903319,0.000967244
C1I121,大鞍,2025-12-04,23.678381,120.760017,7.76866e-09
72U480,花改蘭陽分場,2025-12-04,24.686306,121.716583,0.99998593
C0A770,科教館,2025-12-04,25.096356,121.516507,0.99741346
C0AJ60,六塊厝,2025-12-04,25.24,121.4481,0.9972279
C0R620,墾雷,2025-12-04,21.900836,120.855269,0.9997947
467420,永康,2025-12-04,23.038386,120.2367,0.9999917
C0I410,名間,2025-12-04,23.837053,120.701447,0.99997276
A2C560,農工中心,2025-12-04,24.985917,121.239833,0.99970365
C0V740,旗山,2025-12-04,22.888614,120.483597,0.99998194
C0Z061,玉里,2025-12-04,23.3215,121.339656,0.9975789
C0S840,南田,2025-12-04,22.279725,120.889208,0.99993783
C1I470,杉林溪,2025-12-04,23.639517,120.786444,8.647561e-09
C1X040,東原,2025-12-04,23.291597,120.463822,0.94861895
C0R660,枋寮,2025-12-04,22.367722,120.590647,0.9999523
C1R120,上德文,2025-12-04,22.763272,120.704442,8.841962e-05
C0K450,大埤,2025-12-04,23.646074,120.431537,0.99999297
C0UA00,土場,2025-12-04,24.576533,121.495333,8.17601e-07
467080,宜蘭,2025-12-04,24.763975,121.756528,0.99998665
C0N030,四草,2025-12-04,23.0235,120.1116,0.99999267
467410,臺南,2025-12-04,22.99328,120.20492,0.9999921
C0V650,彌陀,2025-12-04,22.783806,120.246361,0.9999712
C0D660,新竹市東區,2025-12-04,24.798681,120.986942,0.9999837
82S580,茶改東部分場,2025-12-04,22.907694,121.130139,0.95292616
C0SB40,興隆,2025-12-04,22.913661,121.257469,0.99996144
467050,新屋,2025-12-04,25.006725,121.047492,0.9919899
C0C710,大溪永福,2025-12-04,24.892936,121.324975,0.9998529
C0FA20,溫寮,2025-12-04,24.372177,120.583125,0.99999607
C0V640,湖內,2025-12-04,22.887139,120.2445,0.9999918
C0R910,下寮,2025-12-04,22.3929,120.5548,0.9999523
C0Z020,明里,2025-12-04,23.208717,121.262342,0.7265808
C0M770,嘉義梅山,2025-12-04,23.585398,120.555587,0.9999756
C0C660,楊梅,2025-12-04,24.912375,121.143047,0.99994856
C0SD40,牛頭山,2025-12-04,22.676661,121.506944,0.9999728
C1E511,新開,2025-12-04,24.347703,120.827019,0.9999638
G2F820,農試所(霧峰),2025-12-04,24.031261,120.688133,0.99999666
C2M990,大巃頂,2025-12-04,23.5547,120.61439,7.244174e-08
C1I070,和社,2025-12-04,23.591131,120.888861,2.5398665e-08
C2E990,新坪頂,2025-12-04,24.30201,120.8574,0.9986571
C0TA80,立霧山,2025-12-04,24.183258,121.641899,2.4596297e-08
C2F000,大肚,2025-12-04,24.15295,120.572117,0.9998081
C1S850,豐南,2025-12-04,23.122139,121.262389,0.00010689898
C2A920,富貴角,2025-12-04,25.263783,121.565258,0.9999818
CAH030,茶改場竹圍站,2025-12-04,23.860083,120.637528,0.87573326
C0T960,光復,2025-12-04,23.660694,121.424964,2.7895436e-07
C0F9M0,豐原,2025-12-04,24.254322,120.720692,0.9999954
C0R720,旭海,2025-12-04,22.205403,120.887614,0.99946713
C0V710,苓雅,2025-12-04,22.622742,120.330669,0.9999746
C0C740,觀音工業區,2025-12-04,25.064764,121.114856,0.9892319
CAC040,拉拉山,2025-12-04,24.699317,121.427133,2.0823268e-08
C0V790,萬山,2025-12-04,22.905944,120.688056,2.05373e-06
U2HA30,臺大和社,2025-12-04,23.590856,120.888864,2.5398665e-08
C2H9K0,屯原,2025-12-04,24.067969,121.209389,1.5434097e-08
C0AJ90,澳底,2025-12-04,25.0552,121.9253,0.9999864
C0Z100,東華,2025-12-04,23.89525,121.549833,1.056852e-06
C0G970,三豐,2025-12-04,23.882,120.2895,0.99999183
V2K610,大庄合作社,2025-12-04,23.8068,120.367939,0.999992
C0V900,汕尾,2025-12-04,22.4782,120.4151,0.9999521
C1R630,龍泉,2025-12-04,22.66701,120.59091,0.9997655
C1AC50,關渡,2025-12-04,25.133486,121.469331,0.99975127
C0C800,四稜,2025-12-04,24.64733,121.4293,1.6806235e-08
C0F9I0,神岡,2025-12-04,24.272481,120.658314,0.9999955
C0K460,斗南,2025-12-04,23.678734,120.478359,0.9999926
C2O810,曾文,2025-12-04,23.219681,120.497328,0.9937565
467280,後龍,2025-12-04,24.648563,120.831834,0.9999788
C1F9J1,清水林,2025-12-04,24.071242,120.820419,0.00048833055
C2A650,火燒寮,2025-12-04,25.002719,121.742892,0.9999239
466930,竹子湖,2025-12-04,25.162078,121.544547,7.8091965e-05
C1I220,樟湖,2025-12-04,23.905333,120.846983,1.3071493e-08
C0I390,仁愛,2025-12-04,24.022122,121.132206,1.1963112e-08
C0Z300,東里,2025-12-04,23.26853,121.30547,0.9925646
C1V590,新發,2025-12-04,23.057019,120.646064,1.6207716e-08
C0K510,水林,2025-12-04,23.572924,120.24597,0.9999905
72S590,東改賓朗果園,2025-12-04,22.813889,121.071278,0.033037204
82A750,茶改北部分場,2025-12-04,24.955778,121.631222,0.8749452
C1A750,石碇服務區,2025-12-04,25.00872,121.646242,0.9994076
C0X300,鹿寮,2025-12-04,23.386047,120.477331,0.99999046
G2AI50,關渡,2025-12-04,25.11575,121.492,0.9972769
C0K590,雲林東勢,2025-12-04,23.674192,120.255721,0.99999195
C0A570,桶後,2025-12-04,24.848222,121.597992,5.155208e-06
C1S800,華源,2025-12-04,22.657883,121.02325,0.999681
C0G720,溪州,2025-12-04,23.851589,120.499093,0.9999926
C1V160,達卡努瓦,2025-12-04,23.279811,120.705319,6.4697603e-09
C2M410,馬頭山,2025-12-04,23.324361,120.582017,0.0017221948
C0V850,蚵仔寮,2025-12-04,22.7256,120.2527,0.99996996
C0S740,池上,2025-12-04,23.119628,121.209469,0.043873772
C1V390,尖山,2025-12-04,22.813153,120.367789,0.9999829
C0AH70,松山,2025-12-04,25.04871,121.55042,0.9978343
C0N010,鯤鯓國小,2025-12-04,23.1879,120.0889,0.9999927
C0R550,新埤,2025-12-04,22.467947,120.582894,0.9999529
C0SA60,知本（水試所）,2025-12-04,22.702394,121.082761,0.9999799
C0T9I0,豐濱,2025-12-04,23.583897,121.514806,2.2625512e-07
C0UB00,淡江大學蘭陽校園,2025-12-04,24.823239,121.730383,1.6943984e-07
C0W240,九宮,2025-12-04,24.423753,118.240186,0.9992736
C0T9N0,富里,2025-12-04,23.171639,121.249378,0.23480186
U2HA50,臺大竹山,2025-12-04,23.756972,120.681556,0.9999733
C0V840,鳳鼻頭,2025-12-04,22.5083,120.3591,0.99996996
C0X140,西港,2025-12-04,23.125608,120.203108,0.9999929
72D080,桃改五峰分場,2025-12-04,24.612194,121.157167,0.000108714936
C2H9P0,伊拿谷,2025-12-04,23.963211,121.088264,7.325485e-08
C2K250,崙背,2025-12-04,23.75553,120.31893,0.99999195
C2H9F0,柑林,2025-12-04,24.018658,120.847072,0.9998245
C0TA20,加灣,2025-12-04,24.082025,121.608944,1.4983463e-06
C0V530,阿蓮,2025-12-04,22.883208,120.327508,0.9999921
C0FB30,八仙山苗圃,2025-12-04,24.192719,121.001366,0.002635796
C1O880,關山,2025-12-04,23.173397,120.594092,0.00083384063
C0E791,卓蘭,2025-12-04,24.3126,120.8244,0.9999611
C1I030,武界,2025-12-04,23.913225,121.052483,5.49549e-08
C0R520,崁頂,2025-12-04,22.514781,120.506914,0.99995226
C0R341,牡丹,2025-12-04,22.130036,120.792639,0.9999353
C0R930,萬丹,2025-12-04,22.5885,120.4851,0.99995285
C0S760,紅石,2025-12-04,23.069131,121.126219,1.9811953e-08
C2C410,中央大學,2025-12-04,24.967652,121.185165,0.9997855
C1M610,石磐龍,2025-12-04,23.496606,120.663506,4.216175e-08
C0C790,東眼山,2025-12-04,24.8284,121.40888,2.2488154e-08
C0UA10,鴛鴦湖,2025-12-04,24.590269,121.412228,2.1125745e-08
V2C260,八德蔬果,2025-12-04,24.978508,121.281819,0.99958545
C0R800,丹路,2025-12-04,22.204481,120.750989,0.99995005
C0G920,永靖,2025-12-04,23.924703,120.547533,0.9999961
C2M950,太和,2025-12-04,23.538372,120.702961,1.8989335e-08
C1A630,下盆,2025-12-04,24.771003,121.538622,0.003155611
B2N890,畜產試驗所,2025-12-04,23.058972,120.336406,0.9999922
C0UA30,白嶺,2025-12-04,24.527819,121.519031,1.825873e-08
C1V580,溪南(特生中心),2025-12-04,23.084972,120.788475,1.4768668e-08
C1T970,大農,2025-12-04,23.615233,121.413331,1.4348213e-07
C0R650,竹田,2025-12-04,22.58486,120.54344,0.9999527
C1H900,清流,2025-12-04,24.080775,120.962997,7.1293066e-08
C1C510,水尾,2025-12-04,24.940081,121.087161,0.9992106
C2N170,茅港尾,2025-12-04,23.2061,120.2624,0.9999927
C0F9X0,大雅(中科園區),2025-12-04,24.21528,120.62445,0.9999965
C0SB60,白守蓮,2025-12-04,23.126769,121.401914,0.9999796
C0O970,虎頭埤,2025-12-04,23.021375,120.347878,0.99999213
C0C730,中大臨海站,2025-12-04,24.966126,121.008581,0.9883905
C0X250,新營,2025-12-04,23.310689,120.316681,0.999993
C0V700,三民,2025-12-04,22.645017,120.311233,0.9999746
C0U870,大礁溪,2025-12-04,24.791042,121.675047,6.965751e-08
C0E870,高鐵苗栗,2025-12-04,24.60725,120.826094,0.9999964
A2K570,古坑花卉中心,2025-12-04,23.63353,120.55239,0.9999883
C0TA30,鹽寮,2025-12-04,23.845606,121.592664,1.4983463e-06
C0M860,新美,2025-12-04,23.338017,120.683169,1.8982526e-08
C1E701,八卦,2025-12-04,24.491756,120.927619,4.2029674e-07
C2TA90,加納納,2025-12-04,23.466421,121.359867,9.7704195e-08
C0I420,國姓,2025-12-04,24.037803,120.855072,0.999791
C2D720,關西工作站,2025-12-04,24.757275,121.184792,0.9999812
C0S960,香蘭,2025-12-04,22.587569,120.993375,0.9999352
467620,蘭嶼,2025-12-04,22.0369,121.55843,0.9999633
C0R260,春日,2025-12-04,22.370361,120.628306,0.99995315
72G600,臺中農改場,2025-12-04,24.003028,120.534389,0.99999577
C0Z210,瑞穗,2025-12-04,23.5239,121.39021,2.991978e-07
C0M820,達邦,2025-12-04,23.453994,120.749517,1.5524981e-07
C0V860,南寮,2025-12-04,22.7616,120.2339,0.99996924
C0G740,大城,2025-12-04,23.852487,120.320935,0.99999195
C0R920,塭仔,2025-12-04,22.4169,120.5197,0.9999521
C0R470,高樹,2025-12-04,22.826389,120.600806,0.9996476
C0R680,佳樂水,2025-12-04,21.993578,120.861633,0.99981105
C1O870,大棟山,2025-12-04,23.31157,120.52226,6.7676402e-09
C0D360,梅花,2025-12-04,24.678347,121.208558,0.009945754
C0Z190,富世,2025-12-04,24.14743,121.6297,0.44642472
C0AI10,屈尺,2025-12-04,24.92184,121.54475,0.999107
B2U990,畜試東區分所,2025-12-04,24.669039,121.832561,0.9999868
C0SB80,長濱漁港,2025-12-04,23.313644,121.459994,0.999975
C0TA50,和仁,2025-12-04,24.241394,121.712472,0.9058565
C0V910,大樹,2025-12-04,22.684645,120.432803,0.9998144
C1R610,西大武山,2025-12-04,22.617719,120.7322,6.127739e-08
C0G900,線西,2025-12-04,24.143358,120.443536,0.9999961
C0M700,竹崎,2025-12-04,23.526178,120.555508,0.99998116
C2E880,三義,2025-12-04,24.405478,120.749819,0.9994283
C0C720,竹圍,2025-12-04,25.112692,121.239824,0.9974469
C0F9P0,清水,2025-12-04,24.312297,120.562242,0.99999624
C0Z150,吉安光華,2025-12-04,23.930925,121.595153,1.7711455e-06
C0FA80,小雪山天池,2025-12-04,24.28025,121.02627,2.9497997e-08
467300,東吉島,2025-12-04,23.25727,119.66762,0.9998416
C1D640,外坪(五指山),2025-12-04,24.644447,121.090961,3.1205868e-06
C0F9O0,潭子,2025-12-04,24.213106,120.703933,0.99999547
C2H9R0,卓社,2025-12-04,23.887894,121.000086,1.1252249e-07
72T250,花蓮農改場,2025-12-04,23.975222,121.563889,1.0457912e-06
C0E780,銅鑼,2025-12-04,24.489681,120.790853,0.99999523
C1T950,太安,2025-12-04,23.666719,121.370128,2.1090598e-08
C0E830,苑裡,2025-12-04,24.439714,120.653053,0.99999636
467270,田中,2025-12-04,23.873803,120.581286,0.99999225
C0SA10,檳榔四格山,2025-12-04,22.810031,121.109308,0.0020749064
C1T830,布洛灣,2025-12-04,24.17184,121.57127,2.0936727e-06
C0F970,大坑,2025-12-04,24.173142,120.722289,0.9999946
C1U920,思源,2025-12-04,24.393125,121.347214,2.2477346e-08
C2H9Y0,松茗,2025-12-04,23.8167,120.650765,0.9419118
C0A931,三和,2025-12-04,25.233153,121.595236,0.9999944
C0I010,廬山,2025-12-04,24.033311,121.181808,7.930591e-09
C2M940,日野賀,2025-12-04,23.434056,120.727169,3.6189988e-08
C0R860,鼻頭,2025-12-04,22.1043,120.8979,0.9998778
C0UB20,壯圍,2025-12-04,24.7359,121.8163,0.9999869
C0R790,九棚,2025-12-04,22.14195,120.889281,0.9997366
C0W110,東莒,2025-12-04,25.9652,119.98069,0.99999
C1U930,粉鳥林,2025-12-04,24.497088,121.842479,0.95924693
C1I211,蘆竹湳,2025-12-04,23.934019,120.811994,0.10865349
C0S830,長濱,2025-12-04,23.286817,121.411975,0.2313282
C1F9F1,伯公龍,2025-12-04,24.272392,120.849047,0.99974656
C0UB90,太平山莊,2025-12-04,24.494171,121.536209,2.1447585e-08
C0E810,西湖,2025-12-04,24.562947,120.7485,0.99998134
C1I440,新高口,2025-12-04,23.478744,120.878939,2.4218938e-08
C0O840,王爺宮,2025-12-04,23.222064,120.40085,0.99400175
C0T9G0,鳳林山,2025-12-04,23.735269,121.420131,3.1835196e-08
C0X080,佳里,2025-12-04,23.173039,120.145086,0.9999927
C0FB70,大甲溪埔,2025-12-04,24.370625,120.620067,0.99999654
C0Z310,清水斷崖,2025-12-04,24.218294,121.689142,0.02507167
C0M680,太保,2025-12-04,23.455062,120.331455,0.99999094
C1S820,金峰,2025-12-04,22.590969,120.933236,0.999653
C0AD10,八里,2025-12-04,25.150211,121.403947,0.9977291
C2K240,草嶺,2025-12-04,23.59555,120.693461,3.900046e-08
C1SA70,都蘭,2025-12-04,22.87794,121.226881,0.9999607
C0K440,二崙,2025-12-04,23.772797,120.408944,0.99999297
C1A760,坪林交控,2025-12-04,24.94284,121.713442,0.99995404
C0F9N0,大里,2025-12-04,24.092464,120.701378,0.99999094
C0SA90,達仁林場,2025-12-04,22.264347,120.823972,0.00023399458
C1R290,石門山,2025-12-04,22.112611,120.756597,0.99948186
42HA10,萬大發電廠,2025-12-04,23.978875,121.139639,2.1090598e-08
C0R890,山海,2025-12-04,21.9878,120.7091,0.9998321
C0T9A0,月眉山,2025-12-04,23.809928,121.539828,2.8405088e-08
C0AC70,信義,2025-12-04,25.037822,121.564597,0.997875
C0K560,棋山,2025-12-04,23.68645,120.603417,0.99998623
C2FB50,出雲,2025-12-04,24.206469,120.902794,1.6570565e-08
C1Z240,中平林道,2025-12-04,23.42115,121.26763,8.1084925e-09
U2H480,溪頭,2025-12-04,23.670306,120.798194,1.1084918e-08
C0M880,好美里,2025-12-04,23.3364,120.138,0.9999927
C0T9E0,大坑,2025-12-04,23.880628,121.581981,3.591233e-08
C0K530,臺西,2025-12-04,23.701547,120.197559,0.99999195
C1E900,國一N128K,2025-12-04,24.560997,120.844186,0.9999875
C0AJ50,水湳洞,2025-12-04,25.123695,121.862238,0.99797666
C0AI20,白沙灣,2025-12-04,25.283128,121.519058,0.99797666
C2V310,美濃,2025-12-04,22.898792,120.51907,0.9999802
C0A860,大坪,2025-12-04,25.165914,121.632969,0.97894543
C1U850,觀音海岸,2025-12-04,24.38319,121.77856,2.7546808e-08
C2K610,草嶺石壁,2025-12-04,23.602469,120.707731,3.4401378e-08
C0U950,鶯子嶺,2025-12-04,24.89754,121.79244,2.1635847e-08
C0O900,善化,2025-12-04,23.112883,120.297219,0.9999917
C0K550,蔦松,2025-12-04,23.514319,120.229736,0.99999034
E2P980,林試六龜中心,2025-12-04,22.991703,120.645722,0.56838185
C0E590,通霄,2025-12-04,24.471892,120.704622,0.9999837
C1I310,西巒,2025-12-04,23.754486,120.883956,1.8592164e-08
C0A550,泰平,2025-12-04,24.971197,121.823711,0.88353425
C0I360,水里,2025-12-04,23.812553,120.849792,0.977863
C0R830,高士,2025-12-04,22.121825,120.836781,0.99932593
C1I101,溪頭,2025-12-04,23.661789,120.807647,9.527243e-09
C0AJ20,野柳,2025-12-04,25.20703,121.690021,0.9978343
C0B060,暖暖,2025-12-04,25.0957,121.7403,0.9994048
C1H920,長豐,2025-12-04,24.102039,120.879897,0.00016891428
C0V360,內門,2025-12-04,22.975481,120.466769,0.9996929
C0R850,林邊,2025-12-04,22.4634,120.5339,0.9999523
C0E930,龍鳳,2025-12-04,24.700034,120.859125,0.99995905
C0U910,冬山,2025-12-04,24.63373,121.7937,0.9999868
C1E721,泰安,2025-12-04,24.489017,120.968036,5.8699698e-08
82H320,茶改中部分場,2025-12-04,23.875611,120.913583,1.2296213e-07
C0M750,布袋,2025-12-04,23.380878,120.167789,0.9999902
C1S860,利嘉,2025-12-04,22.809417,121.050528,0.00018922548
E2S980,林試太麻里1,2025-12-04,22.598922,120.980044,0.9998911
C0X170,關廟,2025-12-04,22.963017,120.327797,0.99999225
C0V720,林園,2025-12-04,22.507747,120.394511,0.9999524
C1I510,線浸林道,2025-12-04,23.761508,120.832956,2.5944155e-08
C0D690,外湖,2025-12-04,24.917735,120.968711,0.9880383
C0C750,新興坑尾,2025-12-04,25.0061,121.0971,0.9973849
B2Q810,畜試南區分所,2025-12-04,21.945583,120.802167,0.9998224
C0S790,金崙,2025-12-04,22.538122,120.966875,0.9993176
C0AH90,福山植物園,2025-12-04,24.760717,121.58135,7.5560333e-06
C0I540,奇萊稜線,2025-12-04,24.109231,121.326456,3.1811947e-08
C0M850,表湖,2025-12-04,23.24186,120.64166,6.4875914e-09
C0S770,大溪山,2025-12-04,22.478475,120.943325,0.029789096
C0AG80,中和,2025-12-04,24.991622,121.491792,0.99804485
C0T790,大禹嶺,2025-12-04,24.186117,121.316086,3.320999e-08
C0T9B0,水源,2025-12-04,23.991861,121.537169,3.351409e-08
C0R840,牡丹池山,2025-12-04,22.168389,120.841225,0.00034606832
C1I131,桶頭,2025-12-04,23.641944,120.654117,0.8646431
CAL110,布袋國中,2025-12-04,23.35893,120.18026,0.9999927
467571,新竹,2025-12-04,24.827853,121.014219,0.9999785
C0Z290,赤柯山,2025-12-04,23.36893,121.38293,2.3383711e-08
C0X280,將軍,2025-12-04,23.214999,120.13577,0.9999927
C0S690,太麻里,2025-12-04,22.60902,120.98533,0.99995106
C0U880,北關,2025-12-04,24.9072,121.8734,0.99741346
CAW010,東引,2025-12-04,26.3588,120.4836,0.9998828
C0G810,埔心,2025-12-04,23.947633,120.525456,0.99999595
C0U970,大福,2025-12-04,24.80064,121.81389,0.999987
C2H9N0,仁愛東眼,2025-12-04,24.026875,121.1205,7.56852e-09
C1E670,南礦,2025-12-04,24.538278,121.002836,1.5473911e-07
C0M520,東後寮,2025-12-04,23.369908,120.248065,0.9999929
C1E461,松安,2025-12-04,24.397972,120.986022,8.652812e-08
C2N160,西拉雅風管處,2025-12-04,23.189481,120.335297,0.9999932
C2M970,碧湖,2025-12-04,23.568632,120.624165,7.459104e-08
C0A640,石碇,2025-12-04,24.993969,121.662917,0.99995255
E2S960,林試太麻里2,2025-12-04,22.598,120.99775,0.99993783
C0F9Y0,桃山,2025-12-04,24.432739,121.303808,5.032433e-08
C1I020,萬大,2025-12-04,23.979817,121.132261,1.1526997e-08
C2UC20,長嶺,2025-12-04,24.70894,121.61162,1.0256297e-07
C0U940,羅東,2025-12-04,24.68184,121.74934,0.99998635
C0M650,朴子,2025-12-04,23.43463,120.23902,0.9999905
C1I500,大尖山,2025-12-04,23.858572,120.994889,1.4552325e-08
C0FB40,中橫21.6k,2025-12-04,24.2499,121.1455,1.7823218e-08
C0G820,田尾,2025-12-04,23.901669,120.509389,0.999996
E2K600,四湖植物園,2025-12-04,23.676986,120.163433,0.99999195
C0S730,綠島,2025-12-04,22.6672,121.47533,0.9998325
12Q970,東港工作站,2025-12-04,22.479997,120.466058,0.9999523
C0E430,南庄,2025-12-04,24.601775,121.000214,0.99998677
C1TA00,太魯閣,2025-12-04,24.15773,121.6236,0.048340622
466920,臺北,2025-12-04,25.037658,121.514853,0.9978343
C0R600,舊泰武,2025-12-04,22.588194,120.664944,1.4753015e-08
C1I260,北坑,2025-12-04,23.9246,121.006903,0.03911258
466910,鞍部,2025-12-04,25.182586,121.529731,7.5917774e-07
C1I230,九份二山,2025-12-04,23.961944,120.845,2.0923261e-07
C2A660,瑞芳,2025-12-04,25.113169,121.801147,0.9996731
C0R270,琉球嶼,2025-12-04,22.332244,120.362236,0.99995285
C1T990,高寮,2025-12-04,23.394239,121.356808,3.7976116e-07
C0G620,芬園,2025-12-04,24.015678,120.6213,0.9999966
C1Z140,荖溪,2025-12-04,23.890575,121.45964,2.5056025e-08
C1I201,中心崙,2025-12-04,23.728722,120.712097,0.005668317
C1I400,凌霄,2025-12-04,24.018778,121.004456,7.511856e-09
C1M640,十字,2025-12-04,23.492153,120.753683,7.987549e-09
G2P820,農試鳳山分所,2025-12-04,22.646611,120.356083,0.9999782
C0Z270,蕃薯寮,2025-12-04,23.73835,121.540108,5.1275308e-08
C0FB10,出雲山苗圃,2025-12-04,24.23105,120.90475,0.00095442747
C0F9Q0,外埔,2025-12-04,24.347817,120.705686,0.9999949
C0K580,高鐵雲林,2025-12-04,23.737456,120.417944,0.99999297
C2I090,鳳凰,2025-12-04,23.728081,120.787347,7.0779016e-08
C0U990,員山,2025-12-04,24.74435,121.72247,0.9999863
C0V770,大社,2025-12-04,22.730306,120.346639,0.9999751
C0X120,麻豆,2025-12-04,23.183289,120.248611,0.9999929
C0C670,龍潭,2025-12-04,24.870056,121.221389,0.99998766
C0D680,香山濕地,2025-12-04,24.783581,120.914988,0.9999593
C0S980,勝林山,2025-12-04,22.430439,120.8938,5.462917e-05
C0V730,大寮,2025-12-04,22.605614,120.395717,0.9999529
C0R570,麟洛,2025-12-04,22.65078,120.52719,0.9998138
C2M930,石卓,2025-12-04,23.478744,120.702264,8.004417e-09
C0G9B0,和美,2025-12-04,24.105169,120.492131,0.9999957
CAG100,王功漁港,2025-12-04,23.96824,120.32586,0.99999195
C0X290,北門,2025-12-04,23.267772,120.125481,0.9999927
C2F930,大甲,2025-12-04,24.347667,120.640403,0.9999968
C0D650,湖口,2025-12-04,24.904794,121.043628,0.9987539
C0E420,竹南,2025-12-04,24.708978,120.888897,0.9999783
C0U780,五結,2025-12-04,24.68637,121.79794,0.9999868
C1I250,鯉潭,2025-12-04,23.961922,120.991131,0.00016891428
C0R130,阿禮,2025-12-04,22.742908,120.743678,3.2432783e-06
C0X100,臺南市北區,2025-12-04,23.010394,120.194228,0.9999916
C0S920,金峰嘉蘭,2025-12-04,22.594789,120.960825,0.999891
C0V490,新興,2025-12-04,22.627422,120.298803,0.99997294
C0F9K0,大安,2025-12-04,24.345061,120.588025,0.9999964
467290,古坑,2025-12-04,23.633639,120.551889,0.9999883
C2E970,八甲,2025-12-04,24.535811,120.795983,0.9999954
C0V440,鳳山,2025-12-04,22.646653,120.356122,0.9999782
C1T940,大觀,2025-12-04,23.714206,121.373133,2.766106e-08
C0E740,造橋,2025-12-04,24.637056,120.864778,0.9999752
C0R100,尾寮山,2025-12-04,22.833111,120.683889,3.154488e-06
A2K630,臺大雲林校區,2025-12-04,23.730628,120.423903,0.99999297
467990,馬祖,2025-12-04,26.169467,119.923158,3.867224e-08
C0D580,寶山,2025-12-04,24.735006,121.025192,0.9999733
E2P990,林試扇平站,2025-12-04,22.9677,120.6857,2.1072987e-08
C0AI30,三重,2025-12-04,25.057328,121.500629,0.99741346
C0AH00,汐止,2025-12-04,25.066881,121.658778,0.9978343
C1Z040,立山,2025-12-04,23.443356,121.327375,3.0543752e-08
466881,新北,2025-12-04,24.959207,121.525196,0.9985397
C0W130,花嶼,2025-12-04,23.40007,119.32276,0.9997658
C0A950,鼻頭角,2025-12-04,25.129036,121.923372,0.9999868
C0K470,林內,2025-12-04,23.748675,120.609642,0.9999891
C2F990,摩天嶺,2025-12-04,24.322458,120.936819,2.3499737e-08
82C160,茶改場,2025-12-04,24.908472,121.185333,0.999992
C0Z320,清水林道,2025-12-04,23.27125,121.188272,3.067213e-08
C0R760,南仁湖,2025-12-04,22.084681,120.863353,0.9994783
C0M670,大林,2025-12-04,23.600616,120.45841,0.9999914
C0M800,茶山,2025-12-04,23.299075,120.664767,3.8879364e-07
C0A9C0,天母,2025-12-04,25.117494,121.537169,0.99804485
72K220,南改斗南分場,2025-12-04,23.634556,120.477333,0.9999923
72AI40,桃改樹林分場,2025-12-04,24.944503,121.386972,0.99850357
C0S910,蘭嶼燈塔,2025-12-04,22.081197,121.503117,0.99995613
C0B050,八斗子,2025-12-04,25.144754,121.79167,0.9972279
C0U900,內城,2025-12-04,24.71813,121.68766,0.99998516
C0X320,柳營,2025-12-04,23.253328,120.375253,0.99999124
C0M790,新港,2025-12-04,23.553269,120.345728,0.9999907
C0F9T0,西屯,2025-12-04,24.179494,120.641275,0.9999968
C0E950,松安,2025-12-04,24.39792,120.98599,8.652812e-08
C0SA30,都歷,2025-12-04,23.020333,121.323642,0.999943
C0C620,蘆竹,2025-12-04,25.084275,121.265767,0.99821776
C0R730,大坪頂,2025-12-04,22.024633,120.69355,0.9996902
C0AJ40,石門,2025-12-04,25.273672,121.601198,0.99991906
C0E750,苗栗,2025-12-04,24.564569,120.824575,0.999986
C0T870,鯉魚潭,2025-12-04,23.935639,121.508944,2.0592475e-07
C1V170,排雲,2025-12-04,23.463619,120.954147,4.8235258e-08
C2H950,中寮,2025-12-04,23.884447,120.766406,0.99999636
C0R350,貓鼻頭,2025-12-04,21.921774,120.7358,0.9998033
C0V660,岡山,2025-12-04,22.797078,120.294958,0.9999726
C1H941,雙冬,2025-12-04,23.967378,120.802189,0.02449621
C0AJ70,田寮,2025-12-04,25.2698,121.4886,0.9978265
C0AI00,五股,2025-12-04,25.07445,121.42728,0.99997395
C0Z280,德武,2025-12-04,23.47426,121.41071,1.3227361e-07
C2RA10,大新,2025-12-04,22.67558,120.57788,0.99977094
C0R700,枋山,2025-12-04,22.246844,120.661086,0.9999524
C0C460,復興,2025-12-04,24.820208,121.352281,0.6067037
C2K300,鹿南,2025-12-04,23.63855,120.3636,0.999992
E2H360,蓮華池,2025-12-04,23.918333,120.885278,0.0012189634
C0M640,中埔,2025-12-04,23.42538,120.5229,0.9999811
C0W140,金沙,2025-12-04,24.488292,118.408778,0.99925566
C2A540,四堵,2025-12-04,24.8926,121.745736,0.99038655
C0ACA0,新莊,2025-12-04,25.051478,121.446756,0.99778605
C0R220,潮州,2025-12-04,22.534361,120.54,0.9999527
U2HA40,臺大內茅埔,2025-12-04,23.689722,120.851117,0.28141084
467490,臺中,2025-12-04,24.145736,120.684075,0.9999967
C0UB60,明池,2025-12-04,24.650688,121.475277,1.6767109e-08
C0U960,翠峰湖,2025-12-04,24.510856,121.608044,2.0852282e-08
E2HA20,林試畢祿溪站,2025-12-04,24.226944,121.308522,2.3553541e-08
C0V890,前鎮,2025-12-04,22.5718,120.3117,0.9999712
C1F941,雪嶺,2025-12-04,24.280586,121.026642,2.9497997e-08
C2H9E0,國姓南港,2025-12-04,23.911108,120.846556,1.1957933e-08
C0AC80,文山,2025-12-04,25.00235,121.575728,0.9990767
C0F9R0,龍井,2025-12-04,24.184536,120.528972,0.9999962
C0M760,民雄,2025-12-04,23.551754,120.428457,0.99999136
C0UA40,西德山,2025-12-04,24.560647,121.752608,1.6599351e-08
C2TA70,赤科坪,2025-12-04,23.39885,121.39168,2.400092e-08
C1T920,中興,2025-12-04,23.769503,121.498653,5.971428e-07
C0D550,雪霸,2025-12-04,24.526972,121.11605,2.2738616e-08
C2F860,梨山,2025-12-04,24.247522,121.243669,2.3906438e-08
C0R320,車城,2025-12-04,22.0744,120.716247,0.9998296
C1S870,南美山,2025-12-04,23.15025,121.382333,0.35235712
C0B020,基隆嶼,2025-12-04,25.19141,121.78391,0.9979935
C1U501,牛鬥,2025-12-04,24.637836,121.573656,0.9999301
C0M730,嘉義市東區,2025-12-04,23.457673,120.460531,0.99999136
C2R990,泰武,2025-12-04,22.60686,120.69765,5.7108537e-06
C0S700,知本,2025-12-04,22.684866,121.005642,0.00023399458
C1N001,沙崙,2025-12-04,22.935472,120.309406,0.99999213
C0V760,橋頭,2025-12-04,22.757806,120.30575,0.99997294
C0G960,福寶,2025-12-04,24.0443,120.3814,0.9999955
C0X210,白河,2025-12-04,23.347466,120.414427,0.99999154
C0S810,東河,2025-12-04,22.972672,121.303986,0.99996877
C2R170,屏東,2025-12-04,22.66027,120.49403,0.9998143
C0R670,楓港,2025-12-04,22.190131,120.692156,0.99995244
C0FA50,霧峰,2025-12-04,24.0419,120.6995,0.99999666
C0UB10,蘇澳,2025-12-04,24.5969,121.8571,0.9591019
C0G950,防潮門,2025-12-04,24.1835,120.4871,0.99999607
C0M740,六腳,2025-12-04,23.492871,120.290625,0.9999906
C1R250,力里,2025-12-04,22.428117,120.629228,0.9999522
C0K330,虎尾,2025-12-04,23.719183,120.442036,0.9999926
C2FA00,烏石坑,2025-12-04,24.273503,120.947617,2.5958014e-08
C0V620,永安,2025-12-04,22.82315,120.236856,0.9999712
C1I330,楓樹林,2025-12-04,23.986803,121.076117,1.4144474e-07
C0W200,湖西,2025-12-04,23.596314,119.67275,0.9996942
72Q010,高雄農改場,2025-12-04,22.709333,120.525889,0.999802
C0SA40,瑞和,2025-12-04,22.974361,121.156697,0.9404847
C0C680,龜山,2025-12-04,25.02846,121.38656,0.9999441
C2V260,月眉,2025-12-04,22.971003,120.539853,0.9994941
C0V450,鳳森,2025-12-04,22.545064,120.392592,0.99995315
C0FA90,小雪山林道,2025-12-04,24.29515,121.03651,3.5900687e-08
C0U720,南山,2025-12-04,24.43742,121.38167,1.6804375e-08
A2N290,臺南蘭花園區,2025-12-04,23.340258,120.379661,0.9999912
C0R560,新園,2025-12-04,22.5434,120.461558,0.9999524
C0U890,三星,2025-12-04,24.66812,121.65302,0.999981
C1V300,御油山,2025-12-04,23.001983,120.715364,1.4629022e-08
C0U600,礁溪,2025-12-04,24.817539,121.765608,0.99998623
C1T980,龍澗,2025-12-04,24.023289,121.411328,2.5075579e-08
C0D670,海天一線,2025-12-04,24.831986,120.914438,0.99995905
C0SA00,歷坵,2025-12-04,22.520969,120.89185,0.0014072881
C0M710,東石,2025-12-04,23.458927,120.15385,0.9999902
C0M780,鹿草,2025-12-04,23.41134,120.30835,0.99999094
C0U520,雙連埤,2025-12-04,24.753033,121.641303,6.713466e-08
C0B010,七堵,2025-12-04,25.094819,121.71713,0.99834216
C0R480,長治,2025-12-04,22.693128,120.542622,0.99978685
C1V830,國三S383K,2025-12-04,22.781967,120.426475,0.9995392
12Q980,恆春工作站,2025-12-04,22.079678,120.714425,0.9998297
C1O940,東山服務區,2025-12-04,23.286016,120.398472,0.99999154
C1U840,東澳嶺,2025-12-04,24.5378,121.8485,2.3849099e-08
C1D630,飛鳳山,2025-12-04,24.766464,121.119178,0.38015732
C0S940,石寧山,2025-12-04,23.223772,121.406639,0.99941134
C0K410,北港,2025-12-04,23.573957,120.292802,0.99999064
C2M620,瑞里,2025-12-04,23.545133,120.675197,2.3491403e-08
C0SB70,小港漁港,2025-12-04,23.158558,121.400431,0.9999773
C2O950,安南,2025-12-04,23.076694,120.144861,0.9999914
C0F0E0,南湖圈谷,2025-12-04,24.363714,121.444667,5.096223e-08
467610,成功,2025-12-04,23.097486,121.373428,0.9999739
C0G890,伸港,2025-12-04,24.148933,120.484403,0.9999962
C2E540,龍溪,2025-12-04,24.606489,120.783933,0.99999636
C1V200,梅山,2025-12-04,23.268447,120.823556,6.8443726e-09
C0T9H0,加路蘭山,2025-12-04,23.682947,121.5274,2.8006557e-08
C2O930,玉井,2025-12-04,23.126042,120.46055,0.9999921
C1F911,新伯公,2025-12-04,24.221361,120.841069,0.9999135
C0R490,九如,2025-12-04,22.7405,120.490503,0.999807
C0X200,左鎮,2025-12-04,23.056758,120.408522,0.9999819
C0FA60,鞍馬山工作站,2025-12-04,24.267064,121.000793,2.4067987e-08
C0SB50,叭嗡嗡,2025-12-04,23.047062,121.343223,0.9999785
C1F891,稍來,2025-12-04,24.265689,121.001142,2.3588294e-08
72N240,七股研究中心,2025-12-04,23.081672,120.062894,0.99999255
C0C700,中壢,2025-12-04,24.977661,121.256375,0.9997944
C0M690,水上,2025-12-04,23.419734,120.388909,0.99999124
C0V690,鼓山,2025-12-04,22.623325,120.275575,0.9999724
C0O860,大內,2025-12-04,23.11885,120.36083,0.9999921
C0Z200,萬榮,2025-12-04,23.709219,121.420106,2.0949378e-07
C0T9D0,和中,2025-12-04,24.26676,121.74103,0.9270212
C1O921,楠西,2025-12-04,23.183511,120.484083,0.9999926
C0AJ30,淡水觀海,2025-12-04,25.184591,121.408616,0.9972769
C0V810,左營,2025-12-04,22.67491,120.28491,0.9999748
C0UA70,桃源谷,2025-12-04,24.962606,121.888875,5.792295e-08
C0X130,官田,2025-12-04,23.193217,120.315422,0.999993
C1H000,翠峰,2025-12-04,24.109397,121.205211,2.7051748e-08
C0UA90,石城,2025-12-04,24.980444,121.951214,0.9999862
C1E681,南勢山,2025-12-04,24.421669,120.923831,0.0013930651
C0A9F0,內湖,2025-12-04,25.079422,121.57545,0.9978343
C0K291,宜梧,2025-12-04,23.536281,120.169329,0.9999902
C1K540,口湖,2025-12-04,23.585344,120.180517,0.9999902
C0R780,滿州,2025-12-04,22.024403,120.839892,0.9997934
C0V870,文安,2025-12-04,22.8025,120.2164,0.99996996
C0U650,玉蘭,2025-12-04,24.675286,121.587061,9.669013e-08
C0R640,東港,2025-12-04,22.46247,120.44074,0.9999523
C0AJ80,板橋,2025-12-04,25.0107,121.4489,0.997875
C0S660,下馬,2025-12-04,23.150427,121.070312,2.6495195e-08
C1H9B1,阿眉,2025-12-04,24.1263,120.994672,2.0809214e-08
C0UA20,多加屯,2025-12-04,24.368614,121.373189,3.1023326e-08
C0E730,頭份,2025-12-04,24.688247,120.912206,0.999976
72V140,高改旗南分場,2025-12-04,22.857861,120.516667,0.99978864
C0K480,莿桐,2025-12-04,23.761192,120.502372,0.99999225
C0U980,坪林石牌,2025-12-04,24.86478,121.77396,4.7013753e-08
C0T900,西林,2025-12-04,23.8119,121.441458,1.37859e-07
C1I150,青雲,2025-12-04,23.793361,120.949378,0.882568
C2E980,和興,2025-12-04,24.505319,120.923016,3.8181424e-05
467350,澎湖,2025-12-04,23.565503,119.563094,0.99969035
C0G800,埔鹽,2025-12-04,24.000394,120.431683,0.9999957
C0H960,草屯,2025-12-04,23.973672,120.68085,0.9999968
C1V780,多納林道,2025-12-04,22.888028,120.737917,6.4809376e-09
C0E920,通霄漁港,2025-12-04,24.498589,120.673876,0.9999961
C0Z330,安通山,2025-12-04,23.290728,121.348528,0.00011223003
C0AH10,永和,2025-12-04,25.01125,121.508111,0.9978202
C0AK10,太平里,2025-12-04,25.134937,121.364899,0.9978265
C2G640,鹿港,2025-12-04,24.0753,120.430481,0.9999955
C1E890,國三N149K,2025-12-04,24.463414,120.680019,0.9999876
C1R110,口社,2025-12-04,22.770111,120.645222,0.9994941
C1M870,國三N285K,2025-12-04,23.550319,120.505833,0.99998486
C1E480,鳳美,2025-12-04,24.554803,121.034747,0.0012725136
C0M530,奮起湖,2025-12-04,23.493903,120.699253,1.838783e-08
C0C590,觀音,2025-12-04,25.027072,121.153317,0.99819946
C0T9M0,靜浦,2025-12-04,23.455167,121.495028,5.308845e-07
C2H9M0,發祥,2025-12-04,24.154094,121.164517,1.4239963e-07
C0AI40,石牌,2025-12-04,25.115597,121.513139,0.9978343
C1F871,上谷關,2025-12-04,24.203483,121.018644,2.4328063e-08
C2H9G0,百勝,2025-12-04,24.051142,120.909361,0.9997968
C0G880,二水,2025-12-04,23.810742,120.6173,0.99998915
C0R940,加祿堂,2025-12-04,22.3363,120.6217,0.99995244
C0W220,北竿,2025-12-04,26.220358,119.974881,6.143034e-08
C0O960,崎頂,2025-12-04,22.959547,120.369317,0.99999166
C0TA40,秀林,2025-12-04,24.302864,121.731144,2.51351e-08
C0S750,向陽,2025-12-04,23.248397,120.986133,2.1593301e-08
C0T9F0,水璉,2025-12-04,23.797131,121.542514,6.864483e-08
C1M600,頭凍,2025-12-04,23.406364,120.603339,1.4441012e-07
467660,臺東,2025-12-04,22.752211,121.154586,0.9999785
C1D380,新埔,2025-12-04,24.84745,121.03834,0.99992204
C2G980,田頭村,2025-12-04,23.8263,120.444175,0.99999297
C0V750,路竹,2025-12-04,22.854997,120.259439,0.99997586
C0N050,蚵寮,2025-12-04,23.301,120.1104,0.9999927
C2X060,下營,2025-12-04,23.226806,120.256291,0.9999927
72M700,南改鹿草分場,2025-12-04,23.416869,120.283061,0.99999064
C1SA50,利嘉林道,2025-12-04,22.82325,121.009389,7.000938e-09
C0UB70,太平山中間站,2025-12-04,24.542003,121.513453,2.255865e-08
C0A940,金山,2025-12-04,25.223628,121.643967,0.998523
C1V340,大津,2025-12-04,22.888322,120.645986,0.99915385
C0W180,七美,2025-12-04,23.219333,119.444892,0.99971354
C1F9C1,白冷,2025-12-04,24.182844,120.929889,0.9873285
K2E710,苗改生物防治研究中心,2025-12-04,24.422861,120.871833,0.99998933
C0N040,蘆竹溝,2025-12-04,23.2344,120.0961,0.99999267
C0TB40,崇德,2025-12-04,24.166144,121.657414,0.92702115
C0D760,大坪苗圃,2025-12-04,24.5362,121.1108,5.8640165e-08
C2W230,畜試所澎湖,2025-12-04,23.628342,119.513206,0.99964786
C0R880,後壁湖,2025-12-04,21.9457,120.7457,0.9998371
C1I280,埔中,2025-12-04,23.820778,120.642594,0.92404014
467790,墾丁雷達站,2025-12-04,21.948235,120.808028,0.99978054
C0W190,望安,2025-12-04,23.380564,119.494075,0.9996691
C0Z170,卓溪,2025-12-04,23.3443,121.3029,0.97825
C0F850,東勢,2025-12-04,24.246428,120.833047,0.99993587
466900,淡水,2025-12-04,25.164889,121.448906,0.9978343
C0I370,魚池,2025-12-04,23.895703,120.94135,0.0028481244
C0C630,大溪,2025-12-04,24.882853,121.265547,0.99998945
C0A520,山佳,2025-12-04,24.974944,121.402008,0.99838084
C0I110,竹山,2025-12-04,23.761225,120.688156,0.9999754
82H840,茶改南部分場,2025-12-04,23.762528,120.7405,0.9994206
C0G660,溪湖,2025-12-04,23.94835,120.479122,0.9999958
C1T800,洛韶,2025-12-04,24.204558,121.453956,1.7130976e-08
C1T810,慈恩,2025-12-04,24.192044,121.388386,2.2493472e-08
C1E451,象鼻,2025-12-04,24.368617,120.940228,0.0013434566
C0AC60,三峽,2025-12-04,24.939025,121.369728,0.9958292
C0I490,萬大林道,2025-12-04,23.928228,121.091411,8.1977065e-09
C1I290,豐丘,2025-12-04,23.668178,120.887417,2.580326e-08
C1I320,奧萬大,2025-12-04,23.952956,121.178556,1.330862e-07
C2M910,嘉義大學,2025-12-04,23.471325,120.485903,0.99999094
C0U770,南澳,2025-12-04,24.44935,121.81022,0.95769125
C2TB30,吉安,2025-12-04,23.94538,121.54803,5.078428e-07
C0A980,社子,2025-12-04,25.109508,121.469681,0.9972279
C0V800,六龜,2025-12-04,22.997889,120.633583,0.64147794
C1G9D0,國一S218K,2025-12-04,23.890641,120.493253,0.99999595
C0E570,白沙屯,2025-12-04,24.549447,120.696803,0.99999607
C2F9A0,中竹林,2025-12-04,24.103556,120.751061,0.99935
C0FA40,臺中電廠,2025-12-04,24.2146,120.4907,0.9999962
C2G9A0,畜試所彰化,2025-12-04,23.86045,120.557964,0.99999225
C0H9C0,合歡山,2025-12-04,24.143442,121.272547,4.626369e-08
C0X060,下營,2025-12-04,23.22695,120.256261,0.9999548
G2M350,農試溪口農場,2025-12-04,23.58565,120.408111,0.99999094
C0U860,頭城,2025-12-04,24.85323,121.8308,0.9999868
C0R580,南州,2025-12-04,22.48591,120.50274,0.9999523
C0D430,峨眉,2025-12-04,24.6905,121.017189,0.9999313
C0G780,秀水,2025-12-04,24.03405,120.503869,0.99999577
72N100,臺南農改場,2025-12-04,23.0605,120.342194,0.99999213
C0S900,蘭嶼高中,2025-12-04,22.04909,121.51214,0.99995023
C2TA60,六十石,2025-12-04,23.22477,121.31861,2.3537778e-08
C1F9W0,德基,2025-12-04,24.254783,121.190261,9.956985e-09
C2M980,安和,2025-12-04,23.51377,120.31593,0.99999094
C1Z120,壽豐,2025-12-04,23.870853,121.508081,1.056852e-06
C0W160,烏坵,2025-12-04,24.9944,119.44956,0.9998714
C1I240,外大坪,2025-12-04,23.958697,120.917931,0.00012707527
C1I550,國六W023K,2025-12-04,23.979067,120.867742,0.99961126
C0R870,興海,2025-12-04,21.9752,120.8439,0.9998224
C0R140,瑪家,2025-12-04,22.682903,120.686639,2.0819694e-08
C0A530,坪林,2025-12-04,24.938183,121.70975,0.9998707
C0X260,後壁,2025-12-04,23.366358,120.362326,0.9999932
C0Z230,和平,2025-12-04,24.30717,121.77007,0.9541259
C0G770,福興,2025-12-04,24.041289,120.437669,0.9999956
C0H9A0,神木村,2025-12-04,23.532742,120.843667,1.4266775e-08
C0I460,南投,2025-12-04,23.911469,120.687331,0.9999968
C0I480,梅峰,2025-12-04,24.085272,121.173572,2.3171443e-08
C1V570,吉東,2025-12-04,22.85422,120.5454,0.9997525
C2D740,屯原,2025-12-04,24.067969,121.209389,3.459305e-08
C2A560,福山,2025-12-04,24.776203,121.502811,0.90496397
C0AH30,五分山,2025-12-04,25.07125,121.780794,2.5621217e-08
C0FA10,松柏,2025-12-04,24.429115,120.617482,0.9999961
72S200,東改班鳩分場,2025-12-04,22.829528,121.077694,0.2313282
72HA00,中改埔里分場,2025-12-04,23.903208,120.963364,0.008071373
C2H9W0,大坪頂農水,2025-12-04,24.043122,120.932781,0.00016102231
C0C650,平鎮,2025-12-04,24.897503,121.214636,0.99999243
C0S930,延平,2025-12-04,22.902581,121.084058,0.36945856
C0UA60,樟樹山,2025-12-04,24.41393,121.78325,4.9607763e-08
C2UC10,出水溪,2025-12-04,24.615822,121.652253,4.9607763e-08
C1S670,摩天,2025-12-04,23.199503,121.027,1.9645107e-08
C0V630,茄萣,2025-12-04,22.906642,120.182608,0.9999916
466940,基隆,2025-12-04,25.133314,121.740475,0.99739236
C0X050,東河,2025-12-04,23.296598,120.385608,0.99999124
C0R770,保力,2025-12-04,22.071122,120.764111,0.9997635
G2L020,農試嘉義分所,2025-12-04,23.485028,120.473806,0.99999046
C0X240,關子嶺,2025-12-04,23.331169,120.508025,1.1868248e-06
C0I380,集集,2025-12-04,23.828206,120.801467,0.9882791
466990,花蓮,2025-12-04,23.975128,121.613275,1.760338e-06
C1V220,小關山,2025-12-04,23.154217,120.813603,1.5790647e-08
C1F9G1,慶福山,2025-12-04,24.180853,120.848378,0.4067249
C0FB20,雪山橋,2025-12-04,24.23192,120.9786,2.2467017e-08
C0Z250,瑞穗林道,2025-12-04,23.49284,121.30688,8.25186e-09
C0D590,新豐,2025-12-04,24.87068,120.97721,0.9999733
C0A870,五指山,2025-12-04,25.132153,121.608692,1.0394383e-05
C0UA50,西帽山,2025-12-04,24.555361,121.802628,2.4154584e-08
C2R980,竹田國中,2025-12-04,22.61532,120.52412,0.99995285
C0X160,仁德,2025-12-04,22.968258,120.257689,0.9999917
C1H971,六分寮,2025-12-04,23.92507,120.6378,0.999038
C0W120,西嶼,2025-12-04,23.5626,119.468436,0.99969214
C0G650,員林,2025-12-04,23.946503,120.585597,0.999996
C0AD50,鶯歌,2025-12-04,24.951533,121.346294,0.9980748
C2H9Q0,北東眼山,2025-12-04,24.120939,121.189303,1.5130032e-08
C2H9T0,名間竹圍,2025-12-04,23.859914,120.637572,0.87399864
C0S990,山豬窟,2025-12-04,22.318619,120.857372,0.017961795
C0X190,安平,2025-12-04,22.993161,120.152181,0.9999916
C0K400,斗六,2025-12-04,23.720583,120.541127,0.9999919
12J990,口湖工作站,2025-12-04,23.589978,120.180394,0.9999903
C0O830,北寮,2025-12-04,23.079561,120.495008,0.9994899
C1D410,白蘭,2025-12-04,24.579364,121.079947,8.777514e-08
C0S970,加津林,2025-12-04,22.416211,120.926942,0.9999352
C0D700,關西,2025-12-04,24.7977,121.1732,0.9999257
C0M810,里佳,2025-12-04,23.389125,120.716647,1.8343203e-08
C0U750,龜山島,2025-12-04,24.841667,121.953133,1.4843541e-06
C0R810,內獅,2025-12-04,22.305064,120.642986,0.9999524
C1M390,龍美,2025-12-04,23.406728,120.654417,3.8007673e-08
C2K290,崙內,2025-12-04,23.69525,120.35601,0.999992
C2FB60,頭櫃山,2025-12-04,24.129842,120.858925,1.3787354e-08
C1H840,國三N238K,2025-12-04,23.841008,120.707711,0.98624164
CAQ030,崎峰國小,2025-12-04,22.42565,120.49521,0.9999523
C2E520,大湖,2025-12-04,24.414939,120.870872,0.9999682
467530,阿里山,2025-12-04,23.508208,120.813242,2.3003755e-08
C1E691,南湖,2025-12-04,24.40135,120.837533,0.22627836
C0FA30,梧棲,2025-12-04,24.256003,120.523381,0.99999624
C1V231,高中,2025-12-04,23.134911,120.716711,6.3062817e-09
C0AK30,硬漢嶺,2025-12-04,25.136097,121.426372,0.0007003106
C0F9V0,新社,2025-12-04,24.200172,120.815806,0.99937975
C0H890,埔里,2025-12-04,23.972169,120.952425,0.99987304
C0R690,墾丁,2025-12-04,21.966756,120.810269,0.9996027
C0SD20,富山,2025-12-04,22.822383,121.190825,0.99997973
C0F0D0,審馬陣,2025-12-04,24.381675,121.4203,4.6394913e-08
C2W030,金門農試所,2025-12-04,24.448431,118.451786,0.99926376
C0R820,白鷺,2025-12-04,22.454275,120.666219,3.5319452e-05
C0FB00,大雪山,2025-12-04,24.254668,121.007374,2.4109475e-08
C1V190,南天池,2025-12-04,23.27403,120.91176,2.379462e-08
C0E940,雪見,2025-12-04,24.42595,121.01347,2.2751848e-08
K2E360,苗栗農改場,2025-12-04,24.495722,120.829111,0.9999937
CAJ050,海口故事園區,2025-12-04,23.57543,120.14121,0.9999902
C2K280,四湖,2025-12-04,23.6304,120.22717,0.999992
C2H9D0,三隻寮,2025-12-04,24.093078,120.861578,9.5488744e-05
C0O990,媽廟,2025-12-04,22.99175,120.293525,0.9999921
C0D480,打鐵坑,2025-12-04,24.849664,121.150789,0.99998814
C0Z220,和平林道,2025-12-04,24.343922,121.656317,9.33729e-08
C0TA10,花蓮漁港,2025-12-04,23.995322,121.638331,1.9384745e-06
72C440,桃園農改場,2025-12-04,24.950944,121.030583,0.9951562
C1E711,馬拉邦山,2025-12-04,24.367306,120.901656,2.693919e-08
C0SB20,富岡,2025-12-04,22.792467,121.192669,0.99997705
C0D560,竹東,2025-12-04,24.767147,121.057881,0.99997157
C0F9U0,南屯,2025-12-04,24.137006,120.637969,0.99999636
C0M720,番路,2025-12-04,23.464657,120.554156,0.99762917
C0F0A0,雪山圈谷,2025-12-04,24.388594,121.236339,5.9392992e-08
C1A9N0,四十份,2025-12-04,24.934158,121.593283,0.824299
C0U760,東澳,2025-12-04,24.52196,121.83318,0.89499956
C0X230,鹽水,2025-12-04,23.272621,120.247641,0.9999929
C2H9H0,苗改南投蜂場,2025-12-04,23.852589,120.693481,0.9999756
C0R950,萬隆國小,2025-12-04,22.507667,120.587817,0.9999532
467540,大武,2025-12-04,22.35572,120.90374,0.9999408
C0V370,古亭坑,2025-12-04,22.893178,120.401947,0.99998355
C1I340,新興橋,2025-12-04,23.563333,120.868728,1.0267116e-06
C0SA80,土坂,2025-12-04,22.453108,120.887572,0.99983317
C0R160,鹽埔,2025-12-04,22.739558,120.530778,0.99978906
C0AC40,大屯山,2025-12-04,25.175675,121.522408,1.3950134e-07
466850,五分山雷達站,2025-12-04,25.071182,121.781205,2.5018442e-08
C2H9L0,馬烈霸,2025-12-04,24.1512,121.201772,1.0257116e-08
C1AI50,國三N016K,2025-12-04,25.034164,121.619664,0.99873537
C1V600,藤枝,2025-12-04,23.071961,120.757042,1.955199e-08
C1E601,南勢,2025-12-04,24.572486,120.734842,0.99999374
C0O980,新市,2025-12-04,23.061614,120.298197,0.9999917
C0K420,西螺,2025-12-04,23.800407,120.467394,0.9999926
C0Z050,佳心,2025-12-04,23.34567,121.21316,2.486412e-08
C0AD30,蘆洲,2025-12-04,25.086594,121.472331,0.9977492
C0V610,梓官,2025-12-04,22.760558,120.267211,0.9999724
K2F750,種苗改良場,2025-12-04,24.225972,120.800917,0.99980336
C0UA80,大溪漁港,2025-12-04,24.941801,121.902955,0.9999863
C1AI60,國一39K邊坡,2025-12-04,25.064361,121.383836,0.9999581
C0W150,金寧,2025-12-04,24.457703,118.328989,0.9992607
C0R960,內埔,2025-12-04,22.608483,120.570714,0.99995303
V2C250,八德合作社,2025-12-04,24.93775,121.266389,0.9999207
C2H9S0,龍南,2025-12-04,23.953536,120.833183,2.3518346e-08
C0AH40,平等,2025-12-04,25.129142,121.577086,0.846083
C0R540,佳冬,2025-12-04,22.419456,120.552375,0.9999522
466950,彭佳嶼,2025-12-04,25.627975,122.079744,0.99999255
C0A890,雙溪,2025-12-04,25.036003,121.864242,0.9988711
C0C480,桃園,2025-12-04,24.992425,121.323172,0.99949026
C0AH50,林口,2025-12-04,25.072181,121.38084,0.9999276
A2K360,水試臺西試驗場,2025-12-04,23.717231,120.190522,0.99999183
C2M960,外寮,2025-12-04,23.562643,120.665688,5.365638e-08
C0F9S0,烏日,2025-12-04,24.107058,120.624103,0.9999961
C0C490,八德,2025-12-04,24.928708,121.283289,0.9999264
C0R190,赤山,2025-12-04,22.592333,120.614306,0.9999529
C0T820,天祥,2025-12-04,24.179597,121.495639,1.622017e-07
C1F9E1,龍安,2025-12-04,24.1605,120.831961,0.9986571
C0V820,小林,2025-12-04,23.148408,120.63325,2.4286413e-07
C2G870,芳苑,2025-12-04,23.922303,120.320025,0.99999195
C0E850,大河,2025-12-04,24.618069,120.948578,0.9999912
C1U670,寒溪,2025-12-04,24.634,121.71691,0.9999813
C0N020,城西,2025-12-04,23.0568,120.0956,0.9999927
C1Z110,三棧,2025-12-04,24.11557,121.60501,2.8839198e-08
C0R280,檳榔,2025-12-04,22.076078,120.836777,0.99962044
C2H9J0,中台,2025-12-04,23.9996,120.938739,0.21693408
C0F9L0,后里,2025-12-04,24.310436,120.729725,0.99984354
467441,高雄,2025-12-04,22.730432,120.312516,0.9999748
C0Z180,新城,2025-12-04,24.040486,121.604878,1.2841913e-06
C0D540,橫山,2025-12-04,24.71116,121.11693,0.9999867
C1D420,太閣南,2025-12-04,24.632808,121.160575,1.6806235e-08
C1E770,公館,2025-12-04,24.526914,120.830806,0.9999902
CAN130,水試所海水繁養殖中心,2025-12-04,23.120802,120.07968,0.99999267
C1I430,翠華,2025-12-04,24.191961,121.224339,2.6432403e-08
C1M400,菜瓜坪,2025-12-04,23.251928,120.576103,4.014491e-07
C0G730,二林,2025-12-04,23.903325,120.376081,0.99999577
72M360,南改義竹分場,2025-12-04,23.360694,120.279361,0.99999297
V2K620,麥寮合作社,2025-12-04,23.753836,120.294783,0.999992
C0Z070,舞鶴,2025-12-04,23.46811,121.37407,8.635203e-08
C0B040,大武崙,2025-12-04,25.166676,121.706993,0.998523
C1Z030,紅葉,2025-12-04,23.493119,121.338806,1.2493591e-07
C1I050,丹大,2025-12-04,23.753747,121.141147,2.4636911e-08
C0I080,信義,2025-12-04,23.689694,120.851036,0.28141084
C0D750,樂山林道6k,2025-12-04,24.49999,121.08773,2.5894618e-08
C2M920,朴子農改,2025-12-04,23.469889,120.259383,0.9999904
C2A880,福隆,2025-12-04,25.017842,121.942083,0.9999863
C0Z160,鳳林,2025-12-04,23.746114,121.453411,3.3789323e-07
C0UB80,翠峰林道6K,2025-12-04,24.49773,121.568625,2.196533e-08
C0V210,復興,2025-12-04,23.222403,120.806089,5.9310095e-09
C0H990,昆陽,2025-12-04,24.121322,121.273642,3.9096093e-08
C0R741,獅子,2025-12-04,22.202308,120.705236,0.99995303
C0S710,鹿野,2025-12-04,22.917711,121.122994,0.0017199935
C0I530,小奇萊,2025-12-04,24.131764,121.295717,4.0522053e-08
C0FA70,大雪山埡口,2025-12-04,24.26867,121.03062,2.9119656e-08
C2K630,荷苞,2025-12-04,23.657717,120.595144,0.9999754
C0Z080,富源,2025-12-04,23.587642,121.378225,5.433486e-08
C0SB10,美和,2025-12-04,22.682078,121.060236,0.9999795
C2K620,馬光農場,2025-12-04,23.721453,120.378864,0.9999931
C1I140,卡奈托灣,2025-12-04,23.754364,121.087872,7.897804e-09
C0I520,玉山風口,2025-12-04,23.470489,120.955994,5.418769e-08
C1G691,下水埔,2025-12-04,23.816114,120.5676,0.9999914
C0X110,臺南市南區,2025-12-04,22.961189,120.188378,0.9999917
C0V680,仁武,2025-12-04,22.701083,120.347722,0.9999751
C2G840,北斗,2025-12-04,23.877586,120.514222,0.999996
C0R900,竹坑,2025-12-04,22.1385,120.7022,0.99995244
C0K250,崙背,2025-12-04,23.75555,120.318925,0.99974865
C0G860,社頭,2025-12-04,23.897647,120.5862,0.9999962
C0X150,安定,2025-12-04,23.102614,120.227839,0.9999916
C0R590,里港,2025-12-04,22.77919,120.49459,0.9997894
C0E610,馬都安,2025-12-04,24.451272,120.930192,0.053158753
C0E550,明德,2025-12-04,24.583486,120.885411,0.9999888
C0R150,三地門,2025-12-04,22.709889,120.639944,0.9995392
C0G910,花壇,2025-12-04,24.032076,120.549461,0.99999595
C1D400,鳥嘴山,2025-12-04,24.71909,121.28387,0.032533877
C0K500,元長,2025-12-04,23.64981,120.315024,0.99999195
C0F0B0,石岡,2025-12-04,24.276061,120.777644,0.999791
C2V250,甲仙,2025-12-04,23.080106,120.591758,0.44272342
C0SA20,金崙山,2025-12-04,22.567419,120.959667,6.609682e-05
C0V350,溪埔,2025-12-04,22.738578,120.446797,0.9998138
C0M660,溪口,2025-12-04,23.604131,120.403569,0.99999094
C1S880,壽卡,2025-12-04,22.238911,120.858903,0.00036041668
72D680,桃改新埔分場,2025-12-04,24.834444,121.066111,0.9998996
