站號,站名,日期,lat,lon,BLBTSLS
C0R710,龍磐,2025-04-04,21.931672,120.838942,0.5309407
C1F9D1,白毛台,2025-04-04,24.158325,120.886933,2.4118112e-09
C0G940,竹塘,2025-04-04,23.848253,120.386764,8.603777e-10
467590,恆春,2025-04-04,22.003897,120.746339,0.32952484
C1O850,環湖,2025-04-04,23.148617,120.418633,1.2446616e-09
C0U710,太平山,2025-04-04,24.505486,121.525656,1.3847548e-08
C0E820,獅潭,2025-04-04,24.539133,120.920042,5.218012e-08
C0V880,興達,2025-04-04,22.8778,120.2127,1.3884072e-08
C0S890,關山,2025-04-04,23.0395,121.175017,2.7891154e-05
C0SB30,新蘭,2025-04-04,22.869214,121.223228,0.43256977
C2R970,屏科大,2025-04-04,22.648275,120.619247,9.792819e-10
C1Z130,銅門,2025-04-04,23.965694,121.492842,3.6770948e-07
C0AD40,土城,2025-04-04,24.973208,121.445169,3.0476076e-07
CAN140,六官養殖協會,2025-04-04,23.22881,120.29962,1.9868176e-09
C0X180,山上,2025-04-04,23.0757,120.363253,6.3240124e-09
C0F9Z0,雪山東峰,2025-04-04,24.388792,121.268675,8.361181e-08
C1M480,獨立山,2025-04-04,23.537022,120.607797,7.62891e-10
C0X220,學甲,2025-04-04,23.230367,120.182187,1.9931488e-09
467650,日月潭,2025-04-04,23.881325,120.90805,1.7959229e-09
C0K600,箔子寮,2025-04-04,23.6197,120.14,1.4135211e-09
C0G830,埤頭,2025-04-04,23.866003,120.452806,8.443692e-10
C0S950,七塊厝,2025-04-04,22.954453,121.229922,1.1844406e-07
467110,金門,2025-04-04,24.407306,118.289281,1.4261688e-08
C0AH80,深坑,2025-04-04,25.002703,121.628328,2.1086541e-07
C0A970,三貂角,2025-04-04,25.007606,122.002058,2.5120482e-08
C2D730,寶山農場,2025-04-04,24.732444,120.976153,1.2348767e-07
C0K430,褒忠,2025-04-04,23.690938,120.303634,4.932601e-09
467480,嘉義,2025-04-04,23.495925,120.432906,1.338203e-09
C0V400,阿公店,2025-04-04,22.804194,120.355528,1.4857067e-06
467550,玉山,2025-04-04,23.48718,120.95943,6.2252106e-08
C0R440,大漢山,2025-04-04,22.405264,120.753181,1.1436006e-08
C0K280,四湖,2025-04-04,23.630414,120.227125,4.9580877e-09
C1F9B1,桐林,2025-04-04,24.066172,120.735194,6.222492e-08
C2H9U0,鳳鵬,2025-04-04,23.763919,120.788061,6.914292e-10
C0K390,土庫,2025-04-04,23.679029,120.395574,8.456796e-10
C1I450,望鄉山,2025-04-04,23.594153,120.944286,3.220278e-08
C0E910,海埔,2025-04-04,24.648767,120.772435,1.11174664e-07
B2E890,畜試北區分所,2025-04-04,24.527806,120.770972,5.5642367e-08
C0R750,四林格山,2025-04-04,22.076989,120.802439,0.91945195
C0F0C0,中坑,2025-04-04,24.248517,120.903319,5.105483e-09
C1I121,大鞍,2025-04-04,23.678381,120.760017,2.7035332e-09
72U480,花改蘭陽分場,2025-04-04,24.686306,121.716583,3.0624427e-08
C0A770,科教館,2025-04-04,25.096356,121.516507,3.7520155e-07
C0AJ60,六塊厝,2025-04-04,25.24,121.4481,3.8275647e-07
C0R620,墾雷,2025-04-04,21.900836,120.855269,0.35751623
467420,永康,2025-04-04,23.038386,120.2367,1.2803738e-08
C0I410,名間,2025-04-04,23.837053,120.701447,6.3675704e-10
A2C560,農工中心,2025-04-04,24.985917,121.239833,3.151377e-07
C0V740,旗山,2025-04-04,22.888614,120.483597,8.0679433e-07
C0Z061,玉里,2025-04-04,23.3215,121.339656,0.0016373068
C0S840,南田,2025-04-04,22.279725,120.889208,0.011858176
C1I470,杉林溪,2025-04-04,23.639517,120.786444,3.362356e-09
C1X040,東原,2025-04-04,23.291597,120.463822,6.9036443e-10
C0R660,枋寮,2025-04-04,22.367722,120.590647,0.040717635
C1R120,上德文,2025-04-04,22.763272,120.704442,1.5307739e-08
C0K450,大埤,2025-04-04,23.646074,120.431537,8.3945223e-10
C0UA00,土場,2025-04-04,24.576533,121.495333,1.5615612e-08
467080,宜蘭,2025-04-04,24.763975,121.756528,3.306456e-08
C0N030,四草,2025-04-04,23.0235,120.1116,2.1316255e-09
467410,臺南,2025-04-04,22.99328,120.20492,1.0658717e-08
C0V650,彌陀,2025-04-04,22.783806,120.246361,7.1702016e-06
C0D660,新竹市東區,2025-04-04,24.798681,120.986942,7.1618665e-08
82S580,茶改東部分場,2025-04-04,22.907694,121.130139,0.000109806184
C0SB40,興隆,2025-04-04,22.913661,121.257469,0.32281265
467050,新屋,2025-04-04,25.006725,121.047492,1.1375125e-06
C0C710,大溪永福,2025-04-04,24.892936,121.324975,2.5871623e-07
C0FA20,溫寮,2025-04-04,24.372177,120.583125,1.6093851e-07
C0V640,湖內,2025-04-04,22.887139,120.2445,1.2636022e-08
C0R910,下寮,2025-04-04,22.3929,120.5548,0.045835126
C0Z020,明里,2025-04-04,23.208717,121.262342,2.4771167e-05
C0M770,嘉義梅山,2025-04-04,23.585398,120.555587,6.423071e-10
C0C660,楊梅,2025-04-04,24.912375,121.143047,2.0539422e-07
C1E511,新開,2025-04-04,24.347703,120.827019,3.797541e-09
G2F820,農試所(霧峰),2025-04-04,24.031261,120.688133,8.123744e-08
C1I070,和社,2025-04-04,23.591131,120.888861,3.1899912e-09
C2F000,大肚,2025-04-04,24.15295,120.572117,7.6739465e-10
C1S850,豐南,2025-04-04,23.122139,121.262389,5.631029e-08
C2A920,富貴角,2025-04-04,25.263783,121.565258,8.804224e-08
CAH030,茶改場竹圍站,2025-04-04,23.860083,120.637528,4.759648e-10
C0T960,光復,2025-04-04,23.660694,121.424964,8.723119e-07
C0F9M0,豐原,2025-04-04,24.254322,120.720692,2.4625823e-08
C0R720,旭海,2025-04-04,22.205403,120.887614,1.7808172e-07
C0V710,苓雅,2025-04-04,22.622742,120.330669,5.25707e-06
C0C740,觀音工業區,2025-04-04,25.064764,121.114856,1.3840005e-06
CAC040,拉拉山,2025-04-04,24.699317,121.427133,1.4979513e-08
C0V790,萬山,2025-04-04,22.905944,120.688056,4.804038e-10
U2HA30,臺大和社,2025-04-04,23.590856,120.888864,3.1899912e-09
C0AJ90,澳底,2025-04-04,25.0552,121.9253,3.29772e-08
C0Z100,東華,2025-04-04,23.89525,121.549833,6.757931e-06
C0G970,三豐,2025-04-04,23.882,120.2895,5.098564e-09
V2K610,大庄合作社,2025-04-04,23.8068,120.367939,4.8275273e-09
C0V900,汕尾,2025-04-04,22.4782,120.4151,0.04900473
C1R630,龍泉,2025-04-04,22.66701,120.59091,1.7343482e-09
C1AC50,關渡,2025-04-04,25.133486,121.469331,1.4738761e-07
C0F9I0,神岡,2025-04-04,24.272481,120.658314,2.8158139e-08
C0K460,斗南,2025-04-04,23.678734,120.478359,8.249274e-10
C2O810,曾文,2025-04-04,23.219681,120.497328,9.538385e-10
467280,後龍,2025-04-04,24.648563,120.831834,8.189427e-08
C1F9J1,清水林,2025-04-04,24.071242,120.820419,7.112377e-10
C2A650,火燒寮,2025-04-04,25.002719,121.742892,1.68258e-08
466930,竹子湖,2025-04-04,25.162078,121.544547,6.8721833e-09
C1I220,樟湖,2025-04-04,23.905333,120.846983,1.8726827e-09
C0I390,仁愛,2025-04-04,24.022122,121.132206,1.9268214e-09
C0Z300,東里,2025-04-04,23.26853,121.30547,0.0005365241
C1V590,新發,2025-04-04,23.057019,120.646064,1.1436263e-09
C0K510,水林,2025-04-04,23.572924,120.24597,1.3856577e-09
72S590,東改賓朗果園,2025-04-04,22.813889,121.071278,1.0822117e-06
82A750,茶改北部分場,2025-04-04,24.955778,121.631222,7.443084e-09
C1A750,石碇服務區,2025-04-04,25.00872,121.646242,1.8897042e-07
C0X300,鹿寮,2025-04-04,23.386047,120.477331,7.488791e-10
G2AI50,關渡,2025-04-04,25.11575,121.492,3.7899775e-07
C0K590,雲林東勢,2025-04-04,23.674192,120.255721,4.833562e-09
C0A570,桶後,2025-04-04,24.848222,121.597992,1.8306853e-08
C1S800,華源,2025-04-04,22.657883,121.02325,0.010967555
C0G720,溪州,2025-04-04,23.851589,120.499093,8.235487e-10
C1V160,達卡努瓦,2025-04-04,23.279811,120.705319,1.6241996e-09
C2M410,馬頭山,2025-04-04,23.324361,120.582017,5.147761e-10
C0V850,蚵仔寮,2025-04-04,22.7256,120.2527,7.973417e-06
C0S740,池上,2025-04-04,23.119628,121.209469,1.5068724e-06
C1V390,尖山,2025-04-04,22.813153,120.367789,5.4117965e-07
C0AH70,松山,2025-04-04,25.04871,121.55042,3.2650286e-07
C0N010,鯤鯓國小,2025-04-04,23.1879,120.0889,2.089264e-09
C0R550,新埤,2025-04-04,22.467947,120.582894,0.011981792
C0SA60,知本（水試所）,2025-04-04,22.702394,121.082761,0.8734127
C0T9I0,豐濱,2025-04-04,23.583897,121.514806,6.771109e-07
C0UB00,淡江大學蘭陽校園,2025-04-04,24.823239,121.730383,5.7099356e-09
C0W240,九宮,2025-04-04,24.423753,118.240186,1.4303067e-08
C0T9N0,富里,2025-04-04,23.171639,121.249378,5.829758e-06
U2HA50,臺大竹山,2025-04-04,23.756972,120.681556,6.4008376e-10
C0V840,鳳鼻頭,2025-04-04,22.5083,120.3591,7.973417e-06
C0X140,西港,2025-04-04,23.125608,120.203108,1.9855524e-09
72D080,桃改五峰分場,2025-04-04,24.612194,121.157167,5.2643645e-09
C2H9P0,伊拿谷,2025-04-04,23.963211,121.088264,1.8133914e-09
C2H9F0,柑林,2025-04-04,24.018658,120.847072,7.896806e-10
C0TA20,加灣,2025-04-04,24.082025,121.608944,1.0694938e-05
C0V530,阿蓮,2025-04-04,22.883208,120.327508,8.7762215e-09
C1O880,關山,2025-04-04,23.173397,120.594092,5.123537e-10
C0E791,卓蘭,2025-04-04,24.3126,120.8244,3.6984718e-09
C1I030,武界,2025-04-04,23.913225,121.052483,1.78296e-09
C0R520,崁頂,2025-04-04,22.514781,120.506914,0.02190492
C0R341,牡丹,2025-04-04,22.130036,120.792639,1.9635128e-07
C0R930,萬丹,2025-04-04,22.5885,120.4851,0.014340488
C0S760,紅石,2025-04-04,23.069131,121.126219,4.9318203e-09
C2C410,中央大學,2025-04-04,24.967652,121.185165,2.6366072e-07
C1M610,石磐龍,2025-04-04,23.496606,120.663506,1.325504e-09
C0UA10,鴛鴦湖,2025-04-04,24.590269,121.412228,1.5914555e-08
V2C260,八德蔬果,2025-04-04,24.978508,121.281819,3.333028e-07
C0R800,丹路,2025-04-04,22.204481,120.750989,8.952503e-06
C0G920,永靖,2025-04-04,23.924703,120.547533,3.4894683e-09
C2M950,太和,2025-04-04,23.538372,120.702961,1.6844736e-09
C1A630,下盆,2025-04-04,24.771003,121.538622,5.282862e-09
B2N890,畜產試驗所,2025-04-04,23.058972,120.336406,8.6178735e-09
C0UA30,白嶺,2025-04-04,24.527819,121.519031,5.466383e-09
C1V580,溪南(特生中心),2025-04-04,23.084972,120.788475,4.7992685e-09
C1T970,大農,2025-04-04,23.615233,121.413331,3.289372e-07
C0R650,竹田,2025-04-04,22.58486,120.54344,0.017116984
C1H900,清流,2025-04-04,24.080775,120.962997,1.8122435e-09
C1C510,水尾,2025-04-04,24.940081,121.087161,4.2106782e-07
C0F9X0,大雅(中科園區),2025-04-04,24.21528,120.62445,4.8166672e-08
C0SB60,白守蓮,2025-04-04,23.126769,121.401914,0.8610773
C0O970,虎頭埤,2025-04-04,23.021375,120.347878,6.278665e-09
C0C730,中大臨海站,2025-04-04,24.966126,121.008581,1.4781133e-06
C0X250,新營,2025-04-04,23.310689,120.316681,1.9335438e-09
C0V700,三民,2025-04-04,22.645017,120.311233,5.25707e-06
C0U870,大礁溪,2025-04-04,24.791042,121.675047,5.7842438e-09
C0E870,高鐵苗栗,2025-04-04,24.60725,120.826094,1.2999433e-07
A2K570,古坑花卉中心,2025-04-04,23.63353,120.55239,7.154774e-10
C0TA30,鹽寮,2025-04-04,23.845606,121.592664,1.0694938e-05
C0M860,新美,2025-04-04,23.338017,120.683169,5.0408727e-10
C1E701,八卦,2025-04-04,24.491756,120.927619,5.113084e-09
C0I420,國姓,2025-04-04,24.037803,120.855072,7.5985007e-10
C2D720,關西工作站,2025-04-04,24.757275,121.184792,6.695537e-08
C0S960,香蘭,2025-04-04,22.587569,120.993375,0.0067373146
467620,蘭嶼,2025-04-04,22.0369,121.55843,0.4026269
C0R260,春日,2025-04-04,22.370361,120.628306,0.0007452524
72G600,臺中農改場,2025-04-04,24.003028,120.534389,3.7228467e-09
C0Z210,瑞穗,2025-04-04,23.5239,121.39021,1.052544e-06
C0M820,達邦,2025-04-04,23.453994,120.749517,1.226368e-09
C0V860,南寮,2025-04-04,22.7616,120.2339,8.1938915e-06
C0G740,大城,2025-04-04,23.852487,120.320935,4.8453495e-09
C0R920,塭仔,2025-04-04,22.4169,120.5197,0.04900473
C0R470,高樹,2025-04-04,22.826389,120.600806,1.1924948e-09
C0R680,佳樂水,2025-04-04,21.993578,120.861633,0.3237905
C1O870,大棟山,2025-04-04,23.31157,120.52226,1.807521e-09
C0D360,梅花,2025-04-04,24.678347,121.208558,6.9539463e-09
C0Z190,富世,2025-04-04,24.14743,121.6297,4.2899526e-08
C0AI10,屈尺,2025-04-04,24.92184,121.54475,2.0712264e-07
B2U990,畜試東區分所,2025-04-04,24.669039,121.832561,3.3325474e-08
C0SB80,長濱漁港,2025-04-04,23.313644,121.459994,0.7466055
C0R240,來義,2025-04-04,22.527306,120.625111,8.598516e-05
C0V910,大樹,2025-04-04,22.684645,120.432803,2.298664e-09
C1R610,西大武山,2025-04-04,22.617719,120.7322,1.1940384e-08
C0G900,線西,2025-04-04,24.143358,120.443536,1.602594e-07
C0M700,竹崎,2025-04-04,23.526178,120.555508,6.5736844e-10
C2E880,三義,2025-04-04,24.405478,120.749819,2.5275517e-09
C0C720,竹圍,2025-04-04,25.112692,121.239824,3.635108e-07
C0F9P0,清水,2025-04-04,24.312297,120.562242,1.4207353e-07
C0Z150,吉安光華,2025-04-04,23.930925,121.595153,1.3949729e-05
467300,東吉島,2025-04-04,23.25727,119.66762,0.33970565
C1D640,外坪(五指山),2025-04-04,24.644447,121.090961,5.0685838e-09
C0F9O0,潭子,2025-04-04,24.213106,120.703933,2.9954183e-08
C2H9R0,卓社,2025-04-04,23.887894,121.000086,4.8819087e-09
72T250,花蓮農改場,2025-04-04,23.975222,121.563889,6.6881166e-06
C0E780,銅鑼,2025-04-04,24.489681,120.790853,3.1243214e-08
C1T950,太安,2025-04-04,23.666719,121.370128,1.7955838e-09
C0E830,苑裡,2025-04-04,24.439714,120.653053,1.3240562e-07
467270,田中,2025-04-04,23.873803,120.581286,8.01896e-10
C0SA10,檳榔四格山,2025-04-04,22.810031,121.109308,2.2252782e-07
C1T830,布洛灣,2025-04-04,24.17184,121.57127,1.674547e-08
C0F970,大坑,2025-04-04,24.173142,120.722289,3.851574e-08
C1U920,思源,2025-04-04,24.393125,121.347214,1.3537094e-08
C0A931,三和,2025-04-04,25.233153,121.595236,7.312614e-08
C0I010,廬山,2025-04-04,24.033311,121.181808,2.8303184e-09
C2M940,日野賀,2025-04-04,23.434056,120.727169,1.3516808e-09
C0R860,鼻頭,2025-04-04,22.1043,120.8979,0.75859773
C0UB20,壯圍,2025-04-04,24.7359,121.8163,3.34295e-08
C0R790,九棚,2025-04-04,22.14195,120.889281,9.84271e-07
C0W110,東莒,2025-04-04,25.9652,119.98069,3.7790778e-07
C1U930,粉鳥林,2025-04-04,24.497088,121.842479,5.8765906e-08
C1I211,蘆竹湳,2025-04-04,23.934019,120.811994,6.868248e-10
C0S830,長濱,2025-04-04,23.286817,121.411975,5.8209853e-06
C1F9F1,伯公龍,2025-04-04,24.272392,120.849047,2.666863e-09
C0E810,西湖,2025-04-04,24.562947,120.7485,7.550817e-08
C1I440,新高口,2025-04-04,23.478744,120.878939,1.6490826e-08
C0O840,王爺宮,2025-04-04,23.222064,120.40085,9.545009e-10
C0T9G0,鳳林山,2025-04-04,23.735269,121.420131,2.3498516e-09
C0X080,佳里,2025-04-04,23.173039,120.145086,2.1258477e-09
C0FB70,大甲溪埔,2025-04-04,24.370625,120.620067,1.2546317e-07
C0Z310,清水斷崖,2025-04-04,24.218294,121.689142,3.371091e-08
C0M680,太保,2025-04-04,23.455062,120.331455,1.3714015e-09
C1S820,金峰,2025-04-04,22.590969,120.933236,5.0650783e-07
C0AD10,八里,2025-04-04,25.150211,121.403947,3.601392e-07
C2K240,草嶺,2025-04-04,23.59555,120.693461,1.3376492e-09
C1SA70,都蘭,2025-04-04,22.87794,121.226881,0.3223611
C0K440,二崙,2025-04-04,23.772797,120.408944,8.455199e-10
C1A760,坪林交控,2025-04-04,24.94284,121.713442,1.8487563e-08
C0F9N0,大里,2025-04-04,24.092464,120.701378,7.5706524e-10
C0SA90,達仁林場,2025-04-04,22.264347,120.823972,6.6457106e-09
C1R290,石門山,2025-04-04,22.112611,120.756597,0.7738623
42HA10,萬大發電廠,2025-04-04,23.978875,121.139639,1.7955838e-09
C0R890,山海,2025-04-04,21.9878,120.7091,0.27860612
C0T9A0,月眉山,2025-04-04,23.809928,121.539828,3.2823458e-08
C0AC70,信義,2025-04-04,25.037822,121.564597,3.247297e-07
C0K560,棋山,2025-04-04,23.68645,120.603417,6.9374756e-10
C2FB50,出雲,2025-04-04,24.206469,120.902794,1.8318613e-09
C1Z240,中平林道,2025-04-04,23.42115,121.26763,2.0909423e-09
U2H480,溪頭,2025-04-04,23.670306,120.798194,1.9575823e-09
C0M880,好美里,2025-04-04,23.3364,120.138,2.1258477e-09
C0T9E0,大坑,2025-04-04,23.880628,121.581981,4.8253018e-08
C0K530,臺西,2025-04-04,23.701547,120.197559,5.0686126e-09
C1E900,國一N128K,2025-04-04,24.560997,120.844186,6.37003e-08
C0AJ50,水湳洞,2025-04-04,25.123695,121.862238,3.0576894e-07
C0AI20,白沙灣,2025-04-04,25.283128,121.519058,3.0576894e-07
C2V310,美濃,2025-04-04,22.898792,120.51907,1.3740449e-06
C0A860,大坪,2025-04-04,25.165914,121.632969,7.750337e-09
C1U850,觀音海岸,2025-04-04,24.38319,121.77856,3.282463e-09
C2K610,草嶺石壁,2025-04-04,23.602469,120.707731,1.3664849e-09
C0U950,鶯子嶺,2025-04-04,24.89754,121.79244,3.88438e-09
C0O900,善化,2025-04-04,23.112883,120.297219,1.3493426e-08
C0K550,蔦松,2025-04-04,23.514319,120.229736,1.4172034e-09
E2P980,林試六龜中心,2025-04-04,22.991703,120.645722,5.6967703e-10
C0E590,通霄,2025-04-04,24.471892,120.704622,7.1618665e-08
C1I310,西巒,2025-04-04,23.754486,120.883956,1.7970776e-09
C0A550,泰平,2025-04-04,24.971197,121.823711,7.456413e-09
C0I360,水里,2025-04-04,23.812553,120.849792,4.824579e-10
C0R830,高士,2025-04-04,22.121825,120.836781,0.8418796
C1I101,溪頭,2025-04-04,23.661789,120.807647,4.0209986e-09
C0AJ20,野柳,2025-04-04,25.20703,121.690021,3.2650286e-07
C0B060,暖暖,2025-04-04,25.0957,121.7403,1.8918553e-07
C1H920,長豐,2025-04-04,24.102039,120.879897,7.233784e-10
C0V360,內門,2025-04-04,22.975481,120.466769,1.3148754e-09
C0R850,林邊,2025-04-04,22.4634,120.5339,0.020849226
C0E930,龍鳳,2025-04-04,24.700034,120.859125,1.1443636e-07
C0U910,冬山,2025-04-04,24.63373,121.7937,3.3325474e-08
C1E721,泰安,2025-04-04,24.489017,120.968036,5.471588e-09
82H320,茶改中部分場,2025-04-04,23.875611,120.913583,1.821569e-09
C0M750,布袋,2025-04-04,23.380878,120.167789,1.4207489e-09
C1S860,利嘉,2025-04-04,22.809417,121.050528,6.4317414e-09
E2S980,林試太麻里1,2025-04-04,22.598922,120.980044,0.00015127544
C0X170,關廟,2025-04-04,22.963017,120.327797,7.16144e-09
C0V720,林園,2025-04-04,22.507747,120.394511,0.020418199
C1I510,線浸林道,2025-04-04,23.761508,120.832956,1.4623827e-09
C0D690,外湖,2025-04-04,24.917735,120.968711,1.5060923e-06
C0C750,新興坑尾,2025-04-04,25.0061,121.0971,6.3705585e-07
B2Q810,畜試南區分所,2025-04-04,21.945583,120.802167,0.31199676
C0S790,金崙,2025-04-04,22.538122,120.966875,1.5070908e-07
C0AH90,福山植物園,2025-04-04,24.760717,121.58135,5.112099e-09
C0I540,奇萊稜線,2025-04-04,24.109231,121.326456,4.6855572e-08
C0M850,表湖,2025-04-04,23.24186,120.64166,5.856645e-10
C0S770,大溪山,2025-04-04,22.478475,120.943325,1.2343451e-08
C0AG80,中和,2025-04-04,24.991622,121.491792,3.0394864e-07
C0T790,大禹嶺,2025-04-04,24.186117,121.316086,3.9441602e-08
C0T9B0,水源,2025-04-04,23.991861,121.537169,2.307467e-09
C0R840,牡丹池山,2025-04-04,22.168389,120.841225,7.031852e-09
C1I131,桶頭,2025-04-04,23.641944,120.654117,4.7514304e-10
CAL110,布袋國中,2025-04-04,23.35893,120.18026,2.1283346e-09
467571,新竹,2025-04-04,24.827853,121.014219,8.316678e-08
C0Z290,赤柯山,2025-04-04,23.36893,121.38293,3.4544436e-09
C0X280,將軍,2025-04-04,23.214999,120.13577,2.089264e-09
C0S690,太麻里,2025-04-04,22.60902,120.98533,3.678326e-07
C0U880,北關,2025-04-04,24.9072,121.8734,3.7520155e-07
C0G810,埔心,2025-04-04,23.947633,120.525456,3.5267984e-09
C0U970,大福,2025-04-04,24.80064,121.81389,3.4310688e-08
C2H9N0,仁愛東眼,2025-04-04,24.026875,121.1205,2.503318e-09
C1E670,南礦,2025-04-04,24.538278,121.002836,4.7782884e-09
C0M520,東後寮,2025-04-04,23.369908,120.248065,1.9931488e-09
C1E461,松安,2025-04-04,24.397972,120.986022,5.074465e-09
C2N160,西拉雅風管處,2025-04-04,23.189481,120.335297,1.8405224e-09
C2M970,碧湖,2025-04-04,23.568632,120.624165,1.2585505e-09
C0A640,石碇,2025-04-04,24.993969,121.662917,1.8278172e-08
E2S960,林試太麻里2,2025-04-04,22.598,120.99775,0.011695589
C0F9Y0,桃山,2025-04-04,24.432739,121.303808,8.84899e-08
C1I020,萬大,2025-04-04,23.979817,121.132261,1.9293478e-09
C0U940,羅東,2025-04-04,24.68184,121.74934,3.2455535e-08
C0M650,朴子,2025-04-04,23.43463,120.23902,1.3856577e-09
C1I500,大尖山,2025-04-04,23.858572,120.994889,1.2044137e-08
C0G820,田尾,2025-04-04,23.901669,120.509389,3.5138394e-09
E2K600,四湖植物園,2025-04-04,23.676986,120.163433,4.937364e-09
C0S730,綠島,2025-04-04,22.6672,121.47533,0.029821225
12Q970,東港工作站,2025-04-04,22.479997,120.466058,0.040717635
C0E430,南庄,2025-04-04,24.601775,121.000214,4.7411596e-08
C1TA00,太魯閣,2025-04-04,24.15773,121.6236,3.4893905e-08
466920,臺北,2025-04-04,25.037658,121.514853,3.2650286e-07
C0R600,舊泰武,2025-04-04,22.588194,120.664944,1.1584629e-09
C1I260,北坑,2025-04-04,23.9246,121.006903,6.835315e-10
466910,鞍部,2025-04-04,25.182586,121.529731,7.2550117e-09
C1I230,九份二山,2025-04-04,23.961944,120.845,1.879582e-09
C2A660,瑞芳,2025-04-04,25.113169,121.801147,1.5273694e-07
C0R270,琉球嶼,2025-04-04,22.332244,120.362236,0.00062855246
C1T990,高寮,2025-04-04,23.394239,121.356808,1.4878293e-06
C0G620,芬園,2025-04-04,24.015678,120.6213,2.595533e-09
C1Z140,荖溪,2025-04-04,23.890575,121.45964,3.3106504e-09
C1I201,中心崙,2025-04-04,23.728722,120.712097,6.9568745e-10
C1I400,凌霄,2025-04-04,24.018778,121.004456,2.4688833e-09
C1M640,十字,2025-04-04,23.492153,120.753683,2.8858167e-09
G2P820,農試鳳山分所,2025-04-04,22.646611,120.356083,2.5182114e-06
C0Z270,蕃薯寮,2025-04-04,23.73835,121.540108,8.2231104e-08
C0F9Q0,外埔,2025-04-04,24.347817,120.705686,3.4403346e-08
C0K580,高鐵雲林,2025-04-04,23.737456,120.417944,8.455199e-10
C2I090,鳳凰,2025-04-04,23.728081,120.787347,1.7935711e-09
C0U990,員山,2025-04-04,24.74435,121.72247,3.259804e-08
C0V770,大社,2025-04-04,22.730306,120.346639,4.6996684e-06
C0X120,麻豆,2025-04-04,23.183289,120.248611,1.9855524e-09
C0C670,龍潭,2025-04-04,24.870056,121.221389,4.281443e-08
C0D680,香山濕地,2025-04-04,24.783581,120.914988,1.1176935e-07
C0S980,勝林山,2025-04-04,22.430439,120.8938,1.4412856e-08
C0V730,大寮,2025-04-04,22.605614,120.395717,0.011981792
C0R570,麟洛,2025-04-04,22.65078,120.52719,2.2305224e-09
C2M930,石卓,2025-04-04,23.478744,120.702264,2.849711e-09
C0G9B0,和美,2025-04-04,24.105169,120.492131,3.8040433e-09
CAG100,王功漁港,2025-04-04,23.96824,120.32586,5.0686126e-09
C0X290,北門,2025-04-04,23.267772,120.125481,2.1283346e-09
C2F930,大甲,2025-04-04,24.347667,120.640403,7.044017e-08
C0D650,湖口,2025-04-04,24.904794,121.043628,4.5632177e-07
C0E420,竹南,2025-04-04,24.708978,120.888897,8.323407e-08
C0U780,五結,2025-04-04,24.68637,121.79794,3.3325474e-08
C1I250,鯉潭,2025-04-04,23.961922,120.991131,7.233784e-10
C0R130,阿禮,2025-04-04,22.742908,120.743678,1.0422021e-08
C0X100,臺南市北區,2025-04-04,23.010394,120.194228,1.3884072e-08
C0S920,金峰嘉蘭,2025-04-04,22.594789,120.960825,0.00014945243
C0V490,新興,2025-04-04,22.627422,120.298803,6.0345656e-06
C0F9K0,大安,2025-04-04,24.345061,120.588025,1.2953323e-07
467290,古坑,2025-04-04,23.633639,120.551889,7.154774e-10
C2E970,八甲,2025-04-04,24.535811,120.795983,3.0872567e-08
C0V440,鳳山,2025-04-04,22.646653,120.356122,2.5182114e-06
C1T940,大觀,2025-04-04,23.714206,121.373133,3.2369233e-08
C0E740,造橋,2025-04-04,24.637056,120.864778,8.856706e-08
C0R100,尾寮山,2025-04-04,22.833111,120.683889,1.0410041e-08
A2K630,臺大雲林校區,2025-04-04,23.730628,120.423903,8.4317986e-10
467990,馬祖,2025-04-04,26.169467,119.923158,6.7849464e-09
C0D580,寶山,2025-04-04,24.735006,121.025192,8.3986784e-08
E2P990,林試扇平站,2025-04-04,22.9677,120.6857,1.1273078e-09
C0AI30,三重,2025-04-04,25.057328,121.500629,3.7520155e-07
C0AH00,汐止,2025-04-04,25.066881,121.658778,3.2650286e-07
C1Z040,立山,2025-04-04,23.443356,121.327375,3.6958152e-08
466881,新北,2025-04-04,24.959207,121.525196,2.6632205e-07
C0W130,花嶼,2025-04-04,23.40007,119.32276,0.55847645
C0A950,鼻頭角,2025-04-04,25.129036,121.923372,3.3276187e-08
C0K470,林內,2025-04-04,23.748675,120.609642,7.174233e-10
C2F990,摩天嶺,2025-04-04,24.322458,120.936819,1.7956865e-09
82C160,茶改場,2025-04-04,24.908472,121.185333,1.4041109e-07
C0Z320,清水林道,2025-04-04,23.27125,121.188272,3.0904304e-09
C0R760,南仁湖,2025-04-04,22.084681,120.863353,0.77509415
C0M670,大林,2025-04-04,23.600616,120.45841,1.302783e-09
C0M800,茶山,2025-04-04,23.299075,120.664767,4.7926707e-10
C0A9C0,天母,2025-04-04,25.117494,121.537169,3.0394864e-07
72K220,南改斗南分場,2025-04-04,23.634556,120.477333,8.0592405e-10
72AI40,桃改樹林分場,2025-04-04,24.944503,121.386972,2.7462644e-07
C0S910,蘭嶼燈塔,2025-04-04,22.081197,121.503117,0.5647948
C0B050,八斗子,2025-04-04,25.144754,121.79167,3.8275647e-07
C0U900,內城,2025-04-04,24.71813,121.68766,2.9300168e-08
C0X320,柳營,2025-04-04,23.253328,120.375253,1.338203e-09
C0M790,新港,2025-04-04,23.553269,120.345728,1.3745336e-09
C0F9T0,西屯,2025-04-04,24.179494,120.641275,7.044017e-08
C0SA30,都歷,2025-04-04,23.020333,121.323642,0.16560942
C0C620,蘆竹,2025-04-04,25.084275,121.265767,2.9838912e-07
C0R730,大坪頂,2025-04-04,22.024633,120.69355,0.6015045
C0AJ40,石門,2025-04-04,25.273672,121.601198,1.1080251e-07
C0E750,苗栗,2025-04-04,24.564569,120.824575,6.897715e-08
C0T870,鯉魚潭,2025-04-04,23.935639,121.508944,5.985796e-07
C1V170,排雲,2025-04-04,23.463619,120.954147,5.4961607e-08
C2H950,中寮,2025-04-04,23.884447,120.766406,4.0878604e-08
C0R350,貓鼻頭,2025-04-04,21.921774,120.7358,0.35468915
C0V660,岡山,2025-04-04,22.797078,120.294958,6.28157e-06
C1H941,雙冬,2025-04-04,23.967378,120.802189,6.863783e-10
C0AJ70,田寮,2025-04-04,25.2698,121.4886,3.2769324e-07
C0AI00,五股,2025-04-04,25.07445,121.42728,1.857193e-07
C0Z280,德武,2025-04-04,23.47426,121.41071,3.0043358e-07
C0R700,枋山,2025-04-04,22.246844,120.661086,0.020418199
C0C460,復興,2025-04-04,24.820208,121.352281,7.2663955e-09
E2H360,蓮華池,2025-04-04,23.918333,120.885278,6.994728e-10
C0M640,中埔,2025-04-04,23.42538,120.5229,6.5465827e-10
C0W140,金沙,2025-04-04,24.488292,118.408778,1.4396123e-08
C2A540,四堵,2025-04-04,24.8926,121.745736,7.918832e-09
C0ACA0,新莊,2025-04-04,25.051478,121.446756,3.327562e-07
C0R220,潮州,2025-04-04,22.534361,120.54,0.016578913
U2HA40,臺大內茅埔,2025-04-04,23.689722,120.851117,6.893079e-10
467490,臺中,2025-04-04,24.145736,120.684075,7.322328e-08
C0U960,翠峰湖,2025-04-04,24.510856,121.608044,1.3145501e-08
E2HA20,林試畢祿溪站,2025-04-04,24.226944,121.308522,1.58912e-08
C0V890,前鎮,2025-04-04,22.5718,120.3117,7.1702016e-06
C1F941,雪嶺,2025-04-04,24.280586,121.026642,3.0014462e-08
C2H9E0,國姓南港,2025-04-04,23.911108,120.846556,1.9269573e-09
C0AC80,文山,2025-04-04,25.00235,121.575728,2.0819958e-07
C0F9R0,龍井,2025-04-04,24.184536,120.528972,1.5507194e-07
C0M760,民雄,2025-04-04,23.551754,120.428457,1.3144592e-09
C0UA40,西德山,2025-04-04,24.560647,121.752608,4.2983377e-09
C1T920,中興,2025-04-04,23.769503,121.498653,2.7375409e-06
C0D550,雪霸,2025-04-04,24.526972,121.11605,2.0200165e-08
C2F860,梨山,2025-04-04,24.247522,121.243669,1.6709196e-08
C0R320,車城,2025-04-04,22.0744,120.716247,0.27904844
C1S870,南美山,2025-04-04,23.15025,121.382333,9.677778e-06
C0B020,基隆嶼,2025-04-04,25.19141,121.78391,3.0527565e-07
C1U501,牛鬥,2025-04-04,24.637836,121.573656,1.7143462e-08
C0M730,嘉義市東區,2025-04-04,23.457673,120.460531,1.311224e-09
C0S700,知本,2025-04-04,22.684866,121.005642,6.6457106e-09
C1N001,沙崙,2025-04-04,22.935472,120.309406,8.70726e-09
C0V760,橋頭,2025-04-04,22.757806,120.30575,6.0345656e-06
C0G960,福寶,2025-04-04,24.0443,120.3814,3.924759e-09
C0X210,白河,2025-04-04,23.347466,120.414427,1.2964422e-09
C0S810,東河,2025-04-04,22.972672,121.303986,0.5353604
C2R170,屏東,2025-04-04,22.66027,120.49403,2.251574e-09
C0R670,楓港,2025-04-04,22.190131,120.692156,0.020028803
C0FA50,霧峰,2025-04-04,24.0419,120.6995,7.93639e-08
C0UB10,蘇澳,2025-04-04,24.5969,121.8571,5.8099655e-08
C0G950,防潮門,2025-04-04,24.1835,120.4871,1.6136299e-07
C0M740,六腳,2025-04-04,23.492871,120.290625,1.3815409e-09
C1R250,力里,2025-04-04,22.428117,120.629228,9.2580696e-05
C0K330,虎尾,2025-04-04,23.719183,120.442036,8.302422e-10
C2FA00,烏石坑,2025-04-04,24.273503,120.947617,1.7905529e-09
C0V620,永安,2025-04-04,22.82315,120.236856,7.1702016e-06
C1I330,楓樹林,2025-04-04,23.986803,121.076117,4.734254e-09
C0W200,湖西,2025-04-04,23.596314,119.67275,0.5089546
72Q010,高雄農改場,2025-04-04,22.709333,120.525889,2.095194e-09
C0SA40,瑞和,2025-04-04,22.974361,121.156697,9.6377094e-05
C0C680,龜山,2025-04-04,25.02846,121.38656,1.765442e-08
C2V260,月眉,2025-04-04,22.971003,120.539853,9.792819e-10
C0V450,鳳森,2025-04-04,22.545064,120.392592,0.00078714825
C0U720,南山,2025-04-04,24.43742,121.38167,4.413744e-09
A2N290,臺南蘭花園區,2025-04-04,23.340258,120.379661,1.3402388e-09
C0R560,新園,2025-04-04,22.5434,120.461558,0.020418199
C0U890,三星,2025-04-04,24.66812,121.65302,2.43058e-08
C1V300,御油山,2025-04-04,23.001983,120.715364,4.6333257e-09
C0U600,礁溪,2025-04-04,24.817539,121.765608,3.1995537e-08
C1T980,龍澗,2025-04-04,24.023289,121.411328,5.289355e-09
C0D670,海天一線,2025-04-04,24.831986,120.914438,1.1443636e-07
C0SA00,歷坵,2025-04-04,22.520969,120.89185,8.459898e-09
C0M710,東石,2025-04-04,23.458927,120.15385,1.4148023e-09
C0M780,鹿草,2025-04-04,23.41134,120.30835,1.3693628e-09
C0U520,雙連埤,2025-04-04,24.753033,121.641303,5.790315e-09
C0B010,七堵,2025-04-04,25.094819,121.71713,2.9164104e-07
C0R480,長治,2025-04-04,22.693128,120.542622,1.8504699e-09
C1V830,國三S383K,2025-04-04,22.781967,120.426475,1.0468075e-09
12Q980,恆春工作站,2025-04-04,22.079678,120.714425,0.2795508
C1O940,東山服務區,2025-04-04,23.286016,120.398472,1.295493e-09
C1U840,東澳嶺,2025-04-04,24.5378,121.8485,3.4368175e-09
C1D630,飛鳳山,2025-04-04,24.766464,121.119178,5.8665868e-09
C0S940,石寧山,2025-04-04,23.223772,121.406639,0.008543826
C0K410,北港,2025-04-04,23.573957,120.292802,1.3841152e-09
C2M620,瑞里,2025-04-04,23.545133,120.675197,1.5067503e-09
C0SB70,小港漁港,2025-04-04,23.158558,121.400431,0.79318386
C2O950,安南,2025-04-04,23.076694,120.144861,1.6758156e-08
C0F0E0,南湖圈谷,2025-04-04,24.363714,121.444667,7.6420385e-08
467610,成功,2025-04-04,23.097486,121.373428,0.65268314
C0G890,伸港,2025-04-04,24.148933,120.484403,1.5509828e-07
C2E540,龍溪,2025-04-04,24.606489,120.783933,1.3585172e-07
C1V200,梅山,2025-04-04,23.268447,120.823556,1.5294831e-09
C0T9H0,加路蘭山,2025-04-04,23.682947,121.5274,2.5853792e-09
C2O930,玉井,2025-04-04,23.126042,120.46055,1.2450367e-09
C1F911,新伯公,2025-04-04,24.221361,120.841069,3.015894e-09
C0R490,九如,2025-04-04,22.7405,120.490503,2.1566207e-09
C0X200,左鎮,2025-04-04,23.056758,120.408522,1.1401919e-06
C0SB50,叭嗡嗡,2025-04-04,23.047062,121.343223,0.85206765
C1F891,稍來,2025-04-04,24.265689,121.001142,1.61094e-08
72N240,七股研究中心,2025-04-04,23.081672,120.062894,2.1469513e-09
C0C700,中壢,2025-04-04,24.977661,121.256375,2.6315053e-07
C0M690,水上,2025-04-04,23.419734,120.388909,1.3411849e-09
C0V690,鼓山,2025-04-04,22.623325,120.275575,6.329111e-06
C0O860,大內,2025-04-04,23.11885,120.36083,8.9437195e-09
C0Z200,萬榮,2025-04-04,23.709219,121.420106,5.994982e-07
C0T9D0,和中,2025-04-04,24.26676,121.74103,5.4043493e-08
C1O921,楠西,2025-04-04,23.183511,120.484083,1.2049969e-09
C0AJ30,淡水觀海,2025-04-04,25.184591,121.408616,3.7899775e-07
C0V810,左營,2025-04-04,22.67491,120.28491,5.2111327e-06
C0UA70,桃源谷,2025-04-04,24.962606,121.888875,5.887313e-09
C0X130,官田,2025-04-04,23.193217,120.315422,1.922387e-09
C1H000,翠峰,2025-04-04,24.109397,121.205211,2.4297364e-08
C0UA90,石城,2025-04-04,24.980444,121.951214,3.0889883e-08
C1E681,南勢山,2025-04-04,24.421669,120.923831,5.0817097e-09
C0A9F0,內湖,2025-04-04,25.079422,121.57545,3.2650286e-07
C0K291,宜梧,2025-04-04,23.536281,120.169329,1.4207489e-09
C1K540,口湖,2025-04-04,23.585344,120.180517,1.4162845e-09
C0R780,滿州,2025-04-04,22.024403,120.839892,0.36972794
C0V870,文安,2025-04-04,22.8025,120.2164,7.973417e-06
C0U650,玉蘭,2025-04-04,24.675286,121.587061,5.7202802e-09
C0R640,東港,2025-04-04,22.46247,120.44074,0.045835126
C0AJ80,板橋,2025-04-04,25.0107,121.4489,3.247297e-07
C0S660,下馬,2025-04-04,23.150427,121.070312,3.1352323e-09
C1H9B1,阿眉,2025-04-04,24.1263,120.994672,1.4622941e-08
C0UA20,多加屯,2025-04-04,24.368614,121.373189,3.4150077e-08
C0E730,頭份,2025-04-04,24.688247,120.912206,8.445037e-08
72V140,高改旗南分場,2025-04-04,22.857861,120.516667,1.8630741e-09
C0K480,莿桐,2025-04-04,23.761192,120.502372,8.048564e-10
C0U980,坪林石牌,2025-04-04,24.86478,121.77396,5.998462e-09
C0T900,西林,2025-04-04,23.8119,121.441458,3.219658e-07
C1I150,青雲,2025-04-04,23.793361,120.949378,7.1695e-10
467350,澎湖,2025-04-04,23.565503,119.563094,0.8031351
C0G800,埔鹽,2025-04-04,24.000394,120.431683,3.8135095e-09
C0H960,草屯,2025-04-04,23.973672,120.68085,6.869971e-08
C1V780,多納林道,2025-04-04,22.888028,120.737917,1.6464888e-09
C0E920,通霄漁港,2025-04-04,24.498589,120.673876,1.602594e-07
C0Z330,安通山,2025-04-04,23.290728,121.348528,5.6622838e-08
C0AH10,永和,2025-04-04,25.01125,121.508111,3.3008388e-07
C0AK10,太平里,2025-04-04,25.134937,121.364899,3.2769324e-07
C2G640,鹿港,2025-04-04,24.0753,120.430481,3.918835e-09
C1E890,國三N149K,2025-04-04,24.463414,120.680019,6.270363e-08
C1R110,口社,2025-04-04,22.770111,120.645222,9.792819e-10
C1M870,國三N285K,2025-04-04,23.550319,120.505833,6.7568284e-10
C1E480,鳳美,2025-04-04,24.554803,121.034747,5.3035487e-09
C0M530,奮起湖,2025-04-04,23.493903,120.699253,1.7144237e-09
C0C590,觀音,2025-04-04,25.027072,121.153317,5.3143714e-07
C0T9M0,靜浦,2025-04-04,23.455167,121.495028,2.6854677e-06
C2H9M0,發祥,2025-04-04,24.154094,121.164517,4.7391504e-09
C0AI40,石牌,2025-04-04,25.115597,121.513139,3.2650286e-07
C1F871,上谷關,2025-04-04,24.203483,121.018644,1.7930922e-09
C2H9G0,百勝,2025-04-04,24.051142,120.909361,2.695033e-09
C0G880,二水,2025-04-04,23.810742,120.6173,7.204634e-10
C0R940,加祿堂,2025-04-04,22.3363,120.6217,0.020028826
C0W220,北竿,2025-04-04,26.220358,119.974881,6.603156e-09
C0O960,崎頂,2025-04-04,22.959547,120.369317,3.6032448e-09
C0S750,向陽,2025-04-04,23.248397,120.986133,1.2488332e-08
C0T9F0,水璉,2025-04-04,23.797131,121.542514,1.1749879e-07
C1M600,頭凍,2025-04-04,23.406364,120.603339,1.2388849e-09
467660,臺東,2025-04-04,22.752211,121.154586,0.85206765
C1D380,新埔,2025-04-04,24.84745,121.03834,1.2122422e-07
C2G980,田頭村,2025-04-04,23.8263,120.444175,8.4626045e-10
C0V750,路竹,2025-04-04,22.854997,120.259439,3.2389016e-06
C0N050,蚵寮,2025-04-04,23.301,120.1104,2.1283346e-09
72M700,南改鹿草分場,2025-04-04,23.416869,120.283061,1.381193e-09
C1SA50,利嘉林道,2025-04-04,22.82325,121.009389,1.9307282e-09
C0A940,金山,2025-04-04,25.223628,121.643967,2.6916754e-07
C1V340,大津,2025-04-04,22.888322,120.645986,8.4109014e-10
C0W180,七美,2025-04-04,23.219333,119.444892,0.95218086
C1F9C1,白冷,2025-04-04,24.182844,120.929889,2.3997155e-09
K2E710,苗改生物防治研究中心,2025-04-04,24.422861,120.871833,3.4352073e-08
C0N040,蘆竹溝,2025-04-04,23.2344,120.0961,2.130658e-09
C2W230,畜試所澎湖,2025-04-04,23.628342,119.513206,0.18564016
C0R880,後壁湖,2025-04-04,21.9457,120.7457,0.25871006
C1I280,埔中,2025-04-04,23.820778,120.642594,7.259216e-10
467790,墾丁雷達站,2025-04-04,21.948235,120.808028,0.40259054
C0W190,望安,2025-04-04,23.380564,119.494075,0.63450694
C0Z170,卓溪,2025-04-04,23.3443,121.3029,0.00024019521
C0F850,東勢,2025-04-04,24.246428,120.833047,3.308725e-09
466900,淡水,2025-04-04,25.164889,121.448906,3.2650286e-07
C0I370,魚池,2025-04-04,23.895703,120.94135,6.9359274e-10
C0C630,大溪,2025-04-04,24.882853,121.265547,1.5019098e-07
C0A520,山佳,2025-04-04,24.974944,121.402008,2.767046e-07
C0I110,竹山,2025-04-04,23.761225,120.688156,6.4185524e-10
82H840,茶改南部分場,2025-04-04,23.762528,120.7405,6.644592e-10
C0G660,溪湖,2025-04-04,23.94835,120.479122,3.6152161e-09
C1T800,洛韶,2025-04-04,24.204558,121.453956,4.6883084e-09
C1T810,慈恩,2025-04-04,24.192044,121.388386,1.3595988e-08
C1E451,象鼻,2025-04-04,24.368617,120.940228,5.10014e-09
C0AC60,三峽,2025-04-04,24.939025,121.369728,7.4467357e-07
C0I490,萬大林道,2025-04-04,23.928228,121.091411,2.9862435e-09
C1I290,豐丘,2025-04-04,23.668178,120.887417,1.4633843e-09
C1I320,奧萬大,2025-04-04,23.952956,121.178556,4.806735e-09
C2M910,嘉義大學,2025-04-04,23.471325,120.485903,7.5642875e-10
C0U770,南澳,2025-04-04,24.44935,121.81022,5.803431e-08
C0A980,社子,2025-04-04,25.109508,121.469681,3.8275647e-07
C0V800,六龜,2025-04-04,22.997889,120.633583,5.8815863e-10
C1G9D0,國一S218K,2025-04-04,23.890641,120.493253,3.5201988e-09
C0E570,白沙屯,2025-04-04,24.549447,120.696803,1.6136299e-07
C2F9A0,中竹林,2025-04-04,24.103556,120.751061,6.563599e-10
C0FA40,臺中電廠,2025-04-04,24.2146,120.4907,1.5509828e-07
C2G9A0,畜試所彰化,2025-04-04,23.86045,120.557964,8.0322776e-10
C0H9C0,合歡山,2025-04-04,24.143442,121.272547,6.636859e-08
C0X060,下營,2025-04-04,23.22695,120.256261,2.089264e-09
G2M350,農試溪口農場,2025-04-04,23.58565,120.408111,1.3693654e-09
C0U860,頭城,2025-04-04,24.85323,121.8308,3.3276187e-08
C0R580,南州,2025-04-04,22.48591,120.50274,0.045835126
C0D430,峨眉,2025-04-04,24.6905,121.017189,1.16764e-07
C0G780,秀水,2025-04-04,24.03405,120.503869,3.7480614e-09
72N100,臺南農改場,2025-04-04,23.0605,120.342194,8.462076e-09
C0S900,蘭嶼高中,2025-04-04,22.04909,121.51214,0.28600156
C1F9W0,德基,2025-04-04,24.254783,121.190261,7.039528e-09
C1Z120,壽豐,2025-04-04,23.870853,121.508081,6.757931e-06
C0W160,烏坵,2025-04-04,24.9944,119.44956,2.7064423e-06
C1I240,外大坪,2025-04-04,23.958697,120.917931,7.251453e-10
C1I550,國六W023K,2025-04-04,23.979067,120.867742,6.775425e-10
C0R870,興海,2025-04-04,21.9752,120.8439,0.31542486
C0R140,瑪家,2025-04-04,22.682903,120.686639,1.1258552e-09
C0A530,坪林,2025-04-04,24.938183,121.70975,1.5932049e-08
C0X260,後壁,2025-04-04,23.366358,120.362326,1.847067e-09
C0Z230,和平,2025-04-04,24.30717,121.77007,5.537303e-08
C0G770,福興,2025-04-04,24.041289,120.437669,3.8398578e-09
C0H9A0,神木村,2025-04-04,23.532742,120.843667,4.274139e-09
C0I460,南投,2025-04-04,23.911469,120.687331,7.044017e-08
C0I480,梅峰,2025-04-04,24.085272,121.173572,1.5135488e-08
C1V570,吉東,2025-04-04,22.85422,120.5454,1.6883077e-09
C2D740,屯原,2025-04-04,24.067969,121.209389,1.3115297e-08
C2A560,福山,2025-04-04,24.776203,121.502811,7.477506e-09
C0AH30,五分山,2025-04-04,25.07125,121.780794,3.3390035e-09
C0FA10,松柏,2025-04-04,24.429115,120.617482,1.602594e-07
72S200,東改班鳩分場,2025-04-04,22.829528,121.077694,5.8209853e-06
72HA00,中改埔里分場,2025-04-04,23.903208,120.963364,6.9182626e-10
C2H9W0,大坪頂農水,2025-04-04,24.043122,120.932781,7.247733e-10
C0C650,平鎮,2025-04-04,24.897503,121.214636,1.370974e-07
C0S930,延平,2025-04-04,22.902581,121.084058,1.0598745e-05
C0UA60,樟樹山,2025-04-04,24.41393,121.78325,5.9511573e-09
C1S670,摩天,2025-04-04,23.199503,121.027,4.6926654e-09
C0V630,茄萣,2025-04-04,22.906642,120.182608,1.3641394e-08
466940,基隆,2025-04-04,25.133314,121.740475,3.764305e-07
C0X050,東河,2025-04-04,23.296598,120.385608,1.338203e-09
C0R770,保力,2025-04-04,22.071122,120.764111,0.46185488
G2L020,農試嘉義分所,2025-04-04,23.485028,120.473806,7.4358864e-10
C0X240,關子嶺,2025-04-04,23.331169,120.508025,4.834491e-10
C0I380,集集,2025-04-04,23.828206,120.801467,4.8721943e-10
466990,花蓮,2025-04-04,23.975128,121.613275,1.1193197e-05
C1V220,小關山,2025-04-04,23.154217,120.813603,5.8340484e-09
C1F9G1,慶福山,2025-04-04,24.180853,120.848378,4.9595537e-09
C0Z250,瑞穗林道,2025-04-04,23.49284,121.30688,2.0823099e-09
C0D590,新豐,2025-04-04,24.87068,120.97721,8.3986784e-08
C0A870,五指山,2025-04-04,25.132153,121.608692,6.894542e-09
C0UA50,西帽山,2025-04-04,24.555361,121.802628,3.434262e-09
C0X160,仁德,2025-04-04,22.968258,120.257689,1.2803738e-08
C1H971,六分寮,2025-04-04,23.92507,120.6378,6.4416095e-10
C0W120,西嶼,2025-04-04,23.5626,119.468436,0.8004503
C0G650,員林,2025-04-04,23.946503,120.585597,3.5072374e-09
C0AD50,鶯歌,2025-04-04,24.951533,121.346294,6.0399503e-07
C2H9Q0,北東眼山,2025-04-04,24.120939,121.189303,1.2792875e-08
C2H9T0,名間竹圍,2025-04-04,23.859914,120.637572,4.755864e-10
C0S990,山豬窟,2025-04-04,22.318619,120.857372,1.2022655e-08
C0X190,安平,2025-04-04,22.993161,120.152181,1.3522978e-08
C0K400,斗六,2025-04-04,23.720583,120.541127,7.779094e-10
12J990,口湖工作站,2025-04-04,23.589978,120.180394,1.4135211e-09
C0O830,北寮,2025-04-04,23.079561,120.495008,9.764302e-10
C1D410,白蘭,2025-04-04,24.579364,121.079947,5.067617e-09
C0S970,加津林,2025-04-04,22.416211,120.926942,0.0067373146
C0D700,關西,2025-04-04,24.7977,121.1732,2.2092436e-07
C0M810,里佳,2025-04-04,23.389125,120.716647,1.7156832e-09
C0U750,龜山島,2025-04-04,24.841667,121.953133,1.6584034e-08
C0R810,內獅,2025-04-04,22.305064,120.642986,0.020418199
C1M390,龍美,2025-04-04,23.406728,120.654417,1.336935e-09
C2FB60,頭櫃山,2025-04-04,24.129842,120.858925,1.8603399e-09
C1H840,國三N238K,2025-04-04,23.841008,120.707711,4.8455967e-10
CAQ030,崎峰國小,2025-04-04,22.42565,120.49521,0.045835126
C2E520,大湖,2025-04-04,24.414939,120.870872,3.958304e-09
467530,阿里山,2025-04-04,23.508208,120.813242,1.4473351e-08
C1E691,南湖,2025-04-04,24.40135,120.837533,4.8770503e-09
C0FA30,梧棲,2025-04-04,24.256003,120.523381,1.4260075e-07
C1V231,高中,2025-04-04,23.134911,120.716711,5.900384e-10
C0F9V0,新社,2025-04-04,24.200172,120.815806,2.5491447e-09
C0H890,埔里,2025-04-04,23.972169,120.952425,2.9009324e-09
C0R690,墾丁,2025-04-04,21.966756,120.810269,0.6888882
C0F0D0,審馬陣,2025-04-04,24.381675,121.4203,4.6613202e-08
C2W030,金門農試所,2025-04-04,24.448431,118.451786,1.4421572e-08
C0R820,白鷺,2025-04-04,22.454275,120.666219,5.2820055e-09
C1V190,南天池,2025-04-04,23.27403,120.91176,1.584314e-08
K2E360,苗栗農改場,2025-04-04,24.495722,120.829111,4.4292804e-08
CAJ050,海口故事園區,2025-04-04,23.57543,120.14121,1.4148023e-09
C2H9D0,三隻寮,2025-04-04,24.093078,120.861578,7.281181e-10
C0O990,媽廟,2025-04-04,22.99175,120.293525,1.056849e-08
C0D480,打鐵坑,2025-04-04,24.849664,121.150789,4.286321e-08
C0Z220,和平林道,2025-04-04,24.343922,121.656317,1.2871957e-08
C0TA10,花蓮漁港,2025-04-04,23.995322,121.638331,1.6297949e-05
72C440,桃園農改場,2025-04-04,24.950944,121.030583,8.468197e-07
C1E711,馬拉邦山,2025-04-04,24.367306,120.901656,1.7776628e-09
C0SB20,富岡,2025-04-04,22.792467,121.192669,0.7864404
C0D560,竹東,2025-04-04,24.767147,121.057881,8.812827e-08
C0F9U0,南屯,2025-04-04,24.137006,120.637969,3.0472627e-09
C0M720,番路,2025-04-04,23.464657,120.554156,5.104916e-10
C0F0A0,雪山圈谷,2025-04-04,24.388594,121.236339,1.0202311e-07
C1A9N0,四十份,2025-04-04,24.934158,121.593283,7.3663946e-09
C0U760,東澳,2025-04-04,24.52196,121.83318,5.0221253e-08
C0X230,鹽水,2025-04-04,23.272621,120.247641,1.9931488e-09
C2H9H0,苗改南投蜂場,2025-04-04,23.852589,120.693481,6.423071e-10
C0R950,萬隆國小,2025-04-04,22.507667,120.587817,0.0033671518
467540,大武,2025-04-04,22.35572,120.90374,0.013781651
C0V370,古亭坑,2025-04-04,22.893178,120.401947,4.9874313e-07
C1I340,新興橋,2025-04-04,23.563333,120.868728,8.720585e-10
C0SA80,土坂,2025-04-04,22.453108,120.887572,1.091653e-05
C0R160,鹽埔,2025-04-04,22.739558,120.530778,1.8817774e-09
C0AC40,大屯山,2025-04-04,25.175675,121.522408,8.446323e-09
466850,五分山雷達站,2025-04-04,25.071182,121.781205,3.366097e-09
C2H9L0,馬烈霸,2025-04-04,24.1512,121.201772,7.3892195e-09
C1AI50,國三N016K,2025-04-04,25.034164,121.619664,2.4438222e-07
C1V600,藤枝,2025-04-04,23.071961,120.757042,4.5613535e-09
C1E601,南勢,2025-04-04,24.572486,120.734842,4.196287e-08
C0Z180,新城,2025-04-04,24.03946,121.60454,8.425757e-06
C0O980,新市,2025-04-04,23.061614,120.298197,1.2803738e-08
C0K420,西螺,2025-04-04,23.800407,120.467394,8.261682e-10
C0Z050,佳心,2025-04-04,23.34567,121.21316,3.228431e-09
C0AD30,蘆洲,2025-04-04,25.086594,121.472331,3.3329835e-07
C0V610,梓官,2025-04-04,22.760558,120.267211,6.329111e-06
K2F750,種苗改良場,2025-04-04,24.225972,120.800917,2.708426e-09
C0UA80,大溪漁港,2025-04-04,24.941801,121.902955,3.259804e-08
C1AI60,國一39K邊坡,2025-04-04,25.064361,121.383836,1.8786151e-08
C0W150,金寧,2025-04-04,24.457703,118.328989,1.4408897e-08
C0R960,內埔,2025-04-04,22.608483,120.570714,0.01140901
V2C250,八德合作社,2025-04-04,24.93775,121.266389,2.429765e-07
C2H9S0,龍南,2025-04-04,23.953536,120.833183,1.7954399e-09
C0AH40,平等,2025-04-04,25.129142,121.577086,7.456256e-09
C0R540,佳冬,2025-04-04,22.419456,120.552375,0.0219717
466950,彭佳嶼,2025-04-04,25.627975,122.079744,0.017278286
C0A890,雙溪,2025-04-04,25.036003,121.864242,2.3816013e-07
C0C480,桃園,2025-04-04,24.992425,121.323172,3.5988617e-07
C0AH50,林口,2025-04-04,25.072181,121.38084,1.704802e-08
A2K360,水試臺西試驗場,2025-04-04,23.717231,120.190522,5.088227e-09
C2M960,外寮,2025-04-04,23.562643,120.665688,1.2823382e-09
C0F9S0,烏日,2025-04-04,24.107058,120.624103,3.4894683e-09
C0C490,八德,2025-04-04,24.928708,121.283289,2.2060287e-07
C0R190,赤山,2025-04-04,22.592333,120.614306,0.005068386
C0T820,天祥,2025-04-04,24.179597,121.495639,1.3570987e-08
C1F9E1,龍安,2025-04-04,24.1605,120.831961,2.491961e-09
C0V820,小林,2025-04-04,23.148408,120.63325,4.812182e-10
C2G870,芳苑,2025-04-04,23.922303,120.320025,5.031212e-09
C0E850,大河,2025-04-04,24.618069,120.948578,5.1358896e-08
C1U670,寒溪,2025-04-04,24.634,121.71691,2.4585086e-08
C0N020,城西,2025-04-04,23.0568,120.0956,2.089264e-09
C1Z110,三棧,2025-04-04,24.11557,121.60501,2.5029792e-09
C0R280,檳榔,2025-04-04,22.076078,120.836777,0.6706312
C2H9J0,中台,2025-04-04,23.9996,120.938739,6.9031836e-10
C0F9L0,后里,2025-04-04,24.310436,120.729725,8.4168716e-10
467441,高雄,2025-04-04,22.730432,120.312516,5.2111327e-06
C0D540,橫山,2025-04-04,24.71116,121.11693,5.0149843e-08
C1D420,太閣南,2025-04-04,24.632808,121.160575,4.464103e-09
C1E770,公館,2025-04-04,24.526914,120.830806,5.5642367e-08
CAN130,水試所海水繁養殖中心,2025-04-04,23.120802,120.07968,2.1316255e-09
C1I430,翠華,2025-04-04,24.191961,121.224339,2.2938998e-08
C1M400,菜瓜坪,2025-04-04,23.251928,120.576103,4.7987814e-10
C0G730,二林,2025-04-04,23.903325,120.376081,3.7480614e-09
72M360,南改義竹分場,2025-04-04,23.360694,120.279361,1.982608e-09
V2K620,麥寮合作社,2025-04-04,23.753836,120.294783,4.9497535e-09
C0Z070,舞鶴,2025-04-04,23.46811,121.37407,1.7175266e-07
C0B040,大武崙,2025-04-04,25.166676,121.706993,2.6916754e-07
C1Z030,紅葉,2025-04-04,23.493119,121.338806,2.9287912e-07
C1I050,丹大,2025-04-04,23.753747,121.141147,1.697456e-08
C0I080,信義,2025-04-04,23.689694,120.851036,6.893079e-10
C2M920,朴子農改,2025-04-04,23.469889,120.259383,1.413753e-09
C2A880,福隆,2025-04-04,25.017842,121.942083,3.259804e-08
C0Z160,鳳林,2025-04-04,23.746114,121.453411,1.309466e-06
C0V210,復興,2025-04-04,23.222403,120.806089,6.030868e-10
C0H990,昆陽,2025-04-04,24.121322,121.273642,5.275836e-08
C0R741,獅子,2025-04-04,22.202308,120.705236,0.0007367472
C0S710,鹿野,2025-04-04,22.917711,121.122994,1.855368e-07
C0I530,小奇萊,2025-04-04,24.131764,121.295717,5.568271e-08
C2K630,荷苞,2025-04-04,23.657717,120.595144,6.4185524e-10
C0Z080,富源,2025-04-04,23.587642,121.378225,8.702117e-08
C0SB10,美和,2025-04-04,22.682078,121.060236,0.8608292
C2K620,馬光農場,2025-04-04,23.721453,120.378864,8.603777e-10
C1I140,卡奈托灣,2025-04-04,23.754364,121.087872,5.3929066e-09
C0I520,玉山風口,2025-04-04,23.470489,120.955994,6.2834964e-08
C1G691,下水埔,2025-04-04,23.816114,120.5676,7.672468e-10
C0X110,臺南市南區,2025-04-04,22.961189,120.188378,1.34993465e-08
C0V680,仁武,2025-04-04,22.701083,120.347722,4.6996684e-06
C2G840,北斗,2025-04-04,23.877586,120.514222,3.4889958e-09
C0R900,竹坑,2025-04-04,22.1385,120.7022,0.020028826
C0K250,崙背,2025-04-04,23.75555,120.318925,4.8453495e-09
C0G860,社頭,2025-04-04,23.897647,120.5862,3.3946141e-09
C0X150,安定,2025-04-04,23.102614,120.227839,1.3641394e-08
C0R590,里港,2025-04-04,22.77919,120.49459,1.882621e-09
C0E610,馬都安,2025-04-04,24.451272,120.930192,4.8845723e-09
C0E550,明德,2025-04-04,24.583486,120.885411,6.1175555e-08
C0R150,三地門,2025-04-04,22.709889,120.639944,1.0468075e-09
C0G910,花壇,2025-04-04,24.032076,120.549461,3.5267984e-09
C1D400,鳥嘴山,2025-04-04,24.71909,121.28387,4.9247983e-09
C0K500,元長,2025-04-04,23.64981,120.315024,4.932601e-09
C0F0B0,石岡,2025-04-04,24.276061,120.777644,7.5985007e-10
C2V250,甲仙,2025-04-04,23.080106,120.591758,5.6128696e-10
C0SA20,金崙山,2025-04-04,22.567419,120.959667,1.4798925e-08
C0V350,溪埔,2025-04-04,22.738578,120.446797,2.2305224e-09
C0M660,溪口,2025-04-04,23.604131,120.403569,1.3688563e-09
C1S880,壽卡,2025-04-04,22.238911,120.858903,7.128107e-09
72D680,桃改新埔分場,2025-04-04,24.834444,121.066111,1.2778699e-07
