站號,站名,日期,lat,lon,BLBTSLS
C0R710,龍磐,2025-06-06,21.931672,120.838942,0.9902758
C1F9D1,白毛台,2025-06-06,24.158325,120.886933,4.610001e-09
C0G940,竹塘,2025-06-06,23.848253,120.386764,0.003270457
467590,恆春,2025-06-06,22.003897,120.746339,0.2414655
C1O850,環湖,2025-06-06,23.148617,120.418633,0.19255413
C0U710,太平山,2025-06-06,24.505486,121.525656,2.725331e-08
C0E820,獅潭,2025-06-06,24.539133,120.920042,8.003074e-09
C0V880,興達,2025-06-06,22.8778,120.2127,0.8780435
C0S890,關山,2025-06-06,23.0395,121.175017,0.17980765
C0SB30,新蘭,2025-06-06,22.869214,121.223228,0.9168251
C2R970,屏科大,2025-06-06,22.648275,120.619247,0.99872404
C1Z130,銅門,2025-06-06,23.965694,121.492842,7.833213e-05
C0AD40,土城,2025-06-06,24.973208,121.445169,0.0011386323
CAN140,六官養殖協會,2025-06-06,23.22881,120.29962,0.7457418
C0X180,山上,2025-06-06,23.0757,120.363253,0.98410934
C0F9Z0,雪山東峰,2025-06-06,24.388792,121.268675,2.7076629e-08
C1M480,獨立山,2025-06-06,23.537022,120.607797,3.6988668e-09
C0X220,學甲,2025-06-06,23.230367,120.182187,0.6567966
467650,日月潭,2025-06-06,23.881325,120.90805,7.574008e-09
C0K600,箔子寮,2025-06-06,23.6197,120.14,0.0071499445
C0G830,埤頭,2025-06-06,23.866003,120.452806,0.0010285793
C0S950,七塊厝,2025-06-06,22.954453,121.229922,0.002385391
467110,金門,2025-06-06,24.407306,118.289281,1.075469e-05
C0AH80,深坑,2025-06-06,25.002703,121.628328,0.00024870128
C0A970,三貂角,2025-06-06,25.007606,122.002058,1.876594e-07
C2D730,寶山農場,2025-06-06,24.732444,120.976153,1.4880015e-08
C0K430,褒忠,2025-06-06,23.690938,120.303634,0.007328132
467480,嘉義,2025-06-06,23.495925,120.432906,0.28894717
C0V400,阿公店,2025-06-06,22.804194,120.355528,0.7623876
467550,玉山,2025-06-06,23.48718,120.95943,3.840856e-08
C0R440,大漢山,2025-06-06,22.405264,120.753181,2.4846296e-08
C0K280,四湖,2025-06-06,23.630414,120.227125,0.0012674148
C1F9B1,桐林,2025-06-06,24.066172,120.735194,1.7269493e-05
C2H9U0,鳳鵬,2025-06-06,23.763919,120.788061,1.0960566e-07
C0K390,土庫,2025-06-06,23.679029,120.395574,0.0031505723
C1I450,望鄉山,2025-06-06,23.594153,120.944286,2.6146092e-08
C0E910,海埔,2025-06-06,24.648767,120.772435,1.5155962e-07
B2E890,畜試北區分所,2025-06-06,24.527806,120.770972,6.004131e-08
C0R750,四林格山,2025-06-06,22.076989,120.802439,0.9982141
C0F0C0,中坑,2025-06-06,24.248517,120.903319,1.5403033e-09
C1I121,大鞍,2025-06-06,23.678381,120.760017,1.3528525e-08
72U480,花改蘭陽分場,2025-06-06,24.686306,121.716583,6.1449555e-08
C0A770,科教館,2025-06-06,25.096356,121.516507,0.0026468188
C0AJ60,六塊厝,2025-06-06,25.24,121.4481,0.44579646
C0R620,墾雷,2025-06-06,21.900836,120.855269,0.9836556
467420,永康,2025-06-06,23.038386,120.2367,0.9828257
C0I410,名間,2025-06-06,23.837053,120.701447,7.987909e-06
A2C560,農工中心,2025-06-06,24.985917,121.239833,5.018276e-07
C0V740,旗山,2025-06-06,22.888614,120.483597,0.9838708
C0Z061,玉里,2025-06-06,23.3215,121.339656,0.8805953
C0S840,南田,2025-06-06,22.279725,120.889208,0.07356417
C1I470,杉林溪,2025-06-06,23.639517,120.786444,1.27409345e-08
C1X040,東原,2025-06-06,23.291597,120.463822,0.9988002
C0R660,枋寮,2025-06-06,22.367722,120.590647,0.04370239
C1R120,上德文,2025-06-06,22.763272,120.704442,2.6935577e-06
C0K450,大埤,2025-06-06,23.646074,120.431537,0.009372634
C0UA00,土場,2025-06-06,24.576533,121.495333,2.9515866e-06
467080,宜蘭,2025-06-06,24.763975,121.756528,1.1187258e-07
C0N030,四草,2025-06-06,23.0235,120.1116,0.77524406
467410,臺南,2025-06-06,22.99328,120.20492,0.942932
C0V650,彌陀,2025-06-06,22.783806,120.246361,0.5017837
C0D660,新竹市東區,2025-06-06,24.798681,120.986942,9.396425e-08
82S580,茶改東部分場,2025-06-06,22.907694,121.130139,0.8738398
C0SB40,興隆,2025-06-06,22.913661,121.257469,0.92401254
467050,新屋,2025-06-06,25.006725,121.047492,0.00040669486
C0C710,大溪永福,2025-06-06,24.892936,121.324975,8.4027e-08
C0FA20,溫寮,2025-06-06,24.372177,120.583125,0.0147982715
C0V640,湖內,2025-06-06,22.887139,120.2445,0.89003175
C0R910,下寮,2025-06-06,22.3929,120.5548,0.04356396
C0Z020,明里,2025-06-06,23.208717,121.262342,0.81941885
C0M770,嘉義梅山,2025-06-06,23.585398,120.555587,6.730313e-05
C0C660,楊梅,2025-06-06,24.912375,121.143047,1.02406005e-07
C1E511,新開,2025-06-06,24.347703,120.827019,9.0069605e-08
G2F820,農試所(霧峰),2025-06-06,24.031261,120.688133,0.000101213394
C1I070,和社,2025-06-06,23.591131,120.888861,4.868665e-07
C2F000,大肚,2025-06-06,24.15295,120.572117,4.103418e-07
C1S850,豐南,2025-06-06,23.122139,121.262389,0.00024472488
C2A920,富貴角,2025-06-06,25.263783,121.565258,4.3297194e-05
CAH030,茶改場竹圍站,2025-06-06,23.860083,120.637528,1.9288816e-06
C0T960,光復,2025-06-06,23.660694,121.424964,0.00016393751
C0F9M0,豐原,2025-06-06,24.254322,120.720692,1.4020723e-08
C0R720,旭海,2025-06-06,22.205403,120.887614,0.41288048
C0V710,苓雅,2025-06-06,22.622742,120.330669,0.17060576
C0C740,觀音工業區,2025-06-06,25.064764,121.114856,0.00043791157
CAC040,拉拉山,2025-06-06,24.699317,121.427133,1.0735022e-08
C0V790,萬山,2025-06-06,22.905944,120.688056,0.00011742336
U2HA30,臺大和社,2025-06-06,23.590856,120.888864,4.868665e-07
C0AJ90,澳底,2025-06-06,25.0552,121.9253,3.1592668e-07
C0Z100,東華,2025-06-06,23.89525,121.549833,0.0031722907
C0G970,三豐,2025-06-06,23.882,120.2895,0.001575288
V2K610,大庄合作社,2025-06-06,23.8068,120.367939,0.008822414
C0V900,汕尾,2025-06-06,22.4782,120.4151,0.17177472
C1R630,龍泉,2025-06-06,22.66701,120.59091,0.9965903
C1AC50,關渡,2025-06-06,25.133486,121.469331,5.8472873e-05
C0F9I0,神岡,2025-06-06,24.272481,120.658314,1.45367895e-08
C0K460,斗南,2025-06-06,23.678734,120.478359,0.008126477
C2O810,曾文,2025-06-06,23.219681,120.497328,0.99855506
467280,後龍,2025-06-06,24.648563,120.831834,1.08209555e-07
C1F9J1,清水林,2025-06-06,24.071242,120.820419,1.338916e-08
C2A650,火燒寮,2025-06-06,25.002719,121.742892,2.7459727e-08
466930,竹子湖,2025-06-06,25.162078,121.544547,3.8135965e-09
C1I220,樟湖,2025-06-06,23.905333,120.846983,5.1312754e-09
C0I390,仁愛,2025-06-06,24.022122,121.132206,6.6806347e-09
C0Z300,東里,2025-06-06,23.26853,121.30547,0.9806698
C1V590,新發,2025-06-06,23.057019,120.646064,0.0065046917
C0K510,水林,2025-06-06,23.572924,120.24597,0.13503982
72S590,東改賓朗果園,2025-06-06,22.813889,121.071278,0.38952908
82A750,茶改北部分場,2025-06-06,24.955778,121.631222,1.1304886e-08
C1A750,石碇服務區,2025-06-06,25.00872,121.646242,0.00033346185
C0X300,鹿寮,2025-06-06,23.386047,120.477331,0.0015101065
G2AI50,關渡,2025-06-06,25.11575,121.492,0.11202062
C0K590,雲林東勢,2025-06-06,23.674192,120.255721,0.0025836688
C0A570,桶後,2025-06-06,24.848222,121.597992,2.5421113e-07
C1S800,華源,2025-06-06,22.657883,121.02325,0.99156624
C0G720,溪州,2025-06-06,23.851589,120.499093,0.00079901546
C1V160,達卡努瓦,2025-06-06,23.279811,120.705319,1.9436413e-07
C2M410,馬頭山,2025-06-06,23.324361,120.582017,0.11509507
C0V850,蚵仔寮,2025-06-06,22.7256,120.2527,0.17585799
C0S740,池上,2025-06-06,23.119628,121.209469,0.9481948
C1V390,尖山,2025-06-06,22.813153,120.367789,0.86313874
C0AH70,松山,2025-06-06,25.04871,121.55042,0.0018369149
C0N010,鯤鯓國小,2025-06-06,23.1879,120.0889,0.538568
C0R550,新埤,2025-06-06,22.467947,120.582894,0.18548658
C0SA60,知本（水試所）,2025-06-06,22.702394,121.082761,0.62019217
C0T9I0,豐濱,2025-06-06,23.583897,121.514806,0.00013020342
C0UB00,淡江大學蘭陽校園,2025-06-06,24.823239,121.730383,1.7428883e-08
C0W240,九宮,2025-06-06,24.423753,118.240186,1.36536055e-05
C0T9N0,富里,2025-06-06,23.171639,121.249378,0.9909752
U2HA50,臺大竹山,2025-06-06,23.756972,120.681556,6.6136854e-06
C0V840,鳳鼻頭,2025-06-06,22.5083,120.3591,0.14771359
C0X140,西港,2025-06-06,23.125608,120.203108,0.7624665
72D080,桃改五峰分場,2025-06-06,24.612194,121.157167,2.1454039e-09
C2H9P0,伊拿谷,2025-06-06,23.963211,121.088264,8.625965e-09
C2H9F0,柑林,2025-06-06,24.018658,120.847072,8.458213e-07
C0TA20,加灣,2025-06-06,24.082025,121.608944,0.0010946393
C0V530,阿蓮,2025-06-06,22.883208,120.327508,0.9574821
C1O880,關山,2025-06-06,23.173397,120.594092,0.057213433
C0E791,卓蘭,2025-06-06,24.3126,120.8244,8.060263e-08
C1I030,武界,2025-06-06,23.913225,121.052483,7.879088e-09
C0R520,崁頂,2025-06-06,22.514781,120.506914,0.5084824
C0R341,牡丹,2025-06-06,22.130036,120.792639,0.75518566
C0R930,萬丹,2025-06-06,22.5885,120.4851,0.42826566
C0S760,紅石,2025-06-06,23.069131,121.126219,6.58177e-08
C2C410,中央大學,2025-06-06,24.967652,121.185165,3.87572e-07
C1M610,石磐龍,2025-06-06,23.496606,120.663506,1.4012062e-08
C0UA10,鴛鴦湖,2025-06-06,24.590269,121.412228,1.2710376e-08
V2C260,八德蔬果,2025-06-06,24.978508,121.281819,2.516732e-07
C0R800,丹路,2025-06-06,22.204481,120.750989,0.15687068
C0G920,永靖,2025-06-06,23.924703,120.547533,0.0019739706
C2M950,太和,2025-06-06,23.538372,120.702961,9.833796e-09
C1A630,下盆,2025-06-06,24.771003,121.538622,3.6289642e-09
B2N890,畜產試驗所,2025-06-06,23.058972,120.336406,0.9866256
C0UA30,白嶺,2025-06-06,24.527819,121.519031,1.6842078e-08
C1V580,溪南(特生中心),2025-06-06,23.084972,120.788475,1.826507e-08
C1T970,大農,2025-06-06,23.615233,121.413331,5.263375e-05
C0R650,竹田,2025-06-06,22.58486,120.54344,0.5158063
C1H900,清流,2025-06-06,24.080775,120.962997,1.0577202e-08
C1C510,水尾,2025-06-06,24.940081,121.087161,1.2484055e-06
C0F9X0,大雅(中科園區),2025-06-06,24.21528,120.62445,8.16897e-06
C0SB60,白守蓮,2025-06-06,23.126769,121.401914,0.80937093
C0O970,虎頭埤,2025-06-06,23.021375,120.347878,0.98326427
C0C730,中大臨海站,2025-06-06,24.966126,121.008581,0.0019154907
C0X250,新營,2025-06-06,23.310689,120.316681,0.73211145
C0V700,三民,2025-06-06,22.645017,120.311233,0.16798314
C0U870,大礁溪,2025-06-06,24.791042,121.675047,8.299687e-09
C0E870,高鐵苗栗,2025-06-06,24.60725,120.826094,0.00037746318
A2K570,古坑花卉中心,2025-06-06,23.63353,120.55239,0.00050549314
C0TA30,鹽寮,2025-06-06,23.845606,121.592664,0.005915304
C0M860,新美,2025-06-06,23.338017,120.683169,4.94724e-06
C1E701,八卦,2025-06-06,24.491756,120.927619,2.964463e-09
C0I420,國姓,2025-06-06,24.037803,120.855072,4.331705e-07
C2D720,關西工作站,2025-06-06,24.757275,121.184792,1.0088468e-08
C0S960,香蘭,2025-06-06,22.587569,120.993375,0.61707854
467620,蘭嶼,2025-06-06,22.0369,121.55843,0.96513206
C0R260,春日,2025-06-06,22.370361,120.628306,0.053856887
72G600,臺中農改場,2025-06-06,24.003028,120.534389,0.0010522703
C0Z210,瑞穗,2025-06-06,23.5239,121.39021,0.00017807102
C0M820,達邦,2025-06-06,23.453994,120.749517,2.1844253e-08
C0V860,南寮,2025-06-06,22.7616,120.2339,0.17310269
C0G740,大城,2025-06-06,23.852487,120.320935,0.0018675944
C0R920,塭仔,2025-06-06,22.4169,120.5197,0.04345872
C0R470,高樹,2025-06-06,22.826389,120.600806,0.99921584
C0R680,佳樂水,2025-06-06,21.993578,120.861633,0.96356755
C1O870,大棟山,2025-06-06,23.31157,120.52226,9.8887774e-08
C0D360,梅花,2025-06-06,24.678347,121.208558,2.7229916e-09
C0Z190,富世,2025-06-06,24.14743,121.6297,0.0014367932
C0AI10,屈尺,2025-06-06,24.92184,121.54475,0.00038858532
B2U990,畜試東區分所,2025-06-06,24.669039,121.832561,7.166362e-08
C0SB80,長濱漁港,2025-06-06,23.313644,121.459994,0.98669016
C0R240,來義,2025-06-06,22.527306,120.625111,0.9066147
C0V910,大樹,2025-06-06,22.684645,120.432803,0.71081376
C1R610,西大武山,2025-06-06,22.617719,120.7322,2.9389945e-08
C0G900,線西,2025-06-06,24.143358,120.443536,0.006985493
C0M700,竹崎,2025-06-06,23.526178,120.555508,6.040315e-05
C2E880,三義,2025-06-06,24.405478,120.749819,8.306735e-09
C0C720,竹圍,2025-06-06,25.112692,121.239824,0.0805131
C0F9P0,清水,2025-06-06,24.312297,120.562242,0.006288257
C0Z150,吉安光華,2025-06-06,23.930925,121.595153,0.0039090766
467300,東吉島,2025-06-06,23.25727,119.66762,0.8307821
C1D640,外坪(五指山),2025-06-06,24.644447,121.090961,3.4684269e-09
C0F9O0,潭子,2025-06-06,24.213106,120.703933,2.0208644e-08
C2H9R0,卓社,2025-06-06,23.887894,121.000086,5.1854077e-09
72T250,花蓮農改場,2025-06-06,23.975222,121.563889,0.0012809974
C0E780,銅鑼,2025-06-06,24.489681,120.790853,2.1569344e-08
C1T950,太安,2025-06-06,23.666719,121.370128,1.1244564e-08
C0E830,苑裡,2025-06-06,24.439714,120.653053,0.032128252
467270,田中,2025-06-06,23.873803,120.581286,0.0006558276
C0SA10,檳榔四格山,2025-06-06,22.810031,121.109308,0.060974754
C1T830,布洛灣,2025-06-06,24.17184,121.57127,3.1102925e-05
C0F970,大坑,2025-06-06,24.173142,120.722289,2.4326207e-08
C1U920,思源,2025-06-06,24.393125,121.347214,1.621823e-08
C0A931,三和,2025-06-06,25.233153,121.595236,2.723513e-06
C0I010,廬山,2025-06-06,24.033311,121.181808,1.3022172e-08
C2M940,日野賀,2025-06-06,23.434056,120.727169,1.2173728e-08
C0R860,鼻頭,2025-06-06,22.1043,120.8979,0.41130978
C0UB20,壯圍,2025-06-06,24.7359,121.8163,7.5424104e-08
C0R790,九棚,2025-06-06,22.14195,120.889281,0.3940444
C0W110,東莒,2025-06-06,25.9652,119.98069,0.26814792
C1U930,粉鳥林,2025-06-06,24.497088,121.842479,0.0029356817
C1I211,蘆竹湳,2025-06-06,23.934019,120.811994,1.7076096e-07
C0S830,長濱,2025-06-06,23.286817,121.411975,0.05161657
C1F9F1,伯公龍,2025-06-06,24.272392,120.849047,1.6162552e-08
C0E810,西湖,2025-06-06,24.562947,120.7485,3.2288228e-06
C1I440,新高口,2025-06-06,23.478744,120.878939,2.009886e-08
C0O840,王爺宮,2025-06-06,23.222064,120.40085,0.9986308
C0T9G0,鳳林山,2025-06-06,23.735269,121.420131,8.0156775e-07
C0X080,佳里,2025-06-06,23.173039,120.145086,0.52555317
C0FB70,大甲溪埔,2025-06-06,24.370625,120.620067,0.016269347
C0Z310,清水斷崖,2025-06-06,24.218294,121.689142,0.00016992749
C0M680,太保,2025-06-06,23.455062,120.331455,0.20500651
C1S820,金峰,2025-06-06,22.590969,120.933236,0.94370174
C0AD10,八里,2025-06-06,25.150211,121.403947,0.08112781
C2K240,草嶺,2025-06-06,23.59555,120.693461,1.3033329e-08
C1SA70,都蘭,2025-06-06,22.87794,121.226881,0.9247697
C0K440,二崙,2025-06-06,23.772797,120.408944,0.0006644894
C1A760,坪林交控,2025-06-06,24.94284,121.713442,4.493071e-08
C0F9N0,大里,2025-06-06,24.092464,120.701378,0.00025553117
C0SA90,達仁林場,2025-06-06,22.264347,120.823972,0.98977494
C1R290,石門山,2025-06-06,22.112611,120.756597,0.99707097
42HA10,萬大發電廠,2025-06-06,23.978875,121.139639,5.8988e-09
C0R890,山海,2025-06-06,21.9878,120.7091,0.9853618
C0T9A0,月眉山,2025-06-06,23.809928,121.539828,1.3378254e-07
C0AC70,信義,2025-06-06,25.037822,121.564597,0.0015782561
C0K560,棋山,2025-06-06,23.68645,120.603417,0.00028538238
C2FB50,出雲,2025-06-06,24.206469,120.902794,3.7131525e-09
C1Z240,中平林道,2025-06-06,23.42115,121.26763,5.281041e-08
U2H480,溪頭,2025-06-06,23.670306,120.798194,6.54309e-09
C0M880,好美里,2025-06-06,23.3364,120.138,0.7010936
C0T9E0,大坑,2025-06-06,23.880628,121.581981,1.3599811e-06
C0K530,臺西,2025-06-06,23.701547,120.197559,0.0014070496
C1E900,國一N128K,2025-06-06,24.560997,120.844186,6.8843875e-08
C0AJ50,水湳洞,2025-06-06,25.123695,121.862238,0.022541879
C0AI20,白沙灣,2025-06-06,25.283128,121.519058,0.29011035
C2V310,美濃,2025-06-06,22.898792,120.51907,0.98225355
C0A860,大坪,2025-06-06,25.165914,121.632969,5.9456773e-09
C1U850,觀音海岸,2025-06-06,24.38319,121.77856,4.37968e-09
C2K610,草嶺石壁,2025-06-06,23.602469,120.707731,1.2364917e-08
C0U950,鶯子嶺,2025-06-06,24.89754,121.79244,8.751148e-09
C0O900,善化,2025-06-06,23.112883,120.297219,0.98606217
C0K550,蔦松,2025-06-06,23.514319,120.229736,0.06830873
E2P980,林試六龜中心,2025-06-06,22.991703,120.645722,0.9949947
C0E590,通霄,2025-06-06,24.471892,120.704622,0.0031317826
C1I310,西巒,2025-06-06,23.754486,120.883956,7.51273e-09
C0A550,泰平,2025-06-06,24.971197,121.823711,8.630194e-09
C0I360,水里,2025-06-06,23.812553,120.849792,9.183806e-06
C0R830,高士,2025-06-06,22.121825,120.836781,0.9987849
C1I101,溪頭,2025-06-06,23.661789,120.807647,1.3265468e-08
C0AJ20,野柳,2025-06-06,25.20703,121.690021,0.015258706
C0B060,暖暖,2025-06-06,25.0957,121.7403,0.00031031008
C1H920,長豐,2025-06-06,24.102039,120.879897,1.6887498e-08
C0V360,內門,2025-06-06,22.975481,120.466769,0.9955876
C0R850,林邊,2025-06-06,22.4634,120.5339,0.1757856
C0E930,龍鳳,2025-06-06,24.700034,120.859125,6.444165e-07
C0U910,冬山,2025-06-06,24.63373,121.7937,7.166362e-08
C1E721,泰安,2025-06-06,24.489017,120.968036,5.283638e-09
82H320,茶改中部分場,2025-06-06,23.875611,120.913583,1.2835696e-08
C0M750,布袋,2025-06-06,23.380878,120.167789,0.13977827
C1S860,利嘉,2025-06-06,22.809417,121.050528,0.37239224
E2S980,林試太麻里1,2025-06-06,22.598922,120.980044,0.7701994
C0X170,關廟,2025-06-06,22.963017,120.327797,0.9746944
C0V720,林園,2025-06-06,22.507747,120.394511,0.15242079
C1I510,線浸林道,2025-06-06,23.761508,120.832956,1.12843335e-08
C0D690,外湖,2025-06-06,24.917735,120.968711,4.7184178e-05
C0C750,新興坑尾,2025-06-06,25.0061,121.0971,3.855136e-05
B2Q810,畜試南區分所,2025-06-06,21.945583,120.802167,0.9651428
C0S790,金崙,2025-06-06,22.538122,120.966875,0.96888596
C0AH90,福山植物園,2025-06-06,24.760717,121.58135,4.8129367e-09
C0I540,奇萊稜線,2025-06-06,24.109231,121.326456,2.5171563e-08
C0M850,表湖,2025-06-06,23.24186,120.64166,1.3675279e-07
C0S770,大溪山,2025-06-06,22.478475,120.943325,0.99841297
C0AG80,中和,2025-06-06,24.991622,121.491792,0.0011319596
C0T790,大禹嶺,2025-06-06,24.186117,121.316086,1.7283325e-08
C0T9B0,水源,2025-06-06,23.991861,121.537169,5.631245e-06
C0R840,牡丹池山,2025-06-06,22.168389,120.841225,0.954204
C1I131,桶頭,2025-06-06,23.641944,120.654117,1.7286284e-05
CAL110,布袋國中,2025-06-06,23.35893,120.18026,0.7248917
467571,新竹,2025-06-06,24.827853,121.014219,3.2207637e-07
C0Z290,赤柯山,2025-06-06,23.36893,121.38293,6.410275e-08
C0X280,將軍,2025-06-06,23.214999,120.13577,0.64889765
C0S690,太麻里,2025-06-06,22.60902,120.98533,0.012488729
C0U880,北關,2025-06-06,24.9072,121.8734,0.017629452
C0G810,埔心,2025-06-06,23.947633,120.525456,0.0020595305
C0U970,大福,2025-06-06,24.80064,121.81389,1.3172225e-07
C2H9N0,仁愛東眼,2025-06-06,24.026875,121.1205,1.3949476e-08
C1E670,南礦,2025-06-06,24.538278,121.002836,4.4864583e-09
C0M520,東後寮,2025-06-06,23.369908,120.248065,0.7167263
C1E461,松安,2025-06-06,24.397972,120.986022,5.287328e-09
C2N160,西拉雅風管處,2025-06-06,23.189481,120.335297,0.69870347
C2M970,碧湖,2025-06-06,23.568632,120.624165,1.8263536e-08
C0A640,石碇,2025-06-06,24.993969,121.662917,4.15077e-08
E2S960,林試太麻里2,2025-06-06,22.598,120.99775,0.6065903
C0F9Y0,桃山,2025-06-06,24.432739,121.303808,2.7362116e-08
C1I020,萬大,2025-06-06,23.979817,121.132261,6.5856725e-09
C0U940,羅東,2025-06-06,24.68184,121.74934,6.921041e-08
C0M650,朴子,2025-06-06,23.43463,120.23902,0.168363
C1I500,大尖山,2025-06-06,23.858572,120.994889,1.4436104e-08
C0G820,田尾,2025-06-06,23.901669,120.509389,0.0020192312
E2K600,四湖植物園,2025-06-06,23.676986,120.163433,0.0013074459
C0S730,綠島,2025-06-06,22.6672,121.47533,0.14861017
12Q970,東港工作站,2025-06-06,22.479997,120.466058,0.17313524
C0E430,南庄,2025-06-06,24.601775,121.000214,7.3548825e-09
C1TA00,太魯閣,2025-06-06,24.15773,121.6236,0.0007433029
466920,臺北,2025-06-06,25.037658,121.514853,0.0018369149
C0R600,舊泰武,2025-06-06,22.588194,120.664944,0.0012110175
C1I260,北坑,2025-06-06,23.9246,121.006903,9.0941015e-08
466910,鞍部,2025-06-06,25.182586,121.529731,4.6326805e-09
C1I230,九份二山,2025-06-06,23.961944,120.845,1.2149904e-08
C2A660,瑞芳,2025-06-06,25.113169,121.801147,0.0011442199
C0R270,琉球嶼,2025-06-06,22.332244,120.362236,0.013749936
C1T990,高寮,2025-06-06,23.394239,121.356808,0.00011030572
C0G620,芬園,2025-06-06,24.015678,120.6213,0.00037958773
C1Z140,荖溪,2025-06-06,23.890575,121.45964,4.9401073e-08
C1I201,中心崙,2025-06-06,23.728722,120.712097,2.9713195e-08
C1I400,凌霄,2025-06-06,24.018778,121.004456,1.4508868e-08
C1M640,十字,2025-06-06,23.492153,120.753683,1.178681e-08
G2P820,農試鳳山分所,2025-06-06,22.646611,120.356083,0.21128659
C0Z270,蕃薯寮,2025-06-06,23.73835,121.540108,3.1032494e-06
C0F9Q0,外埔,2025-06-06,24.347817,120.705686,2.5898471e-08
C0K580,高鐵雲林,2025-06-06,23.737456,120.417944,0.0010750557
C2I090,鳳凰,2025-06-06,23.728081,120.787347,1.1183435e-08
C0U990,員山,2025-06-06,24.74435,121.72247,7.011405e-08
C0V770,大社,2025-06-06,22.730306,120.346639,0.23737425
C0X120,麻豆,2025-06-06,23.183289,120.248611,0.7550228
C0C670,龍潭,2025-06-06,24.870056,121.221389,8.707359e-09
C0D680,香山濕地,2025-06-06,24.783581,120.914988,1.5672327e-07
C0S980,勝林山,2025-06-06,22.430439,120.8938,2.0691784e-06
C0V730,大寮,2025-06-06,22.605614,120.395717,0.13379417
C0R570,麟洛,2025-06-06,22.65078,120.52719,0.9549418
C2M930,石卓,2025-06-06,23.478744,120.702264,1.3507949e-08
C0G9B0,和美,2025-06-06,24.105169,120.492131,0.012468938
CAG100,王功漁港,2025-06-06,23.96824,120.32586,0.0015384497
C0X290,北門,2025-06-06,23.267772,120.125481,0.6581327
C2F930,大甲,2025-06-06,24.347667,120.640403,0.0053674947
C0D650,湖口,2025-06-06,24.904794,121.043628,1.6348584e-06
C0E420,竹南,2025-06-06,24.708978,120.888897,3.429097e-07
C0U780,五結,2025-06-06,24.68637,121.79794,7.399448e-08
C1I250,鯉潭,2025-06-06,23.961922,120.991131,1.7866341e-08
C0R130,阿禮,2025-06-06,22.742908,120.743678,1.2003802e-07
C0X100,臺南市北區,2025-06-06,23.010394,120.194228,0.93428755
C0S920,金峰嘉蘭,2025-06-06,22.594789,120.960825,0.78656906
C0V490,新興,2025-06-06,22.627422,120.298803,0.16809179
C0F9K0,大安,2025-06-06,24.345061,120.588025,0.01681952
467290,古坑,2025-06-06,23.633639,120.551889,0.00050549314
C2E970,八甲,2025-06-06,24.535811,120.795983,1.9415419e-08
C0V440,鳳山,2025-06-06,22.646653,120.356122,0.21128659
C1T940,大觀,2025-06-06,23.714206,121.373133,5.3433126e-08
C0E740,造橋,2025-06-06,24.637056,120.864778,1.1962923e-07
C0R100,尾寮山,2025-06-06,22.833111,120.683889,1.2312418e-07
A2K630,臺大雲林校區,2025-06-06,23.730628,120.423903,0.0010503912
467990,馬祖,2025-06-06,26.169467,119.923158,3.743727e-06
C0D580,寶山,2025-06-06,24.735006,121.025192,1.0934606e-08
E2P990,林試扇平站,2025-06-06,22.9677,120.6857,0.020705381
C0AI30,三重,2025-06-06,25.057328,121.500629,0.0026468188
C0AH00,汐止,2025-06-06,25.066881,121.658778,0.0018369149
C1Z040,立山,2025-06-06,23.443356,121.327375,2.0237482e-07
466881,新北,2025-06-06,24.959207,121.525196,0.000440772
C0W130,花嶼,2025-06-06,23.40007,119.32276,0.8517735
C0A950,鼻頭角,2025-06-06,25.129036,121.923372,2.0507239e-06
C0K470,林內,2025-06-06,23.748675,120.609642,8.245634e-05
C2F990,摩天嶺,2025-06-06,24.322458,120.936819,4.404863e-09
82C160,茶改場,2025-06-06,24.908472,121.185333,5.378487e-08
C0Z320,清水林道,2025-06-06,23.27125,121.188272,4.7874137e-06
C0R760,南仁湖,2025-06-06,22.084681,120.863353,0.99713176
C0M670,大林,2025-06-06,23.600616,120.45841,0.3488553
C0M800,茶山,2025-06-06,23.299075,120.664767,0.0007690328
C0A9C0,天母,2025-06-06,25.117494,121.537169,0.0036816439
72K220,南改斗南分場,2025-06-06,23.634556,120.477333,0.00785913
72AI40,桃改樹林分場,2025-06-06,24.944503,121.386972,0.000689534
C0S910,蘭嶼燈塔,2025-06-06,22.081197,121.503117,0.622644
C0B050,八斗子,2025-06-06,25.144754,121.79167,0.036444105
C0U900,內城,2025-06-06,24.71813,121.68766,5.3130687e-08
C0X320,柳營,2025-06-06,23.253328,120.375253,0.16397431
C0M790,新港,2025-06-06,23.553269,120.345728,0.25035313
C0F9T0,西屯,2025-06-06,24.179494,120.641275,2.346825e-05
C0SA30,都歷,2025-06-06,23.020333,121.323642,0.9806285
C0C620,蘆竹,2025-06-06,25.084275,121.265767,0.8628148
C0R730,大坪頂,2025-06-06,22.024633,120.69355,0.64560395
C0AJ40,石門,2025-06-06,25.273672,121.601198,0.00049764896
C0E750,苗栗,2025-06-06,24.564569,120.824575,7.699185e-08
C0T870,鯉魚潭,2025-06-06,23.935639,121.508944,0.00014239056
C1V170,排雲,2025-06-06,23.463619,120.954147,3.1186534e-08
C2H950,中寮,2025-06-06,23.884447,120.766406,2.1788615e-06
C0R350,貓鼻頭,2025-06-06,21.921774,120.7358,0.98911047
C0V660,岡山,2025-06-06,22.797078,120.294958,0.5078728
C1H941,雙冬,2025-06-06,23.967378,120.802189,6.8865674e-08
C0AJ70,田寮,2025-06-06,25.2698,121.4886,0.3327743
C0AI00,五股,2025-06-06,25.07445,121.42728,2.1431907e-07
C0Z280,德武,2025-06-06,23.47426,121.41071,5.335169e-05
C0R700,枋山,2025-06-06,22.246844,120.661086,0.023417512
C0C460,復興,2025-06-06,24.820208,121.352281,3.890972e-09
E2H360,蓮華池,2025-06-06,23.918333,120.885278,2.0160828e-08
C0M640,中埔,2025-06-06,23.42538,120.5229,3.9780636e-05
C0W140,金沙,2025-06-06,24.488292,118.408778,0.22166786
C2A540,四堵,2025-06-06,24.8926,121.745736,7.712072e-09
C0ACA0,新莊,2025-06-06,25.051478,121.446756,0.005401884
C0R220,潮州,2025-06-06,22.534361,120.54,0.5621878
U2HA40,臺大內茅埔,2025-06-06,23.689722,120.851117,7.4404784e-06
467490,臺中,2025-06-06,24.145736,120.684075,9.089995e-05
C0U960,翠峰湖,2025-06-06,24.510856,121.608044,2.3691188e-08
E2HA20,林試畢祿溪站,2025-06-06,24.226944,121.308522,1.46688945e-08
C0V890,前鎮,2025-06-06,22.5718,120.3117,0.15905118
C1F941,雪嶺,2025-06-06,24.280586,121.026642,2.0549017e-08
C2H9E0,國姓南港,2025-06-06,23.911108,120.846556,4.962042e-09
C0AC80,文山,2025-06-06,25.00235,121.575728,0.00021274592
C0F9R0,龍井,2025-06-06,24.184536,120.528972,0.009509951
C0M760,民雄,2025-06-06,23.551754,120.428457,0.3453385
C0UA40,西德山,2025-06-06,24.560647,121.752608,1.8327675e-08
C1T920,中興,2025-06-06,23.769503,121.498653,0.0013031543
C0D550,雪霸,2025-06-06,24.526972,121.11605,1.1023227e-08
C2F860,梨山,2025-06-06,24.247522,121.243669,1.4969173e-08
C0R320,車城,2025-06-06,22.0744,120.716247,0.79292476
C1S870,南美山,2025-06-06,23.15025,121.382333,0.9936306
C0B020,基隆嶼,2025-06-06,25.19141,121.78391,0.24787013
C1U501,牛鬥,2025-06-06,24.637836,121.573656,1.2313281e-08
C0M730,嘉義市東區,2025-06-06,23.457673,120.460531,0.16170269
C0S700,知本,2025-06-06,22.684866,121.005642,0.6610786
C1N001,沙崙,2025-06-06,22.935472,120.309406,0.97315526
C0V760,橋頭,2025-06-06,22.757806,120.30575,0.20462908
C0G960,福寶,2025-06-06,24.0443,120.3814,0.015725605
C0X210,白河,2025-06-06,23.347466,120.414427,0.052946914
C0S810,東河,2025-06-06,22.972672,121.303986,0.7014006
C2R170,屏東,2025-06-06,22.66027,120.49403,0.9538311
C0R670,楓港,2025-06-06,22.190131,120.692156,0.051148225
C0FA50,霧峰,2025-06-06,24.0419,120.6995,6.961452e-05
C0UB10,蘇澳,2025-06-06,24.5969,121.8571,0.0011040779
C0G950,防潮門,2025-06-06,24.1835,120.4871,0.009939572
C0M740,六腳,2025-06-06,23.492871,120.290625,0.21236336
C1R250,力里,2025-06-06,22.428117,120.629228,0.06398178
C0K330,虎尾,2025-06-06,23.719183,120.442036,0.0009697806
C2FA00,烏石坑,2025-06-06,24.273503,120.947617,4.546379e-09
C0V620,永安,2025-06-06,22.82315,120.236856,0.5017837
C1I330,楓樹林,2025-06-06,23.986803,121.076117,5.6738054e-09
C0W200,湖西,2025-06-06,23.596314,119.67275,0.8691901
72Q010,高雄農改場,2025-06-06,22.709333,120.525889,0.99653864
C0SA40,瑞和,2025-06-06,22.974361,121.156697,0.8863983
C0C680,龜山,2025-06-06,25.02846,121.38656,6.531821e-08
C2V260,月眉,2025-06-06,22.971003,120.539853,0.9984456
C0V450,鳳森,2025-06-06,22.545064,120.392592,0.19825558
C0U720,南山,2025-06-06,24.43742,121.38167,3.949761e-08
A2N290,臺南蘭花園區,2025-06-06,23.340258,120.379661,0.18702152
C0R560,新園,2025-06-06,22.5434,120.461558,0.15242079
C0U890,三星,2025-06-06,24.66812,121.65302,4.897654e-08
C1V300,御油山,2025-06-06,23.001983,120.715364,1.9946063e-08
C0U600,礁溪,2025-06-06,24.817539,121.765608,2.5896085e-07
C1T980,龍澗,2025-06-06,24.023289,121.411328,2.6354375e-08
C0D670,海天一線,2025-06-06,24.831986,120.914438,0.12079742
C0SA00,歷坵,2025-06-06,22.520969,120.89185,0.97627074
C0M710,東石,2025-06-06,23.458927,120.15385,0.04674557
C0M780,鹿草,2025-06-06,23.41134,120.30835,0.16418113
C0U520,雙連埤,2025-06-06,24.753033,121.641303,8.127181e-09
C0B010,七堵,2025-06-06,25.094819,121.71713,0.0025166613
C0R480,長治,2025-06-06,22.693128,120.542622,0.79650253
C1V830,國三S383K,2025-06-06,22.781967,120.426475,0.9986783
12Q980,恆春工作站,2025-06-06,22.079678,120.714425,0.7929365
C1O940,東山服務區,2025-06-06,23.286016,120.398472,0.16480705
C1U840,東澳嶺,2025-06-06,24.5378,121.8485,5.7722085e-09
C1D630,飛鳳山,2025-06-06,24.766464,121.119178,4.98247e-09
C0S940,石寧山,2025-06-06,23.223772,121.406639,0.9936266
C0K410,北港,2025-06-06,23.573957,120.292802,0.13690642
C2M620,瑞里,2025-06-06,23.545133,120.675197,1.0861066e-08
C0SB70,小港漁港,2025-06-06,23.158558,121.400431,0.97586507
C2O950,安南,2025-06-06,23.076694,120.144861,0.33858094
C0F0E0,南湖圈谷,2025-06-06,24.363714,121.444667,4.416626e-08
467610,成功,2025-06-06,23.097486,121.373428,0.956876
C0G890,伸港,2025-06-06,24.148933,120.484403,0.0054434016
C2E540,龍溪,2025-06-06,24.606489,120.783933,0.00056241953
C1V200,梅山,2025-06-06,23.268447,120.823556,9.860389e-05
C0T9H0,加路蘭山,2025-06-06,23.682947,121.5274,8.778837e-08
C2O930,玉井,2025-06-06,23.126042,120.46055,0.1503721
C1F911,新伯公,2025-06-06,24.221361,120.841069,3.1287584e-08
C0R490,九如,2025-06-06,22.7405,120.490503,0.99602264
C0X200,左鎮,2025-06-06,23.056758,120.408522,0.9626015
C0SB50,叭嗡嗡,2025-06-06,23.047062,121.343223,0.9867444
C1F891,稍來,2025-06-06,24.265689,121.001142,1.5739529e-08
72N240,七股研究中心,2025-06-06,23.081672,120.062894,0.5082503
C0C700,中壢,2025-06-06,24.977661,121.256375,1.8100721e-07
C0M690,水上,2025-06-06,23.419734,120.388909,0.2208854
C0V690,鼓山,2025-06-06,22.623325,120.275575,0.16603355
C0O860,大內,2025-06-06,23.11885,120.36083,0.98613274
C0Z200,萬榮,2025-06-06,23.709219,121.420106,6.744744e-05
C0T9D0,和中,2025-06-06,24.26676,121.74103,0.105620004
C1O921,楠西,2025-06-06,23.183511,120.484083,0.24080472
C0AJ30,淡水觀海,2025-06-06,25.184591,121.408616,0.04009036
C0V810,左營,2025-06-06,22.67491,120.28491,0.1686111
C0UA70,桃源谷,2025-06-06,24.962606,121.888875,1.5648649e-08
C0X130,官田,2025-06-06,23.193217,120.315422,0.7173356
C1H000,翠峰,2025-06-06,24.109397,121.205211,1.5984035e-08
C0UA90,石城,2025-06-06,24.980444,121.951214,4.1178052e-07
C1E681,南勢山,2025-06-06,24.421669,120.923831,1.7673716e-09
C0A9F0,內湖,2025-06-06,25.079422,121.57545,0.0018369125
C0K291,宜梧,2025-06-06,23.536281,120.169329,0.0645943
C1K540,口湖,2025-06-06,23.585344,120.180517,0.006667226
C0R780,滿州,2025-06-06,22.024403,120.839892,0.27131853
C0V870,文安,2025-06-06,22.8025,120.2164,0.45314297
C0U650,玉蘭,2025-06-06,24.675286,121.587061,9.233733e-09
C0R640,東港,2025-06-06,22.46247,120.44074,0.17288168
C0AJ80,板橋,2025-06-06,25.0107,121.4489,0.0012716886
C0S660,下馬,2025-06-06,23.150427,121.070312,4.4411746e-07
C1H9B1,阿眉,2025-06-06,24.1263,120.994672,1.0019032e-08
C0UA20,多加屯,2025-06-06,24.368614,121.373189,1.819282e-08
C0E730,頭份,2025-06-06,24.688247,120.912206,3.7386852e-07
72V140,高改旗南分場,2025-06-06,22.857861,120.516667,0.9983476
C0K480,莿桐,2025-06-06,23.761192,120.502372,0.0005613838
C0U980,坪林石牌,2025-06-06,24.86478,121.77396,8.957155e-09
C0T900,西林,2025-06-06,23.8119,121.441458,0.00011074542
C1I150,青雲,2025-06-06,23.793361,120.949378,1.0160284e-06
467350,澎湖,2025-06-06,23.565503,119.563094,0.8431996
C0G800,埔鹽,2025-06-06,24.000394,120.431683,0.012527165
C0H960,草屯,2025-06-06,23.973672,120.68085,2.8895536e-05
C1V780,多納林道,2025-06-06,22.888028,120.737917,2.2621455e-07
C0E920,通霄漁港,2025-06-06,24.498589,120.673876,0.052024197
C0Z330,安通山,2025-06-06,23.290728,121.348528,0.0002154737
C0AH10,永和,2025-06-06,25.01125,121.508111,0.0014516272
C0AK10,太平里,2025-06-06,25.134937,121.364899,0.07403213
C2G640,鹿港,2025-06-06,24.0753,120.430481,0.015461827
C1E890,國三N149K,2025-06-06,24.463414,120.680019,4.7805423e-07
C1R110,口社,2025-06-06,22.770111,120.645222,0.996706
C1M870,國三N285K,2025-06-06,23.550319,120.505833,0.00023952854
C1E480,鳳美,2025-06-06,24.554803,121.034747,3.9657704e-09
C0M530,奮起湖,2025-06-06,23.493903,120.699253,9.850992e-09
C0C590,觀音,2025-06-06,25.027072,121.153317,2.5722762e-05
C0T9M0,靜浦,2025-06-06,23.455167,121.495028,0.00053000846
C2H9M0,發祥,2025-06-06,24.154094,121.164517,6.347129e-09
C0AI40,石牌,2025-06-06,25.115597,121.513139,0.004890592
C1F871,上谷關,2025-06-06,24.203483,121.018644,4.0780073e-09
C2H9G0,百勝,2025-06-06,24.051142,120.909361,2.1995222e-08
C0G880,二水,2025-06-06,23.810742,120.6173,2.5136473e-05
C0R940,加祿堂,2025-06-06,22.3363,120.6217,0.039314527
C0W220,北竿,2025-06-06,26.220358,119.974881,1.21641515e-05
C0O960,崎頂,2025-06-06,22.959547,120.369317,0.9780163
C0S750,向陽,2025-06-06,23.248397,120.986133,1.476388e-08
C0T9F0,水璉,2025-06-06,23.797131,121.542514,2.0104253e-05
C1M600,頭凍,2025-06-06,23.406364,120.603339,2.695317e-08
467660,臺東,2025-06-06,22.752211,121.154586,0.13405982
C1D380,新埔,2025-06-06,24.84745,121.03834,5.2703445e-08
C2G980,田頭村,2025-06-06,23.8263,120.444175,0.00066484226
C0V750,路竹,2025-06-06,22.854997,120.259439,0.614628
C0N050,蚵寮,2025-06-06,23.301,120.1104,0.72002655
72M700,南改鹿草分場,2025-06-06,23.416869,120.283061,0.1693609
C1SA50,利嘉林道,2025-06-06,22.82325,121.009389,1.2678373e-07
C0A940,金山,2025-06-06,25.223628,121.643967,0.005046894
C1V340,大津,2025-06-06,22.888322,120.645986,0.99777603
C0W180,七美,2025-06-06,23.219333,119.444892,0.83325756
C1F9C1,白冷,2025-06-06,24.182844,120.929889,3.5411962e-09
K2E710,苗改生物防治研究中心,2025-06-06,24.422861,120.871833,5.248944e-09
C0N040,蘆竹溝,2025-06-06,23.2344,120.0961,0.65694374
C2W230,畜試所澎湖,2025-06-06,23.628342,119.513206,0.5367883
C0R880,後壁湖,2025-06-06,21.9457,120.7457,0.9853864
C1I280,埔中,2025-06-06,23.820778,120.642594,5.358413e-07
467790,墾丁雷達站,2025-06-06,21.948235,120.808028,0.9474295
C0W190,望安,2025-06-06,23.380564,119.494075,0.8464954
C0Z170,卓溪,2025-06-06,23.3443,121.3029,0.63026774
C0F850,東勢,2025-06-06,24.246428,120.833047,5.2683646e-08
466900,淡水,2025-06-06,25.164889,121.448906,0.07374663
C0I370,魚池,2025-06-06,23.895703,120.94135,2.417182e-08
C0C630,大溪,2025-06-06,24.882853,121.265547,4.1615827e-08
C0A520,山佳,2025-06-06,24.974944,121.402008,0.00021959568
C0I110,竹山,2025-06-06,23.761225,120.688156,2.8139084e-06
82H840,茶改南部分場,2025-06-06,23.762528,120.7405,5.9639774e-08
C0G660,溪湖,2025-06-06,23.94835,120.479122,0.0026311032
C1T800,洛韶,2025-06-06,24.204558,121.453956,1.9249562e-08
C1T810,慈恩,2025-06-06,24.192044,121.388386,1.3780177e-08
C1E451,象鼻,2025-06-06,24.368617,120.940228,1.643784e-09
C0AC60,三峽,2025-06-06,24.939025,121.369728,3.558101e-07
C0I490,萬大林道,2025-06-06,23.928228,121.091411,1.0709152e-08
C1I290,豐丘,2025-06-06,23.668178,120.887417,1.4479453e-08
C1I320,奧萬大,2025-06-06,23.952956,121.178556,4.4329718e-09
C2M910,嘉義大學,2025-06-06,23.471325,120.485903,0.00052390277
C0U770,南澳,2025-06-06,24.44935,121.81022,0.0004499425
C0A980,社子,2025-06-06,25.109508,121.469681,0.11988462
C0V800,六龜,2025-06-06,22.997889,120.633583,0.995356
C1G9D0,國一S218K,2025-06-06,23.890641,120.493253,0.0034123817
C0E570,白沙屯,2025-06-06,24.549447,120.696803,0.014191599
C2F9A0,中竹林,2025-06-06,24.103556,120.751061,5.861154e-08
C0FA40,臺中電廠,2025-06-06,24.2146,120.4907,0.00950612
C2G9A0,畜試所彰化,2025-06-06,23.86045,120.557964,0.0006747736
C0H9C0,合歡山,2025-06-06,24.143442,121.272547,2.7958734e-08
C0X060,下營,2025-06-06,23.22695,120.256261,0.745118
G2M350,農試溪口農場,2025-06-06,23.58565,120.408111,0.31849444
C0U860,頭城,2025-06-06,24.85323,121.8308,3.0268166e-07
C0R580,南州,2025-06-06,22.48591,120.50274,0.17288168
C0D430,峨眉,2025-06-06,24.6905,121.017189,1.3834718e-08
C0G780,秀水,2025-06-06,24.03405,120.503869,0.0010828793
72N100,臺南農改場,2025-06-06,23.0605,120.342194,0.9867403
C0S900,蘭嶼高中,2025-06-06,22.04909,121.51214,0.8660111
C1F9W0,德基,2025-06-06,24.254783,121.190261,1.1637741e-08
C1Z120,壽豐,2025-06-06,23.870853,121.508081,0.0031722907
C0W160,烏坵,2025-06-06,24.9944,119.44956,0.30421135
C1I240,外大坪,2025-06-06,23.958697,120.917931,1.5239861e-08
C1I550,國六W023K,2025-06-06,23.979067,120.867742,7.13973e-08
C0R870,興海,2025-06-06,21.9752,120.8439,0.9659371
C0R140,瑪家,2025-06-06,22.682903,120.686639,0.037271556
C0A530,坪林,2025-06-06,24.938183,121.70975,2.276296e-08
C0X260,後壁,2025-06-06,23.366358,120.362326,0.7239156
C0Z230,和平,2025-06-06,24.30717,121.77007,0.12469351
C0G770,福興,2025-06-06,24.041289,120.437669,0.014308192
C0H9A0,神木村,2025-06-06,23.532742,120.843667,3.572432e-08
C0I460,南投,2025-06-06,23.911469,120.687331,0.00016980487
C0I480,梅峰,2025-06-06,24.085272,121.173572,1.1864287e-08
C1V570,吉東,2025-06-06,22.85422,120.5454,0.9986536
C2D740,屯原,2025-06-06,24.067969,121.209389,1.3700898e-08
C2A560,福山,2025-06-06,24.776203,121.502811,7.4595e-09
C0AH30,五分山,2025-06-06,25.07125,121.780794,7.947521e-09
C0FA10,松柏,2025-06-06,24.429115,120.617482,0.025422353
72S200,東改班鳩分場,2025-06-06,22.829528,121.077694,0.700453
72HA00,中改埔里分場,2025-06-06,23.903208,120.963364,3.7730455e-08
C2H9W0,大坪頂農水,2025-06-06,24.043122,120.932781,1.6130308e-08
C0C650,平鎮,2025-06-06,24.897503,121.214636,4.7436835e-08
C0S930,延平,2025-06-06,22.902581,121.084058,0.666948
C0UA60,樟樹山,2025-06-06,24.41393,121.78325,1.3355594e-08
C1S670,摩天,2025-06-06,23.199503,121.027,6.255264e-08
C0V630,茄萣,2025-06-06,22.906642,120.182608,0.8786924
466940,基隆,2025-06-06,25.133314,121.740475,0.034982778
C0X050,東河,2025-06-06,23.296598,120.385608,0.14135863
C0R770,保力,2025-06-06,22.071122,120.764111,0.537796
G2L020,農試嘉義分所,2025-06-06,23.485028,120.473806,0.0005350933
C0X240,關子嶺,2025-06-06,23.331169,120.508025,0.001343385
C0I380,集集,2025-06-06,23.828206,120.801467,1.3147718e-05
466990,花蓮,2025-06-06,23.975128,121.613275,0.002471961
C1V220,小關山,2025-06-06,23.154217,120.813603,1.6211704e-08
C1F9G1,慶福山,2025-06-06,24.180853,120.848378,1.8440363e-09
C0Z250,瑞穗林道,2025-06-06,23.49284,121.30688,6.9534984e-08
C0D590,新豐,2025-06-06,24.87068,120.97721,0.0011404249
C0A870,五指山,2025-06-06,25.132153,121.608692,3.690157e-09
C0UA50,西帽山,2025-06-06,24.555361,121.802628,7.987366e-09
C0X160,仁德,2025-06-06,22.968258,120.257689,0.95409286
C1H971,六分寮,2025-06-06,23.92507,120.6378,4.6200288e-08
C0W120,西嶼,2025-06-06,23.5626,119.468436,0.8555792
C0G650,員林,2025-06-06,23.946503,120.585597,0.0060015847
C0AD50,鶯歌,2025-06-06,24.951533,121.346294,2.629255e-07
C2H9Q0,北東眼山,2025-06-06,24.120939,121.189303,1.587378e-08
C2H9T0,名間竹圍,2025-06-06,23.859914,120.637572,1.9144807e-06
C0S990,山豬窟,2025-06-06,22.318619,120.857372,0.9977195
C0X190,安平,2025-06-06,22.993161,120.152181,0.93464524
C0K400,斗六,2025-06-06,23.720583,120.541127,0.0008929602
12J990,口湖工作站,2025-06-06,23.589978,120.180394,0.0071499445
C0O830,北寮,2025-06-06,23.079561,120.495008,0.99899966
C1D410,白蘭,2025-06-06,24.579364,121.079947,4.4886836e-09
C0S970,加津林,2025-06-06,22.416211,120.926942,0.75922036
C0D700,關西,2025-06-06,24.7977,121.1732,4.012772e-08
C0M810,里佳,2025-06-06,23.389125,120.716647,1.1285668e-08
C0U750,龜山島,2025-06-06,24.841667,121.953133,7.64619e-05
C0R810,內獅,2025-06-06,22.305064,120.642986,0.038941104
C1M390,龍美,2025-06-06,23.406728,120.654417,1.5269858e-08
C2FB60,頭櫃山,2025-06-06,24.129842,120.858925,6.3088925e-09
C1H840,國三N238K,2025-06-06,23.841008,120.707711,7.1898194e-06
CAQ030,崎峰國小,2025-06-06,22.42565,120.49521,0.17288168
C2E520,大湖,2025-06-06,24.414939,120.870872,1.1602649e-07
467530,阿里山,2025-06-06,23.508208,120.813242,2.3991674e-08
C1E691,南湖,2025-06-06,24.40135,120.837533,1.8120914e-09
C0FA30,梧棲,2025-06-06,24.256003,120.523381,0.0062906262
C1V231,高中,2025-06-06,23.134911,120.716711,7.78204e-08
C0AK30,硬漢嶺,2025-06-06,25.136097,121.426372,3.9148755e-09
C0F9V0,新社,2025-06-06,24.200172,120.815806,7.494325e-09
C0H890,埔里,2025-06-06,23.972169,120.952425,2.2179405e-08
C0R690,墾丁,2025-06-06,21.966756,120.810269,0.77839375
C0F0D0,審馬陣,2025-06-06,24.381675,121.4203,2.7769481e-08
C2W030,金門農試所,2025-06-06,24.448431,118.451786,2.2497592e-05
C0R820,白鷺,2025-06-06,22.454275,120.666219,0.34523413
C1V190,南天池,2025-06-06,23.27403,120.91176,1.5825924e-08
K2E360,苗栗農改場,2025-06-06,24.495722,120.829111,3.9773848e-08
CAJ050,海口故事園區,2025-06-06,23.57543,120.14121,0.0067031397
C2H9D0,三隻寮,2025-06-06,24.093078,120.861578,1.4403457e-08
C0O990,媽廟,2025-06-06,22.99175,120.293525,0.9846866
C0D480,打鐵坑,2025-06-06,24.849664,121.150789,8.532936e-09
C0Z220,和平林道,2025-06-06,24.343922,121.656317,4.8234888e-08
C0TA10,花蓮漁港,2025-06-06,23.995322,121.638331,0.0029893226
72C440,桃園農改場,2025-06-06,24.950944,121.030583,7.646844e-06
C1E711,馬拉邦山,2025-06-06,24.367306,120.901656,4.351909e-09
C0SB20,富岡,2025-06-06,22.792467,121.192669,0.61034685
C0D560,竹東,2025-06-06,24.767147,121.057881,1.240879e-08
C0F9U0,南屯,2025-06-06,24.137006,120.637969,0.0009595284
C0M720,番路,2025-06-06,23.464657,120.554156,0.00041460237
C0F0A0,雪山圈谷,2025-06-06,24.388594,121.236339,3.204855e-08
C1A9N0,四十份,2025-06-06,24.934158,121.593283,6.4220083e-09
C0U760,東澳,2025-06-06,24.52196,121.83318,0.0021687546
C0X230,鹽水,2025-06-06,23.272621,120.247641,0.7158651
C2H9H0,苗改南投蜂場,2025-06-06,23.852589,120.693481,1.2537622e-05
C0R950,萬隆國小,2025-06-06,22.507667,120.587817,0.7118198
467540,大武,2025-06-06,22.35572,120.90374,0.7466971
C0V370,古亭坑,2025-06-06,22.893178,120.401947,0.9559359
C1I340,新興橋,2025-06-06,23.563333,120.868728,5.2438107e-09
C0SA80,土坂,2025-06-06,22.453108,120.887572,0.86319727
C0R160,鹽埔,2025-06-06,22.739558,120.530778,0.99661475
C0AC40,大屯山,2025-06-06,25.175675,121.522408,5.0504028e-09
466850,五分山雷達站,2025-06-06,25.071182,121.781205,7.734359e-09
C2H9L0,馬烈霸,2025-06-06,24.1512,121.201772,1.0558154e-08
C1AI50,國三N016K,2025-06-06,25.034164,121.619664,0.0003157754
C1V600,藤枝,2025-06-06,23.071961,120.757042,2.4964244e-08
C1E601,南勢,2025-06-06,24.572486,120.734842,2.8799934e-07
C0O980,新市,2025-06-06,23.061614,120.298197,0.98544675
C0K420,西螺,2025-06-06,23.800407,120.467394,0.0005014739
C0Z050,佳心,2025-06-06,23.34567,121.21316,1.5130284e-07
C0AD30,蘆洲,2025-06-06,25.086594,121.472331,0.0019647325
C0V610,梓官,2025-06-06,22.760558,120.267211,0.20174244
K2F750,種苗改良場,2025-06-06,24.225972,120.800917,1.5141755e-08
C0UA80,大溪漁港,2025-06-06,24.941801,121.902955,5.497151e-07
C1AI60,國一39K邊坡,2025-06-06,25.064361,121.383836,9.514788e-08
C0W150,金寧,2025-06-06,24.457703,118.328989,1.6520597e-05
C0R960,內埔,2025-06-06,22.608483,120.570714,0.53302044
V2C250,八德合作社,2025-06-06,24.93775,121.266389,9.159887e-08
C2H9S0,龍南,2025-06-06,23.953536,120.833183,5.4721725e-09
C0AH40,平等,2025-06-06,25.129142,121.577086,5.261684e-09
C0R540,佳冬,2025-06-06,22.419456,120.552375,0.043831307
466950,彭佳嶼,2025-06-06,25.627975,122.079744,0.9943217
C0A890,雙溪,2025-06-06,25.036003,121.864242,0.0017818358
C0C480,桃園,2025-06-06,24.992425,121.323172,2.7204007e-07
C0AH50,林口,2025-06-06,25.072181,121.38084,4.944981e-08
A2K360,水試臺西試驗場,2025-06-06,23.717231,120.190522,0.0012734157
C2M960,外寮,2025-06-06,23.562643,120.665688,1.5494653e-08
C0F9S0,烏日,2025-06-06,24.107058,120.624103,0.0039910874
C0C490,八德,2025-06-06,24.928708,121.283289,8.909637e-08
C0R190,赤山,2025-06-06,22.592333,120.614306,0.585028
C0T820,天祥,2025-06-06,24.179597,121.495639,2.2327097e-07
C1F9E1,龍安,2025-06-06,24.1605,120.831961,6.203718e-09
C0V820,小林,2025-06-06,23.148408,120.63325,0.0002687333
C2G870,芳苑,2025-06-06,23.922303,120.320025,0.0015813826
C0E850,大河,2025-06-06,24.618069,120.948578,2.1068205e-08
C1U670,寒溪,2025-06-06,24.634,121.71691,3.132574e-08
C0N020,城西,2025-06-06,23.0568,120.0956,0.76463675
C1Z110,三棧,2025-06-06,24.11557,121.60501,8.8743235e-07
C0R280,檳榔,2025-06-06,22.076078,120.836777,0.975529
C2H9J0,中台,2025-06-06,23.9996,120.938739,1.8861301e-07
C0F9L0,后里,2025-06-06,24.310436,120.729725,8.328026e-07
467441,高雄,2025-06-06,22.730432,120.312516,0.22542338
C0Z180,新城,2025-06-06,24.040486,121.604878,0.001875449
C0D540,橫山,2025-06-06,24.71116,121.11693,6.457986e-09
C1D420,太閣南,2025-06-06,24.632808,121.160575,2.1688649e-08
C1E770,公館,2025-06-06,24.526914,120.830806,6.004131e-08
CAN130,水試所海水繁養殖中心,2025-06-06,23.120802,120.07968,0.50320745
C1I430,翠華,2025-06-06,24.191961,121.224339,1.2889867e-08
C1M400,菜瓜坪,2025-06-06,23.251928,120.576103,0.00033653047
C0G730,二林,2025-06-06,23.903325,120.376081,0.019748304
72M360,南改義竹分場,2025-06-06,23.360694,120.279361,0.7163137
V2K620,麥寮合作社,2025-06-06,23.753836,120.294783,0.007281298
C0Z070,舞鶴,2025-06-06,23.46811,121.37407,1.8922748e-05
C0B040,大武崙,2025-06-06,25.166676,121.706993,0.011290373
C1Z030,紅葉,2025-06-06,23.493119,121.338806,3.4981666e-05
C1I050,丹大,2025-06-06,23.753747,121.141147,2.3883786e-08
C0I080,信義,2025-06-06,23.689694,120.851036,7.4404784e-06
C2M920,朴子農改,2025-06-06,23.469889,120.259383,0.16802026
C2A880,福隆,2025-06-06,25.017842,121.942083,4.6929404e-07
C0Z160,鳳林,2025-06-06,23.746114,121.453411,0.0001406506
C0V210,復興,2025-06-06,23.222403,120.806089,6.651065e-08
C0H990,昆陽,2025-06-06,24.121322,121.273642,2.3598014e-08
C0R741,獅子,2025-06-06,22.202308,120.705236,0.07539342
C0S710,鹿野,2025-06-06,22.917711,121.122994,0.006401955
C0I530,小奇萊,2025-06-06,24.131764,121.295717,2.4661405e-08
C2K630,荷苞,2025-06-06,23.657717,120.595144,3.3296306e-05
C0Z080,富源,2025-06-06,23.587642,121.378225,4.6049554e-06
C0SB10,美和,2025-06-06,22.682078,121.060236,0.6270444
C2K620,馬光農場,2025-06-06,23.721453,120.378864,0.0012536711
C1I140,卡奈托灣,2025-06-06,23.754364,121.087872,7.482641e-09
C0I520,玉山風口,2025-06-06,23.470489,120.955994,3.9830255e-08
C1G691,下水埔,2025-06-06,23.816114,120.5676,0.00028450304
C0X110,臺南市南區,2025-06-06,22.961189,120.188378,0.95393026
C0V680,仁武,2025-06-06,22.701083,120.347722,0.17739265
C2G840,北斗,2025-06-06,23.877586,120.514222,0.0030220698
C0R900,竹坑,2025-06-06,22.1385,120.7022,0.055592895
C0K250,崙背,2025-06-06,23.75555,120.318925,0.007349673
C0G860,社頭,2025-06-06,23.897647,120.5862,0.0036873731
C0X150,安定,2025-06-06,23.102614,120.227839,0.92778414
C0R590,里港,2025-06-06,22.77919,120.49459,0.99635947
C0E610,馬都安,2025-06-06,24.451272,120.930192,1.7340439e-09
C0E550,明德,2025-06-06,24.583486,120.885411,5.8959685e-08
C0R150,三地門,2025-06-06,22.709889,120.639944,0.99638444
C0G910,花壇,2025-06-06,24.032076,120.549461,0.0006973652
C1D400,鳥嘴山,2025-06-06,24.71909,121.28387,2.0173512e-09
C0K500,元長,2025-06-06,23.64981,120.315024,0.002612901
C0F0B0,石岡,2025-06-06,24.276061,120.777644,2.8777723e-07
C2V250,甲仙,2025-06-06,23.080106,120.591758,0.9978732
C0SA20,金崙山,2025-06-06,22.567419,120.959667,1.1802883e-06
C0V350,溪埔,2025-06-06,22.738578,120.446797,0.9562128
C0M660,溪口,2025-06-06,23.604131,120.403569,0.33061582
C1S880,壽卡,2025-06-06,22.238911,120.858903,0.990128
72D680,桃改新埔分場,2025-06-06,24.834444,121.066111,5.5887213e-08
