站號,站名,日期,lat,lon,BLBTSLS
C0R710,龍磐,2025-12-12,21.931672,120.838942,0.14135014
C1F9D1,白毛台,2025-12-12,24.158325,120.886933,4.3083817e-10
C0G940,竹塘,2025-12-12,23.848253,120.386764,0.001578549
467590,恆春,2025-12-12,22.003897,120.746339,0.10978994
C1O850,環湖,2025-12-12,23.148617,120.418633,6.055341e-09
C0U710,太平山,2025-12-12,24.505486,121.525656,1.8401865e-08
C0E820,獅潭,2025-12-12,24.539133,120.920042,6.920097e-10
C2SD70,二層坪,2025-12-12,22.94105,121.16838,8.909492e-10
C0V880,興達,2025-12-12,22.8778,120.2127,0.19555596
C0S890,關山,2025-12-12,23.0395,121.175017,7.1580497e-10
C0SB30,新蘭,2025-12-12,22.869214,121.223228,6.141421e-06
C2R970,屏科大,2025-12-12,22.648275,120.619247,4.4143185e-08
C1Z130,銅門,2025-12-12,23.965694,121.492842,2.0594089e-09
C0AD40,土城,2025-12-12,24.973208,121.445169,0.0021619445
CAN140,六官養殖協會,2025-12-12,23.22881,120.29962,1.1181365e-05
C0X180,山上,2025-12-12,23.0757,120.363253,6.433793e-08
C0F9Z0,雪山東峰,2025-12-12,24.388792,121.268675,1.3978427e-08
C1M480,獨立山,2025-12-12,23.537022,120.607797,7.3672624e-10
C0X220,學甲,2025-12-12,23.230367,120.182187,0.0026930382
467650,日月潭,2025-12-12,23.881325,120.90805,7.1503264e-10
A2K570,古坑(花卉中心),2025-12-12,23.633531,120.552392,2.6159894e-06
C0K600,箔子寮,2025-12-12,23.6197,120.14,0.21196526
C0G830,埤頭,2025-12-12,23.866003,120.452806,3.324869e-07
C0S950,七塊厝,2025-12-12,22.954453,121.229922,7.793961e-10
467110,金門,2025-12-12,24.407306,118.289281,6.144813e-06
C0AH80,深坑,2025-12-12,25.002703,121.628328,1.3290715e-05
C0A970,三貂角,2025-12-12,25.007606,122.002058,1.2770471e-08
C2D730,寶山農場,2025-12-12,24.732444,120.976153,6.194266e-06
C0K430,褒忠,2025-12-12,23.690938,120.303634,2.3277298e-05
467480,嘉義,2025-12-12,23.495925,120.432906,0.0008620761
C0V400,阿公店,2025-12-12,22.804194,120.355528,1.0608903e-08
C0E960,觀霧分站,2025-12-12,24.505781,121.113921,7.2187643e-09
467550,玉山,2025-12-12,23.48718,120.95943,2.1812152e-08
C0R440,大漢山,2025-12-12,22.405264,120.753181,1.8359724e-08
C0SD30,東清國小,2025-12-12,22.057128,121.564922,0.9993022
C1F9B1,桐林,2025-12-12,24.066172,120.735194,1.3363041e-07
C2H9U0,鳳鵬,2025-12-12,23.763919,120.788061,5.3034654e-10
C0K390,土庫,2025-12-12,23.679029,120.395574,2.2554086e-06
C1I450,望鄉山,2025-12-12,23.594153,120.944286,9.973236e-09
C0E910,海埔,2025-12-12,24.648767,120.772435,0.030658133
B2E890,畜試北區分所,2025-12-12,24.527806,120.770972,2.4675991e-08
C0R750,四林格山,2025-12-12,22.076989,120.802439,0.03634876
C0F0C0,中坑,2025-12-12,24.248517,120.903319,9.530019e-10
C1I121,大鞍,2025-12-12,23.678381,120.760017,2.412239e-09
C2G9E0,移民庄,2025-12-12,23.9784,120.40283,0.0011829366
72U480,花改蘭陽分場,2025-12-12,24.686306,121.716583,9.779454e-10
C0A770,科教館,2025-12-12,25.096356,121.516507,1.2696561e-06
C0AJ60,六塊厝,2025-12-12,25.24,121.4481,0.004032413
C0R620,墾雷,2025-12-12,21.900836,120.855269,0.14176013
467420,永康,2025-12-12,23.038386,120.2367,5.4212423e-06
C2M530,奮起湖,2025-12-12,23.493903,120.699253,1.5700601e-09
C0I410,名間,2025-12-12,23.837053,120.701447,1.5176587e-09
A2C560,農工中心,2025-12-12,24.985917,121.239833,0.22032635
C0V740,旗山,2025-12-12,22.888614,120.483597,1.5809512e-08
C0Z061,玉里,2025-12-12,23.3215,121.339656,1.1637825e-09
C0S840,南田,2025-12-12,22.279725,120.889208,0.8751603
C1I470,杉林溪,2025-12-12,23.639517,120.786444,4.188816e-09
C1X040,東原,2025-12-12,23.291597,120.463822,3.0355143e-10
C0R660,枋寮,2025-12-12,22.367722,120.590647,2.340254e-08
C1R120,上德文,2025-12-12,22.763272,120.704442,5.329892e-10
C0K450,大埤,2025-12-12,23.646074,120.431537,0.0025378137
C0UA00,土場,2025-12-12,24.576533,121.495333,1.02924504e-08
467080,宜蘭,2025-12-12,24.763975,121.756528,7.1422845e-10
C0N030,四草,2025-12-12,23.0235,120.1116,0.30076575
467410,臺南,2025-12-12,22.99328,120.20492,0.15870476
C0V650,彌陀,2025-12-12,22.783806,120.246361,0.92825747
C0D660,新竹市東區,2025-12-12,24.798681,120.986942,0.31847984
82S580,茶改東部分場,2025-12-12,22.907694,121.130139,1.2622003e-08
C0SB40,興隆,2025-12-12,22.913661,121.257469,0.96090114
467050,新屋,2025-12-12,25.006725,121.047492,0.99988335
C0C710,大溪永福,2025-12-12,24.892936,121.324975,2.6515906e-07
C0FA20,溫寮,2025-12-12,24.372177,120.583125,0.0010199856
C0V640,湖內,2025-12-12,22.887139,120.2445,0.19555596
C0R910,下寮,2025-12-12,22.3929,120.5548,3.4508514e-05
C0Z020,明里,2025-12-12,23.208717,121.262342,1.4961172e-09
C0M770,嘉義梅山,2025-12-12,23.585398,120.555587,3.5405275e-05
C0C660,楊梅,2025-12-12,24.912375,121.143047,0.37132472
C0SD40,牛頭山,2025-12-12,22.676661,121.506944,0.00963221
C1E511,新開,2025-12-12,24.347703,120.827019,5.0274684e-10
G2F820,農試所(霧峰),2025-12-12,24.031261,120.688133,6.901359e-07
C2M990,大巃頂,2025-12-12,23.5547,120.61439,9.1398267e-10
C1I070,和社,2025-12-12,23.591131,120.888861,5.6813615e-10
C2E990,新坪頂,2025-12-12,24.30201,120.8574,8.530409e-10
C0TA80,立霧山,2025-12-12,24.183258,121.641899,1.467799e-08
C2F000,大肚,2025-12-12,24.15295,120.572117,5.4278795e-09
C1S850,豐南,2025-12-12,23.122139,121.262389,9.512948e-10
C2M9B0,西興,2025-12-12,23.2428,120.57617,4.1141773e-10
C2A920,富貴角,2025-12-12,25.263783,121.565258,0.011871454
CAH030,茶改場竹圍站,2025-12-12,23.860083,120.637528,5.359516e-10
C0T960,光復,2025-12-12,23.660694,121.424964,1.8930704e-09
C0F9M0,豐原,2025-12-12,24.254322,120.720692,1.4525834e-09
C0R720,旭海,2025-12-12,22.205403,120.887614,0.9978222
C0V710,苓雅,2025-12-12,22.622742,120.330669,3.0624801e-06
C0C740,觀音工業區,2025-12-12,25.064764,121.114856,0.9998842
CAC040,拉拉山,2025-12-12,24.699317,121.427133,3.15886e-08
C0V790,萬山,2025-12-12,22.905944,120.688056,1.0022143e-09
U2HA30,臺大和社,2025-12-12,23.590856,120.888864,5.6813615e-10
C2H9K0,屯原,2025-12-12,24.067969,121.209389,3.2683065e-09
C0AJ90,澳底,2025-12-12,25.0552,121.9253,3.6482042e-08
C0Z100,東華,2025-12-12,23.89525,121.549833,1.5227939e-09
C0G970,三豐,2025-12-12,23.882,120.2895,0.7303686
V2K610,大庄合作社,2025-12-12,23.8068,120.367939,0.000402953
C0V900,汕尾,2025-12-12,22.4782,120.4151,5.500762e-09
C1R630,龍泉,2025-12-12,22.66701,120.59091,4.41431e-08
C1AC50,關渡,2025-12-12,25.133486,121.469331,1.9731011e-07
C0C800,四稜,2025-12-12,24.64733,121.4293,2.2896554e-08
C0F9I0,神岡,2025-12-12,24.272481,120.658314,2.9051128e-09
C0K460,斗南,2025-12-12,23.678734,120.478359,0.0025378137
C2O810,曾文,2025-12-12,23.219681,120.497328,5.2866195e-10
467280,後龍,2025-12-12,24.648563,120.831834,0.010645548
C1F9J1,清水林,2025-12-12,24.071242,120.820419,4.494061e-10
C2A650,火燒寮,2025-12-12,25.002719,121.742892,6.814959e-09
466930,竹子湖,2025-12-12,25.162078,121.544547,6.4121557e-09
C1I220,樟湖,2025-12-12,23.905333,120.846983,8.523448e-10
C0I390,仁愛,2025-12-12,24.022122,121.132206,6.5725936e-10
C0Z300,東里,2025-12-12,23.26853,121.30547,1.1725344e-09
C1V590,新發,2025-12-12,23.057019,120.646064,6.2252403e-10
C0K510,水林,2025-12-12,23.572924,120.24597,1.3376291e-05
72S590,東改賓朗果園,2025-12-12,22.813889,121.071278,5.9734607e-06
82A750,茶改北部分場,2025-12-12,24.955778,121.631222,1.5679122e-08
C1A750,石碇服務區,2025-12-12,25.00872,121.646242,2.3180424e-07
C0X300,鹿寮,2025-12-12,23.386047,120.477331,4.4973326e-08
G2AI50,關渡,2025-12-12,25.11575,121.492,4.3836953e-06
C0K590,雲林東勢,2025-12-12,23.674192,120.255721,6.407222e-06
C2K310,港尾布雞,2025-12-12,23.74834,120.38439,6.838992e-07
C0A570,桶後,2025-12-12,24.848222,121.597992,2.1478614e-08
C1S800,華源,2025-12-12,22.657883,121.02325,0.9996468
C0G720,溪州,2025-12-12,23.851589,120.499093,3.324869e-07
C1V160,達卡努瓦,2025-12-12,23.279811,120.705319,9.445905e-10
C2M410,馬頭山,2025-12-12,23.324361,120.582017,3.4134215e-10
C0V850,蚵仔寮,2025-12-12,22.7256,120.2527,0.966778
C0S740,池上,2025-12-12,23.119628,121.209469,8.5876445e-10
C1V390,尖山,2025-12-12,22.813153,120.367789,1.0608903e-08
C0AH70,松山,2025-12-12,25.04871,121.55042,1.2696561e-06
C0N010,鯤鯓國小,2025-12-12,23.1879,120.0889,0.026282245
C0R550,新埤,2025-12-12,22.467947,120.582894,1.2682116e-08
C0SA60,知本（水試所）,2025-12-12,22.702394,121.082761,0.99978703
C0T9I0,豐濱,2025-12-12,23.583897,121.514806,6.5784633e-10
C0UB00,淡江大學蘭陽校園,2025-12-12,24.823239,121.730383,5.851143e-09
C0W240,九宮,2025-12-12,24.423753,118.240186,1.4750392e-06
C0T9N0,富里,2025-12-12,23.171639,121.249378,1.496728e-09
U2HA50,臺大竹山,2025-12-12,23.756972,120.681556,8.068243e-09
C0V840,鳳鼻頭,2025-12-12,22.5083,120.3591,4.7451834e-09
C0X140,西港,2025-12-12,23.125608,120.203108,0.00021007388
72D080,桃改五峰分場,2025-12-12,24.612194,121.157167,1.1268241e-09
C2H9P0,伊拿谷,2025-12-12,23.963211,121.088264,7.4284584e-10
C2K250,崙背,2025-12-12,23.75553,120.31893,2.3277276e-05
C2H9F0,柑林,2025-12-12,24.018658,120.847072,3.4772416e-10
C0TA20,加灣,2025-12-12,24.082025,121.608944,5.673578e-09
C0V530,阿蓮,2025-12-12,22.883208,120.327508,1.1448429e-07
C0FB30,八仙山苗圃,2025-12-12,24.192719,121.001366,9.0027785e-10
C1O880,關山,2025-12-12,23.173397,120.594092,3.0492556e-10
C0E791,卓蘭,2025-12-12,24.3126,120.8244,4.8410514e-10
C1I030,武界,2025-12-12,23.913225,121.052483,1.1035612e-09
C0R520,崁頂,2025-12-12,22.514781,120.506914,3.2093816e-05
C0R341,牡丹,2025-12-12,22.130036,120.792639,0.9224963
C0R930,萬丹,2025-12-12,22.5885,120.4851,1.8584227e-07
C0S760,紅石,2025-12-12,23.069131,121.126219,1.2559996e-08
C2C410,中央大學,2025-12-12,24.967652,121.185165,0.22032635
C1M610,石磐龍,2025-12-12,23.496606,120.663506,1.1361905e-09
C0C790,東眼山,2025-12-12,24.8284,121.40888,8.988835e-09
C0UA10,鴛鴦湖,2025-12-12,24.590269,121.412228,2.2540844e-08
V2C260,八德蔬果,2025-12-12,24.978508,121.281819,0.00023937922
C0R800,丹路,2025-12-12,22.204481,120.750989,0.969088
C0G920,永靖,2025-12-12,23.924703,120.547533,7.589933e-08
C2M950,太和,2025-12-12,23.538372,120.702961,1.5459191e-09
C1A630,下盆,2025-12-12,24.771003,121.538622,2.5715854e-08
B2N890,畜產試驗所,2025-12-12,23.058972,120.336406,1.1343287e-06
C0UA30,白嶺,2025-12-12,24.527819,121.519031,1.273797e-08
467571,新竹,2025-12-12,24.828575,121.01455,0.9966394
C1V580,溪南(特生中心),2025-12-12,23.084972,120.788475,2.4173146e-09
C1T970,大農,2025-12-12,23.615233,121.413331,1.9784225e-09
C0R650,竹田,2025-12-12,22.58486,120.54344,1.8566225e-06
C1H900,清流,2025-12-12,24.080775,120.962997,5.846968e-10
C1C510,水尾,2025-12-12,24.940081,121.087161,0.9997544
C2N170,茅港尾,2025-12-12,23.2061,120.2624,1.1181365e-05
C0F9X0,大雅(中科園區),2025-12-12,24.21528,120.62445,6.5260397e-09
C0SB60,白守蓮,2025-12-12,23.126769,121.401914,1.2764504e-08
C0O970,虎頭埤,2025-12-12,23.021375,120.347878,9.43e-08
C0C730,中大臨海站,2025-12-12,24.966126,121.008581,0.99918246
C0X250,新營,2025-12-12,23.310689,120.316681,1.1130012e-05
C0V700,三民,2025-12-12,22.645017,120.311233,0.9988124
C0U870,大礁溪,2025-12-12,24.791042,121.675047,6.21504e-09
C0E870,高鐵苗栗,2025-12-12,24.60725,120.826094,0.010645548
A2K570,古坑花卉中心,2025-12-12,23.63353,120.55239,3.3922694e-05
C0TA30,鹽寮,2025-12-12,23.845606,121.592664,1.5044673e-09
C0M860,新美,2025-12-12,23.338017,120.683169,5.4667665e-10
C1E701,八卦,2025-12-12,24.491756,120.927619,1.0331507e-09
C2TA90,加納納,2025-12-12,23.466421,121.359867,9.556977e-10
C0I420,國姓,2025-12-12,24.037803,120.855072,3.3815523e-10
C2D720,關西工作站,2025-12-12,24.757275,121.184792,1.2224469e-09
C0S960,香蘭,2025-12-12,22.587569,120.993375,2.0785174e-08
467620,蘭嶼,2025-12-12,22.0369,121.55843,0.9132149
C0R260,春日,2025-12-12,22.370361,120.628306,6.989304e-09
72G600,臺中農改場,2025-12-12,24.003028,120.534389,1.0089511e-07
C0Z210,瑞穗,2025-12-12,23.5239,121.39021,8.851597e-10
C0M820,達邦,2025-12-12,23.453994,120.749517,7.86149e-10
C0V860,南寮,2025-12-12,22.7616,120.2339,0.966778
C0G740,大城,2025-12-12,23.852487,120.320935,0.7303686
C0R920,塭仔,2025-12-12,22.4169,120.5197,3.4048448e-05
C0R470,高樹,2025-12-12,22.826389,120.600806,5.11179e-07
C0R680,佳樂水,2025-12-12,21.993578,120.861633,0.14135014
C1O870,大棟山,2025-12-12,23.31157,120.52226,1.2006035e-09
C0D360,梅花,2025-12-12,24.678347,121.208558,4.465403e-10
C0Z190,富世,2025-12-12,24.14743,121.6297,4.2119392e-08
C0AI10,屈尺,2025-12-12,24.92184,121.54475,0.00067799276
B2U990,畜試東區分所,2025-12-12,24.669039,121.832561,1.2029393e-09
C0SB80,長濱漁港,2025-12-12,23.313644,121.459994,8.8622065e-10
C0TA50,和仁,2025-12-12,24.241394,121.712472,2.4772984e-09
C0V910,大樹,2025-12-12,22.684645,120.432803,3.565469e-06
C1R610,西大武山,2025-12-12,22.617719,120.7322,4.9491304e-09
C0G900,線西,2025-12-12,24.143358,120.443536,0.9979077
C0M700,竹崎,2025-12-12,23.526178,120.555508,5.352688e-07
C2E880,三義,2025-12-12,24.405478,120.749819,1.3578696e-09
C0C720,竹圍,2025-12-12,25.112692,121.239824,0.9993855
C0F9P0,清水,2025-12-12,24.312297,120.562242,0.00028235262
C0Z150,吉安光華,2025-12-12,23.930925,121.595153,2.1803948e-09
C0FA80,小雪山天池,2025-12-12,24.28025,121.02627,1.3337215e-08
467300,東吉島,2025-12-12,23.25727,119.66762,0.49241358
C1D640,外坪(五指山),2025-12-12,24.644447,121.090961,5.590731e-10
C2R9A0,高士國小,2025-12-12,22.12553,120.84653,0.9224963
C0F9O0,潭子,2025-12-12,24.213106,120.703933,1.4525834e-09
C2H9R0,卓社,2025-12-12,23.887894,121.000086,9.888675e-10
72T250,花蓮農改場,2025-12-12,23.975222,121.563889,2.076658e-09
C0E780,銅鑼,2025-12-12,24.489681,120.790853,2.4675991e-08
C1T950,太安,2025-12-12,23.666719,121.370128,1.5108693e-08
C0E830,苑裡,2025-12-12,24.439714,120.653053,0.05058119
467270,田中,2025-12-12,23.873803,120.581286,3.209759e-07
C0SA10,檳榔四格山,2025-12-12,22.810031,121.109308,2.3522144e-07
C1T830,布洛灣,2025-12-12,24.17184,121.57127,2.1330703e-08
C0F970,大坑,2025-12-12,24.173142,120.722289,9.037626e-08
C1U920,思源,2025-12-12,24.393125,121.347214,1.195953e-08
C2H9Y0,松茗,2025-12-12,23.8167,120.650765,4.594917e-10
C0A931,三和,2025-12-12,25.233153,121.595236,6.0123476e-08
C0I010,廬山,2025-12-12,24.033311,121.181808,1.7377191e-09
C2M940,日野賀,2025-12-12,23.434056,120.727169,1.495986e-09
C0R860,鼻頭,2025-12-12,22.1043,120.8979,0.6084726
C0UB20,壯圍,2025-12-12,24.7359,121.8163,6.919991e-10
C0R790,九棚,2025-12-12,22.14195,120.889281,0.983103
C0W110,東莒,2025-12-12,25.9652,119.98069,0.03438919
C1U930,粉鳥林,2025-12-12,24.497088,121.842479,3.9432932e-09
C1I211,蘆竹湳,2025-12-12,23.934019,120.811994,3.0595554e-10
C0S830,長濱,2025-12-12,23.286817,121.411975,1.2509281e-09
C1F9F1,伯公龍,2025-12-12,24.272392,120.849047,1.0196428e-09
C0UB90,太平山莊,2025-12-12,24.494171,121.536209,1.8607384e-08
C0E810,西湖,2025-12-12,24.562947,120.7485,0.9811659
C1I440,新高口,2025-12-12,23.478744,120.878939,7.2107555e-09
C0O840,王爺宮,2025-12-12,23.222064,120.40085,1.0689626e-07
C0T9G0,鳳林山,2025-12-12,23.735269,121.420131,1.2700149e-08
C0X080,佳里,2025-12-12,23.173039,120.145086,0.012582656
C0FB70,大甲溪埔,2025-12-12,24.370625,120.620067,0.0010199856
C0Z310,清水斷崖,2025-12-12,24.218294,121.689142,2.1215742e-09
C0M680,太保,2025-12-12,23.455062,120.331455,1.1136011e-05
C1S820,金峰,2025-12-12,22.590969,120.933236,5.871277e-09
C0AD10,八里,2025-12-12,25.150211,121.403947,0.9983545
C2K240,草嶺,2025-12-12,23.59555,120.693461,1.0359784e-09
C1SA70,都蘭,2025-12-12,22.87794,121.226881,1.8677486e-06
C0K440,二崙,2025-12-12,23.772797,120.408944,2.1542049e-07
C1A760,坪林交控,2025-12-12,24.94284,121.713442,2.3159073e-08
C0F9N0,大里,2025-12-12,24.092464,120.701378,1.194269e-07
C0SA90,達仁林場,2025-12-12,22.264347,120.823972,8.80309e-06
C1R290,石門山,2025-12-12,22.112611,120.756597,0.67519903
42HA10,萬大發電廠,2025-12-12,23.978875,121.139639,5.4621596e-10
C0R890,山海,2025-12-12,21.9878,120.7091,0.10978994
C0T9A0,月眉山,2025-12-12,23.809928,121.539828,2.4973854e-09
C0AC70,信義,2025-12-12,25.037822,121.564597,4.280323e-06
C0K560,棋山,2025-12-12,23.68645,120.603417,3.8716857e-07
C2FB50,出雲,2025-12-12,24.206469,120.902794,1.2246734e-09
C1Z240,中平林道,2025-12-12,23.42115,121.26763,1.5516804e-08
U2H480,溪頭,2025-12-12,23.670306,120.798194,9.431881e-10
C0M880,好美里,2025-12-12,23.3364,120.138,0.0009564798
C0T9E0,大坑,2025-12-12,23.880628,121.581981,2.4842493e-09
C0K530,臺西,2025-12-12,23.701547,120.197559,0.066374384
C1E900,國一N128K,2025-12-12,24.560997,120.844186,1.2668331e-06
C0AJ50,水湳洞,2025-12-12,25.123695,121.862238,3.078231e-08
C0AI20,白沙灣,2025-12-12,25.283128,121.519058,0.98261106
C2V310,美濃,2025-12-12,22.898792,120.51907,1.5809512e-08
C0A860,大坪,2025-12-12,25.165914,121.632969,7.176139e-09
C1U850,觀音海岸,2025-12-12,24.38319,121.77856,3.088651e-09
C2K610,草嶺石壁,2025-12-12,23.602469,120.707731,1.0862677e-09
C0U950,鶯子嶺,2025-12-12,24.89754,121.79244,1.1572421e-08
C0O900,善化,2025-12-12,23.112883,120.297219,1.1343287e-06
C0K550,蔦松,2025-12-12,23.514319,120.229736,0.00012506986
E2P980,林試六龜中心,2025-12-12,22.991703,120.645722,1.5405414e-09
C0E590,通霄,2025-12-12,24.471892,120.704622,0.39004418
C1I310,西巒,2025-12-12,23.754486,120.883956,8.8347474e-10
C0A550,泰平,2025-12-12,24.971197,121.823711,7.896208e-09
C0I360,水里,2025-12-12,23.812553,120.849792,2.8948952e-10
C0R830,高士,2025-12-12,22.121825,120.836781,0.42398852
C1I101,溪頭,2025-12-12,23.661789,120.807647,4.893702e-09
C0AJ20,野柳,2025-12-12,25.20703,121.690021,2.3527147e-07
C0B060,暖暖,2025-12-12,25.0957,121.7403,1.8015813e-08
C1H920,長豐,2025-12-12,24.102039,120.879897,4.875216e-10
C2S9B0,利吉,2025-12-12,22.86246,121.15486,1.2622003e-08
C0V360,內門,2025-12-12,22.975481,120.466769,3.5886838e-09
C0R850,林邊,2025-12-12,22.4634,120.5339,0.0049585076
C0E930,龍鳳,2025-12-12,24.700034,120.859125,0.7755657
C0U910,冬山,2025-12-12,24.63373,121.7937,1.2029393e-09
C1E721,泰安,2025-12-12,24.489017,120.968036,2.7572866e-09
82H320,茶改中部分場,2025-12-12,23.875611,120.913583,6.118869e-10
C0M750,布袋,2025-12-12,23.380878,120.167789,0.004792185
C1S860,利嘉,2025-12-12,22.809417,121.050528,2.0130884e-09
E2S980,林試太麻里1,2025-12-12,22.598922,120.980044,1.0735022e-08
C0X170,關廟,2025-12-12,22.963017,120.327797,7.087466e-08
C0V720,林園,2025-12-12,22.507747,120.394511,8.640356e-09
C1I510,線浸林道,2025-12-12,23.761508,120.832956,1.2131096e-09
C0D690,外湖,2025-12-12,24.917735,120.968711,0.99414515
C0C750,新興坑尾,2025-12-12,25.0061,121.0971,0.99987835
B2Q810,畜試南區分所,2025-12-12,21.945583,120.802167,0.14135014
C0S790,金崙,2025-12-12,22.538122,120.966875,5.1428866e-09
C0AH90,福山植物園,2025-12-12,24.760717,121.58135,2.513232e-08
C0I540,奇萊稜線,2025-12-12,24.109231,121.326456,2.0573527e-08
C0M850,表湖,2025-12-12,23.24186,120.64166,4.628615e-10
C0S770,大溪山,2025-12-12,22.478475,120.943325,3.3019731e-09
C0AG80,中和,2025-12-12,24.991622,121.491792,0.0021619445
C0T790,大禹嶺,2025-12-12,24.186117,121.316086,9.967588e-09
C0T9B0,水源,2025-12-12,23.991861,121.537169,4.1899986e-09
C0R840,牡丹池山,2025-12-12,22.168389,120.841225,0.017732281
C1I131,桶頭,2025-12-12,23.641944,120.654117,4.504172e-09
CAL110,布袋國中,2025-12-12,23.35893,120.18026,0.0009443505
C2M9D0,何竹子腳,2025-12-12,23.53641,120.38203,0.0008620761
467571,新竹,2025-12-12,24.827853,121.014219,0.9966394
C0Z290,赤柯山,2025-12-12,23.36893,121.38293,5.8828453e-09
C0X280,將軍,2025-12-12,23.214999,120.13577,0.003328163
C0S690,太麻里,2025-12-12,22.60902,120.98533,3.139936e-09
C0U880,北關,2025-12-12,24.9072,121.8734,1.0827909e-08
CAW010,東引,2025-12-12,26.3588,120.4836,0.13987145
C0G810,埔心,2025-12-12,23.947633,120.525456,7.589933e-08
C0U970,大福,2025-12-12,24.80064,121.81389,7.1422845e-10
C2H9N0,仁愛東眼,2025-12-12,24.026875,121.1205,9.992633e-10
C1E670,南礦,2025-12-12,24.538278,121.002836,1.9873028e-09
C0M520,東後寮,2025-12-12,23.369908,120.248065,9.862364e-05
C1E461,松安,2025-12-12,24.397972,120.986022,2.2477809e-09
C2N160,西拉雅風管處,2025-12-12,23.189481,120.335297,3.6759343e-07
C2M970,碧湖,2025-12-12,23.568632,120.624165,9.031845e-10
C0A640,石碇,2025-12-12,24.993969,121.662917,2.312857e-08
E2S960,林試太麻里2,2025-12-12,22.598,120.99775,2.4237377e-08
C0F9Y0,桃山,2025-12-12,24.432739,121.303808,1.9476097e-08
C1I020,萬大,2025-12-12,23.979817,121.132261,6.642501e-10
C2UC20,長嶺,2025-12-12,24.70894,121.61162,6.5302608e-09
C0U940,羅東,2025-12-12,24.68184,121.74934,9.779454e-10
C0M650,朴子,2025-12-12,23.43463,120.23902,5.9466665e-06
C1I500,大尖山,2025-12-12,23.858572,120.994889,2.5856408e-09
C0FB40,中橫21.6k,2025-12-12,24.2499,121.1455,1.942808e-09
C0G820,田尾,2025-12-12,23.901669,120.509389,7.589933e-08
E2K600,四湖植物園,2025-12-12,23.676986,120.163433,0.043363377
C0S730,綠島,2025-12-12,22.6672,121.47533,0.5279018
12Q970,東港工作站,2025-12-12,22.479997,120.466058,0.0049585076
C0E430,南庄,2025-12-12,24.601775,121.000214,7.884014e-10
C1TA00,太魯閣,2025-12-12,24.15773,121.6236,3.5108133e-08
466920,臺北,2025-12-12,25.037658,121.514853,1.2696561e-06
C0R600,舊泰武,2025-12-12,22.588194,120.664944,5.7934496e-10
C1I260,北坑,2025-12-12,23.9246,121.006903,1.8233279e-09
466910,鞍部,2025-12-12,25.182586,121.529731,2.0177408e-08
C1I230,九份二山,2025-12-12,23.961944,120.845,4.8016835e-10
C2M810,里佳,2025-12-12,23.389125,120.716647,2.1227886e-09
C2A660,瑞芳,2025-12-12,25.113169,121.801147,2.9121267e-08
C0R270,琉球嶼,2025-12-12,22.332244,120.362236,3.4529908e-06
C2V580,瑞山,2025-12-12,22.90304,120.43424,4.9861684e-09
C1T990,高寮,2025-12-12,23.394239,121.356808,8.5513424e-10
C0G620,芬園,2025-12-12,24.015678,120.6213,2.0155905e-08
C1Z140,荖溪,2025-12-12,23.890575,121.45964,2.269217e-08
C1I201,中心崙,2025-12-12,23.728722,120.712097,5.8758115e-10
C1I400,凌霄,2025-12-12,24.018778,121.004456,1.0578851e-09
C1M640,十字,2025-12-12,23.492153,120.753683,3.2924015e-09
G2P820,農試鳳山分所,2025-12-12,22.646611,120.356083,3.0624801e-06
C0Z270,蕃薯寮,2025-12-12,23.73835,121.540108,1.8678599e-09
C2E420,竹南,2025-12-12,24.70898,120.88897,0.77556556
C0FB10,出雲山苗圃,2025-12-12,24.23105,120.90475,9.530019e-10
C0F9Q0,外埔,2025-12-12,24.347817,120.705686,4.2310524e-09
C0K580,高鐵雲林,2025-12-12,23.737456,120.417944,6.838992e-07
C2I090,鳳凰,2025-12-12,23.728081,120.787347,5.1452387e-10
C0U990,員山,2025-12-12,24.74435,121.72247,9.779454e-10
C0V770,大社,2025-12-12,22.730306,120.346639,0.0057323496
C0X120,麻豆,2025-12-12,23.183289,120.248611,5.8813e-06
C0C670,龍潭,2025-12-12,24.870056,121.221389,2.5400457e-08
C0D680,香山濕地,2025-12-12,24.783581,120.914988,0.99414515
C0S980,勝林山,2025-12-12,22.430439,120.8938,8.724266e-09
C0V730,大寮,2025-12-12,22.605614,120.395717,3.0624801e-06
C0R570,麟洛,2025-12-12,22.65078,120.52719,2.0810621e-06
C2M930,石卓,2025-12-12,23.478744,120.702264,3.2154768e-09
C0G9B0,和美,2025-12-12,24.105169,120.492131,0.9991148
CAG100,王功漁港,2025-12-12,23.96824,120.32586,0.9137767
C0X290,北門,2025-12-12,23.267772,120.125481,0.003328163
C2F930,大甲,2025-12-12,24.347667,120.640403,0.0010199856
C0D650,湖口,2025-12-12,24.904794,121.043628,0.9997544
C0E420,竹南,2025-12-12,24.708978,120.888897,0.6603036
C0U780,五結,2025-12-12,24.68637,121.79794,1.2029393e-09
C1I250,鯉潭,2025-12-12,23.961922,120.991131,1.331573e-09
C0R130,阿禮,2025-12-12,22.742908,120.743678,5.935613e-10
C0X100,臺南市北區,2025-12-12,23.010394,120.194228,0.15870476
C0S920,金峰嘉蘭,2025-12-12,22.594789,120.960825,1.0365047e-08
C0V490,新興,2025-12-12,22.627422,120.298803,0.99943835
C0F9K0,大安,2025-12-12,24.345061,120.588025,0.0010199856
467290,古坑,2025-12-12,23.633639,120.551889,2.6159894e-06
C2E970,八甲,2025-12-12,24.535811,120.795983,1.2668331e-06
C0V440,鳳山,2025-12-12,22.646653,120.356122,3.0624801e-06
C1T940,大觀,2025-12-12,23.714206,121.373133,2.6872566e-09
C0E740,造橋,2025-12-12,24.637056,120.864778,0.010645548
C0R100,尾寮山,2025-12-12,22.833111,120.683889,6.307325e-10
A2K630,臺大雲林校區,2025-12-12,23.730628,120.423903,6.838992e-07
467990,馬祖,2025-12-12,26.169467,119.923158,2.6955546e-05
C0D580,寶山,2025-12-12,24.735006,121.025192,7.9653173e-10
E2P990,林試扇平站,2025-12-12,22.9677,120.6857,5.9467864e-10
C0AI30,三重,2025-12-12,25.057328,121.500629,1.2696561e-06
C0AH00,汐止,2025-12-12,25.066881,121.658778,7.879952e-07
C1Z040,立山,2025-12-12,23.443356,121.327375,5.212091e-09
466881,新北,2025-12-12,24.959207,121.525196,0.0023506663
C0W130,花嶼,2025-12-12,23.40007,119.32276,0.60409933
C0A950,鼻頭角,2025-12-12,25.129036,121.923372,3.6346396e-08
C0K470,林內,2025-12-12,23.748675,120.609642,3.8716857e-07
C2F990,摩天嶺,2025-12-12,24.322458,120.936819,1.010331e-09
C2E430,南庄,2025-12-12,24.601775,121.000214,1.8393993e-09
82C160,茶改場,2025-12-12,24.908472,121.185333,0.37132472
C2TB60,南安,2025-12-12,23.29818,121.26157,1.2011189e-09
C0Z320,清水林道,2025-12-12,23.27125,121.188272,3.7006804e-09
C0R760,南仁湖,2025-12-12,22.084681,120.863353,0.67588353
C0M670,大林,2025-12-12,23.600616,120.45841,0.0019471314
C0M800,茶山,2025-12-12,23.299075,120.664767,5.306491e-10
C0A9C0,天母,2025-12-12,25.117494,121.537169,3.911727e-06
72K220,南改斗南分場,2025-12-12,23.634556,120.477333,0.0025378137
72AI40,桃改樹林分場,2025-12-12,24.944503,121.386972,0.005532611
C0S910,蘭嶼燈塔,2025-12-12,22.081197,121.503117,0.9970499
C0B050,八斗子,2025-12-12,25.144754,121.79167,3.5153536e-07
C0U900,內城,2025-12-12,24.71813,121.68766,9.554335e-10
C0X320,柳營,2025-12-12,23.253328,120.375253,1.0689626e-07
C0M790,新港,2025-12-12,23.553269,120.345728,2.165242e-05
C0F9T0,西屯,2025-12-12,24.179494,120.641275,6.5260397e-09
C0E950,松安,2025-12-12,24.39792,120.98599,2.2477809e-09
C0SA30,都歷,2025-12-12,23.020333,121.323642,0.89850724
C0C620,蘆竹,2025-12-12,25.084275,121.265767,0.9972508
C0R730,大坪頂,2025-12-12,22.024633,120.69355,0.93346804
C0AJ40,石門,2025-12-12,25.273672,121.601198,0.06870845
C0E750,苗栗,2025-12-12,24.564569,120.824575,1.2668331e-06
C0T870,鯉魚潭,2025-12-12,23.935639,121.508944,2.090093e-09
C1V170,排雲,2025-12-12,23.463619,120.954147,1.8667425e-08
C2H950,中寮,2025-12-12,23.884447,120.766406,3.3183933e-10
C0R350,貓鼻頭,2025-12-12,21.921774,120.7358,0.11443597
C0V660,岡山,2025-12-12,22.797078,120.294958,0.9097341
C1H941,雙冬,2025-12-12,23.967378,120.802189,3.9286968e-10
C0AJ70,田寮,2025-12-12,25.2698,121.4886,0.98630804
C0AI00,五股,2025-12-12,25.07445,121.42728,4.0005602e-07
C0Z280,德武,2025-12-12,23.47426,121.41071,9.53271e-10
C2RA10,大新,2025-12-12,22.67558,120.57788,4.41431e-08
C0R700,枋山,2025-12-12,22.246844,120.661086,0.6884089
C0C460,復興,2025-12-12,24.820208,121.352281,3.4489265e-09
C2K300,鹿南,2025-12-12,23.63855,120.3636,2.2554086e-06
E2H360,蓮華池,2025-12-12,23.918333,120.885278,3.8805717e-10
C0M640,中埔,2025-12-12,23.42538,120.5229,5.568218e-08
C0W140,金沙,2025-12-12,24.488292,118.408778,3.6074905e-06
C2A540,四堵,2025-12-12,24.8926,121.745736,9.711538e-09
C0ACA0,新莊,2025-12-12,25.051478,121.446756,1.0500232e-05
C0R220,潮州,2025-12-12,22.534361,120.54,3.2093787e-05
U2HA40,臺大內茅埔,2025-12-12,23.689722,120.851117,3.861331e-10
467490,臺中,2025-12-12,24.145736,120.684075,9.037626e-08
C0UB60,明池,2025-12-12,24.650688,121.475277,2.801254e-08
C0U960,翠峰湖,2025-12-12,24.510856,121.608044,1.7919206e-08
E2HA20,林試畢祿溪站,2025-12-12,24.226944,121.308522,4.9863016e-09
C2M9A0,大華,2025-12-12,23.4824,120.67491,8.8935326e-10
C0V890,前鎮,2025-12-12,22.5718,120.3117,0.00011029889
C1F941,雪嶺,2025-12-12,24.280586,121.026642,1.3337215e-08
C2H9E0,國姓南港,2025-12-12,23.911108,120.846556,8.962311e-10
C0AC80,文山,2025-12-12,25.00235,121.575728,1.3290715e-05
C0F9R0,龍井,2025-12-12,24.184536,120.528972,0.020905117
C0M760,民雄,2025-12-12,23.551754,120.428457,0.0019471314
C0UA40,西德山,2025-12-12,24.560647,121.752608,1.5846101e-08
C2TA70,赤科坪,2025-12-12,23.39885,121.39168,7.188221e-09
C1T920,中興,2025-12-12,23.769503,121.498653,1.5215686e-09
C0D550,雪霸,2025-12-12,24.526972,121.11605,5.5151337e-09
C2F860,梨山,2025-12-12,24.247522,121.243669,8.120302e-09
C0R320,車城,2025-12-12,22.0744,120.716247,0.095961705
C1S870,南美山,2025-12-12,23.15025,121.382333,2.5436806e-09
C0B020,基隆嶼,2025-12-12,25.19141,121.78391,1.738785e-07
C1U501,牛鬥,2025-12-12,24.637836,121.573656,1.0743256e-08
C0M730,嘉義市東區,2025-12-12,23.457673,120.460531,1.4813348e-07
C2R990,泰武,2025-12-12,22.60686,120.69765,1.7291856e-09
C0S700,知本,2025-12-12,22.684866,121.005642,2.4238291e-09
C1N001,沙崙,2025-12-12,22.935472,120.309406,7.087466e-08
C0V760,橋頭,2025-12-12,22.757806,120.30575,0.0057323496
C0G960,福寶,2025-12-12,24.0443,120.3814,0.044619687
C0X210,白河,2025-12-12,23.347466,120.414427,4.4973326e-08
C0S810,東河,2025-12-12,22.972672,121.303986,0.18557459
C2R170,屏東,2025-12-12,22.66027,120.49403,2.0810621e-06
C0R670,楓港,2025-12-12,22.190131,120.692156,0.09576646
C0FA50,霧峰,2025-12-12,24.0419,120.6995,1.194269e-07
C0UB10,蘇澳,2025-12-12,24.5969,121.8571,1.1933184e-09
C0G950,防潮門,2025-12-12,24.1835,120.4871,0.9975761
C0M740,六腳,2025-12-12,23.492871,120.290625,1.0828677e-05
C1R250,力里,2025-12-12,22.428117,120.629228,4.962979e-09
C0K330,虎尾,2025-12-12,23.719183,120.442036,6.838992e-07
C2FA00,烏石坑,2025-12-12,24.273503,120.947617,9.942879e-10
C0V620,永安,2025-12-12,22.82315,120.236856,0.9097341
C1I330,楓樹林,2025-12-12,23.986803,121.076117,9.436073e-10
C0W200,湖西,2025-12-12,23.596314,119.67275,0.8629653
72Q010,高雄農改場,2025-12-12,22.709333,120.525889,9.290571e-05
C0SA40,瑞和,2025-12-12,22.974361,121.156697,8.909492e-10
C0C680,龜山,2025-12-12,25.02846,121.38656,6.3275115e-06
C2V260,月眉,2025-12-12,22.971003,120.539853,1.678092e-09
C0V450,鳳森,2025-12-12,22.545064,120.392592,8.640356e-09
C0FA90,小雪山林道,2025-12-12,24.29515,121.03651,1.743653e-08
C0U720,南山,2025-12-12,24.43742,121.38167,1.236428e-08
A2N290,臺南蘭花園區,2025-12-12,23.340258,120.379661,5.9079575e-08
C0R560,新園,2025-12-12,22.5434,120.461558,8.640356e-09
C0U890,三星,2025-12-12,24.66812,121.65302,1.0101614e-09
C1V300,御油山,2025-12-12,23.001983,120.715364,2.34363e-09
C0U600,礁溪,2025-12-12,24.817539,121.765608,7.1422845e-10
C1T980,龍澗,2025-12-12,24.023289,121.411328,2.6223404e-08
C0D670,海天一線,2025-12-12,24.831986,120.914438,0.9978953
C0SA00,歷坵,2025-12-12,22.520969,120.89185,3.1048466e-09
C0M710,東石,2025-12-12,23.458927,120.15385,0.004359682
C0M780,鹿草,2025-12-12,23.41134,120.30835,5.9466665e-06
C0U520,雙連埤,2025-12-12,24.753033,121.641303,6.7697963e-09
C0B010,七堵,2025-12-12,25.094819,121.71713,1.481818e-07
C0R480,長治,2025-12-12,22.693128,120.542622,2.7682523e-07
C1V830,國三S383K,2025-12-12,22.781967,120.426475,1.5696125e-07
12Q980,恆春工作站,2025-12-12,22.079678,120.714425,0.095961705
C1O940,東山服務區,2025-12-12,23.286016,120.398472,5.9079575e-08
C1U840,東澳嶺,2025-12-12,24.5378,121.8485,1.0703006e-08
C1D630,飛鳳山,2025-12-12,24.766464,121.119178,4.2087547e-10
C0S940,石寧山,2025-12-12,23.223772,121.406639,4.191717e-09
C0K410,北港,2025-12-12,23.573957,120.292802,1.3376291e-05
C2M620,瑞里,2025-12-12,23.545133,120.675197,1.1361905e-09
C0SB70,小港漁港,2025-12-12,23.158558,121.400431,1.11381135e-08
C2O950,安南,2025-12-12,23.076694,120.144861,0.075529
C0F0E0,南湖圈谷,2025-12-12,24.363714,121.444667,2.0538437e-08
467610,成功,2025-12-12,23.097486,121.373428,2.2072935e-07
C0G890,伸港,2025-12-12,24.148933,120.484403,0.9975761
C2E540,龍溪,2025-12-12,24.606489,120.783933,1.2668331e-06
C1V200,梅山,2025-12-12,23.268447,120.823556,6.4968264e-10
C0T9H0,加路蘭山,2025-12-12,23.682947,121.5274,3.4915588e-09
C2O930,玉井,2025-12-12,23.126042,120.46055,6.055341e-09
C1F911,新伯公,2025-12-12,24.221361,120.841069,7.263759e-10
C0R490,九如,2025-12-12,22.7405,120.490503,9.290571e-05
C0X200,左鎮,2025-12-12,23.056758,120.408522,6.433793e-08
C2TB50,麻汝,2025-12-12,23.42554,121.39358,9.53271e-10
C0FA60,鞍馬山工作站,2025-12-12,24.267064,121.000793,7.722817e-09
C0SB50,叭嗡嗡,2025-12-12,23.047062,121.343223,4.9420254e-07
C1F891,稍來,2025-12-12,24.265689,121.001142,7.3865e-09
C2M9C0,紫雲,2025-12-12,23.494914,120.540253,3.0472956e-06
72N240,七股研究中心,2025-12-12,23.081672,120.062894,0.29657382
C0C700,中壢,2025-12-12,24.977661,121.256375,0.00023937922
C0M690,水上,2025-12-12,23.419734,120.388909,1.1136011e-05
C0V690,鼓山,2025-12-12,22.623325,120.275575,0.99943835
C0O860,大內,2025-12-12,23.11885,120.36083,3.6759343e-07
C0Z200,萬榮,2025-12-12,23.709219,121.420106,1.6499752e-09
C0T9D0,和中,2025-12-12,24.26676,121.74103,2.4768827e-09
C2S9A0,北份子寮,2025-12-12,22.78561,121.07813,0.99966824
C1O921,楠西,2025-12-12,23.183511,120.484083,6.055341e-09
C0AJ30,淡水觀海,2025-12-12,25.184591,121.408616,0.9979715
C0V810,左營,2025-12-12,22.67491,120.28491,0.9988124
C0UA70,桃源谷,2025-12-12,24.962606,121.888875,3.3196863e-09
C0X130,官田,2025-12-12,23.193217,120.315422,3.6759343e-07
C1H000,翠峰,2025-12-12,24.109397,121.205211,6.9357062e-09
C0UA90,石城,2025-12-12,24.980444,121.951214,2.9902576e-08
C1E681,南勢山,2025-12-12,24.421669,120.923831,1.1289194e-09
C0A9F0,內湖,2025-12-12,25.079422,121.57545,2.9775404e-06
C0K291,宜梧,2025-12-12,23.536281,120.169329,0.17379168
C1K540,口湖,2025-12-12,23.585344,120.180517,0.21196526
C0R780,滿州,2025-12-12,22.024403,120.839892,0.88575596
C0V870,文安,2025-12-12,22.8025,120.2164,0.966778
C0U650,玉蘭,2025-12-12,24.675286,121.587061,6.569e-09
C0R640,東港,2025-12-12,22.46247,120.44074,4.7451834e-09
C0AJ80,板橋,2025-12-12,25.0107,121.4489,0.0021619445
C0S660,下馬,2025-12-12,23.150427,121.070312,2.7160099e-09
C2N190,烏樹,2025-12-12,23.32393,120.36989,5.9079575e-08
C1H9B1,阿眉,2025-12-12,24.1263,120.994672,3.2757208e-09
C0UA20,多加屯,2025-12-12,24.368614,121.373189,1.0038371e-08
C0E730,頭份,2025-12-12,24.688247,120.912206,0.77556556
72V140,高改旗南分場,2025-12-12,22.857861,120.516667,1.5809512e-08
C0K480,莿桐,2025-12-12,23.761192,120.502372,0.00019682344
C0U980,坪林石牌,2025-12-12,24.86478,121.77396,9.4532275e-09
C0T900,西林,2025-12-12,23.8119,121.441458,1.7012085e-09
C1I150,青雲,2025-12-12,23.793361,120.949378,3.1165812e-10
C2E980,和興,2025-12-12,24.505319,120.923016,7.5031603e-10
467350,澎湖,2025-12-12,23.565503,119.563094,0.8439814
C0G800,埔鹽,2025-12-12,24.000394,120.431683,0.020675499
C0H960,草屯,2025-12-12,23.973672,120.68085,5.067469e-10
C1V780,多納林道,2025-12-12,22.888028,120.737917,1.1560216e-09
C0E920,通霄漁港,2025-12-12,24.498589,120.673876,0.39004418
C0Z330,安通山,2025-12-12,23.290728,121.348528,1.6368852e-09
C0AH10,永和,2025-12-12,25.01125,121.508111,0.0021619445
C0AK10,太平里,2025-12-12,25.134937,121.364899,0.9838455
C2G640,鹿港,2025-12-12,24.0753,120.430481,0.9991148
C1E890,國三N149K,2025-12-12,24.463414,120.680019,0.39004418
C1R110,口社,2025-12-12,22.770111,120.645222,3.5586447e-09
C1M870,國三N285K,2025-12-12,23.550319,120.505833,3.0472956e-06
C1E480,鳳美,2025-12-12,24.554803,121.034747,5.788181e-10
C0M530,奮起湖,2025-12-12,23.493903,120.699253,1.5700571e-09
C0C590,觀音,2025-12-12,25.027072,121.153317,0.99989206
C0T9M0,靜浦,2025-12-12,23.455167,121.495028,9.503843e-10
C2H9M0,發祥,2025-12-12,24.154094,121.164517,1.1053434e-09
C2G9C0,埔南,2025-12-12,23.99124,120.46969,0.020675499
C0AI40,石牌,2025-12-12,25.115597,121.513139,2.9775374e-06
C1F871,上谷關,2025-12-12,24.203483,121.018644,9.942879e-10
C2H9G0,百勝,2025-12-12,24.051142,120.909361,3.5532713e-10
C0G880,二水,2025-12-12,23.810742,120.6173,2.2323238e-08
C0R940,加祿堂,2025-12-12,22.3363,120.6217,0.6884089
C0W220,北竿,2025-12-12,26.220358,119.974881,0.044174917
C0O960,崎頂,2025-12-12,22.959547,120.369317,7.087466e-08
C0TA40,秀林,2025-12-12,24.302864,121.731144,1.302565e-08
C0S750,向陽,2025-12-12,23.248397,120.986133,5.9638725e-09
C0T9F0,水璉,2025-12-12,23.797131,121.542514,1.8885804e-09
C1M600,頭凍,2025-12-12,23.406364,120.603339,8.041567e-10
467660,臺東,2025-12-12,22.752211,121.154586,0.99978113
C1D380,新埔,2025-12-12,24.84745,121.03834,0.9966394
C2G980,田頭村,2025-12-12,23.8263,120.444175,2.1542049e-07
C0V750,路竹,2025-12-12,22.854997,120.259439,0.9097341
C0N050,蚵寮,2025-12-12,23.301,120.1104,0.003328163
C2X060,下營,2025-12-12,23.226806,120.256291,1.1181354e-05
72M700,南改鹿草分場,2025-12-12,23.416869,120.283061,5.9466665e-06
C1SA50,利嘉林道,2025-12-12,22.82325,121.009389,1.2030408e-08
C0UB70,太平山中間站,2025-12-12,24.542003,121.513453,1.220146e-08
C0A940,金山,2025-12-12,25.223628,121.643967,3.960836e-06
C1V340,大津,2025-12-12,22.888322,120.645986,7.63915e-09
C0W180,七美,2025-12-12,23.219333,119.444892,0.8292448
C1F9C1,白冷,2025-12-12,24.182844,120.929889,4.220435e-10
K2E710,苗改生物防治研究中心,2025-12-12,24.422861,120.871833,4.7414267e-10
C0N040,蘆竹溝,2025-12-12,23.2344,120.0961,0.003328163
C0TB40,崇德,2025-12-12,24.166144,121.657414,3.55674e-08
C0D760,大坪苗圃,2025-12-12,24.5362,121.1108,2.6107758e-09
C2W230,畜試所澎湖,2025-12-12,23.628342,119.513206,0.80343634
C0R880,後壁湖,2025-12-12,21.9457,120.7457,0.10978994
C1I280,埔中,2025-12-12,23.820778,120.642594,4.5648496e-10
467790,墾丁雷達站,2025-12-12,21.948235,120.808028,0.14135014
C0W190,望安,2025-12-12,23.380564,119.494075,0.8099283
C0Z170,卓溪,2025-12-12,23.3443,121.3029,8.911243e-10
C0F850,東勢,2025-12-12,24.246428,120.833047,8.1939655e-10
466900,淡水,2025-12-12,25.164889,121.448906,1.5235435e-05
C0I370,魚池,2025-12-12,23.895703,120.94135,3.9927955e-10
C0C630,大溪,2025-12-12,24.882853,121.265547,0.0004320238
C0A520,山佳,2025-12-12,24.974944,121.402008,0.012714535
C0I110,竹山,2025-12-12,23.761225,120.688156,9.293613e-09
82H840,茶改南部分場,2025-12-12,23.762528,120.7405,5.305418e-10
C2SD80,再來山,2025-12-12,23.34371,121.44122,9.2281294e-10
C0G660,溪湖,2025-12-12,23.94835,120.479122,7.589933e-08
C1T800,洛韶,2025-12-12,24.204558,121.453956,1.879565e-08
C1T810,慈恩,2025-12-12,24.192044,121.388386,7.78563e-09
C1E451,象鼻,2025-12-12,24.368617,120.940228,1.1282197e-09
C0AC60,三峽,2025-12-12,24.939025,121.369728,0.0043216585
C0I490,萬大林道,2025-12-12,23.928228,121.091411,1.8312185e-09
C1I290,豐丘,2025-12-12,23.668178,120.887417,1.5000947e-09
C1I320,奧萬大,2025-12-12,23.952956,121.178556,9.608209e-10
C2M910,嘉義大學,2025-12-12,23.471325,120.485903,1.4813348e-07
C0U770,南澳,2025-12-12,24.44935,121.81022,3.9432932e-09
C2TB30,吉安,2025-12-12,23.94538,121.54803,2.1027287e-09
C0A980,社子,2025-12-12,25.109508,121.469681,2.3939554e-05
C0V800,六龜,2025-12-12,22.997889,120.633583,1.6583329e-09
C1G9D0,國一S218K,2025-12-12,23.890641,120.493253,3.324869e-07
C0E570,白沙屯,2025-12-12,24.549447,120.696803,0.9811659
C2F9A0,中竹林,2025-12-12,24.103556,120.751061,4.2998358e-10
C0FA40,臺中電廠,2025-12-12,24.2146,120.4907,0.48678797
C2G9A0,畜試所彰化,2025-12-12,23.86045,120.557964,3.209759e-07
C0H9C0,合歡山,2025-12-12,24.143442,121.272547,1.686532e-08
G2M350,農試溪口農場,2025-12-12,23.58565,120.408111,0.0019471323
C0U860,頭城,2025-12-12,24.85323,121.8308,2.270437e-09
C0R580,南州,2025-12-12,22.48591,120.50274,0.0049585076
C0D430,峨眉,2025-12-12,24.6905,121.017189,1.0187101e-06
C0G780,秀水,2025-12-12,24.03405,120.503869,1.0089511e-07
72N100,臺南農改場,2025-12-12,23.0605,120.342194,1.1343287e-06
C0S900,蘭嶼高中,2025-12-12,22.04909,121.51214,0.9987803
C2TA60,六十石,2025-12-12,23.22477,121.31861,4.903082e-09
C1F9W0,德基,2025-12-12,24.254783,121.190261,7.2618787e-09
C2M980,安和,2025-12-12,23.51377,120.31593,1.0828677e-05
C1Z120,壽豐,2025-12-12,23.870853,121.508081,1.5227939e-09
C0W160,烏坵,2025-12-12,24.9944,119.44956,0.62579626
C1I240,外大坪,2025-12-12,23.958697,120.917931,4.2515572e-10
C1I550,國六W023K,2025-12-12,23.979067,120.867742,3.3101247e-10
C0R870,興海,2025-12-12,21.9752,120.8439,0.14135014
C0R140,瑪家,2025-12-12,22.682903,120.686639,4.953935e-10
C0A530,坪林,2025-12-12,24.938183,121.70975,1.5897474e-08
C0X260,後壁,2025-12-12,23.366358,120.362326,2.370847e-06
C0Z230,和平,2025-12-12,24.30717,121.77007,2.9056837e-09
C0G770,福興,2025-12-12,24.041289,120.437669,0.020675499
C0H9A0,神木村,2025-12-12,23.532742,120.843667,3.6460595e-09
C0I460,南投,2025-12-12,23.911469,120.687331,5.067469e-10
C0I480,梅峰,2025-12-12,24.085272,121.173572,3.859198e-09
C1V570,吉東,2025-12-12,22.85422,120.5454,5.11179e-07
C2A560,福山,2025-12-12,24.776203,121.502811,6.4703034e-09
C0AH30,五分山,2025-12-12,25.07125,121.780794,8.945494e-09
C0FA10,松柏,2025-12-12,24.429115,120.617482,0.05058119
72S200,東改班鳩分場,2025-12-12,22.829528,121.077694,0.00036690108
72HA00,中改埔里分場,2025-12-12,23.903208,120.963364,4.004541e-10
C2H9W0,大坪頂農水,2025-12-12,24.043122,120.932781,4.5141724e-10
C0C650,平鎮,2025-12-12,24.897503,121.214636,2.5400457e-08
C0S930,延平,2025-12-12,22.902581,121.084058,7.3418756e-09
C0UA60,樟樹山,2025-12-12,24.41393,121.78325,2.7791986e-09
C2UC10,出水溪,2025-12-12,24.615822,121.652253,1.0154705e-08
C1S670,摩天,2025-12-12,23.199503,121.027,1.2833199e-08
C2C590,觀音,2025-12-12,25.027072,121.153317,0.9998842
C0V630,茄萣,2025-12-12,22.906642,120.182608,0.19555596
466940,基隆,2025-12-12,25.133314,121.740475,2.554871e-07
C0X050,東河,2025-12-12,23.296598,120.385608,5.9079575e-08
C0R770,保力,2025-12-12,22.071122,120.764111,0.8958988
G2L020,農試嘉義分所,2025-12-12,23.485028,120.473806,1.4813348e-07
C0X240,關子嶺,2025-12-12,23.331169,120.508025,3.0355257e-10
C0I380,集集,2025-12-12,23.828206,120.801467,2.9446925e-10
466990,花蓮,2025-12-12,23.975128,121.613275,5.673578e-09
C1V220,小關山,2025-12-12,23.154217,120.813603,2.9549394e-09
C1F9G1,慶福山,2025-12-12,24.180853,120.848378,5.2369514e-10
C0FB20,雪山橋,2025-12-12,24.23192,120.9786,6.404089e-09
C0Z250,瑞穗林道,2025-12-12,23.49284,121.30688,1.8486858e-08
C0D590,新豐,2025-12-12,24.87068,120.97721,0.9978953
C0A870,五指山,2025-12-12,25.132153,121.608692,5.577803e-09
C0UA50,西帽山,2025-12-12,24.555361,121.802628,1.0671105e-08
C2R980,竹田國中,2025-12-12,22.61532,120.52412,1.8566225e-06
C0X160,仁德,2025-12-12,22.968258,120.257689,0.00015492474
C1H971,六分寮,2025-12-12,23.92507,120.6378,3.2930467e-10
C0W120,西嶼,2025-12-12,23.5626,119.468436,0.882487
C0G650,員林,2025-12-12,23.946503,120.585597,4.4929855e-08
C0AD50,鶯歌,2025-12-12,24.951533,121.346294,2.2714985e-06
C2H9Q0,北東眼山,2025-12-12,24.120939,121.189303,5.1302282e-09
C2H9T0,名間竹圍,2025-12-12,23.859914,120.637572,5.3595267e-10
C0S990,山豬窟,2025-12-12,22.318619,120.857372,0.00065225246
C0X190,安平,2025-12-12,22.993161,120.152181,0.34476998
C0K400,斗六,2025-12-12,23.720583,120.541127,0.00019682363
12J990,口湖工作站,2025-12-12,23.589978,120.180394,0.21196526
C0O830,北寮,2025-12-12,23.079561,120.495008,4.510033e-10
C1D410,白蘭,2025-12-12,24.579364,121.079947,1.9722135e-09
C0S970,加津林,2025-12-12,22.416211,120.926942,2.5959384e-06
C0D700,關西,2025-12-12,24.7977,121.1732,1.338591e-09
C0M810,里佳,2025-12-12,23.389125,120.716647,2.1227886e-09
C0U750,龜山島,2025-12-12,24.841667,121.953133,5.672085e-09
C0R810,內獅,2025-12-12,22.305064,120.642986,0.6884089
C1M390,龍美,2025-12-12,23.406728,120.654417,1.4747662e-09
C2K290,崙內,2025-12-12,23.69525,120.35601,2.2554086e-06
C2FB60,頭櫃山,2025-12-12,24.129842,120.858925,1.1916831e-09
C1H840,國三N238K,2025-12-12,23.841008,120.707711,7.26983e-10
CAQ030,崎峰國小,2025-12-12,22.42565,120.49521,0.0049585076
C2E520,大湖,2025-12-12,24.414939,120.870872,4.7414267e-10
467530,阿里山,2025-12-12,23.508208,120.813242,9.631791e-09
C1E691,南湖,2025-12-12,24.40135,120.837533,9.499802e-10
C0FA30,梧棲,2025-12-12,24.256003,120.523381,0.020905117
C1V231,高中,2025-12-12,23.134911,120.716711,6.241112e-10
C0AK30,硬漢嶺,2025-12-12,25.136097,121.426372,8.678493e-09
C0F9V0,新社,2025-12-12,24.200172,120.815806,6.260462e-10
C0H890,埔里,2025-12-12,23.972169,120.952425,4.3419326e-10
C0R690,墾丁,2025-12-12,21.966756,120.810269,0.26615444
C0SD20,富山,2025-12-12,22.822383,121.190825,0.99501526
C0F0D0,審馬陣,2025-12-12,24.381675,121.4203,1.4674435e-08
C2W030,金門農試所,2025-12-12,24.448431,118.451786,2.498898e-06
C0R820,白鷺,2025-12-12,22.454275,120.666219,1.7432231e-09
C0FB00,大雪山,2025-12-12,24.254668,121.007374,7.781058e-09
C1V190,南天池,2025-12-12,23.27403,120.91176,6.739199e-09
C0E940,雪見,2025-12-12,24.42595,121.01347,5.448583e-09
K2E360,苗栗農改場,2025-12-12,24.495722,120.829111,5.1224575e-08
CAJ050,海口故事園區,2025-12-12,23.57543,120.14121,0.21196519
C2K280,四湖,2025-12-12,23.6304,120.22717,0.043363377
C2H9D0,三隻寮,2025-12-12,24.093078,120.861578,4.7721016e-10
C0O990,媽廟,2025-12-12,22.99175,120.293525,5.4212423e-06
C0D480,打鐵坑,2025-12-12,24.849664,121.150789,2.9259315e-06
C0Z220,和平林道,2025-12-12,24.343922,121.656317,2.3948095e-09
C0TA10,花蓮漁港,2025-12-12,23.995322,121.638331,5.9408483e-09
72C440,桃園農改場,2025-12-12,24.950944,121.030583,0.9997544
C1E711,馬拉邦山,2025-12-12,24.367306,120.901656,1.25731e-09
C0SB20,富岡,2025-12-12,22.792467,121.192669,0.99127406
C0D560,竹東,2025-12-12,24.767147,121.057881,8.005485e-09
C0F9U0,南屯,2025-12-12,24.137006,120.637969,3.3222761e-07
C2SD60,明峰,2025-12-12,22.8671,121.11825,1.2622003e-08
C0M720,番路,2025-12-12,23.464657,120.554156,8.662794e-10
C0F0A0,雪山圈谷,2025-12-12,24.388594,121.236339,2.1013745e-08
C1A9N0,四十份,2025-12-12,24.934158,121.593283,2.6442388e-08
C0U760,東澳,2025-12-12,24.52196,121.83318,3.836593e-09
C0X230,鹽水,2025-12-12,23.272621,120.247641,0.000813054
C2H9H0,苗改南投蜂場,2025-12-12,23.852589,120.693481,1.5176587e-09
C2TB70,達谷寮,2025-12-12,23.38,121.35968,9.210492e-10
C0R950,萬隆國小,2025-12-12,22.507667,120.587817,9.259535e-09
467540,大武,2025-12-12,22.35572,120.90374,0.85791796
C0V370,古亭坑,2025-12-12,22.893178,120.401947,4.9861684e-09
C1I340,新興橋,2025-12-12,23.563333,120.868728,7.454873e-10
C0SA80,土坂,2025-12-12,22.453108,120.887572,1.8956895e-07
C0R160,鹽埔,2025-12-12,22.739558,120.530778,9.290571e-05
C0AC40,大屯山,2025-12-12,25.175675,121.522408,1.6415228e-08
466850,五分山雷達站,2025-12-12,25.071182,121.781205,8.958539e-09
C2H9L0,馬烈霸,2025-12-12,24.1512,121.201772,5.1302282e-09
C1AI50,國三N016K,2025-12-12,25.034164,121.619664,2.7331092e-07
C2V920,匏子寮,2025-12-12,23.04905,120.55319,5.8851096e-10
C1V600,藤枝,2025-12-12,23.071961,120.757042,2.0140525e-09
C1E601,南勢,2025-12-12,24.572486,120.734842,0.9811659
C0O980,新市,2025-12-12,23.061614,120.298197,1.1343287e-06
C0K420,西螺,2025-12-12,23.800407,120.467394,2.1542049e-07
C0Z050,佳心,2025-12-12,23.34567,121.21316,4.556953e-09
C0AD30,蘆洲,2025-12-12,25.086594,121.472331,2.6266582e-05
C0V610,梓官,2025-12-12,22.760558,120.267211,0.9284235
K2F750,種苗改良場,2025-12-12,24.225972,120.800917,6.260462e-10
C0UA80,大溪漁港,2025-12-12,24.941801,121.902955,4.0086467e-09
C1AI60,國一39K邊坡,2025-12-12,25.064361,121.383836,1.7260948e-07
C0W150,金寧,2025-12-12,24.457703,118.328989,6.144813e-06
C0R960,內埔,2025-12-12,22.608483,120.570714,1.8566225e-06
V2C250,八德合作社,2025-12-12,24.93775,121.266389,0.0004320238
C2H9S0,龍南,2025-12-12,23.953536,120.833183,6.426711e-10
C0AH40,平等,2025-12-12,25.129142,121.577086,8.029525e-09
C0R540,佳冬,2025-12-12,22.419456,120.552375,2.1506165e-05
466950,彭佳嶼,2025-12-12,25.627975,122.079744,0.99990636
C0A890,雙溪,2025-12-12,25.036003,121.864242,1.8909565e-08
C0C480,桃園,2025-12-12,24.992425,121.323172,0.00023937922
C0AH50,林口,2025-12-12,25.072181,121.38084,6.880869e-08
A2K360,水試臺西試驗場,2025-12-12,23.717231,120.190522,0.066374384
C2M960,外寮,2025-12-12,23.562643,120.665688,9.655128e-10
C0F9S0,烏日,2025-12-12,24.107058,120.624103,3.3222761e-07
C2N180,鹿陶洋,2025-12-12,23.14325,120.48352,6.055341e-09
C0C490,八德,2025-12-12,24.928708,121.283289,0.0004320238
C0R190,赤山,2025-12-12,22.592333,120.614306,4.881292e-07
C0T820,天祥,2025-12-12,24.179597,121.495639,1.8224249e-08
C1F9E1,龍安,2025-12-12,24.1605,120.831961,6.176159e-10
C2SD50,順那,2025-12-12,23.04166,121.29332,0.08402965
C0V820,小林,2025-12-12,23.148408,120.63325,4.2267106e-10
C2G870,芳苑,2025-12-12,23.922303,120.320025,0.9137767
C0E850,大河,2025-12-12,24.618069,120.948578,3.0665852e-09
C1U670,寒溪,2025-12-12,24.634,121.71691,9.953467e-10
C0N020,城西,2025-12-12,23.0568,120.0956,0.17059635
C1Z110,三棧,2025-12-12,24.11557,121.60501,1.7107466e-08
C0R280,檳榔,2025-12-12,22.076078,120.836777,0.9224963
C2H9J0,中台,2025-12-12,23.9996,120.938739,4.5141724e-10
C0F9L0,后里,2025-12-12,24.310436,120.729725,5.8028055e-10
467441,高雄,2025-12-12,22.730432,120.312516,0.0057323496
C0Z180,新城,2025-12-12,24.040486,121.604878,5.5890492e-09
C0D540,橫山,2025-12-12,24.71116,121.11693,7.5325124e-10
C1D420,太閣南,2025-12-12,24.632808,121.160575,1.938869e-09
C1E770,公館,2025-12-12,24.526914,120.830806,5.888012e-06
CAN130,水試所海水繁養殖中心,2025-12-12,23.120802,120.07968,0.30076575
C1I430,翠華,2025-12-12,24.191961,121.224339,9.917863e-09
C1M400,菜瓜坪,2025-12-12,23.251928,120.576103,4.1141773e-10
C0G730,二林,2025-12-12,23.903325,120.376081,0.001578549
72M360,南改義竹分場,2025-12-12,23.360694,120.279361,9.862392e-05
V2K620,麥寮合作社,2025-12-12,23.753836,120.294783,2.3277276e-05
C0Z070,舞鶴,2025-12-12,23.46811,121.37407,9.630428e-10
C0B040,大武崙,2025-12-12,25.166676,121.706993,1.0964747e-07
C1Z030,紅葉,2025-12-12,23.493119,121.338806,9.531091e-10
C1I050,丹大,2025-12-12,23.753747,121.141147,7.787086e-09
C0I080,信義,2025-12-12,23.689694,120.851036,3.861331e-10
C2TB80,庄子底,2025-12-12,23.71794,121.49438,1.4771281e-09
C0D750,樂山林道6k,2025-12-12,24.49999,121.08773,9.128385e-09
C2M920,朴子農改,2025-12-12,23.469889,120.259383,5.9466665e-06
C2A880,福隆,2025-12-12,25.017842,121.942083,3.6482042e-08
C0Z160,鳳林,2025-12-12,23.746114,121.453411,1.4953213e-09
C0UB80,翠峰林道6K,2025-12-12,24.49773,121.568625,1.954662e-08
C0V210,復興,2025-12-12,23.222403,120.806089,6.7190575e-10
C0H990,昆陽,2025-12-12,24.121322,121.273642,1.3220734e-08
C0R741,獅子,2025-12-12,22.202308,120.705236,0.7677016
C0S710,鹿野,2025-12-12,22.917711,121.122994,2.5910416e-09
C0I530,小奇萊,2025-12-12,24.131764,121.295717,1.3963239e-08
C0FA70,大雪山埡口,2025-12-12,24.26867,121.03062,1.3155308e-08
C2K630,荷苞,2025-12-12,23.657717,120.595144,2.6159894e-06
C0Z080,富源,2025-12-12,23.587642,121.378225,3.3206995e-09
C2M9E0,旺來山,2025-12-12,23.555153,120.486463,3.0472956e-06
C0SB10,美和,2025-12-12,22.682078,121.060236,0.99978113
C2K620,馬光農場,2025-12-12,23.721453,120.378864,6.838992e-07
C1I140,卡奈托灣,2025-12-12,23.754364,121.087872,1.8430025e-09
C0I520,玉山風口,2025-12-12,23.470489,120.955994,2.1909345e-08
C1G691,下水埔,2025-12-12,23.816114,120.5676,1.0487036e-06
C0X110,臺南市南區,2025-12-12,22.961189,120.188378,0.00010809284
C0V680,仁武,2025-12-12,22.701083,120.347722,0.0057323496
C2G840,北斗,2025-12-12,23.877586,120.514222,3.324869e-07
C2TB90,長橋,2025-12-12,23.6874,121.46186,1.5075725e-09
C0R900,竹坑,2025-12-12,22.1385,120.7022,0.09576651
C0G860,社頭,2025-12-12,23.897647,120.5862,3.209759e-07
C0X150,安定,2025-12-12,23.102614,120.227839,0.00021007388
C0R590,里港,2025-12-12,22.77919,120.49459,6.3439124e-08
C0E610,馬都安,2025-12-12,24.451272,120.930192,8.23522e-10
C0E550,明德,2025-12-12,24.583486,120.885411,1.8849313e-09
C0R150,三地門,2025-12-12,22.709889,120.639944,2.4300887e-08
C0G910,花壇,2025-12-12,24.032076,120.549461,1.0089511e-07
C1D400,鳥嘴山,2025-12-12,24.71909,121.28387,1.361934e-09
C0K500,元長,2025-12-12,23.64981,120.315024,6.407222e-06
C0F0B0,石岡,2025-12-12,24.276061,120.777644,5.8028055e-10
C2V250,甲仙,2025-12-12,23.080106,120.591758,5.327778e-10
C0SA20,金崙山,2025-12-12,22.567419,120.959667,4.0060937e-09
C0V350,溪埔,2025-12-12,22.738578,120.446797,1.5696095e-07
C0M660,溪口,2025-12-12,23.604131,120.403569,0.0019471314
C1S880,壽卡,2025-12-12,22.238911,120.858903,0.9910328
72D680,桃改新埔分場,2025-12-12,24.834444,121.066111,0.9966394
