站號,站名,日期,lat,lon,BLBTSLS
C0K280,四湖,2025-11-06,23.630414,120.227125,0.27428314
A2K570,古坑花卉中心,2025-11-06,23.63353,120.55239,0.49165857
467571,新竹,2025-11-06,24.827853,121.014219,0.010757396
C0E430,南庄,2025-11-06,24.601775,121.000214,1.1170222e-07
C0E420,竹南,2025-11-06,24.708978,120.888897,0.1211186
C0M530,奮起湖,2025-11-06,23.493903,120.699253,1.9340085e-09
C0C590,觀音,2025-11-06,25.027072,121.153317,0.0417408
C0X060,下營,2025-11-06,23.22695,120.256261,0.99594146
C2D740,屯原,2025-11-06,24.067969,121.209389,2.4697215e-09
C0M810,里佳,2025-11-06,23.389125,120.716647,2.4851496e-09
C0K250,崙背,2025-11-06,23.75555,120.318925,0.99457484
