站號,站名,日期,lat,lon,BlastGRU-TW
12J990,口湖工作站,2025-06-05,23.589978,120.180394,0.3130269
12Q970,東港工作站,2025-06-05,22.479997,120.466058,0.2732169
12Q980,恆春工作站,2025-06-05,22.079678,120.714425,0.07282054
466881,新北,2025-06-05,24.959207,121.525196,0.570081
466900,淡水,2025-06-05,25.164889,121.448906,0.83141667
466920,臺北,2025-06-05,25.037658,121.514853,0.29795924
466940,基隆,2025-06-05,25.133314,121.740475,0.28674906
466990,花蓮,2025-06-05,23.975128,121.613275,0.29044294
467050,新屋,2025-06-05,25.006725,121.047492,0.8562616
467080,宜蘭,2025-06-05,24.763975,121.756528,0.17703165
467270,田中,2025-06-05,23.873803,120.581286,0.21124288
467280,後龍,2025-06-05,24.648563,120.831834,0.92672956
467290,古坑,2025-06-05,23.633639,120.551889,0.34671393
467300,東吉島,2025-06-05,23.25727,119.66762,0.9501312
467350,澎湖,2025-06-05,23.565503,119.563094,0.92693996
467410,臺南,2025-06-05,22.99328,120.20492,0.20396008
467420,永康,2025-06-05,23.038386,120.2367,0.15197296
467441,高雄,2025-06-05,22.730432,120.312516,0.0909145
467480,嘉義,2025-06-05,23.495925,120.432906,0.12742282
467490,臺中,2025-06-05,24.145736,120.684075,0.90422
467540,大武,2025-06-05,22.35572,120.90374,0.20873164
467571,新竹,2025-06-05,24.827853,121.014219,0.5542079
467590,恆春,2025-06-05,22.003897,120.746339,0.08211538
467610,成功,2025-06-05,23.097486,121.373428,0.31549037
467620,蘭嶼,2025-06-05,22.0369,121.55843,0.96987146
467660,臺東,2025-06-05,22.752211,121.154586,0.20617358
467790,墾丁雷達站,2025-06-05,21.948235,120.808028,0.07141982
72AI40,桃改樹林分場,2025-06-05,24.944503,121.386972,0.6848073
72C440,桃園農改場,2025-06-05,24.950944,121.030583,0.89003706
72D680,桃改新埔分場,2025-06-05,24.834444,121.066111,0.8788688
72G600,臺中農改場,2025-06-05,24.003028,120.534389,0.31660473
72K220,南改斗南分場,2025-06-05,23.634556,120.477333,0.26740786
72M360,南改義竹分場,2025-06-05,23.360694,120.279361,0.22164173
72M700,南改鹿草分場,2025-06-05,23.416869,120.283061,0.21820614
72N100,臺南農改場,2025-06-05,23.0605,120.342194,0.081218384
72N240,七股研究中心,2025-06-05,23.081672,120.062894,0.21318962
72Q010,高雄農改場,2025-06-05,22.709333,120.525889,0.100656085
72S200,東改班鳩分場,2025-06-05,22.829528,121.077694,0.44438192
72S590,東改賓朗果園,2025-06-05,22.813889,121.071278,0.51348674
72T250,花蓮農改場,2025-06-05,23.975222,121.563889,0.29161224
72U480,花改蘭陽分場,2025-06-05,24.686306,121.716583,0.15159686
72V140,高改旗南分場,2025-06-05,22.857861,120.516667,0.06225814
82A750,茶改北部分場,2025-06-05,24.955778,121.631222,0.8617013
82C160,茶改場,2025-06-05,24.908472,121.185333,0.97734576
82H840,茶改南部分場,2025-06-05,23.762528,120.7405,0.9001352
82S580,茶改東部分場,2025-06-05,22.907694,121.130139,0.34195575
A2C560,農工中心,2025-06-05,24.985917,121.239833,0.93352044
A2K360,水試臺西試驗場,2025-06-05,23.717231,120.190522,0.275874
A2K570,古坑花卉中心,2025-06-05,23.63353,120.55239,0.34671393
A2K630,臺大雲林校區,2025-06-05,23.730628,120.423903,0.33154884
A2N290,臺南蘭花園區,2025-06-05,23.340258,120.379661,0.10863959
B2E890,畜試北區分所,2025-06-05,24.527806,120.770972,0.96268463
B2N890,畜產試驗所,2025-06-05,23.058972,120.336406,0.080762565
B2Q810,畜試南區分所,2025-06-05,21.945583,120.802167,0.06357209
B2U990,畜試東區分所,2025-06-05,24.669039,121.832561,0.12129802
C0A520,山佳,2025-06-05,24.974944,121.402008,0.6110468
C0A530,坪林,2025-06-05,24.938183,121.70975,0.77837276
C0A550,泰平,2025-06-05,24.971197,121.823711,0.8678544
C0A570,桶後,2025-06-05,24.848222,121.597992,0.7814931
C0A640,石碇,2025-06-05,24.993969,121.662917,0.9366041
C0A770,科教館,2025-06-05,25.096356,121.516507,0.6707897
C0A860,大坪,2025-06-05,25.165914,121.632969,0.83744293
C0A890,雙溪,2025-06-05,25.036003,121.864242,0.5233337
C0A931,三和,2025-06-05,25.233153,121.595236,0.9773723
C0A940,金山,2025-06-05,25.223628,121.643967,0.87623864
C0A950,鼻頭角,2025-06-05,25.129036,121.923372,0.6730522
C0A970,三貂角,2025-06-05,25.007606,122.002058,0.45597178
C0A980,社子,2025-06-05,25.109508,121.469681,0.76272494
C0A9C0,天母,2025-06-05,25.117494,121.537169,0.73377556
C0A9F0,內湖,2025-06-05,25.079422,121.57545,0.29795924
C0AC60,三峽,2025-06-05,24.939025,121.369728,0.73508143
C0AC70,信義,2025-06-05,25.037822,121.564597,0.29795924
C0AC80,文山,2025-06-05,25.00235,121.575728,0.7004615
C0ACA0,新莊,2025-06-05,25.051478,121.446756,0.31899416
C0AD10,八里,2025-06-05,25.150211,121.403947,0.8843122
C0AD30,蘆洲,2025-06-05,25.086594,121.472331,0.7115135
C0AD40,土城,2025-06-05,24.973208,121.445169,0.46675754
C0AD50,鶯歌,2025-06-05,24.951533,121.346294,0.8292749
C0AG80,中和,2025-06-05,24.991622,121.491792,0.46675754
C0AH00,汐止,2025-06-05,25.066881,121.658778,0.29795924
C0AH10,永和,2025-06-05,25.01125,121.508111,0.4154792
C0AH40,平等,2025-06-05,25.129142,121.577086,0.7790185
C0AH50,林口,2025-06-05,25.072181,121.38084,0.9673857
C0AH70,松山,2025-06-05,25.04871,121.55042,0.29795924
C0AH80,深坑,2025-06-05,25.002703,121.628328,0.66597104
C0AI00,五股,2025-06-05,25.07445,121.42728,0.9777917
C0AI10,屈尺,2025-06-05,24.92184,121.54475,0.7353461
C0AI20,白沙灣,2025-06-05,25.283128,121.519058,0.91370195
C0AI30,三重,2025-06-05,25.057328,121.500629,0.26048195
C0AI40,石牌,2025-06-05,25.115597,121.513139,0.6898391
C0AJ20,野柳,2025-06-05,25.20703,121.690021,0.62170786
C0AJ30,淡水觀海,2025-06-05,25.184591,121.408616,0.8600887
C0AJ40,石門,2025-06-05,25.273672,121.601198,0.97158265
C0AJ50,水湳洞,2025-06-05,25.123695,121.862238,0.2736098
C0AJ60,六塊厝,2025-06-05,25.24,121.4481,0.86127704
C0AJ70,田寮,2025-06-05,25.2698,121.4886,0.89880437
C0AJ80,板橋,2025-06-05,25.0107,121.4489,0.4154792
C0AJ90,澳底,2025-06-05,25.0552,121.9253,0.48810947
C0AK10,太平里,2025-06-05,25.134937,121.364899,0.8898895
C0B010,七堵,2025-06-05,25.094819,121.71713,0.44758922
C0B020,基隆嶼,2025-06-05,25.19141,121.78391,0.72431654
C0B040,大武崙,2025-06-05,25.166676,121.706993,0.47052622
C0B050,八斗子,2025-06-05,25.144754,121.79167,0.25012696
C0B060,暖暖,2025-06-05,25.0957,121.7403,0.72335625
C0C460,復興,2025-06-05,24.820208,121.352281,0.8720153
C0C480,桃園,2025-06-05,24.992425,121.323172,0.9247994
C0C490,八德,2025-06-05,24.928708,121.283289,0.9411441
C0C590,觀音,2025-06-05,25.027072,121.153317,0.9063452
C0C620,蘆竹,2025-06-05,25.084275,121.265767,0.6595201
C0C630,大溪,2025-06-05,24.882853,121.265547,0.9719577
C0C650,平鎮,2025-06-05,24.897503,121.214636,0.9735823
C0C660,楊梅,2025-06-05,24.912375,121.143047,0.95744663
C0C670,龍潭,2025-06-05,24.870056,121.221389,0.9798428
C0C680,龜山,2025-06-05,25.02846,121.38656,0.97105336
C0C700,中壢,2025-06-05,24.977661,121.256375,0.92707884
C0C710,大溪永福,2025-06-05,24.892936,121.324975,0.9570758
C0C720,竹圍,2025-06-05,25.112692,121.239824,0.4884995
C0C730,中大臨海站,2025-06-05,24.966126,121.008581,0.8111765
C0C740,觀音工業區,2025-06-05,25.064764,121.114856,0.85136956
C0C750,新興坑尾,2025-06-05,25.0061,121.0971,0.86150646
C0D430,峨眉,2025-06-05,24.6905,121.017189,0.9143514
C0D480,打鐵坑,2025-06-05,24.849664,121.150789,0.97992307
C0D540,橫山,2025-06-05,24.71116,121.11693,0.9776072
C0D560,竹東,2025-06-05,24.767147,121.057881,0.9410852
C0D580,寶山,2025-06-05,24.735006,121.025192,0.94610924
C0D590,新豐,2025-06-05,24.87068,120.97721,0.9625408
C0D650,湖口,2025-06-05,24.904794,121.043628,0.8205038
C0D660,新竹市東區,2025-06-05,24.798681,120.986942,0.7226085
C0D670,海天一線,2025-06-05,24.831986,120.914438,0.8600611
C0D680,香山濕地,2025-06-05,24.783581,120.914988,0.50448245
C0D690,外湖,2025-06-05,24.917735,120.968711,0.5264443
C0D700,關西,2025-06-05,24.7977,121.1732,0.9490078
C0E420,竹南,2025-06-05,24.708978,120.888897,0.85694116
C0E430,南庄,2025-06-05,24.601775,121.000214,0.9887366
C0E550,明德,2025-06-05,24.583486,120.885411,0.9643045
C0E570,白沙屯,2025-06-05,24.549447,120.696803,0.837449
C0E590,通霄,2025-06-05,24.471892,120.704622,0.92394537
C0E730,頭份,2025-06-05,24.688247,120.912206,0.8397347
C0E740,造橋,2025-06-05,24.637056,120.864778,0.90128404
C0E750,苗栗,2025-06-05,24.564569,120.824575,0.95121497
C0E780,銅鑼,2025-06-05,24.489681,120.790853,0.9900822
C0E791,卓蘭,2025-06-05,24.3126,120.8244,0.9911168
C0E810,西湖,2025-06-05,24.562947,120.7485,0.97429806
C0E820,獅潭,2025-06-05,24.539133,120.920042,0.98997235
C0E830,苑裡,2025-06-05,24.439714,120.653053,0.9599087
C0E850,大河,2025-06-05,24.618069,120.948578,0.9470176
C0E870,高鐵苗栗,2025-06-05,24.60725,120.826094,0.91262144
C0E910,海埔,2025-06-05,24.648767,120.772435,0.9344239
C0E920,通霄漁港,2025-06-05,24.498589,120.673876,0.9403632
C0E930,龍鳳,2025-06-05,24.700034,120.859125,0.774739
C0F0B0,石岡,2025-06-05,24.276061,120.777644,0.9906069
C0F850,東勢,2025-06-05,24.246428,120.833047,0.99227536
C0F970,大坑,2025-06-05,24.173142,120.722289,0.5768111
C0F9I0,神岡,2025-06-05,24.272481,120.658314,0.9806782
C0F9K0,大安,2025-06-05,24.345061,120.588025,0.8674975
C0F9L0,后里,2025-06-05,24.310436,120.729725,0.982877
C0F9M0,豐原,2025-06-05,24.254322,120.720692,0.9719351
C0F9N0,大里,2025-06-05,24.092464,120.701378,0.6028291
C0F9O0,潭子,2025-06-05,24.213106,120.703933,0.94091284
C0F9P0,清水,2025-06-05,24.312297,120.562242,0.6255297
C0F9Q0,外埔,2025-06-05,24.347817,120.705686,0.9755152
C0F9R0,龍井,2025-06-05,24.184536,120.528972,0.6389999
C0F9S0,烏日,2025-06-05,24.107058,120.624103,0.4509667
C0F9T0,西屯,2025-06-05,24.179494,120.641275,0.91352
C0F9U0,南屯,2025-06-05,24.137006,120.637969,0.80181825
C0F9X0,大雅(中科園區),2025-06-05,24.21528,120.62445,0.97464013
C0FA10,松柏,2025-06-05,24.429115,120.617482,0.84326786
C0FA20,溫寮,2025-06-05,24.372177,120.583125,0.7918201
C0FA30,梧棲,2025-06-05,24.256003,120.523381,0.62552994
C0FA40,臺中電廠,2025-06-05,24.2146,120.4907,0.49502718
C0FA50,霧峰,2025-06-05,24.0419,120.6995,0.42377216
C0FB70,大甲溪埔,2025-06-05,24.370625,120.620067,0.8907459
C0G620,芬園,2025-06-05,24.015678,120.6213,0.17804924
C0G650,員林,2025-06-05,23.946503,120.585597,0.3986171
C0G660,溪湖,2025-06-05,23.94835,120.479122,0.2723137
C0G720,溪州,2025-06-05,23.851589,120.499093,0.24054348
C0G730,二林,2025-06-05,23.903325,120.376081,0.29142752
C0G740,大城,2025-06-05,23.852487,120.320935,0.33114684
C0G770,福興,2025-06-05,24.041289,120.437669,0.35158002
C0G780,秀水,2025-06-05,24.03405,120.503869,0.29754958
C0G800,埔鹽,2025-06-05,24.000394,120.431683,0.3620059
C0G810,埔心,2025-06-05,23.947633,120.525456,0.2949311
C0G820,田尾,2025-06-05,23.901669,120.509389,0.20426385
C0G830,埤頭,2025-06-05,23.866003,120.452806,0.20614272
C0G860,社頭,2025-06-05,23.897647,120.5862,0.19085784
C0G880,二水,2025-06-05,23.810742,120.6173,0.21546459
C0G890,伸港,2025-06-05,24.148933,120.484403,0.6476934
C0G900,線西,2025-06-05,24.143358,120.443536,0.6167565
C0G910,花壇,2025-06-05,24.032076,120.549461,0.34673306
C0G920,永靖,2025-06-05,23.924703,120.547533,0.20426385
C0G940,竹塘,2025-06-05,23.848253,120.386764,0.25026858
C0G950,防潮門,2025-06-05,24.1835,120.4871,0.6389995
C0G960,福寶,2025-06-05,24.0443,120.3814,0.40006015
C0G970,三豐,2025-06-05,23.882,120.2895,0.3167287
C0G9B0,和美,2025-06-05,24.105169,120.492131,0.64014137
C0H890,埔里,2025-06-05,23.972169,120.952425,0.71288913
C0H960,草屯,2025-06-05,23.973672,120.68085,0.1671744
C0I110,竹山,2025-06-05,23.761225,120.688156,0.8051061
C0I360,水里,2025-06-05,23.812553,120.849792,0.290396
C0I380,集集,2025-06-05,23.828206,120.801467,0.25918522
C0I410,名間,2025-06-05,23.837053,120.701447,0.34653866
C0I420,國姓,2025-06-05,24.037803,120.855072,0.36946929
C0I460,南投,2025-06-05,23.911469,120.687331,0.33726946
C0K250,崙背,2025-06-05,23.75555,120.318925,0.26623476
C0K280,四湖,2025-06-05,23.630414,120.227125,0.2699868
C0K291,宜梧,2025-06-05,23.536281,120.169329,0.34900725
C0K330,虎尾,2025-06-05,23.719183,120.442036,0.3001454
C0K390,土庫,2025-06-05,23.679029,120.395574,0.21410732
C0K400,斗六,2025-06-05,23.720583,120.541127,0.25515148
C0K410,北港,2025-06-05,23.573957,120.292802,0.23054543
C0K420,西螺,2025-06-05,23.800407,120.467394,0.24215664
C0K430,褒忠,2025-06-05,23.690938,120.303634,0.23342171
C0K440,二崙,2025-06-05,23.772797,120.408944,0.28263092
C0K450,大埤,2025-06-05,23.646074,120.431537,0.23103018
C0K460,斗南,2025-06-05,23.678734,120.478359,0.26740798
C0K470,林內,2025-06-05,23.748675,120.609642,0.26356998
C0K480,莿桐,2025-06-05,23.761192,120.502372,0.21145566
C0K500,元長,2025-06-05,23.64981,120.315024,0.16863844
C0K510,水林,2025-06-05,23.572924,120.24597,0.2269025
C0K530,臺西,2025-06-05,23.701547,120.197559,0.2905847
C0K550,蔦松,2025-06-05,23.514319,120.229736,0.34900725
C0K560,棋山,2025-06-05,23.68645,120.603417,0.38792214
C0K580,高鐵雲林,2025-06-05,23.737456,120.417944,0.33154884
C0K590,雲林東勢,2025-06-05,23.674192,120.255721,0.20407677
C0K600,箔子寮,2025-06-05,23.6197,120.14,0.3130269
C0M520,東後寮,2025-06-05,23.369908,120.248065,0.21393558
C0M640,中埔,2025-06-05,23.42538,120.5229,0.16052106
C0M650,朴子,2025-06-05,23.43463,120.23902,0.21018904
C0M660,溪口,2025-06-05,23.604131,120.403569,0.20768686
C0M670,大林,2025-06-05,23.600616,120.45841,0.24686788
C0M680,太保,2025-06-05,23.455062,120.331455,0.11894945
C0M690,水上,2025-06-05,23.419734,120.388909,0.10358037
C0M700,竹崎,2025-06-05,23.526178,120.555508,0.307406
C0M710,東石,2025-06-05,23.458927,120.15385,0.40766254
C0M720,番路,2025-06-05,23.464657,120.554156,0.23096971
C0M730,嘉義市東區,2025-06-05,23.457673,120.460531,0.1546159
C0M740,六腳,2025-06-05,23.492871,120.290625,0.33196682
C0M750,布袋,2025-06-05,23.380878,120.167789,0.3217291
C0M760,民雄,2025-06-05,23.551754,120.428457,0.19473518
C0M770,嘉義梅山,2025-06-05,23.585398,120.555587,0.6168241
C0M780,鹿草,2025-06-05,23.41134,120.30835,0.22887181
C0M790,新港,2025-06-05,23.553269,120.345728,0.14843577
C0M800,茶山,2025-06-05,23.299075,120.664767,0.26544502
C0M880,好美里,2025-06-05,23.3364,120.138,0.31747705
C0N010,鯤鯓國小,2025-06-05,23.1879,120.0889,0.19079715
C0N020,城西,2025-06-05,23.0568,120.0956,0.18084283
C0N030,四草,2025-06-05,23.0235,120.1116,0.17916188
C0N040,蘆竹溝,2025-06-05,23.2344,120.0961,0.18189473
C0N050,蚵寮,2025-06-05,23.301,120.1104,0.18748234
C0O830,北寮,2025-06-05,23.079561,120.495008,0.06700412
C0O840,王爺宮,2025-06-05,23.222064,120.40085,0.10365558
C0O860,大內,2025-06-05,23.11885,120.36083,0.07760149
C0O900,善化,2025-06-05,23.112883,120.297219,0.0724271
C0O960,崎頂,2025-06-05,22.959547,120.369317,0.11703283
C0O970,虎頭埤,2025-06-05,23.021375,120.347878,0.098041214
C0O980,新市,2025-06-05,23.061614,120.298197,0.12424084
C0O990,媽廟,2025-06-05,22.99175,120.293525,0.1623155
C0R150,三地門,2025-06-05,22.709889,120.639944,0.30974063
C0R160,鹽埔,2025-06-05,22.739558,120.530778,0.100656085
C0R190,赤山,2025-06-05,22.592333,120.614306,0.25934485
C0R220,潮州,2025-06-05,22.534361,120.54,0.19754982
C0R240,來義,2025-06-05,22.527306,120.625111,0.22828473
C0R260,春日,2025-06-05,22.370361,120.628306,0.14507757
C0R270,琉球嶼,2025-06-05,22.332244,120.362236,0.2709908
C0R280,檳榔,2025-06-05,22.076078,120.836777,0.12343595
C0R320,車城,2025-06-05,22.0744,120.716247,0.07282054
C0R341,牡丹,2025-06-05,22.130036,120.792639,0.11856151
C0R350,貓鼻頭,2025-06-05,21.921774,120.7358,0.085783385
C0R470,高樹,2025-06-05,22.826389,120.600806,0.08924699
C0R480,長治,2025-06-05,22.693128,120.542622,0.10348354
C0R490,九如,2025-06-05,22.7405,120.490503,0.099581815
C0R520,崁頂,2025-06-05,22.514781,120.506914,0.19543323
C0R540,佳冬,2025-06-05,22.419456,120.552375,0.13454834
C0R550,新埤,2025-06-05,22.467947,120.582894,0.2954861
C0R560,新園,2025-06-05,22.5434,120.461558,0.14177328
C0R570,麟洛,2025-06-05,22.65078,120.52719,0.10726471
C0R580,南州,2025-06-05,22.48591,120.50274,0.2732169
C0R590,里港,2025-06-05,22.77919,120.49459,0.06192958
C0R620,墾雷,2025-06-05,21.900836,120.855269,0.13274068
C0R640,東港,2025-06-05,22.46247,120.44074,0.2732168
C0R650,竹田,2025-06-05,22.58486,120.54344,0.20454858
C0R660,枋寮,2025-06-05,22.367722,120.590647,0.13422549
C0R670,楓港,2025-06-05,22.190131,120.692156,0.16668211
C0R680,佳樂水,2025-06-05,21.993578,120.861633,0.064233124
C0R690,墾丁,2025-06-05,21.966756,120.810269,0.30236897
C0R700,枋山,2025-06-05,22.246844,120.661086,0.083389334
C0R710,龍磐,2025-06-05,21.931672,120.838942,0.12247202
C0R720,旭海,2025-06-05,22.205403,120.887614,0.33128017
C0R730,大坪頂,2025-06-05,22.024633,120.69355,0.11404432
C0R741,獅子,2025-06-05,22.202308,120.705236,0.2196566
C0R760,南仁湖,2025-06-05,22.084681,120.863353,0.39823374
C0R770,保力,2025-06-05,22.071122,120.764111,0.07669439
C0R780,滿州,2025-06-05,22.024403,120.839892,0.08729245
C0R790,九棚,2025-06-05,22.14195,120.889281,0.30535308
C0R800,丹路,2025-06-05,22.204481,120.750989,0.07518284
C0R810,內獅,2025-06-05,22.305064,120.642986,0.055581372
C0R830,高士,2025-06-05,22.121825,120.836781,0.4306291
C0R850,林邊,2025-06-05,22.4634,120.5339,0.27605382
C0R860,鼻頭,2025-06-05,22.1043,120.8979,0.05717658
C0R870,興海,2025-06-05,21.9752,120.8439,0.06357209
C0R880,後壁湖,2025-06-05,21.9457,120.7457,0.07304616
C0R890,山海,2025-06-05,21.9878,120.7091,0.07358481
C0R900,竹坑,2025-06-05,22.1385,120.7022,0.07324137
C0R910,下寮,2025-06-05,22.3929,120.5548,0.13422532
C0R920,塭仔,2025-06-05,22.4169,120.5197,0.13320826
C0R930,萬丹,2025-06-05,22.5885,120.4851,0.10746649
C0R940,加祿堂,2025-06-05,22.3363,120.6217,0.056016397
C0R950,萬隆國小,2025-06-05,22.507667,120.587817,0.21370502
C0R960,內埔,2025-06-05,22.608483,120.570714,0.20694833
C0S710,鹿野,2025-06-05,22.917711,121.122994,0.48783153
C0S730,綠島,2025-06-05,22.6672,121.47533,0.87334657
C0S740,池上,2025-06-05,23.119628,121.209469,0.16258495
C0S770,大溪山,2025-06-05,22.478475,120.943325,0.074195206
C0S790,金崙,2025-06-05,22.538122,120.966875,0.118613206
C0S810,東河,2025-06-05,22.972672,121.303986,0.24748856
C0S830,長濱,2025-06-05,23.286817,121.411975,0.14208555
C0S840,南田,2025-06-05,22.279725,120.889208,0.2667542
C0S890,關山,2025-06-05,23.0395,121.175017,0.25202844
C0S900,蘭嶼高中,2025-06-05,22.04909,121.51214,0.60823333
C0S910,蘭嶼燈塔,2025-06-05,22.081197,121.503117,0.7283836
C0S920,金峰嘉蘭,2025-06-05,22.594789,120.960825,0.10313431
C0S930,延平,2025-06-05,22.902581,121.084058,0.36139658
C0S940,石寧山,2025-06-05,23.223772,121.406639,0.23982729
C0S950,七塊厝,2025-06-05,22.954453,121.229922,0.45769897
C0S960,香蘭,2025-06-05,22.587569,120.993375,0.07935189
C0S970,加津林,2025-06-05,22.416211,120.926942,0.23979004
C0S990,山豬窟,2025-06-05,22.318619,120.857372,0.1561504
C0SA00,歷坵,2025-06-05,22.520969,120.89185,0.05971702
C0SA10,檳榔四格山,2025-06-05,22.810031,121.109308,0.2531173
C0SA30,都歷,2025-06-05,23.020333,121.323642,0.20643032
C0SA40,瑞和,2025-06-05,22.974361,121.156697,0.3264551
C0SA60,知本（水試所）,2025-06-05,22.702394,121.082761,0.08148758
C0SA80,土坂,2025-06-05,22.453108,120.887572,0.10627249
C0SA90,達仁林場,2025-06-05,22.264347,120.823972,0.37202618
C0SB10,美和,2025-06-05,22.682078,121.060236,0.08342001
C0SB20,富岡,2025-06-05,22.792467,121.192669,0.17813204
C0SB30,新蘭,2025-06-05,22.869214,121.223228,0.2120082
C0SB40,興隆,2025-06-05,22.913661,121.257469,0.22134544
C0SB50,叭嗡嗡,2025-06-05,23.047062,121.343223,0.14431596
C0SB60,白守蓮,2025-06-05,23.126769,121.401914,0.30027094
C0SB70,小港漁港,2025-06-05,23.158558,121.400431,0.29918882
C0SB80,長濱漁港,2025-06-05,23.313644,121.459994,0.23963581
C0T870,鯉魚潭,2025-06-05,23.935639,121.508944,0.47128794
C0T900,西林,2025-06-05,23.8119,121.441458,0.31413442
C0T960,光復,2025-06-05,23.660694,121.424964,0.4318801
C0T9A0,月眉山,2025-06-05,23.809928,121.539828,0.7798207
C0T9D0,和中,2025-06-05,24.26676,121.74103,0.12851508
C0T9E0,大坑,2025-06-05,23.880628,121.581981,0.33873063
C0T9F0,水璉,2025-06-05,23.797131,121.542514,0.29057527
C0T9I0,豐濱,2025-06-05,23.583897,121.514806,0.5884319
C0T9M0,靜浦,2025-06-05,23.455167,121.495028,0.46163362
C0T9N0,富里,2025-06-05,23.171639,121.249378,0.20473474
C0TA10,花蓮漁港,2025-06-05,23.995322,121.638331,0.2895253
C0TA20,加灣,2025-06-05,24.082025,121.608944,0.67337096
C0TA30,鹽寮,2025-06-05,23.845606,121.592664,0.28797162
C0U600,礁溪,2025-06-05,24.817539,121.765608,0.15491764
C0U650,玉蘭,2025-06-05,24.675286,121.587061,0.82970315
C0U750,龜山島,2025-06-05,24.841667,121.953133,0.9442526
C0U760,東澳,2025-06-05,24.52196,121.83318,0.2423865
C0U770,南澳,2025-06-05,24.44935,121.81022,0.61368245
C0U780,五結,2025-06-05,24.68637,121.79794,0.15261316
C0U860,頭城,2025-06-05,24.85323,121.8308,0.15588938
C0U870,大礁溪,2025-06-05,24.791042,121.675047,0.7287216
C0U880,北關,2025-06-05,24.9072,121.8734,0.24176131
C0U890,三星,2025-06-05,24.66812,121.65302,0.10475658
C0U900,內城,2025-06-05,24.71813,121.68766,0.14796057
C0U910,冬山,2025-06-05,24.63373,121.7937,0.12129802
C0U940,羅東,2025-06-05,24.68184,121.74934,0.15288268
C0U970,大福,2025-06-05,24.80064,121.81389,0.17784156
C0U990,員山,2025-06-05,24.74435,121.72247,0.15109845
C0UA00,土場,2025-06-05,24.576533,121.495333,0.8206233
C0UA80,大溪漁港,2025-06-05,24.941801,121.902955,0.4062811
C0UA90,石城,2025-06-05,24.980444,121.951214,0.40373108
C0UB00,淡江大學蘭陽校園,2025-06-05,24.823239,121.730383,0.8469277
C0UB10,蘇澳,2025-06-05,24.5969,121.8571,0.125603
C0UB20,壯圍,2025-06-05,24.7359,121.8163,0.1551881
C0V350,溪埔,2025-06-05,22.738578,120.446797,0.08706093
C0V360,內門,2025-06-05,22.975481,120.466769,0.0886895
C0V370,古亭坑,2025-06-05,22.893178,120.401947,0.07435735
C0V400,阿公店,2025-06-05,22.804194,120.355528,0.07350676
C0V440,鳳山,2025-06-05,22.646653,120.356122,0.17331147
C0V450,鳳森,2025-06-05,22.545064,120.392592,0.12594894
C0V490,新興,2025-06-05,22.627422,120.298803,0.14721492
C0V530,阿蓮,2025-06-05,22.883208,120.327508,0.086665146
C0V610,梓官,2025-06-05,22.760558,120.267211,0.10492334
C0V620,永安,2025-06-05,22.82315,120.236856,0.15610442
C0V630,茄萣,2025-06-05,22.906642,120.182608,0.2538433
C0V640,湖內,2025-06-05,22.887139,120.2445,0.167598
C0V650,彌陀,2025-06-05,22.783806,120.246361,0.14220853
C0V660,岡山,2025-06-05,22.797078,120.294958,0.14220853
C0V680,仁武,2025-06-05,22.701083,120.347722,0.15251875
C0V690,鼓山,2025-06-05,22.623325,120.275575,0.14721496
C0V700,三民,2025-06-05,22.645017,120.311233,0.17879537
C0V710,苓雅,2025-06-05,22.622742,120.330669,0.14050128
C0V720,林園,2025-06-05,22.507747,120.394511,0.14603457
C0V730,大寮,2025-06-05,22.605614,120.395717,0.14235741
C0V740,旗山,2025-06-05,22.888614,120.483597,0.062746115
C0V750,路竹,2025-06-05,22.854997,120.259439,0.17381036
C0V760,橋頭,2025-06-05,22.757806,120.30575,0.10492334
C0V770,大社,2025-06-05,22.730306,120.346639,0.09091455
C0V790,萬山,2025-06-05,22.905944,120.688056,0.72300494
C0V800,六龜,2025-06-05,22.997889,120.633583,0.13629201
C0V810,左營,2025-06-05,22.67491,120.28491,0.17879537
C0V820,小林,2025-06-05,23.148408,120.63325,0.33590052
C0V840,鳳鼻頭,2025-06-05,22.5083,120.3591,0.14048336
C0V850,蚵仔寮,2025-06-05,22.7256,120.2527,0.1027313
C0V860,南寮,2025-06-05,22.7616,120.2339,0.1027313
C0V870,文安,2025-06-05,22.8025,120.2164,0.13875908
C0V880,興達,2025-06-05,22.8778,120.2127,0.16193385
C0V890,前鎮,2025-06-05,22.5718,120.3117,0.14602631
C0V900,汕尾,2025-06-05,22.4782,120.4151,0.2732169
C0V910,大樹,2025-06-05,22.684645,120.432803,0.09642624
C0W200,湖西,2025-06-05,23.596314,119.67275,0.93832886
C0X050,東河,2025-06-05,23.296598,120.385608,0.087007485
C0X060,下營,2025-06-05,23.22695,120.256261,0.08660494
C0X080,佳里,2025-06-05,23.173039,120.145086,0.19079724
C0X100,臺南市北區,2025-06-05,23.010394,120.194228,0.18696265
C0X110,臺南市南區,2025-06-05,22.961189,120.188378,0.18879136
C0X120,麻豆,2025-06-05,23.183289,120.248611,0.076882
C0X130,官田,2025-06-05,23.193217,120.315422,0.06613839
C0X140,西港,2025-06-05,23.125608,120.203108,0.08659101
C0X150,安定,2025-06-05,23.102614,120.227839,0.08659101
C0X160,仁德,2025-06-05,22.968258,120.257689,0.19167724
C0X170,關廟,2025-06-05,22.963017,120.327797,0.1052696
C0X180,山上,2025-06-05,23.0757,120.363253,0.0851703
C0X190,安平,2025-06-05,22.993161,120.152181,0.18696265
C0X200,左鎮,2025-06-05,23.056758,120.408522,0.096810564
C0X210,白河,2025-06-05,23.347466,120.414427,0.11910526
C0X220,學甲,2025-06-05,23.230367,120.182187,0.18374074
C0X230,鹽水,2025-06-05,23.272621,120.247641,0.13911362
C0X240,關子嶺,2025-06-05,23.331169,120.508025,0.8206958
C0X250,新營,2025-06-05,23.310689,120.316681,0.078032985
C0X260,後壁,2025-06-05,23.366358,120.362326,0.10863959
C0X280,將軍,2025-06-05,23.214999,120.13577,0.18189454
C0X290,北門,2025-06-05,23.267772,120.125481,0.18189454
C0X300,鹿寮,2025-06-05,23.386047,120.477331,0.104213424
C0X320,柳營,2025-06-05,23.253328,120.375253,0.073605
C0Z020,明里,2025-06-05,23.208717,121.262342,0.17923236
C0Z061,玉里,2025-06-05,23.3215,121.339656,0.42325413
C0Z070,舞鶴,2025-06-05,23.46811,121.37407,0.9122175
C0Z080,富源,2025-06-05,23.587642,121.378225,0.9050119
C0Z100,東華,2025-06-05,23.89525,121.549833,0.29126135
C0Z150,吉安光華,2025-06-05,23.930925,121.595153,0.34381354
C0Z160,鳳林,2025-06-05,23.746114,121.453411,0.36688408
C0Z170,卓溪,2025-06-05,23.3443,121.3029,0.8860776
C0Z180,新城,2025-06-05,24.040486,121.604878,0.2919554
C0Z190,富世,2025-06-05,24.14743,121.6297,0.10203621
C0Z200,萬榮,2025-06-05,23.709219,121.420106,0.41269708
C0Z210,瑞穗,2025-06-05,23.5239,121.39021,0.56144357
C0Z230,和平,2025-06-05,24.30717,121.77007,0.12700437
C0Z270,蕃薯寮,2025-06-05,23.73835,121.540108,0.4007368
C0Z280,德武,2025-06-05,23.47426,121.41071,0.77974397
C0Z300,東里,2025-06-05,23.26853,121.30547,0.2237131
C0Z310,清水斷崖,2025-06-05,24.218294,121.689142,0.079538874
C0Z330,安通山,2025-06-05,23.290728,121.348528,0.30461758
C2A540,四堵,2025-06-05,24.8926,121.745736,0.74426377
C2A560,福山,2025-06-05,24.776203,121.502811,0.87157947
C2A650,火燒寮,2025-06-05,25.002719,121.742892,0.9278005
C2A660,瑞芳,2025-06-05,25.113169,121.801147,0.31571755
C2A880,福隆,2025-06-05,25.017842,121.942083,0.39427564
C2A920,富貴角,2025-06-05,25.263783,121.565258,0.98270917
C2C410,中央大學,2025-06-05,24.967652,121.185165,0.94091815
C2D720,關西工作站,2025-06-05,24.757275,121.184792,0.9599147
C2D730,寶山農場,2025-06-05,24.732444,120.976153,0.90334547
C2E520,大湖,2025-06-05,24.414939,120.870872,0.99165535
C2E540,龍溪,2025-06-05,24.606489,120.783933,0.9441331
C2E970,八甲,2025-06-05,24.535811,120.795983,0.991851
C2F000,大肚,2025-06-05,24.15295,120.572117,0.98827195
C2F930,大甲,2025-06-05,24.347667,120.640403,0.96748877
C2F9A0,中竹林,2025-06-05,24.103556,120.751061,0.6148967
C2G640,鹿港,2025-06-05,24.0753,120.430481,0.40006015
C2G840,北斗,2025-06-05,23.877586,120.514222,0.22398472
C2G870,芳苑,2025-06-05,23.922303,120.320025,0.39035574
C2G980,田頭村,2025-06-05,23.8263,120.444175,0.22116876
C2G9A0,畜試所彰化,2025-06-05,23.86045,120.557964,0.19414558
C2H950,中寮,2025-06-05,23.884447,120.766406,0.13222441
C2H9F0,柑林,2025-06-05,24.018658,120.847072,0.25505903
C2H9H0,苗改南投蜂場,2025-06-05,23.852589,120.693481,0.29839155
C2H9T0,名間竹圍,2025-06-05,23.859914,120.637572,0.446173
C2H9U0,鳳鵬,2025-06-05,23.763919,120.788061,0.7710194
C2K620,馬光農場,2025-06-05,23.721453,120.378864,0.30123368
C2K630,荷苞,2025-06-05,23.657717,120.595144,0.5888979
C2M410,馬頭山,2025-06-05,23.324361,120.582017,0.26597145
C2M910,嘉義大學,2025-06-05,23.471325,120.485903,0.17291832
C2M920,朴子農改,2025-06-05,23.469889,120.259383,0.33559084
C2N160,西拉雅風管處,2025-06-05,23.189481,120.335297,0.0665969
C2O810,曾文,2025-06-05,23.219681,120.497328,0.09137647
C2O930,玉井,2025-06-05,23.126042,120.46055,0.085170366
C2O950,安南,2025-06-05,23.076694,120.144861,0.22183147
C2R170,屏東,2025-06-05,22.66027,120.49403,0.10726471
C2R970,屏科大,2025-06-05,22.648275,120.619247,0.18955433
C2V250,甲仙,2025-06-05,23.080106,120.591758,0.13345917
C2V260,月眉,2025-06-05,22.971003,120.539853,0.078028634
C2V310,美濃,2025-06-05,22.898792,120.51907,0.06225814
C2W230,畜試所澎湖,2025-06-05,23.628342,119.513206,0.94076174
CAG100,王功漁港,2025-06-05,23.96824,120.32586,0.47812554
CAH030,茶改場竹圍站,2025-06-05,23.860083,120.637528,0.446173
CAJ050,海口故事園區,2025-06-05,23.57543,120.14121,0.3075549
CAL110,布袋國中,2025-06-05,23.35893,120.18026,0.3217291
CAN130,水試所海水繁養殖中心,2025-06-05,23.120802,120.07968,0.21318962
CAN140,六官養殖協會,2025-06-05,23.22881,120.29962,0.08660494
CAQ030,崎峰國小,2025-06-05,22.42565,120.49521,0.2732169
E2K600,四湖植物園,2025-06-05,23.676986,120.163433,0.2699868
E2P980,林試六龜中心,2025-06-05,22.991703,120.645722,0.1498687
E2S960,林試太麻里2,2025-06-05,22.598,120.99775,0.07714951
E2S980,林試太麻里1,2025-06-05,22.598922,120.980044,0.10260294
G2AI50,關渡,2025-06-05,25.11575,121.492,0.7946423
G2F820,農試所(霧峰),2025-06-05,24.031261,120.688133,0.36578384
G2L020,農試嘉義分所,2025-06-05,23.485028,120.473806,0.17981435
G2M350,農試溪口農場,2025-06-05,23.58565,120.408111,0.20768686
G2P820,農試鳳山分所,2025-06-05,22.646611,120.356083,0.17331147
K2E360,苗栗農改場,2025-06-05,24.495722,120.829111,0.9808943
K2E710,苗改生物防治研究中心,2025-06-05,24.422861,120.871833,0.9888945
K2F750,種苗改良場,2025-06-05,24.225972,120.800917,0.97978526
U2HA50,臺大竹山,2025-06-05,23.756972,120.681556,0.51847506
V2C250,八德合作社,2025-06-05,24.93775,121.266389,0.94206107
V2C260,八德蔬果,2025-06-05,24.978508,121.281819,0.88427097
V2K610,大庄合作社,2025-06-05,23.8068,120.367939,0.30216724
V2K620,麥寮合作社,2025-06-05,23.753836,120.294783,0.22581741
