站號,站名,日期,lat,lon,BlastGRU-TW
C0R710,龍磐,2025-11-07,21.931672,120.838942,0.013594601
C1F9D1,白毛台,2025-11-07,24.158325,120.886933,0.093416855
C0G940,竹塘,2025-11-07,23.848253,120.386764,0.16221574
467590,恆春,2025-11-07,22.003897,120.746339,0.17506301
C1O850,環湖,2025-11-07,23.148617,120.418633,0.63239616
C0U710,太平山,2025-11-07,24.505486,121.525656,0.28532124
C0E820,獅潭,2025-11-07,24.539133,120.920042,0.9818593
C0V880,興達,2025-11-07,22.8778,120.2127,0.8091418
C0S890,關山,2025-11-07,23.0395,121.175017,0.67106074
C0SB30,新蘭,2025-11-07,22.869214,121.223228,0.7973215
C2R970,屏科大,2025-11-07,22.648275,120.619247,0.5831828
C1Z130,銅門,2025-11-07,23.965694,121.492842,0.7401474
C0AD40,土城,2025-11-07,24.973208,121.445169,0.9975774
CAN140,六官養殖協會,2025-11-07,23.22881,120.29962,0.27019203
C0X180,山上,2025-11-07,23.0757,120.363253,0.4621192
C0F9Z0,雪山東峰,2025-11-07,24.388792,121.268675,0.00026935717
C1M480,獨立山,2025-11-07,23.537022,120.607797,0.529707
C0X220,學甲,2025-11-07,23.230367,120.182187,0.18833199
467650,日月潭,2025-11-07,23.881325,120.90805,0.6165644
C0K600,箔子寮,2025-11-07,23.6197,120.14,0.49224278
C0G830,埤頭,2025-11-07,23.866003,120.452806,0.27994257
C0S950,七塊厝,2025-11-07,22.954453,121.229922,0.50310177
467110,金門,2025-11-07,24.407306,118.289281,0.02251598
C0AH80,深坑,2025-11-07,25.002703,121.628328,0.99759024
C0A970,三貂角,2025-11-07,25.007606,122.002058,0.83925164
C2D730,寶山農場,2025-11-07,24.732444,120.976153,0.98722625
C0K430,褒忠,2025-11-07,23.690938,120.303634,0.28703386
467480,嘉義,2025-11-07,23.495925,120.432906,0.7060755
C0V400,阿公店,2025-11-07,22.804194,120.355528,0.67905056
C0E960,觀霧分站,2025-11-07,24.505781,121.113921,0.005170136
467550,玉山,2025-11-07,23.48718,120.95943,0.00015044586
C0R440,大漢山,2025-11-07,22.405264,120.753181,0.0017777889
C0K280,四湖,2025-11-07,23.630414,120.227125,0.5286762
C1F9B1,桐林,2025-11-07,24.066172,120.735194,0.56363523
C2H9U0,鳳鵬,2025-11-07,23.763919,120.788061,0.15939155
C0K390,土庫,2025-11-07,23.679029,120.395574,0.2128786
C1I450,望鄉山,2025-11-07,23.594153,120.944286,0.00021482873
C0E910,海埔,2025-11-07,24.648767,120.772435,0.96533644
B2E890,畜試北區分所,2025-11-07,24.527806,120.770972,0.9838587
C0R750,四林格山,2025-11-07,22.076989,120.802439,0.9105472
C0F0C0,中坑,2025-11-07,24.248517,120.903319,0.6775132
C1I121,大鞍,2025-11-07,23.678381,120.760017,0.030481339
72U480,花改蘭陽分場,2025-11-07,24.686306,121.716583,0.807856
C0A770,科教館,2025-11-07,25.096356,121.516507,0.9957012
C0AJ60,六塊厝,2025-11-07,25.24,121.4481,0.83052415
C0R620,墾雷,2025-11-07,21.900836,120.855269,0.004011682
467420,永康,2025-11-07,23.038386,120.2367,0.7193656
C0I410,名間,2025-11-07,23.837053,120.701447,0.33124018
A2C560,農工中心,2025-11-07,24.985917,121.239833,0.98018026
C0V740,旗山,2025-11-07,22.888614,120.483597,0.40004137
C0Z061,玉里,2025-11-07,23.3215,121.339656,0.88754016
C0S840,南田,2025-11-07,22.279725,120.889208,0.028717205
C1I470,杉林溪,2025-11-07,23.639517,120.786444,0.00754862
C1X040,東原,2025-11-07,23.291597,120.463822,0.3084881
C0R660,枋寮,2025-11-07,22.367722,120.590647,0.14745349
C1R120,上德文,2025-11-07,22.763272,120.704442,0.35947853
C0K450,大埤,2025-11-07,23.646074,120.431537,0.46465686
C0UA00,土場,2025-11-07,24.576533,121.495333,0.9776737
467080,宜蘭,2025-11-07,24.763975,121.756528,0.9187039
C0N030,四草,2025-11-07,23.0235,120.1116,0.22657959
467410,臺南,2025-11-07,22.99328,120.20492,0.22063637
C0V650,彌陀,2025-11-07,22.783806,120.246361,0.65177554
C0D660,新竹市東區,2025-11-07,24.798681,120.986942,0.9300964
82S580,茶改東部分場,2025-11-07,22.907694,121.130139,0.7944395
C0SB40,興隆,2025-11-07,22.913661,121.257469,0.81401306
467050,新屋,2025-11-07,25.006725,121.047492,0.9637637
C0C710,大溪永福,2025-11-07,24.892936,121.324975,0.9900893
C0FA20,溫寮,2025-11-07,24.372177,120.583125,0.83378065
C0V640,湖內,2025-11-07,22.887139,120.2445,0.81740975
C0R910,下寮,2025-11-07,22.3929,120.5548,0.14780073
C0Z020,明里,2025-11-07,23.208717,121.262342,0.8678915
C0M770,嘉義梅山,2025-11-07,23.585398,120.555587,0.42551333
C0C660,楊梅,2025-11-07,24.912375,121.143047,0.9760794
C1E511,新開,2025-11-07,24.347703,120.827019,0.9564773
G2F820,農試所(霧峰),2025-11-07,24.031261,120.688133,0.62603253
C1I070,和社,2025-11-07,23.591131,120.888861,0.659701
C0TA80,立霧山,2025-11-07,24.183258,121.641899,0.27260387
C2F000,大肚,2025-11-07,24.15295,120.572117,0.5250917
C1S850,豐南,2025-11-07,23.122139,121.262389,0.62708366
C2A920,富貴角,2025-11-07,25.263783,121.565258,0.76390964
CAH030,茶改場竹圍站,2025-11-07,23.860083,120.637528,0.28264627
C0T960,光復,2025-11-07,23.660694,121.424964,0.59382176
C0F9M0,豐原,2025-11-07,24.254322,120.720692,0.92060643
C0R720,旭海,2025-11-07,22.205403,120.887614,0.48341656
C0V710,苓雅,2025-11-07,22.622742,120.330669,0.9258279
C0C740,觀音工業區,2025-11-07,25.064764,121.114856,0.9295389
CAC040,拉拉山,2025-11-07,24.699317,121.427133,0.9725576
C0V790,萬山,2025-11-07,22.905944,120.688056,0.27617922
U2HA30,臺大和社,2025-11-07,23.590856,120.888864,0.659701
C2H9K0,屯原,2025-11-07,24.067969,121.209389,0.0020982928
C0AJ90,澳底,2025-11-07,25.0552,121.9253,0.9146142
C0Z100,東華,2025-11-07,23.89525,121.549833,0.8837345
C0G970,三豐,2025-11-07,23.882,120.2895,0.69895744
V2K610,大庄合作社,2025-11-07,23.8068,120.367939,0.35241604
C0V900,汕尾,2025-11-07,22.4782,120.4151,0.27106914
C1R630,龍泉,2025-11-07,22.66701,120.59091,0.5418854
C1AC50,關渡,2025-11-07,25.133486,121.469331,0.9789751
C0C800,四稜,2025-11-07,24.64733,121.4293,0.9252862
C0F9I0,神岡,2025-11-07,24.272481,120.658314,0.93162304
C0K460,斗南,2025-11-07,23.678734,120.478359,0.4655355
C2O810,曾文,2025-11-07,23.219681,120.497328,0.32007256
467280,後龍,2025-11-07,24.648563,120.831834,0.96553665
C1F9J1,清水林,2025-11-07,24.071242,120.820419,0.10946649
C2A650,火燒寮,2025-11-07,25.002719,121.742892,0.8570172
466930,竹子湖,2025-11-07,25.162078,121.544547,0.8784613
C1I220,樟湖,2025-11-07,23.905333,120.846983,0.15569898
C0I390,仁愛,2025-11-07,24.022122,121.132206,0.6791062
C0Z300,東里,2025-11-07,23.26853,121.30547,0.8856844
C1V590,新發,2025-11-07,23.057019,120.646064,0.3931141
C0K510,水林,2025-11-07,23.572924,120.24597,0.33515695
72S590,東改賓朗果園,2025-11-07,22.813889,121.071278,0.52654535
82A750,茶改北部分場,2025-11-07,24.955778,121.631222,0.9815495
C1A750,石碇服務區,2025-11-07,25.00872,121.646242,0.99591255
C0X300,鹿寮,2025-11-07,23.386047,120.477331,0.5054987
G2AI50,關渡,2025-11-07,25.11575,121.492,0.9795763
C0K590,雲林東勢,2025-11-07,23.674192,120.255721,0.32182047
C0A570,桶後,2025-11-07,24.848222,121.597992,0.96083456
C1S800,華源,2025-11-07,22.657883,121.02325,0.87338305
C0G720,溪州,2025-11-07,23.851589,120.499093,0.2760055
C1V160,達卡努瓦,2025-11-07,23.279811,120.705319,0.12923388
C2M410,馬頭山,2025-11-07,23.324361,120.582017,0.35439673
C0V850,蚵仔寮,2025-11-07,22.7256,120.2527,0.3856762
C0S740,池上,2025-11-07,23.119628,121.209469,0.86870086
C1V390,尖山,2025-11-07,22.813153,120.367789,0.7274178
C0AH70,松山,2025-11-07,25.04871,121.55042,0.9957061
C0N010,鯤鯓國小,2025-11-07,23.1879,120.0889,0.14818132
C0R550,新埤,2025-11-07,22.467947,120.582894,0.26936138
C0SA60,知本（水試所）,2025-11-07,22.702394,121.082761,0.5437018
C0T9I0,豐濱,2025-11-07,23.583897,121.514806,0.57004404
C0UB00,淡江大學蘭陽校園,2025-11-07,24.823239,121.730383,0.95511186
C0W240,九宮,2025-11-07,24.423753,118.240186,0.021980092
C0T9N0,富里,2025-11-07,23.171639,121.249378,0.7832689
U2HA50,臺大竹山,2025-11-07,23.756972,120.681556,0.5363867
C0V840,鳳鼻頭,2025-11-07,22.5083,120.3591,0.34166777
C0X140,西港,2025-11-07,23.125608,120.203108,0.15133494
72D080,桃改五峰分場,2025-11-07,24.612194,121.157167,0.9785814
C2H9P0,伊拿谷,2025-11-07,23.963211,121.088264,0.34566265
C2H9F0,柑林,2025-11-07,24.018658,120.847072,0.24182047
C0TA20,加灣,2025-11-07,24.082025,121.608944,0.8205522
C0V530,阿蓮,2025-11-07,22.883208,120.327508,0.69464356
C0FB30,八仙山苗圃,2025-11-07,24.192719,121.001366,0.704329
C1O880,關山,2025-11-07,23.173397,120.594092,0.71303797
C0E791,卓蘭,2025-11-07,24.3126,120.8244,0.9001704
C1I030,武界,2025-11-07,23.913225,121.052483,0.31835932
C0R520,崁頂,2025-11-07,22.514781,120.506914,0.34578487
C0R341,牡丹,2025-11-07,22.130036,120.792639,0.888499
C0R930,萬丹,2025-11-07,22.5885,120.4851,0.23674457
C0S760,紅石,2025-11-07,23.069131,121.126219,0.003203342
C2C410,中央大學,2025-11-07,24.967652,121.185165,0.97944695
C1M610,石磐龍,2025-11-07,23.496606,120.663506,0.4885951
C0C790,東眼山,2025-11-07,24.8284,121.40888,0.9974964
C0UA10,鴛鴦湖,2025-11-07,24.590269,121.412228,0.5900847
V2C260,八德蔬果,2025-11-07,24.978508,121.281819,0.99501926
C0R800,丹路,2025-11-07,22.204481,120.750989,0.2668185
C0G920,永靖,2025-11-07,23.924703,120.547533,0.4387485
C2M950,太和,2025-11-07,23.538372,120.702961,0.18609816
C1A630,下盆,2025-11-07,24.771003,121.538622,0.77080154
B2N890,畜產試驗所,2025-11-07,23.058972,120.336406,0.3945877
C0UA30,白嶺,2025-11-07,24.527819,121.519031,0.87620187
C1V580,溪南(特生中心),2025-11-07,23.084972,120.788475,0.023283647
C1T970,大農,2025-11-07,23.615233,121.413331,0.5564669
C0R650,竹田,2025-11-07,22.58486,120.54344,0.33657068
C1H900,清流,2025-11-07,24.080775,120.962997,0.33637613
C1C510,水尾,2025-11-07,24.940081,121.087161,0.9410361
C0F9X0,大雅(中科園區),2025-11-07,24.21528,120.62445,0.8459298
C0SB60,白守蓮,2025-11-07,23.126769,121.401914,0.038480904
C0O970,虎頭埤,2025-11-07,23.021375,120.347878,0.7652309
C0C730,中大臨海站,2025-11-07,24.966126,121.008581,0.96450645
C0X250,新營,2025-11-07,23.310689,120.316681,0.9048815
C0V700,三民,2025-11-07,22.645017,120.311233,0.70606726
C0U870,大礁溪,2025-11-07,24.791042,121.675047,0.85464233
C0E870,高鐵苗栗,2025-11-07,24.60725,120.826094,0.96915674
A2K570,古坑花卉中心,2025-11-07,23.63353,120.55239,0.47254452
C0TA30,鹽寮,2025-11-07,23.845606,121.592664,0.8789992
C0M860,新美,2025-11-07,23.338017,120.683169,0.19512263
C1E701,八卦,2025-11-07,24.491756,120.927619,0.8229108
C0I420,國姓,2025-11-07,24.037803,120.855072,0.20969345
C2D720,關西工作站,2025-11-07,24.757275,121.184792,0.94666404
C0S960,香蘭,2025-11-07,22.587569,120.993375,0.27749765
467620,蘭嶼,2025-11-07,22.0369,121.55843,0.80968773
C0R260,春日,2025-11-07,22.370361,120.628306,0.15356289
72G600,臺中農改場,2025-11-07,24.003028,120.534389,0.640991
C0Z210,瑞穗,2025-11-07,23.5239,121.39021,0.60361874
C0M820,達邦,2025-11-07,23.453994,120.749517,0.44423312
C0V860,南寮,2025-11-07,22.7616,120.2339,0.38872176
C0G740,大城,2025-11-07,23.852487,120.320935,0.70885515
C0R920,塭仔,2025-11-07,22.4169,120.5197,0.14470163
C0R470,高樹,2025-11-07,22.826389,120.600806,0.2889127
C0R680,佳樂水,2025-11-07,21.993578,120.861633,0.029518774
C1O870,大棟山,2025-11-07,23.31157,120.52226,0.42482534
C0D360,梅花,2025-11-07,24.678347,121.208558,0.9953901
C0Z190,富世,2025-11-07,24.14743,121.6297,0.8324499
C0AI10,屈尺,2025-11-07,24.92184,121.54475,0.996246
B2U990,畜試東區分所,2025-11-07,24.669039,121.832561,0.40170437
C0SB80,長濱漁港,2025-11-07,23.313644,121.459994,0.8473286
C0TA50,和仁,2025-11-07,24.241394,121.712472,0.72660506
C0V910,大樹,2025-11-07,22.684645,120.432803,0.8290541
C1R610,西大武山,2025-11-07,22.617719,120.7322,0.0021756536
C0G900,線西,2025-11-07,24.143358,120.443536,0.779035
C0M700,竹崎,2025-11-07,23.526178,120.555508,0.5091565
C2E880,三義,2025-11-07,24.405478,120.749819,0.9216907
C0C720,竹圍,2025-11-07,25.112692,121.239824,0.97950655
C0F9P0,清水,2025-11-07,24.312297,120.562242,0.8077941
C0Z150,吉安光華,2025-11-07,23.930925,121.595153,0.62244666
C0FA80,小雪山天池,2025-11-07,24.28025,121.02627,0.0006363534
467300,東吉島,2025-11-07,23.25727,119.66762,0.7870568
C1D640,外坪(五指山),2025-11-07,24.644447,121.090961,0.9939341
C0F9O0,潭子,2025-11-07,24.213106,120.703933,0.8546469
C2H9R0,卓社,2025-11-07,23.887894,121.000086,0.20268697
72T250,花蓮農改場,2025-11-07,23.975222,121.563889,0.5973086
C0E780,銅鑼,2025-11-07,24.489681,120.790853,0.9732213
C1T950,太安,2025-11-07,23.666719,121.370128,0.2858021
C0E830,苑裡,2025-11-07,24.439714,120.653053,0.91625696
467270,田中,2025-11-07,23.873803,120.581286,0.5243947
C0SA10,檳榔四格山,2025-11-07,22.810031,121.109308,0.42595613
C1T830,布洛灣,2025-11-07,24.17184,121.57127,0.3556665
C0F970,大坑,2025-11-07,24.173142,120.722289,0.51984274
C1U920,思源,2025-11-07,24.393125,121.347214,0.0027147247
C0A931,三和,2025-11-07,25.233153,121.595236,0.92055476
C0I010,廬山,2025-11-07,24.033311,121.181808,0.056742433
C2M940,日野賀,2025-11-07,23.434056,120.727169,0.21159275
C0R860,鼻頭,2025-11-07,22.1043,120.8979,0.8280317
C0UB20,壯圍,2025-11-07,24.7359,121.8163,0.72220033
C0R790,九棚,2025-11-07,22.14195,120.889281,0.82660913
C0W110,東莒,2025-11-07,25.9652,119.98069,0.17272444
C1U930,粉鳥林,2025-11-07,24.497088,121.842479,0.9299038
C1I211,蘆竹湳,2025-11-07,23.934019,120.811994,0.73189616
C0S830,長濱,2025-11-07,23.286817,121.411975,0.81921166
C1F9F1,伯公龍,2025-11-07,24.272392,120.849047,0.18471766
C0UB90,太平山莊,2025-11-07,24.494171,121.536209,0.2710033
C0E810,西湖,2025-11-07,24.562947,120.7485,0.7996662
C1I440,新高口,2025-11-07,23.478744,120.878939,0.0004070447
C0O840,王爺宮,2025-11-07,23.222064,120.40085,0.36000273
C0T9G0,鳳林山,2025-11-07,23.735269,121.420131,0.739371
C0X080,佳里,2025-11-07,23.173039,120.145086,0.14873417
C0FB70,大甲溪埔,2025-11-07,24.370625,120.620067,0.8242874
C0Z310,清水斷崖,2025-11-07,24.218294,121.689142,0.6353941
C0M680,太保,2025-11-07,23.455062,120.331455,0.84577996
C1S820,金峰,2025-11-07,22.590969,120.933236,0.45222488
C0AD10,八里,2025-11-07,25.150211,121.403947,0.979458
C2K240,草嶺,2025-11-07,23.59555,120.693461,0.48096007
C1SA70,都蘭,2025-11-07,22.87794,121.226881,0.7975173
C0K440,二崙,2025-11-07,23.772797,120.408944,0.27898303
C1A760,坪林交控,2025-11-07,24.94284,121.713442,0.8828678
C0F9N0,大里,2025-11-07,24.092464,120.701378,0.41479623
C0SA90,達仁林場,2025-11-07,22.264347,120.823972,0.79714763
C1R290,石門山,2025-11-07,22.112611,120.756597,0.89279413
42HA10,萬大發電廠,2025-11-07,23.978875,121.139639,0.33596185
C0R890,山海,2025-11-07,21.9878,120.7091,0.03006984
C0T9A0,月眉山,2025-11-07,23.809928,121.539828,0.6151179
C0AC70,信義,2025-11-07,25.037822,121.564597,0.99569356
C0K560,棋山,2025-11-07,23.68645,120.603417,0.40487245
C2FB50,出雲,2025-11-07,24.206469,120.902794,0.6019634
C1Z240,中平林道,2025-11-07,23.42115,121.26763,0.18864872
U2H480,溪頭,2025-11-07,23.670306,120.798194,0.28492454
C0M880,好美里,2025-11-07,23.3364,120.138,0.52568334
C0T9E0,大坑,2025-11-07,23.880628,121.581981,0.6217913
C0K530,臺西,2025-11-07,23.701547,120.197559,0.4700025
C1E900,國一N128K,2025-11-07,24.560997,120.844186,0.9828636
C0AJ50,水湳洞,2025-11-07,25.123695,121.862238,0.96504647
C0AI20,白沙灣,2025-11-07,25.283128,121.519058,0.8346786
C2V310,美濃,2025-11-07,22.898792,120.51907,0.44358906
C0A860,大坪,2025-11-07,25.165914,121.632969,0.93798524
C1U850,觀音海岸,2025-11-07,24.38319,121.77856,0.40055472
C2K610,草嶺石壁,2025-11-07,23.602469,120.707731,0.45480642
C0U950,鶯子嶺,2025-11-07,24.89754,121.79244,0.93871224
C0O900,善化,2025-11-07,23.112883,120.297219,0.33396506
C0K550,蔦松,2025-11-07,23.514319,120.229736,0.37117556
E2P980,林試六龜中心,2025-11-07,22.991703,120.645722,0.47863716
C0E590,通霄,2025-11-07,24.471892,120.704622,0.7484844
C1I310,西巒,2025-11-07,23.754486,120.883956,0.35618836
C0A550,泰平,2025-11-07,24.971197,121.823711,0.960729
C0I360,水里,2025-11-07,23.812553,120.849792,0.2226468
C0R830,高士,2025-11-07,22.121825,120.836781,0.8946596
C1I101,溪頭,2025-11-07,23.661789,120.807647,0.008608689
C0AJ20,野柳,2025-11-07,25.20703,121.690021,0.9430575
C0B060,暖暖,2025-11-07,25.0957,121.7403,0.9908384
C1H920,長豐,2025-11-07,24.102039,120.879897,0.8076377
C0V360,內門,2025-11-07,22.975481,120.466769,0.5638038
C0R850,林邊,2025-11-07,22.4634,120.5339,0.27019498
C0E930,龍鳳,2025-11-07,24.700034,120.859125,0.94905436
C0U910,冬山,2025-11-07,24.63373,121.7937,0.31471667
C1E721,泰安,2025-11-07,24.489017,120.968036,0.46327758
82H320,茶改中部分場,2025-11-07,23.875611,120.913583,0.65455204
C0M750,布袋,2025-11-07,23.380878,120.167789,0.9650309
C1S860,利嘉,2025-11-07,22.809417,121.050528,0.9375588
E2S980,林試太麻里1,2025-11-07,22.598922,120.980044,0.36204684
C0X170,關廟,2025-11-07,22.963017,120.327797,0.72588354
C0V720,林園,2025-11-07,22.507747,120.394511,0.24017727
C1I510,線浸林道,2025-11-07,23.761508,120.832956,0.11700413
C0D690,外湖,2025-11-07,24.917735,120.968711,0.95418507
C0C750,新興坑尾,2025-11-07,25.0061,121.0971,0.9621326
B2Q810,畜試南區分所,2025-11-07,21.945583,120.802167,0.038012885
C0S790,金崙,2025-11-07,22.538122,120.966875,0.22213204
C0AH90,福山植物園,2025-11-07,24.760717,121.58135,0.974124
C0I540,奇萊稜線,2025-11-07,24.109231,121.326456,0.00030700842
C0M850,表湖,2025-11-07,23.24186,120.64166,0.56255406
C0S770,大溪山,2025-11-07,22.478475,120.943325,0.20813008
C0AG80,中和,2025-11-07,24.991622,121.491792,0.99757427
C0T790,大禹嶺,2025-11-07,24.186117,121.316086,0.00039209097
C0T9B0,水源,2025-11-07,23.991861,121.537169,0.5866093
C0R840,牡丹池山,2025-11-07,22.168389,120.841225,0.95794153
C1I131,桶頭,2025-11-07,23.641944,120.654117,0.4381307
CAL110,布袋國中,2025-11-07,23.35893,120.18026,0.9666751
467571,新竹,2025-11-07,24.827853,121.014219,0.95546997
C0Z290,赤柯山,2025-11-07,23.36893,121.38293,0.3375094
C0X280,將軍,2025-11-07,23.214999,120.13577,0.18805705
C0S690,太麻里,2025-11-07,22.60902,120.98533,0.30952084
C0U880,北關,2025-11-07,24.9072,121.8734,0.9613589
C0G810,埔心,2025-11-07,23.947633,120.525456,0.44881442
C0U970,大福,2025-11-07,24.80064,121.81389,0.91971
C2H9N0,仁愛東眼,2025-11-07,24.026875,121.1205,0.10319258
C1E670,南礦,2025-11-07,24.538278,121.002836,0.90671086
C0M520,東後寮,2025-11-07,23.369908,120.248065,0.95937467
C1E461,松安,2025-11-07,24.397972,120.986022,0.41840154
C2N160,西拉雅風管處,2025-11-07,23.189481,120.335297,0.38693348
C2M970,碧湖,2025-11-07,23.568632,120.624165,0.5751126
C0A640,石碇,2025-11-07,24.993969,121.662917,0.9928811
E2S960,林試太麻里2,2025-11-07,22.598,120.99775,0.24818407
C0F9Y0,桃山,2025-11-07,24.432739,121.303808,0.0006068569
C1I020,萬大,2025-11-07,23.979817,121.132261,0.53535384
C0U940,羅東,2025-11-07,24.68184,121.74934,0.72259295
C0M650,朴子,2025-11-07,23.43463,120.23902,0.8942168
C1I500,大尖山,2025-11-07,23.858572,120.994889,0.0015486135
C0FB40,中橫21.6k,2025-11-07,24.2499,121.1455,0.40444666
C0G820,田尾,2025-11-07,23.901669,120.509389,0.44510853
E2K600,四湖植物園,2025-11-07,23.676986,120.163433,0.5660247
C0S730,綠島,2025-11-07,22.6672,121.47533,0.943491
12Q970,東港工作站,2025-11-07,22.479997,120.466058,0.31246844
C0E430,南庄,2025-11-07,24.601775,121.000214,0.9813722
C1TA00,太魯閣,2025-11-07,24.15773,121.6236,0.82396346
466920,臺北,2025-11-07,25.037658,121.514853,0.9957061
C0R600,舊泰武,2025-11-07,22.588194,120.664944,0.80069834
C1I260,北坑,2025-11-07,23.9246,121.006903,0.7232526
466910,鞍部,2025-11-07,25.182586,121.529731,0.43897942
C1I230,九份二山,2025-11-07,23.961944,120.845,0.40595943
C2A660,瑞芳,2025-11-07,25.113169,121.801147,0.9461286
C0R270,琉球嶼,2025-11-07,22.332244,120.362236,0.9030409
C1T990,高寮,2025-11-07,23.394239,121.356808,0.865824
C0G620,芬園,2025-11-07,24.015678,120.6213,0.4957407
C1Z140,荖溪,2025-11-07,23.890575,121.45964,0.4293633
C1I201,中心崙,2025-11-07,23.728722,120.712097,0.13232286
C1I400,凌霄,2025-11-07,24.018778,121.004456,0.11887486
C1M640,十字,2025-11-07,23.492153,120.753683,0.089809634
G2P820,農試鳳山分所,2025-11-07,22.646611,120.356083,0.73811
C0Z270,蕃薯寮,2025-11-07,23.73835,121.540108,0.7728279
C0FB10,出雲山苗圃,2025-11-07,24.23105,120.90475,0.6772371
C0F9Q0,外埔,2025-11-07,24.347817,120.705686,0.9630889
C0K580,高鐵雲林,2025-11-07,23.737456,120.417944,0.24218412
C2I090,鳳凰,2025-11-07,23.728081,120.787347,0.5602138
C0U990,員山,2025-11-07,24.74435,121.72247,0.7212366
C0V770,大社,2025-11-07,22.730306,120.346639,0.38548622
C0X120,麻豆,2025-11-07,23.183289,120.248611,0.1738881
C0C670,龍潭,2025-11-07,24.870056,121.221389,0.987929
C0D680,香山濕地,2025-11-07,24.783581,120.914988,0.9359097
C0S980,勝林山,2025-11-07,22.430439,120.8938,0.319962
C0V730,大寮,2025-11-07,22.605614,120.395717,0.8991592
C0R570,麟洛,2025-11-07,22.65078,120.52719,0.21187888
C2M930,石卓,2025-11-07,23.478744,120.702264,0.035911042
C0G9B0,和美,2025-11-07,24.105169,120.492131,0.6211992
CAG100,王功漁港,2025-11-07,23.96824,120.32586,0.79301256
C0X290,北門,2025-11-07,23.267772,120.125481,0.18943848
C2F930,大甲,2025-11-07,24.347667,120.640403,0.80720496
C0D650,湖口,2025-11-07,24.904794,121.043628,0.9425659
C0E420,竹南,2025-11-07,24.708978,120.888897,0.94802725
C0U780,五結,2025-11-07,24.68637,121.79794,0.72181344
C1I250,鯉潭,2025-11-07,23.961922,120.991131,0.7906679
C0R130,阿禮,2025-11-07,22.742908,120.743678,0.18331942
C0X100,臺南市北區,2025-11-07,23.010394,120.194228,0.22098336
C0S920,金峰嘉蘭,2025-11-07,22.594789,120.960825,0.3608136
C0V490,新興,2025-11-07,22.627422,120.298803,0.92609894
C0F9K0,大安,2025-11-07,24.345061,120.588025,0.8264254
467290,古坑,2025-11-07,23.633639,120.551889,0.4111062
C2E970,八甲,2025-11-07,24.535811,120.795983,0.9750605
C0V440,鳳山,2025-11-07,22.646653,120.356122,0.7224402
C1T940,大觀,2025-11-07,23.714206,121.373133,0.64367986
C0E740,造橋,2025-11-07,24.637056,120.864778,0.9658433
C0R100,尾寮山,2025-11-07,22.833111,120.683889,0.273981
A2K630,臺大雲林校區,2025-11-07,23.730628,120.423903,0.31830415
467990,馬祖,2025-11-07,26.169467,119.923158,0.19864614
C0D580,寶山,2025-11-07,24.735006,121.025192,0.9840814
E2P990,林試扇平站,2025-11-07,22.9677,120.6857,0.40870944
C0AI30,三重,2025-11-07,25.057328,121.500629,0.9957012
C0AH00,汐止,2025-11-07,25.066881,121.658778,0.9957061
C1Z040,立山,2025-11-07,23.443356,121.327375,0.70563483
466881,新北,2025-11-07,24.959207,121.525196,0.997591
C0W130,花嶼,2025-11-07,23.40007,119.32276,0.46560544
C0A950,鼻頭角,2025-11-07,25.129036,121.923372,0.9859073
C0K470,林內,2025-11-07,23.748675,120.609642,0.5081684
C2F990,摩天嶺,2025-11-07,24.322458,120.936819,0.5612746
82C160,茶改場,2025-11-07,24.908472,121.185333,0.9662747
C0Z320,清水林道,2025-11-07,23.27125,121.188272,0.6999352
C0R760,南仁湖,2025-11-07,22.084681,120.863353,0.8785722
C0M670,大林,2025-11-07,23.600616,120.45841,0.56556404
C0M800,茶山,2025-11-07,23.299075,120.664767,0.16213168
C0A9C0,天母,2025-11-07,25.117494,121.537169,0.9805256
72K220,南改斗南分場,2025-11-07,23.634556,120.477333,0.52194655
72AI40,桃改樹林分場,2025-11-07,24.944503,121.386972,0.971166
C0S910,蘭嶼燈塔,2025-11-07,22.081197,121.503117,0.818956
C0B050,八斗子,2025-11-07,25.144754,121.79167,0.96519244
C0U900,內城,2025-11-07,24.71813,121.68766,0.72136396
C0X320,柳營,2025-11-07,23.253328,120.375253,0.4908256
C0M790,新港,2025-11-07,23.553269,120.345728,0.36272472
C0F9T0,西屯,2025-11-07,24.179494,120.641275,0.690053
C0E950,松安,2025-11-07,24.39792,120.98599,0.4184012
C0SA30,都歷,2025-11-07,23.020333,121.323642,0.8644253
C0C620,蘆竹,2025-11-07,25.084275,121.265767,0.97608733
C0R730,大坪頂,2025-11-07,22.024633,120.69355,0.35242632
C0AJ40,石門,2025-11-07,25.273672,121.601198,0.8337116
C0E750,苗栗,2025-11-07,24.564569,120.824575,0.9777766
C0T870,鯉魚潭,2025-11-07,23.935639,121.508944,0.75273496
C1V170,排雲,2025-11-07,23.463619,120.954147,0.00016880706
C2H950,中寮,2025-11-07,23.884447,120.766406,0.35794666
C0R350,貓鼻頭,2025-11-07,21.921774,120.7358,0.009907235
C0V660,岡山,2025-11-07,22.797078,120.294958,0.6521367
C1H941,雙冬,2025-11-07,23.967378,120.802189,0.7175644
C0AJ70,田寮,2025-11-07,25.2698,121.4886,0.833352
C0AI00,五股,2025-11-07,25.07445,121.42728,0.9871063
C0Z280,德武,2025-11-07,23.47426,121.41071,0.6928067
C0R700,枋山,2025-11-07,22.246844,120.661086,0.43560204
C0C460,復興,2025-11-07,24.820208,121.352281,0.9941498
E2H360,蓮華池,2025-11-07,23.918333,120.885278,0.6833057
C0M640,中埔,2025-11-07,23.42538,120.5229,0.57088584
C0W140,金沙,2025-11-07,24.488292,118.408778,0.025405763
C2A540,四堵,2025-11-07,24.8926,121.745736,0.8315071
C0ACA0,新莊,2025-11-07,25.051478,121.446756,0.99637985
C0R220,潮州,2025-11-07,22.534361,120.54,0.3460928
U2HA40,臺大內茅埔,2025-11-07,23.689722,120.851117,0.6259285
467490,臺中,2025-11-07,24.145736,120.684075,0.59728557
C0UB60,明池,2025-11-07,24.650688,121.475277,0.9264258
C0U960,翠峰湖,2025-11-07,24.510856,121.608044,0.6858392
E2HA20,林試畢祿溪站,2025-11-07,24.226944,121.308522,0.0015555746
C0V890,前鎮,2025-11-07,22.5718,120.3117,0.9228942
C1F941,雪嶺,2025-11-07,24.280586,121.026642,0.0006658876
C2H9E0,國姓南港,2025-11-07,23.911108,120.846556,0.13197507
C0AC80,文山,2025-11-07,25.00235,121.575728,0.9975756
C0F9R0,龍井,2025-11-07,24.184536,120.528972,0.7806614
C0M760,民雄,2025-11-07,23.551754,120.428457,0.56552374
C0UA40,西德山,2025-11-07,24.560647,121.752608,0.99625456
C1T920,中興,2025-11-07,23.769503,121.498653,0.9113447
C0D550,雪霸,2025-11-07,24.526972,121.11605,0.010236483
C2F860,梨山,2025-11-07,24.247522,121.243669,0.0013592357
C0R320,車城,2025-11-07,22.0744,120.716247,0.25911376
C1S870,南美山,2025-11-07,23.15025,121.382333,0.7844064
C0B020,基隆嶼,2025-11-07,25.19141,121.78391,0.9833696
C1U501,牛鬥,2025-11-07,24.637836,121.573656,0.9437814
C0M730,嘉義市東區,2025-11-07,23.457673,120.460531,0.7077272
C0S700,知本,2025-11-07,22.684866,121.005642,0.92702806
C1N001,沙崙,2025-11-07,22.935472,120.309406,0.7625852
C0V760,橋頭,2025-11-07,22.757806,120.30575,0.38630995
C0G960,福寶,2025-11-07,24.0443,120.3814,0.6201175
C0X210,白河,2025-11-07,23.347466,120.414427,0.6710086
C0S810,東河,2025-11-07,22.972672,121.303986,0.2554754
C2R170,屏東,2025-11-07,22.66027,120.49403,0.22336122
C0R670,楓港,2025-11-07,22.190131,120.692156,0.20072682
C0FA50,霧峰,2025-11-07,24.0419,120.6995,0.52303505
C0UB10,蘇澳,2025-11-07,24.5969,121.8571,0.9919751
C0G950,防潮門,2025-11-07,24.1835,120.4871,0.7836865
C0M740,六腳,2025-11-07,23.492871,120.290625,0.61785614
C1R250,力里,2025-11-07,22.428117,120.629228,0.95771146
C0K330,虎尾,2025-11-07,23.719183,120.442036,0.23992625
C2FA00,烏石坑,2025-11-07,24.273503,120.947617,0.56915396
C0V620,永安,2025-11-07,22.82315,120.236856,0.65177554
C1I330,楓樹林,2025-11-07,23.986803,121.076117,0.33385462
C0W200,湖西,2025-11-07,23.596314,119.67275,0.7023874
72Q010,高雄農改場,2025-11-07,22.709333,120.525889,0.28125927
C0SA40,瑞和,2025-11-07,22.974361,121.156697,0.7912171
C0C680,龜山,2025-11-07,25.02846,121.38656,0.9737023
C2V260,月眉,2025-11-07,22.971003,120.539853,0.3340261
C0V450,鳳森,2025-11-07,22.545064,120.392592,0.24632324
C0FA90,小雪山林道,2025-11-07,24.29515,121.03651,0.00035755325
C0U720,南山,2025-11-07,24.43742,121.38167,0.39936426
A2N290,臺南蘭花園區,2025-11-07,23.340258,120.379661,0.9514117
C0R560,新園,2025-11-07,22.5434,120.461558,0.24017727
C0U890,三星,2025-11-07,24.66812,121.65302,0.92028755
C1V300,御油山,2025-11-07,23.001983,120.715364,0.033159524
C0U600,礁溪,2025-11-07,24.817539,121.765608,0.9311226
C1T980,龍澗,2025-11-07,24.023289,121.411328,0.08841586
C0D670,海天一線,2025-11-07,24.831986,120.914438,0.65515405
C0SA00,歷坵,2025-11-07,22.520969,120.89185,0.22622731
C0M710,東石,2025-11-07,23.458927,120.15385,0.48432115
C0M780,鹿草,2025-11-07,23.41134,120.30835,0.89981437
C0U520,雙連埤,2025-11-07,24.753033,121.641303,0.8531021
C0B010,七堵,2025-11-07,25.094819,121.71713,0.99043804
C0R480,長治,2025-11-07,22.693128,120.542622,0.84177506
C1V830,國三S383K,2025-11-07,22.781967,120.426475,0.23080204
12Q980,恆春工作站,2025-11-07,22.079678,120.714425,0.42394164
C1O940,東山服務區,2025-11-07,23.286016,120.398472,0.7475594
C1U840,東澳嶺,2025-11-07,24.5378,121.8485,0.992946
C1D630,飛鳳山,2025-11-07,24.766464,121.119178,0.9949273
C0S940,石寧山,2025-11-07,23.223772,121.406639,0.87590957
C0K410,北港,2025-11-07,23.573957,120.292802,0.33707643
C2M620,瑞里,2025-11-07,23.545133,120.675197,0.3060737
C0SB70,小港漁港,2025-11-07,23.158558,121.400431,0.06585542
C2O950,安南,2025-11-07,23.076694,120.144861,0.1730129
C0F0E0,南湖圈谷,2025-11-07,24.363714,121.444667,0.0010702983
467610,成功,2025-11-07,23.097486,121.373428,0.06714174
C0G890,伸港,2025-11-07,24.148933,120.484403,0.77618986
C2E540,龍溪,2025-11-07,24.606489,120.783933,0.97306097
C1V200,梅山,2025-11-07,23.268447,120.823556,0.4180392
C0T9H0,加路蘭山,2025-11-07,23.682947,121.5274,0.65345025
C2O930,玉井,2025-11-07,23.126042,120.46055,0.6899687
C1F911,新伯公,2025-11-07,24.221361,120.841069,0.21905714
C0R490,九如,2025-11-07,22.7405,120.490503,0.27638906
C0X200,左鎮,2025-11-07,23.056758,120.408522,0.75873405
C0FA60,鞍馬山工作站,2025-11-07,24.267064,121.000793,0.0016145172
C0SB50,叭嗡嗡,2025-11-07,23.047062,121.343223,0.80127746
C1F891,稍來,2025-11-07,24.265689,121.001142,0.0020360006
72N240,七股研究中心,2025-11-07,23.081672,120.062894,0.18600303
C0C700,中壢,2025-11-07,24.977661,121.256375,0.99090475
C0M690,水上,2025-11-07,23.419734,120.388909,0.8486029
C0V690,鼓山,2025-11-07,22.623325,120.275575,0.92619437
C0O860,大內,2025-11-07,23.11885,120.36083,0.33850756
C0Z200,萬榮,2025-11-07,23.709219,121.420106,0.8853147
C0T9D0,和中,2025-11-07,24.26676,121.74103,0.7437342
C1O921,楠西,2025-11-07,23.183511,120.484083,0.6192693
C0AJ30,淡水觀海,2025-11-07,25.184591,121.408616,0.9161131
C0V810,左營,2025-11-07,22.67491,120.28491,0.70605636
C0UA70,桃源谷,2025-11-07,24.962606,121.888875,0.9756487
C0X130,官田,2025-11-07,23.193217,120.315422,0.31148192
C1H000,翠峰,2025-11-07,24.109397,121.205211,0.0013087303
C0UA90,石城,2025-11-07,24.980444,121.951214,0.84819883
C1E681,南勢山,2025-11-07,24.421669,120.923831,0.43648574
C0A9F0,內湖,2025-11-07,25.079422,121.57545,0.9957061
C0K291,宜梧,2025-11-07,23.536281,120.169329,0.37334618
C1K540,口湖,2025-11-07,23.585344,120.180517,0.5167696
C0R780,滿州,2025-11-07,22.024403,120.839892,0.25042185
C0V870,文安,2025-11-07,22.8025,120.2164,0.64103067
C0U650,玉蘭,2025-11-07,24.675286,121.587061,0.7113588
C0R640,東港,2025-11-07,22.46247,120.44074,0.2694537
C0AJ80,板橋,2025-11-07,25.0107,121.4489,0.9975584
C0S660,下馬,2025-11-07,23.150427,121.070312,0.6364516
C1H9B1,阿眉,2025-11-07,24.1263,120.994672,0.0145907635
C0UA20,多加屯,2025-11-07,24.368614,121.373189,0.0008071525
C0E730,頭份,2025-11-07,24.688247,120.912206,0.9480704
72V140,高改旗南分場,2025-11-07,22.857861,120.516667,0.27318886
C0K480,莿桐,2025-11-07,23.761192,120.502372,0.5537655
C0U980,坪林石牌,2025-11-07,24.86478,121.77396,0.9351022
C0T900,西林,2025-11-07,23.8119,121.441458,0.8469596
C1I150,青雲,2025-11-07,23.793361,120.949378,0.23179425
467350,澎湖,2025-11-07,23.565503,119.563094,0.42309943
C0G800,埔鹽,2025-11-07,24.000394,120.431683,0.49796024
C0H960,草屯,2025-11-07,23.973672,120.68085,0.49873176
C1V780,多納林道,2025-11-07,22.888028,120.737917,0.2961598
C0E920,通霄漁港,2025-11-07,24.498589,120.673876,0.835686
C0Z330,安通山,2025-11-07,23.290728,121.348528,0.67771745
C0AH10,永和,2025-11-07,25.01125,121.508111,0.9975677
C0AK10,太平里,2025-11-07,25.134937,121.364899,0.97966087
C2G640,鹿港,2025-11-07,24.0753,120.430481,0.6798754
C1E890,國三N149K,2025-11-07,24.463414,120.680019,0.85414547
C1R110,口社,2025-11-07,22.770111,120.645222,0.8893275
C1M870,國三N285K,2025-11-07,23.550319,120.505833,0.484115
C1E480,鳳美,2025-11-07,24.554803,121.034747,0.9874411
C0M530,奮起湖,2025-11-07,23.493903,120.699253,0.22965795
C0C590,觀音,2025-11-07,25.027072,121.153317,0.9296609
C0T9M0,靜浦,2025-11-07,23.455167,121.495028,0.7947322
C2H9M0,發祥,2025-11-07,24.154094,121.164517,0.27276635
C0AI40,石牌,2025-11-07,25.115597,121.513139,0.98050314
C1F871,上谷關,2025-11-07,24.203483,121.018644,0.68184406
C2H9G0,百勝,2025-11-07,24.051142,120.909361,0.057672992
C0G880,二水,2025-11-07,23.810742,120.6173,0.45707288
C0R940,加祿堂,2025-11-07,22.3363,120.6217,0.079892464
C0W220,北竿,2025-11-07,26.220358,119.974881,0.54422224
C0O960,崎頂,2025-11-07,22.959547,120.369317,0.7672589
C0TA40,秀林,2025-11-07,24.302864,121.731144,0.26402813
C0S750,向陽,2025-11-07,23.248397,120.986133,0.00075191306
C0T9F0,水璉,2025-11-07,23.797131,121.542514,0.78381395
C1M600,頭凍,2025-11-07,23.406364,120.603339,0.47832438
467660,臺東,2025-11-07,22.752211,121.154586,0.4393077
C1D380,新埔,2025-11-07,24.84745,121.03834,0.93445957
C2G980,田頭村,2025-11-07,23.8263,120.444175,0.37456095
C0V750,路竹,2025-11-07,22.854997,120.259439,0.80988145
C0N050,蚵寮,2025-11-07,23.301,120.1104,0.5255697
72M700,南改鹿草分場,2025-11-07,23.416869,120.283061,0.92067504
C1SA50,利嘉林道,2025-11-07,22.82325,121.009389,0.089552216
C0UB70,太平山中間站,2025-11-07,24.542003,121.513453,0.96782756
C0A940,金山,2025-11-07,25.223628,121.643967,0.9419604
C1V340,大津,2025-11-07,22.888322,120.645986,0.41133067
C0W180,七美,2025-11-07,23.219333,119.444892,0.65963674
C1F9C1,白冷,2025-11-07,24.182844,120.929889,0.26983985
K2E710,苗改生物防治研究中心,2025-11-07,24.422861,120.871833,0.96100396
C0N040,蘆竹溝,2025-11-07,23.2344,120.0961,0.19005202
C0D760,大坪苗圃,2025-11-07,24.5362,121.1108,0.8615333
C2W230,畜試所澎湖,2025-11-07,23.628342,119.513206,0.22043279
C0R880,後壁湖,2025-11-07,21.9457,120.7457,0.02811607
C1I280,埔中,2025-11-07,23.820778,120.642594,0.1401927
467790,墾丁雷達站,2025-11-07,21.948235,120.808028,0.050179582
C0W190,望安,2025-11-07,23.380564,119.494075,0.53581756
C0Z170,卓溪,2025-11-07,23.3443,121.3029,0.8587879
C0F850,東勢,2025-11-07,24.246428,120.833047,0.83087075
466900,淡水,2025-11-07,25.164889,121.448906,0.9796477
C0I370,魚池,2025-11-07,23.895703,120.94135,0.77113706
C0C630,大溪,2025-11-07,24.882853,121.265547,0.9850833
C0A520,山佳,2025-11-07,24.974944,121.402008,0.99607104
C0I110,竹山,2025-11-07,23.761225,120.688156,0.42418864
82H840,茶改南部分場,2025-11-07,23.762528,120.7405,0.13831711
C0G660,溪湖,2025-11-07,23.94835,120.479122,0.45253038
C1T800,洛韶,2025-11-07,24.204558,121.453956,0.17079757
C1T810,慈恩,2025-11-07,24.192044,121.388386,0.0052876202
C1E451,象鼻,2025-11-07,24.368617,120.940228,0.34222016
C0AC60,三峽,2025-11-07,24.939025,121.369728,0.9799842
C0I490,萬大林道,2025-11-07,23.928228,121.091411,0.023044776
C1I290,豐丘,2025-11-07,23.668178,120.887417,0.23168351
C1I320,奧萬大,2025-11-07,23.952956,121.178556,0.25180617
C2M910,嘉義大學,2025-11-07,23.471325,120.485903,0.64113814
C0U770,南澳,2025-11-07,24.44935,121.81022,0.91369176
C0A980,社子,2025-11-07,25.109508,121.469681,0.97925526
C0V800,六龜,2025-11-07,22.997889,120.633583,0.39220944
C1G9D0,國一S218K,2025-11-07,23.890641,120.493253,0.49697056
C0E570,白沙屯,2025-11-07,24.549447,120.696803,0.8959817
C2F9A0,中竹林,2025-11-07,24.103556,120.751061,0.118934765
C0FA40,臺中電廠,2025-11-07,24.2146,120.4907,0.77958643
C2G9A0,畜試所彰化,2025-11-07,23.86045,120.557964,0.6063796
C0H9C0,合歡山,2025-11-07,24.143442,121.272547,0.00021549054
C0X060,下營,2025-11-07,23.22695,120.256261,0.2203997
G2M350,農試溪口農場,2025-11-07,23.58565,120.408111,0.64289045
C0U860,頭城,2025-11-07,24.85323,121.8308,0.9317902
C0R580,南州,2025-11-07,22.48591,120.50274,0.2694537
C0D430,峨眉,2025-11-07,24.6905,121.017189,0.97956365
C0G780,秀水,2025-11-07,24.03405,120.503869,0.501505
72N100,臺南農改場,2025-11-07,23.0605,120.342194,0.39278173
C0S900,蘭嶼高中,2025-11-07,22.04909,121.51214,0.20657748
C1F9W0,德基,2025-11-07,24.254783,121.190261,0.0049310154
C1Z120,壽豐,2025-11-07,23.870853,121.508081,0.8863472
C0W160,烏坵,2025-11-07,24.9944,119.44956,0.0022623225
C1I240,外大坪,2025-11-07,23.958697,120.917931,0.795103
C1I550,國六W023K,2025-11-07,23.979067,120.867742,0.21743843
C0R870,興海,2025-11-07,21.9752,120.8439,0.026626833
C0R140,瑪家,2025-11-07,22.682903,120.686639,0.7521584
C0A530,坪林,2025-11-07,24.938183,121.70975,0.8666645
C0X260,後壁,2025-11-07,23.366358,120.362326,0.92697865
C0Z230,和平,2025-11-07,24.30717,121.77007,0.7388271
C0G770,福興,2025-11-07,24.041289,120.437669,0.50034046
C0H9A0,神木村,2025-11-07,23.532742,120.843667,0.09153788
C0I460,南投,2025-11-07,23.911469,120.687331,0.35047743
C0I480,梅峰,2025-11-07,24.085272,121.173572,0.0019567022
C1V570,吉東,2025-11-07,22.85422,120.5454,0.27658045
C2D740,屯原,2025-11-07,24.067969,121.209389,0.0020982928
C2A560,福山,2025-11-07,24.776203,121.502811,0.9636496
C0AH30,五分山,2025-11-07,25.07125,121.780794,0.9097645
C0FA10,松柏,2025-11-07,24.429115,120.617482,0.91904986
72S200,東改班鳩分場,2025-11-07,22.829528,121.077694,0.62526643
72HA00,中改埔里分場,2025-11-07,23.903208,120.963364,0.7014708
C2H9W0,大坪頂農水,2025-11-07,24.043122,120.932781,0.8049816
C0C650,平鎮,2025-11-07,24.897503,121.214636,0.9847381
C0S930,延平,2025-11-07,22.902581,121.084058,0.6652013
C0UA60,樟樹山,2025-11-07,24.41393,121.78325,0.90953106
C1S670,摩天,2025-11-07,23.199503,121.027,0.0055212285
C0V630,茄萣,2025-11-07,22.906642,120.182608,0.8093414
466940,基隆,2025-11-07,25.133314,121.740475,0.9652332
C0X050,東河,2025-11-07,23.296598,120.385608,0.633531
C0R770,保力,2025-11-07,22.071122,120.764111,0.1836261
G2L020,農試嘉義分所,2025-11-07,23.485028,120.473806,0.58021533
C0X240,關子嶺,2025-11-07,23.331169,120.508025,0.19963332
C0I380,集集,2025-11-07,23.828206,120.801467,0.23468244
466990,花蓮,2025-11-07,23.975128,121.613275,0.4566728
C1V220,小關山,2025-11-07,23.154217,120.813603,0.006971569
C1F9G1,慶福山,2025-11-07,24.180853,120.848378,0.608537
C0FB20,雪山橋,2025-11-07,24.23192,120.9786,0.0026618065
C0Z250,瑞穗林道,2025-11-07,23.49284,121.30688,0.2221078
C0D590,新豐,2025-11-07,24.87068,120.97721,0.8011018
C0A870,五指山,2025-11-07,25.132153,121.608692,0.8527997
C0UA50,西帽山,2025-11-07,24.555361,121.802628,0.99418396
C0X160,仁德,2025-11-07,22.968258,120.257689,0.9152596
C1H971,六分寮,2025-11-07,23.92507,120.6378,0.16674322
C0W120,西嶼,2025-11-07,23.5626,119.468436,0.41072756
C0G650,員林,2025-11-07,23.946503,120.585597,0.66018105
C0AD50,鶯歌,2025-11-07,24.951533,121.346294,0.9815688
C2H9Q0,北東眼山,2025-11-07,24.120939,121.189303,0.001527264
C2H9T0,名間竹圍,2025-11-07,23.859914,120.637572,0.2818572
C0S990,山豬窟,2025-11-07,22.318619,120.857372,0.27440885
C0X190,安平,2025-11-07,22.993161,120.152181,0.22026657
C0K400,斗六,2025-11-07,23.720583,120.541127,0.67872363
12J990,口湖工作站,2025-11-07,23.589978,120.180394,0.5164198
C0O830,北寮,2025-11-07,23.079561,120.495008,0.24183962
C1D410,白蘭,2025-11-07,24.579364,121.079947,0.88816553
C0S970,加津林,2025-11-07,22.416211,120.926942,0.03774753
C0D700,關西,2025-11-07,24.7977,121.1732,0.95141566
C0M810,里佳,2025-11-07,23.389125,120.716647,0.07663694
C0U750,龜山島,2025-11-07,24.841667,121.953133,0.78767055
C0R810,內獅,2025-11-07,22.305064,120.642986,0.07723741
C1M390,龍美,2025-11-07,23.406728,120.654417,0.2454224
C2FB60,頭櫃山,2025-11-07,24.129842,120.858925,0.47615027
C1H840,國三N238K,2025-11-07,23.841008,120.707711,0.33731133
CAQ030,崎峰國小,2025-11-07,22.42565,120.49521,0.31277776
C2E520,大湖,2025-11-07,24.414939,120.870872,0.9441165
467530,阿里山,2025-11-07,23.508208,120.813242,0.0009992032
C1E691,南湖,2025-11-07,24.40135,120.837533,0.6265177
C0FA30,梧棲,2025-11-07,24.256003,120.523381,0.8080154
C1V231,高中,2025-11-07,23.134911,120.716711,0.5842783
C0AK30,硬漢嶺,2025-11-07,25.136097,121.426372,0.8893771
C0F9V0,新社,2025-11-07,24.200172,120.815806,0.17536883
C0H890,埔里,2025-11-07,23.972169,120.952425,0.12758955
C0R690,墾丁,2025-11-07,21.966756,120.810269,0.38665253
C0F0D0,審馬陣,2025-11-07,24.381675,121.4203,0.00038531213
C2W030,金門農試所,2025-11-07,24.448431,118.451786,0.022376858
C0R820,白鷺,2025-11-07,22.454275,120.666219,0.08818052
C0FB00,大雪山,2025-11-07,24.254668,121.007374,0.0019918517
C1V190,南天池,2025-11-07,23.27403,120.91176,0.0005554058
C0E940,雪見,2025-11-07,24.42595,121.01347,0.00944466
K2E360,苗栗農改場,2025-11-07,24.495722,120.829111,0.9815205
CAJ050,海口故事園區,2025-11-07,23.57543,120.14121,0.51642674
C2H9D0,三隻寮,2025-11-07,24.093078,120.861578,0.801696
C0O990,媽廟,2025-11-07,22.99175,120.293525,0.73566496
C0D480,打鐵坑,2025-11-07,24.849664,121.150789,0.9879541
C0Z220,和平林道,2025-11-07,24.343922,121.656317,0.535801
C0TA10,花蓮漁港,2025-11-07,23.995322,121.638331,0.41516194
72C440,桃園農改場,2025-11-07,24.950944,121.030583,0.9712176
C1E711,馬拉邦山,2025-11-07,24.367306,120.901656,0.53037995
C0SB20,富岡,2025-11-07,22.792467,121.192669,0.6391642
C0D560,竹東,2025-11-07,24.767147,121.057881,0.9367884
C0F9U0,南屯,2025-11-07,24.137006,120.637969,0.6800516
C0M720,番路,2025-11-07,23.464657,120.554156,0.56454074
C0F0A0,雪山圈谷,2025-11-07,24.388594,121.236339,0.00034840524
C1A9N0,四十份,2025-11-07,24.934158,121.593283,0.991647
C0U760,東澳,2025-11-07,24.52196,121.83318,0.9217121
C0X230,鹽水,2025-11-07,23.272621,120.247641,0.53340906
C2H9H0,苗改南投蜂場,2025-11-07,23.852589,120.693481,0.3828965
C0R950,萬隆國小,2025-11-07,22.507667,120.587817,0.3575109
467540,大武,2025-11-07,22.35572,120.90374,0.031617176
C0V370,古亭坑,2025-11-07,22.893178,120.401947,0.7969816
C1I340,新興橋,2025-11-07,23.563333,120.868728,0.87554073
C0SA80,土坂,2025-11-07,22.453108,120.887572,0.14595282
C0R160,鹽埔,2025-11-07,22.739558,120.530778,0.27566248
C0AC40,大屯山,2025-11-07,25.175675,121.522408,0.38980603
466850,五分山雷達站,2025-11-07,25.071182,121.781205,0.9085706
C2H9L0,馬烈霸,2025-11-07,24.1512,121.201772,0.0022414953
C1AI50,國三N016K,2025-11-07,25.034164,121.619664,0.9957149
C1V600,藤枝,2025-11-07,23.071961,120.757042,0.048327867
C1E601,南勢,2025-11-07,24.572486,120.734842,0.82492816
C0O980,新市,2025-11-07,23.061614,120.298197,0.332572
C0K420,西螺,2025-11-07,23.800407,120.467394,0.27517146
C0Z050,佳心,2025-11-07,23.34567,121.21316,0.454851
C0AD30,蘆洲,2025-11-07,25.086594,121.472331,0.99568063
C0V610,梓官,2025-11-07,22.760558,120.267211,0.38797924
K2F750,種苗改良場,2025-11-07,24.225972,120.800917,0.1947764
C0UA80,大溪漁港,2025-11-07,24.941801,121.902955,0.91457194
C1AI60,國一39K邊坡,2025-11-07,25.064361,121.383836,0.97860914
C0W150,金寧,2025-11-07,24.457703,118.328989,0.02192434
C0R960,內埔,2025-11-07,22.608483,120.570714,0.3355144
V2C250,八德合作社,2025-11-07,24.93775,121.266389,0.97608036
C2H9S0,龍南,2025-11-07,23.953536,120.833183,0.24347004
C0AH40,平等,2025-11-07,25.129142,121.577086,0.928512
C0R540,佳冬,2025-11-07,22.419456,120.552375,0.14652544
466950,彭佳嶼,2025-11-07,25.627975,122.079744,0.98117507
C0A890,雙溪,2025-11-07,25.036003,121.864242,0.96799356
C0C480,桃園,2025-11-07,24.992425,121.323172,0.9914915
C0AH50,林口,2025-11-07,25.072181,121.38084,0.96970785
A2K360,水試臺西試驗場,2025-11-07,23.717231,120.190522,0.5004183
C2M960,外寮,2025-11-07,23.562643,120.665688,0.5349961
C0F9S0,烏日,2025-11-07,24.107058,120.624103,0.5364189
C0C490,八德,2025-11-07,24.928708,121.283289,0.9845466
C0R190,赤山,2025-11-07,22.592333,120.614306,0.3374066
C0T820,天祥,2025-11-07,24.179597,121.495639,0.3767309
C1F9E1,龍安,2025-11-07,24.1605,120.831961,0.13920079
C0V820,小林,2025-11-07,23.148408,120.63325,0.5095138
C2G870,芳苑,2025-11-07,23.922303,120.320025,0.80078423
C0E850,大河,2025-11-07,24.618069,120.948578,0.98024786
C1U670,寒溪,2025-11-07,24.634,121.71691,0.41206998
C0N020,城西,2025-11-07,23.0568,120.0956,0.22873521
C1Z110,三棧,2025-11-07,24.11557,121.60501,0.38464344
C0R280,檳榔,2025-11-07,22.076078,120.836777,0.85110635
C2H9J0,中台,2025-11-07,23.9996,120.938739,0.46375304
C0F9L0,后里,2025-11-07,24.310436,120.729725,0.91218096
467441,高雄,2025-11-07,22.730432,120.312516,0.39017722
C0Z180,新城,2025-11-07,24.040486,121.604878,0.48148918
C0D540,橫山,2025-11-07,24.71116,121.11693,0.98308814
C1D420,太閣南,2025-11-07,24.632808,121.160575,0.9785923
C1E770,公館,2025-11-07,24.526914,120.830806,0.9838587
CAN130,水試所海水繁養殖中心,2025-11-07,23.120802,120.07968,0.1834887
C1I430,翠華,2025-11-07,24.191961,121.224339,0.00094365934
C1M400,菜瓜坪,2025-11-07,23.251928,120.576103,0.37038732
C0G730,二林,2025-11-07,23.903325,120.376081,0.30022603
72M360,南改義竹分場,2025-11-07,23.360694,120.279361,0.96777797
V2K620,麥寮合作社,2025-11-07,23.753836,120.294783,0.35401088
C0Z070,舞鶴,2025-11-07,23.46811,121.37407,0.670753
C0B040,大武崙,2025-11-07,25.166676,121.706993,0.9647557
C1Z030,紅葉,2025-11-07,23.493119,121.338806,0.6082791
C1I050,丹大,2025-11-07,23.753747,121.141147,0.00038237558
C0I080,信義,2025-11-07,23.689694,120.851036,0.5717448
C0D750,樂山林道6k,2025-11-07,24.49999,121.08773,0.0021185975
C2M920,朴子農改,2025-11-07,23.469889,120.259383,0.9184194
C2A880,福隆,2025-11-07,25.017842,121.942083,0.8862733
C0Z160,鳳林,2025-11-07,23.746114,121.453411,0.9015409
C0UB80,翠峰林道6K,2025-11-07,24.49773,121.568625,0.32959217
C0V210,復興,2025-11-07,23.222403,120.806089,0.7217439
C0H990,昆陽,2025-11-07,24.121322,121.273642,0.00049947435
C0R741,獅子,2025-11-07,22.202308,120.705236,0.09343104
C0S710,鹿野,2025-11-07,22.917711,121.122994,0.54105586
C0I530,小奇萊,2025-11-07,24.131764,121.295717,0.0004721422
C0FA70,大雪山埡口,2025-11-07,24.26867,121.03062,0.00065710297
C2K630,荷苞,2025-11-07,23.657717,120.595144,0.4505766
C0Z080,富源,2025-11-07,23.587642,121.378225,0.75074214
C0SB10,美和,2025-11-07,22.682078,121.060236,0.5506615
C2K620,馬光農場,2025-11-07,23.721453,120.378864,0.32247818
C1I140,卡奈托灣,2025-11-07,23.754364,121.087872,0.0057274215
C0I520,玉山風口,2025-11-07,23.470489,120.955994,0.00014005747
C1G691,下水埔,2025-11-07,23.816114,120.5676,0.6251887
C0X110,臺南市南區,2025-11-07,22.961189,120.188378,0.9154421
C0V680,仁武,2025-11-07,22.701083,120.347722,0.70392835
C2G840,北斗,2025-11-07,23.877586,120.514222,0.49557295
C0R900,竹坑,2025-11-07,22.1385,120.7022,0.16907863
C0K250,崙背,2025-11-07,23.75555,120.318925,0.28649265
C0G860,社頭,2025-11-07,23.897647,120.5862,0.6106512
C0X150,安定,2025-11-07,23.102614,120.227839,0.15199985
C0R590,里港,2025-11-07,22.77919,120.49459,0.22805934
C0E610,馬都安,2025-11-07,24.451272,120.930192,0.5518154
C0E550,明德,2025-11-07,24.583486,120.885411,0.97706485
C0R150,三地門,2025-11-07,22.709889,120.639944,0.8779178
C0G910,花壇,2025-11-07,24.032076,120.549461,0.4972052
C1D400,鳥嘴山,2025-11-07,24.71909,121.28387,0.994787
C0K500,元長,2025-11-07,23.64981,120.315024,0.3209747
C0F0B0,石岡,2025-11-07,24.276061,120.777644,0.90733284
C2V250,甲仙,2025-11-07,23.080106,120.591758,0.2558677
C0SA20,金崙山,2025-11-07,22.567419,120.959667,0.08308746
C0V350,溪埔,2025-11-07,22.738578,120.446797,0.51567954
C0M660,溪口,2025-11-07,23.604131,120.403569,0.5737514
C1S880,壽卡,2025-11-07,22.238911,120.858903,0.8587813
72D680,桃改新埔分場,2025-11-07,24.834444,121.066111,0.91482973
