站號,站名,日期,lat,lon,BLBTSLS
C0R710,龍磐,2025-12-10,21.931672,120.838942,0.63309014
C1F9D1,白毛台,2025-12-10,24.158325,120.886933,4.9256227e-10
C0G940,竹塘,2025-12-10,23.848253,120.386764,0.7117477
467590,恆春,2025-12-10,22.003897,120.746339,0.8648849
C1O850,環湖,2025-12-10,23.148617,120.418633,6.2922605e-09
C0U710,太平山,2025-12-10,24.505486,121.525656,1.6557642e-08
C0E820,獅潭,2025-12-10,24.539133,120.920042,4.6032766e-10
C2SD70,二層坪,2025-12-10,22.94105,121.16838,1.8348091e-09
C0V880,興達,2025-12-10,22.8778,120.2127,0.22922286
C0S890,關山,2025-12-10,23.0395,121.175017,1.1440866e-09
C0SB30,新蘭,2025-12-10,22.869214,121.223228,0.0028939615
C2R970,屏科大,2025-12-10,22.648275,120.619247,1.8437477e-07
C1Z130,銅門,2025-12-10,23.965694,121.492842,2.0970892e-09
C0AD40,土城,2025-12-10,24.973208,121.445169,0.012817027
CAN140,六官養殖協會,2025-12-10,23.22881,120.29962,6.6672386e-05
C0X180,山上,2025-12-10,23.0757,120.363253,5.9333207e-08
C0F9Z0,雪山東峰,2025-12-10,24.388792,121.268675,1.5282241e-08
C1M480,獨立山,2025-12-10,23.537022,120.607797,3.95643e-10
C0X220,學甲,2025-12-10,23.230367,120.182187,0.89750963
467650,日月潭,2025-12-10,23.881325,120.90805,7.1206024e-10
C0K600,箔子寮,2025-12-10,23.6197,120.14,0.99964696
C0G830,埤頭,2025-12-10,23.866003,120.452806,2.4039396e-06
C0S950,七塊厝,2025-12-10,22.954453,121.229922,1.2586754e-09
467110,金門,2025-12-10,24.407306,118.289281,0.0005292524
C0AH80,深坑,2025-12-10,25.002703,121.628328,0.0038575619
C0A970,三貂角,2025-12-10,25.007606,122.002058,8.929163e-09
C2D730,寶山農場,2025-12-10,24.732444,120.976153,0.00065951975
C0K430,褒忠,2025-12-10,23.690938,120.303634,9.590376e-06
467480,嘉義,2025-12-10,23.495925,120.432906,0.006311598
C0V400,阿公店,2025-12-10,22.804194,120.355528,3.7296005e-08
C0E960,觀霧分站,2025-12-10,24.505781,121.113921,5.729682e-09
467550,玉山,2025-12-10,23.48718,120.95943,2.0556975e-08
C0R440,大漢山,2025-12-10,22.405264,120.753181,1.5571356e-08
C0SD30,東清國小,2025-12-10,22.057128,121.564922,0.9835019
C1F9B1,桐林,2025-12-10,24.066172,120.735194,1.0764014e-08
C2H9U0,鳳鵬,2025-12-10,23.763919,120.788061,4.6253057e-10
C0K390,土庫,2025-12-10,23.679029,120.395574,3.9074046e-05
C1I450,望鄉山,2025-12-10,23.594153,120.944286,1.0043274e-08
C0E910,海埔,2025-12-10,24.648767,120.772435,0.85637826
B2E890,畜試北區分所,2025-12-10,24.527806,120.770972,1.2778651e-09
C0R750,四林格山,2025-12-10,22.076989,120.802439,0.95470214
C0F0C0,中坑,2025-12-10,24.248517,120.903319,9.627158e-10
C1I121,大鞍,2025-12-10,23.678381,120.760017,2.776973e-09
C2G9E0,移民庄,2025-12-10,23.9784,120.40283,0.98724174
72U480,花改蘭陽分場,2025-12-10,24.686306,121.716583,1.0743989e-09
C0A770,科教館,2025-12-10,25.096356,121.516507,3.5314658e-06
C0AJ60,六塊厝,2025-12-10,25.24,121.4481,0.91481197
C0R620,墾雷,2025-12-10,21.900836,120.855269,0.94394726
467420,永康,2025-12-10,23.038386,120.2367,4.02185e-05
C2M530,奮起湖,2025-12-10,23.493903,120.699253,2.0119868e-09
C0I410,名間,2025-12-10,23.837053,120.701447,6.786522e-10
A2C560,農工中心,2025-12-10,24.985917,121.239833,0.27827543
C0V740,旗山,2025-12-10,22.888614,120.483597,2.8066824e-08
C0Z061,玉里,2025-12-10,23.3215,121.339656,9.3124525e-10
C0S840,南田,2025-12-10,22.279725,120.889208,0.8211154
C1I470,杉林溪,2025-12-10,23.639517,120.786444,3.5630188e-09
C1X040,東原,2025-12-10,23.291597,120.463822,3.2578304e-10
C0R660,枋寮,2025-12-10,22.367722,120.590647,0.97093767
C1R120,上德文,2025-12-10,22.763272,120.704442,8.2993346e-10
C0K450,大埤,2025-12-10,23.646074,120.431537,0.026009943
C0UA00,土場,2025-12-10,24.576533,121.495333,1.0279031e-08
467080,宜蘭,2025-12-10,24.763975,121.756528,8.029995e-10
C0N030,四草,2025-12-10,23.0235,120.1116,0.9461043
467410,臺南,2025-12-10,22.99328,120.20492,0.82376564
C0V650,彌陀,2025-12-10,22.783806,120.246361,0.9683863
C0D660,新竹市東區,2025-12-10,24.798681,120.986942,0.8663585
82S580,茶改東部分場,2025-12-10,22.907694,121.130139,1.0281942e-06
C0SB40,興隆,2025-12-10,22.913661,121.257469,0.0012553416
467050,新屋,2025-12-10,25.006725,121.047492,0.97498137
C0C710,大溪永福,2025-12-10,24.892936,121.324975,0.00076211814
C0FA20,溫寮,2025-12-10,24.372177,120.583125,0.8495804
C0V640,湖內,2025-12-10,22.887139,120.2445,0.19561842
C0R910,下寮,2025-12-10,22.3929,120.5548,0.97093767
C0Z020,明里,2025-12-10,23.208717,121.262342,1.398138e-09
C0M770,嘉義梅山,2025-12-10,23.585398,120.555587,1.9806926e-06
C0C660,楊梅,2025-12-10,24.912375,121.143047,0.38101307
C0SD40,牛頭山,2025-12-10,22.676661,121.506944,0.87541324
C1E511,新開,2025-12-10,24.347703,120.827019,3.4291023e-10
G2F820,農試所(霧峰),2025-12-10,24.031261,120.688133,9.145046e-09
C2M990,大巃頂,2025-12-10,23.5547,120.61439,1.1788356e-09
C1I070,和社,2025-12-10,23.591131,120.888861,1.2216265e-09
C2E990,新坪頂,2025-12-10,24.30201,120.8574,1.1988164e-09
C0TA80,立霧山,2025-12-10,24.183258,121.641899,1.4379521e-08
C2F000,大肚,2025-12-10,24.15295,120.572117,2.8513094e-09
C1S850,豐南,2025-12-10,23.122139,121.262389,1.2870306e-09
C2M9B0,西興,2025-12-10,23.2428,120.57617,5.927603e-10
C2A920,富貴角,2025-12-10,25.263783,121.565258,0.09374233
CAH030,茶改場竹圍站,2025-12-10,23.860083,120.637528,2.4948799e-10
C0T960,光復,2025-12-10,23.660694,121.424964,5.9425004e-10
C0F9M0,豐原,2025-12-10,24.254322,120.720692,3.9836595e-10
C0R720,旭海,2025-12-10,22.205403,120.887614,0.9949185
C0V710,苓雅,2025-12-10,22.622742,120.330669,0.0008297987
C0C740,觀音工業區,2025-12-10,25.064764,121.114856,0.99252915
CAC040,拉拉山,2025-12-10,24.699317,121.427133,2.7313154e-08
C0V790,萬山,2025-12-10,22.905944,120.688056,1.0878268e-09
U2HA30,臺大和社,2025-12-10,23.590856,120.888864,1.2216265e-09
C2H9K0,屯原,2025-12-10,24.067969,121.209389,2.363138e-09
C0AJ90,澳底,2025-12-10,25.0552,121.9253,2.1520771e-05
C0Z100,東華,2025-12-10,23.89525,121.549833,1.520298e-09
C0G970,三豐,2025-12-10,23.882,120.2895,0.82568437
V2K610,大庄合作社,2025-12-10,23.8068,120.367939,0.0004068298
C0V900,汕尾,2025-12-10,22.4782,120.4151,0.69770366
C1R630,龍泉,2025-12-10,22.66701,120.59091,1.6775942e-06
C1AC50,關渡,2025-12-10,25.133486,121.469331,2.1527447e-07
C0C800,四稜,2025-12-10,24.64733,121.4293,2.0616856e-08
C0F9I0,神岡,2025-12-10,24.272481,120.658314,4.714481e-10
C0K460,斗南,2025-12-10,23.678734,120.478359,0.020896357
C2O810,曾文,2025-12-10,23.219681,120.497328,8.426429e-10
467280,後龍,2025-12-10,24.648563,120.831834,0.6107872
C1F9J1,清水林,2025-12-10,24.071242,120.820419,4.3139817e-10
C2A650,火燒寮,2025-12-10,25.002719,121.742892,6.965336e-09
466930,竹子湖,2025-12-10,25.162078,121.544547,5.7596274e-09
C1I220,樟湖,2025-12-10,23.905333,120.846983,1.0678307e-09
C0I390,仁愛,2025-12-10,24.022122,121.132206,7.9789264e-10
C0Z300,東里,2025-12-10,23.26853,121.30547,1.3439839e-09
C1V590,新發,2025-12-10,23.057019,120.646064,7.808245e-10
C0K510,水林,2025-12-10,23.572924,120.24597,1.9871402e-05
72S590,東改賓朗果園,2025-12-10,22.813889,121.071278,2.0748195e-05
82A750,茶改北部分場,2025-12-10,24.955778,121.631222,1.0072221e-08
C1A750,石碇服務區,2025-12-10,25.00872,121.646242,7.740192e-06
C0X300,鹿寮,2025-12-10,23.386047,120.477331,3.7549754e-08
G2AI50,關渡,2025-12-10,25.11575,121.492,0.33465624
C0K590,雲林東勢,2025-12-10,23.674192,120.255721,4.9723276e-06
C2K310,港尾布雞,2025-12-10,23.74834,120.38439,6.637139e-06
C0A570,桶後,2025-12-10,24.848222,121.597992,4.1422106e-09
C1S800,華源,2025-12-10,22.657883,121.02325,5.4585065e-09
C0G720,溪州,2025-12-10,23.851589,120.499093,1.5461255e-06
C1V160,達卡努瓦,2025-12-10,23.279811,120.705319,1.3225847e-09
C2M410,馬頭山,2025-12-10,23.324361,120.582017,2.7052394e-10
C0V850,蚵仔寮,2025-12-10,22.7256,120.2527,0.77215636
C0S740,池上,2025-12-10,23.119628,121.209469,1.5848187e-08
C1V390,尖山,2025-12-10,22.813153,120.367789,2.2623025e-08
C0AH70,松山,2025-12-10,25.04871,121.55042,2.5402962e-06
C0N010,鯤鯓國小,2025-12-10,23.1879,120.0889,0.9916249
C0R550,新埤,2025-12-10,22.467947,120.582894,0.41770545
C0SA60,知本（水試所）,2025-12-10,22.702394,121.082761,1.0388321e-08
C0T9I0,豐濱,2025-12-10,23.583897,121.514806,6.0685884e-10
C0UB00,淡江大學蘭陽校園,2025-12-10,24.823239,121.730383,4.3818607e-09
C0W240,九宮,2025-12-10,24.423753,118.240186,0.0006798173
C0T9N0,富里,2025-12-10,23.171639,121.249378,2.9232274e-09
U2HA50,臺大竹山,2025-12-10,23.756972,120.681556,1.9902853e-08
C0V840,鳳鼻頭,2025-12-10,22.5083,120.3591,2.395514e-08
C0X140,西港,2025-12-10,23.125608,120.203108,0.02427768
72D080,桃改五峰分場,2025-12-10,24.612194,121.157167,1.1015214e-09
C2H9P0,伊拿谷,2025-12-10,23.963211,121.088264,8.4944135e-10
C2K250,崙背,2025-12-10,23.75553,120.31893,9.6289305e-06
C2H9F0,柑林,2025-12-10,24.018658,120.847072,2.4119526e-10
C0TA20,加灣,2025-12-10,24.082025,121.608944,1.9533354e-06
C0V530,阿蓮,2025-12-10,22.883208,120.327508,2.7170822e-07
C0FB30,八仙山苗圃,2025-12-10,24.192719,121.001366,9.172904e-10
C1O880,關山,2025-12-10,23.173397,120.594092,4.4635554e-10
C0E791,卓蘭,2025-12-10,24.3126,120.8244,3.866984e-10
C1I030,武界,2025-12-10,23.913225,121.052483,8.614434e-10
C0R520,崁頂,2025-12-10,22.514781,120.506914,0.0001537825
C0R341,牡丹,2025-12-10,22.130036,120.792639,0.99808276
C0R930,萬丹,2025-12-10,22.5885,120.4851,4.0628547e-07
C0S760,紅石,2025-12-10,23.069131,121.126219,1.7993354e-08
C2C410,中央大學,2025-12-10,24.967652,121.185165,0.24036257
C1M610,石磐龍,2025-12-10,23.496606,120.663506,1.3987969e-09
C0C790,東眼山,2025-12-10,24.8284,121.40888,1.9046139e-08
C0UA10,鴛鴦湖,2025-12-10,24.590269,121.412228,1.0124245e-08
V2C260,八德蔬果,2025-12-10,24.978508,121.281819,0.0014596477
C0R800,丹路,2025-12-10,22.204481,120.750989,0.9381816
C0G920,永靖,2025-12-10,23.924703,120.547533,1.03619854e-07
C2M950,太和,2025-12-10,23.538372,120.702961,1.9870148e-09
C1A630,下盆,2025-12-10,24.771003,121.538622,5.731321e-09
B2N890,畜產試驗所,2025-12-10,23.058972,120.336406,2.3404673e-06
C0UA30,白嶺,2025-12-10,24.527819,121.519031,1.1282999e-08
C1V580,溪南(特生中心),2025-12-10,23.084972,120.788475,2.580192e-09
C1T970,大農,2025-12-10,23.615233,121.413331,5.996675e-10
C0R650,竹田,2025-12-10,22.58486,120.54344,0.00010563789
C1H900,清流,2025-12-10,24.080775,120.962997,7.8225104e-10
C1C510,水尾,2025-12-10,24.940081,121.087161,0.9548869
C2N170,茅港尾,2025-12-10,23.2061,120.2624,6.6672386e-05
C0F9X0,大雅(中科園區),2025-12-10,24.21528,120.62445,8.0257845e-10
C0SB60,白守蓮,2025-12-10,23.126769,121.401914,6.718463e-05
C0O970,虎頭埤,2025-12-10,23.021375,120.347878,6.874454e-08
C0C730,中大臨海站,2025-12-10,24.966126,121.008581,0.97650826
C0X250,新營,2025-12-10,23.310689,120.316681,4.3518903e-05
C0V700,三民,2025-12-10,22.645017,120.311233,0.99959916
C0U870,大礁溪,2025-12-10,24.791042,121.675047,5.3994014e-09
C0E870,高鐵苗栗,2025-12-10,24.60725,120.826094,0.7499622
A2K570,古坑花卉中心,2025-12-10,23.63353,120.55239,6.6638194e-07
C0TA30,鹽寮,2025-12-10,23.845606,121.592664,1.5028039e-09
C0M860,新美,2025-12-10,23.338017,120.683169,7.473951e-10
C1E701,八卦,2025-12-10,24.491756,120.927619,1.1179377e-09
C2TA90,加納納,2025-12-10,23.466421,121.359867,7.599935e-10
C0I420,國姓,2025-12-10,24.037803,120.855072,2.3740784e-10
C2D720,關西工作站,2025-12-10,24.757275,121.184792,0.0007293091
C0S960,香蘭,2025-12-10,22.587569,120.993375,5.5800832e-08
467620,蘭嶼,2025-12-10,22.0369,121.55843,0.1421736
C0R260,春日,2025-12-10,22.370361,120.628306,0.9119286
72G600,臺中農改場,2025-12-10,24.003028,120.534389,2.2378428e-07
C0Z210,瑞穗,2025-12-10,23.5239,121.39021,7.0648526e-10
C0M820,達邦,2025-12-10,23.453994,120.749517,1.1540037e-09
C0V860,南寮,2025-12-10,22.7616,120.2339,0.7666317
C0G740,大城,2025-12-10,23.852487,120.320935,0.7975867
C0R920,塭仔,2025-12-10,22.4169,120.5197,0.9766864
C0R470,高樹,2025-12-10,22.826389,120.600806,8.7817845e-08
C0R680,佳樂水,2025-12-10,21.993578,120.861633,0.1941227
C1O870,大棟山,2025-12-10,23.31157,120.52226,1.4982332e-09
C0D360,梅花,2025-12-10,24.678347,121.208558,5.488864e-10
C0Z190,富世,2025-12-10,24.14743,121.6297,3.2052012e-07
C0AI10,屈尺,2025-12-10,24.92184,121.54475,2.9850833e-06
B2U990,畜試東區分所,2025-12-10,24.669039,121.832561,1.2104378e-09
C0SB80,長濱漁港,2025-12-10,23.313644,121.459994,9.052351e-10
C0TA50,和仁,2025-12-10,24.241394,121.712472,5.527887e-09
C0V910,大樹,2025-12-10,22.684645,120.432803,0.0012984971
C1R610,西大武山,2025-12-10,22.617719,120.7322,1.6231661e-08
C0G900,線西,2025-12-10,24.143358,120.443536,0.99809223
C0M700,竹崎,2025-12-10,23.526178,120.555508,3.42739e-07
C2E880,三義,2025-12-10,24.405478,120.749819,3.8197168e-10
C0C720,竹圍,2025-12-10,25.112692,121.239824,0.37697124
C0F9P0,清水,2025-12-10,24.312297,120.562242,0.16522165
C0Z150,吉安光華,2025-12-10,23.930925,121.595153,2.1629523e-09
C0FA80,小雪山天池,2025-12-10,24.28025,121.02627,1.2746793e-08
467300,東吉島,2025-12-10,23.25727,119.66762,0.7545555
C1D640,外坪(五指山),2025-12-10,24.644447,121.090961,5.3437765e-10
C2R9A0,高士國小,2025-12-10,22.12553,120.84653,0.9951298
C0F9O0,潭子,2025-12-10,24.213106,120.703933,6.674556e-10
C2H9R0,卓社,2025-12-10,23.887894,121.000086,1.0637509e-09
72T250,花蓮農改場,2025-12-10,23.975222,121.563889,5.6073612e-09
C0E780,銅鑼,2025-12-10,24.489681,120.790853,7.2893097e-10
C1T950,太安,2025-12-10,23.666719,121.370128,1.6789542e-08
C0E830,苑裡,2025-12-10,24.439714,120.653053,0.9915452
467270,田中,2025-12-10,23.873803,120.581286,9.027381e-07
C0SA10,檳榔四格山,2025-12-10,22.810031,121.109308,6.27044e-07
C1T830,布洛灣,2025-12-10,24.17184,121.57127,3.8243353e-08
C0F970,大坑,2025-12-10,24.173142,120.722289,2.0267086e-08
C1U920,思源,2025-12-10,24.393125,121.347214,1.1033681e-08
C2H9Y0,松茗,2025-12-10,23.8167,120.650765,4.019662e-10
C0A931,三和,2025-12-10,25.233153,121.595236,4.230526e-07
C0I010,廬山,2025-12-10,24.033311,121.181808,1.5807875e-09
C2M940,日野賀,2025-12-10,23.434056,120.727169,1.4846895e-09
C0R860,鼻頭,2025-12-10,22.1043,120.8979,0.9653122
C0UB20,壯圍,2025-12-10,24.7359,121.8163,1.0608898e-09
C0R790,九棚,2025-12-10,22.14195,120.889281,0.9944947
C0W110,東莒,2025-12-10,25.9652,119.98069,0.00059560547
C1U930,粉鳥林,2025-12-10,24.497088,121.842479,2.5292202e-09
C1I211,蘆竹湳,2025-12-10,23.934019,120.811994,3.8460934e-10
C0S830,長濱,2025-12-10,23.286817,121.411975,1.0516746e-09
C1F9F1,伯公龍,2025-12-10,24.272392,120.849047,1.3769792e-09
C0UB90,太平山莊,2025-12-10,24.494171,121.536209,1.6743652e-08
C0E810,西湖,2025-12-10,24.562947,120.7485,0.94546086
C1I440,新高口,2025-12-10,23.478744,120.878939,6.4970895e-09
C0O840,王爺宮,2025-12-10,23.222064,120.40085,1.7165416e-08
C0T9G0,鳳林山,2025-12-10,23.735269,121.420131,2.7576443e-09
C0X080,佳里,2025-12-10,23.173039,120.145086,0.9916249
C0FB70,大甲溪埔,2025-12-10,24.370625,120.620067,0.46328405
C0Z310,清水斷崖,2025-12-10,24.218294,121.689142,5.1377977e-09
C0M680,太保,2025-12-10,23.455062,120.331455,3.2679825e-05
C1S820,金峰,2025-12-10,22.590969,120.933236,1.2616082e-08
C0AD10,八里,2025-12-10,25.150211,121.403947,0.37697124
C2K240,草嶺,2025-12-10,23.59555,120.693461,1.3299029e-09
C1SA70,都蘭,2025-12-10,22.87794,121.226881,0.0012553416
C0K440,二崙,2025-12-10,23.772797,120.408944,4.6637393e-07
C1A760,坪林交控,2025-12-10,24.94284,121.713442,9.477691e-09
C0F9N0,大里,2025-12-10,24.092464,120.701378,4.1877794e-08
C0SA90,達仁林場,2025-12-10,22.264347,120.823972,0.20877309
C1R290,石門山,2025-12-10,22.112611,120.756597,0.999486
42HA10,萬大發電廠,2025-12-10,23.978875,121.139639,1.1495397e-09
C0R890,山海,2025-12-10,21.9878,120.7091,0.4392213
C0T9A0,月眉山,2025-12-10,23.809928,121.539828,2.2742075e-09
C0AC70,信義,2025-12-10,25.037822,121.564597,3.6248996e-06
C0K560,棋山,2025-12-10,23.68645,120.603417,3.466006e-07
C2FB50,出雲,2025-12-10,24.206469,120.902794,1.1270003e-09
C1Z240,中平林道,2025-12-10,23.42115,121.26763,3.0679033e-08
U2H480,溪頭,2025-12-10,23.670306,120.798194,1.3657788e-09
C0M880,好美里,2025-12-10,23.3364,120.138,0.67729455
C0T9E0,大坑,2025-12-10,23.880628,121.581981,2.0110276e-09
C0K530,臺西,2025-12-10,23.701547,120.197559,0.9982485
C1E900,國一N128K,2025-12-10,24.560997,120.844186,5.8154868e-08
C0AJ50,水湳洞,2025-12-10,25.123695,121.862238,0.00010573312
C0AI20,白沙灣,2025-12-10,25.283128,121.519058,0.89659727
C2V310,美濃,2025-12-10,22.898792,120.51907,3.0938942e-08
C0A860,大坪,2025-12-10,25.165914,121.632969,8.335843e-09
C1U850,觀音海岸,2025-12-10,24.38319,121.77856,2.7931164e-09
C2K610,草嶺石壁,2025-12-10,23.602469,120.707731,1.3789268e-09
C0U950,鶯子嶺,2025-12-10,24.89754,121.79244,1.0468081e-08
C0O900,善化,2025-12-10,23.112883,120.297219,4.953632e-06
C0K550,蔦松,2025-12-10,23.514319,120.229736,0.0006278406
E2P980,林試六龜中心,2025-12-10,22.991703,120.645722,8.780419e-10
C0E590,通霄,2025-12-10,24.471892,120.704622,0.95402217
C1I310,西巒,2025-12-10,23.754486,120.883956,1.025492e-09
C0A550,泰平,2025-12-10,24.971197,121.823711,6.284608e-09
C0I360,水里,2025-12-10,23.812553,120.849792,5.99233e-10
C0R830,高士,2025-12-10,22.121825,120.836781,0.9996408
C1I101,溪頭,2025-12-10,23.661789,120.807647,3.7705905e-09
C0AJ20,野柳,2025-12-10,25.20703,121.690021,0.00010453062
C0B060,暖暖,2025-12-10,25.0957,121.7403,4.5919953e-07
C1H920,長豐,2025-12-10,24.102039,120.879897,6.592519e-10
C2S9B0,利吉,2025-12-10,22.86246,121.15486,7.0494393e-06
C0V360,內門,2025-12-10,22.975481,120.466769,6.9095627e-09
C0R850,林邊,2025-12-10,22.4634,120.5339,0.6039552
C0E930,龍鳳,2025-12-10,24.700034,120.859125,0.9905187
C0U910,冬山,2025-12-10,24.63373,121.7937,1.2104401e-09
C1E721,泰安,2025-12-10,24.489017,120.968036,2.9086946e-09
82H320,茶改中部分場,2025-12-10,23.875611,120.913583,6.2626837e-10
C0M750,布袋,2025-12-10,23.380878,120.167789,0.095317245
C1S860,利嘉,2025-12-10,22.809417,121.050528,3.5586516e-09
E2S980,林試太麻里1,2025-12-10,22.598922,120.980044,2.5928621e-08
C0X170,關廟,2025-12-10,22.963017,120.327797,8.0826936e-08
C0V720,林園,2025-12-10,22.507747,120.394511,1.83764e-08
C1I510,線浸林道,2025-12-10,23.761508,120.832956,9.538293e-10
C0D690,外湖,2025-12-10,24.917735,120.968711,0.9685922
C0C750,新興坑尾,2025-12-10,25.0061,121.0971,0.97090554
B2Q810,畜試南區分所,2025-12-10,21.945583,120.802167,0.19274603
C0S790,金崙,2025-12-10,22.538122,120.966875,1.0817196e-08
C0AH90,福山植物園,2025-12-10,24.760717,121.58135,1.4966632e-08
C0I540,奇萊稜線,2025-12-10,24.109231,121.326456,1.4096502e-08
C0M850,表湖,2025-12-10,23.24186,120.64166,7.1994555e-10
C0S770,大溪山,2025-12-10,22.478475,120.943325,2.348128e-08
C0AG80,中和,2025-12-10,24.991622,121.491792,0.012817027
C0T790,大禹嶺,2025-12-10,24.186117,121.316086,8.07069e-09
C0T9B0,水源,2025-12-10,23.991861,121.537169,4.5494932e-09
C0R840,牡丹池山,2025-12-10,22.168389,120.841225,0.9988839
C1I131,桶頭,2025-12-10,23.641944,120.654117,3.203454e-09
CAL110,布袋國中,2025-12-10,23.35893,120.18026,0.095317245
C2M9D0,何竹子腳,2025-12-10,23.53641,120.38203,0.014891402
467571,新竹,2025-12-10,24.827853,121.014219,0.9910727
C0Z290,赤柯山,2025-12-10,23.36893,121.38293,7.40926e-09
C0X280,將軍,2025-12-10,23.214999,120.13577,0.9297797
C0S690,太麻里,2025-12-10,22.60902,120.98533,4.987224e-09
C0U880,北關,2025-12-10,24.9072,121.8734,1.5964902e-08
CAW010,東引,2025-12-10,26.3588,120.4836,0.8475975
C0G810,埔心,2025-12-10,23.947633,120.525456,1.02591144e-07
C0U970,大福,2025-12-10,24.80064,121.81389,7.9683715e-10
C2H9N0,仁愛東眼,2025-12-10,24.026875,121.1205,1.2876813e-09
C1E670,南礦,2025-12-10,24.538278,121.002836,2.1529054e-09
C0M520,東後寮,2025-12-10,23.369908,120.248065,0.049067307
C1E461,松安,2025-12-10,24.397972,120.986022,2.3948916e-09
C2N160,西拉雅風管處,2025-12-10,23.189481,120.335297,3.671891e-07
C2M970,碧湖,2025-12-10,23.568632,120.624165,1.1657619e-09
C0A640,石碇,2025-12-10,24.993969,121.662917,1.1780982e-07
E2S960,林試太麻里2,2025-12-10,22.598,120.99775,6.698539e-08
C0F9Y0,桃山,2025-12-10,24.432739,121.303808,1.4838579e-08
C1I020,萬大,2025-12-10,23.979817,121.132261,8.0491475e-10
C2UC20,長嶺,2025-12-10,24.70894,121.61162,5.521554e-09
C0U940,羅東,2025-12-10,24.68184,121.74934,1.0780261e-09
C0M650,朴子,2025-12-10,23.43463,120.23902,0.00012366573
C1I500,大尖山,2025-12-10,23.858572,120.994889,4.1539834e-09
C0FB40,中橫21.6k,2025-12-10,24.2499,121.1455,2.2360642e-09
C0G820,田尾,2025-12-10,23.901669,120.509389,1.03180255e-07
E2K600,四湖植物園,2025-12-10,23.676986,120.163433,0.99854684
C0S730,綠島,2025-12-10,22.6672,121.47533,0.9397884
12Q970,東港工作站,2025-12-10,22.479997,120.466058,0.698219
C0E430,南庄,2025-12-10,24.601775,121.000214,4.5728582e-10
C1TA00,太魯閣,2025-12-10,24.15773,121.6236,2.0208205e-07
466920,臺北,2025-12-10,25.037658,121.514853,2.5402962e-06
C0R600,舊泰武,2025-12-10,22.588194,120.664944,5.482126e-10
C1I260,北坑,2025-12-10,23.9246,121.006903,3.8758521e-10
466910,鞍部,2025-12-10,25.182586,121.529731,1.6861943e-08
C1I230,九份二山,2025-12-10,23.961944,120.845,8.441357e-10
C2M810,里佳,2025-12-10,23.389125,120.716647,2.3282232e-09
C2A660,瑞芳,2025-12-10,25.113169,121.801147,3.6928245e-06
C0R270,琉球嶼,2025-12-10,22.332244,120.362236,4.348779e-07
C2V580,瑞山,2025-12-10,22.90304,120.43424,5.5270752e-09
C1T990,高寮,2025-12-10,23.394239,121.356808,7.142734e-10
C0G620,芬園,2025-12-10,24.015678,120.6213,5.238083e-09
C1Z140,荖溪,2025-12-10,23.890575,121.45964,2.1569097e-08
C1I201,中心崙,2025-12-10,23.728722,120.712097,5.161821e-10
C1I400,凌霄,2025-12-10,24.018778,121.004456,1.2269038e-09
C1M640,十字,2025-12-10,23.492153,120.753683,2.9959535e-09
G2P820,農試鳳山分所,2025-12-10,22.646611,120.356083,0.9994458
C0Z270,蕃薯寮,2025-12-10,23.73835,121.540108,1.942767e-09
C2E420,竹南,2025-12-10,24.70898,120.88897,0.9696487
C0FB10,出雲山苗圃,2025-12-10,24.23105,120.90475,9.627177e-10
C0F9Q0,外埔,2025-12-10,24.347817,120.705686,5.279364e-10
C0K580,高鐵雲林,2025-12-10,23.737456,120.417944,3.919259e-06
C2I090,鳳凰,2025-12-10,23.728081,120.787347,5.610258e-10
C0U990,員山,2025-12-10,24.74435,121.72247,1.0563911e-09
C0V770,大社,2025-12-10,22.730306,120.346639,0.53940237
C0X120,麻豆,2025-12-10,23.183289,120.248611,2.0807362e-05
C0C670,龍潭,2025-12-10,24.870056,121.221389,0.004392151
C0D680,香山濕地,2025-12-10,24.783581,120.914988,0.9683266
C0S980,勝林山,2025-12-10,22.430439,120.8938,2.8236338e-08
C0V730,大寮,2025-12-10,22.605614,120.395717,0.00042137402
C0R570,麟洛,2025-12-10,22.65078,120.52719,4.3851464e-06
C2M930,石卓,2025-12-10,23.478744,120.702264,3.1874003e-09
C0G9B0,和美,2025-12-10,24.105169,120.492131,0.9978275
CAG100,王功漁港,2025-12-10,23.96824,120.32586,0.92815554
C0X290,北門,2025-12-10,23.267772,120.125481,0.9297797
C2F930,大甲,2025-12-10,24.347667,120.640403,0.0011145672
C0D650,湖口,2025-12-10,24.904794,121.043628,0.954953
C0E420,竹南,2025-12-10,24.708978,120.888897,0.9696487
C0U780,五結,2025-12-10,24.68637,121.79794,1.0608898e-09
C1I250,鯉潭,2025-12-10,23.961922,120.991131,9.352558e-10
C0R130,阿禮,2025-12-10,22.742908,120.743678,8.774392e-10
C0X100,臺南市北區,2025-12-10,23.010394,120.194228,0.9172507
C0S920,金峰嘉蘭,2025-12-10,22.594789,120.960825,2.4990351e-08
C0V490,新興,2025-12-10,22.627422,120.298803,0.00082072633
C0F9K0,大安,2025-12-10,24.345061,120.588025,0.6414504
467290,古坑,2025-12-10,23.633639,120.551889,6.6638194e-07
C2E970,八甲,2025-12-10,24.535811,120.795983,2.766949e-09
C0V440,鳳山,2025-12-10,22.646653,120.356122,0.9994458
C1T940,大觀,2025-12-10,23.714206,121.373133,2.434179e-09
C0E740,造橋,2025-12-10,24.637056,120.864778,0.7499622
C0R100,尾寮山,2025-12-10,22.833111,120.683889,9.978273e-10
A2K630,臺大雲林校區,2025-12-10,23.730628,120.423903,3.919259e-06
467990,馬祖,2025-12-10,26.169467,119.923158,3.8404315e-07
C0D580,寶山,2025-12-10,24.735006,121.025192,1.4167438e-09
E2P990,林試扇平站,2025-12-10,22.9677,120.6857,8.061316e-10
C0AI30,三重,2025-12-10,25.057328,121.500629,3.5314658e-06
C0AH00,汐止,2025-12-10,25.066881,121.658778,2.5402962e-06
C1Z040,立山,2025-12-10,23.443356,121.327375,7.150971e-09
466881,新北,2025-12-10,24.959207,121.525196,0.0072603817
C0W130,花嶼,2025-12-10,23.40007,119.32276,0.714112
C0A950,鼻頭角,2025-12-10,25.129036,121.923372,0.99565655
C0K470,林內,2025-12-10,23.748675,120.609642,1.6359816e-07
C2F990,摩天嶺,2025-12-10,24.322458,120.936819,1.0385424e-09
C2E430,南庄,2025-12-10,24.601775,121.000214,4.5728582e-10
82C160,茶改場,2025-12-10,24.908472,121.185333,0.24111512
C2TB60,南安,2025-12-10,23.29818,121.26157,9.889826e-10
C0Z320,清水林道,2025-12-10,23.27125,121.188272,4.4096713e-09
C0R760,南仁湖,2025-12-10,22.084681,120.863353,0.999486
C0M670,大林,2025-12-10,23.600616,120.45841,0.012895041
C0M800,茶山,2025-12-10,23.299075,120.664767,7.4357304e-10
C0A9C0,天母,2025-12-10,25.117494,121.537169,2.328188e-06
72K220,南改斗南分場,2025-12-10,23.634556,120.477333,0.020908913
72AI40,桃改樹林分場,2025-12-10,24.944503,121.386972,0.7179722
C0S910,蘭嶼燈塔,2025-12-10,22.081197,121.503117,0.9428673
C0B050,八斗子,2025-12-10,25.144754,121.79167,0.00029930117
C0U900,內城,2025-12-10,24.71813,121.68766,1.0931682e-09
C0X320,柳營,2025-12-10,23.253328,120.375253,1.0248554e-07
C0M790,新港,2025-12-10,23.553269,120.345728,0.0012989029
C0F9T0,西屯,2025-12-10,24.179494,120.641275,2.7016581e-08
C0E950,松安,2025-12-10,24.39792,120.98599,2.3948916e-09
C0SA30,都歷,2025-12-10,23.020333,121.323642,1.5877768e-09
C0C620,蘆竹,2025-12-10,25.084275,121.265767,0.8151895
C0R730,大坪頂,2025-12-10,22.024633,120.69355,0.9636012
C0AJ40,石門,2025-12-10,25.273672,121.601198,0.2662409
C0E750,苗栗,2025-12-10,24.564569,120.824575,1.03461865e-07
C0T870,鯉魚潭,2025-12-10,23.935639,121.508944,2.0817859e-09
C1V170,排雲,2025-12-10,23.463619,120.954147,1.5343371e-08
C2H950,中寮,2025-12-10,23.884447,120.766406,5.8729993e-10
C0R350,貓鼻頭,2025-12-10,21.921774,120.7358,0.9434829
C0V660,岡山,2025-12-10,22.797078,120.294958,0.9683863
C1H941,雙冬,2025-12-10,23.967378,120.802189,3.919573e-10
C0AJ70,田寮,2025-12-10,25.2698,121.4886,0.90494114
C0AI00,五股,2025-12-10,25.07445,121.42728,0.0043637287
C0Z280,德武,2025-12-10,23.47426,121.41071,7.43288e-10
C2RA10,大新,2025-12-10,22.67558,120.57788,1.6775942e-06
C0R700,枋山,2025-12-10,22.246844,120.661086,0.5963013
C0C460,復興,2025-12-10,24.820208,121.352281,7.360134e-08
C2K300,鹿南,2025-12-10,23.63855,120.3636,5.5803073e-05
E2H360,蓮華池,2025-12-10,23.918333,120.885278,4.1609435e-10
C0M640,中埔,2025-12-10,23.42538,120.5229,4.212148e-08
C0W140,金沙,2025-12-10,24.488292,118.408778,4.054988e-06
C2A540,四堵,2025-12-10,24.8926,121.745736,8.227139e-09
C0ACA0,新莊,2025-12-10,25.051478,121.446756,1.6238311e-05
C0R220,潮州,2025-12-10,22.534361,120.54,8.09292e-05
U2HA40,臺大內茅埔,2025-12-10,23.689722,120.851117,7.2084827e-10
467490,臺中,2025-12-10,24.145736,120.684075,6.068548e-08
C0UB60,明池,2025-12-10,24.650688,121.475277,2.0550662e-08
C0U960,翠峰湖,2025-12-10,24.510856,121.608044,1.6565918e-08
E2HA20,林試畢祿溪站,2025-12-10,24.226944,121.308522,6.956666e-09
C2M9A0,大華,2025-12-10,23.4824,120.67491,1.262508e-09
C0V890,前鎮,2025-12-10,22.5718,120.3117,0.0015443101
C1F941,雪嶺,2025-12-10,24.280586,121.026642,1.2746817e-08
C2H9E0,國姓南港,2025-12-10,23.911108,120.846556,1.1208051e-09
C0AC80,文山,2025-12-10,25.00235,121.575728,0.0038575619
C0F9R0,龍井,2025-12-10,24.184536,120.528972,0.9864262
C0M760,民雄,2025-12-10,23.551754,120.428457,0.016263517
C0UA40,西德山,2025-12-10,24.560647,121.752608,1.3444e-08
C2TA70,赤科坪,2025-12-10,23.39885,121.39168,7.135344e-09
C1T920,中興,2025-12-10,23.769503,121.498653,1.419752e-09
C0D550,雪霸,2025-12-10,24.526972,121.11605,4.5747974e-09
C2F860,梨山,2025-12-10,24.247522,121.243669,7.2101503e-09
C0R320,車城,2025-12-10,22.0744,120.716247,0.35514802
C1S870,南美山,2025-12-10,23.15025,121.382333,2.9380178e-09
C0B020,基隆嶼,2025-12-10,25.19141,121.78391,0.9909588
C1U501,牛鬥,2025-12-10,24.637836,121.573656,2.991865e-09
C0M730,嘉義市東區,2025-12-10,23.457673,120.460531,7.769061e-07
C2R990,泰武,2025-12-10,22.60686,120.69765,2.1987117e-09
C0S700,知本,2025-12-10,22.684866,121.005642,3.3773448e-09
C1N001,沙崙,2025-12-10,22.935472,120.309406,1.03372706e-07
C0V760,橋頭,2025-12-10,22.757806,120.30575,0.67705303
C0G960,福寶,2025-12-10,24.0443,120.3814,0.9984709
C0X210,白河,2025-12-10,23.347466,120.414427,5.0259295e-08
C0S810,東河,2025-12-10,22.972672,121.303986,0.999883
C2R170,屏東,2025-12-10,22.66027,120.49403,4.7315752e-06
C0R670,楓港,2025-12-10,22.190131,120.692156,0.99306947
C0FA50,霧峰,2025-12-10,24.0419,120.6995,7.73917e-09
C0UB10,蘇澳,2025-12-10,24.5969,121.8571,4.2994936e-09
C0G950,防潮門,2025-12-10,24.1835,120.4871,0.9864124
C0M740,六腳,2025-12-10,23.492871,120.290625,0.00013552376
C1R250,力里,2025-12-10,22.428117,120.629228,1.5285017e-06
C0K330,虎尾,2025-12-10,23.719183,120.442036,2.5255756e-06
C2FA00,烏石坑,2025-12-10,24.273503,120.947617,1.0152318e-09
C0V620,永安,2025-12-10,22.82315,120.236856,0.9683863
C1I330,楓樹林,2025-12-10,23.986803,121.076117,9.429056e-10
C0W200,湖西,2025-12-10,23.596314,119.67275,0.611522
72Q010,高雄農改場,2025-12-10,22.709333,120.525889,0.0002585765
C0SA40,瑞和,2025-12-10,22.974361,121.156697,1.9602129e-09
C0C680,龜山,2025-12-10,25.02846,121.38656,0.0006543641
C2V260,月眉,2025-12-10,22.971003,120.539853,4.5797215e-09
C0V450,鳳森,2025-12-10,22.545064,120.392592,5.2364646e-09
C0FA90,小雪山林道,2025-12-10,24.29515,121.03651,1.6600142e-08
C0U720,南山,2025-12-10,24.43742,121.38167,8.03075e-09
A2N290,臺南蘭花園區,2025-12-10,23.340258,120.379661,2.7558824e-06
C0R560,新園,2025-12-10,22.5434,120.461558,1.83764e-08
C0U890,三星,2025-12-10,24.66812,121.65302,2.670482e-09
C1V300,御油山,2025-12-10,23.001983,120.715364,2.8470868e-09
C0U600,礁溪,2025-12-10,24.817539,121.765608,2.8797684e-09
C1T980,龍澗,2025-12-10,24.023289,121.411328,3.6433505e-08
C0D670,海天一線,2025-12-10,24.831986,120.914438,0.9944922
C0SA00,歷坵,2025-12-10,22.520969,120.89185,5.249975e-09
C0M710,東石,2025-12-10,23.458927,120.15385,0.9726595
C0M780,鹿草,2025-12-10,23.41134,120.30835,7.6278884e-05
C0U520,雙連埤,2025-12-10,24.753033,121.641303,5.4337113e-09
C0B010,七堵,2025-12-10,25.094819,121.71713,1.2501057e-06
C0R480,長治,2025-12-10,22.693128,120.542622,0.00042814374
C1V830,國三S383K,2025-12-10,22.781967,120.426475,3.8104286e-08
12Q980,恆春工作站,2025-12-10,22.079678,120.714425,0.3551481
C1O940,東山服務區,2025-12-10,23.286016,120.398472,5.5586145e-08
C1U840,東澳嶺,2025-12-10,24.5378,121.8485,7.849897e-09
C1D630,飛鳳山,2025-12-10,24.766464,121.119178,3.9166084e-09
C0S940,石寧山,2025-12-10,23.223772,121.406639,1.3293804e-09
C0K410,北港,2025-12-10,23.573957,120.292802,1.2256037e-05
C2M620,瑞里,2025-12-10,23.545133,120.675197,1.7071666e-09
C0SB70,小港漁港,2025-12-10,23.158558,121.400431,1.043907e-08
C2O950,安南,2025-12-10,23.076694,120.144861,0.99870604
C0F0E0,南湖圈谷,2025-12-10,24.363714,121.444667,3.216607e-08
467610,成功,2025-12-10,23.097486,121.373428,1.386695e-05
C0G890,伸港,2025-12-10,24.148933,120.484403,0.9981137
C2E540,龍溪,2025-12-10,24.606489,120.783933,0.76192874
C1V200,梅山,2025-12-10,23.268447,120.823556,7.502659e-10
C0T9H0,加路蘭山,2025-12-10,23.682947,121.5274,3.6647798e-09
C2O930,玉井,2025-12-10,23.126042,120.46055,6.127435e-08
C1F911,新伯公,2025-12-10,24.221361,120.841069,8.193622e-10
C0R490,九如,2025-12-10,22.7405,120.490503,0.00031694325
C0X200,左鎮,2025-12-10,23.056758,120.408522,7.2292806e-08
C2TB50,麻汝,2025-12-10,23.42554,121.39358,7.820407e-10
C0FA60,鞍馬山工作站,2025-12-10,24.267064,121.000793,7.679822e-09
C0SB50,叭嗡嗡,2025-12-10,23.047062,121.343223,2.2265396e-09
C1F891,稍來,2025-12-10,24.265689,121.001142,7.355472e-09
C2M9C0,紫雲,2025-12-10,23.494914,120.540253,1.5128711e-06
72N240,七股研究中心,2025-12-10,23.081672,120.062894,0.99907637
C0C700,中壢,2025-12-10,24.977661,121.256375,0.00058598496
C0M690,水上,2025-12-10,23.419734,120.388909,1.808694e-05
C0V690,鼓山,2025-12-10,22.623325,120.275575,0.00082072633
C0O860,大內,2025-12-10,23.11885,120.36083,2.8447382e-06
C0Z200,萬榮,2025-12-10,23.709219,121.420106,1.6001933e-09
C0T9D0,和中,2025-12-10,24.26676,121.74103,7.3963826e-09
C2S9A0,北份子寮,2025-12-10,22.78561,121.07813,0.51056796
C1O921,楠西,2025-12-10,23.183511,120.484083,4.8102566e-09
C0AJ30,淡水觀海,2025-12-10,25.184591,121.408616,0.0018536724
C0V810,左營,2025-12-10,22.67491,120.28491,0.99959916
C0UA70,桃源谷,2025-12-10,24.962606,121.888875,6.493831e-09
C0X130,官田,2025-12-10,23.193217,120.315422,4.800704e-07
C1H000,翠峰,2025-12-10,24.109397,121.205211,5.7677845e-09
C0UA90,石城,2025-12-10,24.980444,121.951214,1.0454413e-08
C1E681,南勢山,2025-12-10,24.421669,120.923831,1.1266392e-09
C0A9F0,內湖,2025-12-10,25.079422,121.57545,2.5402962e-06
C0K291,宜梧,2025-12-10,23.536281,120.169329,0.0006278406
C1K540,口湖,2025-12-10,23.585344,120.180517,0.99964696
C0R780,滿州,2025-12-10,22.024403,120.839892,0.88473964
C0V870,文安,2025-12-10,22.8025,120.2164,0.9831894
C0U650,玉蘭,2025-12-10,24.675286,121.587061,5.6067195e-09
C0R640,東港,2025-12-10,22.46247,120.44074,0.69770366
C0AJ80,板橋,2025-12-10,25.0107,121.4489,0.01754863
C0S660,下馬,2025-12-10,23.150427,121.070312,4.0507118e-09
C2N190,烏樹,2025-12-10,23.32393,120.36989,8.1681335e-08
C1H9B1,阿眉,2025-12-10,24.1263,120.994672,4.7407958e-09
C0UA20,多加屯,2025-12-10,24.368614,121.373189,7.0974466e-09
C0E730,頭份,2025-12-10,24.688247,120.912206,0.9801114
72V140,高改旗南分場,2025-12-10,22.857861,120.516667,3.0938942e-08
C0K480,莿桐,2025-12-10,23.761192,120.502372,1.1746121e-06
C0U980,坪林石牌,2025-12-10,24.86478,121.77396,5.1569424e-09
C0T900,西林,2025-12-10,23.8119,121.441458,1.5709078e-09
C1I150,青雲,2025-12-10,23.793361,120.949378,3.1188052e-10
C2E980,和興,2025-12-10,24.505319,120.923016,9.310819e-10
467350,澎湖,2025-12-10,23.565503,119.563094,0.55489266
C0G800,埔鹽,2025-12-10,24.000394,120.431683,0.9872536
C0H960,草屯,2025-12-10,23.973672,120.68085,5.5546057e-09
C1V780,多納林道,2025-12-10,22.888028,120.737917,1.2711268e-09
C0E920,通霄漁港,2025-12-10,24.498589,120.673876,0.98776525
C0Z330,安通山,2025-12-10,23.290728,121.348528,1.4887673e-09
C0AH10,永和,2025-12-10,25.01125,121.508111,0.01754862
C0AK10,太平里,2025-12-10,25.134937,121.364899,0.3458483
C2G640,鹿港,2025-12-10,24.0753,120.430481,0.9984709
C1E890,國三N149K,2025-12-10,24.463414,120.680019,0.9325539
C1R110,口社,2025-12-10,22.770111,120.645222,5.15299e-09
C1M870,國三N285K,2025-12-10,23.550319,120.505833,1.5937396e-05
C1E480,鳳美,2025-12-10,24.554803,121.034747,5.709791e-10
C0M530,奮起湖,2025-12-10,23.493903,120.699253,2.0119868e-09
C0C590,觀音,2025-12-10,25.027072,121.153317,0.99204504
C0T9M0,靜浦,2025-12-10,23.455167,121.495028,7.250637e-10
C2H9M0,發祥,2025-12-10,24.154094,121.164517,2.740237e-09
C2G9C0,埔南,2025-12-10,23.99124,120.46969,0.9829255
C0AI40,石牌,2025-12-10,25.115597,121.513139,2.794384e-06
C1F871,上谷關,2025-12-10,24.203483,121.018644,1.0014728e-09
C2H9G0,百勝,2025-12-10,24.051142,120.909361,3.4025985e-10
C0G880,二水,2025-12-10,23.810742,120.6173,1.495516e-08
C0R940,加祿堂,2025-12-10,22.3363,120.6217,0.9968466
C0W220,北竿,2025-12-10,26.220358,119.974881,2.5573512e-05
C0O960,崎頂,2025-12-10,22.959547,120.369317,2.9803502e-08
C0TA40,秀林,2025-12-10,24.302864,121.731144,8.9572065e-09
C0S750,向陽,2025-12-10,23.248397,120.986133,6.0061325e-09
C0T9F0,水璉,2025-12-10,23.797131,121.542514,1.7495353e-09
C1M600,頭凍,2025-12-10,23.406364,120.603339,1.3222694e-09
467660,臺東,2025-12-10,22.752211,121.154586,0.9998057
C1D380,新埔,2025-12-10,24.84745,121.03834,0.9568785
C2G980,田頭村,2025-12-10,23.8263,120.444175,4.6637393e-07
C0V750,路竹,2025-12-10,22.854997,120.259439,0.112787336
C0N050,蚵寮,2025-12-10,23.301,120.1104,0.67224294
C2X060,下營,2025-12-10,23.226806,120.256291,6.6672386e-05
72M700,南改鹿草分場,2025-12-10,23.416869,120.283061,0.00010497663
C1SA50,利嘉林道,2025-12-10,22.82325,121.009389,1.6227265e-08
C0UB70,太平山中間站,2025-12-10,24.542003,121.513453,1.0645856e-08
C0A940,金山,2025-12-10,25.223628,121.643967,5.791068e-05
C1V340,大津,2025-12-10,22.888322,120.645986,1.1117929e-08
C0W180,七美,2025-12-10,23.219333,119.444892,0.70560676
C1F9C1,白冷,2025-12-10,24.182844,120.929889,7.354009e-10
K2E710,苗改生物防治研究中心,2025-12-10,24.422861,120.871833,2.950866e-10
C0N040,蘆竹溝,2025-12-10,23.2344,120.0961,0.9297797
C0TB40,崇德,2025-12-10,24.166144,121.657414,3.8160837e-07
C0D760,大坪苗圃,2025-12-10,24.5362,121.1108,2.7617395e-09
C2W230,畜試所澎湖,2025-12-10,23.628342,119.513206,0.7116619
C0R880,後壁湖,2025-12-10,21.9457,120.7457,0.45859203
C1I280,埔中,2025-12-10,23.820778,120.642594,3.9877115e-10
467790,墾丁雷達站,2025-12-10,21.948235,120.808028,0.2074772
C0W190,望安,2025-12-10,23.380564,119.494075,0.76295716
C0Z170,卓溪,2025-12-10,23.3443,121.3029,7.630641e-10
C0F850,東勢,2025-12-10,24.246428,120.833047,4.645836e-10
466900,淡水,2025-12-10,25.164889,121.448906,0.34724373
C0I370,魚池,2025-12-10,23.895703,120.94135,3.6766662e-10
C0C630,大溪,2025-12-10,24.882853,121.265547,0.03691561
C0A520,山佳,2025-12-10,24.974944,121.402008,0.038329568
C0I110,竹山,2025-12-10,23.761225,120.688156,6.0147536e-09
82H840,茶改南部分場,2025-12-10,23.762528,120.7405,4.199269e-10
C2SD80,再來山,2025-12-10,23.34371,121.44122,7.999223e-10
C0G660,溪湖,2025-12-10,23.94835,120.479122,1.1168773e-07
C1T800,洛韶,2025-12-10,24.204558,121.453956,1.5178651e-08
C1T810,慈恩,2025-12-10,24.192044,121.388386,5.5449623e-09
C1E451,象鼻,2025-12-10,24.368617,120.940228,1.2357437e-09
C0AC60,三峽,2025-12-10,24.939025,121.369728,0.6367744
C0I490,萬大林道,2025-12-10,23.928228,121.091411,1.931907e-09
C1I290,豐丘,2025-12-10,23.668178,120.887417,1.473085e-09
C1I320,奧萬大,2025-12-10,23.952956,121.178556,1.0260927e-09
C2M910,嘉義大學,2025-12-10,23.471325,120.485903,2.3442867e-07
C0U770,南澳,2025-12-10,24.44935,121.81022,2.740237e-09
C2TB30,吉安,2025-12-10,23.94538,121.54803,2.122408e-09
C0A980,社子,2025-12-10,25.109508,121.469681,0.36777797
C0V800,六龜,2025-12-10,22.997889,120.633583,9.2796326e-10
C1G9D0,國一S218K,2025-12-10,23.890641,120.493253,2.4039396e-06
C0E570,白沙屯,2025-12-10,24.549447,120.696803,0.97932667
C2F9A0,中竹林,2025-12-10,24.103556,120.751061,3.469305e-10
C0FA40,臺中電廠,2025-12-10,24.2146,120.4907,0.9864262
C2G9A0,畜試所彰化,2025-12-10,23.86045,120.557964,8.8361435e-07
C0H9C0,合歡山,2025-12-10,24.143442,121.272547,1.4691994e-08
G2M350,農試溪口農場,2025-12-10,23.58565,120.408111,0.027350042
C0U860,頭城,2025-12-10,24.85323,121.8308,2.8869342e-09
C0R580,南州,2025-12-10,22.48591,120.50274,0.69770366
C0D430,峨眉,2025-12-10,24.6905,121.017189,0.00065951975
C0G780,秀水,2025-12-10,24.03405,120.503869,2.2370428e-07
72N100,臺南農改場,2025-12-10,23.0605,120.342194,2.3404673e-06
C0S900,蘭嶼高中,2025-12-10,22.04909,121.51214,0.969955
C2TA60,六十石,2025-12-10,23.22477,121.31861,5.9342344e-09
C1F9W0,德基,2025-12-10,24.254783,121.190261,5.6466214e-09
C2M980,安和,2025-12-10,23.51377,120.31593,7.177343e-05
C1Z120,壽豐,2025-12-10,23.870853,121.508081,1.520298e-09
C0W160,烏坵,2025-12-10,24.9944,119.44956,0.9848775
C1I240,外大坪,2025-12-10,23.958697,120.917931,9.186859e-10
C1I550,國六W023K,2025-12-10,23.979067,120.867742,3.130349e-10
C0R870,興海,2025-12-10,21.9752,120.8439,0.19274603
C0R140,瑪家,2025-12-10,22.682903,120.686639,6.772789e-10
C0A530,坪林,2025-12-10,24.938183,121.70975,8.635842e-09
C0X260,後壁,2025-12-10,23.366358,120.362326,2.7547708e-06
C0Z230,和平,2025-12-10,24.30717,121.77007,7.658027e-09
C0G770,福興,2025-12-10,24.041289,120.437669,0.98724174
C0H9A0,神木村,2025-12-10,23.532742,120.843667,3.099817e-09
C0I460,南投,2025-12-10,23.911469,120.687331,4.3344775e-10
C0I480,梅峰,2025-12-10,24.085272,121.173572,2.8794553e-09
C1V570,吉東,2025-12-10,22.85422,120.5454,2.4287866e-08
C2A560,福山,2025-12-10,24.776203,121.502811,1.4484453e-08
C0AH30,五分山,2025-12-10,25.07125,121.780794,6.5025194e-09
C0FA10,松柏,2025-12-10,24.429115,120.617482,0.99606675
72S200,東改班鳩分場,2025-12-10,22.829528,121.077694,0.0006766417
72HA00,中改埔里分場,2025-12-10,23.903208,120.963364,4.0198078e-10
C2H9W0,大坪頂農水,2025-12-10,24.043122,120.932781,6.639562e-10
C0C650,平鎮,2025-12-10,24.897503,121.214636,0.12173982
C0S930,延平,2025-12-10,22.902581,121.084058,1.0278152e-07
C0UA60,樟樹山,2025-12-10,24.41393,121.78325,1.0652721e-08
C2UC10,出水溪,2025-12-10,24.615822,121.652253,7.2666864e-09
C1S670,摩天,2025-12-10,23.199503,121.027,2.0369862e-08
C2C590,觀音,2025-12-10,25.027072,121.153317,0.99204504
C0V630,茄萣,2025-12-10,22.906642,120.182608,0.22922286
466940,基隆,2025-12-10,25.133314,121.740475,0.0001955501
C0X050,東河,2025-12-10,23.296598,120.385608,7.357482e-08
C0R770,保力,2025-12-10,22.071122,120.764111,0.90464795
G2L020,農試嘉義分所,2025-12-10,23.485028,120.473806,5.1853694e-06
C0X240,關子嶺,2025-12-10,23.331169,120.508025,2.5066949e-10
C0I380,集集,2025-12-10,23.828206,120.801467,6.217527e-10
466990,花蓮,2025-12-10,23.975128,121.613275,6.015534e-09
C1V220,小關山,2025-12-10,23.154217,120.813603,2.9686895e-09
C1F9G1,慶福山,2025-12-10,24.180853,120.848378,5.961391e-10
C0FB20,雪山橋,2025-12-10,24.23192,120.9786,8.41556e-09
C0Z250,瑞穗林道,2025-12-10,23.49284,121.30688,3.2211933e-08
C0D590,新豐,2025-12-10,24.87068,120.97721,0.99699175
C0A870,五指山,2025-12-10,25.132153,121.608692,5.8671796e-09
C0UA50,西帽山,2025-12-10,24.555361,121.802628,1.069215e-08
C2R980,竹田國中,2025-12-10,22.61532,120.52412,0.00010563789
C0X160,仁德,2025-12-10,22.968258,120.257689,0.010166107
C1H971,六分寮,2025-12-10,23.92507,120.6378,2.587746e-10
C0W120,西嶼,2025-12-10,23.5626,119.468436,0.6445269
C0G650,員林,2025-12-10,23.946503,120.585597,4.634088e-08
C0AD50,鶯歌,2025-12-10,24.951533,121.346294,0.5620244
C2H9Q0,北東眼山,2025-12-10,24.120939,121.189303,5.562398e-09
C2H9T0,名間竹圍,2025-12-10,23.859914,120.637572,2.4954605e-10
C0S990,山豬窟,2025-12-10,22.318619,120.857372,0.0003758449
C0X190,安平,2025-12-10,22.993161,120.152181,0.9172506
C0K400,斗六,2025-12-10,23.720583,120.541127,0.00029466284
12J990,口湖工作站,2025-12-10,23.589978,120.180394,0.99964696
C0O830,北寮,2025-12-10,23.079561,120.495008,1.3330723e-09
C1D410,白蘭,2025-12-10,24.579364,121.079947,2.4421591e-09
C0S970,加津林,2025-12-10,22.416211,120.926942,0.99684775
C0D700,關西,2025-12-10,24.7977,121.1732,0.0014669347
C0M810,里佳,2025-12-10,23.389125,120.716647,2.3282232e-09
C0U750,龜山島,2025-12-10,24.841667,121.953133,7.4467005e-07
C0R810,內獅,2025-12-10,22.305064,120.642986,0.99673533
C1M390,龍美,2025-12-10,23.406728,120.654417,1.638347e-09
C2K290,崙內,2025-12-10,23.69525,120.35601,9.6289305e-06
C2FB60,頭櫃山,2025-12-10,24.129842,120.858925,1.2782431e-09
C1H840,國三N238K,2025-12-10,23.841008,120.707711,2.5667415e-10
CAQ030,崎峰國小,2025-12-10,22.42565,120.49521,0.69770366
C2E520,大湖,2025-12-10,24.414939,120.870872,2.9888805e-10
467530,阿里山,2025-12-10,23.508208,120.813242,8.911197e-09
C1E691,南湖,2025-12-10,24.40135,120.837533,8.409891e-10
C0FA30,梧棲,2025-12-10,24.256003,120.523381,0.16522162
C1V231,高中,2025-12-10,23.134911,120.716711,7.663766e-10
C0AK30,硬漢嶺,2025-12-10,25.136097,121.426372,5.818113e-09
C0F9V0,新社,2025-12-10,24.200172,120.815806,7.130116e-10
C0H890,埔里,2025-12-10,23.972169,120.952425,3.1856423e-10
C0R690,墾丁,2025-12-10,21.966756,120.810269,0.5979652
C0SD20,富山,2025-12-10,22.822383,121.190825,0.9868425
C0F0D0,審馬陣,2025-12-10,24.381675,121.4203,1.1071353e-08
C2W030,金門農試所,2025-12-10,24.448431,118.451786,0.0012301046
C0R820,白鷺,2025-12-10,22.454275,120.666219,3.147347e-09
C0FB00,大雪山,2025-12-10,24.254668,121.007374,9.19363e-09
C1V190,南天池,2025-12-10,23.27403,120.91176,6.1604672e-09
C0E940,雪見,2025-12-10,24.42595,121.01347,4.7653823e-09
K2E360,苗栗農改場,2025-12-10,24.495722,120.829111,9.853938e-10
CAJ050,海口故事園區,2025-12-10,23.57543,120.14121,0.99964696
C2K280,四湖,2025-12-10,23.6304,120.22717,0.9985452
C2H9D0,三隻寮,2025-12-10,24.093078,120.861578,6.7275724e-10
C0O990,媽廟,2025-12-10,22.99175,120.293525,1.7138076e-05
C0D480,打鐵坑,2025-12-10,24.849664,121.150789,0.004114673
C0Z220,和平林道,2025-12-10,24.343922,121.656317,2.5217057e-09
C0TA10,花蓮漁港,2025-12-10,23.995322,121.638331,6.3253394e-09
72C440,桃園農改場,2025-12-10,24.950944,121.030583,0.96275735
C1E711,馬拉邦山,2025-12-10,24.367306,120.901656,1.2867458e-09
C0SB20,富岡,2025-12-10,22.792467,121.192669,0.9744429
C0D560,竹東,2025-12-10,24.767147,121.057881,0.002756209
C0F9U0,南屯,2025-12-10,24.137006,120.637969,6.504172e-08
C2SD60,明峰,2025-12-10,22.8671,121.11825,2.6909817e-08
C0M720,番路,2025-12-10,23.464657,120.554156,1.6483185e-08
C0F0A0,雪山圈谷,2025-12-10,24.388594,121.236339,1.7210658e-08
C1A9N0,四十份,2025-12-10,24.934158,121.593283,1.1445477e-08
C0U760,東澳,2025-12-10,24.52196,121.83318,2.4883418e-09
C0X230,鹽水,2025-12-10,23.272621,120.247641,0.5846927
C2H9H0,苗改南投蜂場,2025-12-10,23.852589,120.693481,7.4608475e-10
C2TB70,達谷寮,2025-12-10,23.38,121.35968,7.3796524e-10
C0R950,萬隆國小,2025-12-10,22.507667,120.587817,1.6478663e-05
467540,大武,2025-12-10,22.35572,120.90374,0.9967663
C0V370,古亭坑,2025-12-10,22.893178,120.401947,7.392631e-09
C1I340,新興橋,2025-12-10,23.563333,120.868728,1.0134248e-09
C0SA80,土坂,2025-12-10,22.453108,120.887572,2.5638604e-07
C0R160,鹽埔,2025-12-10,22.739558,120.530778,0.00025898463
C0AC40,大屯山,2025-12-10,25.175675,121.522408,1.5816811e-08
466850,五分山雷達站,2025-12-10,25.071182,121.781205,6.507197e-09
C2H9L0,馬烈霸,2025-12-10,24.1512,121.201772,5.451546e-09
C1AI50,國三N016K,2025-12-10,25.034164,121.619664,1.4975576e-06
C2V920,匏子寮,2025-12-10,23.04905,120.55319,1.0694022e-09
C1V600,藤枝,2025-12-10,23.071961,120.757042,2.1897806e-09
C1E601,南勢,2025-12-10,24.572486,120.734842,0.8054003
C0O980,新市,2025-12-10,23.061614,120.298197,4.9536366e-06
C0K420,西螺,2025-12-10,23.800407,120.467394,4.2889013e-07
C0Z050,佳心,2025-12-10,23.34567,121.21316,6.764401e-09
C0AD30,蘆洲,2025-12-10,25.086594,121.472331,3.5314658e-06
C0V610,梓官,2025-12-10,22.760558,120.267211,0.67309415
K2F750,種苗改良場,2025-12-10,24.225972,120.800917,7.5980366e-10
C0UA80,大溪漁港,2025-12-10,24.941801,121.902955,1.5285652e-08
C1AI60,國一39K邊坡,2025-12-10,25.064361,121.383836,0.0017042875
C0W150,金寧,2025-12-10,24.457703,118.328989,0.0009793326
C0R960,內埔,2025-12-10,22.608483,120.570714,7.017245e-05
V2C250,八德合作社,2025-12-10,24.93775,121.266389,0.2783965
C2H9S0,龍南,2025-12-10,23.953536,120.833183,6.6109024e-10
C0AH40,平等,2025-12-10,25.129142,121.577086,7.1668103e-09
C0R540,佳冬,2025-12-10,22.419456,120.552375,0.9709658
466950,彭佳嶼,2025-12-10,25.627975,122.079744,0.99892646
C0A890,雙溪,2025-12-10,25.036003,121.864242,4.2640177e-06
C0C480,桃園,2025-12-10,24.992425,121.323172,0.0023929568
C0AH50,林口,2025-12-10,25.072181,121.38084,0.00026810222
A2K360,水試臺西試驗場,2025-12-10,23.717231,120.190522,0.9989065
C2M960,外寮,2025-12-10,23.562643,120.665688,1.2317387e-09
C0F9S0,烏日,2025-12-10,24.107058,120.624103,1.3206034e-07
C2N180,鹿陶洋,2025-12-10,23.14325,120.48352,4.8102566e-09
C0C490,八德,2025-12-10,24.928708,121.283289,0.25308007
C0R190,赤山,2025-12-10,22.592333,120.614306,3.368839e-05
C0T820,天祥,2025-12-10,24.179597,121.495639,2.854701e-08
C1F9E1,龍安,2025-12-10,24.1605,120.831961,6.8191813e-10
C2SD50,順那,2025-12-10,23.04166,121.29332,1.2981496e-09
C0V820,小林,2025-12-10,23.148408,120.63325,3.964611e-10
C2G870,芳苑,2025-12-10,23.922303,120.320025,0.92426956
C0E850,大河,2025-12-10,24.618069,120.948578,1.87575e-09
C1U670,寒溪,2025-12-10,24.634,121.71691,1.287949e-09
C0N020,城西,2025-12-10,23.0568,120.0956,0.9172506
C1Z110,三棧,2025-12-10,24.11557,121.60501,2.4262816e-08
C0R280,檳榔,2025-12-10,22.076078,120.836777,0.99827087
C2H9J0,中台,2025-12-10,23.9996,120.938739,4.8286486e-10
C0F9L0,后里,2025-12-10,24.310436,120.729725,3.8750908e-10
467441,高雄,2025-12-10,22.730432,120.312516,0.53578985
C0Z180,新城,2025-12-10,24.040486,121.604878,5.8527054e-09
C0D540,橫山,2025-12-10,24.71116,121.11693,8.14218e-10
C1D420,太閣南,2025-12-10,24.632808,121.160575,2.535393e-09
C1E770,公館,2025-12-10,24.526914,120.830806,1.2778651e-09
CAN130,水試所海水繁養殖中心,2025-12-10,23.120802,120.07968,0.99907637
C1I430,翠華,2025-12-10,24.191961,121.224339,5.083338e-09
C1M400,菜瓜坪,2025-12-10,23.251928,120.576103,5.9442345e-10
C0G730,二林,2025-12-10,23.903325,120.376081,0.57007605
72M360,南改義竹分場,2025-12-10,23.360694,120.279361,0.049067307
V2K620,麥寮合作社,2025-12-10,23.753836,120.294783,9.590376e-06
C0Z070,舞鶴,2025-12-10,23.46811,121.37407,7.707347e-10
C0B040,大武崙,2025-12-10,25.166676,121.706993,3.9501614e-05
C1Z030,紅葉,2025-12-10,23.493119,121.338806,6.9719913e-10
C1I050,丹大,2025-12-10,23.753747,121.141147,5.780064e-09
C0I080,信義,2025-12-10,23.689694,120.851036,7.2084827e-10
C2TB80,庄子底,2025-12-10,23.71794,121.49438,1.5878041e-09
C0D750,樂山林道6k,2025-12-10,24.49999,121.08773,7.657093e-09
C2M920,朴子農改,2025-12-10,23.469889,120.259383,0.00012366573
C2A880,福隆,2025-12-10,25.017842,121.942083,1.0537995e-08
C0Z160,鳳林,2025-12-10,23.746114,121.453411,1.6067688e-09
C0UB80,翠峰林道6K,2025-12-10,24.49773,121.568625,1.761144e-08
C0V210,復興,2025-12-10,23.222403,120.806089,6.697025e-10
C0H990,昆陽,2025-12-10,24.121322,121.273642,1.2782656e-08
C0R741,獅子,2025-12-10,22.202308,120.705236,0.7980239
C0S710,鹿野,2025-12-10,22.917711,121.122994,1.281898e-09
C0I530,小奇萊,2025-12-10,24.131764,121.295717,1.3487431e-08
C0FA70,大雪山埡口,2025-12-10,24.26867,121.03062,1.25738016e-08
C2K630,荷苞,2025-12-10,23.657717,120.595144,1.1495571e-07
C0Z080,富源,2025-12-10,23.587642,121.378225,3.4922714e-09
C2M9E0,旺來山,2025-12-10,23.555153,120.486463,9.65894e-06
C0SB10,美和,2025-12-10,22.682078,121.060236,1.0342573e-08
C2K620,馬光農場,2025-12-10,23.721453,120.378864,6.637139e-06
C1I140,卡奈托灣,2025-12-10,23.754364,121.087872,1.4393233e-09
C0I520,玉山風口,2025-12-10,23.470489,120.955994,2.2397618e-08
C1G691,下水埔,2025-12-10,23.816114,120.5676,6.0817865e-07
C0X110,臺南市南區,2025-12-10,22.961189,120.188378,0.010166107
C0V680,仁武,2025-12-10,22.701083,120.347722,0.99959916
C2G840,北斗,2025-12-10,23.877586,120.514222,1.5445295e-06
C2TB90,長橋,2025-12-10,23.6874,121.46186,6.0249356e-10
C0R900,竹坑,2025-12-10,22.1385,120.7022,0.3555178
C0G860,社頭,2025-12-10,23.897647,120.5862,1.0997093e-06
C0X150,安定,2025-12-10,23.102614,120.227839,0.02427768
C0R590,里港,2025-12-10,22.77919,120.49459,1.3930445e-07
C0E610,馬都安,2025-12-10,24.451272,120.930192,9.0442054e-10
C0E550,明德,2025-12-10,24.583486,120.885411,4.100503e-08
C0R150,三地門,2025-12-10,22.709889,120.639944,5.7303704e-09
C0G910,花壇,2025-12-10,24.032076,120.549461,1.475177e-07
C1D400,鳥嘴山,2025-12-10,24.71909,121.28387,2.2903182e-09
C0K500,元長,2025-12-10,23.64981,120.315024,6.9371977e-06
C0F0B0,石岡,2025-12-10,24.276061,120.777644,3.905953e-10
C2V250,甲仙,2025-12-10,23.080106,120.591758,5.657431e-10
C0SA20,金崙山,2025-12-10,22.567419,120.959667,5.363251e-09
C0V350,溪埔,2025-12-10,22.738578,120.446797,5.5561836e-06
C0M660,溪口,2025-12-10,23.604131,120.403569,0.0273695
C1S880,壽卡,2025-12-10,22.238911,120.858903,0.35037553
72D680,桃改新埔分場,2025-12-10,24.834444,121.066111,0.96573764
