站號,站名,日期,lat,lon,BlastGRU-TW
C1F9D1,白毛台,2025-06-16,24.158325,120.886933,0.9667292
C1O850,環湖,2025-06-16,23.148617,120.418633,0.11721054
C0U710,太平山,2025-06-16,24.505486,121.525656,0.62929386
C0V880,興達,2025-06-16,22.8778,120.2127,0.8607207
C0S890,關山,2025-06-16,23.0395,121.175017,0.8655677
C0SB30,新蘭,2025-06-16,22.869214,121.223228,0.9963899
C2R970,屏科大,2025-06-16,22.648275,120.619247,0.9952846
C1Z130,銅門,2025-06-16,23.965694,121.492842,0.92071134
CAN140,六官養殖協會,2025-06-16,23.22881,120.29962,0.09803769
C0X180,山上,2025-06-16,23.0757,120.363253,0.05695715
C1M480,獨立山,2025-06-16,23.537022,120.607797,0.9606778
C0X220,學甲,2025-06-16,23.230367,120.182187,0.50703704
C0S950,七塊厝,2025-06-16,22.954453,121.229922,0.9961374
C2D730,寶山農場,2025-06-16,24.732444,120.976153,0.16235593
C0V400,阿公店,2025-06-16,22.804194,120.355528,0.74210155
C1F9B1,桐林,2025-06-16,24.066172,120.735194,0.9662545
C2H9U0,鳳鵬,2025-06-16,23.763919,120.788061,0.25656143
C1I450,望鄉山,2025-06-16,23.594153,120.944286,0.0109162815
B2E890,畜試北區分所,2025-06-16,24.527806,120.770972,0.13666579
C0R750,四林格山,2025-06-16,22.076989,120.802439,0.7717801
C1I121,大鞍,2025-06-16,23.678381,120.760017,0.94073385
72U480,花改蘭陽分場,2025-06-16,24.686306,121.716583,0.77207047
A2C560,農工中心,2025-06-16,24.985917,121.239833,0.044300146
C0V740,旗山,2025-06-16,22.888614,120.483597,0.048237406
C0Z061,玉里,2025-06-16,23.3215,121.339656,0.9459149
C0S840,南田,2025-06-16,22.279725,120.889208,0.9968925
C1I470,杉林溪,2025-06-16,23.639517,120.786444,0.90220517
C1X040,東原,2025-06-16,23.291597,120.463822,0.65981716
C1R120,上德文,2025-06-16,22.763272,120.704442,0.9762353
C0UA00,土場,2025-06-16,24.576533,121.495333,0.07676386
C0V650,彌陀,2025-06-16,22.783806,120.246361,0.97382504
82S580,茶改東部分場,2025-06-16,22.907694,121.130139,0.9978298
C0SB40,興隆,2025-06-16,22.913661,121.257469,0.9969723
C0V640,湖內,2025-06-16,22.887139,120.2445,0.87384444
C0R910,下寮,2025-06-16,22.3929,120.5548,0.9660975
C0Z020,明里,2025-06-16,23.208717,121.262342,0.5889779
C1E511,新開,2025-06-16,24.347703,120.827019,0.993813
G2F820,農試所(霧峰),2025-06-16,24.031261,120.688133,0.9502133
C1I070,和社,2025-06-16,23.591131,120.888861,0.94871664
C0TA80,立霧山,2025-06-16,24.183258,121.641899,0.8962296
C2F000,大肚,2025-06-16,24.15295,120.572117,0.9951087
C1S850,豐南,2025-06-16,23.122139,121.262389,0.9926053
C2A920,富貴角,2025-06-16,25.263783,121.565258,0.21602754
CAH030,茶改場竹圍站,2025-06-16,23.860083,120.637528,0.11765923
C0T960,光復,2025-06-16,23.660694,121.424964,0.72381175
C0V710,苓雅,2025-06-16,22.622742,120.330669,0.9978811
CAC040,拉拉山,2025-06-16,24.699317,121.427133,0.4362643
C0V790,萬山,2025-06-16,22.905944,120.688056,0.7955434
U2HA30,臺大和社,2025-06-16,23.590856,120.888864,0.94871664
C0Z100,東華,2025-06-16,23.89525,121.549833,0.34102616
V2K610,大庄合作社,2025-06-16,23.8068,120.367939,0.12454206
C0V900,汕尾,2025-06-16,22.4782,120.4151,0.98226696
C1R630,龍泉,2025-06-16,22.66701,120.59091,0.99793524
C1AC50,關渡,2025-06-16,25.133486,121.469331,0.013651846
C2O810,曾文,2025-06-16,23.219681,120.497328,0.51770675
C1F9J1,清水林,2025-06-16,24.071242,120.820419,0.96609086
C2A650,火燒寮,2025-06-16,25.002719,121.742892,0.02030559
C1I220,樟湖,2025-06-16,23.905333,120.846983,0.91025823
C0Z300,東里,2025-06-16,23.26853,121.30547,0.38744563
C1V590,新發,2025-06-16,23.057019,120.646064,0.95649177
72S590,東改賓朗果園,2025-06-16,22.813889,121.071278,0.9938417
82A750,茶改北部分場,2025-06-16,24.955778,121.631222,0.017940156
C1A750,石碇服務區,2025-06-16,25.00872,121.646242,0.2500318
C0X300,鹿寮,2025-06-16,23.386047,120.477331,0.0654874
G2AI50,關渡,2025-06-16,25.11575,121.492,0.036708724
C1S800,華源,2025-06-16,22.657883,121.02325,0.9964213
C1V160,達卡努瓦,2025-06-16,23.279811,120.705319,0.957339
C2M410,馬頭山,2025-06-16,23.324361,120.582017,0.9141135
C0V850,蚵仔寮,2025-06-16,22.7256,120.2527,0.94693923
C0S740,池上,2025-06-16,23.119628,121.209469,0.984583
C1V390,尖山,2025-06-16,22.813153,120.367789,0.76614594
C0SA60,知本（水試所）,2025-06-16,22.702394,121.082761,0.9984331
C0T9I0,豐濱,2025-06-16,23.583897,121.514806,0.99533564
C0UB00,淡江大學蘭陽校園,2025-06-16,24.823239,121.730383,0.09679149
C0W240,九宮,2025-06-16,24.423753,118.240186,0.12909539
C0T9N0,富里,2025-06-16,23.171639,121.249378,0.8853547
U2HA50,臺大竹山,2025-06-16,23.756972,120.681556,0.14343973
C0V840,鳳鼻頭,2025-06-16,22.5083,120.3591,0.97957355
C0X140,西港,2025-06-16,23.125608,120.203108,0.08755654
72D080,桃改五峰分場,2025-06-16,24.612194,121.157167,0.9598239
C2H9P0,伊拿谷,2025-06-16,23.963211,121.088264,0.5953754
C2H9F0,柑林,2025-06-16,24.018658,120.847072,0.9786693
C0TA20,加灣,2025-06-16,24.082025,121.608944,0.9744913
C0V530,阿蓮,2025-06-16,22.883208,120.327508,0.17927167
C1O880,關山,2025-06-16,23.173397,120.594092,0.7744074
C1I030,武界,2025-06-16,23.913225,121.052483,0.7008219
C0R930,萬丹,2025-06-16,22.5885,120.4851,0.9859796
C0S760,紅石,2025-06-16,23.069131,121.126219,0.8842676
C2C410,中央大學,2025-06-16,24.967652,121.185165,0.0475326
C1M610,石磐龍,2025-06-16,23.496606,120.663506,0.9757695
C0UA10,鴛鴦湖,2025-06-16,24.590269,121.412228,0.95296806
V2C260,八德蔬果,2025-06-16,24.978508,121.281819,0.01732202
C0R800,丹路,2025-06-16,22.204481,120.750989,0.9877309
C2M950,太和,2025-06-16,23.538372,120.702961,0.9560563
C1A630,下盆,2025-06-16,24.771003,121.538622,0.96978444
B2N890,畜產試驗所,2025-06-16,23.058972,120.336406,0.03968658
C0UA30,白嶺,2025-06-16,24.527819,121.519031,0.9211683
C1V580,溪南(特生中心),2025-06-16,23.084972,120.788475,0.89966124
C1T970,大農,2025-06-16,23.615233,121.413331,0.9948853
C1H900,清流,2025-06-16,24.080775,120.962997,0.9072981
C1C510,水尾,2025-06-16,24.940081,121.087161,0.44864824
C0SB60,白守蓮,2025-06-16,23.126769,121.401914,0.42799735
C0X250,新營,2025-06-16,23.310689,120.316681,0.45536074
C0V700,三民,2025-06-16,22.645017,120.311233,0.9980362
C0U870,大礁溪,2025-06-16,24.791042,121.675047,0.94520015
A2K570,古坑花卉中心,2025-06-16,23.63353,120.55239,0.09172494
C0TA30,鹽寮,2025-06-16,23.845606,121.592664,0.2775184
C1E701,八卦,2025-06-16,24.491756,120.927619,0.9872349
C2D720,關西工作站,2025-06-16,24.757275,121.184792,0.08379406
C0S960,香蘭,2025-06-16,22.587569,120.993375,0.99655735
72G600,臺中農改場,2025-06-16,24.003028,120.534389,0.04373632
C0Z210,瑞穗,2025-06-16,23.5239,121.39021,0.9670572
C0V860,南寮,2025-06-16,22.7616,120.2339,0.94693923
C0R920,塭仔,2025-06-16,22.4169,120.5197,0.9651043
C1O870,大棟山,2025-06-16,23.31157,120.52226,0.96113455
C0Z190,富世,2025-06-16,24.14743,121.6297,0.9919577
B2U990,畜試東區分所,2025-06-16,24.669039,121.832561,0.10659975
C0SB80,長濱漁港,2025-06-16,23.313644,121.459994,0.65881747
C0TA50,和仁,2025-06-16,24.241394,121.712472,0.98518956
C0V910,大樹,2025-06-16,22.684645,120.432803,0.9604584
C1R610,西大武山,2025-06-16,22.617719,120.7322,0.428604
C2E880,三義,2025-06-16,24.405478,120.749819,0.992433
C0Z150,吉安光華,2025-06-16,23.930925,121.595153,0.4734039
C1D640,外坪(五指山),2025-06-16,24.644447,121.090961,0.99231476
C2H9R0,卓社,2025-06-16,23.887894,121.000086,0.956027
72T250,花蓮農改場,2025-06-16,23.975222,121.563889,0.9405092
C1T950,太安,2025-06-16,23.666719,121.370128,0.006451583
C0SA10,檳榔四格山,2025-06-16,22.810031,121.109308,0.9935149
C1T830,布洛灣,2025-06-16,24.17184,121.57127,0.013934722
C1U920,思源,2025-06-16,24.393125,121.347214,0.41688907
C2M940,日野賀,2025-06-16,23.434056,120.727169,0.9650122
C0R860,鼻頭,2025-06-16,22.1043,120.8979,0.9936532
C0UB20,壯圍,2025-06-16,24.7359,121.8163,0.7183402
C0R790,九棚,2025-06-16,22.14195,120.889281,0.97280675
C0W110,東莒,2025-06-16,25.9652,119.98069,0.97932094
C1U930,粉鳥林,2025-06-16,24.497088,121.842479,0.2744091
C1I211,蘆竹湳,2025-06-16,23.934019,120.811994,0.039116796
C0S830,長濱,2025-06-16,23.286817,121.411975,0.99072284
C1F9F1,伯公龍,2025-06-16,24.272392,120.849047,0.99453944
C0UB90,太平山莊,2025-06-16,24.494171,121.536209,0.60766953
C1I440,新高口,2025-06-16,23.478744,120.878939,0.2070539
C0T9G0,鳳林山,2025-06-16,23.735269,121.420131,0.97343415
C0X080,佳里,2025-06-16,23.173039,120.145086,0.44349998
C0Z310,清水斷崖,2025-06-16,24.218294,121.689142,0.9784969
C1S820,金峰,2025-06-16,22.590969,120.933236,0.9980889
C2K240,草嶺,2025-06-16,23.59555,120.693461,0.9798841
C1SA70,都蘭,2025-06-16,22.87794,121.226881,0.9969723
C1A760,坪林交控,2025-06-16,24.94284,121.713442,0.032337245
C0SA90,達仁林場,2025-06-16,22.264347,120.823972,0.582938
C1R290,石門山,2025-06-16,22.112611,120.756597,0.9483135
42HA10,萬大發電廠,2025-06-16,23.978875,121.139639,0.8826283
C0R890,山海,2025-06-16,21.9878,120.7091,0.9464233
C0T9A0,月眉山,2025-06-16,23.809928,121.539828,0.97998697
C2FB50,出雲,2025-06-16,24.206469,120.902794,0.98924464
C1Z240,中平林道,2025-06-16,23.42115,121.26763,0.9267532
U2H480,溪頭,2025-06-16,23.670306,120.798194,0.97743386
C0T9E0,大坑,2025-06-16,23.880628,121.581981,0.9869424
C1E900,國一N128K,2025-06-16,24.560997,120.844186,0.27365923
C2V310,美濃,2025-06-16,22.898792,120.51907,0.04598184
C1U850,觀音海岸,2025-06-16,24.38319,121.77856,0.95672524
C2K610,草嶺石壁,2025-06-16,23.602469,120.707731,0.9788403
C0U950,鶯子嶺,2025-06-16,24.89754,121.79244,0.95040035
E2P980,林試六龜中心,2025-06-16,22.991703,120.645722,0.5767588
C1I310,西巒,2025-06-16,23.754486,120.883956,0.9133683
C0R830,高士,2025-06-16,22.121825,120.836781,0.92167735
C1I101,溪頭,2025-06-16,23.661789,120.807647,0.697007
C1H920,長豐,2025-06-16,24.102039,120.879897,0.4453709
C0V360,內門,2025-06-16,22.975481,120.466769,0.1736422
C0R850,林邊,2025-06-16,22.4634,120.5339,0.9819728
C0U910,冬山,2025-06-16,24.63373,121.7937,0.10659975
C1E721,泰安,2025-06-16,24.489017,120.968036,0.967814
82H320,茶改中部分場,2025-06-16,23.875611,120.913583,0.48390463
C1S860,利嘉,2025-06-16,22.809417,121.050528,0.971747
E2S980,林試太麻里1,2025-06-16,22.598922,120.980044,0.99821496
C0X170,關廟,2025-06-16,22.963017,120.327797,0.13565603
C0V720,林園,2025-06-16,22.507747,120.394511,0.980386
C1I510,線浸林道,2025-06-16,23.761508,120.832956,0.93250746
B2Q810,畜試南區分所,2025-06-16,21.945583,120.802167,0.98526937
C0S790,金崙,2025-06-16,22.538122,120.966875,0.99804956
C0S770,大溪山,2025-06-16,22.478475,120.943325,0.9936876
C0T790,大禹嶺,2025-06-16,24.186117,121.316086,0.022035414
C0T9B0,水源,2025-06-16,23.991861,121.537169,0.95400447
C0R840,牡丹池山,2025-06-16,22.168389,120.841225,0.5884421
C1I131,桶頭,2025-06-16,23.641944,120.654117,0.73696554
CAL110,布袋國中,2025-06-16,23.35893,120.18026,0.54854333
C0Z290,赤柯山,2025-06-16,23.36893,121.38293,0.9611006
C0X280,將軍,2025-06-16,23.214999,120.13577,0.4734443
C0S690,太麻里,2025-06-16,22.60902,120.98533,0.98327607
C0U880,北關,2025-06-16,24.9072,121.8734,0.01999262
C0U970,大福,2025-06-16,24.80064,121.81389,0.9840391
C2H9N0,仁愛東眼,2025-06-16,24.026875,121.1205,0.91515326
C1E670,南礦,2025-06-16,24.538278,121.002836,0.94489413
C1E461,松安,2025-06-16,24.397972,120.986022,0.98359114
C2N160,西拉雅風管處,2025-06-16,23.189481,120.335297,0.024587305
C2M970,碧湖,2025-06-16,23.568632,120.624165,0.98171073
E2S960,林試太麻里2,2025-06-16,22.598,120.99775,0.9961569
C1I020,萬大,2025-06-16,23.979817,121.132261,0.9376931
C0U940,羅東,2025-06-16,24.68184,121.74934,0.75425977
C1I500,大尖山,2025-06-16,23.858572,120.994889,0.20157726
E2K600,四湖植物園,2025-06-16,23.676986,120.163433,0.20365377
C0S730,綠島,2025-06-16,22.6672,121.47533,0.99903506
12Q970,東港工作站,2025-06-16,22.479997,120.466058,0.98226696
C1TA00,太魯閣,2025-06-16,24.15773,121.6236,0.9874455
C1I260,北坑,2025-06-16,23.9246,121.006903,0.061800398
C1I230,九份二山,2025-06-16,23.961944,120.845,0.31757167
C2A660,瑞芳,2025-06-16,25.113169,121.801147,0.14328307
C1T990,高寮,2025-06-16,23.394239,121.356808,0.99518025
C1Z140,荖溪,2025-06-16,23.890575,121.45964,0.5570935
C1I201,中心崙,2025-06-16,23.728722,120.712097,0.9703135
C1I400,凌霄,2025-06-16,24.018778,121.004456,0.92329705
C1M640,十字,2025-06-16,23.492153,120.753683,0.95209986
G2P820,農試鳳山分所,2025-06-16,22.646611,120.356083,0.9980744
C0Z270,蕃薯寮,2025-06-16,23.73835,121.540108,0.27795276
C2I090,鳳凰,2025-06-16,23.728081,120.787347,0.94058317
C0U990,員山,2025-06-16,24.74435,121.72247,0.7384036
C0V770,大社,2025-06-16,22.730306,120.346639,0.95429564
C0X120,麻豆,2025-06-16,23.183289,120.248611,0.16880938
C0S980,勝林山,2025-06-16,22.430439,120.8938,0.9244981
C0V730,大寮,2025-06-16,22.605614,120.395717,0.99791765
C2M930,石卓,2025-06-16,23.478744,120.702264,0.9507829
CAG100,王功漁港,2025-06-16,23.96824,120.32586,0.45590556
C0X290,北門,2025-06-16,23.267772,120.125481,0.47344488
C2F930,大甲,2025-06-16,24.347667,120.640403,0.33952343
C0U780,五結,2025-06-16,24.68637,121.79794,0.7183402
C1I250,鯉潭,2025-06-16,23.961922,120.991131,0.08307721
C0X100,臺南市北區,2025-06-16,23.010394,120.194228,0.8426125
C0S920,金峰嘉蘭,2025-06-16,22.594789,120.960825,0.998297
C0V490,新興,2025-06-16,22.627422,120.298803,0.9978811
C2E970,八甲,2025-06-16,24.535811,120.795983,0.7758076
C0V440,鳳山,2025-06-16,22.646653,120.356122,0.9980744
C1T940,大觀,2025-06-16,23.714206,121.373133,0.950798
A2K630,臺大雲林校區,2025-06-16,23.730628,120.423903,0.045594152
E2P990,林試扇平站,2025-06-16,22.9677,120.6857,0.97991383
C1Z040,立山,2025-06-16,23.443356,121.327375,0.98017853
C0W130,花嶼,2025-06-16,23.40007,119.32276,0.57516927
C2F990,摩天嶺,2025-06-16,24.322458,120.936819,0.99453163
82C160,茶改場,2025-06-16,24.908472,121.185333,0.29205605
C0Z320,清水林道,2025-06-16,23.27125,121.188272,0.9426378
C0R760,南仁湖,2025-06-16,22.084681,120.863353,0.9483135
72K220,南改斗南分場,2025-06-16,23.634556,120.477333,0.16780134
72AI40,桃改樹林分場,2025-06-16,24.944503,121.386972,0.03986276
C0S910,蘭嶼燈塔,2025-06-16,22.081197,121.503117,0.9992107
C0U900,內城,2025-06-16,24.71813,121.68766,0.80154926
C0X320,柳營,2025-06-16,23.253328,120.375253,0.08034851
C0SA30,都歷,2025-06-16,23.020333,121.323642,0.4418361
C0T870,鯉魚潭,2025-06-16,23.935639,121.508944,0.87879497
C1V170,排雲,2025-06-16,23.463619,120.954147,0.005692059
C2H950,中寮,2025-06-16,23.884447,120.766406,0.08907768
C0V660,岡山,2025-06-16,22.797078,120.294958,0.97382504
C1H941,雙冬,2025-06-16,23.967378,120.802189,0.07565662
C0Z280,德武,2025-06-16,23.47426,121.41071,0.97846997
E2H360,蓮華池,2025-06-16,23.918333,120.885278,0.19919536
C0W140,金沙,2025-06-16,24.488292,118.408778,0.15062065
C2A540,四堵,2025-06-16,24.8926,121.745736,0.05966423
U2HA40,臺大內茅埔,2025-06-16,23.689722,120.851117,0.11696158
C0UB60,明池,2025-06-16,24.650688,121.475277,0.95849794
C0U960,翠峰湖,2025-06-16,24.510856,121.608044,0.41147244
E2HA20,林試畢祿溪站,2025-06-16,24.226944,121.308522,0.316631
C0V890,前鎮,2025-06-16,22.5718,120.3117,0.99784374
C1F941,雪嶺,2025-06-16,24.280586,121.026642,0.07555601
C2H9E0,國姓南港,2025-06-16,23.911108,120.846556,0.91638273
C0UA40,西德山,2025-06-16,24.560647,121.752608,0.8982064
C1T920,中興,2025-06-16,23.769503,121.498653,0.10838457
C2F860,梨山,2025-06-16,24.247522,121.243669,0.27334544
C1S870,南美山,2025-06-16,23.15025,121.382333,0.86471397
C1U501,牛鬥,2025-06-16,24.637836,121.573656,0.04983023
C0S700,知本,2025-06-16,22.684866,121.005642,0.9611578
C1N001,沙崙,2025-06-16,22.935472,120.309406,0.12544274
C0V760,橋頭,2025-06-16,22.757806,120.30575,0.9507912
C0X210,白河,2025-06-16,23.347466,120.414427,0.054527413
C0S810,東河,2025-06-16,22.972672,121.303986,0.44591314
C2R170,屏東,2025-06-16,22.66027,120.49403,0.79754037
C0UB10,蘇澳,2025-06-16,24.5969,121.8571,0.020523671
C1R250,力里,2025-06-16,22.428117,120.629228,0.99558854
C2FA00,烏石坑,2025-06-16,24.273503,120.947617,0.99465215
C0V620,永安,2025-06-16,22.82315,120.236856,0.97382504
C1I330,楓樹林,2025-06-16,23.986803,121.076117,0.93637073
C0W200,湖西,2025-06-16,23.596314,119.67275,0.5478458
72Q010,高雄農改場,2025-06-16,22.709333,120.525889,0.4794537
C0SA40,瑞和,2025-06-16,22.974361,121.156697,0.95710087
C2V260,月眉,2025-06-16,22.971003,120.539853,0.06977696
C0V450,鳳森,2025-06-16,22.545064,120.392592,0.983148
C0U720,南山,2025-06-16,24.43742,121.38167,0.96039146
A2N290,臺南蘭花園區,2025-06-16,23.340258,120.379661,0.5267549
C0U890,三星,2025-06-16,24.66812,121.65302,0.034090508
C1V300,御油山,2025-06-16,23.001983,120.715364,0.758589
C0U600,礁溪,2025-06-16,24.817539,121.765608,0.15791376
C1T980,龍澗,2025-06-16,24.023289,121.411328,0.90085804
C0SA00,歷坵,2025-06-16,22.520969,120.89185,0.98756844
C0U520,雙連埤,2025-06-16,24.753033,121.641303,0.95179254
C1V830,國三S383K,2025-06-16,22.781967,120.426475,0.3453123
12Q980,恆春工作站,2025-06-16,22.079678,120.714425,0.5974581
C1O940,東山服務區,2025-06-16,23.286016,120.398472,0.11311147
C1U840,東澳嶺,2025-06-16,24.5378,121.8485,0.9638275
C1D630,飛鳳山,2025-06-16,24.766464,121.119178,0.89546525
C0S940,石寧山,2025-06-16,23.223772,121.406639,0.27599093
C2M620,瑞里,2025-06-16,23.545133,120.675197,0.9653683
C0SB70,小港漁港,2025-06-16,23.158558,121.400431,0.110641755
C2O950,安南,2025-06-16,23.076694,120.144861,0.9614199
C2E540,龍溪,2025-06-16,24.606489,120.783933,0.26808387
C1V200,梅山,2025-06-16,23.268447,120.823556,0.96634424
C0T9H0,加路蘭山,2025-06-16,23.682947,121.5274,0.6905777
C2O930,玉井,2025-06-16,23.126042,120.46055,0.05695715
C1F911,新伯公,2025-06-16,24.221361,120.841069,0.9936474
C0X200,左鎮,2025-06-16,23.056758,120.408522,0.07685371
C0SB50,叭嗡嗡,2025-06-16,23.047062,121.343223,0.26694366
C1F891,稍來,2025-06-16,24.265689,121.001142,0.37509593
72N240,七股研究中心,2025-06-16,23.081672,120.062894,0.9568049
C0V690,鼓山,2025-06-16,22.623325,120.275575,0.9978811
C0Z200,萬榮,2025-06-16,23.709219,121.420106,0.03460771
C0T9D0,和中,2025-06-16,24.26676,121.74103,0.16695467
C1O921,楠西,2025-06-16,23.183511,120.484083,0.15784653
C0V810,左營,2025-06-16,22.67491,120.28491,0.9980362
C0UA70,桃源谷,2025-06-16,24.962606,121.888875,0.10190973
C0X130,官田,2025-06-16,23.193217,120.315422,0.023349758
C1H000,翠峰,2025-06-16,24.109397,121.205211,0.16876315
C0UA90,石城,2025-06-16,24.980444,121.951214,0.017657982
C1E681,南勢山,2025-06-16,24.421669,120.923831,0.98682624
C1K540,口湖,2025-06-16,23.585344,120.180517,0.7149436
C0R780,滿州,2025-06-16,22.024403,120.839892,0.99502116
C0V870,文安,2025-06-16,22.8025,120.2164,0.97211426
C0U650,玉蘭,2025-06-16,24.675286,121.587061,0.39604393
C0S660,下馬,2025-06-16,23.150427,121.070312,0.9469856
C1H9B1,阿眉,2025-06-16,24.1263,120.994672,0.8192876
C0UA20,多加屯,2025-06-16,24.368614,121.373189,0.04747538
72V140,高改旗南分場,2025-06-16,22.857861,120.516667,0.04598184
C0U980,坪林石牌,2025-06-16,24.86478,121.77396,0.9442817
C0T900,西林,2025-06-16,23.8119,121.441458,0.3122253
C1I150,青雲,2025-06-16,23.793361,120.949378,0.011232347
C1V780,多納林道,2025-06-16,22.888028,120.737917,0.9826126
C0Z330,安通山,2025-06-16,23.290728,121.348528,0.990187
C2G640,鹿港,2025-06-16,24.0753,120.430481,0.29024723
C1E890,國三N149K,2025-06-16,24.463414,120.680019,0.46363512
C1R110,口社,2025-06-16,22.770111,120.645222,0.99802536
C1M870,國三N285K,2025-06-16,23.550319,120.505833,0.7320421
C1E480,鳳美,2025-06-16,24.554803,121.034747,0.997387
C0T9M0,靜浦,2025-06-16,23.455167,121.495028,0.99431425
C2H9M0,發祥,2025-06-16,24.154094,121.164517,0.9319364
C1F871,上谷關,2025-06-16,24.203483,121.018644,0.990199
C2H9G0,百勝,2025-06-16,24.051142,120.909361,0.95119804
C0R940,加祿堂,2025-06-16,22.3363,120.6217,0.53325975
C0W220,北竿,2025-06-16,26.220358,119.974881,0.978331
C0TA40,秀林,2025-06-16,24.302864,121.731144,0.9248781
C0S750,向陽,2025-06-16,23.248397,120.986133,0.45129213
C0T9F0,水璉,2025-06-16,23.797131,121.542514,0.6611503
C1M600,頭凍,2025-06-16,23.406364,120.603339,0.96893555
C1D380,新埔,2025-06-16,24.84745,121.03834,0.14908043
C2G980,田頭村,2025-06-16,23.8263,120.444175,0.040139955
C0V750,路竹,2025-06-16,22.854997,120.259439,0.88650054
72M700,南改鹿草分場,2025-06-16,23.416869,120.283061,0.6525114
C1SA50,利嘉林道,2025-06-16,22.82325,121.009389,0.9376767
C0UB70,太平山中間站,2025-06-16,24.542003,121.513453,0.9705505
C1V340,大津,2025-06-16,22.888322,120.645986,0.3745464
C0W180,七美,2025-06-16,23.219333,119.444892,0.41937196
C1F9C1,白冷,2025-06-16,24.182844,120.929889,0.99305594
K2E710,苗改生物防治研究中心,2025-06-16,24.422861,120.871833,0.73700273
C2W230,畜試所澎湖,2025-06-16,23.628342,119.513206,0.8368539
C0R880,後壁湖,2025-06-16,21.9457,120.7457,0.94835716
C1I280,埔中,2025-06-16,23.820778,120.642594,0.37916562
C0W190,望安,2025-06-16,23.380564,119.494075,0.57973456
C0Z170,卓溪,2025-06-16,23.3443,121.3029,0.99449736
82H840,茶改南部分場,2025-06-16,23.762528,120.7405,0.32660824
C1T800,洛韶,2025-06-16,24.204558,121.453956,0.8914569
C1T810,慈恩,2025-06-16,24.192044,121.388386,0.592011
C1E451,象鼻,2025-06-16,24.368617,120.940228,0.9891702
C1I290,豐丘,2025-06-16,23.668178,120.887417,0.974448
C1I320,奧萬大,2025-06-16,23.952956,121.178556,0.96192133
C2M910,嘉義大學,2025-06-16,23.471325,120.485903,0.75518084
C0U770,南澳,2025-06-16,24.44935,121.81022,0.119545124
C0V800,六龜,2025-06-16,22.997889,120.633583,0.5261585
C1G9D0,國一S218K,2025-06-16,23.890641,120.493253,0.061387282
C2F9A0,中竹林,2025-06-16,24.103556,120.751061,0.9792259
C2G9A0,畜試所彰化,2025-06-16,23.86045,120.557964,0.14648503
C0X060,下營,2025-06-16,23.22695,120.256261,0.09803769
G2M350,農試溪口農場,2025-06-16,23.58565,120.408111,0.2574086
C0U860,頭城,2025-06-16,24.85323,121.8308,0.1491432
72N100,臺南農改場,2025-06-16,23.0605,120.342194,0.03968658
C0S900,蘭嶼高中,2025-06-16,22.04909,121.51214,0.9991902
C1F9W0,德基,2025-06-16,24.254783,121.190261,0.7745191
C1Z120,壽豐,2025-06-16,23.870853,121.508081,0.34102616
C0W160,烏坵,2025-06-16,24.9944,119.44956,0.9138231
C1I240,外大坪,2025-06-16,23.958697,120.917931,0.1025314
C1I550,國六W023K,2025-06-16,23.979067,120.867742,0.10699317
C0R870,興海,2025-06-16,21.9752,120.8439,0.98526937
C0X260,後壁,2025-06-16,23.366358,120.362326,0.5267549
C0Z230,和平,2025-06-16,24.30717,121.77007,0.16140501
C1V570,吉東,2025-06-16,22.85422,120.5454,0.051215425
C2D740,屯原,2025-06-16,24.067969,121.209389,0.67678845
C2A560,福山,2025-06-16,24.776203,121.502811,0.028871333
72S200,東改班鳩分場,2025-06-16,22.829528,121.077694,0.9938109
72HA00,中改埔里分場,2025-06-16,23.903208,120.963364,0.116040446
C2H9W0,大坪頂農水,2025-06-16,24.043122,120.932781,0.49015248
C0S930,延平,2025-06-16,22.902581,121.084058,0.99684656
C0UA60,樟樹山,2025-06-16,24.41393,121.78325,0.08971787
C1S670,摩天,2025-06-16,23.199503,121.027,0.89548975
C0V630,茄萣,2025-06-16,22.906642,120.182608,0.8607207
C0X050,東河,2025-06-16,23.296598,120.385608,0.098662645
C0R770,保力,2025-06-16,22.071122,120.764111,0.95956564
G2L020,農試嘉義分所,2025-06-16,23.485028,120.473806,0.9522105
C0X240,關子嶺,2025-06-16,23.331169,120.508025,0.9660994
C1V220,小關山,2025-06-16,23.154217,120.813603,0.8476439
C1F9G1,慶福山,2025-06-16,24.180853,120.848378,0.9676886
C0Z250,瑞穗林道,2025-06-16,23.49284,121.30688,0.9392032
C0UA50,西帽山,2025-06-16,24.555361,121.802628,0.9671035
C0X160,仁德,2025-06-16,22.968258,120.257689,0.14773579
C1H971,六分寮,2025-06-16,23.92507,120.6378,0.98842275
C0W120,西嶼,2025-06-16,23.5626,119.468436,0.6474654
C2H9Q0,北東眼山,2025-06-16,24.120939,121.189303,0.39270762
C2H9T0,名間竹圍,2025-06-16,23.859914,120.637572,0.11765923
C0S990,山豬窟,2025-06-16,22.318619,120.857372,0.9081088
C0X190,安平,2025-06-16,22.993161,120.152181,0.8426125
12J990,口湖工作站,2025-06-16,23.589978,120.180394,0.7149436
C1D410,白蘭,2025-06-16,24.579364,121.079947,0.93991274
C0S970,加津林,2025-06-16,22.416211,120.926942,0.99339515
C0U750,龜山島,2025-06-16,24.841667,121.953133,0.9945469
C0R810,內獅,2025-06-16,22.305064,120.642986,0.52179873
C1M390,龍美,2025-06-16,23.406728,120.654417,0.96469355
C2FB60,頭櫃山,2025-06-16,24.129842,120.858925,0.97547054
C1H840,國三N238K,2025-06-16,23.841008,120.707711,0.08957552
CAQ030,崎峰國小,2025-06-16,22.42565,120.49521,0.98226696
C2E520,大湖,2025-06-16,24.414939,120.870872,0.8785364
C1E691,南湖,2025-06-16,24.40135,120.837533,0.9898118
C1V231,高中,2025-06-16,23.134911,120.716711,0.97295684
C2W030,金門農試所,2025-06-16,24.448431,118.451786,0.1155667
C0R820,白鷺,2025-06-16,22.454275,120.666219,0.97135544
C1V190,南天池,2025-06-16,23.27403,120.91176,0.22040181
K2E360,苗栗農改場,2025-06-16,24.495722,120.829111,0.19493884
CAJ050,海口故事園區,2025-06-16,23.57543,120.14121,0.7149436
C2H9D0,三隻寮,2025-06-16,24.093078,120.861578,0.57478666
C0Z220,和平林道,2025-06-16,24.343922,121.656317,0.9418168
C0TA10,花蓮漁港,2025-06-16,23.995322,121.638331,0.89825654
72C440,桃園農改場,2025-06-16,24.950944,121.030583,0.23963875
C1E711,馬拉邦山,2025-06-16,24.367306,120.901656,0.9886244
C0SB20,富岡,2025-06-16,22.792467,121.192669,0.9982812
C1A9N0,四十份,2025-06-16,24.934158,121.593283,0.090991385
C0U760,東澳,2025-06-16,24.52196,121.83318,0.28898457
C0X230,鹽水,2025-06-16,23.272621,120.247641,0.6927723
C2H9H0,苗改南投蜂場,2025-06-16,23.852589,120.693481,0.065113366
C0R950,萬隆國小,2025-06-16,22.507667,120.587817,0.9792498
C0V370,古亭坑,2025-06-16,22.893178,120.401947,0.9766346
C1I340,新興橋,2025-06-16,23.563333,120.868728,0.96973014
C0SA80,土坂,2025-06-16,22.453108,120.887572,0.9963529
C2H9L0,馬烈霸,2025-06-16,24.1512,121.201772,0.42095098
C1AI50,國三N016K,2025-06-16,25.034164,121.619664,0.053831242
C1V600,藤枝,2025-06-16,23.071961,120.757042,0.9460794
C1E601,南勢,2025-06-16,24.572486,120.734842,0.9654974
C0Z050,佳心,2025-06-16,23.34567,121.21316,0.9690323
C0V610,梓官,2025-06-16,22.760558,120.267211,0.9507911
K2F750,種苗改良場,2025-06-16,24.225972,120.800917,0.99351406
C0UA80,大溪漁港,2025-06-16,24.941801,121.902955,0.020257002
C1AI60,國一39K邊坡,2025-06-16,25.064361,121.383836,0.221844
C0W150,金寧,2025-06-16,24.457703,118.328989,0.12171951
C0R960,內埔,2025-06-16,22.608483,120.570714,0.9887933
V2C250,八德合作社,2025-06-16,24.93775,121.266389,0.0441726
C2H9S0,龍南,2025-06-16,23.953536,120.833183,0.91700435
A2K360,水試臺西試驗場,2025-06-16,23.717231,120.190522,0.0871523
C2M960,外寮,2025-06-16,23.562643,120.665688,0.9816704
C0T820,天祥,2025-06-16,24.179597,121.495639,0.05691992
C1F9E1,龍安,2025-06-16,24.1605,120.831961,0.9866354
C0V820,小林,2025-06-16,23.148408,120.63325,0.962965
C2G870,芳苑,2025-06-16,23.922303,120.320025,0.50752795
C1U670,寒溪,2025-06-16,24.634,121.71691,0.1380834
C1Z110,三棧,2025-06-16,24.11557,121.60501,0.746974
C2H9J0,中台,2025-06-16,23.9996,120.938739,0.025758747
C0Z180,新城,2025-06-16,24.040486,121.604878,0.926116
C1D420,太閣南,2025-06-16,24.632808,121.160575,0.96034026
C1E770,公館,2025-06-16,24.526914,120.830806,0.13666579
CAN130,水試所海水繁養殖中心,2025-06-16,23.120802,120.07968,0.9568049
C1I430,翠華,2025-06-16,24.191961,121.224339,0.10524827
C1M400,菜瓜坪,2025-06-16,23.251928,120.576103,0.9736594
72M360,南改義竹分場,2025-06-16,23.360694,120.279361,0.5766914
V2K620,麥寮合作社,2025-06-16,23.753836,120.294783,0.1705278
C0Z070,舞鶴,2025-06-16,23.46811,121.37407,0.96494544
C1Z030,紅葉,2025-06-16,23.493119,121.338806,0.95296407
C1I050,丹大,2025-06-16,23.753747,121.141147,0.124242276
C2M920,朴子農改,2025-06-16,23.469889,120.259383,0.65251166
C2A880,福隆,2025-06-16,25.017842,121.942083,0.017600711
C0Z160,鳳林,2025-06-16,23.746114,121.453411,0.02766074
C0UB80,翠峰林道6K,2025-06-16,24.49773,121.568625,0.5004717
C0V210,復興,2025-06-16,23.222403,120.806089,0.9774004
C0R741,獅子,2025-06-16,22.202308,120.705236,0.99246705
C0S710,鹿野,2025-06-16,22.917711,121.122994,0.9962377
C2K630,荷苞,2025-06-16,23.657717,120.595144,0.14311299
C0Z080,富源,2025-06-16,23.587642,121.378225,0.018553078
C0SB10,美和,2025-06-16,22.682078,121.060236,0.9984331
C2K620,馬光農場,2025-06-16,23.721453,120.378864,0.043669358
C1I140,卡奈托灣,2025-06-16,23.754364,121.087872,0.83247966
C1G691,下水埔,2025-06-16,23.816114,120.5676,0.11380759
C0X110,臺南市南區,2025-06-16,22.961189,120.188378,0.14773579
C0V680,仁武,2025-06-16,22.701083,120.347722,0.9980362
C2G840,北斗,2025-06-16,23.877586,120.514222,0.0642574
C0R900,竹坑,2025-06-16,22.1385,120.7022,0.6019894
C0X150,安定,2025-06-16,23.102614,120.227839,0.08755654
C1D400,鳥嘴山,2025-06-16,24.71909,121.28387,0.9564953
C2V250,甲仙,2025-06-16,23.080106,120.591758,0.17333567
C0SA20,金崙山,2025-06-16,22.567419,120.959667,0.9205553
C0V350,溪埔,2025-06-16,22.738578,120.446797,0.18671179
C1S880,壽卡,2025-06-16,22.238911,120.858903,0.590924
72D680,桃改新埔分場,2025-06-16,24.834444,121.066111,0.1402263
