站號,站名,日期,lat,lon,BLBTSLS
C0R710,龍磐,2025-05-30,21.931672,120.838942,0.004451213
C1F9D1,白毛台,2025-05-30,24.158325,120.886933,6.2668684e-09
C0G940,竹塘,2025-05-30,23.848253,120.386764,0.98433083
467590,恆春,2025-05-30,22.003897,120.746339,0.056568652
C1O850,環湖,2025-05-30,23.148617,120.418633,0.9973329
C0U710,太平山,2025-05-30,24.505486,121.525656,7.3030906e-09
C0E820,獅潭,2025-05-30,24.539133,120.920042,3.7950656e-05
C0V880,興達,2025-05-30,22.8778,120.2127,0.65839773
C0S890,關山,2025-05-30,23.0395,121.175017,0.53268987
C0SB30,新蘭,2025-05-30,22.869214,121.223228,0.9458039
C2R970,屏科大,2025-05-30,22.648275,120.619247,0.9992626
C1Z130,銅門,2025-05-30,23.965694,121.492842,5.922492e-05
C0AD40,土城,2025-05-30,24.973208,121.445169,0.98880994
CAN140,六官養殖協會,2025-05-30,23.22881,120.29962,0.9947847
C0X180,山上,2025-05-30,23.0757,120.363253,0.99595004
C0F9Z0,雪山東峰,2025-05-30,24.388792,121.268675,1.1579928e-08
C1M480,獨立山,2025-05-30,23.537022,120.607797,3.8111536e-09
C0X220,學甲,2025-05-30,23.230367,120.182187,0.9804868
467650,日月潭,2025-05-30,23.881325,120.90805,3.2434848e-09
C0K600,箔子寮,2025-05-30,23.6197,120.14,0.7529649
C0G830,埤頭,2025-05-30,23.866003,120.452806,0.76628673
C0S950,七塊厝,2025-05-30,22.954453,121.229922,0.00021012497
467110,金門,2025-05-30,24.407306,118.289281,0.17562711
C0AH80,深坑,2025-05-30,25.002703,121.628328,0.9917542
C0A970,三貂角,2025-05-30,25.007606,122.002058,0.8372346
C2D730,寶山農場,2025-05-30,24.732444,120.976153,2.3679639e-05
C0K430,褒忠,2025-05-30,23.690938,120.303634,0.9965099
467480,嘉義,2025-05-30,23.495925,120.432906,0.999385
C0V400,阿公店,2025-05-30,22.804194,120.355528,0.99390566
467550,玉山,2025-05-30,23.48718,120.95943,1.0749426e-08
C0R440,大漢山,2025-05-30,22.405264,120.753181,2.4192057e-09
C0K280,四湖,2025-05-30,23.630414,120.227125,0.6679895
C1F9B1,桐林,2025-05-30,24.066172,120.735194,0.9716123
C2H9U0,鳳鵬,2025-05-30,23.763919,120.788061,1.0631915e-08
C0K390,土庫,2025-05-30,23.679029,120.395574,0.9970606
C1I450,望鄉山,2025-05-30,23.594153,120.944286,4.7620565e-09
C0E910,海埔,2025-05-30,24.648767,120.772435,2.6140015e-05
B2E890,畜試北區分所,2025-05-30,24.527806,120.770972,0.0007418173
C0R750,四林格山,2025-05-30,22.076989,120.802439,0.0022613045
C0F0C0,中坑,2025-05-30,24.248517,120.903319,1.4259668e-09
C1I121,大鞍,2025-05-30,23.678381,120.760017,1.2110775e-09
72U480,花改蘭陽分場,2025-05-30,24.686306,121.716583,0.9938425
C0A770,科教館,2025-05-30,25.096356,121.516507,0.9901685
C0AJ60,六塊厝,2025-05-30,25.24,121.4481,0.012107873
C0R620,墾雷,2025-05-30,21.900836,120.855269,0.0017648109
467420,永康,2025-05-30,23.038386,120.2367,0.98524594
C0I410,名間,2025-05-30,23.837053,120.701447,0.9713773
A2C560,農工中心,2025-05-30,24.985917,121.239833,0.11624424
C0V740,旗山,2025-05-30,22.888614,120.483597,0.99900025
C0Z061,玉里,2025-05-30,23.3215,121.339656,0.9929986
C0S840,南田,2025-05-30,22.279725,120.889208,0.007238254
C1I470,杉林溪,2025-05-30,23.639517,120.786444,1.4009863e-09
C1X040,東原,2025-05-30,23.291597,120.463822,0.7132531
C0R660,枋寮,2025-05-30,22.367722,120.590647,0.8160562
C1R120,上德文,2025-05-30,22.763272,120.704442,0.0003437364
C0K450,大埤,2025-05-30,23.646074,120.431537,0.99905384
C0UA00,土場,2025-05-30,24.576533,121.495333,2.417762e-09
467080,宜蘭,2025-05-30,24.763975,121.756528,0.9799094
C0N030,四草,2025-05-30,23.0235,120.1116,0.8090769
467410,臺南,2025-05-30,22.99328,120.20492,0.6706774
C0V650,彌陀,2025-05-30,22.783806,120.246361,0.9944086
C0D660,新竹市東區,2025-05-30,24.798681,120.986942,1.0002135e-05
82S580,茶改東部分場,2025-05-30,22.907694,121.130139,0.7655778
C0SB40,興隆,2025-05-30,22.913661,121.257469,0.94156724
467050,新屋,2025-05-30,25.006725,121.047492,0.001814361
C0C710,大溪永福,2025-05-30,24.892936,121.324975,0.986513
C0FA20,溫寮,2025-05-30,24.372177,120.583125,0.17741384
C0V640,湖內,2025-05-30,22.887139,120.2445,0.66987485
C0R910,下寮,2025-05-30,22.3929,120.5548,0.81584215
C0Z020,明里,2025-05-30,23.208717,121.262342,0.9947513
C0M770,嘉義梅山,2025-05-30,23.585398,120.555587,0.99578303
C0C660,楊梅,2025-05-30,24.912375,121.143047,0.060873497
C1E511,新開,2025-05-30,24.347703,120.827019,2.789498e-06
G2F820,農試所(霧峰),2025-05-30,24.031261,120.688133,0.6296072
C1I070,和社,2025-05-30,23.591131,120.888861,1.7643302e-09
C2F000,大肚,2025-05-30,24.15295,120.572117,1.6671489e-05
C1S850,豐南,2025-05-30,23.122139,121.262389,3.4813245e-06
C2A920,富貴角,2025-05-30,25.263783,121.565258,0.0013998256
CAH030,茶改場竹圍站,2025-05-30,23.860083,120.637528,0.22346032
C0T960,光復,2025-05-30,23.660694,121.424964,2.4202084e-08
C0F9M0,豐原,2025-05-30,24.254322,120.720692,0.05604457
C0R720,旭海,2025-05-30,22.205403,120.887614,0.0017573392
C0V710,苓雅,2025-05-30,22.622742,120.330669,0.98433584
C0C740,觀音工業區,2025-05-30,25.064764,121.114856,0.0011334766
CAC040,拉拉山,2025-05-30,24.699317,121.427133,8.22863e-09
C0V790,萬山,2025-05-30,22.905944,120.688056,0.9998134
U2HA30,臺大和社,2025-05-30,23.590856,120.888864,1.7643302e-09
C0AJ90,澳底,2025-05-30,25.0552,121.9253,0.83556837
C0Z100,東華,2025-05-30,23.89525,121.549833,0.02564637
C0G970,三豐,2025-05-30,23.882,120.2895,0.014116746
V2K610,大庄合作社,2025-05-30,23.8068,120.367939,0.99411416
C0V900,汕尾,2025-05-30,22.4782,120.4151,0.9851456
C1R630,龍泉,2025-05-30,22.66701,120.59091,0.999202
C1AC50,關渡,2025-05-30,25.133486,121.469331,0.94991857
C0F9I0,神岡,2025-05-30,24.272481,120.658314,0.015530767
C0K460,斗南,2025-05-30,23.678734,120.478359,0.9990363
C2O810,曾文,2025-05-30,23.219681,120.497328,0.8826344
467280,後龍,2025-05-30,24.648563,120.831834,1.7295864e-05
C1F9J1,清水林,2025-05-30,24.071242,120.820419,3.3888952e-09
C2A650,火燒寮,2025-05-30,25.002719,121.742892,1.7667964e-05
466930,竹子湖,2025-05-30,25.162078,121.544547,5.296018e-09
C1I220,樟湖,2025-05-30,23.905333,120.846983,2.4220914e-09
C0I390,仁愛,2025-05-30,24.022122,121.132206,1.4425775e-09
C0Z300,東里,2025-05-30,23.26853,121.30547,0.99555665
C1V590,新發,2025-05-30,23.057019,120.646064,3.55082e-07
C0K510,水林,2025-05-30,23.572924,120.24597,0.9978483
72S590,東改賓朗果園,2025-05-30,22.813889,121.071278,0.2989324
82A750,茶改北部分場,2025-05-30,24.955778,121.631222,1.5396263e-07
C1A750,石碇服務區,2025-05-30,25.00872,121.646242,0.9309247
C0X300,鹿寮,2025-05-30,23.386047,120.477331,0.9930387
G2AI50,關渡,2025-05-30,25.11575,121.492,0.00713017
C0K590,雲林東勢,2025-05-30,23.674192,120.255721,0.9976013
C0A570,桶後,2025-05-30,24.848222,121.597992,3.376374e-08
C1S800,華源,2025-05-30,22.657883,121.02325,0.67878073
C0G720,溪州,2025-05-30,23.851589,120.499093,0.7705579
C1V160,達卡努瓦,2025-05-30,23.279811,120.705319,1.7549663e-09
C2M410,馬頭山,2025-05-30,23.324361,120.582017,0.97776043
C0V850,蚵仔寮,2025-05-30,22.7256,120.2527,0.9979394
C0S740,池上,2025-05-30,23.119628,121.209469,0.0023554293
C1V390,尖山,2025-05-30,22.813153,120.367789,0.99510115
C0AH70,松山,2025-05-30,25.04871,121.55042,0.99052244
C0N010,鯤鯓國小,2025-05-30,23.1879,120.0889,0.84371096
C0R550,新埤,2025-05-30,22.467947,120.582894,0.9835012
C0SA60,知本（水試所）,2025-05-30,22.702394,121.082761,0.17999226
C0T9I0,豐濱,2025-05-30,23.583897,121.514806,2.3569855e-08
C0UB00,淡江大學蘭陽校園,2025-05-30,24.823239,121.730383,2.4157533e-08
C0W240,九宮,2025-05-30,24.423753,118.240186,0.18224639
C0T9N0,富里,2025-05-30,23.171639,121.249378,0.024925185
U2HA50,臺大竹山,2025-05-30,23.756972,120.681556,0.9983342
C0V840,鳳鼻頭,2025-05-30,22.5083,120.3591,0.9841449
C0X140,西港,2025-05-30,23.125608,120.203108,0.9650439
72D080,桃改五峰分場,2025-05-30,24.612194,121.157167,1.3881072e-09
C2H9P0,伊拿谷,2025-05-30,23.963211,121.088264,3.4417964e-09
C2H9F0,柑林,2025-05-30,24.018658,120.847072,3.8294706e-07
C0TA20,加灣,2025-05-30,24.082025,121.608944,0.00055300345
C0V530,阿蓮,2025-05-30,22.883208,120.327508,0.95997036
C1O880,關山,2025-05-30,23.173397,120.594092,0.9976332
C0E791,卓蘭,2025-05-30,24.3126,120.8244,1.4893858e-05
C1I030,武界,2025-05-30,23.913225,121.052483,3.2171514e-09
C0R520,崁頂,2025-05-30,22.514781,120.506914,0.99948674
C0R341,牡丹,2025-05-30,22.130036,120.792639,0.17222524
C0R930,萬丹,2025-05-30,22.5885,120.4851,0.99852693
C0S760,紅石,2025-05-30,23.069131,121.126219,2.965888e-09
C2C410,中央大學,2025-05-30,24.967652,121.185165,0.10456867
C1M610,石磐龍,2025-05-30,23.496606,120.663506,1.1742487e-09
C0UA10,鴛鴦湖,2025-05-30,24.590269,121.412228,7.4406428e-09
V2C260,八德蔬果,2025-05-30,24.978508,121.281819,0.97615355
C0R800,丹路,2025-05-30,22.204481,120.750989,0.954038
C0G920,永靖,2025-05-30,23.924703,120.547533,0.37326095
C2M950,太和,2025-05-30,23.538372,120.702961,1.0564797e-09
C1A630,下盆,2025-05-30,24.771003,121.538622,5.348842e-06
B2N890,畜產試驗所,2025-05-30,23.058972,120.336406,0.9947802
C0UA30,白嶺,2025-05-30,24.527819,121.519031,4.259181e-09
C1V580,溪南(特生中心),2025-05-30,23.084972,120.788475,8.7425517e-10
C1T970,大農,2025-05-30,23.615233,121.413331,7.745993e-09
C0R650,竹田,2025-05-30,22.58486,120.54344,0.99962777
C1H900,清流,2025-05-30,24.080775,120.962997,2.3715003e-09
C1C510,水尾,2025-05-30,24.940081,121.087161,0.00081989774
C0F9X0,大雅(中科園區),2025-05-30,24.21528,120.62445,0.9841939
C0SB60,白守蓮,2025-05-30,23.126769,121.401914,0.05419203
C0O970,虎頭埤,2025-05-30,23.021375,120.347878,0.9942092
C0C730,中大臨海站,2025-05-30,24.966126,121.008581,0.0017471235
C0X250,新營,2025-05-30,23.310689,120.316681,0.99626124
C0V700,三民,2025-05-30,22.645017,120.311233,0.9606817
C0U870,大礁溪,2025-05-30,24.791042,121.675047,1.02970645e-08
C0E870,高鐵苗栗,2025-05-30,24.60725,120.826094,0.05167476
A2K570,古坑花卉中心,2025-05-30,23.63353,120.55239,0.9984986
C0TA30,鹽寮,2025-05-30,23.845606,121.592664,0.08418169
C0M860,新美,2025-05-30,23.338017,120.683169,0.0020593414
C1E701,八卦,2025-05-30,24.491756,120.927619,3.8231227e-09
C0I420,國姓,2025-05-30,24.037803,120.855072,1.6308333e-07
C2D720,關西工作站,2025-05-30,24.757275,121.184792,0.00012046525
C0S960,香蘭,2025-05-30,22.587569,120.993375,0.093579434
467620,蘭嶼,2025-05-30,22.0369,121.55843,6.191939e-05
C0R260,春日,2025-05-30,22.370361,120.628306,0.9086251
72G600,臺中農改場,2025-05-30,24.003028,120.534389,0.856655
C0Z210,瑞穗,2025-05-30,23.5239,121.39021,3.163261e-08
C0M820,達邦,2025-05-30,23.453994,120.749517,1.3464111e-09
C0V860,南寮,2025-05-30,22.7616,120.2339,0.9979378
C0G740,大城,2025-05-30,23.852487,120.320935,0.014498817
C0R920,塭仔,2025-05-30,22.4169,120.5197,0.79719067
C0R470,高樹,2025-05-30,22.826389,120.600806,0.99971884
C0R680,佳樂水,2025-05-30,21.993578,120.861633,0.027940553
C1O870,大棟山,2025-05-30,23.31157,120.52226,1.7638996e-09
C0D360,梅花,2025-05-30,24.678347,121.208558,7.086301e-09
C0Z190,富世,2025-05-30,24.14743,121.6297,9.445301e-08
C0AI10,屈尺,2025-05-30,24.92184,121.54475,0.94532406
B2U990,畜試東區分所,2025-05-30,24.669039,121.832561,0.9947072
C0SB80,長濱漁港,2025-05-30,23.313644,121.459994,0.64988935
C0R240,來義,2025-05-30,22.527306,120.625111,0.99923545
C0V910,大樹,2025-05-30,22.684645,120.432803,0.9971243
C1R610,西大武山,2025-05-30,22.617719,120.7322,1.9941906e-09
C0G900,線西,2025-05-30,24.143358,120.443536,0.26431796
C0M700,竹崎,2025-05-30,23.526178,120.555508,0.99591464
C2E880,三義,2025-05-30,24.405478,120.749819,1.2925664e-08
C0C720,竹圍,2025-05-30,25.112692,121.239824,0.007178782
C0F9P0,清水,2025-05-30,24.312297,120.562242,0.22706722
C0Z150,吉安光華,2025-05-30,23.930925,121.595153,0.25275344
467300,東吉島,2025-05-30,23.25727,119.66762,0.0037619008
C1D640,外坪(五指山),2025-05-30,24.644447,121.090961,7.161358e-09
C0F9O0,潭子,2025-05-30,24.213106,120.703933,0.39715102
C2H9R0,卓社,2025-05-30,23.887894,121.000086,1.7788465e-09
72T250,花蓮農改場,2025-05-30,23.975222,121.563889,0.28452286
C0E780,銅鑼,2025-05-30,24.489681,120.790853,0.00013046939
C1T950,太安,2025-05-30,23.666719,121.370128,4.5153805e-09
C0E830,苑裡,2025-05-30,24.439714,120.653053,0.24400236
467270,田中,2025-05-30,23.873803,120.581286,0.7973025
C0SA10,檳榔四格山,2025-05-30,22.810031,121.109308,0.02695135
C1T830,布洛灣,2025-05-30,24.17184,121.57127,3.88842e-09
C0F970,大坑,2025-05-30,24.173142,120.722289,0.7011059
C1U920,思源,2025-05-30,24.393125,121.347214,3.3930865e-09
C0A931,三和,2025-05-30,25.233153,121.595236,0.9835722
C0I010,廬山,2025-05-30,24.033311,121.181808,1.0691126e-09
C2M940,日野賀,2025-05-30,23.434056,120.727169,9.870302e-10
C0R860,鼻頭,2025-05-30,22.1043,120.8979,0.24574456
C0UB20,壯圍,2025-05-30,24.7359,121.8163,0.9948925
C0R790,九棚,2025-05-30,22.14195,120.889281,0.022680184
C0W110,東莒,2025-05-30,25.9652,119.98069,0.0022580815
C1U930,粉鳥林,2025-05-30,24.497088,121.842479,0.0007709134
C1I211,蘆竹湳,2025-05-30,23.934019,120.811994,1.3569459e-08
C0S830,長濱,2025-05-30,23.286817,121.411975,0.9967426
C1F9F1,伯公龍,2025-05-30,24.272392,120.849047,4.973096e-06
C0E810,西湖,2025-05-30,24.562947,120.7485,0.0021257307
C1I440,新高口,2025-05-30,23.478744,120.878939,1.7726213e-09
C0O840,王爺宮,2025-05-30,23.222064,120.40085,0.99600846
C0T9G0,鳳林山,2025-05-30,23.735269,121.420131,1.5455308e-08
C0X080,佳里,2025-05-30,23.173039,120.145086,0.8434935
C0FB70,大甲溪埔,2025-05-30,24.370625,120.620067,0.21414298
C0Z310,清水斷崖,2025-05-30,24.218294,121.689142,6.22883e-09
C0M680,太保,2025-05-30,23.455062,120.331455,0.99942786
C1S820,金峰,2025-05-30,22.590969,120.933236,0.08090521
C0AD10,八里,2025-05-30,25.150211,121.403947,0.0069180313
C2K240,草嶺,2025-05-30,23.59555,120.693461,1.0764543e-09
C1SA70,都蘭,2025-05-30,22.87794,121.226881,0.94151086
C0K440,二崙,2025-05-30,23.772797,120.408944,0.9497832
C1A760,坪林交控,2025-05-30,24.94284,121.713442,0.021069774
C0F9N0,大里,2025-05-30,24.092464,120.701378,0.9767109
C0SA90,達仁林場,2025-05-30,22.264347,120.823972,2.133125e-06
C1R290,石門山,2025-05-30,22.112611,120.756597,0.010624039
42HA10,萬大發電廠,2025-05-30,23.978875,121.139639,2.1436206e-09
C0R890,山海,2025-05-30,21.9878,120.7091,0.030241586
C0T9A0,月眉山,2025-05-30,23.809928,121.539828,2.170772e-09
C0AC70,信義,2025-05-30,25.037822,121.564597,0.9906543
C0K560,棋山,2025-05-30,23.68645,120.603417,0.99810565
C2FB50,出雲,2025-05-30,24.206469,120.902794,1.4575068e-09
C1Z240,中平林道,2025-05-30,23.42115,121.26763,2.92768e-09
U2H480,溪頭,2025-05-30,23.670306,120.798194,1.2680466e-09
C0M880,好美里,2025-05-30,23.3364,120.138,0.9797981
C0T9E0,大坑,2025-05-30,23.880628,121.581981,6.0003846e-09
C0K530,臺西,2025-05-30,23.701547,120.197559,0.89190435
C1E900,國一N128K,2025-05-30,24.560997,120.844186,0.00014435964
C0AJ50,水湳洞,2025-05-30,25.123695,121.862238,0.98496974
C0AI20,白沙灣,2025-05-30,25.283128,121.519058,0.010633076
C2V310,美濃,2025-05-30,22.898792,120.51907,0.9989105
C0A860,大坪,2025-05-30,25.165914,121.632969,4.2052687e-08
C1U850,觀音海岸,2025-05-30,24.38319,121.77856,1.1045157e-08
C2K610,草嶺石壁,2025-05-30,23.602469,120.707731,1.0264097e-09
C0U950,鶯子嶺,2025-05-30,24.89754,121.79244,1.009769e-08
C0O900,善化,2025-05-30,23.112883,120.297219,0.99381655
C0K550,蔦松,2025-05-30,23.514319,120.229736,0.98461854
E2P980,林試六龜中心,2025-05-30,22.991703,120.645722,0.9980115
C0E590,通霄,2025-05-30,24.471892,120.704622,0.027955094
C1I310,西巒,2025-05-30,23.754486,120.883956,2.2826732e-09
C0A550,泰平,2025-05-30,24.971197,121.823711,1.05767015e-07
C0I360,水里,2025-05-30,23.812553,120.849792,0.97305685
C0R830,高士,2025-05-30,22.121825,120.836781,0.011830244
C1I101,溪頭,2025-05-30,23.661789,120.807647,1.3048869e-09
C0AJ20,野柳,2025-05-30,25.20703,121.690021,0.98221093
C0B060,暖暖,2025-05-30,25.0957,121.7403,0.98848003
C1H920,長豐,2025-05-30,24.102039,120.879897,3.338698e-09
C0V360,內門,2025-05-30,22.975481,120.466769,0.9991229
C0R850,林邊,2025-05-30,22.4634,120.5339,0.98427415
C0E930,龍鳳,2025-05-30,24.700034,120.859125,1.5030523e-05
C0U910,冬山,2025-05-30,24.63373,121.7937,0.9947072
C1E721,泰安,2025-05-30,24.489017,120.968036,1.1199504e-09
82H320,茶改中部分場,2025-05-30,23.875611,120.913583,4.394474e-09
C0M750,布袋,2025-05-30,23.380878,120.167789,0.995364
C1S860,利嘉,2025-05-30,22.809417,121.050528,1.4607543e-05
E2S980,林試太麻里1,2025-05-30,22.598922,120.980044,0.06313771
C0X170,關廟,2025-05-30,22.963017,120.327797,0.9857091
C0V720,林園,2025-05-30,22.507747,120.394511,0.9921099
C1I510,線浸林道,2025-05-30,23.761508,120.832956,1.7520733e-09
C0D690,外湖,2025-05-30,24.917735,120.968711,0.001677249
C0C750,新興坑尾,2025-05-30,25.0061,121.0971,0.0019027239
B2Q810,畜試南區分所,2025-05-30,21.945583,120.802167,0.028275177
C0S790,金崙,2025-05-30,22.538122,120.966875,0.091837525
C0AH90,福山植物園,2025-05-30,24.760717,121.58135,3.1135091e-06
C0I540,奇萊稜線,2025-05-30,24.109231,121.326456,6.426211e-09
C0M850,表湖,2025-05-30,23.24186,120.64166,0.0012436623
C0S770,大溪山,2025-05-30,22.478475,120.943325,0.00014857402
C0AG80,中和,2025-05-30,24.991622,121.491792,0.98880994
C0T790,大禹嶺,2025-05-30,24.186117,121.316086,4.92679e-09
C0T9B0,水源,2025-05-30,23.991861,121.537169,4.3557975e-08
C0R840,牡丹池山,2025-05-30,22.168389,120.841225,1.0086555e-06
C1I131,桶頭,2025-05-30,23.641944,120.654117,0.9918641
CAL110,布袋國中,2025-05-30,23.35893,120.18026,0.9751738
467571,新竹,2025-05-30,24.827853,121.014219,1.01771875e-05
C0Z290,赤柯山,2025-05-30,23.36893,121.38293,2.4528588e-09
C0X280,將軍,2025-05-30,23.214999,120.13577,0.97937924
C0S690,太麻里,2025-05-30,22.60902,120.98533,0.00010024021
C0U880,北關,2025-05-30,24.9072,121.8734,0.98192453
C0G810,埔心,2025-05-30,23.947633,120.525456,0.37419033
C0U970,大福,2025-05-30,24.80064,121.81389,0.9779913
C2H9N0,仁愛東眼,2025-05-30,24.026875,121.1205,1.0127272e-09
C1E670,南礦,2025-05-30,24.538278,121.002836,1.015561e-09
C0M520,東後寮,2025-05-30,23.369908,120.248065,0.97780484
C1E461,松安,2025-05-30,24.397972,120.986022,1.2866477e-09
C2N160,西拉雅風管處,2025-05-30,23.189481,120.335297,0.99518156
C2M970,碧湖,2025-05-30,23.568632,120.624165,1.3077597e-09
C0A640,石碇,2025-05-30,24.993969,121.662917,1.8588937e-06
E2S960,林試太麻里2,2025-05-30,22.598,120.99775,0.09660418
C0F9Y0,桃山,2025-05-30,24.432739,121.303808,9.783862e-09
C1I020,萬大,2025-05-30,23.979817,121.132261,1.4428362e-09
C0U940,羅東,2025-05-30,24.68184,121.74934,0.99404365
C0M650,朴子,2025-05-30,23.43463,120.23902,0.9981958
C1I500,大尖山,2025-05-30,23.858572,120.994889,1.7534104e-09
C0G820,田尾,2025-05-30,23.901669,120.509389,0.3739966
E2K600,四湖植物園,2025-05-30,23.676986,120.163433,0.6892749
C0S730,綠島,2025-05-30,22.6672,121.47533,0.009317686
12Q970,東港工作站,2025-05-30,22.479997,120.466058,0.98524594
C0E430,南庄,2025-05-30,24.601775,121.000214,3.5413752e-05
C1TA00,太魯閣,2025-05-30,24.15773,121.6236,3.153093e-08
466920,臺北,2025-05-30,25.037658,121.514853,0.99052244
C0R600,舊泰武,2025-05-30,22.588194,120.664944,1.4956308e-07
C1I260,北坑,2025-05-30,23.9246,121.006903,9.208108e-09
466910,鞍部,2025-05-30,25.182586,121.529731,3.690326e-09
C1I230,九份二山,2025-05-30,23.961944,120.845,4.2013624e-09
C2A660,瑞芳,2025-05-30,25.113169,121.801147,0.99263346
C0R270,琉球嶼,2025-05-30,22.332244,120.362236,0.7974022
C1T990,高寮,2025-05-30,23.394239,121.356808,7.879151e-08
C0G620,芬園,2025-05-30,24.015678,120.6213,0.8272293
C1Z140,荖溪,2025-05-30,23.890575,121.45964,9.886624e-09
C1I201,中心崙,2025-05-30,23.728722,120.712097,4.139115e-09
C1I400,凌霄,2025-05-30,24.018778,121.004456,1.0064382e-09
C1M640,十字,2025-05-30,23.492153,120.753683,9.024492e-10
G2P820,農試鳳山分所,2025-05-30,22.646611,120.356083,0.95327353
C0Z270,蕃薯寮,2025-05-30,23.73835,121.540108,5.5890705e-09
C0F9Q0,外埔,2025-05-30,24.347817,120.705686,0.0026179873
C0K580,高鐵雲林,2025-05-30,23.737456,120.417944,0.9966808
C2I090,鳳凰,2025-05-30,23.728081,120.787347,1.9990996e-09
C0U990,員山,2025-05-30,24.74435,121.72247,0.9940466
C0V770,大社,2025-05-30,22.730306,120.346639,0.99789876
C0X120,麻豆,2025-05-30,23.183289,120.248611,0.9940938
C0C670,龍潭,2025-05-30,24.870056,121.221389,0.00033378595
C0D680,香山濕地,2025-05-30,24.783581,120.914988,3.6587026e-05
C0S980,勝林山,2025-05-30,22.430439,120.8938,1.419576e-07
C0V730,大寮,2025-05-30,22.605614,120.395717,0.987381
C0R570,麟洛,2025-05-30,22.65078,120.52719,0.99904275
C2M930,石卓,2025-05-30,23.478744,120.702264,1.0886114e-09
C0G9B0,和美,2025-05-30,24.105169,120.492131,0.92685384
CAG100,王功漁港,2025-05-30,23.96824,120.32586,0.011549311
C0X290,北門,2025-05-30,23.267772,120.125481,0.97933257
C2F930,大甲,2025-05-30,24.347667,120.640403,0.41029432
C0D650,湖口,2025-05-30,24.904794,121.043628,0.0010211748
C0E420,竹南,2025-05-30,24.708978,120.888897,6.6817156e-06
C0U780,五結,2025-05-30,24.68637,121.79794,0.99452
C1I250,鯉潭,2025-05-30,23.961922,120.991131,5.4582046e-09
C0R130,阿禮,2025-05-30,22.742908,120.743678,1.8953367e-08
C0X100,臺南市北區,2025-05-30,23.010394,120.194228,0.6137207
C0S920,金峰嘉蘭,2025-05-30,22.594789,120.960825,0.059538912
C0V490,新興,2025-05-30,22.627422,120.298803,0.98428804
C0F9K0,大安,2025-05-30,24.345061,120.588025,0.20446037
467290,古坑,2025-05-30,23.633639,120.551889,0.9984986
C2E970,八甲,2025-05-30,24.535811,120.795983,1.8416249e-05
C0V440,鳳山,2025-05-30,22.646653,120.356122,0.95327353
C1T940,大觀,2025-05-30,23.714206,121.373133,1.9496234e-09
C0E740,造橋,2025-05-30,24.637056,120.864778,2.0795642e-05
C0R100,尾寮山,2025-05-30,22.833111,120.683889,1.12709975e-08
A2K630,臺大雲林校區,2025-05-30,23.730628,120.423903,0.99667937
467990,馬祖,2025-05-30,26.169467,119.923158,2.469536e-05
C0D580,寶山,2025-05-30,24.735006,121.025192,0.00072126783
E2P990,林試扇平站,2025-05-30,22.9677,120.6857,1.9526258e-05
C0AI30,三重,2025-05-30,25.057328,121.500629,0.9901685
C0AH00,汐止,2025-05-30,25.066881,121.658778,0.99052244
C1Z040,立山,2025-05-30,23.443356,121.327375,2.7592386e-09
466881,新北,2025-05-30,24.959207,121.525196,0.99055135
C0W130,花嶼,2025-05-30,23.40007,119.32276,0.22949354
C0A950,鼻頭角,2025-05-30,25.129036,121.923372,0.99562865
C0K470,林內,2025-05-30,23.748675,120.609642,0.9991394
C2F990,摩天嶺,2025-05-30,24.322458,120.936819,1.436578e-09
82C160,茶改場,2025-05-30,24.908472,121.185333,0.0053150407
C0Z320,清水林道,2025-05-30,23.27125,121.188272,7.2351676e-09
C0R760,南仁湖,2025-05-30,22.084681,120.863353,0.010713889
C0M670,大林,2025-05-30,23.600616,120.45841,0.9993671
C0M800,茶山,2025-05-30,23.299075,120.664767,0.32388577
C0A9C0,天母,2025-05-30,25.117494,121.537169,0.7037571
72K220,南改斗南分場,2025-05-30,23.634556,120.477333,0.9989969
72AI40,桃改樹林分場,2025-05-30,24.944503,121.386972,0.5189532
C0S910,蘭嶼燈塔,2025-05-30,22.081197,121.503117,0.00014916199
C0B050,八斗子,2025-05-30,25.144754,121.79167,0.98224545
C0U900,內城,2025-05-30,24.71813,121.68766,0.992298
C0X320,柳營,2025-05-30,23.253328,120.375253,0.9976999
C0M790,新港,2025-05-30,23.553269,120.345728,0.9995029
C0F9T0,西屯,2025-05-30,24.179494,120.641275,0.9530945
C0SA30,都歷,2025-05-30,23.020333,121.323642,0.99383134
C0C620,蘆竹,2025-05-30,25.084275,121.265767,0.0044339653
C0R730,大坪頂,2025-05-30,22.024633,120.69355,0.040832315
C0AJ40,石門,2025-05-30,25.273672,121.601198,0.0035779404
C0E750,苗栗,2025-05-30,24.564569,120.824575,0.00014979696
C0T870,鯉魚潭,2025-05-30,23.935639,121.508944,0.0006279932
C1V170,排雲,2025-05-30,23.463619,120.954147,7.1330577e-09
C2H950,中寮,2025-05-30,23.884447,120.766406,0.823045
C0R350,貓鼻頭,2025-05-30,21.921774,120.7358,0.0067776493
C0V660,岡山,2025-05-30,22.797078,120.294958,0.9943796
C1H941,雙冬,2025-05-30,23.967378,120.802189,8.09806e-09
C0AJ70,田寮,2025-05-30,25.2698,121.4886,0.010602615
C0AI00,五股,2025-05-30,25.07445,121.42728,0.9304935
C0Z280,德武,2025-05-30,23.47426,121.41071,9.25558e-09
C0R700,枋山,2025-05-30,22.246844,120.661086,0.5036643
C0C460,復興,2025-05-30,24.820208,121.352281,1.3773371e-08
E2H360,蓮華池,2025-05-30,23.918333,120.885278,4.932601e-09
C0M640,中埔,2025-05-30,23.42538,120.5229,0.98905987
C0W140,金沙,2025-05-30,24.488292,118.408778,0.0051763942
C2A540,四堵,2025-05-30,24.8926,121.745736,0.00020866572
C0ACA0,新莊,2025-05-30,25.051478,121.446756,0.9873324
C0R220,潮州,2025-05-30,22.534361,120.54,0.9994695
U2HA40,臺大內茅埔,2025-05-30,23.689722,120.851117,3.078184e-08
467490,臺中,2025-05-30,24.145736,120.684075,0.9924467
C0U960,翠峰湖,2025-05-30,24.510856,121.608044,5.652106e-09
E2HA20,林試畢祿溪站,2025-05-30,24.226944,121.308522,4.0492365e-09
C0V890,前鎮,2025-05-30,22.5718,120.3117,0.9839575
C1F941,雪嶺,2025-05-30,24.280586,121.026642,8.018077e-09
C2H9E0,國姓南港,2025-05-30,23.911108,120.846556,2.4179418e-09
C0AC80,文山,2025-05-30,25.00235,121.575728,0.991689
C0F9R0,龍井,2025-05-30,24.184536,120.528972,0.33378005
C0M760,民雄,2025-05-30,23.551754,120.428457,0.9993256
C0UA40,西德山,2025-05-30,24.560647,121.752608,6.1748424e-09
C1T920,中興,2025-05-30,23.769503,121.498653,0.00014763449
C0D550,雪霸,2025-05-30,24.526972,121.11605,1.8473841e-09
C2F860,梨山,2025-05-30,24.247522,121.243669,4.183602e-09
C0R320,車城,2025-05-30,22.0744,120.716247,0.045604337
C1S870,南美山,2025-05-30,23.15025,121.382333,0.03118016
C0B020,基隆嶼,2025-05-30,25.19141,121.78391,0.99644953
C1U501,牛鬥,2025-05-30,24.637836,121.573656,5.8996134e-06
C0M730,嘉義市東區,2025-05-30,23.457673,120.460531,0.99753433
C0S700,知本,2025-05-30,22.684866,121.005642,0.00033656805
C1N001,沙崙,2025-05-30,22.935472,120.309406,0.98391515
C0V760,橋頭,2025-05-30,22.757806,120.30575,0.99786764
C0G960,福寶,2025-05-30,24.0443,120.3814,0.92299175
C0X210,白河,2025-05-30,23.347466,120.414427,0.99672586
C0S810,東河,2025-05-30,22.972672,121.303986,0.010235957
C2R170,屏東,2025-05-30,22.66027,120.49403,0.9990371
C0R670,楓港,2025-05-30,22.190131,120.692156,0.29524097
C0FA50,霧峰,2025-05-30,24.0419,120.6995,0.63343906
C0UB10,蘇澳,2025-05-30,24.5969,121.8571,2.009166e-05
C0G950,防潮門,2025-05-30,24.1835,120.4871,0.3245287
C0M740,六腳,2025-05-30,23.492871,120.290625,0.9992429
C1R250,力里,2025-05-30,22.428117,120.629228,0.9876089
C0K330,虎尾,2025-05-30,23.719183,120.442036,0.9966252
C2FA00,烏石坑,2025-05-30,24.273503,120.947617,1.4679411e-09
C0V620,永安,2025-05-30,22.82315,120.236856,0.9944086
C1I330,楓樹林,2025-05-30,23.986803,121.076117,1.6622185e-09
C0W200,湖西,2025-05-30,23.596314,119.67275,0.0015721591
72Q010,高雄農改場,2025-05-30,22.709333,120.525889,0.99939615
C0SA40,瑞和,2025-05-30,22.974361,121.156697,0.91584796
C0C680,龜山,2025-05-30,25.02846,121.38656,9.975347e-09
C2V260,月眉,2025-05-30,22.971003,120.539853,0.99951345
C0V450,鳳森,2025-05-30,22.545064,120.392592,0.994947
C0U720,南山,2025-05-30,24.43742,121.38167,4.5580135e-09
A2N290,臺南蘭花園區,2025-05-30,23.340258,120.379661,0.9992317
C0R560,新園,2025-05-30,22.5434,120.461558,0.9921099
C0U890,三星,2025-05-30,24.66812,121.65302,0.87610614
C1V300,御油山,2025-05-30,23.001983,120.715364,7.640311e-10
C0U600,礁溪,2025-05-30,24.817539,121.765608,0.8880848
C1T980,龍澗,2025-05-30,24.023289,121.411328,5.3157825e-09
C0D670,海天一線,2025-05-30,24.831986,120.914438,8.731936e-06
C0SA00,歷坵,2025-05-30,22.520969,120.89185,0.0006621441
C0M710,東石,2025-05-30,23.458927,120.15385,0.9005085
C0M780,鹿草,2025-05-30,23.41134,120.30835,0.9985203
C0U520,雙連埤,2025-05-30,24.753033,121.641303,9.9459e-09
C0B010,七堵,2025-05-30,25.094819,121.71713,0.9842536
C0R480,長治,2025-05-30,22.693128,120.542622,0.99752814
C1V830,國三S383K,2025-05-30,22.781967,120.426475,0.9996626
12Q980,恆春工作站,2025-05-30,22.079678,120.714425,0.045614284
C1O940,東山服務區,2025-05-30,23.286016,120.398472,0.9969257
C1U840,東澳嶺,2025-05-30,24.5378,121.8485,2.1830507e-08
C1D630,飛鳳山,2025-05-30,24.766464,121.119178,4.0551665e-08
C0S940,石寧山,2025-05-30,23.223772,121.406639,0.9934153
C0K410,北港,2025-05-30,23.573957,120.292802,0.9979419
C2M620,瑞里,2025-05-30,23.545133,120.675197,1.0644551e-09
C0SB70,小港漁港,2025-05-30,23.158558,121.400431,0.014542214
C2O950,安南,2025-05-30,23.076694,120.144861,0.821621
C0F0E0,南湖圈谷,2025-05-30,24.363714,121.444667,1.549687e-08
467610,成功,2025-05-30,23.097486,121.373428,0.04939455
C0G890,伸港,2025-05-30,24.148933,120.484403,0.2653497
C2E540,龍溪,2025-05-30,24.606489,120.783933,0.06516032
C1V200,梅山,2025-05-30,23.268447,120.823556,1.1350041e-08
C0T9H0,加路蘭山,2025-05-30,23.682947,121.5274,1.1423253e-08
C2O930,玉井,2025-05-30,23.126042,120.46055,0.99835247
C1F911,新伯公,2025-05-30,24.221361,120.841069,0.0003309074
C0R490,九如,2025-05-30,22.7405,120.490503,0.99938136
C0X200,左鎮,2025-05-30,23.056758,120.408522,0.9979391
C0SB50,叭嗡嗡,2025-05-30,23.047062,121.343223,0.99448276
C1F891,稍來,2025-05-30,24.265689,121.001142,4.6039816e-09
72N240,七股研究中心,2025-05-30,23.081672,120.062894,0.799165
C0C700,中壢,2025-05-30,24.977661,121.256375,0.969767
C0M690,水上,2025-05-30,23.419734,120.388909,0.99946827
C0V690,鼓山,2025-05-30,22.623325,120.275575,0.984256
C0O860,大內,2025-05-30,23.11885,120.36083,0.99459803
C0Z200,萬榮,2025-05-30,23.709219,121.420106,3.9420885e-07
C0T9D0,和中,2025-05-30,24.26676,121.74103,1.2186132e-05
C1O921,楠西,2025-05-30,23.183511,120.484083,0.9980791
C0AJ30,淡水觀海,2025-05-30,25.184591,121.408616,0.09988755
C0V810,左營,2025-05-30,22.67491,120.28491,0.9606789
C0UA70,桃源谷,2025-05-30,24.962606,121.888875,3.5865282e-09
C0X130,官田,2025-05-30,23.193217,120.315422,0.9947045
C1H000,翠峰,2025-05-30,24.109397,121.205211,2.3656137e-09
C0UA90,石城,2025-05-30,24.980444,121.951214,0.88340026
C1E681,南勢山,2025-05-30,24.421669,120.923831,1.8157865e-09
C0A9F0,內湖,2025-05-30,25.079422,121.57545,0.99052244
C0K291,宜梧,2025-05-30,23.536281,120.169329,0.98365223
C1K540,口湖,2025-05-30,23.585344,120.180517,0.75251293
C0R780,滿州,2025-05-30,22.024403,120.839892,0.055564966
C0V870,文安,2025-05-30,22.8025,120.2164,0.9953023
C0U650,玉蘭,2025-05-30,24.675286,121.587061,6.606116e-09
C0R640,東港,2025-05-30,22.46247,120.44074,0.98522586
C0AJ80,板橋,2025-05-30,25.0107,121.4489,0.98793447
C0S660,下馬,2025-05-30,23.150427,121.070312,6.9404966e-09
C1H9B1,阿眉,2025-05-30,24.1263,120.994672,3.4728556e-09
C0UA20,多加屯,2025-05-30,24.368614,121.373189,4.9698468e-09
C0E730,頭份,2025-05-30,24.688247,120.912206,8.941674e-06
72V140,高改旗南分場,2025-05-30,22.857861,120.516667,0.99967986
C0K480,莿桐,2025-05-30,23.761192,120.502372,0.920214
C0U980,坪林石牌,2025-05-30,24.86478,121.77396,7.808086e-09
C0T900,西林,2025-05-30,23.8119,121.441458,1.814277e-07
C1I150,青雲,2025-05-30,23.793361,120.949378,2.1994971e-08
467350,澎湖,2025-05-30,23.565503,119.563094,0.11695106
C0G800,埔鹽,2025-05-30,24.000394,120.431683,0.8834838
C0H960,草屯,2025-05-30,23.973672,120.68085,0.6645715
C1V780,多納林道,2025-05-30,22.888028,120.737917,1.9183541e-09
C0E920,通霄漁港,2025-05-30,24.498589,120.673876,0.022260152
C0Z330,安通山,2025-05-30,23.290728,121.348528,0.00019813282
C0AH10,永和,2025-05-30,25.01125,121.508111,0.9874266
C0AK10,太平里,2025-05-30,25.134937,121.364899,0.006691744
C2G640,鹿港,2025-05-30,24.0753,120.430481,0.92541546
C1E890,國三N149K,2025-05-30,24.463414,120.680019,0.12668349
C1R110,口社,2025-05-30,22.770111,120.645222,0.9990727
C1M870,國三N285K,2025-05-30,23.550319,120.505833,0.99747825
C1E480,鳳美,2025-05-30,24.554803,121.034747,7.2941675e-09
C0M530,奮起湖,2025-05-30,23.493903,120.699253,1.0573626e-09
C0C590,觀音,2025-05-30,25.027072,121.153317,0.0015332673
C0T9M0,靜浦,2025-05-30,23.455167,121.495028,1.9755242e-07
C2H9M0,發祥,2025-05-30,24.154094,121.164517,2.4105236e-09
C0AI40,石牌,2025-05-30,25.115597,121.513139,0.6769852
C1F871,上谷關,2025-05-30,24.203483,121.018644,1.5989637e-09
C2H9G0,百勝,2025-05-30,24.051142,120.909361,2.5409518e-08
C0G880,二水,2025-05-30,23.810742,120.6173,0.9976734
C0R940,加祿堂,2025-05-30,22.3363,120.6217,0.21001023
C0W220,北竿,2025-05-30,26.220358,119.974881,9.822437e-05
C0O960,崎頂,2025-05-30,22.959547,120.369317,0.99199694
C0S750,向陽,2025-05-30,23.248397,120.986133,1.4477126e-09
C0T9F0,水璉,2025-05-30,23.797131,121.542514,1.3161332e-08
C1M600,頭凍,2025-05-30,23.406364,120.603339,1.5038418e-09
467660,臺東,2025-05-30,22.752211,121.154586,0.982968
C1D380,新埔,2025-05-30,24.84745,121.03834,6.131175e-06
C2G980,田頭村,2025-05-30,23.8263,120.444175,0.9497233
C0V750,路竹,2025-05-30,22.854997,120.259439,0.7841321
C0N050,蚵寮,2025-05-30,23.301,120.1104,0.979793
72M700,南改鹿草分場,2025-05-30,23.416869,120.283061,0.9982166
C1SA50,利嘉林道,2025-05-30,22.82325,121.009389,7.965287e-10
C0A940,金山,2025-05-30,25.223628,121.643967,0.987523
C1V340,大津,2025-05-30,22.888322,120.645986,0.99982744
C0W180,七美,2025-05-30,23.219333,119.444892,0.021415446
C1F9C1,白冷,2025-05-30,24.182844,120.929889,2.8952772e-07
K2E710,苗改生物防治研究中心,2025-05-30,24.422861,120.871833,0.00012842707
C0N040,蘆竹溝,2025-05-30,23.2344,120.0961,0.97933257
C2W230,畜試所澎湖,2025-05-30,23.628342,119.513206,0.52652067
C0R880,後壁湖,2025-05-30,21.9457,120.7457,0.031222057
C1I280,埔中,2025-05-30,23.820778,120.642594,1.01687405e-07
467790,墾丁雷達站,2025-05-30,21.948235,120.808028,0.024059605
C0W190,望安,2025-05-30,23.380564,119.494075,0.30006793
C0Z170,卓溪,2025-05-30,23.3443,121.3029,0.98684376
C0F850,東勢,2025-05-30,24.246428,120.833047,2.212014e-05
466900,淡水,2025-05-30,25.164889,121.448906,0.0067832493
C0I370,魚池,2025-05-30,23.895703,120.94135,4.7118047e-09
C0C630,大溪,2025-05-30,24.882853,121.265547,0.86938995
C0A520,山佳,2025-05-30,24.974944,121.402008,0.9895543
C0I110,竹山,2025-05-30,23.761225,120.688156,0.99480075
82H840,茶改南部分場,2025-05-30,23.762528,120.7405,6.280905e-09
C0G660,溪湖,2025-05-30,23.94835,120.479122,0.39868894
C1T800,洛韶,2025-05-30,24.204558,121.453956,5.487338e-09
C1T810,慈恩,2025-05-30,24.192044,121.388386,1.903233e-09
C1E451,象鼻,2025-05-30,24.368617,120.940228,2.7177043e-09
C0AC60,三峽,2025-05-30,24.939025,121.369728,0.96433824
C0I490,萬大林道,2025-05-30,23.928228,121.091411,1.2677104e-09
C1I290,豐丘,2025-05-30,23.668178,120.887417,1.1016495e-09
C1I320,奧萬大,2025-05-30,23.952956,121.178556,1.8382945e-09
C2M910,嘉義大學,2025-05-30,23.471325,120.485903,0.99445146
C0U770,南澳,2025-05-30,24.44935,121.81022,9.0435395e-05
C0A980,社子,2025-05-30,25.109508,121.469681,0.00771566
C0V800,六龜,2025-05-30,22.997889,120.633583,0.9981733
C1G9D0,國一S218K,2025-05-30,23.890641,120.493253,0.45228574
C0E570,白沙屯,2025-05-30,24.549447,120.696803,0.35939923
C2F9A0,中竹林,2025-05-30,24.103556,120.751061,6.985788e-08
C0FA40,臺中電廠,2025-05-30,24.2146,120.4907,0.33404246
C2G9A0,畜試所彰化,2025-05-30,23.86045,120.557964,0.7977713
C0H9C0,合歡山,2025-05-30,24.143442,121.272547,9.871474e-09
C0X060,下營,2025-05-30,23.22695,120.256261,0.99474996
G2M350,農試溪口農場,2025-05-30,23.58565,120.408111,0.99927455
C0U860,頭城,2025-05-30,24.85323,121.8308,0.87127745
C0R580,南州,2025-05-30,22.48591,120.50274,0.98522586
C0D430,峨眉,2025-05-30,24.6905,121.017189,2.0578982e-05
C0G780,秀水,2025-05-30,24.03405,120.503869,0.85670066
72N100,臺南農改場,2025-05-30,23.0605,120.342194,0.9947962
C0S900,蘭嶼高中,2025-05-30,22.04909,121.51214,0.00024238833
C1F9W0,德基,2025-05-30,24.254783,121.190261,2.4339888e-09
C1Z120,壽豐,2025-05-30,23.870853,121.508081,0.02564637
C0W160,烏坵,2025-05-30,24.9944,119.44956,0.69898385
C1I240,外大坪,2025-05-30,23.958697,120.917931,5.284676e-09
C1I550,國六W023K,2025-05-30,23.979067,120.867742,1.710577e-08
C0R870,興海,2025-05-30,21.9752,120.8439,0.028274883
C0R140,瑪家,2025-05-30,22.682903,120.686639,5.462154e-07
C0A530,坪林,2025-05-30,24.938183,121.70975,4.032357e-05
C0X260,後壁,2025-05-30,23.366358,120.362326,0.99785703
C0Z230,和平,2025-05-30,24.30717,121.77007,1.4266444e-05
C0G770,福興,2025-05-30,24.041289,120.437669,0.8837202
C0H9A0,神木村,2025-05-30,23.532742,120.843667,1.094324e-09
C0I460,南投,2025-05-30,23.911469,120.687331,0.40527594
C0I480,梅峰,2025-05-30,24.085272,121.173572,2.3435898e-09
C1V570,吉東,2025-05-30,22.85422,120.5454,0.9996998
C2D740,屯原,2025-05-30,24.067969,121.209389,1.1440495e-09
C2A560,福山,2025-05-30,24.776203,121.502811,2.5537687e-05
C0AH30,五分山,2025-05-30,25.07125,121.780794,5.842322e-09
C0FA10,松柏,2025-05-30,24.429115,120.617482,0.21264641
72S200,東改班鳩分場,2025-05-30,22.829528,121.077694,0.6280852
72HA00,中改埔里分場,2025-05-30,23.903208,120.963364,6.53815e-09
C2H9W0,大坪頂農水,2025-05-30,24.043122,120.932781,3.3043357e-09
C0C650,平鎮,2025-05-30,24.897503,121.214636,0.72020864
C0S930,延平,2025-05-30,22.902581,121.084058,0.47650844
C0UA60,樟樹山,2025-05-30,24.41393,121.78325,1.5749858e-08
C1S670,摩天,2025-05-30,23.199503,121.027,3.2776957e-09
C0V630,茄萣,2025-05-30,22.906642,120.182608,0.65855366
466940,基隆,2025-05-30,25.133314,121.740475,0.98340166
C0X050,東河,2025-05-30,23.296598,120.385608,0.9962914
C0R770,保力,2025-05-30,22.071122,120.764111,0.05219985
G2L020,農試嘉義分所,2025-05-30,23.485028,120.473806,0.9978927
C0X240,關子嶺,2025-05-30,23.331169,120.508025,0.9617138
C0I380,集集,2025-05-30,23.828206,120.801467,0.9810057
466990,花蓮,2025-05-30,23.975128,121.613275,0.41587305
C1V220,小關山,2025-05-30,23.154217,120.813603,1.2456829e-09
C1F9G1,慶福山,2025-05-30,24.180853,120.848378,2.3691176e-09
C0Z250,瑞穗林道,2025-05-30,23.49284,121.30688,3.228739e-09
C0D590,新豐,2025-05-30,24.87068,120.97721,1.8727944e-06
C0A870,五指山,2025-05-30,25.132153,121.608692,4.099e-09
C0UA50,西帽山,2025-05-30,24.555361,121.802628,1.4992489e-08
C0X160,仁德,2025-05-30,22.968258,120.257689,0.92538536
C1H971,六分寮,2025-05-30,23.92507,120.6378,1.1514384e-08
C0W120,西嶼,2025-05-30,23.5626,119.468436,0.46187955
C0G650,員林,2025-05-30,23.946503,120.585597,0.5762056
C0AD50,鶯歌,2025-05-30,24.951533,121.346294,0.9686749
C2H9Q0,北東眼山,2025-05-30,24.120939,121.189303,1.8489317e-09
C2H9T0,名間竹圍,2025-05-30,23.859914,120.637572,0.22309981
C0S990,山豬窟,2025-05-30,22.318619,120.857372,4.7472808e-05
C0X190,安平,2025-05-30,22.993161,120.152181,0.6139144
C0K400,斗六,2025-05-30,23.720583,120.541127,0.9885955
12J990,口湖工作站,2025-05-30,23.589978,120.180394,0.7529649
C0O830,北寮,2025-05-30,23.079561,120.495008,0.9967186
C1D410,白蘭,2025-05-30,24.579364,121.079947,1.035366e-09
C0S970,加津林,2025-05-30,22.416211,120.926942,0.27274275
C0D700,關西,2025-05-30,24.7977,121.1732,0.31526887
C0M810,里佳,2025-05-30,23.389125,120.716647,1.2462936e-09
C0U750,龜山島,2025-05-30,24.841667,121.953133,4.865847e-08
C0R810,內獅,2025-05-30,22.305064,120.642986,0.20353442
C1M390,龍美,2025-05-30,23.406728,120.654417,1.2278402e-09
C2FB60,頭櫃山,2025-05-30,24.129842,120.858925,1.6643472e-09
C1H840,國三N238K,2025-05-30,23.841008,120.707711,0.8389301
CAQ030,崎峰國小,2025-05-30,22.42565,120.49521,0.98522586
C2E520,大湖,2025-05-30,24.414939,120.870872,7.30161e-07
467530,阿里山,2025-05-30,23.508208,120.813242,2.2800362e-09
C1E691,南湖,2025-05-30,24.40135,120.837533,2.6532858e-09
C0FA30,梧棲,2025-05-30,24.256003,120.523381,0.22676982
C1V231,高中,2025-05-30,23.134911,120.716711,0.0023426232
C0AK30,硬漢嶺,2025-05-30,25.136097,121.426372,6.16778e-09
C0F9V0,新社,2025-05-30,24.200172,120.815806,3.3857846e-06
C0H890,埔里,2025-05-30,23.972169,120.952425,3.206922e-08
C0R690,墾丁,2025-05-30,21.966756,120.810269,0.0029794981
C0F0D0,審馬陣,2025-05-30,24.381675,121.4203,8.976054e-09
C2W030,金門農試所,2025-05-30,24.448431,118.451786,0.18057083
C0R820,白鷺,2025-05-30,22.454275,120.666219,1.0067623e-06
C1V190,南天池,2025-05-30,23.27403,120.91176,1.5682733e-09
K2E360,苗栗農改場,2025-05-30,24.495722,120.829111,0.00037893618
CAJ050,海口故事園區,2025-05-30,23.57543,120.14121,0.7525131
C2H9D0,三隻寮,2025-05-30,24.093078,120.861578,3.0887275e-09
C0O990,媽廟,2025-05-30,22.99175,120.293525,0.9870501
C0D480,打鐵坑,2025-05-30,24.849664,121.150789,0.00030694721
C0Z220,和平林道,2025-05-30,24.343922,121.656317,1.8408945e-09
C0TA10,花蓮漁港,2025-05-30,23.995322,121.638331,0.4616189
72C440,桃園農改場,2025-05-30,24.950944,121.030583,0.0013720713
C1E711,馬拉邦山,2025-05-30,24.367306,120.901656,3.9204275e-09
C0SB20,富岡,2025-05-30,22.792467,121.192669,0.9951667
C0D560,竹東,2025-05-30,24.767147,121.057881,0.0004095935
C0F9U0,南屯,2025-05-30,24.137006,120.637969,0.9659155
C0M720,番路,2025-05-30,23.464657,120.554156,0.9950663
C0F0A0,雪山圈谷,2025-05-30,24.388594,121.236339,1.3508851e-08
C1A9N0,四十份,2025-05-30,24.934158,121.593283,2.0300033e-07
C0U760,東澳,2025-05-30,24.52196,121.83318,0.00022105631
C0X230,鹽水,2025-05-30,23.272621,120.247641,0.9812682
C2H9H0,苗改南投蜂場,2025-05-30,23.852589,120.693481,0.97738373
C0R950,萬隆國小,2025-05-30,22.507667,120.587817,0.9993811
467540,大武,2025-05-30,22.35572,120.90374,0.2815681
C0V370,古亭坑,2025-05-30,22.893178,120.401947,0.99589026
C1I340,新興橋,2025-05-30,23.563333,120.868728,1.3714225e-09
C0SA80,土坂,2025-05-30,22.453108,120.887572,0.22475202
C0R160,鹽埔,2025-05-30,22.739558,120.530778,0.9994249
C0AC40,大屯山,2025-05-30,25.175675,121.522408,2.8387526e-09
466850,五分山雷達站,2025-05-30,25.071182,121.781205,5.6728857e-09
C2H9L0,馬烈霸,2025-05-30,24.1512,121.201772,2.4125335e-09
C1AI50,國三N016K,2025-05-30,25.034164,121.619664,0.9922236
C1V600,藤枝,2025-05-30,23.071961,120.757042,8.3692625e-10
C1E601,南勢,2025-05-30,24.572486,120.734842,0.000949086
C0O980,新市,2025-05-30,23.061614,120.298197,0.993896
C0K420,西螺,2025-05-30,23.800407,120.467394,0.94816977
C0Z050,佳心,2025-05-30,23.34567,121.21316,3.0605374e-09
C0AD30,蘆洲,2025-05-30,25.086594,121.472331,0.99016774
C0V610,梓官,2025-05-30,22.760558,120.267211,0.9978657
K2F750,種苗改良場,2025-05-30,24.225972,120.800917,1.7491495e-05
C0UA80,大溪漁港,2025-05-30,24.941801,121.902955,0.92034096
C1AI60,國一39K邊坡,2025-05-30,25.064361,121.383836,1.5951448e-08
C0W150,金寧,2025-05-30,24.457703,118.328989,0.18578501
C0R960,內埔,2025-05-30,22.608483,120.570714,0.99961615
V2C250,八德合作社,2025-05-30,24.93775,121.266389,0.94351506
C2H9S0,龍南,2025-05-30,23.953536,120.833183,2.2296844e-09
C0AH40,平等,2025-05-30,25.129142,121.577086,2.0458716e-08
C0R540,佳冬,2025-05-30,22.419456,120.552375,0.82055354
466950,彭佳嶼,2025-05-30,25.627975,122.079744,0.016259702
C0A890,雙溪,2025-05-30,25.036003,121.864242,0.901289
C0C480,桃園,2025-05-30,24.992425,121.323172,0.9763062
C0AH50,林口,2025-05-30,25.072181,121.38084,7.8664435e-09
A2K360,水試臺西試驗場,2025-05-30,23.717231,120.190522,0.87864304
C2M960,外寮,2025-05-30,23.562643,120.665688,1.1877981e-09
C0F9S0,烏日,2025-05-30,24.107058,120.624103,0.9833979
C0C490,八德,2025-05-30,24.928708,121.283289,0.94245344
C0R190,赤山,2025-05-30,22.592333,120.614306,0.99961364
C0T820,天祥,2025-05-30,24.179597,121.495639,1.9036177e-09
C1F9E1,龍安,2025-05-30,24.1605,120.831961,2.938519e-07
C0V820,小林,2025-05-30,23.148408,120.63325,0.9739373
C2G870,芳苑,2025-05-30,23.922303,120.320025,0.011241821
C0E850,大河,2025-05-30,24.618069,120.948578,1.6249325e-05
C1U670,寒溪,2025-05-30,24.634,121.71691,0.9476992
C0N020,城西,2025-05-30,23.0568,120.0956,0.83875537
C1Z110,三棧,2025-05-30,24.11557,121.60501,1.0138661e-08
C0R280,檳榔,2025-05-30,22.076078,120.836777,0.023347732
C2H9J0,中台,2025-05-30,23.9996,120.938739,1.411302e-08
C0F9L0,后里,2025-05-30,24.310436,120.729725,6.6854e-06
467441,高雄,2025-05-30,22.730432,120.312516,0.99776137
C0Z180,新城,2025-05-30,24.040486,121.604878,0.3600564
C0D540,橫山,2025-05-30,24.71116,121.11693,5.6735655e-05
C1D420,太閣南,2025-05-30,24.632808,121.160575,6.4109815e-09
C1E770,公館,2025-05-30,24.526914,120.830806,0.0007418173
CAN130,水試所海水繁養殖中心,2025-05-30,23.120802,120.07968,0.80157846
C1I430,翠華,2025-05-30,24.191961,121.224339,3.0664975e-09
C1M400,菜瓜坪,2025-05-30,23.251928,120.576103,0.7765229
C0G730,二林,2025-05-30,23.903325,120.376081,0.9077594
72M360,南改義竹分場,2025-05-30,23.360694,120.279361,0.97800475
V2K620,麥寮合作社,2025-05-30,23.753836,120.294783,0.9963274
C0Z070,舞鶴,2025-05-30,23.46811,121.37407,5.3209863e-09
C0B040,大武崙,2025-05-30,25.166676,121.706993,0.9867261
C1Z030,紅葉,2025-05-30,23.493119,121.338806,5.982831e-09
C1I050,丹大,2025-05-30,23.753747,121.141147,2.7373117e-09
C0I080,信義,2025-05-30,23.689694,120.851036,3.078184e-08
C2M920,朴子農改,2025-05-30,23.469889,120.259383,0.9981567
C2A880,福隆,2025-05-30,25.017842,121.942083,0.8879884
C0Z160,鳳林,2025-05-30,23.746114,121.453411,2.315931e-06
C0V210,復興,2025-05-30,23.222403,120.806089,0.0015986634
C0H990,昆陽,2025-05-30,24.121322,121.273642,5.8210103e-09
C0R741,獅子,2025-05-30,22.202308,120.705236,0.9846119
C0S710,鹿野,2025-05-30,22.917711,121.122994,0.0008697415
C0I530,小奇萊,2025-05-30,24.131764,121.295717,6.256299e-09
C2K630,荷苞,2025-05-30,23.657717,120.595144,0.9957876
C0Z080,富源,2025-05-30,23.587642,121.378225,6.4773538e-09
C0SB10,美和,2025-05-30,22.682078,121.060236,0.17835693
C2K620,馬光農場,2025-05-30,23.721453,120.378864,0.9968774
C1I140,卡奈托灣,2025-05-30,23.754364,121.087872,1.1577295e-09
C0I520,玉山風口,2025-05-30,23.470489,120.955994,1.19477885e-08
C1G691,下水埔,2025-05-30,23.816114,120.5676,0.9173685
C0X110,臺南市南區,2025-05-30,22.961189,120.188378,0.9239806
C0V680,仁武,2025-05-30,22.701083,120.347722,0.96065766
C2G840,北斗,2025-05-30,23.877586,120.514222,0.44673637
C0R900,竹坑,2025-05-30,22.1385,120.7022,0.078140214
C0K250,崙背,2025-05-30,23.75555,120.318925,0.9965135
C0G860,社頭,2025-05-30,23.897647,120.5862,0.5406663
C0X150,安定,2025-05-30,23.102614,120.227839,0.9304242
C0R590,里港,2025-05-30,22.77919,120.49459,0.9995036
C0E610,馬都安,2025-05-30,24.451272,120.930192,2.3424636e-09
C0E550,明德,2025-05-30,24.583486,120.885411,0.00011886922
C0R150,三地門,2025-05-30,22.709889,120.639944,0.99904937
C0G910,花壇,2025-05-30,24.032076,120.549461,0.8668128
C1D400,鳥嘴山,2025-05-30,24.71909,121.28387,5.7973653e-09
C0K500,元長,2025-05-30,23.64981,120.315024,0.9975186
C0F0B0,石岡,2025-05-30,24.276061,120.777644,2.0287446e-06
C2V250,甲仙,2025-05-30,23.080106,120.591758,0.9709089
C0SA20,金崙山,2025-05-30,22.567419,120.959667,1.2299842e-06
C0V350,溪埔,2025-05-30,22.738578,120.446797,0.9989948
C0M660,溪口,2025-05-30,23.604131,120.403569,0.99927527
C1S880,壽卡,2025-05-30,22.238911,120.858903,4.030233e-06
72D680,桃改新埔分場,2025-05-30,24.834444,121.066111,7.841302e-06
