站號,站名,日期,lat,lon,BlastGRU-TW
12J990,口湖工作站,2025-02-07,23.589978,120.180394,0.0003805983
12Q970,東港工作站,2025-02-07,22.479997,120.466058,0.027873447
12Q980,恆春工作站,2025-02-07,22.079678,120.714425,0.00022228874
466881,新北,2025-02-07,24.9593,121.52,0.0013235725
466900,淡水,2025-02-07,25.164889,121.448906,0.00066338526
466920,臺北,2025-02-07,25.037658,121.514853,0.0018642287
466940,基隆,2025-02-07,25.133314,121.740475,0.00017269947
466990,花蓮,2025-02-07,23.975128,121.613275,0.00044097245
467050,新屋,2025-02-07,25.006744,121.047486,0.0008413357
467080,宜蘭,2025-02-07,24.763975,121.756528,0.008024867
467270,田中,2025-02-07,23.873803,120.581286,0.007803289
467280,後龍,2025-02-07,24.648563,120.831834,0.0006193866
467290,古坑,2025-02-07,23.633639,120.551889,0.010644257
467300,東吉島,2025-02-07,23.25695,119.667467,0.00019541536
467350,澎湖,2025-02-07,23.565503,119.563094,0.0002458214
467410,臺南,2025-02-07,22.993239,120.204772,0.005110537
467420,永康,2025-02-07,23.038386,120.2367,0.015472107
467441,高雄,2025-02-07,22.7304,120.3125,0.032384306
467480,嘉義,2025-02-07,23.495925,120.432906,0.0037064357
467490,臺中,2025-02-07,24.145736,120.684075,0.004382678
467540,大武,2025-02-07,22.355675,120.903789,0.008907607
467571,新竹,2025-02-07,24.827853,121.014219,0.0006993328
467590,恆春,2025-02-07,22.003897,120.746339,0.00112543
467610,成功,2025-02-07,23.097486,121.373428,0.0069229114
467620,蘭嶼,2025-02-07,22.036969,121.558339,0.00010622042
467660,臺東,2025-02-07,22.752211,121.154586,0.00096219155
467790,墾丁雷達站,2025-02-07,21.948235,120.808028,0.0009924122
72AI40,桃改樹林分場,2025-02-07,24.944503,121.386972,0.00022883438
72C440,桃園農改,2025-02-07,24.950944,121.030583,0.00064682105
72C440,桃園農改場,2025-02-07,24.950944,121.030583,0.00064682105
72D680,桃改新埔分場,2025-02-07,24.834444,121.066111,0.0007564156
72G600,臺中農改,2025-02-07,24.003028,120.534389,0.004039309
72G600,臺中農改場,2025-02-07,24.003028,120.534389,0.004039309
72K220,南改斗南分場,2025-02-07,23.634556,120.477333,0.006215685
72M360,南改義竹分場,2025-02-07,23.360694,120.279361,0.0021847852
72M700,南改鹿草分場,2025-02-07,23.416869,120.283061,0.0020503257
72N100,臺南農改,2025-02-07,23.0605,120.342194,0.026668364
72N100,臺南農改場,2025-02-07,23.0605,120.342194,0.026668364
72N240,七股研究中心,2025-02-07,23.081672,120.062894,0.0015508988
72Q010,高雄農改,2025-02-07,22.709333,120.525889,0.009713608
72Q010,高雄農改場,2025-02-07,22.709333,120.525889,0.009713608
72S200,東改班鳩分場,2025-02-07,22.829528,121.077694,0.0008638058
72S590,東改賓朗果園,2025-02-07,22.813889,121.071278,0.00086269283
72T250,花蓮農改,2025-02-07,23.975222,121.563889,0.0003926773
72T250,花蓮農改場,2025-02-07,23.975222,121.563889,0.0003926773
72U480,花改蘭陽分場,2025-02-07,24.686306,121.716583,0.004590766
72V140,高改旗南分場,2025-02-07,22.857861,120.516667,0.21918099
82A750,茶改北部分場,2025-02-07,24.955778,121.631222,0.00028761785
82C160,茶改場,2025-02-07,24.908472,121.185333,0.0006742406
82H840,茶改南部分場,2025-02-07,23.762528,120.7405,0.003302165
82S580,茶改東部分場,2025-02-07,22.907694,121.130139,0.0009077975
A2C560,農工中心,2025-02-07,24.985917,121.239833,0.0007629949
A2K360,水試臺西試驗場,2025-02-07,23.717231,120.190522,0.00038735333
A2K570,古坑花卉中心,2025-02-07,23.63353,120.55239,0.010644257
A2K630,臺大雲林校區,2025-02-07,23.730628,120.423903,0.0032674992
A2N290,臺南蘭花園區,2025-02-07,23.340258,120.379661,0.0056703733
B2E890,畜試北區分所,2025-02-07,24.527806,120.770972,0.00045945065
B2N890,畜產試驗所,2025-02-07,23.058972,120.336406,0.026948186
B2N890,畜試所,2025-02-07,23.058972,120.336406,0.026948186
B2Q810,畜試南區分所,2025-02-07,21.945583,120.802167,0.0010539076
B2U990,畜試東區分所,2025-02-07,24.669039,121.832561,0.0012802387
C0A520,山佳,2025-02-07,24.974944,121.402008,0.0007854949
C0A530,坪林,2025-02-07,24.938183,121.70975,0.00020329203
C0A550,泰平,2025-02-07,24.971197,121.823711,0.00026902813
C0A570,桶後,2025-02-07,24.848222,121.597992,0.00055912544
C0A640,石碇,2025-02-07,24.993969,121.662917,0.00035194642
C0A770,科教館,2025-02-07,25.096356,121.516507,0.0013466502
C0A860,大坪,2025-02-07,25.165914,121.632969,0.00017559533
C0A890,雙溪,2025-02-07,25.036003,121.864242,0.0001633631
C0A931,三和,2025-02-07,25.233153,121.595236,0.00022533876
C0A940,金山,2025-02-07,25.223628,121.643967,0.00018229395
C0A950,鼻頭角,2025-02-07,25.129036,121.923372,0.000106462976
C0A970,三貂角,2025-02-07,25.007606,122.002058,0.00018176457
C0A980,社子,2025-02-07,25.109508,121.469681,0.0006686011
C0A9C0,天母,2025-02-07,25.117494,121.537169,0.0009675768
C0A9F0,內湖,2025-02-07,25.079422,121.57545,0.0018642287
C0AC60,三峽,2025-02-07,24.939025,121.369728,0.00022982007
C0AC70,信義,2025-02-07,25.037822,121.564597,0.0018642287
C0AC80,文山,2025-02-07,25.00235,121.575728,0.0013410202
C0ACA0,新莊,2025-02-07,25.051478,121.446756,0.0017696671
C0AD10,八里,2025-02-07,25.150211,121.403947,0.0009209816
C0AD30,蘆洲,2025-02-07,25.086594,121.472331,0.0013585387
C0AD40,土城,2025-02-07,24.973208,121.445169,0.0012970306
C0AD50,鶯歌,2025-02-07,24.951533,121.346294,0.00023315298
C0AG80,中和,2025-02-07,24.991622,121.491792,0.0012970306
C0AH00,汐止,2025-02-07,25.066881,121.658778,0.0018642287
C0AH10,永和,2025-02-07,25.01125,121.508111,0.0012857137
C0AH40,平等,2025-02-07,25.129142,121.577086,0.00017662806
C0AH50,林口,2025-02-07,25.072181,121.38084,0.0002127307
C0AH70,松山,2025-02-07,25.04871,121.55042,0.0018642287
C0AH80,深坑,2025-02-07,25.002703,121.628328,0.0013226205
C0AI00,五股,2025-02-07,25.07445,121.42728,0.0009707355
C0AI10,屈尺,2025-02-07,24.92184,121.54475,0.0003306791
C0AI20,白沙灣,2025-02-07,25.283128,121.519058,0.00013213494
C0AI30,三重,2025-02-07,25.057328,121.500629,0.001874595
C0AI40,石牌,2025-02-07,25.115597,121.513139,0.0009881266
C0AJ20,野柳,2025-02-07,25.20703,121.690021,0.00020725788
C0AJ30,淡水觀海,2025-02-07,25.184591,121.408616,0.0005401213
C0AJ40,石門,2025-02-07,25.273672,121.601198,0.00014242221
C0AJ50,水湳洞,2025-02-07,25.123695,121.862238,0.00014237035
C0AJ60,六塊厝,2025-02-07,25.24,121.4481,0.00013056274
C0AJ70,田寮,2025-02-07,25.2698,121.4886,0.00013174693
C0AJ80,板橋,2025-02-07,25.0107,121.4489,0.0012857137
C0AJ90,澳底,2025-02-07,25.0552,121.9253,0.00017541912
C0B010,七堵,2025-02-07,25.094819,121.71713,0.00086556195
C0B020,基隆嶼,2025-02-07,25.19141,121.78391,8.853284e-05
C0B040,大武崙,2025-02-07,25.166676,121.706993,0.00017080992
C0B050,八斗子,2025-02-07,25.144754,121.79167,0.00017279269
C0B060,暖暖,2025-02-07,25.0957,121.7403,0.00087123783
C0C460,復興,2025-02-07,24.820208,121.352281,0.0001434016
C0C480,桃園,2025-02-07,24.992425,121.323172,0.0003183878
C0C490,八德,2025-02-07,24.928708,121.283289,0.0005408291
C0C590,觀音,2025-02-07,25.027072,121.153317,0.0008582359
C0C620,蘆竹,2025-02-07,25.084275,121.265767,0.0009763113
C0C630,大溪,2025-02-07,24.882853,121.265547,0.0005437498
C0C650,平鎮,2025-02-07,24.897503,121.214636,0.00050254195
C0C660,楊梅,2025-02-07,24.912375,121.143047,0.0007493111
C0C670,龍潭,2025-02-07,24.870056,121.221389,0.0005099438
C0C680,龜山,2025-02-07,25.02846,121.38656,0.00091314694
C0C700,中壢,2025-02-07,24.977661,121.256375,0.00050783914
C0C710,大溪永福,2025-02-07,24.892936,121.324975,0.00016712621
C0C720,竹圍,2025-02-07,25.112692,121.239824,0.0010469088
C0C730,中大臨海站,2025-02-07,24.966126,121.008581,0.00087563373
C0C740,觀音工業區,2025-02-07,25.064764,121.114856,0.0010142564
C0C750,新興坑尾,2025-02-07,25.0061,121.0971,0.000796563
C0D430,峨眉,2025-02-07,24.6905,121.017189,0.00060991273
C0D480,打鐵坑,2025-02-07,24.849664,121.150789,0.00050756714
C0D540,橫山,2025-02-07,24.71116,121.11693,0.0006033269
C0D560,竹東,2025-02-07,24.767147,121.057881,0.0003879705
C0D580,寶山,2025-02-07,24.735006,121.025192,0.00050786865
C0D590,新豐,2025-02-07,24.87068,120.97721,0.00033435284
C0D650,湖口,2025-02-07,24.904794,121.043628,0.0006748581
C0D660,新竹市東區,2025-02-07,24.798681,120.986942,0.0007147807
C0D670,海天一線,2025-02-07,24.831986,120.914438,0.00034452984
C0D680,香山濕地,2025-02-07,24.783581,120.914988,0.000792316
C0D690,外湖,2025-02-07,24.917735,120.968711,0.0007785329
C0D700,關西,2025-02-07,24.7977,121.1732,0.0005129999
C0E420,竹南,2025-02-07,24.708978,120.888897,0.0005781232
C0E430,南庄,2025-02-07,24.601775,121.000214,0.0005997302
C0E550,明德,2025-02-07,24.583486,120.885411,0.00054756855
C0E590,通霄,2025-02-07,24.471892,120.704622,0.00027981374
C0E730,頭份,2025-02-07,24.688247,120.912206,0.00058517506
C0E740,造橋,2025-02-07,24.637056,120.864778,0.00062795513
C0E750,苗栗,2025-02-07,24.564569,120.824575,0.0005631899
C0E780,銅鑼,2025-02-07,24.489681,120.790853,0.0003956891
C0E791,卓蘭,2025-02-07,24.3126,120.8244,0.00078281906
C0E810,西湖,2025-02-07,24.562947,120.7485,0.00040662216
C0E820,獅潭,2025-02-07,24.539133,120.920042,0.00052508514
C0E830,苑裡,2025-02-07,24.439714,120.653053,0.00037369604
C0E850,大河,2025-02-07,24.618069,120.948578,0.0007566091
C0E870,高鐵苗栗,2025-02-07,24.60725,120.826094,0.0006267979
C0E910,海埔,2025-02-07,24.648767,120.772435,0.0005592355
C0E920,通霄漁港,2025-02-07,24.498589,120.673876,0.00027309475
C0E930,龍鳳,2025-02-07,24.700034,120.859125,0.0006098583
C0F0B0,石岡,2025-02-07,24.276061,120.777644,0.0010430908
C0F850,東勢,2025-02-07,24.246428,120.833047,0.0011416897
C0F970,大坑,2025-02-07,24.173142,120.722289,0.0052455203
C0F9I0,神岡,2025-02-07,24.272481,120.658314,0.0007378285
C0F9K0,大安,2025-02-07,24.345061,120.588025,0.00046417344
C0F9L0,后里,2025-02-07,24.310436,120.729725,0.0012240153
C0F9M0,豐原,2025-02-07,24.254322,120.720692,0.0013258089
C0F9N0,大里,2025-02-07,24.092464,120.701378,0.011892419
C0F9O0,潭子,2025-02-07,24.213106,120.703933,0.0028591186
C0F9P0,清水,2025-02-07,24.312297,120.562242,0.00069597096
C0F9Q0,外埔,2025-02-07,24.347817,120.705686,0.000546277
C0F9R0,龍井,2025-02-07,24.184536,120.528972,0.0011045597
C0F9S0,烏日,2025-02-07,24.107058,120.624103,0.014497126
C0F9T0,西屯,2025-02-07,24.179494,120.641275,0.0044333967
C0F9U0,南屯,2025-02-07,24.137006,120.637969,0.004914949
C0F9X0,大雅(中科園區),2025-02-07,24.21528,120.62445,0.0014943435
C0FA10,松柏,2025-02-07,24.429115,120.617482,0.0003659886
C0FA20,溫寮,2025-02-07,24.372177,120.583125,0.0004792102
C0FA30,梧棲,2025-02-07,24.256003,120.523381,0.00070130907
C0FA40,臺中電廠,2025-02-07,24.2146,120.4907,0.0009458025
C0FA50,霧峰,2025-02-07,24.0419,120.6995,0.01001627
C0G620,芬園,2025-02-07,24.015678,120.6213,0.0149581535
C0G650,員林,2025-02-07,23.946503,120.585597,0.004066355
C0G660,溪湖,2025-02-07,23.94835,120.479122,0.0023178924
C0G720,溪州,2025-02-07,23.851589,120.499093,0.002522781
C0G730,二林,2025-02-07,23.903325,120.376081,0.00071429246
C0G740,大城,2025-02-07,23.852487,120.320935,0.0002945306
C0G770,福興,2025-02-07,24.041289,120.437669,0.0009290569
C0G780,秀水,2025-02-07,24.03405,120.503869,0.0041014752
C0G800,埔鹽,2025-02-07,24.000394,120.431683,0.0009260684
C0G810,埔心,2025-02-07,23.947633,120.525456,0.002241202
C0G820,田尾,2025-02-07,23.901669,120.509389,0.0031032604
C0G830,埤頭,2025-02-07,23.866003,120.452806,0.0025859037
C0G860,社頭,2025-02-07,23.897647,120.5862,0.008164519
C0G880,二水,2025-02-07,23.810742,120.6173,0.01194515
C0G890,伸港,2025-02-07,24.148933,120.484403,0.001475027
C0G900,線西,2025-02-07,24.143358,120.443536,0.0014837974
C0G910,花壇,2025-02-07,24.032076,120.549461,0.0037974853
C0G920,永靖,2025-02-07,23.924703,120.547533,0.0031032604
C0G940,竹塘,2025-02-07,23.848253,120.386764,0.0009030526
C0G950,防潮門,2025-02-07,24.1835,120.4871,0.0011045597
C0G960,福寶,2025-02-07,24.0443,120.3814,0.0012702105
C0G970,三豐,2025-02-07,23.882,120.2895,0.0002751529
C0H890,埔里,2025-02-07,23.972169,120.952425,0.0028107585
C0H960,草屯,2025-02-07,23.973672,120.68085,0.015411443
C0I110,竹山,2025-02-07,23.761225,120.688156,0.0092903655
C0I360,水里,2025-02-07,23.812553,120.849792,0.006685026
C0I380,集集,2025-02-07,23.828206,120.801467,0.006864766
C0I410,名間,2025-02-07,23.837053,120.701447,0.00668501
C0I420,國姓,2025-02-07,24.037803,120.855072,0.0036829084
C0I460,南投,2025-02-07,23.911469,120.687331,0.010521106
C0K250,崙背,2025-02-07,23.75555,120.318925,0.0014454048
C0K280,四湖,2025-02-07,23.630414,120.227125,0.00047629088
C0K291,宜梧,2025-02-07,23.536281,120.169329,0.00096308615
C0K330,虎尾,2025-02-07,23.719183,120.442036,0.0040515685
C0K390,土庫,2025-02-07,23.679029,120.395574,0.002402931
C0K400,斗六,2025-02-07,23.720583,120.541127,0.004140133
C0K410,北港,2025-02-07,23.573957,120.292802,0.0011676286
C0K420,西螺,2025-02-07,23.800407,120.467394,0.0026689668
C0K430,褒忠,2025-02-07,23.690938,120.303634,0.0010122417
C0K440,二崙,2025-02-07,23.772797,120.408944,0.0024401648
C0K450,大埤,2025-02-07,23.646074,120.431537,0.0039783875
C0K460,斗南,2025-02-07,23.678734,120.478359,0.006215685
C0K470,林內,2025-02-07,23.748675,120.609642,0.010834866
C0K480,莿桐,2025-02-07,23.761192,120.502372,0.0046150433
C0K500,元長,2025-02-07,23.64981,120.315024,0.0013944515
C0K510,水林,2025-02-07,23.572924,120.24597,0.0011828431
C0K530,臺西,2025-02-07,23.701547,120.197559,0.00038292498
C0K550,蔦松,2025-02-07,23.514319,120.229736,0.00096308615
C0K560,棋山,2025-02-07,23.68645,120.603417,0.009976862
C0K580,高鐵雲林,2025-02-07,23.737456,120.417944,0.0032674992
C0K590,雲林東勢,2025-02-07,23.674192,120.255721,0.0012188276
C0K600,箔子寮,2025-02-07,23.6197,120.14,0.0003805983
C0M520,東後寮,2025-02-07,23.369908,120.248065,0.002201444
C0M640,中埔,2025-02-07,23.42538,120.5229,0.011323001
C0M650,朴子,2025-02-07,23.43463,120.23902,0.00205758
C0M660,溪口,2025-02-07,23.604131,120.403569,0.003055964
C0M670,大林,2025-02-07,23.600616,120.45841,0.004154866
C0M680,太保,2025-02-07,23.455062,120.331455,0.004904612
C0M690,水上,2025-02-07,23.419734,120.388909,0.00460352
C0M700,竹崎,2025-02-07,23.526178,120.555508,0.010995059
C0M710,東石,2025-02-07,23.458927,120.15385,0.0007189151
C0M720,番路,2025-02-07,23.464657,120.554156,0.010198613
C0M730,嘉義市東區,2025-02-07,23.457673,120.460531,0.021789387
C0M740,六腳,2025-02-07,23.492871,120.290625,0.0019473205
C0M750,布袋,2025-02-07,23.380878,120.167789,0.002039416
C0M760,民雄,2025-02-07,23.551754,120.428457,0.0037445135
C0M770,嘉義梅山,2025-02-07,23.585398,120.555587,0.010008934
C0M780,鹿草,2025-02-07,23.41134,120.30835,0.0019924839
C0M790,新港,2025-02-07,23.553269,120.345728,0.002777291
C0M800,茶山,2025-02-07,23.299075,120.664767,0.055514142
C0M880,好美里,2025-02-07,23.3364,120.138,0.0019175676
C0N010,鯤鯓國小,2025-02-07,23.1879,120.0889,0.0013838988
C0N020,城西,2025-02-07,23.0568,120.0956,0.0055068084
C0N030,四草,2025-02-07,23.0235,120.1116,0.0056409347
C0N040,蘆竹溝,2025-02-07,23.2344,120.0961,0.0022869569
C0N050,蚵寮,2025-02-07,23.301,120.1104,0.002090967
C0O830,北寮,2025-02-07,23.079561,120.495008,0.024648774
C0O840,王爺宮,2025-02-07,23.222064,120.40085,0.0030671079
C0O860,大內,2025-02-07,23.11885,120.36083,0.029485172
C0O900,善化,2025-02-07,23.112883,120.297219,0.021393346
C0O960,崎頂,2025-02-07,22.959547,120.369317,0.021266622
C0O970,虎頭埤,2025-02-07,23.021375,120.347878,0.022064049
C0O980,新市,2025-02-07,23.061614,120.298197,0.017983582
C0O990,媽廟,2025-02-07,22.99175,120.293525,0.013936878
C0R150,三地門,2025-02-07,22.709889,120.639944,0.19021422
C0R160,鹽埔,2025-02-07,22.739558,120.530778,0.009713608
C0R170,屏東,2025-02-07,22.660269,120.494072,0.11819202
C0R190,赤山,2025-02-07,22.592333,120.614306,0.17655317
C0R220,潮州,2025-02-07,22.534361,120.54,0.10042611
C0R240,來義,2025-02-07,22.527306,120.625111,0.08388551
C0R260,春日,2025-02-07,22.370361,120.628306,0.08749653
C0R270,琉球嶼,2025-02-07,22.332244,120.362236,0.019131811
C0R280,檳榔,2025-02-07,22.076078,120.836777,0.0041418574
C0R320,車城,2025-02-07,22.0744,120.716247,0.00022228874
C0R341,牡丹,2025-02-07,22.130036,120.792639,0.0042517576
C0R350,貓鼻頭,2025-02-07,21.921774,120.7358,0.00024266698
C0R470,高樹,2025-02-07,22.826389,120.600806,0.11849914
C0R480,長治,2025-02-07,22.693128,120.542622,0.14685132
C0R490,九如,2025-02-07,22.7405,120.490503,0.010000802
C0R520,崁頂,2025-02-07,22.514781,120.506914,0.103019424
C0R540,佳冬,2025-02-07,22.419456,120.552375,0.11682176
C0R550,新埤,2025-02-07,22.467947,120.582894,0.031105861
C0R560,新園,2025-02-07,22.5434,120.461558,0.07636166
C0R570,麟洛,2025-02-07,22.65078,120.52719,0.11819202
C0R580,南州,2025-02-07,22.48591,120.50274,0.027873447
C0R590,里港,2025-02-07,22.77919,120.49459,0.21598947
C0R620,墾雷,2025-02-07,21.900836,120.855269,0.00045741795
C0R640,東港,2025-02-07,22.46247,120.44074,0.027873447
C0R650,竹田,2025-02-07,22.58486,120.54344,0.17471127
C0R660,枋寮,2025-02-07,22.367722,120.590647,0.116272956
C0R670,楓港,2025-02-07,22.190131,120.692156,0.002820771
C0R680,佳樂水,2025-02-07,21.993578,120.861633,0.0010467237
C0R690,墾丁,2025-02-07,21.966756,120.810269,0.00071051845
C0R700,枋山,2025-02-07,22.246844,120.661086,0.000527108
C0R710,龍磐,2025-02-07,21.931672,120.838942,0.0007419802
C0R720,旭海,2025-02-07,22.205403,120.887614,0.00028571565
C0R730,大坪頂,2025-02-07,22.024633,120.69355,0.0037234188
C0R741,獅子,2025-02-07,22.202308,120.705236,0.00030571307
C0R760,南仁湖,2025-02-07,22.084681,120.863353,0.0017851118
C0R770,保力,2025-02-07,22.071122,120.764111,0.0041113878
C0R780,滿州,2025-02-07,22.024403,120.839892,0.0010907837
C0R790,九棚,2025-02-07,22.14195,120.889281,0.0021887827
C0R800,丹路,2025-02-07,22.204481,120.750989,0.00044349252
C0R810,內獅,2025-02-07,22.305064,120.642986,0.013443552
C0R830,高士,2025-02-07,22.121825,120.836781,0.0014593746
C0R850,林邊,2025-02-07,22.4634,120.5339,0.027536253
C0R860,鼻頭,2025-02-07,22.1043,120.8979,0.004952754
C0R870,興海,2025-02-07,21.9752,120.8439,0.0010539076
C0R880,後壁湖,2025-02-07,21.9457,120.7457,0.00028100717
C0R890,山海,2025-02-07,21.9878,120.7091,0.00029352083
C0R900,竹坑,2025-02-07,22.1385,120.7022,0.00023487008
C0R910,下寮,2025-02-07,22.3929,120.5548,0.116272956
C0R920,塭仔,2025-02-07,22.4169,120.5197,0.12148228
C0R930,萬丹,2025-02-07,22.5885,120.4851,0.15850523
C0R940,加祿堂,2025-02-07,22.3363,120.6217,0.02827714
C0S710,鹿野,2025-02-07,22.917711,121.122994,0.00077263475
C0S730,綠島,2025-02-07,22.6672,121.47533,0.0002137646
C0S740,池上,2025-02-07,23.119628,121.209469,0.002745492
C0S770,大溪山,2025-02-07,22.478475,120.943325,0.0017638735
C0S790,金崙,2025-02-07,22.538122,120.966875,0.0020777588
C0S810,東河,2025-02-07,22.972672,121.303986,0.0060421564
C0S830,長濱,2025-02-07,23.286817,121.411975,0.0013300704
C0S840,南田,2025-02-07,22.279725,120.889208,0.0010894825
C0S890,關山,2025-02-07,23.0395,121.175017,0.001754582
C0S900,蘭嶼高中,2025-02-07,22.04909,121.51214,6.880276e-05
C0S910,蘭嶼燈塔,2025-02-07,22.081197,121.503117,0.000108626955
C0S920,金峰嘉蘭,2025-02-07,22.594789,120.960825,0.0014670095
C0S930,延平,2025-02-07,22.902581,121.084058,0.00090919324
C0S940,石寧山,2025-02-07,23.223772,121.406639,0.0026874484
C0S950,七塊厝,2025-02-07,22.954453,121.229922,0.0010641327
C0S960,香蘭,2025-02-07,22.587569,120.993375,0.0022609334
C0S970,加津林,2025-02-07,22.416211,120.926942,0.0077802967
C0S990,山豬窟,2025-02-07,22.318619,120.857372,0.0006123232
C0SA00,歷坵,2025-02-07,22.520969,120.89185,0.0013866969
C0SA10,檳榔四格山,2025-02-07,22.810031,121.109308,0.0006706614
C0SA30,都歷,2025-02-07,23.020333,121.323642,0.0019787457
C0SA40,瑞和,2025-02-07,22.974361,121.156697,0.0015504815
C0SA60,知本（水試所）,2025-02-07,22.702394,121.082761,0.003918466
C0SA80,土坂,2025-02-07,22.453108,120.887572,0.0031304907
C0SA90,達仁林場,2025-02-07,22.264347,120.823972,0.0011373223
C0T870,鯉魚潭,2025-02-07,23.935639,121.508944,0.000388963
C0T900,西林,2025-02-07,23.8119,121.441458,0.00325266
C0T960,光復,2025-02-07,23.660694,121.424964,0.00072356313
C0T9A0,月眉山,2025-02-07,23.809928,121.539828,0.0012662514
C0T9D0,和中,2025-02-07,24.26676,121.74103,0.002099861
C0T9E0,大坑,2025-02-07,23.880628,121.581981,0.0004643104
C0T9F0,水璉,2025-02-07,23.797131,121.542514,0.0027696867
C0T9I0,豐濱,2025-02-07,23.583897,121.514806,0.0008539094
C0T9M0,靜浦,2025-02-07,23.455167,121.495028,0.0012661603
C0T9N0,富里,2025-02-07,23.171639,121.249378,0.0021433858
C0U600,礁溪,2025-02-07,24.817539,121.765608,0.0054743057
C0U650,玉蘭,2025-02-07,24.675286,121.587061,0.00037901168
C0U750,龜山島,2025-02-07,24.841667,121.953133,8.068808e-05
C0U760,東澳,2025-02-07,24.52196,121.83318,0.00048474883
C0U770,南澳,2025-02-07,24.44935,121.81022,0.00070347055
C0U780,五結,2025-02-07,24.68637,121.79794,0.004784468
C0U860,頭城,2025-02-07,24.85323,121.8308,0.0055579524
C0U870,大礁溪,2025-02-07,24.791042,121.675047,0.00050642906
C0U880,北關,2025-02-07,24.9072,121.8734,0.0013204142
C0U890,三星,2025-02-07,24.66812,121.65302,0.0020365384
C0U900,內城,2025-02-07,24.71813,121.68766,0.0044561364
C0U910,冬山,2025-02-07,24.63373,121.7937,0.0012802387
C0U940,羅東,2025-02-07,24.68184,121.74934,0.004629182
C0U970,大福,2025-02-07,24.80064,121.81389,0.008051458
C0U990,員山,2025-02-07,24.74435,121.72247,0.00476082
C0UA00,土場,2025-02-07,24.576533,121.495333,0.0007935181
C0UA80,大溪漁港,2025-02-07,24.941801,121.902955,0.00020779354
C0UA90,石城,2025-02-07,24.980444,121.951214,0.00020177092
C0UB00,淡江大學蘭陽校園,2025-02-07,24.823239,121.730383,0.0002755832
C0UB10,蘇澳,2025-02-07,24.5969,121.8571,0.0017846699
C0UB20,壯圍,2025-02-07,24.7359,121.8163,0.004714284
C0V310,美濃,2025-02-07,22.898742,120.519153,0.21918099
C0V350,溪埔,2025-02-07,22.738578,120.446797,0.11302757
C0V360,內門,2025-02-07,22.975481,120.466769,0.022260915
C0V370,古亭坑,2025-02-07,22.893178,120.401947,0.06102518
C0V400,阿公店,2025-02-07,22.804194,120.355528,0.0834563
C0V440,鳳山,2025-02-07,22.646653,120.356122,0.0142776845
C0V450,鳳森,2025-02-07,22.545064,120.392592,0.07009329
C0V490,新興,2025-02-07,22.627422,120.298803,0.013123792
C0V530,阿蓮,2025-02-07,22.883208,120.327508,0.036755916
C0V610,梓官,2025-02-07,22.760558,120.267211,0.027880233
C0V620,永安,2025-02-07,22.82315,120.236856,0.013391022
C0V630,茄萣,2025-02-07,22.906642,120.182608,0.008058274
C0V640,湖內,2025-02-07,22.887139,120.2445,0.010088664
C0V650,彌陀,2025-02-07,22.783806,120.246361,0.014008447
C0V660,岡山,2025-02-07,22.797078,120.294958,0.014008447
C0V680,仁武,2025-02-07,22.701083,120.347722,0.013439453
C0V690,鼓山,2025-02-07,22.623325,120.275575,0.013123792
C0V700,三民,2025-02-07,22.645017,120.311233,0.012628671
C0V710,苓雅,2025-02-07,22.622742,120.330669,0.028458213
C0V720,林園,2025-02-07,22.507747,120.394511,0.08322059
C0V730,大寮,2025-02-07,22.605614,120.395717,0.027855784
C0V740,旗山,2025-02-07,22.888614,120.483597,0.210118
C0V750,路竹,2025-02-07,22.854997,120.259439,0.009813987
C0V760,橋頭,2025-02-07,22.757806,120.30575,0.027880233
C0V770,大社,2025-02-07,22.730306,120.346639,0.032384306
C0V790,萬山,2025-02-07,22.905944,120.688056,0.021464957
C0V800,六龜,2025-02-07,22.997889,120.633583,0.114574656
C0V810,左營,2025-02-07,22.67491,120.28491,0.012628671
C0V820,小林,2025-02-07,23.148408,120.63325,0.008525789
C0V840,鳳鼻頭,2025-02-07,22.5083,120.3591,0.078188375
C0V850,蚵仔寮,2025-02-07,22.7256,120.2527,0.02895821
C0V860,南寮,2025-02-07,22.7616,120.2339,0.02895821
C0V870,文安,2025-02-07,22.8025,120.2164,0.014189925
C0V880,興達,2025-02-07,22.8778,120.2127,0.010385957
C0V890,前鎮,2025-02-07,22.5718,120.3117,0.0134085035
C0V900,汕尾,2025-02-07,22.4782,120.4151,0.027873447
C0W200,湖西,2025-02-07,23.596314,119.67275,0.0002718354
C0X050,東河,2025-02-07,23.296598,120.385608,0.0061170245
C0X060,下營,2025-02-07,23.22695,120.256261,0.004421448
C0X080,佳里,2025-02-07,23.173039,120.145086,0.0013838988
C0X100,臺南市北區,2025-02-07,23.010394,120.194228,0.005447014
C0X110,臺南市南區,2025-02-07,22.961189,120.188378,0.010375185
C0X120,麻豆,2025-02-07,23.183289,120.248611,0.004866112
C0X130,官田,2025-02-07,23.193217,120.315422,0.011730379
C0X140,西港,2025-02-07,23.125608,120.203108,0.011304855
C0X150,安定,2025-02-07,23.102614,120.227839,0.011304855
C0X160,仁德,2025-02-07,22.968258,120.257689,0.010288408
C0X170,關廟,2025-02-07,22.963017,120.327797,0.031203948
C0X180,山上,2025-02-07,23.0757,120.363253,0.009662516
C0X190,安平,2025-02-07,22.993161,120.152181,0.005447014
C0X200,左鎮,2025-02-07,23.056758,120.408522,0.02322973
C0X210,白河,2025-02-07,23.347466,120.414427,0.012847973
C0X220,學甲,2025-02-07,23.230367,120.182187,0.0022530775
C0X230,鹽水,2025-02-07,23.272621,120.247641,0.0021808033
C0X240,關子嶺,2025-02-07,23.331169,120.508025,0.00713809
C0X250,新營,2025-02-07,23.310689,120.316681,0.0060299095
C0X260,後壁,2025-02-07,23.366358,120.362326,0.0056703733
C0X280,將軍,2025-02-07,23.214999,120.13577,0.0022869569
C0X290,北門,2025-02-07,23.267772,120.125481,0.0022869569
C0X300,鹿寮,2025-02-07,23.386047,120.477331,0.013425084
C0X320,柳營,2025-02-07,23.253328,120.375253,0.0052050776
C0Z020,明里,2025-02-07,23.208717,121.262342,0.0021646835
C0Z061,玉里,2025-02-07,23.3215,121.339656,0.0015356498
C0Z070,舞鶴,2025-02-07,23.46811,121.37407,0.0010907479
C0Z080,富源,2025-02-07,23.587642,121.378225,0.0008419854
C0Z100,東華,2025-02-07,23.89525,121.549833,0.00057837524
C0Z150,吉安光華,2025-02-07,23.930925,121.595153,0.0004267703
C0Z160,鳳林,2025-02-07,23.746114,121.453411,0.0033684801
C0Z170,卓溪,2025-02-07,23.3443,121.3029,0.0012508306
C0Z180,新城,2025-02-07,24.03946,121.60454,0.0004226549
C0Z190,富世,2025-02-07,24.14743,121.6297,0.00088948954
C0Z200,萬榮,2025-02-07,23.709219,121.420106,0.0030874296
C0Z210,瑞穗,2025-02-07,23.5239,121.39021,0.0009104936
C0Z230,和平,2025-02-07,24.30717,121.77007,0.0021314207
C0Z270,蕃薯寮,2025-02-07,23.73835,121.540108,0.0019976317
C0Z280,德武,2025-02-07,23.47426,121.41071,0.0013422627
C0Z300,東里,2025-02-07,23.26853,121.30547,0.002435619
C0Z310,清水斷崖,2025-02-07,24.218294,121.689142,0.0006757309
C0Z330,安通山,2025-02-07,23.290728,121.348528,0.00080038904
C2A540,四堵,2025-02-07,24.8926,121.745736,0.0002105646
C2A560,福山,2025-02-07,24.776203,121.502811,0.0009926963
C2A650,火燒寮,2025-02-07,25.002719,121.742892,0.00022515988
C2A660,瑞芳,2025-02-07,25.113169,121.801147,0.00013666744
C2A880,福隆,2025-02-07,25.017842,121.942083,0.00020446694
C2A920,富貴角,2025-02-07,25.263783,121.565258,0.00013526219
C2E520,大湖,2025-02-07,24.414939,120.870872,0.0005121136
C2E540,後龍,2025-02-07,24.606489,120.783933,0.0005508145
C2E540,龍溪,2025-02-07,24.606489,120.783933,0.0005508145
C2F000,大肚,2025-02-07,24.15295,120.572117,0.0018091843
C2F930,大甲,2025-02-07,24.347667,120.640403,0.00041947293
C2F9A0,中竹林,2025-02-07,24.103556,120.751061,0.003438741
C2G640,鹿港,2025-02-07,24.0753,120.430481,0.0012702105
C2G840,北斗,2025-02-07,23.877586,120.514222,0.0025227726
C2G870,芳苑,2025-02-07,23.922303,120.320025,0.00024397006
C2H950,中寮,2025-02-07,23.884447,120.766406,0.0051325136
C2M410,馬頭山,2025-02-07,23.324361,120.582017,0.012040482
C2N160,西拉雅風管處,2025-02-07,23.189481,120.335297,0.011317953
C2O810,曾文,2025-02-07,23.219681,120.497328,0.009490364
C2O930,玉井,2025-02-07,23.126042,120.46055,0.009662516
C2O950,安南,2025-02-07,23.076694,120.144861,0.0015178294
C2V250,甲仙,2025-02-07,23.080106,120.591758,0.008811001
C2V260,月眉,2025-02-07,22.971003,120.539853,0.12437794
C2W230,畜試所澎湖,2025-02-07,23.628342,119.513206,0.00021748821
CAG100,王功漁港,2025-02-07,23.96824,120.32586,0.00023578374
CAH030,茶改場竹圍站,2025-02-07,23.860083,120.637528,0.0050286385
CAJ050,海口故事園區,2025-02-07,23.57543,120.14121,0.00038116254
CAL110,布袋國中,2025-02-07,23.35893,120.18026,0.002039416
CAN130,水試所海水繁養殖中心,2025-02-07,23.120802,120.07968,0.0015508988
CAN140,六官養殖協會,2025-02-07,23.22881,120.29962,0.004421448
CAQ030,崎峰國小,2025-02-07,22.42565,120.49521,0.027873447
E2K600,四湖植物園,2025-02-07,23.676986,120.163433,0.00047629088
E2P980,林試六龜中心,2025-02-07,22.991703,120.645722,0.10627178
E2S960,林試太麻里2,2025-02-07,22.598014,120.989761,0.0022279592
E2S960,林試太麻里2,2025-02-07,22.598,120.99775,0.002384557
E2S980,林試太麻里1,2025-02-07,22.598922,120.980044,0.0015182088
G2AI50,關渡,2025-02-07,25.11575,121.492,0.0006635699
G2F820,農業試驗所,2025-02-07,24.031261,120.688133,0.010641531
G2F820,農試所(霧峰),2025-02-07,24.031261,120.688133,0.010641531
G2L020,農試嘉義分所,2025-02-07,23.485028,120.473806,0.0148548605
G2M350,農試溪口農場,2025-02-07,23.58565,120.408111,0.003055964
G2P820,農試鳳山分所,2025-02-07,22.646611,120.356083,0.0142776845
K2E360,苗栗農改,2025-02-07,24.495722,120.829111,0.0005147331
K2E360,苗栗農改場,2025-02-07,24.495722,120.829111,0.0005147331
K2E710,苗改生物防治研究中心,2025-02-07,24.422861,120.871833,0.0005496345
K2F750,種苗改良場,2025-02-07,24.225972,120.800917,0.0031502082
K2F750,種苗繁殖,2025-02-07,24.225972,120.800917,0.0031502082
U2HA50,臺大竹山,2025-02-07,23.756972,120.681556,0.005537013
V2C250,八德合作社,2025-02-07,24.93775,121.266389,0.00038579354
V2C260,八德蔬果,2025-02-07,24.978508,121.281819,0.00051739527
V2K610,大庄合作社,2025-02-07,23.8068,120.367939,0.0012530236
V2K620,麥寮合作社,2025-02-07,23.753836,120.294783,0.0010230864
