站號,站名,日期,lat,lon,BLBTSLS
C0G940,竹塘,2025-08-30,23.848253,120.386764,0.0031354558
467590,恆春,2025-08-30,22.003897,120.746339,0.08157926
C0E820,獅潭,2025-08-30,24.539133,120.920042,0.06275832
C0AD40,土城,2025-08-30,24.973208,121.445169,0.06688583
C0F9Z0,雪山東峰,2025-08-30,24.388792,121.268675,9.082505e-08
467650,日月潭,2025-08-30,23.881325,120.90805,5.0614926e-05
C0G830,埤頭,2025-08-30,23.866003,120.452806,0.0019272722
467110,金門,2025-08-30,24.407306,118.289281,0.15991786
C0AH80,深坑,2025-08-30,25.002703,121.628328,0.06563448
C0A970,三貂角,2025-08-30,25.007606,122.002058,0.19972317
C0K430,褒忠,2025-08-30,23.690938,120.303634,0.00013350579
467480,嘉義,2025-08-30,23.495925,120.432906,6.9590965e-07
C0E960,觀霧分站,2025-08-30,24.505781,121.113921,5.592832e-07
467550,玉山,2025-08-30,23.48718,120.95943,7.756996e-08
C0K280,四湖,2025-08-30,23.630414,120.227125,0.00015518941
C0K390,土庫,2025-08-30,23.679029,120.395574,0.00263542
C0E910,海埔,2025-08-30,24.648767,120.772435,0.0072462596
C0F0C0,中坑,2025-08-30,24.248517,120.903319,0.20702732
C0A770,科教館,2025-08-30,25.096356,121.516507,0.06915333
C0AJ60,六塊厝,2025-08-30,25.24,121.4481,0.06902379
467420,永康,2025-08-30,23.038386,120.2367,9.538958e-06
C0I410,名間,2025-08-30,23.837053,120.701447,2.2377458e-06
C0K450,大埤,2025-08-30,23.646074,120.431537,0.0018173635
467080,宜蘭,2025-08-30,24.763975,121.756528,0.3572241
467410,臺南,2025-08-30,22.99328,120.20492,7.623361e-06
C0D660,新竹市東區,2025-08-30,24.798681,120.986942,0.0067397878
467050,新屋,2025-08-30,25.006725,121.047492,0.11632747
C0C710,大溪永福,2025-08-30,24.892936,121.324975,0.07142333
C0FA20,溫寮,2025-08-30,24.372177,120.583125,0.0006324054
C0C660,楊梅,2025-08-30,24.912375,121.143047,0.06838628
C0F9M0,豐原,2025-08-30,24.254322,120.720692,0.010903125
C0C740,觀音工業區,2025-08-30,25.064764,121.114856,0.13162617
C0AJ90,澳底,2025-08-30,25.0552,121.9253,0.3547741
C0G970,三豐,2025-08-30,23.882,120.2895,0.00015852781
C0C800,四稜,2025-08-30,24.64733,121.4293,0.9886945
C0F9I0,神岡,2025-08-30,24.272481,120.658314,0.007204063
C0K460,斗南,2025-08-30,23.678734,120.478359,0.0015443447
467280,後龍,2025-08-30,24.648563,120.831834,0.006811547
466930,竹子湖,2025-08-30,25.162078,121.544547,0.66513693
C0I390,仁愛,2025-08-30,24.022122,121.132206,1.82391e-06
C0K510,水林,2025-08-30,23.572924,120.24597,1.0237873e-06
C0A570,桶後,2025-08-30,24.848222,121.597992,0.2291654
C0G720,溪州,2025-08-30,23.851589,120.499093,0.0014838857
C0AH70,松山,2025-08-30,25.04871,121.55042,0.067846835
C0FB30,八仙山苗圃,2025-08-30,24.192719,121.001366,0.44870985
C0E791,卓蘭,2025-08-30,24.3126,120.8244,0.75454956
C0C790,東眼山,2025-08-30,24.8284,121.40888,0.9887069
C0G920,永靖,2025-08-30,23.924703,120.547533,0.000469252
C0F9X0,大雅(中科園區),2025-08-30,24.21528,120.62445,0.0014670967
C0C730,中大臨海站,2025-08-30,24.966126,121.008581,0.14495921
C0E870,高鐵苗栗,2025-08-30,24.60725,120.826094,0.0006496115
C0I420,國姓,2025-08-30,24.037803,120.855072,0.1776679
467620,蘭嶼,2025-08-30,22.0369,121.55843,1.0776302e-05
C0G740,大城,2025-08-30,23.852487,120.320935,0.0001329367
C0D360,梅花,2025-08-30,24.678347,121.208558,0.32904428
C0AI10,屈尺,2025-08-30,24.92184,121.54475,0.064978436
C0G900,線西,2025-08-30,24.143358,120.443536,0.00064647774
C0C720,竹圍,2025-08-30,25.112692,121.239824,0.06912217
C0F9P0,清水,2025-08-30,24.312297,120.562242,0.00065775146
C0FA80,小雪山天池,2025-08-30,24.28025,121.02627,1.4562883e-07
467300,東吉島,2025-08-30,23.25727,119.66762,0.12423109
C0F9O0,潭子,2025-08-30,24.213106,120.703933,0.006485058
C0E780,銅鑼,2025-08-30,24.489681,120.790853,0.006115218
C0E830,苑裡,2025-08-30,24.439714,120.653053,0.00065037666
467270,田中,2025-08-30,23.873803,120.581286,0.0012655973
C0F970,大坑,2025-08-30,24.173142,120.722289,0.0063126264
C0A931,三和,2025-08-30,25.233153,121.595236,0.06975986
C0I010,廬山,2025-08-30,24.033311,121.181808,3.4952527e-07
C0E810,西湖,2025-08-30,24.562947,120.7485,0.0069814296
C0FB70,大甲溪埔,2025-08-30,24.370625,120.620067,0.00067890214
C0AD10,八里,2025-08-30,25.150211,121.403947,0.068361096
C0K440,二崙,2025-08-30,23.772797,120.408944,0.0019432767
C0F9N0,大里,2025-08-30,24.092464,120.701378,0.00028658865
C0AC70,信義,2025-08-30,25.037822,121.564597,0.067458645
C0AJ50,水湳洞,2025-08-30,25.123695,121.862238,0.067492455
C0AI20,白沙灣,2025-08-30,25.283128,121.519058,0.067492455
C0A860,大坪,2025-08-30,25.165914,121.632969,0.13470797
C0E590,通霄,2025-08-30,24.471892,120.704622,0.0067397878
C0A550,泰平,2025-08-30,24.971197,121.823711,0.1622554
C0I360,水里,2025-08-30,23.812553,120.849792,1.597301e-06
C0AJ20,野柳,2025-08-30,25.20703,121.690021,0.067846835
C0B060,暖暖,2025-08-30,25.0957,121.7403,0.064463824
C0E930,龍鳳,2025-08-30,24.700034,120.859125,0.0072625065
C0D690,外湖,2025-08-30,24.917735,120.968711,0.14617562
C0C750,新興坑尾,2025-08-30,25.0061,121.0971,0.09130779
C0AH90,福山植物園,2025-08-30,24.760717,121.58135,0.8494401
C0I540,奇萊稜線,2025-08-30,24.109231,121.326456,5.8711905e-08
C0AG80,中和,2025-08-30,24.991622,121.491792,0.0669034
467571,新竹,2025-08-30,24.827853,121.014219,0.0068108723
C0G810,埔心,2025-08-30,23.947633,120.525456,0.00038075325
C0A640,石碇,2025-08-30,24.993969,121.662917,0.13186237
C0F9Y0,桃山,2025-08-30,24.432739,121.303808,9.204898e-08
C0FB40,中橫21.6k,2025-08-30,24.2499,121.1455,0.32642362
C0G820,田尾,2025-08-30,23.901669,120.509389,0.00040066097
C0E430,南庄,2025-08-30,24.601775,121.000214,0.06365692
466920,臺北,2025-08-30,25.037658,121.514853,0.06784682
466910,鞍部,2025-08-30,25.182586,121.529731,0.92869055
C0G620,芬園,2025-08-30,24.015678,120.6213,0.0015199309
C0FB10,出雲山苗圃,2025-08-30,24.23105,120.90475,0.19953306
C0F9Q0,外埔,2025-08-30,24.347817,120.705686,0.006271038
C0C670,龍潭,2025-08-30,24.870056,121.221389,0.06584162
C0D680,香山濕地,2025-08-30,24.783581,120.914988,0.007241071
C0G9B0,和美,2025-08-30,24.105169,120.492131,0.00024767243
C0D650,湖口,2025-08-30,24.904794,121.043628,0.083291136
C0E420,竹南,2025-08-30,24.708978,120.888897,0.006807438
C0F9K0,大安,2025-08-30,24.345061,120.588025,0.00064935896
467290,古坑,2025-08-30,23.633639,120.551889,5.1014416e-05
C0E740,造橋,2025-08-30,24.637056,120.864778,0.006940955
467990,馬祖,2025-08-30,26.169467,119.923158,0.20484821
C0D580,寶山,2025-08-30,24.735006,121.025192,0.054589532
C0AI30,三重,2025-08-30,25.057328,121.500629,0.06915333
C0AH00,汐止,2025-08-30,25.066881,121.658778,0.067846835
466881,新北,2025-08-30,24.959207,121.525196,0.06553372
C0A950,鼻頭角,2025-08-30,25.129036,121.923372,0.37660444
C0K470,林內,2025-08-30,23.748675,120.609642,5.393095e-05
C0A9C0,天母,2025-08-30,25.117494,121.537169,0.0669034
C0B050,八斗子,2025-08-30,25.144754,121.79167,0.06902379
C0F9T0,西屯,2025-08-30,24.179494,120.641275,0.0008381151
C0E950,松安,2025-08-30,24.39792,120.98599,3.078743e-05
C0C620,蘆竹,2025-08-30,25.084275,121.265767,0.06633084
C0AJ40,石門,2025-08-30,25.273672,121.601198,0.06464358
C0E750,苗栗,2025-08-30,24.564569,120.824575,0.0068520764
C0AJ70,田寮,2025-08-30,25.2698,121.4886,0.067822754
C0AI00,五股,2025-08-30,25.07445,121.42728,0.06779152
C0C460,復興,2025-08-30,24.820208,121.352281,0.19435401
C0ACA0,新莊,2025-08-30,25.051478,121.446756,0.06782072
467490,臺中,2025-08-30,24.145736,120.684075,0.0008354146
C0AC80,文山,2025-08-30,25.00235,121.575728,0.064937204
C0F9R0,龍井,2025-08-30,24.184536,120.528972,0.0006465966
C0D550,雪霸,2025-08-30,24.526972,121.11605,2.2764985e-07
C0B020,基隆嶼,2025-08-30,25.19141,121.78391,0.06687046
C0G960,福寶,2025-08-30,24.0443,120.3814,0.00016993494
C0FA50,霧峰,2025-08-30,24.0419,120.6995,0.0007611739
C0G950,防潮門,2025-08-30,24.1835,120.4871,0.0006298279
C0K330,虎尾,2025-08-30,23.719183,120.442036,0.0016520849
C0C680,龜山,2025-08-30,25.02846,121.38656,0.1309264
C0FA90,小雪山林道,2025-08-30,24.29515,121.03651,1.10813076e-07
C0D670,海天一線,2025-08-30,24.831986,120.914438,0.0072625065
C0B010,七堵,2025-08-30,25.094819,121.71713,0.066589735
C0K410,北港,2025-08-30,23.573957,120.292802,9.899825e-07
C0F0E0,南湖圈谷,2025-08-30,24.363714,121.444667,1.4693585e-07
467610,成功,2025-08-30,23.097486,121.373428,0.47919893
C0G890,伸港,2025-08-30,24.148933,120.484403,0.00064704084
C0FA60,鞍馬山工作站,2025-08-30,24.267064,121.000793,3.2759138e-07
C0C700,中壢,2025-08-30,24.977661,121.256375,0.072690405
C0AJ30,淡水觀海,2025-08-30,25.184591,121.408616,0.069083594
C0A9F0,內湖,2025-08-30,25.079422,121.57545,0.067846835
C0K291,宜梧,2025-08-30,23.536281,120.169329,1.2503048e-06
C0AJ80,板橋,2025-08-30,25.0107,121.4489,0.067458645
C0E730,頭份,2025-08-30,24.688247,120.912206,0.006890969
C0K480,莿桐,2025-08-30,23.761192,120.502372,0.0013177678
467350,澎湖,2025-08-30,23.565503,119.563094,0.08104526
C0G800,埔鹽,2025-08-30,24.000394,120.431683,0.00024733497
C0H960,草屯,2025-08-30,23.973672,120.68085,0.0008805937
C0E920,通霄漁港,2025-08-30,24.498589,120.673876,0.00064647774
C0AH10,永和,2025-08-30,25.01125,121.508111,0.067846455
C0AK10,太平里,2025-08-30,25.134937,121.364899,0.067822754
C0C590,觀音,2025-08-30,25.027072,121.153317,0.08494204
C0AI40,石牌,2025-08-30,25.115597,121.513139,0.067846835
C0G880,二水,2025-08-30,23.810742,120.6173,5.739947e-05
467660,臺東,2025-08-30,22.752211,121.154586,0.48393953
C0A940,金山,2025-08-30,25.223628,121.643967,0.066030204
C0D760,大坪苗圃,2025-08-30,24.5362,121.1108,7.4815825e-06
467790,墾丁雷達站,2025-08-30,21.948235,120.808028,0.033658672
C0F850,東勢,2025-08-30,24.246428,120.833047,0.7301767
466900,淡水,2025-08-30,25.164889,121.448906,0.067846835
C0I370,魚池,2025-08-30,23.895703,120.94135,0.00012191089
C0C630,大溪,2025-08-30,24.882853,121.265547,0.06732845
C0A520,山佳,2025-08-30,24.974944,121.402008,0.06657608
C0I110,竹山,2025-08-30,23.761225,120.688156,3.1806387e-06
C0G660,溪湖,2025-08-30,23.94835,120.479122,0.00031585613
C0AC60,三峽,2025-08-30,24.939025,121.369728,0.10065172
C0I490,萬大林道,2025-08-30,23.928228,121.091411,2.6927154e-07
C0A980,社子,2025-08-30,25.109508,121.469681,0.06902379
C0E570,白沙屯,2025-08-30,24.549447,120.696803,0.0006298279
C0FA40,臺中電廠,2025-08-30,24.2146,120.4907,0.00064704084
C0H9C0,合歡山,2025-08-30,24.143442,121.272547,1.0101488e-07
C0D430,峨眉,2025-08-30,24.6905,121.017189,0.0523222
C0G780,秀水,2025-08-30,24.03405,120.503869,0.0002813221
C0A530,坪林,2025-08-30,24.938183,121.70975,0.12989372
C0G770,福興,2025-08-30,24.041289,120.437669,0.00023821396
C0H9A0,神木村,2025-08-30,23.532742,120.843667,7.967875e-07
C0I460,南投,2025-08-30,23.911469,120.687331,0.0008381151
C0I480,梅峰,2025-08-30,24.085272,121.173572,4.4277982e-07
C0AH30,五分山,2025-08-30,25.07125,121.780794,0.99118334
C0FA10,松柏,2025-08-30,24.429115,120.617482,0.00064647774
C0C650,平鎮,2025-08-30,24.897503,121.214636,0.06721588
466940,基隆,2025-08-30,25.133314,121.740475,0.06911255
C0I380,集集,2025-08-30,23.828206,120.801467,2.802414e-06
466990,花蓮,2025-08-30,23.975128,121.613275,0.1298482
C0FB20,雪山橋,2025-08-30,24.23192,120.9786,7.1891907e-07
C0D590,新豐,2025-08-30,24.87068,120.97721,0.054589532
C0A870,五指山,2025-08-30,25.132153,121.608692,0.8783834
C0G650,員林,2025-08-30,23.946503,120.585597,0.00044667712
C0AD50,鶯歌,2025-08-30,24.951533,121.346294,0.086549476
C0K400,斗六,2025-08-30,23.720583,120.541127,0.0006693792
C0D700,關西,2025-08-30,24.7977,121.1732,0.070073225
467530,阿里山,2025-08-30,23.508208,120.813242,8.467457e-08
C0FA30,梧棲,2025-08-30,24.256003,120.523381,0.00064751157
C0AK30,硬漢嶺,2025-08-30,25.136097,121.426372,0.48152328
C0F9V0,新社,2025-08-30,24.200172,120.815806,0.04603934
C0H890,埔里,2025-08-30,23.972169,120.952425,0.46335465
C0F0D0,審馬陣,2025-08-30,24.381675,121.4203,1.16889005e-07
C0FB00,大雪山,2025-08-30,24.254668,121.007374,3.0851407e-07
C0E940,雪見,2025-08-30,24.42595,121.01347,2.2220357e-07
C0D480,打鐵坑,2025-08-30,24.849664,121.150789,0.06660545
C0D560,竹東,2025-08-30,24.767147,121.057881,0.05456002
C0F9U0,南屯,2025-08-30,24.137006,120.637969,0.00089938735
C0F0A0,雪山圈谷,2025-08-30,24.388594,121.236339,9.751355e-08
467540,大武,2025-08-30,22.35572,120.90374,0.3328852
C0AC40,大屯山,2025-08-30,25.175675,121.522408,0.60901827
466850,五分山雷達站,2025-08-30,25.071182,121.781205,0.9916255
C0K420,西螺,2025-08-30,23.800407,120.467394,0.001608936
C0AD30,蘆洲,2025-08-30,25.086594,121.472331,0.068385355
C0AH40,平等,2025-08-30,25.129142,121.577086,0.16558021
466950,彭佳嶼,2025-08-30,25.627975,122.079744,0.121290006
C0A890,雙溪,2025-08-30,25.036003,121.864242,0.06534014
C0C480,桃園,2025-08-30,24.992425,121.323172,0.076313384
C0AH50,林口,2025-08-30,25.072181,121.38084,0.13000827
C0F9S0,烏日,2025-08-30,24.107058,120.624103,0.000469252
C0C490,八德,2025-08-30,24.928708,121.283289,0.07009018
C0E850,大河,2025-08-30,24.618069,120.948578,0.0066428427
C0F9L0,后里,2025-08-30,24.310436,120.729725,0.66386175
467441,高雄,2025-08-30,22.730432,120.312516,8.5526386e-05
C0D540,橫山,2025-08-30,24.71116,121.11693,0.063020915
C0G730,二林,2025-08-30,23.903325,120.376081,0.0002813221
C0B040,大武崙,2025-08-30,25.166676,121.706993,0.066030204
C0I080,信義,2025-08-30,23.689694,120.851036,0.0139267575
C0D750,樂山林道6k,2025-08-30,24.49999,121.08773,2.1302552e-07
C0H990,昆陽,2025-08-30,24.121322,121.273642,1.0457707e-07
C0I530,小奇萊,2025-08-30,24.131764,121.295717,1.03116314e-07
C0FA70,大雪山埡口,2025-08-30,24.26867,121.03062,1.481541e-07
C0I520,玉山風口,2025-08-30,23.470489,120.955994,7.7894505e-08
C0K250,崙背,2025-08-30,23.75555,120.318925,0.0001329367
C0G860,社頭,2025-08-30,23.897647,120.5862,0.00053052674
C0E610,馬都安,2025-08-30,24.451272,120.930192,0.8795556
C0E550,明德,2025-08-30,24.583486,120.885411,0.0067998115
C0G910,花壇,2025-08-30,24.032076,120.549461,0.00038075325
C0K500,元長,2025-08-30,23.64981,120.315024,0.00013350579
C0F0B0,石岡,2025-08-30,24.276061,120.777644,0.1776679
