站號,站名,日期,lat,lon,BlastGRU-TW
C0R710,龍磐,2025-06-26,21.931672,120.838942,0.6915215
C1F9D1,白毛台,2025-06-26,24.158325,120.886933,0.98310167
C0G940,竹塘,2025-06-26,23.848253,120.386764,0.1330043
467590,恆春,2025-06-26,22.003897,120.746339,0.11039218
C1O850,環湖,2025-06-26,23.148617,120.418633,0.11155682
C0U710,太平山,2025-06-26,24.505486,121.525656,0.24801138
C0E820,獅潭,2025-06-26,24.539133,120.920042,0.96634597
C0V880,興達,2025-06-26,22.8778,120.2127,0.18011235
C0S890,關山,2025-06-26,23.0395,121.175017,0.33310843
C0SB30,新蘭,2025-06-26,22.869214,121.223228,0.14897375
C2R970,屏科大,2025-06-26,22.648275,120.619247,0.078552924
C1Z130,銅門,2025-06-26,23.965694,121.492842,0.26070416
C0AD40,土城,2025-06-26,24.973208,121.445169,0.06570852
CAN140,六官養殖協會,2025-06-26,23.22881,120.29962,0.33981594
C0X180,山上,2025-06-26,23.0757,120.363253,0.14449665
C0F9Z0,雪山東峰,2025-06-26,24.388792,121.268675,0.0057486026
C1M480,獨立山,2025-06-26,23.537022,120.607797,0.9651061
C0X220,學甲,2025-06-26,23.230367,120.182187,0.23778361
467650,日月潭,2025-06-26,23.881325,120.90805,0.9807896
C0K600,箔子寮,2025-06-26,23.6197,120.14,0.15851063
C0G830,埤頭,2025-06-26,23.866003,120.452806,0.2927553
C0S950,七塊厝,2025-06-26,22.954453,121.229922,0.65211064
467110,金門,2025-06-26,24.407306,118.289281,0.2584979
C0AH80,深坑,2025-06-26,25.002703,121.628328,0.07455672
C0A970,三貂角,2025-06-26,25.007606,122.002058,0.07383383
C2D730,寶山農場,2025-06-26,24.732444,120.976153,0.9377822
C0K430,褒忠,2025-06-26,23.690938,120.303634,0.14605524
467480,嘉義,2025-06-26,23.495925,120.432906,0.13703457
C0V400,阿公店,2025-06-26,22.804194,120.355528,0.06574273
C0E960,觀霧分站,2025-06-26,24.505781,121.113921,0.2633524
467550,玉山,2025-06-26,23.48718,120.95943,0.0027576408
C0R440,大漢山,2025-06-26,22.405264,120.753181,0.3643334
C0K280,四湖,2025-06-26,23.630414,120.227125,0.24726202
C1F9B1,桐林,2025-06-26,24.066172,120.735194,0.41993493
C2H9U0,鳳鵬,2025-06-26,23.763919,120.788061,0.6920877
C0K390,土庫,2025-06-26,23.679029,120.395574,0.24296191
C1I450,望鄉山,2025-06-26,23.594153,120.944286,0.0062781316
C0E910,海埔,2025-06-26,24.648767,120.772435,0.7154579
B2E890,畜試北區分所,2025-06-26,24.527806,120.770972,0.79219097
C0R750,四林格山,2025-06-26,22.076989,120.802439,0.84352964
C0F0C0,中坑,2025-06-26,24.248517,120.903319,0.9816604
C1I121,大鞍,2025-06-26,23.678381,120.760017,0.9501752
72U480,花改蘭陽分場,2025-06-26,24.686306,121.716583,0.04196131
C0A770,科教館,2025-06-26,25.096356,121.516507,0.03623718
C0AJ60,六塊厝,2025-06-26,25.24,121.4481,0.07055903
C0R620,墾雷,2025-06-26,21.900836,120.855269,0.60443324
467420,永康,2025-06-26,23.038386,120.2367,0.06176299
C0I410,名間,2025-06-26,23.837053,120.701447,0.51467246
A2C560,農工中心,2025-06-26,24.985917,121.239833,0.71403056
C0V740,旗山,2025-06-26,22.888614,120.483597,0.20190881
C0Z061,玉里,2025-06-26,23.3215,121.339656,0.25779265
C0S840,南田,2025-06-26,22.279725,120.889208,0.103123136
C1I470,杉林溪,2025-06-26,23.639517,120.786444,0.9092606
C1X040,東原,2025-06-26,23.291597,120.463822,0.16720903
C0R660,枋寮,2025-06-26,22.367722,120.590647,0.9942666
C1R120,上德文,2025-06-26,22.763272,120.704442,0.96247745
C0K450,大埤,2025-06-26,23.646074,120.431537,0.45750427
C0UA00,土場,2025-06-26,24.576533,121.495333,0.37209472
467080,宜蘭,2025-06-26,24.763975,121.756528,0.050076384
C0N030,四草,2025-06-26,23.0235,120.1116,0.1310534
467410,臺南,2025-06-26,22.99328,120.20492,0.13862859
C0V650,彌陀,2025-06-26,22.783806,120.246361,0.11255265
C0D660,新竹市東區,2025-06-26,24.798681,120.986942,0.7531709
82S580,茶改東部分場,2025-06-26,22.907694,121.130139,0.31526825
C0SB40,興隆,2025-06-26,22.913661,121.257469,0.16090308
467050,新屋,2025-06-26,25.006725,121.047492,0.63028187
C0C710,大溪永福,2025-06-26,24.892936,121.324975,0.26652563
C0FA20,溫寮,2025-06-26,24.372177,120.583125,0.3005122
C0V640,湖內,2025-06-26,22.887139,120.2445,0.17779852
C0R910,下寮,2025-06-26,22.3929,120.5548,0.9942513
C0Z020,明里,2025-06-26,23.208717,121.262342,0.46433127
C0M770,嘉義梅山,2025-06-26,23.585398,120.555587,0.6054379
C0C660,楊梅,2025-06-26,24.912375,121.143047,0.7789787
C1E511,新開,2025-06-26,24.347703,120.827019,0.9250495
G2F820,農試所(霧峰),2025-06-26,24.031261,120.688133,0.42427796
C1I070,和社,2025-06-26,23.591131,120.888861,0.7052092
C2F000,大肚,2025-06-26,24.15295,120.572117,0.25606737
C1S850,豐南,2025-06-26,23.122139,121.262389,0.84712
C2A920,富貴角,2025-06-26,25.263783,121.565258,0.4309144
CAH030,茶改場竹圍站,2025-06-26,23.860083,120.637528,0.41892612
C0T960,光復,2025-06-26,23.660694,121.424964,0.21158546
C0F9M0,豐原,2025-06-26,24.254322,120.720692,0.86907345
C0R720,旭海,2025-06-26,22.205403,120.887614,0.11162552
C0V710,苓雅,2025-06-26,22.622742,120.330669,0.8434917
C0C740,觀音工業區,2025-06-26,25.064764,121.114856,0.55056137
CAC040,拉拉山,2025-06-26,24.699317,121.427133,0.49289462
C0V790,萬山,2025-06-26,22.905944,120.688056,0.71943504
U2HA30,臺大和社,2025-06-26,23.590856,120.888864,0.7052092
C0AJ90,澳底,2025-06-26,25.0552,121.9253,0.079724655
C0Z100,東華,2025-06-26,23.89525,121.549833,0.13822794
C0G970,三豐,2025-06-26,23.882,120.2895,0.22291559
V2K610,大庄合作社,2025-06-26,23.8068,120.367939,0.17976727
C0V900,汕尾,2025-06-26,22.4782,120.4151,0.14682
C1R630,龍泉,2025-06-26,22.66701,120.59091,0.07347154
C1AC50,關渡,2025-06-26,25.133486,121.469331,0.09613618
C0C800,四稜,2025-06-26,24.64733,121.4293,0.87405485
C0F9I0,神岡,2025-06-26,24.272481,120.658314,0.9684759
C0K460,斗南,2025-06-26,23.678734,120.478359,0.4820223
C2O810,曾文,2025-06-26,23.219681,120.497328,0.07741681
467280,後龍,2025-06-26,24.648563,120.831834,0.7694518
C1F9J1,清水林,2025-06-26,24.071242,120.820419,0.98479044
C2A650,火燒寮,2025-06-26,25.002719,121.742892,0.6013498
466930,竹子湖,2025-06-26,25.162078,121.544547,0.96924055
C1I220,樟湖,2025-06-26,23.905333,120.846983,0.97759897
C0I390,仁愛,2025-06-26,24.022122,121.132206,0.9173574
C0Z300,東里,2025-06-26,23.26853,121.30547,0.33001938
C1V590,新發,2025-06-26,23.057019,120.646064,0.93790954
C0K510,水林,2025-06-26,23.572924,120.24597,0.15301582
72S590,東改賓朗果園,2025-06-26,22.813889,121.071278,0.66995066
82A750,茶改北部分場,2025-06-26,24.955778,121.631222,0.7554493
C1A750,石碇服務區,2025-06-26,25.00872,121.646242,0.077537864
C0X300,鹿寮,2025-06-26,23.386047,120.477331,0.28096065
G2AI50,關渡,2025-06-26,25.11575,121.492,0.1062462
C0K590,雲林東勢,2025-06-26,23.674192,120.255721,0.1986002
C0A570,桶後,2025-06-26,24.848222,121.597992,0.51233137
C1S800,華源,2025-06-26,22.657883,121.02325,0.17666785
C0G720,溪州,2025-06-26,23.851589,120.499093,0.320033
C1V160,達卡努瓦,2025-06-26,23.279811,120.705319,0.95528686
C2M410,馬頭山,2025-06-26,23.324361,120.582017,0.21817514
C0V850,蚵仔寮,2025-06-26,22.7256,120.2527,0.04835939
C0S740,池上,2025-06-26,23.119628,121.209469,0.80570656
C1V390,尖山,2025-06-26,22.813153,120.367789,0.06963654
C0AH70,松山,2025-06-26,25.04871,121.55042,0.036978226
C0N010,鯤鯓國小,2025-06-26,23.1879,120.0889,0.21630178
C0R550,新埤,2025-06-26,22.467947,120.582894,0.16859907
C0SA60,知本（水試所）,2025-06-26,22.702394,121.082761,0.10961841
C0T9I0,豐濱,2025-06-26,23.583897,121.514806,0.16930196
C0UB00,淡江大學蘭陽校園,2025-06-26,24.823239,121.730383,0.60231346
C0W240,九宮,2025-06-26,24.423753,118.240186,0.24814254
C0T9N0,富里,2025-06-26,23.171639,121.249378,0.7943486
U2HA50,臺大竹山,2025-06-26,23.756972,120.681556,0.4306169
C0V840,鳳鼻頭,2025-06-26,22.5083,120.3591,0.078121476
C0X140,西港,2025-06-26,23.125608,120.203108,0.21868527
72D080,桃改五峰分場,2025-06-26,24.612194,121.157167,0.94539124
C2H9P0,伊拿谷,2025-06-26,23.963211,121.088264,0.9922237
C2H9F0,柑林,2025-06-26,24.018658,120.847072,0.14572658
C0TA20,加灣,2025-06-26,24.082025,121.608944,0.14916423
C0V530,阿蓮,2025-06-26,22.883208,120.327508,0.073411025
C0FB30,八仙山苗圃,2025-06-26,24.192719,121.001366,0.9832551
C1O880,關山,2025-06-26,23.173397,120.594092,0.18460864
C0E791,卓蘭,2025-06-26,24.3126,120.8244,0.84385884
C1I030,武界,2025-06-26,23.913225,121.052483,0.991216
C0R520,崁頂,2025-06-26,22.514781,120.506914,0.09862392
C0R341,牡丹,2025-06-26,22.130036,120.792639,0.22231777
C0R930,萬丹,2025-06-26,22.5885,120.4851,0.09171795
C0S760,紅石,2025-06-26,23.069131,121.126219,0.84971267
C2C410,中央大學,2025-06-26,24.967652,121.185165,0.7464276
C1M610,石磐龍,2025-06-26,23.496606,120.663506,0.9281873
C0C790,東眼山,2025-06-26,24.8284,121.40888,0.9592684
C0UA10,鴛鴦湖,2025-06-26,24.590269,121.412228,0.8793597
V2C260,八德蔬果,2025-06-26,24.978508,121.281819,0.3878023
C0R800,丹路,2025-06-26,22.204481,120.750989,0.12748833
C0G920,永靖,2025-06-26,23.924703,120.547533,0.52163845
C2M950,太和,2025-06-26,23.538372,120.702961,0.8925776
C1A630,下盆,2025-06-26,24.771003,121.538622,0.989879
B2N890,畜產試驗所,2025-06-26,23.058972,120.336406,0.1255025
C0UA30,白嶺,2025-06-26,24.527819,121.519031,0.66820127
C1V580,溪南(特生中心),2025-06-26,23.084972,120.788475,0.549029
C1T970,大農,2025-06-26,23.615233,121.413331,0.19940251
C0R650,竹田,2025-06-26,22.58486,120.54344,0.12441987
C1H900,清流,2025-06-26,24.080775,120.962997,0.99241555
C1C510,水尾,2025-06-26,24.940081,121.087161,0.81221634
C0F9X0,大雅(中科園區),2025-06-26,24.21528,120.62445,0.9141867
C0SB60,白守蓮,2025-06-26,23.126769,121.401914,0.25524783
C0O970,虎頭埤,2025-06-26,23.021375,120.347878,0.06070471
C0C730,中大臨海站,2025-06-26,24.966126,121.008581,0.55003965
C0X250,新營,2025-06-26,23.310689,120.316681,0.3217345
C0V700,三民,2025-06-26,22.645017,120.311233,0.879514
C0U870,大礁溪,2025-06-26,24.791042,121.675047,0.93767846
C0E870,高鐵苗栗,2025-06-26,24.60725,120.826094,0.70906115
A2K570,古坑花卉中心,2025-06-26,23.63353,120.55239,0.4367827
C0TA30,鹽寮,2025-06-26,23.845606,121.592664,0.12287617
C0M860,新美,2025-06-26,23.338017,120.683169,0.9690614
C1E701,八卦,2025-06-26,24.491756,120.927619,0.973815
C0I420,國姓,2025-06-26,24.037803,120.855072,0.17507549
C2D720,關西工作站,2025-06-26,24.757275,121.184792,0.79215604
C0S960,香蘭,2025-06-26,22.587569,120.993375,0.3644927
467620,蘭嶼,2025-06-26,22.0369,121.55843,0.9948479
C0R260,春日,2025-06-26,22.370361,120.628306,0.9969556
72G600,臺中農改場,2025-06-26,24.003028,120.534389,0.40253597
C0Z210,瑞穗,2025-06-26,23.5239,121.39021,0.105984
C0M820,達邦,2025-06-26,23.453994,120.749517,0.9622855
C0V860,南寮,2025-06-26,22.7616,120.2339,0.048265655
C0G740,大城,2025-06-26,23.852487,120.320935,0.23431936
C0R920,塭仔,2025-06-26,22.4169,120.5197,0.9939382
C0R470,高樹,2025-06-26,22.826389,120.600806,0.06771895
C0R680,佳樂水,2025-06-26,21.993578,120.861633,0.14428855
C1O870,大棟山,2025-06-26,23.31157,120.52226,0.9237938
C0D360,梅花,2025-06-26,24.678347,121.208558,0.89663184
C0Z190,富世,2025-06-26,24.14743,121.6297,0.32090846
C0AI10,屈尺,2025-06-26,24.92184,121.54475,0.066469036
B2U990,畜試東區分所,2025-06-26,24.669039,121.832561,0.04434322
C0SB80,長濱漁港,2025-06-26,23.313644,121.459994,0.1477412
C0TA50,和仁,2025-06-26,24.241394,121.712472,0.3317435
C0R240,來義,2025-06-26,22.527306,120.625111,0.1742897
C0V910,大樹,2025-06-26,22.684645,120.432803,0.041854456
C1R610,西大武山,2025-06-26,22.617719,120.7322,0.33722228
C0G900,線西,2025-06-26,24.143358,120.443536,0.16410342
C0M700,竹崎,2025-06-26,23.526178,120.555508,0.37064606
C2E880,三義,2025-06-26,24.405478,120.749819,0.99423635
C0C720,竹圍,2025-06-26,25.112692,121.239824,0.10796657
C0F9P0,清水,2025-06-26,24.312297,120.562242,0.2620952
C0Z150,吉安光華,2025-06-26,23.930925,121.595153,0.11214617
C0FA80,小雪山天池,2025-06-26,24.28025,121.02627,0.014114411
467300,東吉島,2025-06-26,23.25727,119.66762,0.799958
C1D640,外坪(五指山),2025-06-26,24.644447,121.090961,0.9555264
C0F9O0,潭子,2025-06-26,24.213106,120.703933,0.7790555
C2H9R0,卓社,2025-06-26,23.887894,121.000086,0.8261275
72T250,花蓮農改場,2025-06-26,23.975222,121.563889,0.11485595
C0E780,銅鑼,2025-06-26,24.489681,120.790853,0.9334816
C1T950,太安,2025-06-26,23.666719,121.370128,0.9849851
C0E830,苑裡,2025-06-26,24.439714,120.653053,0.4203393
467270,田中,2025-06-26,23.873803,120.581286,0.29564232
C0SA10,檳榔四格山,2025-06-26,22.810031,121.109308,0.8338785
C1T830,布洛灣,2025-06-26,24.17184,121.57127,0.26587746
C0F970,大坑,2025-06-26,24.173142,120.722289,0.6502969
C1U920,思源,2025-06-26,24.393125,121.347214,0.31174085
C0A931,三和,2025-06-26,25.233153,121.595236,0.3090938
C0I010,廬山,2025-06-26,24.033311,121.181808,0.83500034
C2M940,日野賀,2025-06-26,23.434056,120.727169,0.93480945
C0R860,鼻頭,2025-06-26,22.1043,120.8979,0.08080767
C0UB20,壯圍,2025-06-26,24.7359,121.8163,0.040280107
C0R790,九棚,2025-06-26,22.14195,120.889281,0.1255776
C0W110,東莒,2025-06-26,25.9652,119.98069,0.6463006
C1U930,粉鳥林,2025-06-26,24.497088,121.842479,0.055245347
C1I211,蘆竹湳,2025-06-26,23.934019,120.811994,0.9642452
C0S830,長濱,2025-06-26,23.286817,121.411975,0.57784915
C1F9F1,伯公龍,2025-06-26,24.272392,120.849047,0.96877235
C0UB90,太平山莊,2025-06-26,24.494171,121.536209,0.22892693
C0E810,西湖,2025-06-26,24.562947,120.7485,0.7627371
C1I440,新高口,2025-06-26,23.478744,120.878939,0.06479805
C0O840,王爺宮,2025-06-26,23.222064,120.40085,0.14095986
C0T9G0,鳳林山,2025-06-26,23.735269,121.420131,0.9563392
C0X080,佳里,2025-06-26,23.173039,120.145086,0.21653043
C0FB70,大甲溪埔,2025-06-26,24.370625,120.620067,0.34426332
C0Z310,清水斷崖,2025-06-26,24.218294,121.689142,0.7700511
C0M680,太保,2025-06-26,23.455062,120.331455,0.1532561
C1S820,金峰,2025-06-26,22.590969,120.933236,0.6730449
C0AD10,八里,2025-06-26,25.150211,121.403947,0.10835221
C2K240,草嶺,2025-06-26,23.59555,120.693461,0.9305608
C1SA70,都蘭,2025-06-26,22.87794,121.226881,0.16115591
C0K440,二崙,2025-06-26,23.772797,120.408944,0.37003306
C1A760,坪林交控,2025-06-26,24.94284,121.713442,0.26743937
C0F9N0,大里,2025-06-26,24.092464,120.701378,0.10498308
C0SA90,達仁林場,2025-06-26,22.264347,120.823972,0.6585686
C1R290,石門山,2025-06-26,22.112611,120.756597,0.53224033
42HA10,萬大發電廠,2025-06-26,23.978875,121.139639,0.9823988
C0R890,山海,2025-06-26,21.9878,120.7091,0.15153687
C0T9A0,月眉山,2025-06-26,23.809928,121.539828,0.97774553
C0AC70,信義,2025-06-26,25.037822,121.564597,0.03698827
C0K560,棋山,2025-06-26,23.68645,120.603417,0.4789284
C2FB50,出雲,2025-06-26,24.206469,120.902794,0.9605541
C1Z240,中平林道,2025-06-26,23.42115,121.26763,0.97542125
U2H480,溪頭,2025-06-26,23.670306,120.798194,0.9560631
C0M880,好美里,2025-06-26,23.3364,120.138,0.25649363
C0T9E0,大坑,2025-06-26,23.880628,121.581981,0.9251334
C0K530,臺西,2025-06-26,23.701547,120.197559,0.23029883
C1E900,國一N128K,2025-06-26,24.560997,120.844186,0.814361
C0AJ50,水湳洞,2025-06-26,25.123695,121.862238,0.07620701
C0AI20,白沙灣,2025-06-26,25.283128,121.519058,0.07555107
C2V310,美濃,2025-06-26,22.898792,120.51907,0.19817127
C0A860,大坪,2025-06-26,25.165914,121.632969,0.13005838
C1U850,觀音海岸,2025-06-26,24.38319,121.77856,0.988437
C2K610,草嶺石壁,2025-06-26,23.602469,120.707731,0.92647314
C0U950,鶯子嶺,2025-06-26,24.89754,121.79244,0.95101446
C0O900,善化,2025-06-26,23.112883,120.297219,0.124018
C0K550,蔦松,2025-06-26,23.514319,120.229736,0.16653188
E2P980,林試六龜中心,2025-06-26,22.991703,120.645722,0.20506528
C0E590,通霄,2025-06-26,24.471892,120.704622,0.6454607
C1I310,西巒,2025-06-26,23.754486,120.883956,0.9777375
C0A550,泰平,2025-06-26,24.971197,121.823711,0.78797394
C0I360,水里,2025-06-26,23.812553,120.849792,0.34169322
C0R830,高士,2025-06-26,22.121825,120.836781,0.69349015
C1I101,溪頭,2025-06-26,23.661789,120.807647,0.72911537
C0AJ20,野柳,2025-06-26,25.20703,121.690021,0.060831938
C0B060,暖暖,2025-06-26,25.0957,121.7403,0.057446335
C1H920,長豐,2025-06-26,24.102039,120.879897,0.9950544
C0V360,內門,2025-06-26,22.975481,120.466769,0.15064934
C0R850,林邊,2025-06-26,22.4634,120.5339,0.15392962
C0E930,龍鳳,2025-06-26,24.700034,120.859125,0.5428598
C0U910,冬山,2025-06-26,24.63373,121.7937,0.04434322
C1E721,泰安,2025-06-26,24.489017,120.968036,0.5626583
82H320,茶改中部分場,2025-06-26,23.875611,120.913583,0.9890819
C0M750,布袋,2025-06-26,23.380878,120.167789,0.23245978
C1S860,利嘉,2025-06-26,22.809417,121.050528,0.9687815
E2S980,林試太麻里1,2025-06-26,22.598922,120.980044,0.49589694
C0X170,關廟,2025-06-26,22.963017,120.327797,0.06145663
C0V720,林園,2025-06-26,22.507747,120.394511,0.09323981
C1I510,線浸林道,2025-06-26,23.761508,120.832956,0.959759
C0D690,外湖,2025-06-26,24.917735,120.968711,0.4285315
C0C750,新興坑尾,2025-06-26,25.0061,121.0971,0.7852297
B2Q810,畜試南區分所,2025-06-26,21.945583,120.802167,0.13768159
C0S790,金崙,2025-06-26,22.538122,120.966875,0.53397816
C0AH90,福山植物園,2025-06-26,24.760717,121.58135,0.97551686
C0I540,奇萊稜線,2025-06-26,24.109231,121.326456,0.002629327
C0M850,表湖,2025-06-26,23.24186,120.64166,0.9905187
C0S770,大溪山,2025-06-26,22.478475,120.943325,0.66056764
C0AG80,中和,2025-06-26,24.991622,121.491792,0.0657315
C0T790,大禹嶺,2025-06-26,24.186117,121.316086,0.005431158
C0T9B0,水源,2025-06-26,23.991861,121.537169,0.7275514
C0R840,牡丹池山,2025-06-26,22.168389,120.841225,0.86114866
C1I131,桶頭,2025-06-26,23.641944,120.654117,0.8349499
CAL110,布袋國中,2025-06-26,23.35893,120.18026,0.24025889
467571,新竹,2025-06-26,24.827853,121.014219,0.5485432
C0Z290,赤柯山,2025-06-26,23.36893,121.38293,0.9179064
C0X280,將軍,2025-06-26,23.214999,120.13577,0.23092256
C0S690,太麻里,2025-06-26,22.60902,120.98533,0.95176
C0U880,北關,2025-06-26,24.9072,121.8734,0.14884917
C0G810,埔心,2025-06-26,23.947633,120.525456,0.51039886
C0U970,大福,2025-06-26,24.80064,121.81389,0.048982564
C2H9N0,仁愛東眼,2025-06-26,24.026875,121.1205,0.8546844
C1E670,南礦,2025-06-26,24.538278,121.002836,0.69913816
C0M520,東後寮,2025-06-26,23.369908,120.248065,0.25149
C1E461,松安,2025-06-26,24.397972,120.986022,0.5797647
C2N160,西拉雅風管處,2025-06-26,23.189481,120.335297,0.1622219
C2M970,碧湖,2025-06-26,23.568632,120.624165,0.9481786
C0A640,石碇,2025-06-26,24.993969,121.662917,0.08739537
E2S960,林試太麻里2,2025-06-26,22.598,120.99775,0.3471305
C0F9Y0,桃山,2025-06-26,24.432739,121.303808,0.0026526921
C1I020,萬大,2025-06-26,23.979817,121.132261,0.9139744
C0U940,羅東,2025-06-26,24.68184,121.74934,0.041352317
C0M650,朴子,2025-06-26,23.43463,120.23902,0.16739888
C1I500,大尖山,2025-06-26,23.858572,120.994889,0.20351511
C0FB40,中橫21.6k,2025-06-26,24.2499,121.1455,0.99426365
C0G820,田尾,2025-06-26,23.901669,120.509389,0.51360184
E2K600,四湖植物園,2025-06-26,23.676986,120.163433,0.2501794
C0S730,綠島,2025-06-26,22.6672,121.47533,0.9078789
12Q970,東港工作站,2025-06-26,22.479997,120.466058,0.14832668
C0E430,南庄,2025-06-26,24.601775,121.000214,0.96834767
C1TA00,太魯閣,2025-06-26,24.15773,121.6236,0.5006411
466920,臺北,2025-06-26,25.037658,121.514853,0.036978208
C0R600,舊泰武,2025-06-26,22.588194,120.664944,0.96766657
C1I260,北坑,2025-06-26,23.9246,121.006903,0.98249185
466910,鞍部,2025-06-26,25.182586,121.529731,0.96342605
C1I230,九份二山,2025-06-26,23.961944,120.845,0.99427617
C2A660,瑞芳,2025-06-26,25.113169,121.801147,0.12124005
C0R270,琉球嶼,2025-06-26,22.332244,120.362236,0.9787025
C1T990,高寮,2025-06-26,23.394239,121.356808,0.076754615
C0G620,芬園,2025-06-26,24.015678,120.6213,0.26814345
C1Z140,荖溪,2025-06-26,23.890575,121.45964,0.98204863
C1I201,中心崙,2025-06-26,23.728722,120.712097,0.89634705
C1I400,凌霄,2025-06-26,24.018778,121.004456,0.85657126
C1M640,十字,2025-06-26,23.492153,120.753683,0.75633925
G2P820,農試鳳山分所,2025-06-26,22.646611,120.356083,0.9223619
C0Z270,蕃薯寮,2025-06-26,23.73835,121.540108,0.87400806
C0FB10,出雲山苗圃,2025-06-26,24.23105,120.90475,0.98160875
C0F9Q0,外埔,2025-06-26,24.347817,120.705686,0.91966015
C0K580,高鐵雲林,2025-06-26,23.737456,120.417944,0.38642085
C2I090,鳳凰,2025-06-26,23.728081,120.787347,0.98327065
C0U990,員山,2025-06-26,24.74435,121.72247,0.04077409
C0V770,大社,2025-06-26,22.730306,120.346639,0.050731458
C0X120,麻豆,2025-06-26,23.183289,120.248611,0.17278537
C0C670,龍潭,2025-06-26,24.870056,121.221389,0.7286146
C0D680,香山濕地,2025-06-26,24.783581,120.914988,0.5812228
C0S980,勝林山,2025-06-26,22.430439,120.8938,0.9516881
C0V730,大寮,2025-06-26,22.605614,120.395717,0.94680923
C0R570,麟洛,2025-06-26,22.65078,120.52719,0.06596213
C2M930,石卓,2025-06-26,23.478744,120.702264,0.7276639
C0G9B0,和美,2025-06-26,24.105169,120.492131,0.12557986
CAG100,王功漁港,2025-06-26,23.96824,120.32586,0.30205467
C0X290,北門,2025-06-26,23.267772,120.125481,0.23032467
C2F930,大甲,2025-06-26,24.347667,120.640403,0.49634516
C0D650,湖口,2025-06-26,24.904794,121.043628,0.78239834
C0E420,竹南,2025-06-26,24.708978,120.888897,0.6338832
C0U780,五結,2025-06-26,24.68637,121.79794,0.040244777
C1I250,鯉潭,2025-06-26,23.961922,120.991131,0.99369335
C0R130,阿禮,2025-06-26,22.742908,120.743678,0.9485189
C0X100,臺南市北區,2025-06-26,23.010394,120.194228,0.14192256
C0S920,金峰嘉蘭,2025-06-26,22.594789,120.960825,0.5088746
C0V490,新興,2025-06-26,22.627422,120.298803,0.8271388
C0F9K0,大安,2025-06-26,24.345061,120.588025,0.32960904
467290,古坑,2025-06-26,23.633639,120.551889,0.4367827
C2E970,八甲,2025-06-26,24.535811,120.795983,0.9514899
C0V440,鳳山,2025-06-26,22.646653,120.356122,0.9223619
C1T940,大觀,2025-06-26,23.714206,121.373133,0.98907024
C0E740,造橋,2025-06-26,24.637056,120.864778,0.751306
C0R100,尾寮山,2025-06-26,22.833111,120.683889,0.93015486
A2K630,臺大雲林校區,2025-06-26,23.730628,120.423903,0.38864166
467990,馬祖,2025-06-26,26.169467,119.923158,0.60724074
C0D580,寶山,2025-06-26,24.735006,121.025192,0.68117094
E2P990,林試扇平站,2025-06-26,22.9677,120.6857,0.8669347
C0AI30,三重,2025-06-26,25.057328,121.500629,0.03623718
C0AH00,汐止,2025-06-26,25.066881,121.658778,0.036978226
C1Z040,立山,2025-06-26,23.443356,121.327375,0.980518
466881,新北,2025-06-26,24.959207,121.525196,0.06961051
C0W130,花嶼,2025-06-26,23.40007,119.32276,0.27034184
C0A950,鼻頭角,2025-06-26,25.129036,121.923372,0.13335921
C0K470,林內,2025-06-26,23.748675,120.609642,0.2697769
C2F990,摩天嶺,2025-06-26,24.322458,120.936819,0.9402571
82C160,茶改場,2025-06-26,24.908472,121.185333,0.8614986
C0Z320,清水林道,2025-06-26,23.27125,121.188272,0.97395545
C0R760,南仁湖,2025-06-26,22.084681,120.863353,0.5346028
C0M670,大林,2025-06-26,23.600616,120.45841,0.2724224
C0M800,茶山,2025-06-26,23.299075,120.664767,0.5340967
C0A9C0,天母,2025-06-26,25.117494,121.537169,0.05336298
72K220,南改斗南分場,2025-06-26,23.634556,120.477333,0.48827687
72AI40,桃改樹林分場,2025-06-26,24.944503,121.386972,0.0875535
C0S910,蘭嶼燈塔,2025-06-26,22.081197,121.503117,0.9904011
C0B050,八斗子,2025-06-26,25.144754,121.79167,0.06948658
C0U900,內城,2025-06-26,24.71813,121.68766,0.04332085
C0X320,柳營,2025-06-26,23.253328,120.375253,0.12584737
C0M790,新港,2025-06-26,23.553269,120.345728,0.14208427
C0F9T0,西屯,2025-06-26,24.179494,120.641275,0.8956153
C0E950,松安,2025-06-26,24.39792,120.98599,0.5797647
C0SA30,都歷,2025-06-26,23.020333,121.323642,0.18716557
C0C620,蘆竹,2025-06-26,25.084275,121.265767,0.22445162
C0R730,大坪頂,2025-06-26,22.024633,120.69355,0.19030082
C0AJ40,石門,2025-06-26,25.273672,121.601198,0.23100246
C0E750,苗栗,2025-06-26,24.564569,120.824575,0.7971795
C0T870,鯉魚潭,2025-06-26,23.935639,121.508944,0.2242973
C1V170,排雲,2025-06-26,23.463619,120.954147,0.003239469
C2H950,中寮,2025-06-26,23.884447,120.766406,0.742783
C0R350,貓鼻頭,2025-06-26,21.921774,120.7358,0.37704405
C0V660,岡山,2025-06-26,22.797078,120.294958,0.11184932
C1H941,雙冬,2025-06-26,23.967378,120.802189,0.9862985
C0AJ70,田寮,2025-06-26,25.2698,121.4886,0.073000714
C0AI00,五股,2025-06-26,25.07445,121.42728,0.64726925
C0Z280,德武,2025-06-26,23.47426,121.41071,0.14801648
C0R700,枋山,2025-06-26,22.246844,120.661086,0.9977251
C0C460,復興,2025-06-26,24.820208,121.352281,0.7151497
E2H360,蓮華池,2025-06-26,23.918333,120.885278,0.99247074
C0M640,中埔,2025-06-26,23.42538,120.5229,0.25778085
C0W140,金沙,2025-06-26,24.488292,118.408778,0.25466388
C2A540,四堵,2025-06-26,24.8926,121.745736,0.569423
C0ACA0,新莊,2025-06-26,25.051478,121.446756,0.053828668
C0R220,潮州,2025-06-26,22.534361,120.54,0.10336089
U2HA40,臺大內茅埔,2025-06-26,23.689722,120.851117,0.73685604
467490,臺中,2025-06-26,24.145736,120.684075,0.3859149
C0UB60,明池,2025-06-26,24.650688,121.475277,0.8789629
C0U960,翠峰湖,2025-06-26,24.510856,121.608044,0.10468919
E2HA20,林試畢祿溪站,2025-06-26,24.226944,121.308522,0.1509744
C0V890,前鎮,2025-06-26,22.5718,120.3117,0.8008317
C1F941,雪嶺,2025-06-26,24.280586,121.026642,0.014114411
C2H9E0,國姓南港,2025-06-26,23.911108,120.846556,0.97425985
C0AC80,文山,2025-06-26,25.00235,121.575728,0.074973926
C0F9R0,龍井,2025-06-26,24.184536,120.528972,0.1718856
C0M760,民雄,2025-06-26,23.551754,120.428457,0.2599542
C0UA40,西德山,2025-06-26,24.560647,121.752608,0.8490695
C1T920,中興,2025-06-26,23.769503,121.498653,0.19655684
C0D550,雪霸,2025-06-26,24.526972,121.11605,0.5778777
C2F860,梨山,2025-06-26,24.247522,121.243669,0.12196796
C0R320,車城,2025-06-26,22.0744,120.716247,0.6181166
C1S870,南美山,2025-06-26,23.15025,121.382333,0.77499425
C0B020,基隆嶼,2025-06-26,25.19141,121.78391,0.10794315
C1U501,牛鬥,2025-06-26,24.637836,121.573656,0.110044375
C0M730,嘉義市東區,2025-06-26,23.457673,120.460531,0.1850495
C0S700,知本,2025-06-26,22.684866,121.005642,0.9580508
C1N001,沙崙,2025-06-26,22.935472,120.309406,0.062001843
C0V760,橋頭,2025-06-26,22.757806,120.30575,0.049478605
C0G960,福寶,2025-06-26,24.0443,120.3814,0.121815555
C0X210,白河,2025-06-26,23.347466,120.414427,0.23719202
C0S810,東河,2025-06-26,22.972672,121.303986,0.33719337
C2R170,屏東,2025-06-26,22.66027,120.49403,0.06653967
C0R670,楓港,2025-06-26,22.190131,120.692156,0.057695735
C0FA50,霧峰,2025-06-26,24.0419,120.6995,0.44457322
C0UB10,蘇澳,2025-06-26,24.5969,121.8571,0.027881006
C0G950,防潮門,2025-06-26,24.1835,120.4871,0.17009924
C0M740,六腳,2025-06-26,23.492871,120.290625,0.19169375
C1R250,力里,2025-06-26,22.428117,120.629228,0.97921515
C0K330,虎尾,2025-06-26,23.719183,120.442036,0.41564196
C2FA00,烏石坑,2025-06-26,24.273503,120.947617,0.9427824
C0V620,永安,2025-06-26,22.82315,120.236856,0.11255265
C1I330,楓樹林,2025-06-26,23.986803,121.076117,0.8671585
C0W200,湖西,2025-06-26,23.596314,119.67275,0.77326554
72Q010,高雄農改場,2025-06-26,22.709333,120.525889,0.06427026
C0SA40,瑞和,2025-06-26,22.974361,121.156697,0.2307537
C0C680,龜山,2025-06-26,25.02846,121.38656,0.2266706
C2V260,月眉,2025-06-26,22.971003,120.539853,0.1915174
C0V450,鳳森,2025-06-26,22.545064,120.392592,0.110394426
C0FA90,小雪山林道,2025-06-26,24.29515,121.03651,0.0045020306
C0U720,南山,2025-06-26,24.43742,121.38167,0.956897
A2N290,臺南蘭花園區,2025-06-26,23.340258,120.379661,0.24395101
C0R560,新園,2025-06-26,22.5434,120.461558,0.09323981
C0U890,三星,2025-06-26,24.66812,121.65302,0.031406254
C1V300,御油山,2025-06-26,23.001983,120.715364,0.18855068
C0U600,礁溪,2025-06-26,24.817539,121.765608,0.037742455
C1T980,龍澗,2025-06-26,24.023289,121.411328,0.941349
C0D670,海天一線,2025-06-26,24.831986,120.914438,0.579734
C0SA00,歷坵,2025-06-26,22.520969,120.89185,0.9345365
C0M710,東石,2025-06-26,23.458927,120.15385,0.23413146
C0M780,鹿草,2025-06-26,23.41134,120.30835,0.17788117
C0U520,雙連埤,2025-06-26,24.753033,121.641303,0.94359255
C0B010,七堵,2025-06-26,25.094819,121.71713,0.04701324
C0R480,長治,2025-06-26,22.693128,120.542622,0.041315217
C1V830,國三S383K,2025-06-26,22.781967,120.426475,0.11930573
12Q980,恆春工作站,2025-06-26,22.079678,120.714425,0.62185276
C1O940,東山服務區,2025-06-26,23.286016,120.398472,0.31033754
C1U840,東澳嶺,2025-06-26,24.5378,121.8485,0.98191357
C1D630,飛鳳山,2025-06-26,24.766464,121.119178,0.9672281
C0S940,石寧山,2025-06-26,23.223772,121.406639,0.26662153
C0K410,北港,2025-06-26,23.573957,120.292802,0.15787666
C2M620,瑞里,2025-06-26,23.545133,120.675197,0.9108239
C0SB70,小港漁港,2025-06-26,23.158558,121.400431,0.29798034
C2O950,安南,2025-06-26,23.076694,120.144861,0.1728075
C0F0E0,南湖圈谷,2025-06-26,24.363714,121.444667,0.0016711663
467610,成功,2025-06-26,23.097486,121.373428,0.28442007
C0G890,伸港,2025-06-26,24.148933,120.484403,0.16587439
C2E540,龍溪,2025-06-26,24.606489,120.783933,0.690441
C1V200,梅山,2025-06-26,23.268447,120.823556,0.8619095
C0T9H0,加路蘭山,2025-06-26,23.682947,121.5274,0.9743763
C2O930,玉井,2025-06-26,23.126042,120.46055,0.12844393
C1F911,新伯公,2025-06-26,24.221361,120.841069,0.90592897
C0R490,九如,2025-06-26,22.7405,120.490503,0.06379246
C0X200,左鎮,2025-06-26,23.056758,120.408522,0.09932635
C0FA60,鞍馬山工作站,2025-06-26,24.267064,121.000793,0.20969713
C0SB50,叭嗡嗡,2025-06-26,23.047062,121.343223,0.14462028
C1F891,稍來,2025-06-26,24.265689,121.001142,0.27117494
72N240,七股研究中心,2025-06-26,23.081672,120.062894,0.16090971
C0C700,中壢,2025-06-26,24.977661,121.256375,0.49640608
C0M690,水上,2025-06-26,23.419734,120.388909,0.15798245
C0V690,鼓山,2025-06-26,22.623325,120.275575,0.82349646
C0O860,大內,2025-06-26,23.11885,120.36083,0.12445935
C0Z200,萬榮,2025-06-26,23.709219,121.420106,0.44342297
C0T9D0,和中,2025-06-26,24.26676,121.74103,0.05166552
C1O921,楠西,2025-06-26,23.183511,120.484083,0.112927385
C0AJ30,淡水觀海,2025-06-26,25.184591,121.408616,0.08174397
C0V810,左營,2025-06-26,22.67491,120.28491,0.88071764
C0UA70,桃源谷,2025-06-26,24.962606,121.888875,0.9566709
C0X130,官田,2025-06-26,23.193217,120.315422,0.15941958
C1H000,翠峰,2025-06-26,24.109397,121.205211,0.04108523
C0UA90,石城,2025-06-26,24.980444,121.951214,0.057893686
C1E681,南勢山,2025-06-26,24.421669,120.923831,0.9709183
C0A9F0,內湖,2025-06-26,25.079422,121.57545,0.036978226
C0K291,宜梧,2025-06-26,23.536281,120.169329,0.16468483
C1K540,口湖,2025-06-26,23.585344,120.180517,0.15779148
C0R780,滿州,2025-06-26,22.024403,120.839892,0.11936191
C0V870,文安,2025-06-26,22.8025,120.2164,0.11156415
C0U650,玉蘭,2025-06-26,24.675286,121.587061,0.4911388
C0R640,東港,2025-06-26,22.46247,120.44074,0.14818394
C0AJ80,板橋,2025-06-26,25.0107,121.4489,0.06406823
C0S660,下馬,2025-06-26,23.150427,121.070312,0.92066777
C1H9B1,阿眉,2025-06-26,24.1263,120.994672,0.8635583
C0UA20,多加屯,2025-06-26,24.368614,121.373189,0.0044420008
C0E730,頭份,2025-06-26,24.688247,120.912206,0.616427
72V140,高改旗南分場,2025-06-26,22.857861,120.516667,0.14396924
C0K480,莿桐,2025-06-26,23.761192,120.502372,0.21800244
C0U980,坪林石牌,2025-06-26,24.86478,121.77396,0.98475367
C0T900,西林,2025-06-26,23.8119,121.441458,0.35349575
C1I150,青雲,2025-06-26,23.793361,120.949378,0.7772371
467350,澎湖,2025-06-26,23.565503,119.563094,0.6109698
C0G800,埔鹽,2025-06-26,24.000394,120.431683,0.14068589
C0H960,草屯,2025-06-26,23.973672,120.68085,0.51180744
C1V780,多納林道,2025-06-26,22.888028,120.737917,0.8624447
C0E920,通霄漁港,2025-06-26,24.498589,120.673876,0.53646356
C0Z330,安通山,2025-06-26,23.290728,121.348528,0.9843479
C0AH10,永和,2025-06-26,25.01125,121.508111,0.06397456
C0AK10,太平里,2025-06-26,25.134937,121.364899,0.11289723
C2G640,鹿港,2025-06-26,24.0753,120.430481,0.12206387
C1E890,國三N149K,2025-06-26,24.463414,120.680019,0.55508965
C1R110,口社,2025-06-26,22.770111,120.645222,0.096460775
C1M870,國三N285K,2025-06-26,23.550319,120.505833,0.54079926
C1E480,鳳美,2025-06-26,24.554803,121.034747,0.97800595
C0M530,奮起湖,2025-06-26,23.493903,120.699253,0.8904242
C0C590,觀音,2025-06-26,25.027072,121.153317,0.7930937
C0T9M0,靜浦,2025-06-26,23.455167,121.495028,0.07034614
C2H9M0,發祥,2025-06-26,24.154094,121.164517,0.9258007
C0AI40,石牌,2025-06-26,25.115597,121.513139,0.0519683
C1F871,上谷關,2025-06-26,24.203483,121.018644,0.96951294
C2H9G0,百勝,2025-06-26,24.051142,120.909361,0.9734042
C0G880,二水,2025-06-26,23.810742,120.6173,0.20923615
C0R940,加祿堂,2025-06-26,22.3363,120.6217,0.09745105
C0W220,北竿,2025-06-26,26.220358,119.974881,0.62566733
C0O960,崎頂,2025-06-26,22.959547,120.369317,0.062232856
C0TA40,秀林,2025-06-26,24.302864,121.731144,0.9638893
C0S750,向陽,2025-06-26,23.248397,120.986133,0.5245089
C0T9F0,水璉,2025-06-26,23.797131,121.542514,0.58267444
C1M600,頭凍,2025-06-26,23.406364,120.603339,0.89342916
467660,臺東,2025-06-26,22.752211,121.154586,0.2524275
C1D380,新埔,2025-06-26,24.84745,121.03834,0.8520633
C2G980,田頭村,2025-06-26,23.8263,120.444175,0.3695448
C0V750,路竹,2025-06-26,22.854997,120.259439,0.22172679
C0N050,蚵寮,2025-06-26,23.301,120.1104,0.25629637
72M700,南改鹿草分場,2025-06-26,23.416869,120.283061,0.16878939
C1SA50,利嘉林道,2025-06-26,22.82325,121.009389,0.65952027
C0UB70,太平山中間站,2025-06-26,24.542003,121.513453,0.96109104
C0A940,金山,2025-06-26,25.223628,121.643967,0.06401046
C1V340,大津,2025-06-26,22.888322,120.645986,0.06487008
C0W180,七美,2025-06-26,23.219333,119.444892,0.41618797
C1F9C1,白冷,2025-06-26,24.182844,120.929889,0.9807737
K2E710,苗改生物防治研究中心,2025-06-26,24.422861,120.871833,0.97635543
C0N040,蘆竹溝,2025-06-26,23.2344,120.0961,0.23009473
C0D760,大坪苗圃,2025-06-26,24.5362,121.1108,0.5020059
C2W230,畜試所澎湖,2025-06-26,23.628342,119.513206,0.5353983
C0R880,後壁湖,2025-06-26,21.9457,120.7457,0.1435915
C1I280,埔中,2025-06-26,23.820778,120.642594,0.5935227
467790,墾丁雷達站,2025-06-26,21.948235,120.808028,0.1889183
C0W190,望安,2025-06-26,23.380564,119.494075,0.420305
C0Z170,卓溪,2025-06-26,23.3443,121.3029,0.4154143
C0F850,東勢,2025-06-26,24.246428,120.833047,0.87399155
466900,淡水,2025-06-26,25.164889,121.448906,0.11299799
C0I370,魚池,2025-06-26,23.895703,120.94135,0.98872113
C0C630,大溪,2025-06-26,24.882853,121.265547,0.65342003
C0A520,山佳,2025-06-26,24.974944,121.402008,0.07516721
C0I110,竹山,2025-06-26,23.761225,120.688156,0.31877747
82H840,茶改南部分場,2025-06-26,23.762528,120.7405,0.7931129
C0G660,溪湖,2025-06-26,23.94835,120.479122,0.4852118
C1T800,洛韶,2025-06-26,24.204558,121.453956,0.8714334
C1T810,慈恩,2025-06-26,24.192044,121.388386,0.25680694
C1E451,象鼻,2025-06-26,24.368617,120.940228,0.96941996
C0AC60,三峽,2025-06-26,24.939025,121.369728,0.14141928
C0I490,萬大林道,2025-06-26,23.928228,121.091411,0.8802488
C1I290,豐丘,2025-06-26,23.668178,120.887417,0.9541394
C1I320,奧萬大,2025-06-26,23.952956,121.178556,0.91516197
C2M910,嘉義大學,2025-06-26,23.471325,120.485903,0.21515794
C0U770,南澳,2025-06-26,24.44935,121.81022,0.111472785
C0A980,社子,2025-06-26,25.109508,121.469681,0.10212696
C0V800,六龜,2025-06-26,22.997889,120.633583,0.18106514
C1G9D0,國一S218K,2025-06-26,23.890641,120.493253,0.59502393
C0E570,白沙屯,2025-06-26,24.549447,120.696803,0.6234411
C2F9A0,中竹林,2025-06-26,24.103556,120.751061,0.5531974
C0FA40,臺中電廠,2025-06-26,24.2146,120.4907,0.17239948
C2G9A0,畜試所彰化,2025-06-26,23.86045,120.557964,0.29560402
C0H9C0,合歡山,2025-06-26,24.143442,121.272547,0.0023144821
C0X060,下營,2025-06-26,23.22695,120.256261,0.33925906
G2M350,農試溪口農場,2025-06-26,23.58565,120.408111,0.23965906
C0U860,頭城,2025-06-26,24.85323,121.8308,0.036833365
C0R580,南州,2025-06-26,22.48591,120.50274,0.14818394
C0D430,峨眉,2025-06-26,24.6905,121.017189,0.9384436
C0G780,秀水,2025-06-26,24.03405,120.503869,0.39989352
72N100,臺南農改場,2025-06-26,23.0605,120.342194,0.124976635
C0S900,蘭嶼高中,2025-06-26,22.04909,121.51214,0.9742181
C1F9W0,德基,2025-06-26,24.254783,121.190261,0.52350426
C1Z120,壽豐,2025-06-26,23.870853,121.508081,0.13822794
C0W160,烏坵,2025-06-26,24.9944,119.44956,0.845449
C1I240,外大坪,2025-06-26,23.958697,120.917931,0.99375904
C1I550,國六W023K,2025-06-26,23.979067,120.867742,0.7039155
C0R870,興海,2025-06-26,21.9752,120.8439,0.13830991
C0R140,瑪家,2025-06-26,22.682903,120.686639,0.9793748
C0A530,坪林,2025-06-26,24.938183,121.70975,0.69699836
C0X260,後壁,2025-06-26,23.366358,120.362326,0.26091552
C0Z230,和平,2025-06-26,24.30717,121.77007,0.050403535
C0G770,福興,2025-06-26,24.041289,120.437669,0.14034843
C0H9A0,神木村,2025-06-26,23.532742,120.843667,0.62119895
C0I460,南投,2025-06-26,23.911469,120.687331,0.33600178
C0I480,梅峰,2025-06-26,24.085272,121.173572,0.31655836
C1V570,吉東,2025-06-26,22.85422,120.5454,0.14018476
C2D740,屯原,2025-06-26,24.067969,121.209389,0.43655068
C2A560,福山,2025-06-26,24.776203,121.502811,0.20539555
C0AH30,五分山,2025-06-26,25.07125,121.780794,0.9848597
C0FA10,松柏,2025-06-26,24.429115,120.617482,0.39167824
72S200,東改班鳩分場,2025-06-26,22.829528,121.077694,0.5371391
72HA00,中改埔里分場,2025-06-26,23.903208,120.963364,0.9906246
C2H9W0,大坪頂農水,2025-06-26,24.043122,120.932781,0.9949357
C0C650,平鎮,2025-06-26,24.897503,121.214636,0.76890814
C0S930,延平,2025-06-26,22.902581,121.084058,0.42504004
C0UA60,樟樹山,2025-06-26,24.41393,121.78325,0.9107622
C1S670,摩天,2025-06-26,23.199503,121.027,0.82647943
C0V630,茄萣,2025-06-26,22.906642,120.182608,0.17964955
466940,基隆,2025-06-26,25.133314,121.740475,0.07151905
C0X050,東河,2025-06-26,23.296598,120.385608,0.30098873
C0R770,保力,2025-06-26,22.071122,120.764111,0.09535159
G2L020,農試嘉義分所,2025-06-26,23.485028,120.473806,0.31832194
C0X240,關子嶺,2025-06-26,23.331169,120.508025,0.44179294
C0I380,集集,2025-06-26,23.828206,120.801467,0.319037
466990,花蓮,2025-06-26,23.975128,121.613275,0.097298935
C1V220,小關山,2025-06-26,23.154217,120.813603,0.7812838
C1F9G1,慶福山,2025-06-26,24.180853,120.848378,0.98426676
C0FB20,雪山橋,2025-06-26,24.23192,120.9786,0.32634047
C0Z250,瑞穗林道,2025-06-26,23.49284,121.30688,0.9843135
C0D590,新豐,2025-06-26,24.87068,120.97721,0.91852486
C0A870,五指山,2025-06-26,25.132153,121.608692,0.9711334
C0UA50,西帽山,2025-06-26,24.555361,121.802628,0.96780574
C0X160,仁德,2025-06-26,22.968258,120.257689,0.13522471
C1H971,六分寮,2025-06-26,23.92507,120.6378,0.7928653
C0W120,西嶼,2025-06-26,23.5626,119.468436,0.38139597
C0G650,員林,2025-06-26,23.946503,120.585597,0.30012402
C0AD50,鶯歌,2025-06-26,24.951533,121.346294,0.18970773
C2H9Q0,北東眼山,2025-06-26,24.120939,121.189303,0.22233349
C2H9T0,名間竹圍,2025-06-26,23.859914,120.637572,0.41926223
C0S990,山豬窟,2025-06-26,22.318619,120.857372,0.35115135
C0X190,安平,2025-06-26,22.993161,120.152181,0.14113866
C0K400,斗六,2025-06-26,23.720583,120.541127,0.41992298
12J990,口湖工作站,2025-06-26,23.589978,120.180394,0.15851063
C0O830,北寮,2025-06-26,23.079561,120.495008,0.25920793
C1D410,白蘭,2025-06-26,24.579364,121.079947,0.59064144
C0S970,加津林,2025-06-26,22.416211,120.926942,0.06008723
C0D700,關西,2025-06-26,24.7977,121.1732,0.76697546
C0M810,里佳,2025-06-26,23.389125,120.716647,0.72252154
C0U750,龜山島,2025-06-26,24.841667,121.953133,0.99211586
C0R810,內獅,2025-06-26,22.305064,120.642986,0.09504191
C1M390,龍美,2025-06-26,23.406728,120.654417,0.8541658
C2FB60,頭櫃山,2025-06-26,24.129842,120.858925,0.9851956
C1H840,國三N238K,2025-06-26,23.841008,120.707711,0.2984167
CAQ030,崎峰國小,2025-06-26,22.42565,120.49521,0.14818394
C2E520,大湖,2025-06-26,24.414939,120.870872,0.960041
467530,阿里山,2025-06-26,23.508208,120.813242,0.025604403
C1E691,南湖,2025-06-26,24.40135,120.837533,0.97987294
C0FA30,梧棲,2025-06-26,24.256003,120.523381,0.26183087
C1V231,高中,2025-06-26,23.134911,120.716711,0.9788304
C0AK30,硬漢嶺,2025-06-26,25.136097,121.426372,0.96312547
C0F9V0,新社,2025-06-26,24.200172,120.815806,0.97233087
C0H890,埔里,2025-06-26,23.972169,120.952425,0.90718985
C0R690,墾丁,2025-06-26,21.966756,120.810269,0.87712234
C0F0D0,審馬陣,2025-06-26,24.381675,121.4203,0.0012386488
C2W030,金門農試所,2025-06-26,24.448431,118.451786,0.21668386
C0R820,白鷺,2025-06-26,22.454275,120.666219,0.99002665
C0FB00,大雪山,2025-06-26,24.254668,121.007374,0.14331049
C1V190,南天池,2025-06-26,23.27403,120.91176,0.13428675
C0E940,雪見,2025-06-26,24.42595,121.01347,0.81814283
K2E360,苗栗農改場,2025-06-26,24.495722,120.829111,0.8634828
CAJ050,海口故事園區,2025-06-26,23.57543,120.14121,0.1581172
C2H9D0,三隻寮,2025-06-26,24.093078,120.861578,0.99462044
C0O990,媽廟,2025-06-26,22.99175,120.293525,0.06179387
C0D480,打鐵坑,2025-06-26,24.849664,121.150789,0.73454535
C0Z220,和平林道,2025-06-26,24.343922,121.656317,0.99224055
C0TA10,花蓮漁港,2025-06-26,23.995322,121.638331,0.088530995
72C440,桃園農改場,2025-06-26,24.950944,121.030583,0.612574
C1E711,馬拉邦山,2025-06-26,24.367306,120.901656,0.93642807
C0SB20,富岡,2025-06-26,22.792467,121.192669,0.13262026
C0D560,竹東,2025-06-26,24.767147,121.057881,0.74306667
C0F9U0,南屯,2025-06-26,24.137006,120.637969,0.5808346
C0M720,番路,2025-06-26,23.464657,120.554156,0.24653332
C0F0A0,雪山圈谷,2025-06-26,24.388594,121.236339,0.00077530794
C1A9N0,四十份,2025-06-26,24.934158,121.593283,0.75447726
C0U760,東澳,2025-06-26,24.52196,121.83318,0.05722571
C0X230,鹽水,2025-06-26,23.272621,120.247641,0.26610938
C2H9H0,苗改南投蜂場,2025-06-26,23.852589,120.693481,0.48648185
C0R950,萬隆國小,2025-06-26,22.507667,120.587817,0.12463146
467540,大武,2025-06-26,22.35572,120.90374,0.05816433
C0V370,古亭坑,2025-06-26,22.893178,120.401947,0.14301494
C1I340,新興橋,2025-06-26,23.563333,120.868728,0.95887536
C0SA80,土坂,2025-06-26,22.453108,120.887572,0.15549888
C0R160,鹽埔,2025-06-26,22.739558,120.530778,0.06367043
C0AC40,大屯山,2025-06-26,25.175675,121.522408,0.8554394
466850,五分山雷達站,2025-06-26,25.071182,121.781205,0.9851391
C2H9L0,馬烈霸,2025-06-26,24.1512,121.201772,0.2129688
C1AI50,國三N016K,2025-06-26,25.034164,121.619664,0.040582612
C1V600,藤枝,2025-06-26,23.071961,120.757042,0.61700934
C1E601,南勢,2025-06-26,24.572486,120.734842,0.902626
C0O980,新市,2025-06-26,23.061614,120.298197,0.12344265
C0K420,西螺,2025-06-26,23.800407,120.467394,0.40043077
C0Z050,佳心,2025-06-26,23.34567,121.21316,0.9512318
C0AD30,蘆洲,2025-06-26,25.086594,121.472331,0.0362685
C0V610,梓官,2025-06-26,22.760558,120.267211,0.04941787
K2F750,種苗改良場,2025-06-26,24.225972,120.800917,0.9559946
C0UA80,大溪漁港,2025-06-26,24.941801,121.902955,0.042890817
C1AI60,國一39K邊坡,2025-06-26,25.064361,121.383836,0.17287152
C0W150,金寧,2025-06-26,24.457703,118.328989,0.22778998
C0R960,內埔,2025-06-26,22.608483,120.570714,0.1299494
V2C250,八德合作社,2025-06-26,24.93775,121.266389,0.52307564
C2H9S0,龍南,2025-06-26,23.953536,120.833183,0.9832843
C0AH40,平等,2025-06-26,25.129142,121.577086,0.31223947
C0R540,佳冬,2025-06-26,22.419456,120.552375,0.99449766
466950,彭佳嶼,2025-06-26,25.627975,122.079744,0.43218803
C0A890,雙溪,2025-06-26,25.036003,121.864242,0.20204152
C0C480,桃園,2025-06-26,24.992425,121.323172,0.35791758
C0AH50,林口,2025-06-26,25.072181,121.38084,0.28568158
A2K360,水試臺西試驗場,2025-06-26,23.717231,120.190522,0.22061235
C2M960,外寮,2025-06-26,23.562643,120.665688,0.94107574
C0F9S0,烏日,2025-06-26,24.107058,120.624103,0.12414594
C0C490,八德,2025-06-26,24.928708,121.283289,0.5429306
C0R190,赤山,2025-06-26,22.592333,120.614306,0.13457532
C0T820,天祥,2025-06-26,24.179597,121.495639,0.86473864
C1F9E1,龍安,2025-06-26,24.1605,120.831961,0.98080087
C0V820,小林,2025-06-26,23.148408,120.63325,0.69650763
C2G870,芳苑,2025-06-26,23.922303,120.320025,0.31010336
C0E850,大河,2025-06-26,24.618069,120.948578,0.8541042
C1U670,寒溪,2025-06-26,24.634,121.71691,0.050198633
C0N020,城西,2025-06-26,23.0568,120.0956,0.1309645
C1Z110,三棧,2025-06-26,24.11557,121.60501,0.80006546
C0R280,檳榔,2025-06-26,22.076078,120.836777,0.28735375
C2H9J0,中台,2025-06-26,23.9996,120.938739,0.98552835
C0F9L0,后里,2025-06-26,24.310436,120.729725,0.56724375
467441,高雄,2025-06-26,22.730432,120.312516,0.050498918
C0Z180,新城,2025-06-26,24.040486,121.604878,0.104805484
C0D540,橫山,2025-06-26,24.71116,121.11693,0.8069052
C1D420,太閣南,2025-06-26,24.632808,121.160575,0.9064396
C1E770,公館,2025-06-26,24.526914,120.830806,0.7921909
CAN130,水試所海水繁養殖中心,2025-06-26,23.120802,120.07968,0.1600849
C1I430,翠華,2025-06-26,24.191961,121.224339,0.040792547
C1M400,菜瓜坪,2025-06-26,23.251928,120.576103,0.56187266
C0G730,二林,2025-06-26,23.903325,120.376081,0.17501467
72M360,南改義竹分場,2025-06-26,23.360694,120.279361,0.25372878
V2K620,麥寮合作社,2025-06-26,23.753836,120.294783,0.14481373
C0Z070,舞鶴,2025-06-26,23.46811,121.37407,0.28997526
C0B040,大武崙,2025-06-26,25.166676,121.706993,0.08177954
C1Z030,紅葉,2025-06-26,23.493119,121.338806,0.18788801
C1I050,丹大,2025-06-26,23.753747,121.141147,0.056110803
C0I080,信義,2025-06-26,23.689694,120.851036,0.73685604
C0D750,樂山林道6k,2025-06-26,24.49999,121.08773,0.049837932
C2M920,朴子農改,2025-06-26,23.469889,120.259383,0.16628808
C2A880,福隆,2025-06-26,25.017842,121.942083,0.056787
C0Z160,鳳林,2025-06-26,23.746114,121.453411,0.38047987
C0UB80,翠峰林道6K,2025-06-26,24.49773,121.568625,0.15030174
C0V210,復興,2025-06-26,23.222403,120.806089,0.8496015
C0H990,昆陽,2025-06-26,24.121322,121.273642,0.0032509288
C0R741,獅子,2025-06-26,22.202308,120.705236,0.10677904
C0S710,鹿野,2025-06-26,22.917711,121.122994,0.55658364
C0I530,小奇萊,2025-06-26,24.131764,121.295717,0.0029133733
C0FA70,大雪山埡口,2025-06-26,24.26867,121.03062,0.015129187
C2K630,荷苞,2025-06-26,23.657717,120.595144,0.5945201
C0Z080,富源,2025-06-26,23.587642,121.378225,0.5534994
C0SB10,美和,2025-06-26,22.682078,121.060236,0.1095938
C2K620,馬光農場,2025-06-26,23.721453,120.378864,0.36607072
C1I140,卡奈托灣,2025-06-26,23.754364,121.087872,0.6176031
C0I520,玉山風口,2025-06-26,23.470489,120.955994,0.0031141022
C1G691,下水埔,2025-06-26,23.816114,120.5676,0.24943727
C0X110,臺南市南區,2025-06-26,22.961189,120.188378,0.13664857
C0V680,仁武,2025-06-26,22.701083,120.347722,0.8890807
C2G840,北斗,2025-06-26,23.877586,120.514222,0.61589825
C0R900,竹坑,2025-06-26,22.1385,120.7022,0.23935384
C0K250,崙背,2025-06-26,23.75555,120.318925,0.1462474
C0G860,社頭,2025-06-26,23.897647,120.5862,0.36537272
C0X150,安定,2025-06-26,23.102614,120.227839,0.22176084
C0R590,里港,2025-06-26,22.77919,120.49459,0.13069667
C0E610,馬都安,2025-06-26,24.451272,120.930192,0.9782924
C0E550,明德,2025-06-26,24.583486,120.885411,0.8284199
C0R150,三地門,2025-06-26,22.709889,120.639944,0.094685696
C0G910,花壇,2025-06-26,24.032076,120.549461,0.448747
C1D400,鳥嘴山,2025-06-26,24.71909,121.28387,0.9817583
C0K500,元長,2025-06-26,23.64981,120.315024,0.18921426
C0F0B0,石岡,2025-06-26,24.276061,120.777644,0.65825766
C2V250,甲仙,2025-06-26,23.080106,120.591758,0.26127517
C0SA20,金崙山,2025-06-26,22.567419,120.959667,0.92491496
C0V350,溪埔,2025-06-26,22.738578,120.446797,0.091881864
C0M660,溪口,2025-06-26,23.604131,120.403569,0.24023761
C1S880,壽卡,2025-06-26,22.238911,120.858903,0.6051345
72D680,桃改新埔分場,2025-06-26,24.834444,121.066111,0.8358746
