站號,站名,日期,lat,lon,BLBTSLS
C0R710,龍磐,2025-12-21,21.931672,120.838942,0.13524696
C1F9D1,白毛台,2025-12-21,24.158325,120.886933,2.1213193e-09
C0G940,竹塘,2025-12-21,23.848253,120.386764,5.3238136e-06
467590,恆春,2025-12-21,22.003897,120.746339,0.48246363
C1O850,環湖,2025-12-21,23.148617,120.418633,2.071369e-09
C0U710,太平山,2025-12-21,24.505486,121.525656,1.9789745e-08
C0E820,獅潭,2025-12-21,24.539133,120.920042,2.3504658e-09
C2SD70,二層坪,2025-12-21,22.94105,121.16838,8.80973e-09
C0V880,興達,2025-12-21,22.8778,120.2127,0.99816453
C0S890,關山,2025-12-21,23.0395,121.175017,7.3421416e-09
C0SB30,新蘭,2025-12-21,22.869214,121.223228,2.5384521e-08
C2R970,屏科大,2025-12-21,22.648275,120.619247,0.000104023995
C1Z130,銅門,2025-12-21,23.965694,121.492842,5.4962e-09
C0AD40,土城,2025-12-21,24.973208,121.445169,1.7244865e-08
CAN140,六官養殖協會,2025-12-21,23.22881,120.29962,0.038295034
C0X180,山上,2025-12-21,23.0757,120.363253,0.6176767
C0F9Z0,雪山東峰,2025-12-21,24.388792,121.268675,2.570085e-08
C1M480,獨立山,2025-12-21,23.537022,120.607797,1.141397e-09
C0X220,學甲,2025-12-21,23.230367,120.182187,0.099546894
467650,日月潭,2025-12-21,23.881325,120.90805,2.900368e-09
C0K600,箔子寮,2025-12-21,23.6197,120.14,0.9941312
C0G830,埤頭,2025-12-21,23.866003,120.452806,5.2130736e-07
C0S950,七塊厝,2025-12-21,22.954453,121.229922,5.039625e-09
467110,金門,2025-12-21,24.407306,118.289281,1.2664938e-06
C0AH80,深坑,2025-12-21,25.002703,121.628328,2.8441303e-08
C0A970,三貂角,2025-12-21,25.007606,122.002058,7.893091e-09
C2D730,寶山農場,2025-12-21,24.732444,120.976153,2.880098e-09
C0K430,褒忠,2025-12-21,23.690938,120.303634,0.00088379637
467480,嘉義,2025-12-21,23.495925,120.432906,1.3406521e-06
C0V400,阿公店,2025-12-21,22.804194,120.355528,0.8942241
C0E960,觀霧分站,2025-12-21,24.505781,121.113921,8.309904e-09
467550,玉山,2025-12-21,23.48718,120.95943,2.9799748e-08
C0R440,大漢山,2025-12-21,22.405264,120.753181,1.440604e-08
C0SD30,東清國小,2025-12-21,22.057128,121.564922,0.9998231
C1F9B1,桐林,2025-12-21,24.066172,120.735194,1.1084246e-07
C2H9U0,鳳鵬,2025-12-21,23.763919,120.788061,1.2489112e-09
C0K390,土庫,2025-12-21,23.679029,120.395574,1.1841904e-06
C1I450,望鄉山,2025-12-21,23.594153,120.944286,1.9436131e-08
C0E910,海埔,2025-12-21,24.648767,120.772435,7.166396e-07
B2E890,畜試北區分所,2025-12-21,24.527806,120.770972,2.9274025e-08
C0R750,四林格山,2025-12-21,22.076989,120.802439,0.98358625
C0F0C0,中坑,2025-12-21,24.248517,120.903319,2.892617e-09
C1I121,大鞍,2025-12-21,23.678381,120.760017,5.1307176e-09
C2G9E0,移民庄,2025-12-21,23.9784,120.40283,0.3074981
72U480,花改蘭陽分場,2025-12-21,24.686306,121.716583,6.9551933e-09
C0A770,科教館,2025-12-21,25.096356,121.516507,1.3012836e-08
C0AJ60,六塊厝,2025-12-21,25.24,121.4481,3.491275e-07
C0R620,墾雷,2025-12-21,21.900836,120.855269,0.79060394
467420,永康,2025-12-21,23.038386,120.2367,0.9763501
C2M530,奮起湖,2025-12-21,23.493903,120.699253,3.691424e-09
C0I410,名間,2025-12-21,23.837053,120.701447,2.259145e-09
A2C560,農工中心,2025-12-21,24.985917,121.239833,1.4769204e-08
C0V740,旗山,2025-12-21,22.888614,120.483597,1.4408623e-08
C0Z061,玉里,2025-12-21,23.3215,121.339656,4.5168704e-09
C0S840,南田,2025-12-21,22.279725,120.889208,0.99712837
C1I470,杉林溪,2025-12-21,23.639517,120.786444,6.3121424e-09
C1X040,東原,2025-12-21,23.291597,120.463822,1.0301145e-09
C0R660,枋寮,2025-12-21,22.367722,120.590647,0.34811983
C1R120,上德文,2025-12-21,22.763272,120.704442,1.7954365e-09
C0K450,大埤,2025-12-21,23.646074,120.431537,2.8469067e-06
C0UA00,土場,2025-12-21,24.576533,121.495333,1.2363361e-08
467080,宜蘭,2025-12-21,24.763975,121.756528,6.3266303e-09
C0N030,四草,2025-12-21,23.0235,120.1116,0.96893126
467410,臺南,2025-12-21,22.99328,120.20492,0.96041
C0V650,彌陀,2025-12-21,22.783806,120.246361,0.99911106
C0D660,新竹市東區,2025-12-21,24.798681,120.986942,1.3900174e-07
82S580,茶改東部分場,2025-12-21,22.907694,121.130139,9.902402e-09
C0SB40,興隆,2025-12-21,22.913661,121.257469,2.239087e-08
467050,新屋,2025-12-21,25.006725,121.047492,9.365209e-07
C0C710,大溪永福,2025-12-21,24.892936,121.324975,4.283107e-09
C0FA20,溫寮,2025-12-21,24.372177,120.583125,0.66438943
C0V640,湖內,2025-12-21,22.887139,120.2445,0.9972792
C0R910,下寮,2025-12-21,22.3929,120.5548,0.3578745
C0Z020,明里,2025-12-21,23.208717,121.262342,4.454704e-09
C0M770,嘉義梅山,2025-12-21,23.585398,120.555587,4.738762e-09
C0C660,楊梅,2025-12-21,24.912375,121.143047,9.531769e-09
C0SD40,牛頭山,2025-12-21,22.676661,121.506944,0.99987835
C1E511,新開,2025-12-21,24.347703,120.827019,3.0784466e-09
G2F820,農試所(霧峰),2025-12-21,24.031261,120.688133,1.7786905e-07
C2M990,大巃頂,2025-12-21,23.5547,120.61439,1.782144e-09
C1I070,和社,2025-12-21,23.591131,120.888861,1.4912824e-09
C2E990,新坪頂,2025-12-21,24.30201,120.8574,1.7304096e-09
C0TA80,立霧山,2025-12-21,24.183258,121.641899,1.4896713e-08
C2F000,大肚,2025-12-21,24.15295,120.572117,7.3194656e-08
C1S850,豐南,2025-12-21,23.122139,121.262389,4.8241766e-09
C2M9B0,西興,2025-12-21,23.2428,120.57617,1.086305e-09
C2A920,富貴角,2025-12-21,25.263783,121.565258,9.7317525e-08
CAH030,茶改場竹圍站,2025-12-21,23.860083,120.637528,1.4034041e-09
C0T960,光復,2025-12-21,23.660694,121.424964,3.6777692e-09
C0F9M0,豐原,2025-12-21,24.254322,120.720692,4.528585e-09
C0R720,旭海,2025-12-21,22.205403,120.887614,0.9998335
C0V710,苓雅,2025-12-21,22.622742,120.330669,0.99797744
C0C740,觀音工業區,2025-12-21,25.064764,121.114856,0.00052601437
CAC040,拉拉山,2025-12-21,24.699317,121.427133,2.2302299e-08
C0V790,萬山,2025-12-21,22.905944,120.688056,3.038922e-09
U2HA30,臺大和社,2025-12-21,23.590856,120.888864,1.4912824e-09
C2H9K0,屯原,2025-12-21,24.067969,121.209389,7.824499e-09
C0AJ90,澳底,2025-12-21,25.0552,121.9253,7.413727e-09
C0Z100,東華,2025-12-21,23.89525,121.549833,7.122834e-09
C0G970,三豐,2025-12-21,23.882,120.2895,0.043564815
V2K610,大庄合作社,2025-12-21,23.8068,120.367939,0.0020002476
C0V900,汕尾,2025-12-21,22.4782,120.4151,0.98257065
C1R630,龍泉,2025-12-21,22.66701,120.59091,0.013290091
C1AC50,關渡,2025-12-21,25.133486,121.469331,8.100952e-08
C0C800,四稜,2025-12-21,24.64733,121.4293,1.705602e-08
C0F9I0,神岡,2025-12-21,24.272481,120.658314,1.3493349e-08
C0K460,斗南,2025-12-21,23.678734,120.478359,1.8593051e-06
C2O810,曾文,2025-12-21,23.219681,120.497328,1.276462e-09
467280,後龍,2025-12-21,24.648563,120.831834,1.322538e-07
C1F9J1,清水林,2025-12-21,24.071242,120.820419,2.2521882e-09
C2A650,火燒寮,2025-12-21,25.002719,121.742892,1.0435348e-08
466930,竹子湖,2025-12-21,25.162078,121.544547,2.5027463e-08
C1I220,樟湖,2025-12-21,23.905333,120.846983,2.7032185e-09
C0I390,仁愛,2025-12-21,24.022122,121.132206,2.694781e-09
C0Z300,東里,2025-12-21,23.26853,121.30547,4.673871e-09
C1V590,新發,2025-12-21,23.057019,120.646064,2.247858e-09
C0K510,水林,2025-12-21,23.572924,120.24597,0.06905958
72S590,東改賓朗果園,2025-12-21,22.813889,121.071278,1.3397673e-07
82A750,茶改北部分場,2025-12-21,24.955778,121.631222,1.2246178e-08
C1A750,石碇服務區,2025-12-21,25.00872,121.646242,1.2590553e-08
C0X300,鹿寮,2025-12-21,23.386047,120.477331,2.5684421e-09
G2AI50,關渡,2025-12-21,25.11575,121.492,1.5235791e-08
C0K590,雲林東勢,2025-12-21,23.674192,120.255721,0.0012949982
C2K310,港尾布雞,2025-12-21,23.74834,120.38439,7.407588e-07
C0A570,桶後,2025-12-21,24.848222,121.597992,5.3327924e-09
C1S800,華源,2025-12-21,22.657883,121.02325,1.23853415e-05
C0G720,溪州,2025-12-21,23.851589,120.499093,3.4241296e-07
C1V160,達卡努瓦,2025-12-21,23.279811,120.705319,3.134682e-09
C2M410,馬頭山,2025-12-21,23.324361,120.582017,9.381268e-10
C0V850,蚵仔寮,2025-12-21,22.7256,120.2527,0.9993313
C0S740,池上,2025-12-21,23.119628,121.209469,1.2176537e-08
C1V390,尖山,2025-12-21,22.813153,120.367789,0.7796188
C0AH70,松山,2025-12-21,25.04871,121.55042,1.2380492e-08
C0N010,鯤鯓國小,2025-12-21,23.1879,120.0889,0.41022402
C0R550,新埤,2025-12-21,22.467947,120.582894,0.9679282
C0SA60,知本（水試所）,2025-12-21,22.702394,121.082761,0.00078433286
C0T9I0,豐濱,2025-12-21,23.583897,121.514806,3.1594727e-09
C0UB00,淡江大學蘭陽校園,2025-12-21,24.823239,121.730383,8.188674e-09
C0W240,九宮,2025-12-21,24.423753,118.240186,7.088426e-08
C0T9N0,富里,2025-12-21,23.171639,121.249378,5.168523e-09
U2HA50,臺大竹山,2025-12-21,23.756972,120.681556,9.3261265e-09
C0V840,鳳鼻頭,2025-12-21,22.5083,120.3591,0.10101356
C0X140,西港,2025-12-21,23.125608,120.203108,0.035308305
72D080,桃改五峰分場,2025-12-21,24.612194,121.157167,4.4971245e-09
C2H9P0,伊拿谷,2025-12-21,23.963211,121.088264,1.9440793e-09
C2K250,崙背,2025-12-21,23.75553,120.31893,0.00088114094
C2H9F0,柑林,2025-12-21,24.018658,120.847072,5.5182587e-09
C0TA20,加灣,2025-12-21,24.082025,121.608944,1.2369234e-08
C0V530,阿蓮,2025-12-21,22.883208,120.327508,0.92507
C0FB30,八仙山苗圃,2025-12-21,24.192719,121.001366,2.8652385e-09
C1O880,關山,2025-12-21,23.173397,120.594092,8.5581137e-10
C0E791,卓蘭,2025-12-21,24.3126,120.8244,2.733597e-09
C1I030,武界,2025-12-21,23.913225,121.052483,2.0150437e-09
C0R520,崁頂,2025-12-21,22.514781,120.506914,0.865337
C0R341,牡丹,2025-12-21,22.130036,120.792639,0.8101909
C0R930,萬丹,2025-12-21,22.5885,120.4851,0.26824322
C0S760,紅石,2025-12-21,23.069131,121.126219,1.6872011e-08
C2C410,中央大學,2025-12-21,24.967652,121.185165,1.4275404e-08
C1M610,石磐龍,2025-12-21,23.496606,120.663506,2.683364e-09
C0C790,東眼山,2025-12-21,24.8284,121.40888,1.2713479e-08
C0UA10,鴛鴦湖,2025-12-21,24.590269,121.412228,1.4353873e-08
V2C260,八德蔬果,2025-12-21,24.978508,121.281819,9.2858174e-09
C0R800,丹路,2025-12-21,22.204481,120.750989,0.9837945
C0G920,永靖,2025-12-21,23.924703,120.547533,0.00022881081
C2M950,太和,2025-12-21,23.538372,120.702961,3.643932e-09
C1A630,下盆,2025-12-21,24.771003,121.538622,7.521275e-09
B2N890,畜產試驗所,2025-12-21,23.058972,120.336406,0.8139633
C0UA30,白嶺,2025-12-21,24.527819,121.519031,1.45033345e-08
C1V580,溪南(特生中心),2025-12-21,23.084972,120.788475,5.9904703e-09
C1T970,大農,2025-12-21,23.615233,121.413331,3.0839769e-09
C0R650,竹田,2025-12-21,22.58486,120.54344,0.96417636
C1H900,清流,2025-12-21,24.080775,120.962997,1.8645139e-09
C1C510,水尾,2025-12-21,24.940081,121.087161,3.8419916e-08
C2N170,茅港尾,2025-12-21,23.2061,120.2624,0.05996261
C0F9X0,大雅(中科園區),2025-12-21,24.21528,120.62445,3.982372e-06
C0SB60,白守蓮,2025-12-21,23.126769,121.401914,0.99995387
C0O970,虎頭埤,2025-12-21,23.021375,120.347878,0.5862442
C0C730,中大臨海站,2025-12-21,24.966126,121.008581,2.3489925e-08
C0X250,新營,2025-12-21,23.310689,120.316681,0.02523052
C0V700,三民,2025-12-21,22.645017,120.311233,0.9995407
C0U870,大礁溪,2025-12-21,24.791042,121.675047,8.163878e-09
C0E870,高鐵苗栗,2025-12-21,24.60725,120.826094,1.9366843e-07
A2K570,古坑花卉中心,2025-12-21,23.63353,120.55239,2.3446003e-06
C0TA30,鹽寮,2025-12-21,23.845606,121.592664,7.3314226e-09
C0M860,新美,2025-12-21,23.338017,120.683169,2.3772382e-09
C1E701,八卦,2025-12-21,24.491756,120.927619,3.8290486e-09
C2TA90,加納納,2025-12-21,23.466421,121.359867,3.5338281e-09
C0I420,國姓,2025-12-21,24.037803,120.855072,4.476611e-09
C2D720,關西工作站,2025-12-21,24.757275,121.184792,2.621974e-09
C0S960,香蘭,2025-12-21,22.587569,120.993375,0.00090359227
467620,蘭嶼,2025-12-21,22.0369,121.55843,0.9853495
C0R260,春日,2025-12-21,22.370361,120.628306,0.16007978
72G600,臺中農改場,2025-12-21,24.003028,120.534389,0.0010483983
C0Z210,瑞穗,2025-12-21,23.5239,121.39021,3.450611e-09
C0M820,達邦,2025-12-21,23.453994,120.749517,2.5010558e-09
C0V860,南寮,2025-12-21,22.7616,120.2339,0.999359
C0G740,大城,2025-12-21,23.852487,120.320935,0.03886494
C0R920,塭仔,2025-12-21,22.4169,120.5197,0.37510055
C0R470,高樹,2025-12-21,22.826389,120.600806,8.744352e-05
C0R680,佳樂水,2025-12-21,21.993578,120.861633,0.28543618
C1O870,大棟山,2025-12-21,23.31157,120.52226,3.2948828e-09
C0D360,梅花,2025-12-21,24.678347,121.208558,4.4739736e-09
C0Z190,富世,2025-12-21,24.14743,121.6297,2.455953e-06
C0AI10,屈尺,2025-12-21,24.92184,121.54475,8.531423e-09
B2U990,畜試東區分所,2025-12-21,24.669039,121.832561,5.437122e-09
C0SB80,長濱漁港,2025-12-21,23.313644,121.459994,0.9956076
C0TA50,和仁,2025-12-21,24.241394,121.712472,9.829306e-07
C0V910,大樹,2025-12-21,22.684645,120.432803,0.005390639
C1R610,西大武山,2025-12-21,22.617719,120.7322,1.6005544e-08
C0G900,線西,2025-12-21,24.143358,120.443536,0.8644537
C0M700,竹崎,2025-12-21,23.526178,120.555508,2.9158156e-09
C2E880,三義,2025-12-21,24.405478,120.749819,2.8991956e-09
C0C720,竹圍,2025-12-21,25.112692,121.239824,8.274811e-08
C0F9P0,清水,2025-12-21,24.312297,120.562242,1.0140933e-05
C0Z150,吉安光華,2025-12-21,23.930925,121.595153,7.019604e-09
C0FA80,小雪山天池,2025-12-21,24.28025,121.02627,1.662397e-08
467300,東吉島,2025-12-21,23.25727,119.66762,0.9994701
C1D640,外坪(五指山),2025-12-21,24.644447,121.090961,3.2332685e-09
C2R9A0,高士國小,2025-12-21,22.12553,120.84653,0.9315298
C0F9O0,潭子,2025-12-21,24.213106,120.703933,7.7758795e-09
C2H9R0,卓社,2025-12-21,23.887894,121.000086,3.128506e-09
72T250,花蓮農改場,2025-12-21,23.975222,121.563889,8.963324e-09
C0E780,銅鑼,2025-12-21,24.489681,120.790853,3.5601588e-09
C1T950,太安,2025-12-21,23.666719,121.370128,8.146876e-09
C0E830,苑裡,2025-12-21,24.439714,120.653053,3.0921663e-05
467270,田中,2025-12-21,23.873803,120.581286,1.2526174e-05
C0SA10,檳榔四格山,2025-12-21,22.810031,121.109308,6.0207476e-08
C1T830,布洛灣,2025-12-21,24.17184,121.57127,1.5417445e-08
C0F970,大坑,2025-12-21,24.173142,120.722289,2.2182325e-08
C1U920,思源,2025-12-21,24.393125,121.347214,1.4155021e-08
C2H9Y0,松茗,2025-12-21,23.8167,120.650765,1.1476119e-09
C0A931,三和,2025-12-21,25.233153,121.595236,2.50058e-08
C0I010,廬山,2025-12-21,24.033311,121.181808,5.0211746e-09
C2M940,日野賀,2025-12-21,23.434056,120.727169,3.153789e-09
C0R860,鼻頭,2025-12-21,22.1043,120.8979,0.9794918
C0UB20,壯圍,2025-12-21,24.7359,121.8163,7.1765496e-09
C0R790,九棚,2025-12-21,22.14195,120.889281,0.9998021
C0W110,東莒,2025-12-21,25.9652,119.98069,0.1738157
C1U930,粉鳥林,2025-12-21,24.497088,121.842479,6.440509e-08
C1I211,蘆竹湳,2025-12-21,23.934019,120.811994,2.3121194e-09
C0S830,長濱,2025-12-21,23.286817,121.411975,4.279441e-09
C1F9F1,伯公龍,2025-12-21,24.272392,120.849047,1.7669772e-09
C0UB90,太平山莊,2025-12-21,24.494171,121.536209,2.0057538e-08
C0E810,西湖,2025-12-21,24.562947,120.7485,0.9915992
C1I440,新高口,2025-12-21,23.478744,120.878939,1.2475762e-08
C0O840,王爺宮,2025-12-21,23.222064,120.40085,3.0075875e-09
C0T9G0,鳳林山,2025-12-21,23.735269,121.420131,5.620382e-09
C0X080,佳里,2025-12-21,23.173039,120.145086,0.43539676
C0FB70,大甲溪埔,2025-12-21,24.370625,120.620067,0.2768533
C0Z310,清水斷崖,2025-12-21,24.218294,121.689142,3.125973e-07
C0M680,太保,2025-12-21,23.455062,120.331455,0.0011111065
C1S820,金峰,2025-12-21,22.590969,120.933236,3.735991e-06
C0AD10,八里,2025-12-21,25.150211,121.403947,0.00029643407
C2K240,草嶺,2025-12-21,23.59555,120.693461,2.7430243e-09
C1SA70,都蘭,2025-12-21,22.87794,121.226881,2.2335334e-08
C0K440,二崙,2025-12-21,23.772797,120.408944,4.814785e-07
C1A760,坪林交控,2025-12-21,24.94284,121.713442,1.4143956e-08
C0F9N0,大里,2025-12-21,24.092464,120.701378,0.0062013576
C0SA90,達仁林場,2025-12-21,22.264347,120.823972,1.1041281e-08
C1R290,石門山,2025-12-21,22.112611,120.756597,0.9962028
42HA10,萬大發電廠,2025-12-21,23.978875,121.139639,2.40829e-09
C0R890,山海,2025-12-21,21.9878,120.7091,0.42913625
C0T9A0,月眉山,2025-12-21,23.809928,121.539828,4.8465973e-09
C0AC70,信義,2025-12-21,25.037822,121.564597,1.249896e-08
C0K560,棋山,2025-12-21,23.68645,120.603417,1.3206503e-06
C2FB50,出雲,2025-12-21,24.206469,120.902794,3.2956495e-09
C1Z240,中平林道,2025-12-21,23.42115,121.26763,1.5156e-08
U2H480,溪頭,2025-12-21,23.670306,120.798194,2.6645037e-09
C0M880,好美里,2025-12-21,23.3364,120.138,0.16053528
C0T9E0,大坑,2025-12-21,23.880628,121.581981,7.415424e-09
C0K530,臺西,2025-12-21,23.701547,120.197559,0.75654244
C1E900,國一N128K,2025-12-21,24.560997,120.844186,2.6375194e-08
C0AJ50,水湳洞,2025-12-21,25.123695,121.862238,8.548966e-09
C0AI20,白沙灣,2025-12-21,25.283128,121.519058,2.9591297e-07
C2V310,美濃,2025-12-21,22.898792,120.51907,1.6886403e-08
C0A860,大坪,2025-12-21,25.165914,121.632969,6.9177517e-09
C1U850,觀音海岸,2025-12-21,24.38319,121.77856,1.388055e-08
C2K610,草嶺石壁,2025-12-21,23.602469,120.707731,2.8430929e-09
C0U950,鶯子嶺,2025-12-21,24.89754,121.79244,1.4665313e-08
C0O900,善化,2025-12-21,23.112883,120.297219,0.9119229
C0K550,蔦松,2025-12-21,23.514319,120.229736,0.48377445
E2P980,林試六龜中心,2025-12-21,22.991703,120.645722,1.4963855e-09
C0E590,通霄,2025-12-21,24.471892,120.704622,0.26009494
C1I310,西巒,2025-12-21,23.754486,120.883956,3.1329546e-09
C0A550,泰平,2025-12-21,24.971197,121.823711,8.447418e-09
C0I360,水里,2025-12-21,23.812553,120.849792,1.4809817e-09
C0R830,高士,2025-12-21,22.121825,120.836781,0.9958584
C1I101,溪頭,2025-12-21,23.661789,120.807647,6.925237e-09
C0AJ20,野柳,2025-12-21,25.20703,121.690021,3.2647197e-08
C0B060,暖暖,2025-12-21,25.0957,121.7403,9.174204e-09
C1H920,長豐,2025-12-21,24.102039,120.879897,1.4421593e-09
C2S9B0,利吉,2025-12-21,22.86246,121.15486,1.1429377e-08
C0V360,內門,2025-12-21,22.975481,120.466769,8.225962e-09
C0R850,林邊,2025-12-21,22.4634,120.5339,0.97656417
C0E930,龍鳳,2025-12-21,24.700034,120.859125,0.015552845
C0U910,冬山,2025-12-21,24.63373,121.7937,5.437122e-09
C1E721,泰安,2025-12-21,24.489017,120.968036,6.2230945e-09
82H320,茶改中部分場,2025-12-21,23.875611,120.913583,2.072009e-09
C0M750,布袋,2025-12-21,23.380878,120.167789,0.02046984
C1S860,利嘉,2025-12-21,22.809417,121.050528,7.818387e-08
E2S980,林試太麻里1,2025-12-21,22.598922,120.980044,5.7226654e-05
C0X170,關廟,2025-12-21,22.963017,120.327797,0.740261
C0V720,林園,2025-12-21,22.507747,120.394511,0.08448561
C1I510,線浸林道,2025-12-21,23.761508,120.832956,3.3799032e-09
C0D690,外湖,2025-12-21,24.917735,120.968711,2.6887909e-08
C0C750,新興坑尾,2025-12-21,25.0061,121.0971,3.0177864e-07
B2Q810,畜試南區分所,2025-12-21,21.945583,120.802167,0.28115928
C0S790,金崙,2025-12-21,22.538122,120.966875,2.4123613e-06
C0AH90,福山植物園,2025-12-21,24.760717,121.58135,9.820788e-09
C0I540,奇萊稜線,2025-12-21,24.109231,121.326456,2.4662675e-08
C0M850,表湖,2025-12-21,23.24186,120.64166,1.8589884e-09
C0S770,大溪山,2025-12-21,22.478475,120.943325,3.043617e-07
C0AG80,中和,2025-12-21,24.991622,121.491792,1.7250851e-08
C0T790,大禹嶺,2025-12-21,24.186117,121.316086,1.5905208e-08
C0T9B0,水源,2025-12-21,23.991861,121.537169,8.560306e-09
C0R840,牡丹池山,2025-12-21,22.168389,120.841225,5.9588015e-09
C1I131,桶頭,2025-12-21,23.641944,120.654117,3.656994e-09
CAL110,布袋國中,2025-12-21,23.35893,120.18026,0.10791889
C2M9D0,何竹子腳,2025-12-21,23.53641,120.38203,1.8549093e-08
467571,新竹,2025-12-21,24.827853,121.014219,1.3876718e-07
C0Z290,赤柯山,2025-12-21,23.36893,121.38293,8.418947e-09
C0X280,將軍,2025-12-21,23.214999,120.13577,0.161007
C0S690,太麻里,2025-12-21,22.60902,120.98533,6.062937e-08
C0U880,北關,2025-12-21,24.9072,121.8734,2.0479643e-08
CAW010,東引,2025-12-21,26.3588,120.4836,0.7597488
C0G810,埔心,2025-12-21,23.947633,120.525456,0.00036641033
C0U970,大福,2025-12-21,24.80064,121.81389,7.2295534e-09
C2H9N0,仁愛東眼,2025-12-21,24.026875,121.1205,4.138941e-09
C1E670,南礦,2025-12-21,24.538278,121.002836,6.102822e-09
C0M520,東後寮,2025-12-21,23.369908,120.248065,0.0568297
C1E461,松安,2025-12-21,24.397972,120.986022,5.0130695e-09
C2N160,西拉雅風管處,2025-12-21,23.189481,120.335297,0.025587453
C2M970,碧湖,2025-12-21,23.568632,120.624165,1.7540761e-09
C0A640,石碇,2025-12-21,24.993969,121.662917,9.187372e-09
E2S960,林試太麻里2,2025-12-21,22.598,120.99775,0.0010599312
C0F9Y0,桃山,2025-12-21,24.432739,121.303808,2.4068676e-08
C1I020,萬大,2025-12-21,23.979817,121.132261,2.745898e-09
C2UC20,長嶺,2025-12-21,24.70894,121.61162,6.8693264e-09
C0U940,羅東,2025-12-21,24.68184,121.74934,6.9878907e-09
C0M650,朴子,2025-12-21,23.43463,120.23902,0.004662823
C1I500,大尖山,2025-12-21,23.858572,120.994889,8.7532515e-09
C0FB40,中橫21.6k,2025-12-21,24.2499,121.1455,4.4622808e-09
C0G820,田尾,2025-12-21,23.901669,120.509389,0.0003582025
E2K600,四湖植物園,2025-12-21,23.676986,120.163433,0.5583913
C0S730,綠島,2025-12-21,22.6672,121.47533,0.999918
12Q970,東港工作站,2025-12-21,22.479997,120.466058,0.9814986
C0E430,南庄,2025-12-21,24.601775,121.000214,6.8948864e-08
C1TA00,太魯閣,2025-12-21,24.15773,121.6236,6.6609545e-08
466920,臺北,2025-12-21,25.037658,121.514853,1.2380492e-08
C0R600,舊泰武,2025-12-21,22.588194,120.664944,2.443105e-09
C1I260,北坑,2025-12-21,23.9246,121.006903,1.457821e-09
466910,鞍部,2025-12-21,25.182586,121.529731,2.4177076e-08
C1I230,九份二山,2025-12-21,23.961944,120.845,2.5644036e-09
C2M810,里佳,2025-12-21,23.389125,120.716647,4.637764e-09
C2A660,瑞芳,2025-12-21,25.113169,121.801147,1.180186e-08
C0R270,琉球嶼,2025-12-21,22.332244,120.362236,0.99164945
C2V580,瑞山,2025-12-21,22.90304,120.43424,1.0570728e-08
C1T990,高寮,2025-12-21,23.394239,121.356808,5.056909e-09
C0G620,芬園,2025-12-21,24.015678,120.6213,5.2935443e-06
C1Z140,荖溪,2025-12-21,23.890575,121.45964,1.5065298e-08
C1I201,中心崙,2025-12-21,23.728722,120.712097,1.2185826e-09
C1I400,凌霄,2025-12-21,24.018778,121.004456,3.9819223e-09
C1M640,十字,2025-12-21,23.492153,120.753683,4.685698e-09
G2P820,農試鳳山分所,2025-12-21,22.646611,120.356083,0.9994022
C0Z270,蕃薯寮,2025-12-21,23.73835,121.540108,4.6288737e-09
C2E420,竹南,2025-12-21,24.70898,120.88897,1.8941043e-08
C0FB10,出雲山苗圃,2025-12-21,24.23105,120.90475,2.9716978e-09
C0F9Q0,外埔,2025-12-21,24.347817,120.705686,1.0492388e-08
C0K580,高鐵雲林,2025-12-21,23.737456,120.417944,5.9044766e-07
C2I090,鳳凰,2025-12-21,23.728081,120.787347,1.8487518e-09
C0U990,員山,2025-12-21,24.74435,121.72247,7.060613e-09
C0V770,大社,2025-12-21,22.730306,120.346639,0.99900013
C0X120,麻豆,2025-12-21,23.183289,120.248611,0.02419576
C0C670,龍潭,2025-12-21,24.870056,121.221389,4.483601e-09
C0D680,香山濕地,2025-12-21,24.783581,120.914988,1.4723394e-06
C0S980,勝林山,2025-12-21,22.430439,120.8938,2.2780812e-08
C0V730,大寮,2025-12-21,22.605614,120.395717,0.9513503
C0R570,麟洛,2025-12-21,22.65078,120.52719,0.0011853725
C2M930,石卓,2025-12-21,23.478744,120.702264,5.2630793e-09
C0G9B0,和美,2025-12-21,24.105169,120.492131,0.49004093
CAG100,王功漁港,2025-12-21,23.96824,120.32586,0.2322496
C0X290,北門,2025-12-21,23.267772,120.125481,0.17660578
C2F930,大甲,2025-12-21,24.347667,120.640403,1.3221425e-06
C0D650,湖口,2025-12-21,24.904794,121.043628,1.3861897e-08
C0E420,竹南,2025-12-21,24.708978,120.888897,0.97422767
C0U780,五結,2025-12-21,24.68637,121.79794,7.1753723e-09
C1I250,鯉潭,2025-12-21,23.961922,120.991131,1.5839867e-09
C0R130,阿禮,2025-12-21,22.742908,120.743678,2.233183e-09
C0X100,臺南市北區,2025-12-21,23.010394,120.194228,0.9623828
C0S920,金峰嘉蘭,2025-12-21,22.594789,120.960825,5.4988504e-05
C0V490,新興,2025-12-21,22.627422,120.298803,0.9980766
C0F9K0,大安,2025-12-21,24.345061,120.588025,4.851469e-06
467290,古坑,2025-12-21,23.633639,120.551889,0.0011222707
C2E970,八甲,2025-12-21,24.535811,120.795983,1.0211575e-08
C0V440,鳳山,2025-12-21,22.646653,120.356122,0.9994022
C1T940,大觀,2025-12-21,23.714206,121.373133,5.169006e-09
C0E740,造橋,2025-12-21,24.637056,120.864778,2.4512448e-07
C0R100,尾寮山,2025-12-21,22.833111,120.683889,2.4657443e-09
A2K630,臺大雲林校區,2025-12-21,23.730628,120.423903,5.87366e-07
467990,馬祖,2025-12-21,26.169467,119.923158,1.5245013e-07
C0D580,寶山,2025-12-21,24.735006,121.025192,3.0790515e-09
E2P990,林試扇平站,2025-12-21,22.9677,120.6857,2.3488882e-09
C0AI30,三重,2025-12-21,25.057328,121.500629,1.3012836e-08
C0AH00,汐止,2025-12-21,25.066881,121.658778,2.5204951e-08
C1Z040,立山,2025-12-21,23.443356,121.327375,6.7879755e-09
466881,新北,2025-12-21,24.959207,121.525196,1.6242035e-08
C0W130,花嶼,2025-12-21,23.40007,119.32276,0.999012
C0A950,鼻頭角,2025-12-21,25.129036,121.923372,7.549016e-08
C0K470,林內,2025-12-21,23.748675,120.609642,1.0463e-06
C2F990,摩天嶺,2025-12-21,24.322458,120.936819,2.701971e-09
C2E430,南庄,2025-12-21,24.601775,121.000214,2.4667697e-09
82C160,茶改場,2025-12-21,24.908472,121.185333,1.20173125e-08
C2TB60,南安,2025-12-21,23.29818,121.26157,4.3482835e-09
C0Z320,清水林道,2025-12-21,23.27125,121.188272,6.8548505e-09
C0R760,南仁湖,2025-12-21,22.084681,120.863353,0.9963266
C0M670,大林,2025-12-21,23.600616,120.45841,1.38298635e-08
C0M800,茶山,2025-12-21,23.299075,120.664767,1.1273572e-09
C0A9C0,天母,2025-12-21,25.117494,121.537169,1.2611343e-08
72K220,南改斗南分場,2025-12-21,23.634556,120.477333,1.613522e-06
72AI40,桃改樹林分場,2025-12-21,24.944503,121.386972,1.0108346e-08
C0S910,蘭嶼燈塔,2025-12-21,22.081197,121.503117,0.99969614
C0B050,八斗子,2025-12-21,25.144754,121.79167,8.838949e-09
C0U900,內城,2025-12-21,24.71813,121.68766,6.7988597e-09
C0X320,柳營,2025-12-21,23.253328,120.375253,8.6880325e-09
C0M790,新港,2025-12-21,23.553269,120.345728,0.009542276
C0F9T0,西屯,2025-12-21,24.179494,120.641275,1.5085561e-07
C0E950,松安,2025-12-21,24.39792,120.98599,4.2841286e-09
C0SA30,都歷,2025-12-21,23.020333,121.323642,1.4537538e-08
C0C620,蘆竹,2025-12-21,25.084275,121.265767,1.8478438e-07
C0R730,大坪頂,2025-12-21,22.024633,120.69355,0.80914193
C0AJ40,石門,2025-12-21,25.273672,121.601198,1.13458675e-07
C0E750,苗栗,2025-12-21,24.564569,120.824575,6.59388e-09
C0T870,鯉魚潭,2025-12-21,23.935639,121.508944,5.6657488e-09
C1V170,排雲,2025-12-21,23.463619,120.954147,2.7460304e-08
C2H950,中寮,2025-12-21,23.884447,120.766406,1.8341943e-08
C0R350,貓鼻頭,2025-12-21,21.921774,120.7358,0.41758555
C0V660,岡山,2025-12-21,22.797078,120.294958,0.9990775
C1H941,雙冬,2025-12-21,23.967378,120.802189,2.2935487e-09
C0AJ70,田寮,2025-12-21,25.2698,121.4886,3.2325093e-07
C0AI00,五股,2025-12-21,25.07445,121.42728,1.05647215e-08
C0Z280,德武,2025-12-21,23.47426,121.41071,3.517702e-09
C2RA10,大新,2025-12-21,22.67558,120.57788,0.014045536
C0R700,枋山,2025-12-21,22.246844,120.661086,0.98500246
C0C460,復興,2025-12-21,24.820208,121.352281,3.8902077e-09
C2K300,鹿南,2025-12-21,23.63855,120.3636,0.00013289561
E2H360,蓮華池,2025-12-21,23.918333,120.885278,1.5679832e-09
C0M640,中埔,2025-12-21,23.42538,120.5229,1.6918794e-09
C0W140,金沙,2025-12-21,24.488292,118.408778,1.0797222e-08
C2A540,四堵,2025-12-21,24.8926,121.745736,1.3205058e-08
C0ACA0,新莊,2025-12-21,25.051478,121.446756,1.45024766e-08
C0R220,潮州,2025-12-21,22.534361,120.54,0.8567683
U2HA40,臺大內茅埔,2025-12-21,23.689722,120.851117,1.1658798e-09
467490,臺中,2025-12-21,24.145736,120.684075,5.723459e-08
C0UB60,明池,2025-12-21,24.650688,121.475277,1.6508197e-08
C0U960,翠峰湖,2025-12-21,24.510856,121.608044,2.085292e-08
E2HA20,林試畢祿溪站,2025-12-21,24.226944,121.308522,1.0627981e-08
C2M9A0,大華,2025-12-21,23.4824,120.67491,2.4426996e-09
C0V890,前鎮,2025-12-21,22.5718,120.3117,0.99832076
C1F941,雪嶺,2025-12-21,24.280586,121.026642,1.662397e-08
C2H9E0,國姓南港,2025-12-21,23.911108,120.846556,2.8183162e-09
C0AC80,文山,2025-12-21,25.00235,121.575728,1.4808497e-08
C0F9R0,龍井,2025-12-21,24.184536,120.528972,4.384515e-06
C0M760,民雄,2025-12-21,23.551754,120.428457,1.4521215e-08
C0UA40,西德山,2025-12-21,24.560647,121.752608,1.8667851e-08
C2TA70,赤科坪,2025-12-21,23.39885,121.39168,8.1297085e-09
C1T920,中興,2025-12-21,23.769503,121.498653,4.6373483e-09
C0D550,雪霸,2025-12-21,24.526972,121.11605,6.7109407e-09
C2F860,梨山,2025-12-21,24.247522,121.243669,1.09412825e-08
C0R320,車城,2025-12-21,22.0744,120.716247,0.42517468
C1S870,南美山,2025-12-21,23.15025,121.382333,1.9867201e-08
C0B020,基隆嶼,2025-12-21,25.19141,121.78391,2.6065635e-07
C1U501,牛鬥,2025-12-21,24.637836,121.573656,6.2154197e-09
C0M730,嘉義市東區,2025-12-21,23.457673,120.460531,3.9159658e-09
C2R990,泰武,2025-12-21,22.60686,120.69765,4.320275e-09
C0S700,知本,2025-12-21,22.684866,121.005642,6.514005e-08
C1N001,沙崙,2025-12-21,22.935472,120.309406,0.8049748
C0V760,橋頭,2025-12-21,22.757806,120.30575,0.999168
C0G960,福寶,2025-12-21,24.0443,120.3814,0.58731294
C0X210,白河,2025-12-21,23.347466,120.414427,2.28337e-09
C0S810,東河,2025-12-21,22.972672,121.303986,1.4404769e-07
C2R170,屏東,2025-12-21,22.66027,120.49403,0.0012355562
C0R670,楓港,2025-12-21,22.190131,120.692156,0.9840361
C0FA50,霧峰,2025-12-21,24.0419,120.6995,1.4992081e-07
C0UB10,蘇澳,2025-12-21,24.5969,121.8571,1.5730585e-08
C0G950,防潮門,2025-12-21,24.1835,120.4871,0.95295763
C0M740,六腳,2025-12-21,23.492871,120.290625,0.0070847664
C1R250,力里,2025-12-21,22.428117,120.629228,1.206506e-08
C0K330,虎尾,2025-12-21,23.719183,120.442036,4.3232612e-07
C2FA00,烏石坑,2025-12-21,24.273503,120.947617,2.6658509e-09
C0V620,永安,2025-12-21,22.82315,120.236856,0.99911106
C1I330,楓樹林,2025-12-21,23.986803,121.076117,3.211701e-09
C0W200,湖西,2025-12-21,23.596314,119.67275,0.99522096
72Q010,高雄農改場,2025-12-21,22.709333,120.525889,0.0018229758
C0SA40,瑞和,2025-12-21,22.974361,121.156697,9.194787e-09
C0C680,龜山,2025-12-21,25.02846,121.38656,9.225406e-09
C2V260,月眉,2025-12-21,22.971003,120.539853,3.6184102e-09
C0V450,鳳森,2025-12-21,22.545064,120.392592,0.037695333
C0FA90,小雪山林道,2025-12-21,24.29515,121.03651,2.1850418e-08
C0U720,南山,2025-12-21,24.43742,121.38167,1.1137625e-08
A2N290,臺南蘭花園區,2025-12-21,23.340258,120.379661,1.1802805e-08
C0R560,新園,2025-12-21,22.5434,120.461558,0.08448561
C0U890,三星,2025-12-21,24.66812,121.65302,6.840405e-09
C1V300,御油山,2025-12-21,23.001983,120.715364,5.66281e-09
C0U600,礁溪,2025-12-21,24.817539,121.765608,1.088857e-08
C1T980,龍澗,2025-12-21,24.023289,121.411328,2.0073267e-08
C0D670,海天一線,2025-12-21,24.831986,120.914438,0.98265094
C0SA00,歷坵,2025-12-21,22.520969,120.89185,1.2845658e-07
C0M710,東石,2025-12-21,23.458927,120.15385,0.9050025
C0M780,鹿草,2025-12-21,23.41134,120.30835,0.0030921295
C0U520,雙連埤,2025-12-21,24.753033,121.641303,8.177873e-09
C0B010,七堵,2025-12-21,25.094819,121.71713,9.749362e-09
C0R480,長治,2025-12-21,22.693128,120.542622,0.0010421607
C1V830,國三S383K,2025-12-21,22.781967,120.426475,1.0240597e-06
12Q980,恆春工作站,2025-12-21,22.079678,120.714425,0.42574677
C1O940,東山服務區,2025-12-21,23.286016,120.398472,4.018116e-09
C1U840,東澳嶺,2025-12-21,24.5378,121.8485,1.527018e-08
C1D630,飛鳳山,2025-12-21,24.766464,121.119178,3.5612453e-09
C0S940,石寧山,2025-12-21,23.223772,121.406639,0.92571014
C0K410,北港,2025-12-21,23.573957,120.292802,0.058955867
C2M620,瑞里,2025-12-21,23.545133,120.675197,3.1944116e-09
C0SB70,小港漁港,2025-12-21,23.158558,121.400431,0.9998933
C2O950,安南,2025-12-21,23.076694,120.144861,0.99782646
C0F0E0,南湖圈谷,2025-12-21,24.363714,121.444667,4.082601e-08
467610,成功,2025-12-21,23.097486,121.373428,8.876067e-07
C0G890,伸港,2025-12-21,24.148933,120.484403,0.85373557
C2E540,龍溪,2025-12-21,24.606489,120.783933,1.06589845e-07
C1V200,梅山,2025-12-21,23.268447,120.823556,2.4745594e-09
C0T9H0,加路蘭山,2025-12-21,23.682947,121.5274,6.538212e-09
C2O930,玉井,2025-12-21,23.126042,120.46055,2.9629197e-09
C1F911,新伯公,2025-12-21,24.221361,120.841069,2.100596e-09
C0R490,九如,2025-12-21,22.7405,120.490503,0.002126109
C0X200,左鎮,2025-12-21,23.056758,120.408522,2.543022e-08
C2TB50,麻汝,2025-12-21,23.42554,121.39358,3.540325e-09
C0FA60,鞍馬山工作站,2025-12-21,24.267064,121.000793,1.1502377e-08
C0SB50,叭嗡嗡,2025-12-21,23.047062,121.343223,2.5442981e-08
C1F891,稍來,2025-12-21,24.265689,121.001142,1.1079697e-08
C2M9C0,紫雲,2025-12-21,23.494914,120.540253,4.01594e-09
72N240,七股研究中心,2025-12-21,23.081672,120.062894,0.9981299
C0C700,中壢,2025-12-21,24.977661,121.256375,7.188701e-09
C0M690,水上,2025-12-21,23.419734,120.388909,1.4197878e-08
C0V690,鼓山,2025-12-21,22.623325,120.275575,0.99812746
C0O860,大內,2025-12-21,23.11885,120.36083,0.83301336
C0Z200,萬榮,2025-12-21,23.709219,121.420106,4.5954276e-09
C0T9D0,和中,2025-12-21,24.26676,121.74103,4.086246e-06
C2S9A0,北份子寮,2025-12-21,22.78561,121.07813,3.5296624e-05
C1O921,楠西,2025-12-21,23.183511,120.484083,1.8029794e-09
C0AJ30,淡水觀海,2025-12-21,25.184591,121.408616,1.4105154e-07
C0V810,左營,2025-12-21,22.67491,120.28491,0.9995401
C0UA70,桃源谷,2025-12-21,24.962606,121.888875,1.0301386e-08
C0X130,官田,2025-12-21,23.193217,120.315422,0.05151797
C1H000,翠峰,2025-12-21,24.109397,121.205211,1.2713916e-08
C0UA90,石城,2025-12-21,24.980444,121.951214,1.2519814e-08
C1E681,南勢山,2025-12-21,24.421669,120.923831,3.1433816e-09
C0A9F0,內湖,2025-12-21,25.079422,121.57545,1.2380492e-08
C0K291,宜梧,2025-12-21,23.536281,120.169329,0.49791384
C1K540,口湖,2025-12-21,23.585344,120.180517,0.9941934
C0R780,滿州,2025-12-21,22.024403,120.839892,0.42699248
C0V870,文安,2025-12-21,22.8025,120.2164,0.9993081
C0U650,玉蘭,2025-12-21,24.675286,121.587061,6.932175e-09
C0R640,東港,2025-12-21,22.46247,120.44074,0.9822674
C0AJ80,板橋,2025-12-21,25.0107,121.4489,1.7761149e-08
C0S660,下馬,2025-12-21,23.150427,121.070312,6.5905104e-09
C2N190,烏樹,2025-12-21,23.32393,120.36989,0.16535519
C1H9B1,阿眉,2025-12-21,24.1263,120.994672,7.410136e-09
C0UA20,多加屯,2025-12-21,24.368614,121.373189,1.447026e-08
C0E730,頭份,2025-12-21,24.688247,120.912206,0.0038358204
72V140,高改旗南分場,2025-12-21,22.857861,120.516667,5.5681452e-05
C0K480,莿桐,2025-12-21,23.761192,120.502372,3.4691507e-07
C0U980,坪林石牌,2025-12-21,24.86478,121.77396,9.07329e-09
C0T900,西林,2025-12-21,23.8119,121.441458,4.358081e-09
C1I150,青雲,2025-12-21,23.793361,120.949378,1.1708226e-09
C2E980,和興,2025-12-21,24.505319,120.923016,3.2700214e-09
467350,澎湖,2025-12-21,23.565503,119.563094,0.99780756
C0G800,埔鹽,2025-12-21,24.000394,120.431683,0.3036421
C0H960,草屯,2025-12-21,23.973672,120.68085,8.723255e-08
C1V780,多納林道,2025-12-21,22.888028,120.737917,2.7909597e-09
C0E920,通霄漁港,2025-12-21,24.498589,120.673876,0.7482627
C0Z330,安通山,2025-12-21,23.290728,121.348528,4.261082e-09
C0AH10,永和,2025-12-21,25.01125,121.508111,1.7718651e-08
C0AK10,太平里,2025-12-21,25.134937,121.364899,0.00024574806
C2G640,鹿港,2025-12-21,24.0753,120.430481,0.58482254
C1E890,國三N149K,2025-12-21,24.463414,120.680019,2.6639293e-06
C1R110,口社,2025-12-21,22.770111,120.645222,5.676802e-05
C1M870,國三N285K,2025-12-21,23.550319,120.505833,7.042926e-09
C1E480,鳳美,2025-12-21,24.554803,121.034747,3.7506145e-09
C0M530,奮起湖,2025-12-21,23.493903,120.699253,4.418739e-09
C0C590,觀音,2025-12-21,25.027072,121.153317,0.17345394
C0T9M0,靜浦,2025-12-21,23.455167,121.495028,3.7968673e-09
C2H9M0,發祥,2025-12-21,24.154094,121.164517,4.384369e-09
C2G9C0,埔南,2025-12-21,23.99124,120.46969,0.27573046
C0AI40,石牌,2025-12-21,25.115597,121.513139,1.2611463e-08
C1F871,上谷關,2025-12-21,24.203483,121.018644,3.035481e-09
C2H9G0,百勝,2025-12-21,24.051142,120.909361,1.2820985e-09
C0G880,二水,2025-12-21,23.810742,120.6173,2.0644032e-07
C0R940,加祿堂,2025-12-21,22.3363,120.6217,0.5364998
C0W220,北竿,2025-12-21,26.220358,119.974881,0.0014910188
C0O960,崎頂,2025-12-21,22.959547,120.369317,0.16743849
C0TA40,秀林,2025-12-21,24.302864,121.731144,1.6135846e-08
C0S750,向陽,2025-12-21,23.248397,120.986133,1.3310962e-08
C0T9F0,水璉,2025-12-21,23.797131,121.542514,4.3897157e-09
C1M600,頭凍,2025-12-21,23.406364,120.603339,1.9811415e-09
467660,臺東,2025-12-21,22.752211,121.154586,0.9874934
C1D380,新埔,2025-12-21,24.84745,121.03834,1.6325458e-08
C2G980,田頭村,2025-12-21,23.8263,120.444175,4.83262e-07
C0V750,路竹,2025-12-21,22.854997,120.259439,0.99818826
C0N050,蚵寮,2025-12-21,23.301,120.1104,0.1618179
C2X060,下營,2025-12-21,23.226806,120.256291,0.060408704
72M700,南改鹿草分場,2025-12-21,23.416869,120.283061,0.0044779605
C1SA50,利嘉林道,2025-12-21,22.82325,121.009389,2.0047555e-08
C0UB70,太平山中間站,2025-12-21,24.542003,121.513453,1.0212529e-08
C0A940,金山,2025-12-21,25.223628,121.643967,3.1455183e-08
C1V340,大津,2025-12-21,22.888322,120.645986,6.4600584e-07
C0W180,七美,2025-12-21,23.219333,119.444892,0.999279
C1F9C1,白冷,2025-12-21,24.182844,120.929889,2.0363247e-09
K2E710,苗改生物防治研究中心,2025-12-21,24.422861,120.871833,3.1414635e-09
C0N040,蘆竹溝,2025-12-21,23.2344,120.0961,0.17771824
C0TB40,崇德,2025-12-21,24.166144,121.657414,5.850337e-06
C0D760,大坪苗圃,2025-12-21,24.5362,121.1108,7.15033e-09
C2W230,畜試所澎湖,2025-12-21,23.628342,119.513206,0.99685496
C0R880,後壁湖,2025-12-21,21.9457,120.7457,0.4520036
C1I280,埔中,2025-12-21,23.820778,120.642594,1.1517916e-09
467790,墾丁雷達站,2025-12-21,21.948235,120.808028,0.15673196
C0W190,望安,2025-12-21,23.380564,119.494075,0.99839664
C0Z170,卓溪,2025-12-21,23.3443,121.3029,4.6047104e-09
C0F850,東勢,2025-12-21,24.246428,120.833047,2.5166558e-09
466900,淡水,2025-12-21,25.164889,121.448906,0.00024574806
C0I370,魚池,2025-12-21,23.895703,120.94135,1.6601305e-09
C0C630,大溪,2025-12-21,24.882853,121.265547,1.3768223e-08
C0A520,山佳,2025-12-21,24.974944,121.402008,1.4025859e-08
C0I110,竹山,2025-12-21,23.761225,120.688156,4.5025406e-09
82H840,茶改南部分場,2025-12-21,23.762528,120.7405,1.1889292e-09
C2SD80,再來山,2025-12-21,23.34371,121.44122,0.12344097
C0G660,溪湖,2025-12-21,23.94835,120.479122,0.00045518682
C1T800,洛韶,2025-12-21,24.204558,121.453956,1.3469076e-08
C1T810,慈恩,2025-12-21,24.192044,121.388386,1.5278832e-08
C1E451,象鼻,2025-12-21,24.368617,120.940228,2.4164157e-09
C0AC60,三峽,2025-12-21,24.939025,121.369728,5.7904255e-09
C0I490,萬大林道,2025-12-21,23.928228,121.091411,4.7764477e-09
C1I290,豐丘,2025-12-21,23.668178,120.887417,3.3213583e-09
C1I320,奧萬大,2025-12-21,23.952956,121.178556,3.1109642e-09
C2M910,嘉義大學,2025-12-21,23.471325,120.485903,3.0529232e-09
C0U770,南澳,2025-12-21,24.44935,121.81022,3.183617e-08
C2TB30,吉安,2025-12-21,23.94538,121.54803,6.264168e-09
C0A980,社子,2025-12-21,25.109508,121.469681,5.9510356e-08
C0V800,六龜,2025-12-21,22.997889,120.633583,1.5467154e-09
C1G9D0,國一S218K,2025-12-21,23.890641,120.493253,0.00032607687
C0E570,白沙屯,2025-12-21,24.549447,120.696803,0.99815285
C2F9A0,中竹林,2025-12-21,24.103556,120.751061,2.764401e-09
C0FA40,臺中電廠,2025-12-21,24.2146,120.4907,0.94894284
C2G9A0,畜試所彰化,2025-12-21,23.86045,120.557964,3.108911e-07
C0H9C0,合歡山,2025-12-21,24.143442,121.272547,2.4827488e-08
G2M350,農試溪口農場,2025-12-21,23.58565,120.408111,1.7190908e-08
C0U860,頭城,2025-12-21,24.85323,121.8308,1.1136839e-08
C0R580,南州,2025-12-21,22.48591,120.50274,0.9822674
C0D430,峨眉,2025-12-21,24.6905,121.017189,7.290106e-09
C0G780,秀水,2025-12-21,24.03405,120.503869,0.0010695532
72N100,臺南農改場,2025-12-21,23.0605,120.342194,0.79662657
C0S900,蘭嶼高中,2025-12-21,22.04909,121.51214,0.9998528
C2TA60,六十石,2025-12-21,23.22477,121.31861,8.18758e-09
C1F9W0,德基,2025-12-21,24.254783,121.190261,8.713806e-09
C2M980,安和,2025-12-21,23.51377,120.31593,0.004668966
C1Z120,壽豐,2025-12-21,23.870853,121.508081,7.122834e-09
C0W160,烏坵,2025-12-21,24.9944,119.44956,0.90358657
C1I240,外大坪,2025-12-21,23.958697,120.917931,1.6209284e-09
C1I550,國六W023K,2025-12-21,23.979067,120.867742,3.0807903e-09
C0R870,興海,2025-12-21,21.9752,120.8439,0.2813684
C0R140,瑪家,2025-12-21,22.682903,120.686639,1.4322415e-09
C0A530,坪林,2025-12-21,24.938183,121.70975,1.019443e-08
C0X260,後壁,2025-12-21,23.366358,120.362326,0.006516539
C0Z230,和平,2025-12-21,24.30717,121.77007,1.2742557e-07
C0G770,福興,2025-12-21,24.041289,120.437669,0.3074981
C0H9A0,神木村,2025-12-21,23.532742,120.843667,4.8727546e-09
C0I460,南投,2025-12-21,23.911469,120.687331,6.085784e-08
C0I480,梅峰,2025-12-21,24.085272,121.173572,8.860132e-09
C1V570,吉東,2025-12-21,22.85422,120.5454,1.3538107e-05
C2A560,福山,2025-12-21,24.776203,121.502811,9.895151e-09
C0AH30,五分山,2025-12-21,25.07125,121.780794,1.0381686e-08
C0FA10,松柏,2025-12-21,24.429115,120.617482,1.5435282e-05
72S200,東改班鳩分場,2025-12-21,22.829528,121.077694,2.3386238e-07
72HA00,中改埔里分場,2025-12-21,23.903208,120.963364,1.5161021e-09
C2H9W0,大坪頂農水,2025-12-21,24.043122,120.932781,1.4589475e-09
C0C650,平鎮,2025-12-21,24.897503,121.214636,4.9335984e-09
C0S930,延平,2025-12-21,22.902581,121.084058,7.831801e-09
C0UA60,樟樹山,2025-12-21,24.41393,121.78325,2.4232154e-08
C2UC10,出水溪,2025-12-21,24.615822,121.652253,1.1636565e-08
C1S670,摩天,2025-12-21,23.199503,121.027,1.446132e-08
C2C590,觀音,2025-12-21,25.027072,121.153317,4.355025e-08
C0V630,茄萣,2025-12-21,22.906642,120.182608,0.9981632
466940,基隆,2025-12-21,25.133314,121.740475,8.811713e-09
C0X050,東河,2025-12-21,23.296598,120.385608,4.5837676e-09
C0R770,保力,2025-12-21,22.071122,120.764111,0.5596673
G2L020,農試嘉義分所,2025-12-21,23.485028,120.473806,5.4776654e-09
C0X240,關子嶺,2025-12-21,23.331169,120.508025,9.265908e-10
C0I380,集集,2025-12-21,23.828206,120.801467,1.553803e-09
466990,花蓮,2025-12-21,23.975128,121.613275,1.1953008e-08
C1V220,小關山,2025-12-21,23.154217,120.813603,7.1622868e-09
C1F9G1,慶福山,2025-12-21,24.180853,120.848378,2.1649542e-09
C0FB20,雪山橋,2025-12-21,24.23192,120.9786,1.1587352e-08
C0Z250,瑞穗林道,2025-12-21,23.49284,121.30688,1.4093894e-08
C0D590,新豐,2025-12-21,24.87068,120.97721,0.008560896
C0A870,五指山,2025-12-21,25.132153,121.608692,2.4495591e-08
C0UA50,西帽山,2025-12-21,24.555361,121.802628,1.4683646e-08
C2R980,竹田國中,2025-12-21,22.61532,120.52412,0.963786
C0X160,仁德,2025-12-21,22.968258,120.257689,0.99496233
C1H971,六分寮,2025-12-21,23.92507,120.6378,2.7470715e-09
C0W120,西嶼,2025-12-21,23.5626,119.468436,0.99683017
C0G650,員林,2025-12-21,23.946503,120.585597,0.00043731587
C0AD50,鶯歌,2025-12-21,24.951533,121.346294,5.6344427e-09
C2H9Q0,北東眼山,2025-12-21,24.120939,121.189303,9.83646e-09
C2H9T0,名間竹圍,2025-12-21,23.859914,120.637572,1.4029865e-09
C0S990,山豬窟,2025-12-21,22.318619,120.857372,2.4262585e-08
C0X190,安平,2025-12-21,22.993161,120.152181,0.9620656
C0K400,斗六,2025-12-21,23.720583,120.541127,4.86847e-07
12J990,口湖工作站,2025-12-21,23.589978,120.180394,0.9941312
C0O830,北寮,2025-12-21,23.079561,120.495008,2.8516356e-09
C1D410,白蘭,2025-12-21,24.579364,121.079947,6.6429733e-09
C0S970,加津林,2025-12-21,22.416211,120.926942,0.019666944
C0D700,關西,2025-12-21,24.7977,121.1732,2.0592214e-08
C0M810,里佳,2025-12-21,23.389125,120.716647,4.4172475e-09
C0U750,龜山島,2025-12-21,24.841667,121.953133,1.8137591e-08
C0R810,內獅,2025-12-21,22.305064,120.642986,0.5501772
C1M390,龍美,2025-12-21,23.406728,120.654417,3.5087762e-09
C2K290,崙內,2025-12-21,23.69525,120.35601,0.000811545
C2FB60,頭櫃山,2025-12-21,24.129842,120.858925,2.5377442e-09
C1H840,國三N238K,2025-12-21,23.841008,120.707711,1.5208027e-09
CAQ030,崎峰國小,2025-12-21,22.42565,120.49521,0.9822674
C2E520,大湖,2025-12-21,24.414939,120.870872,2.9938e-09
467530,阿里山,2025-12-21,23.508208,120.813242,1.2244146e-08
C1E691,南湖,2025-12-21,24.40135,120.837533,2.4930924e-09
C0FA30,梧棲,2025-12-21,24.256003,120.523381,0.7937164
C1V231,高中,2025-12-21,23.134911,120.716711,1.7457052e-09
C0AK30,硬漢嶺,2025-12-21,25.136097,121.426372,2.5225487e-08
C0F9V0,新社,2025-12-21,24.200172,120.815806,1.8856288e-09
C0H890,埔里,2025-12-21,23.972169,120.952425,1.3370626e-09
C0R690,墾丁,2025-12-21,21.966756,120.810269,0.75037444
C0SD20,富山,2025-12-21,22.822383,121.190825,4.966305e-08
C0F0D0,審馬陣,2025-12-21,24.381675,121.4203,2.0701417e-08
C2W030,金門農試所,2025-12-21,24.448431,118.451786,3.5164426e-08
C0R820,白鷺,2025-12-21,22.454275,120.666219,3.8894363e-09
C0FB00,大雪山,2025-12-21,24.254668,121.007374,1.2062161e-08
C1V190,南天池,2025-12-21,23.27403,120.91176,1.356356e-08
C0E940,雪見,2025-12-21,24.42595,121.01347,6.146981e-09
K2E360,苗栗農改場,2025-12-21,24.495722,120.829111,2.03506e-08
CAJ050,海口故事園區,2025-12-21,23.57543,120.14121,0.9941521
C2K280,四湖,2025-12-21,23.6304,120.22717,0.5832761
C2H9D0,三隻寮,2025-12-21,24.093078,120.861578,2.2398206e-09
C0O990,媽廟,2025-12-21,22.99175,120.293525,0.9588277
C0D480,打鐵坑,2025-12-21,24.849664,121.150789,4.4907904e-09
C0Z220,和平林道,2025-12-21,24.343922,121.656317,1.468359e-08
C0TA10,花蓮漁港,2025-12-21,23.995322,121.638331,0.9868123
72C440,桃園農改場,2025-12-21,24.950944,121.030583,2.3658991e-08
C1E711,馬拉邦山,2025-12-21,24.367306,120.901656,2.4830982e-09
C0SB20,富岡,2025-12-21,22.792467,121.192669,0.9748437
C0D560,竹東,2025-12-21,24.767147,121.057881,7.039045e-09
C0F9U0,南屯,2025-12-21,24.137006,120.637969,6.779664e-07
C2SD60,明峰,2025-12-21,22.8671,121.11825,6.463778e-09
C0M720,番路,2025-12-21,23.464657,120.554156,1.1519189e-09
C0F0A0,雪山圈谷,2025-12-21,24.388594,121.236339,3.0139407e-08
C1A9N0,四十份,2025-12-21,24.934158,121.593283,8.755389e-09
C0U760,東澳,2025-12-21,24.52196,121.83318,5.57637e-08
C0X230,鹽水,2025-12-21,23.272621,120.247641,0.09277837
C2H9H0,苗改南投蜂場,2025-12-21,23.852589,120.693481,2.4814364e-09
C2TB70,達谷寮,2025-12-21,23.38,121.35968,4.7328363e-09
C0R950,萬隆國小,2025-12-21,22.507667,120.587817,0.72913414
467540,大武,2025-12-21,22.35572,120.90374,0.31622958
C0V370,古亭坑,2025-12-21,22.893178,120.401947,1.6849501e-08
C1I340,新興橋,2025-12-21,23.563333,120.868728,2.136681e-09
C0SA80,土坂,2025-12-21,22.453108,120.887572,3.4377295e-05
C0R160,鹽埔,2025-12-21,22.739558,120.530778,0.0009676685
C0AC40,大屯山,2025-12-21,25.175675,121.522408,2.6386665e-08
466850,五分山雷達站,2025-12-21,25.071182,121.781205,1.043097e-08
C2H9L0,馬烈霸,2025-12-21,24.1512,121.201772,9.37444e-09
C1AI50,國三N016K,2025-12-21,25.034164,121.619664,8.090048e-09
C2V920,匏子寮,2025-12-21,23.04905,120.55319,1.8779194e-09
C1V600,藤枝,2025-12-21,23.071961,120.757042,5.241181e-09
C1E601,南勢,2025-12-21,24.572486,120.734842,6.5653594e-06
C0O980,新市,2025-12-21,23.061614,120.298197,0.89439446
C0K420,西螺,2025-12-21,23.800407,120.467394,3.464872e-07
C0Z050,佳心,2025-12-21,23.34567,121.21316,7.830725e-09
C0AD30,蘆洲,2025-12-21,25.086594,121.472331,1.2851644e-08
C0V610,梓官,2025-12-21,22.760558,120.267211,0.99918836
K2F750,種苗改良場,2025-12-21,24.225972,120.800917,1.934846e-09
C0UA80,大溪漁港,2025-12-21,24.941801,121.902955,2.0258543e-08
C1AI60,國一39K邊坡,2025-12-21,25.064361,121.383836,6.8077872e-09
C0W150,金寧,2025-12-21,24.457703,118.328989,1.935866e-06
C0R960,內埔,2025-12-21,22.608483,120.570714,0.953691
V2C250,八德合作社,2025-12-21,24.93775,121.266389,9.258935e-09
C2H9S0,龍南,2025-12-21,23.953536,120.833183,2.4451656e-09
C0AH40,平等,2025-12-21,25.129142,121.577086,2.736624e-08
C0R540,佳冬,2025-12-21,22.419456,120.552375,0.31798923
466950,彭佳嶼,2025-12-21,25.627975,122.079744,0.049717054
C0A890,雙溪,2025-12-21,25.036003,121.864242,7.141416e-09
C0C480,桃園,2025-12-21,24.992425,121.323172,7.881943e-09
C0AH50,林口,2025-12-21,25.072181,121.38084,8.757059e-09
A2K360,水試臺西試驗場,2025-12-21,23.717231,120.190522,0.8138302
C2M960,外寮,2025-12-21,23.562643,120.665688,2.5597124e-09
C0F9S0,烏日,2025-12-21,24.107058,120.624103,0.000103928214
C2N180,鹿陶洋,2025-12-21,23.14325,120.48352,1.7998081e-09
C0C490,八德,2025-12-21,24.928708,121.283289,5.150543e-09
C0R190,赤山,2025-12-21,22.592333,120.614306,0.9451896
C0T820,天祥,2025-12-21,24.179597,121.495639,1.4187565e-08
C1F9E1,龍安,2025-12-21,24.1605,120.831961,1.6222305e-09
C2SD50,順那,2025-12-21,23.04166,121.29332,9.985703e-09
C0V820,小林,2025-12-21,23.148408,120.63325,8.514739e-10
C2G870,芳苑,2025-12-21,23.922303,120.320025,0.10576814
C0E850,大河,2025-12-21,24.618069,120.948578,2.3596023e-09
C1U670,寒溪,2025-12-21,24.634,121.71691,5.3050053e-09
C0N020,城西,2025-12-21,23.0568,120.0956,0.9627486
C1Z110,三棧,2025-12-21,24.11557,121.60501,1.3682278e-08
C0R280,檳榔,2025-12-21,22.076078,120.836777,0.99459094
C2H9J0,中台,2025-12-21,23.9996,120.938739,1.3329426e-09
C0F9L0,后里,2025-12-21,24.310436,120.729725,3.776363e-09
467441,高雄,2025-12-21,22.730432,120.312516,0.99970543
C0Z180,新城,2025-12-21,24.040486,121.604878,1.4353763e-08
C0D540,橫山,2025-12-21,24.71116,121.11693,2.725943e-09
C1D420,太閣南,2025-12-21,24.632808,121.160575,6.932717e-09
C1E770,公館,2025-12-21,24.526914,120.830806,2.9274025e-08
CAN130,水試所海水繁養殖中心,2025-12-21,23.120802,120.07968,0.99812764
C1I430,翠華,2025-12-21,24.191961,121.224339,1.1249263e-08
C1M400,菜瓜坪,2025-12-21,23.251928,120.576103,1.0676413e-09
C0G730,二林,2025-12-21,23.903325,120.376081,0.20980385
72M360,南改義竹分場,2025-12-21,23.360694,120.279361,0.05160201
V2K620,麥寮合作社,2025-12-21,23.753836,120.294783,0.0009795472
C0Z070,舞鶴,2025-12-21,23.46811,121.37407,3.5256214e-09
C0B040,大武崙,2025-12-21,25.166676,121.706993,8.324197e-09
C1Z030,紅葉,2025-12-21,23.493119,121.338806,3.2956748e-09
C1I050,丹大,2025-12-21,23.753747,121.141147,1.4665817e-08
C0I080,信義,2025-12-21,23.689694,120.851036,1.1658798e-09
C2TB80,庄子底,2025-12-21,23.71794,121.49438,4.689695e-09
C0D750,樂山林道6k,2025-12-21,24.49999,121.08773,1.0839915e-08
C2M920,朴子農改,2025-12-21,23.469889,120.259383,0.0069436305
C2A880,福隆,2025-12-21,25.017842,121.942083,1.2763311e-08
C0Z160,鳳林,2025-12-21,23.746114,121.453411,4.6027786e-09
C0UB80,翠峰林道6K,2025-12-21,24.49773,121.568625,2.0975943e-08
C0V210,復興,2025-12-21,23.222403,120.806089,2.2626208e-09
C0H990,昆陽,2025-12-21,24.121322,121.273642,2.2037677e-08
C0R741,獅子,2025-12-21,22.202308,120.705236,0.99914753
C0S710,鹿野,2025-12-21,22.917711,121.122994,5.2731073e-09
C0I530,小奇萊,2025-12-21,24.131764,121.295717,2.2472246e-08
C0FA70,大雪山埡口,2025-12-21,24.26867,121.03062,1.642619e-08
C2K630,荷苞,2025-12-21,23.657717,120.595144,2.7406864e-07
C0Z080,富源,2025-12-21,23.587642,121.378225,5.2012665e-09
C2M9E0,旺來山,2025-12-21,23.555153,120.486463,6.5919434e-09
C0SB10,美和,2025-12-21,22.682078,121.060236,0.0006258764
C2K620,馬光農場,2025-12-21,23.721453,120.378864,7.4866335e-07
C1I140,卡奈托灣,2025-12-21,23.754364,121.087872,5.70409e-09
C0I520,玉山風口,2025-12-21,23.470489,120.955994,3.444767e-08
C1G691,下水埔,2025-12-21,23.816114,120.5676,2.1017135e-07
C0X110,臺南市南區,2025-12-21,22.961189,120.188378,0.99597687
C0V680,仁武,2025-12-21,22.701083,120.347722,0.99953216
C2G840,北斗,2025-12-21,23.877586,120.514222,0.0002791332
C2TB90,長橋,2025-12-21,23.6874,121.46186,3.6453294e-09
C0R900,竹坑,2025-12-21,22.1385,120.7022,0.99497205
C0G860,社頭,2025-12-21,23.897647,120.5862,0.00019138459
C0X150,安定,2025-12-21,23.102614,120.227839,0.8041429
C0R590,里港,2025-12-21,22.77919,120.49459,0.00010036953
C0E610,馬都安,2025-12-21,24.451272,120.930192,2.7299807e-09
C0E550,明德,2025-12-21,24.583486,120.885411,5.8472494e-09
C0R150,三地門,2025-12-21,22.709889,120.639944,0.00012724927
C0G910,花壇,2025-12-21,24.032076,120.549461,0.00053790456
C1D400,鳥嘴山,2025-12-21,24.71909,121.28387,5.645383e-09
C0K500,元長,2025-12-21,23.64981,120.315024,0.0015267463
C0F0B0,石岡,2025-12-21,24.276061,120.777644,3.0887863e-09
C2V250,甲仙,2025-12-21,23.080106,120.591758,1.4219417e-09
C0SA20,金崙山,2025-12-21,22.567419,120.959667,2.3587035e-08
C0V350,溪埔,2025-12-21,22.738578,120.446797,0.0016337571
C0M660,溪口,2025-12-21,23.604131,120.403569,1.7172194e-08
C1S880,壽卡,2025-12-21,22.238911,120.858903,1.1489878e-08
72D680,桃改新埔分場,2025-12-21,24.834444,121.066111,1.6984957e-08
