站號,站名,日期,lat,lon,BLBTSLS
C0R710,龍磐,2025-11-03,21.931672,120.838942,0.9884641
C1F9D1,白毛台,2025-11-03,24.158325,120.886933,1.0106341e-08
C0G940,竹塘,2025-11-03,23.848253,120.386764,0.9161773
467590,恆春,2025-11-03,22.003897,120.746339,0.9702704
C1O850,環湖,2025-11-03,23.148617,120.418633,0.010833109
C0U710,太平山,2025-11-03,24.505486,121.525656,1.4569912e-07
C0E820,獅潭,2025-11-03,24.539133,120.920042,0.2858265
C0V880,興達,2025-11-03,22.8778,120.2127,0.6635317
C0S890,關山,2025-11-03,23.0395,121.175017,0.9613145
C0SB30,新蘭,2025-11-03,22.869214,121.223228,0.32761207
C2R970,屏科大,2025-11-03,22.648275,120.619247,0.9506411
C1Z130,銅門,2025-11-03,23.965694,121.492842,0.99926805
C0AD40,土城,2025-11-03,24.973208,121.445169,0.99999034
CAN140,六官養殖協會,2025-11-03,23.22881,120.29962,0.9383063
C0X180,山上,2025-11-03,23.0757,120.363253,0.09241568
C0F9Z0,雪山東峰,2025-11-03,24.388792,121.268675,2.5769962e-08
C1M480,獨立山,2025-11-03,23.537022,120.607797,1.9718713e-09
C0X220,學甲,2025-11-03,23.230367,120.182187,0.7772835
467650,日月潭,2025-11-03,23.881325,120.90805,7.971523e-09
C0K600,箔子寮,2025-11-03,23.6197,120.14,0.99945205
C0G830,埤頭,2025-11-03,23.866003,120.452806,0.99510586
C0S950,七塊厝,2025-11-03,22.954453,121.229922,0.019042235
467110,金門,2025-11-03,24.407306,118.289281,0.9999138
C0AH80,深坑,2025-11-03,25.002703,121.628328,0.9999909
C0A970,三貂角,2025-11-03,25.007606,122.002058,0.9952399
C2D730,寶山農場,2025-11-03,24.732444,120.976153,0.12157667
C0K430,褒忠,2025-11-03,23.690938,120.303634,0.2852411
467480,嘉義,2025-11-03,23.495925,120.432906,0.9909911
C0V400,阿公店,2025-11-03,22.804194,120.355528,0.9979505
C0E960,觀霧分站,2025-11-03,24.505781,121.113921,1.41541845e-08
467550,玉山,2025-11-03,23.48718,120.95943,2.240518e-08
C0R440,大漢山,2025-11-03,22.405264,120.753181,7.6629256e-08
C0K280,四湖,2025-11-03,23.630414,120.227125,0.9992914
C1F9B1,桐林,2025-11-03,24.066172,120.735194,0.05378017
C2H9U0,鳳鵬,2025-11-03,23.763919,120.788061,4.1166288e-05
C0K390,土庫,2025-11-03,23.679029,120.395574,0.85451937
C1I450,望鄉山,2025-11-03,23.594153,120.944286,1.1312866e-08
C0E910,海埔,2025-11-03,24.648767,120.772435,0.7206178
B2E890,畜試北區分所,2025-11-03,24.527806,120.770972,0.19498782
C0R750,四林格山,2025-11-03,22.076989,120.802439,0.2183133
C0F0C0,中坑,2025-11-03,24.248517,120.903319,4.5088653e-09
C1I121,大鞍,2025-11-03,23.678381,120.760017,3.5224959e-09
72U480,花改蘭陽分場,2025-11-03,24.686306,121.716583,6.059151e-07
C0A770,科教館,2025-11-03,25.096356,121.516507,0.999979
C0AJ60,六塊厝,2025-11-03,25.24,121.4481,0.99143887
C0R620,墾雷,2025-11-03,21.900836,120.855269,0.9914859
467420,永康,2025-11-03,23.038386,120.2367,0.94311035
C0I410,名間,2025-11-03,23.837053,120.701447,9.70632e-05
A2C560,農工中心,2025-11-03,24.985917,121.239833,0.9998545
C0V740,旗山,2025-11-03,22.888614,120.483597,0.98984796
C0Z061,玉里,2025-11-03,23.3215,121.339656,0.07651717
C0S840,南田,2025-11-03,22.279725,120.889208,0.69050556
C1I470,杉林溪,2025-11-03,23.639517,120.786444,3.968517e-09
C1X040,東原,2025-11-03,23.291597,120.463822,0.0031100784
C0R660,枋寮,2025-11-03,22.367722,120.590647,0.9759273
C1R120,上德文,2025-11-03,22.763272,120.704442,2.6618332e-08
C0K450,大埤,2025-11-03,23.646074,120.431537,0.9962397
C0UA00,土場,2025-11-03,24.576533,121.495333,0.9891041
467080,宜蘭,2025-11-03,24.763975,121.756528,9.419759e-07
C0N030,四草,2025-11-03,23.0235,120.1116,0.6926644
467410,臺南,2025-11-03,22.99328,120.20492,0.771925
C0V650,彌陀,2025-11-03,22.783806,120.246361,0.82982284
C0D660,新竹市東區,2025-11-03,24.798681,120.986942,0.14769113
82S580,茶改東部分場,2025-11-03,22.907694,121.130139,0.51968306
C0SB40,興隆,2025-11-03,22.913661,121.257469,0.339526
467050,新屋,2025-11-03,25.006725,121.047492,0.15876903
C0C710,大溪永福,2025-11-03,24.892936,121.324975,0.9999676
C0FA20,溫寮,2025-11-03,24.372177,120.583125,0.967503
C0V640,湖內,2025-11-03,22.887139,120.2445,0.71000326
C0R910,下寮,2025-11-03,22.3929,120.5548,0.9759273
C0Z020,明里,2025-11-03,23.208717,121.262342,0.16009209
C0M770,嘉義梅山,2025-11-03,23.585398,120.555587,0.9669248
C0C660,楊梅,2025-11-03,24.912375,121.143047,0.99988884
C1E511,新開,2025-11-03,24.347703,120.827019,0.00085508183
G2F820,農試所(霧峰),2025-11-03,24.031261,120.688133,0.022450252
C1I070,和社,2025-11-03,23.591131,120.888861,7.3397673e-06
C0TA80,立霧山,2025-11-03,24.183258,121.641899,1.8084968e-07
C2F000,大肚,2025-11-03,24.15295,120.572117,0.0032366032
C1S850,豐南,2025-11-03,23.122139,121.262389,5.229376e-07
C2A920,富貴角,2025-11-03,25.263783,121.565258,0.9992543
CAH030,茶改場竹圍站,2025-11-03,23.860083,120.637528,8.0435534e-08
C0T960,光復,2025-11-03,23.660694,121.424964,0.9050059
C0F9M0,豐原,2025-11-03,24.254322,120.720692,0.0006320327
C0R720,旭海,2025-11-03,22.205403,120.887614,0.39199826
C0V710,苓雅,2025-11-03,22.622742,120.330669,0.36250642
C0C740,觀音工業區,2025-11-03,25.064764,121.114856,0.76854074
CAC040,拉拉山,2025-11-03,24.699317,121.427133,1.5919981e-06
C0V790,萬山,2025-11-03,22.905944,120.688056,0.9937164
U2HA30,臺大和社,2025-11-03,23.590856,120.888864,7.3397673e-06
C2H9K0,屯原,2025-11-03,24.067969,121.209389,7.3928423e-09
C0AJ90,澳底,2025-11-03,25.0552,121.9253,0.90133095
C0Z100,東華,2025-11-03,23.89525,121.549833,0.99705625
C0G970,三豐,2025-11-03,23.882,120.2895,0.98314786
V2K610,大庄合作社,2025-11-03,23.8068,120.367939,0.45116755
C0V900,汕尾,2025-11-03,22.4782,120.4151,0.95032614
C1R630,龍泉,2025-11-03,22.66701,120.59091,0.905396
C1AC50,關渡,2025-11-03,25.133486,121.469331,0.999925
C0C800,四稜,2025-11-03,24.64733,121.4293,1.3768371e-05
C0F9I0,神岡,2025-11-03,24.272481,120.658314,0.059188936
C0K460,斗南,2025-11-03,23.678734,120.478359,0.99631023
C2O810,曾文,2025-11-03,23.219681,120.497328,0.0060304897
467280,後龍,2025-11-03,24.648563,120.831834,0.66644245
C1F9J1,清水林,2025-11-03,24.071242,120.820419,2.6971672e-09
C2A650,火燒寮,2025-11-03,25.002719,121.742892,0.99427986
466930,竹子湖,2025-11-03,25.162078,121.544547,0.0068027973
C1I220,樟湖,2025-11-03,23.905333,120.846983,1.5321693e-09
C0I390,仁愛,2025-11-03,24.022122,121.132206,2.6382223e-09
C0Z300,東里,2025-11-03,23.26853,121.30547,0.4665942
C1V590,新發,2025-11-03,23.057019,120.646064,1.8051448e-08
C0K510,水林,2025-11-03,23.572924,120.24597,0.37149754
72S590,東改賓朗果園,2025-11-03,22.813889,121.071278,0.60209256
82A750,茶改北部分場,2025-11-03,24.955778,121.631222,0.99953496
C1A750,石碇服務區,2025-11-03,25.00872,121.646242,0.9999614
C0X300,鹿寮,2025-11-03,23.386047,120.477331,0.9935276
G2AI50,關渡,2025-11-03,25.11575,121.492,0.935128
C0K590,雲林東勢,2025-11-03,23.674192,120.255721,0.31758305
C0A570,桶後,2025-11-03,24.848222,121.597992,0.37828898
C1S800,華源,2025-11-03,22.657883,121.02325,0.24965145
C0G720,溪州,2025-11-03,23.851589,120.499093,0.9957148
C1V160,達卡努瓦,2025-11-03,23.279811,120.705319,2.440995e-09
C2M410,馬頭山,2025-11-03,23.324361,120.582017,1.6463975e-05
C0V850,蚵仔寮,2025-11-03,22.7256,120.2527,0.9851856
C0S740,池上,2025-11-03,23.119628,121.209469,0.6159038
C1V390,尖山,2025-11-03,22.813153,120.367789,0.9981672
C0AH70,松山,2025-11-03,25.04871,121.55042,0.9999794
C0N010,鯤鯓國小,2025-11-03,23.1879,120.0889,0.9421205
C0R550,新埤,2025-11-03,22.467947,120.582894,0.95323
C0SA60,知本（水試所）,2025-11-03,22.702394,121.082761,0.49943885
C0T9I0,豐濱,2025-11-03,23.583897,121.514806,0.7806072
C0UB00,淡江大學蘭陽校園,2025-11-03,24.823239,121.730383,0.01192498
C0W240,九宮,2025-11-03,24.423753,118.240186,0.9999166
C0T9N0,富里,2025-11-03,23.171639,121.249378,0.31551507
U2HA50,臺大竹山,2025-11-03,23.756972,120.681556,0.52662086
C0V840,鳳鼻頭,2025-11-03,22.5083,120.3591,0.891231
C0X140,西港,2025-11-03,23.125608,120.203108,0.8922184
72D080,桃改五峰分場,2025-11-03,24.612194,121.157167,2.395291e-07
C2H9P0,伊拿谷,2025-11-03,23.963211,121.088264,2.6234448e-09
C2H9F0,柑林,2025-11-03,24.018658,120.847072,8.2444745e-07
C0TA20,加灣,2025-11-03,24.082025,121.608944,0.9804749
C0V530,阿蓮,2025-11-03,22.883208,120.327508,0.9870977
C0FB30,八仙山苗圃,2025-11-03,24.192719,121.001366,4.975215e-09
C1O880,關山,2025-11-03,23.173397,120.594092,4.587125e-06
C0E791,卓蘭,2025-11-03,24.3126,120.8244,1.080661e-05
C1I030,武界,2025-11-03,23.913225,121.052483,2.3482791e-09
C0R520,崁頂,2025-11-03,22.514781,120.506914,0.76756567
C0R341,牡丹,2025-11-03,22.130036,120.792639,0.21081439
C0R930,萬丹,2025-11-03,22.5885,120.4851,0.98962575
C0S760,紅石,2025-11-03,23.069131,121.126219,1.2611559e-08
C2C410,中央大學,2025-11-03,24.967652,121.185165,0.9998666
C1M610,石磐龍,2025-11-03,23.496606,120.663506,5.5491203e-09
C0C790,東眼山,2025-11-03,24.8284,121.40888,0.5501484
C0UA10,鴛鴦湖,2025-11-03,24.590269,121.412228,4.887389e-07
V2C260,八德蔬果,2025-11-03,24.978508,121.281819,0.99998003
C0R800,丹路,2025-11-03,22.204481,120.750989,0.59610647
C0G920,永靖,2025-11-03,23.924703,120.547533,0.9964885
C2M950,太和,2025-11-03,23.538372,120.702961,4.177566e-09
C1A630,下盆,2025-11-03,24.771003,121.538622,1.1239772e-06
B2N890,畜產試驗所,2025-11-03,23.058972,120.336406,0.9769186
C0UA30,白嶺,2025-11-03,24.527819,121.519031,6.233676e-07
C1V580,溪南(特生中心),2025-11-03,23.084972,120.788475,5.0061706e-09
C1T970,大農,2025-11-03,23.615233,121.413331,0.5491895
C0R650,竹田,2025-11-03,22.58486,120.54344,0.9598712
C1H900,清流,2025-11-03,24.080775,120.962997,1.7622954e-09
C1C510,水尾,2025-11-03,24.940081,121.087161,0.16780074
C0F9X0,大雅(中科園區),2025-11-03,24.21528,120.62445,0.78912866
C0SB60,白守蓮,2025-11-03,23.126769,121.401914,0.6142733
C0O970,虎頭埤,2025-11-03,23.021375,120.347878,0.1465375
C0C730,中大臨海站,2025-11-03,24.966126,121.008581,0.17113903
C0X250,新營,2025-11-03,23.310689,120.316681,0.9598984
C0V700,三民,2025-11-03,22.645017,120.311233,0.23738393
C0U870,大礁溪,2025-11-03,24.791042,121.675047,2.121225e-06
C0E870,高鐵苗栗,2025-11-03,24.60725,120.826094,0.691793
A2K570,古坑花卉中心,2025-11-03,23.63353,120.55239,0.9439621
C0TA30,鹽寮,2025-11-03,23.845606,121.592664,0.996309
C0M860,新美,2025-11-03,23.338017,120.683169,5.687902e-09
C1E701,八卦,2025-11-03,24.491756,120.927619,8.324492e-07
C0I420,國姓,2025-11-03,24.037803,120.855072,3.4093915e-07
C2D720,關西工作站,2025-11-03,24.757275,121.184792,0.9660467
C0S960,香蘭,2025-11-03,22.587569,120.993375,0.2793642
467620,蘭嶼,2025-11-03,22.0369,121.55843,0.87889445
C0R260,春日,2025-11-03,22.370361,120.628306,0.9929745
72G600,臺中農改場,2025-11-03,24.003028,120.534389,0.99826384
C0Z210,瑞穗,2025-11-03,23.5239,121.39021,0.9269087
C0M820,達邦,2025-11-03,23.453994,120.749517,2.8674199e-09
C0V860,南寮,2025-11-03,22.7616,120.2339,0.9851295
C0G740,大城,2025-11-03,23.852487,120.320935,0.9817608
C0R920,塭仔,2025-11-03,22.4169,120.5197,0.97350365
C0R470,高樹,2025-11-03,22.826389,120.600806,0.9962758
C0R680,佳樂水,2025-11-03,21.993578,120.861633,0.9892167
C1O870,大棟山,2025-11-03,23.31157,120.52226,1.6432855e-09
C0D360,梅花,2025-11-03,24.678347,121.208558,0.9986522
C0Z190,富世,2025-11-03,24.14743,121.6297,0.9972296
C0AI10,屈尺,2025-11-03,24.92184,121.54475,0.9999754
B2U990,畜試東區分所,2025-11-03,24.669039,121.832561,0.13229857
C0SB80,長濱漁港,2025-11-03,23.313644,121.459994,0.7542788
C0TA50,和仁,2025-11-03,24.241394,121.712472,0.05977064
C0V910,大樹,2025-11-03,22.684645,120.432803,0.99489516
C1R610,西大武山,2025-11-03,22.617719,120.7322,2.0125519e-08
C0G900,線西,2025-11-03,24.143358,120.443536,0.9968925
C0M700,竹崎,2025-11-03,23.526178,120.555508,0.99191403
C2E880,三義,2025-11-03,24.405478,120.749819,0.00036027617
C0C720,竹圍,2025-11-03,25.112692,121.239824,0.935128
C0F9P0,清水,2025-11-03,24.312297,120.562242,0.99180305
C0Z150,吉安光華,2025-11-03,23.930925,121.595153,0.9882446
C0FA80,小雪山天池,2025-11-03,24.28025,121.02627,1.6264574e-08
467300,東吉島,2025-11-03,23.25727,119.66762,0.99615014
C1D640,外坪(五指山),2025-11-03,24.644447,121.090961,0.087822445
C0F9O0,潭子,2025-11-03,24.213106,120.703933,0.01664529
C2H9R0,卓社,2025-11-03,23.887894,121.000086,3.757997e-09
72T250,花蓮農改場,2025-11-03,23.975222,121.563889,0.93531317
C0E780,銅鑼,2025-11-03,24.489681,120.790853,0.6055563
C1T950,太安,2025-11-03,23.666719,121.370128,9.377071e-08
C0E830,苑裡,2025-11-03,24.439714,120.653053,0.9604392
467270,田中,2025-11-03,23.873803,120.581286,0.7023357
C0SA10,檳榔四格山,2025-11-03,22.810031,121.109308,0.7425636
C1T830,布洛灣,2025-11-03,24.17184,121.57127,0.71278834
C0F970,大坑,2025-11-03,24.173142,120.722289,0.23404527
C1U920,思源,2025-11-03,24.393125,121.347214,8.760605e-08
C0A931,三和,2025-11-03,25.233153,121.595236,0.9994106
C0I010,廬山,2025-11-03,24.033311,121.181808,2.0420072e-09
C2M940,日野賀,2025-11-03,23.434056,120.727169,2.6269598e-09
C0R860,鼻頭,2025-11-03,22.1043,120.8979,0.8054119
C0UB20,壯圍,2025-11-03,24.7359,121.8163,8.570011e-07
C0R790,九棚,2025-11-03,22.14195,120.889281,0.4659394
C0W110,東莒,2025-11-03,25.9652,119.98069,0.9983466
C1U930,粉鳥林,2025-11-03,24.497088,121.842479,0.5833527
C1I211,蘆竹湳,2025-11-03,23.934019,120.811994,3.2730665e-09
C0S830,長濱,2025-11-03,23.286817,121.411975,0.0019640753
C1F9F1,伯公龍,2025-11-03,24.272392,120.849047,2.5558603e-07
C0UB90,太平山莊,2025-11-03,24.494171,121.536209,1.4366793e-07
C0E810,西湖,2025-11-03,24.562947,120.7485,0.97822636
C1I440,新高口,2025-11-03,23.478744,120.878939,7.629234e-09
C0O840,王爺宮,2025-11-03,23.222064,120.40085,0.99672407
C0T9G0,鳳林山,2025-11-03,23.735269,121.420131,4.491666e-08
C0X080,佳里,2025-11-03,23.173039,120.145086,0.9421205
C0FB70,大甲溪埔,2025-11-03,24.370625,120.620067,0.96501577
C0Z310,清水斷崖,2025-11-03,24.218294,121.689142,0.0002055373
C0M680,太保,2025-11-03,23.455062,120.331455,0.9915555
C1S820,金峰,2025-11-03,22.590969,120.933236,0.6144907
C0AD10,八里,2025-11-03,25.150211,121.403947,0.935128
C2K240,草嶺,2025-11-03,23.59555,120.693461,4.69322e-09
C1SA70,都蘭,2025-11-03,22.87794,121.226881,0.339526
C0K440,二崙,2025-11-03,23.772797,120.408944,0.99666965
C1A760,坪林交控,2025-11-03,24.94284,121.713442,0.99643356
C0F9N0,大里,2025-11-03,24.092464,120.701378,0.15644965
C0SA90,達仁林場,2025-11-03,22.264347,120.823972,0.9466102
C1R290,石門山,2025-11-03,22.112611,120.756597,0.122249365
42HA10,萬大發電廠,2025-11-03,23.978875,121.139639,1.1534161e-09
C0R890,山海,2025-11-03,21.9878,120.7091,0.99848795
C0T9A0,月眉山,2025-11-03,23.809928,121.539828,2.6790985e-07
C0AC70,信義,2025-11-03,25.037822,121.564597,0.9999794
C0K560,棋山,2025-11-03,23.68645,120.603417,0.90344197
C2FB50,出雲,2025-11-03,24.206469,120.902794,3.433345e-09
C1Z240,中平林道,2025-11-03,23.42115,121.26763,4.532061e-07
U2H480,溪頭,2025-11-03,23.670306,120.798194,2.6626952e-09
C0M880,好美里,2025-11-03,23.3364,120.138,0.3343117
C0T9E0,大坑,2025-11-03,23.880628,121.581981,1.43772795e-05
C0K530,臺西,2025-11-03,23.701547,120.197559,0.99946386
C1E900,國一N128K,2025-11-03,24.560997,120.844186,0.025355447
C0AJ50,水湳洞,2025-11-03,25.123695,121.862238,0.9529727
C0AI20,白沙灣,2025-11-03,25.283128,121.519058,0.99368
C2V310,美濃,2025-11-03,22.898792,120.51907,0.98830795
C0A860,大坪,2025-11-03,25.165914,121.632969,0.9961411
C1U850,觀音海岸,2025-11-03,24.38319,121.77856,2.629135e-07
C2K610,草嶺石壁,2025-11-03,23.602469,120.707731,4.47516e-09
C0U950,鶯子嶺,2025-11-03,24.89754,121.79244,9.8702476e-05
C0O900,善化,2025-11-03,23.112883,120.297219,0.9702036
C0K550,蔦松,2025-11-03,23.514319,120.229736,0.5266719
E2P980,林試六龜中心,2025-11-03,22.991703,120.645722,0.988406
C0E590,通霄,2025-11-03,24.471892,120.704622,0.7956463
C1I310,西巒,2025-11-03,23.754486,120.883956,1.8253218e-09
C0A550,泰平,2025-11-03,24.971197,121.823711,0.99705726
C0I360,水里,2025-11-03,23.812553,120.849792,0.010421878
C0R830,高士,2025-11-03,22.121825,120.836781,0.11948176
C1I101,溪頭,2025-11-03,23.661789,120.807647,2.9384102e-09
C0AJ20,野柳,2025-11-03,25.20703,121.690021,0.9986494
C0B060,暖暖,2025-11-03,25.0957,121.7403,0.9996935
C1H920,長豐,2025-11-03,24.102039,120.879897,2.314034e-09
C0V360,內門,2025-11-03,22.975481,120.466769,0.004092055
C0R850,林邊,2025-11-03,22.4634,120.5339,0.95026577
C0E930,龍鳳,2025-11-03,24.700034,120.859125,0.9399089
C0U910,冬山,2025-11-03,24.63373,121.7937,0.13229857
C1E721,泰安,2025-11-03,24.489017,120.968036,9.340475e-09
82H320,茶改中部分場,2025-11-03,23.875611,120.913583,1.9890063e-08
C0M750,布袋,2025-11-03,23.380878,120.167789,0.29645517
C1S860,利嘉,2025-11-03,22.809417,121.050528,4.4066045e-08
E2S980,林試太麻里1,2025-11-03,22.598922,120.980044,0.44869244
C0X170,關廟,2025-11-03,22.963017,120.327797,0.9886403
C0V720,林園,2025-11-03,22.507747,120.394511,0.90053165
C1I510,線浸林道,2025-11-03,23.761508,120.832956,3.0963483e-09
C0D690,外湖,2025-11-03,24.917735,120.968711,0.13205622
C0C750,新興坑尾,2025-11-03,25.0061,121.0971,0.15523948
B2Q810,畜試南區分所,2025-11-03,21.945583,120.802167,0.9893973
C0S790,金崙,2025-11-03,22.538122,120.966875,0.71704495
C0AH90,福山植物園,2025-11-03,24.760717,121.58135,0.15441364
C0I540,奇萊稜線,2025-11-03,24.109231,121.326456,6.348706e-08
C0M850,表湖,2025-11-03,23.24186,120.64166,3.3610945e-08
C0S770,大溪山,2025-11-03,22.478475,120.943325,0.9000989
C0AG80,中和,2025-11-03,24.991622,121.491792,0.99999034
C0T790,大禹嶺,2025-11-03,24.186117,121.316086,3.2397768e-08
C0T9B0,水源,2025-11-03,23.991861,121.537169,0.00036476008
C0R840,牡丹池山,2025-11-03,22.168389,120.841225,0.08858831
C1I131,桶頭,2025-11-03,23.641944,120.654117,0.0003285382
CAL110,布袋國中,2025-11-03,23.35893,120.18026,0.29645517
467571,新竹,2025-11-03,24.827853,121.014219,0.11517474
C0Z290,赤柯山,2025-11-03,23.36893,121.38293,4.702066e-08
C0X280,將軍,2025-11-03,23.214999,120.13577,0.76746166
C0S690,太麻里,2025-11-03,22.60902,120.98533,3.4656784e-07
C0U880,北關,2025-11-03,24.9072,121.8734,0.9938161
C0G810,埔心,2025-11-03,23.947633,120.525456,0.99647945
C0U970,大福,2025-11-03,24.80064,121.81389,1.1817851e-06
C2H9N0,仁愛東眼,2025-11-03,24.026875,121.1205,2.0555748e-09
C1E670,南礦,2025-11-03,24.538278,121.002836,1.6927842e-08
C0M520,東後寮,2025-11-03,23.369908,120.248065,0.29942608
C1E461,松安,2025-11-03,24.397972,120.986022,1.1800735e-08
C2N160,西拉雅風管處,2025-11-03,23.189481,120.335297,0.987568
C2M970,碧湖,2025-11-03,23.568632,120.624165,6.1746306e-09
C0A640,石碇,2025-11-03,24.993969,121.662917,0.9999718
E2S960,林試太麻里2,2025-11-03,22.598,120.99775,0.2735392
C0F9Y0,桃山,2025-11-03,24.432739,121.303808,3.6078752e-08
C1I020,萬大,2025-11-03,23.979817,121.132261,2.596117e-09
C0U940,羅東,2025-11-03,24.68184,121.74934,6.765958e-07
C0M650,朴子,2025-11-03,23.43463,120.23902,0.3283922
C1I500,大尖山,2025-11-03,23.858572,120.994889,4.684554e-09
C0FB40,中橫21.6k,2025-11-03,24.2499,121.1455,3.0310723e-09
C0G820,田尾,2025-11-03,23.901669,120.509389,0.99648625
E2K600,四湖植物園,2025-11-03,23.676986,120.163433,0.9992914
C0S730,綠島,2025-11-03,22.6672,121.47533,0.9944111
12Q970,東港工作站,2025-11-03,22.479997,120.466058,0.95053554
C0E430,南庄,2025-11-03,24.601775,121.000214,0.21698439
C1TA00,太魯閣,2025-11-03,24.15773,121.6236,0.99834466
466920,臺北,2025-11-03,25.037658,121.514853,0.9999794
C0R600,舊泰武,2025-11-03,22.588194,120.664944,5.4874953e-09
C1I260,北坑,2025-11-03,23.9246,121.006903,2.697908e-09
466910,鞍部,2025-11-03,25.182586,121.529731,0.6135823
C1I230,九份二山,2025-11-03,23.961944,120.845,3.729449e-09
C2A660,瑞芳,2025-11-03,25.113169,121.801147,0.9849828
C0R270,琉球嶼,2025-11-03,22.332244,120.362236,1.2821816e-07
C1T990,高寮,2025-11-03,23.394239,121.356808,0.8531751
C0G620,芬園,2025-11-03,24.015678,120.6213,0.0069991346
C1Z140,荖溪,2025-11-03,23.890575,121.45964,1.2160191e-07
C1I201,中心崙,2025-11-03,23.728722,120.712097,6.9745916e-08
C1I400,凌霄,2025-11-03,24.018778,121.004456,2.0507385e-09
C1M640,十字,2025-11-03,23.492153,120.753683,1.2126822e-08
G2P820,農試鳳山分所,2025-11-03,22.646611,120.356083,0.23750441
C0Z270,蕃薯寮,2025-11-03,23.73835,121.540108,6.6526565e-07
C0FB10,出雲山苗圃,2025-11-03,24.23105,120.90475,4.459269e-09
C0F9Q0,外埔,2025-11-03,24.347817,120.705686,0.79458743
C0K580,高鐵雲林,2025-11-03,23.737456,120.417944,0.98535883
C2I090,鳳凰,2025-11-03,23.728081,120.787347,1.587051e-08
C0U990,員山,2025-11-03,24.74435,121.72247,7.5905825e-07
C0V770,大社,2025-11-03,22.730306,120.346639,0.98858756
C0X120,麻豆,2025-11-03,23.183289,120.248611,0.95539224
C0C670,龍潭,2025-11-03,24.870056,121.221389,0.9998268
C0D680,香山濕地,2025-11-03,24.783581,120.914988,0.17641334
C0S980,勝林山,2025-11-03,22.430439,120.8938,0.34469888
C0V730,大寮,2025-11-03,22.605614,120.395717,0.37005982
C0R570,麟洛,2025-11-03,22.65078,120.52719,0.9932039
C2M930,石卓,2025-11-03,23.478744,120.702264,1.047653e-08
C0G9B0,和美,2025-11-03,24.105169,120.492131,0.9846599
CAG100,王功漁港,2025-11-03,23.96824,120.32586,0.93299425
C0X290,北門,2025-11-03,23.267772,120.125481,0.77061725
C2F930,大甲,2025-11-03,24.347667,120.640403,0.9654294
C0D650,湖口,2025-11-03,24.904794,121.043628,0.1560484
C0E420,竹南,2025-11-03,24.708978,120.888897,0.93094856
C0U780,五結,2025-11-03,24.68637,121.79794,8.570011e-07
C1I250,鯉潭,2025-11-03,23.961922,120.991131,7.545976e-09
C0R130,阿禮,2025-11-03,22.742908,120.743678,4.5252264e-09
C0X100,臺南市北區,2025-11-03,23.010394,120.194228,0.7219906
C0S920,金峰嘉蘭,2025-11-03,22.594789,120.960825,0.47049168
C0V490,新興,2025-11-03,22.627422,120.298803,0.36229646
C0F9K0,大安,2025-11-03,24.345061,120.588025,0.9663239
467290,古坑,2025-11-03,23.633639,120.551889,0.9439621
C2E970,八甲,2025-11-03,24.535811,120.795983,0.0926635
C0V440,鳳山,2025-11-03,22.646653,120.356122,0.23750454
C1T940,大觀,2025-11-03,23.714206,121.373133,8.163601e-08
C0E740,造橋,2025-11-03,24.637056,120.864778,0.6913042
C0R100,尾寮山,2025-11-03,22.833111,120.683889,2.613258e-08
A2K630,臺大雲林校區,2025-11-03,23.730628,120.423903,0.98537326
467990,馬祖,2025-11-03,26.169467,119.923158,0.9992339
C0D580,寶山,2025-11-03,24.735006,121.025192,0.80692625
E2P990,林試扇平站,2025-11-03,22.9677,120.6857,2.0097694e-07
C0AI30,三重,2025-11-03,25.057328,121.500629,0.999979
C0AH00,汐止,2025-11-03,25.066881,121.658778,0.9999794
C1Z040,立山,2025-11-03,23.443356,121.327375,1.3547228e-06
466881,新北,2025-11-03,24.959207,121.525196,0.99999064
C0W130,花嶼,2025-11-03,23.40007,119.32276,0.98344886
C0A950,鼻頭角,2025-11-03,25.129036,121.923372,0.7476499
C0K470,林內,2025-11-03,23.748675,120.609642,0.94327134
C2F990,摩天嶺,2025-11-03,24.322458,120.936819,5.7457035e-09
82C160,茶改場,2025-11-03,24.908472,121.185333,0.9999195
C0Z320,清水林道,2025-11-03,23.27125,121.188272,1.5739114e-07
C0R760,南仁湖,2025-11-03,22.084681,120.863353,0.122249365
C0M670,大林,2025-11-03,23.600616,120.45841,0.9962808
C0M800,茶山,2025-11-03,23.299075,120.664767,1.555592e-08
C0A9C0,天母,2025-11-03,25.117494,121.537169,0.9998938
72K220,南改斗南分場,2025-11-03,23.634556,120.477333,0.99630773
72AI40,桃改樹林分場,2025-11-03,24.944503,121.386972,0.99984556
C0S910,蘭嶼燈塔,2025-11-03,22.081197,121.503117,0.9693396
C0B050,八斗子,2025-11-03,25.144754,121.79167,0.9338088
C0U900,內城,2025-11-03,24.71813,121.68766,4.913931e-07
C0X320,柳營,2025-11-03,23.253328,120.375253,0.9941983
C0M790,新港,2025-11-03,23.553269,120.345728,0.51187587
C0F9T0,西屯,2025-11-03,24.179494,120.641275,0.98634726
C0E950,松安,2025-11-03,24.39792,120.98599,1.1800735e-08
C0SA30,都歷,2025-11-03,23.020333,121.323642,0.9243896
C0C620,蘆竹,2025-11-03,25.084275,121.265767,0.66751355
C0R730,大坪頂,2025-11-03,22.024633,120.69355,0.9493644
C0AJ40,石門,2025-11-03,25.273672,121.601198,0.99883646
C0E750,苗栗,2025-11-03,24.564569,120.824575,0.023576248
C0T870,鯉魚潭,2025-11-03,23.935639,121.508944,0.9991766
C1V170,排雲,2025-11-03,23.463619,120.954147,3.6218715e-08
C2H950,中寮,2025-11-03,23.884447,120.766406,5.5885615e-05
C0R350,貓鼻頭,2025-11-03,21.921774,120.7358,0.99462116
C0V660,岡山,2025-11-03,22.797078,120.294958,0.829951
C1H941,雙冬,2025-11-03,23.967378,120.802189,2.5337685e-09
C0AJ70,田寮,2025-11-03,25.2698,121.4886,0.9932336
C0AI00,五股,2025-11-03,25.07445,121.42728,0.9998586
C0Z280,德武,2025-11-03,23.47426,121.41071,0.6881728
C0R700,枋山,2025-11-03,22.246844,120.661086,0.85288393
C0C460,復興,2025-11-03,24.820208,121.352281,0.9998688
E2H360,蓮華池,2025-11-03,23.918333,120.885278,2.0003659e-09
C0M640,中埔,2025-11-03,23.42538,120.5229,0.9924061
C0W140,金沙,2025-11-03,24.488292,118.408778,0.99993616
C2A540,四堵,2025-11-03,24.8926,121.745736,0.98212093
C0ACA0,新莊,2025-11-03,25.051478,121.446756,0.99996525
C0R220,潮州,2025-11-03,22.534361,120.54,0.7924243
U2HA40,臺大內茅埔,2025-11-03,23.689722,120.851117,0.00025924723
467490,臺中,2025-11-03,24.145736,120.684075,0.5642553
C0UB60,明池,2025-11-03,24.650688,121.475277,1.4885097e-05
C0U960,翠峰湖,2025-11-03,24.510856,121.608044,1.9104155e-07
E2HA20,林試畢祿溪站,2025-11-03,24.226944,121.308522,1.4865094e-08
C0V890,前鎮,2025-11-03,22.5718,120.3117,0.35496503
C1F941,雪嶺,2025-11-03,24.280586,121.026642,1.6264574e-08
C2H9E0,國姓南港,2025-11-03,23.911108,120.846556,1.5061412e-09
C0AC80,文山,2025-11-03,25.00235,121.575728,0.9999909
C0F9R0,龍井,2025-11-03,24.184536,120.528972,0.997385
C0M760,民雄,2025-11-03,23.551754,120.428457,0.9960198
C0UA40,西德山,2025-11-03,24.560647,121.752608,1.1835706e-06
C1T920,中興,2025-11-03,23.769503,121.498653,0.90620977
C0D550,雪霸,2025-11-03,24.526972,121.11605,1.4292405e-08
C2F860,梨山,2025-11-03,24.247522,121.243669,1.5033896e-08
C0R320,車城,2025-11-03,22.0744,120.716247,0.99832624
C1S870,南美山,2025-11-03,23.15025,121.382333,0.3320201
C0B020,基隆嶼,2025-11-03,25.19141,121.78391,0.908152
C1U501,牛鬥,2025-11-03,24.637836,121.573656,0.0030936247
C0M730,嘉義市東區,2025-11-03,23.457673,120.460531,0.9948506
C0S700,知本,2025-11-03,22.684866,121.005642,4.729671e-08
C1N001,沙崙,2025-11-03,22.935472,120.309406,0.9895324
C0V760,橋頭,2025-11-03,22.757806,120.30575,0.987513
C0G960,福寶,2025-11-03,24.0443,120.3814,0.9864894
C0X210,白河,2025-11-03,23.347466,120.414427,0.9939352
C0S810,東河,2025-11-03,22.972672,121.303986,0.44773856
C2R170,屏東,2025-11-03,22.66027,120.49403,0.99317306
C0R670,楓港,2025-11-03,22.190131,120.692156,0.9484882
C0FA50,霧峰,2025-11-03,24.0419,120.6995,0.019433541
C0UB10,蘇澳,2025-11-03,24.5969,121.8571,0.6413808
C0G950,防潮門,2025-11-03,24.1835,120.4871,0.9979086
C0M740,六腳,2025-11-03,23.492871,120.290625,0.51740396
C1R250,力里,2025-11-03,22.428117,120.629228,0.035303093
C0K330,虎尾,2025-11-03,23.719183,120.442036,0.9885561
C2FA00,烏石坑,2025-11-03,24.273503,120.947617,6.223403e-09
C0V620,永安,2025-11-03,22.82315,120.236856,0.82982284
C1I330,楓樹林,2025-11-03,23.986803,121.076117,2.2533613e-09
C0W200,湖西,2025-11-03,23.596314,119.67275,0.9944322
72Q010,高雄農改場,2025-11-03,22.709333,120.525889,0.99259156
C0SA40,瑞和,2025-11-03,22.974361,121.156697,0.98231983
C0C680,龜山,2025-11-03,25.02846,121.38656,0.9999368
C2V260,月眉,2025-11-03,22.971003,120.539853,0.9733324
C0V450,鳳森,2025-11-03,22.545064,120.392592,0.9131511
C0FA90,小雪山林道,2025-11-03,24.29515,121.03651,2.025781e-08
C0U720,南山,2025-11-03,24.43742,121.38167,2.8743239e-06
A2N290,臺南蘭花園區,2025-11-03,23.340258,120.379661,0.9897333
C0R560,新園,2025-11-03,22.5434,120.461558,0.90053165
C0U890,三星,2025-11-03,24.66812,121.65302,0.7118765
C1V300,御油山,2025-11-03,23.001983,120.715364,8.243743e-09
C0U600,礁溪,2025-11-03,24.817539,121.765608,0.9966521
C1T980,龍澗,2025-11-03,24.023289,121.411328,1.09118595e-07
C0D670,海天一線,2025-11-03,24.831986,120.914438,0.91931397
C0SA00,歷坵,2025-11-03,22.520969,120.89185,0.9671157
C0M710,東石,2025-11-03,23.458927,120.15385,0.8998785
C0M780,鹿草,2025-11-03,23.41134,120.30835,0.33880526
C0U520,雙連埤,2025-11-03,24.753033,121.641303,2.0015286e-06
C0B010,七堵,2025-11-03,25.094819,121.71713,0.99960184
C0R480,長治,2025-11-03,22.693128,120.542622,0.9960071
C1V830,國三S383K,2025-11-03,22.781967,120.426475,0.9979496
12Q980,恆春工作站,2025-11-03,22.079678,120.714425,0.99832624
C1O940,東山服務區,2025-11-03,23.286016,120.398472,0.9929997
C1U840,東澳嶺,2025-11-03,24.5378,121.8485,1.1271201e-06
C1D630,飛鳳山,2025-11-03,24.766464,121.119178,0.9999
C0S940,石寧山,2025-11-03,23.223772,121.406639,0.7513485
C0K410,北港,2025-11-03,23.573957,120.292802,0.36696082
C2M620,瑞里,2025-11-03,23.545133,120.675197,4.590399e-09
C0SB70,小港漁港,2025-11-03,23.158558,121.400431,0.34165516
C2O950,安南,2025-11-03,23.076694,120.144861,0.97659636
C0F0E0,南湖圈谷,2025-11-03,24.363714,121.444667,7.715768e-08
467610,成功,2025-11-03,23.097486,121.373428,0.6110772
C0G890,伸港,2025-11-03,24.148933,120.484403,0.9968925
C2E540,龍溪,2025-11-03,24.606489,120.783933,0.6967188
C1V200,梅山,2025-11-03,23.268447,120.823556,7.3345974e-09
C0T9H0,加路蘭山,2025-11-03,23.682947,121.5274,2.9433364e-08
C2O930,玉井,2025-11-03,23.126042,120.46055,0.09241568
C1F911,新伯公,2025-11-03,24.221361,120.841069,5.8004913e-05
C0R490,九如,2025-11-03,22.7405,120.490503,0.9918044
C0X200,左鎮,2025-11-03,23.056758,120.408522,0.16869503
C0FA60,鞍馬山工作站,2025-11-03,24.267064,121.000793,5.30789e-09
C0SB50,叭嗡嗡,2025-11-03,23.047062,121.343223,0.83704567
C1F891,稍來,2025-11-03,24.265689,121.001142,5.1082396e-09
72N240,七股研究中心,2025-11-03,23.081672,120.062894,0.9751657
C0C700,中壢,2025-11-03,24.977661,121.256375,0.9999818
C0M690,水上,2025-11-03,23.419734,120.388909,0.9924264
C0V690,鼓山,2025-11-03,22.623325,120.275575,0.36229646
C0O860,大內,2025-11-03,23.11885,120.36083,0.9746597
C0Z200,萬榮,2025-11-03,23.709219,121.420106,0.000100967
C0T9D0,和中,2025-11-03,24.26676,121.74103,0.9642372
C1O921,楠西,2025-11-03,23.183511,120.484083,0.008862831
C0AJ30,淡水觀海,2025-11-03,25.184591,121.408616,0.99962527
C0V810,左營,2025-11-03,22.67491,120.28491,0.23738393
C0UA70,桃源谷,2025-11-03,24.962606,121.888875,0.9700293
C0X130,官田,2025-11-03,23.193217,120.315422,0.987748
C1H000,翠峰,2025-11-03,24.109397,121.205211,7.663057e-08
C0UA90,石城,2025-11-03,24.980444,121.951214,0.99355227
C1E681,南勢山,2025-11-03,24.421669,120.923831,1.3279974e-08
C0A9F0,內湖,2025-11-03,25.079422,121.57545,0.9999794
C0K291,宜梧,2025-11-03,23.536281,120.169329,0.5266719
C1K540,口湖,2025-11-03,23.585344,120.180517,0.9994539
C0R780,滿州,2025-11-03,22.024403,120.839892,0.96878475
C0V870,文安,2025-11-03,22.8025,120.2164,0.81697565
C0U650,玉蘭,2025-11-03,24.675286,121.587061,0.00088643684
C0R640,東港,2025-11-03,22.46247,120.44074,0.95053554
C0AJ80,板橋,2025-11-03,25.0107,121.4489,0.9999901
C0S660,下馬,2025-11-03,23.150427,121.070312,4.2726573e-08
C1H9B1,阿眉,2025-11-03,24.1263,120.994672,3.0089302e-09
C0UA20,多加屯,2025-11-03,24.368614,121.373189,4.6726967e-08
C0E730,頭份,2025-11-03,24.688247,120.912206,0.93334377
72V140,高改旗南分場,2025-11-03,22.857861,120.516667,0.98830795
C0K480,莿桐,2025-11-03,23.761192,120.502372,0.9921939
C0U980,坪林石牌,2025-11-03,24.86478,121.77396,1.1371262e-05
C0T900,西林,2025-11-03,23.8119,121.441458,0.0026703267
C1I150,青雲,2025-11-03,23.793361,120.949378,0.09798724
467350,澎湖,2025-11-03,23.565503,119.563094,0.9949732
C0G800,埔鹽,2025-11-03,24.000394,120.431683,0.98682046
C0H960,草屯,2025-11-03,23.973672,120.68085,0.0074310913
C1V780,多納林道,2025-11-03,22.888028,120.737917,3.343033e-08
C0E920,通霄漁港,2025-11-03,24.498589,120.673876,0.8378312
C0Z330,安通山,2025-11-03,23.290728,121.348528,1.9933839e-07
C0AH10,永和,2025-11-03,25.01125,121.508111,0.9999901
C0AK10,太平里,2025-11-03,25.134937,121.364899,0.9524131
C2G640,鹿港,2025-11-03,24.0753,120.430481,0.9864894
C1E890,國三N149K,2025-11-03,24.463414,120.680019,0.9570651
C1R110,口社,2025-11-03,22.770111,120.645222,0.77245414
C1M870,國三N285K,2025-11-03,23.550319,120.505833,0.9910535
C1E480,鳳美,2025-11-03,24.554803,121.034747,0.010749879
C0M530,奮起湖,2025-11-03,23.493903,120.699253,4.1650745e-09
C0C590,觀音,2025-11-03,25.027072,121.153317,0.64127
C0T9M0,靜浦,2025-11-03,23.455167,121.495028,0.92157024
C2H9M0,發祥,2025-11-03,24.154094,121.164517,2.6941438e-09
C0AI40,石牌,2025-11-03,25.115597,121.513139,0.99989206
C1F871,上谷關,2025-11-03,24.203483,121.018644,4.168047e-09
C2H9G0,百勝,2025-11-03,24.051142,120.909361,1.8088672e-08
C0G880,二水,2025-11-03,23.810742,120.6173,0.5928026
C0R940,加祿堂,2025-11-03,22.3363,120.6217,0.082431436
C0W220,北竿,2025-11-03,26.220358,119.974881,0.9990849
C0O960,崎頂,2025-11-03,22.959547,120.369317,0.9776284
C0TA40,秀林,2025-11-03,24.302864,121.731144,4.6513557e-07
C0S750,向陽,2025-11-03,23.248397,120.986133,1.2506424e-08
C0T9F0,水璉,2025-11-03,23.797131,121.542514,4.098965e-05
C1M600,頭凍,2025-11-03,23.406364,120.603339,4.5331134e-09
467660,臺東,2025-11-03,22.752211,121.154586,0.048435826
C1D380,新埔,2025-11-03,24.84745,121.03834,0.11272278
C2G980,田頭村,2025-11-03,23.8263,120.444175,0.99666965
C0V750,路竹,2025-11-03,22.854997,120.259439,0.72528374
C0N050,蚵寮,2025-11-03,23.301,120.1104,0.3343117
72M700,南改鹿草分場,2025-11-03,23.416869,120.283061,0.3283922
C1SA50,利嘉林道,2025-11-03,22.82325,121.009389,4.011425e-08
C0UB70,太平山中間站,2025-11-03,24.542003,121.513453,0.0003616935
C0A940,金山,2025-11-03,25.223628,121.643967,0.99879044
C1V340,大津,2025-11-03,22.888322,120.645986,0.99658346
C0W180,七美,2025-11-03,23.219333,119.444892,0.99309456
C1F9C1,白冷,2025-11-03,24.182844,120.929889,9.027131e-09
K2E710,苗改生物防治研究中心,2025-11-03,24.422861,120.871833,0.0063380715
C0N040,蘆竹溝,2025-11-03,23.2344,120.0961,0.77061725
C0D760,大坪苗圃,2025-11-03,24.5362,121.1108,1.0307125e-08
C2W230,畜試所澎湖,2025-11-03,23.628342,119.513206,0.9921628
C0R880,後壁湖,2025-11-03,21.9457,120.7457,0.9985669
C1I280,埔中,2025-11-03,23.820778,120.642594,1.4055701e-06
467790,墾丁雷達站,2025-11-03,21.948235,120.808028,0.9884811
C0W190,望安,2025-11-03,23.380564,119.494075,0.99459404
C0Z170,卓溪,2025-11-03,23.3443,121.3029,0.37898976
C0F850,東勢,2025-11-03,24.246428,120.833047,3.6647086e-06
466900,淡水,2025-11-03,25.164889,121.448906,0.952413
C0I370,魚池,2025-11-03,23.895703,120.94135,7.978657e-09
C0C630,大溪,2025-11-03,24.882853,121.265547,0.9997762
C0A520,山佳,2025-11-03,24.974944,121.402008,0.9999623
C0I110,竹山,2025-11-03,23.761225,120.688156,0.09008309
82H840,茶改南部分場,2025-11-03,23.762528,120.7405,5.035342e-06
C0G660,溪湖,2025-11-03,23.94835,120.479122,0.99575686
C1T800,洛韶,2025-11-03,24.204558,121.453956,1.1886059e-07
C1T810,慈恩,2025-11-03,24.192044,121.388386,1.2834587e-07
C1E451,象鼻,2025-11-03,24.368617,120.940228,3.29367e-09
C0AC60,三峽,2025-11-03,24.939025,121.369728,0.99986655
C0I490,萬大林道,2025-11-03,23.928228,121.091411,2.5200229e-09
C1I290,豐丘,2025-11-03,23.668178,120.887417,2.4765425e-09
C1I320,奧萬大,2025-11-03,23.952956,121.178556,2.4277573e-09
C2M910,嘉義大學,2025-11-03,23.471325,120.485903,0.9947624
C0U770,南澳,2025-11-03,24.44935,121.81022,0.014948069
C0A980,社子,2025-11-03,25.109508,121.469681,0.92486393
C0V800,六龜,2025-11-03,22.997889,120.633583,0.98997056
C1G9D0,國一S218K,2025-11-03,23.890641,120.493253,0.99510586
C0E570,白沙屯,2025-11-03,24.549447,120.696803,0.9795316
C2F9A0,中竹林,2025-11-03,24.103556,120.751061,2.866235e-06
C0FA40,臺中電廠,2025-11-03,24.2146,120.4907,0.997385
C2G9A0,畜試所彰化,2025-11-03,23.86045,120.557964,0.7000077
C0H9C0,合歡山,2025-11-03,24.143442,121.272547,2.7200755e-08
C0X060,下營,2025-11-03,23.22695,120.256261,0.9383728
G2M350,農試溪口農場,2025-11-03,23.58565,120.408111,0.995718
C0U860,頭城,2025-11-03,24.85323,121.8308,0.9965388
C0R580,南州,2025-11-03,22.48591,120.50274,0.95053554
C0D430,峨眉,2025-11-03,24.6905,121.017189,0.12167734
C0G780,秀水,2025-11-03,24.03405,120.503869,0.99826384
72N100,臺南農改場,2025-11-03,23.0605,120.342194,0.9769186
C0S900,蘭嶼高中,2025-11-03,22.04909,121.51214,0.9822232
C1F9W0,德基,2025-11-03,24.254783,121.190261,3.9828945e-09
C1Z120,壽豐,2025-11-03,23.870853,121.508081,0.99705625
C0W160,烏坵,2025-11-03,24.9944,119.44956,0.99237907
C1I240,外大坪,2025-11-03,23.958697,120.917931,6.5813026e-09
C1I550,國六W023K,2025-11-03,23.979067,120.867742,1.7242364e-08
C0R870,興海,2025-11-03,21.9752,120.8439,0.9893973
C0R140,瑪家,2025-11-03,22.682903,120.686639,2.9435386e-08
C0A530,坪林,2025-11-03,24.938183,121.70975,0.99404544
C0X260,後壁,2025-11-03,23.366358,120.362326,0.9897333
C0Z230,和平,2025-11-03,24.30717,121.77007,0.9637072
C0G770,福興,2025-11-03,24.041289,120.437669,0.98682046
C0H9A0,神木村,2025-11-03,23.532742,120.843667,1.1829377e-08
C0I460,南投,2025-11-03,23.911469,120.687331,2.1480584e-05
C0I480,梅峰,2025-11-03,24.085272,121.173572,7.884289e-09
C1V570,吉東,2025-11-03,22.85422,120.5454,0.9903932
C2D740,屯原,2025-11-03,24.067969,121.209389,7.3928423e-09
C2A560,福山,2025-11-03,24.776203,121.502811,0.98827636
C0AH30,五分山,2025-11-03,25.07125,121.780794,0.7803332
C0FA10,松柏,2025-11-03,24.429115,120.617482,0.96377623
72S200,東改班鳩分場,2025-11-03,22.829528,121.077694,0.4613332
72HA00,中改埔里分場,2025-11-03,23.903208,120.963364,2.2604985e-09
C2H9W0,大坪頂農水,2025-11-03,24.043122,120.932781,2.2833044e-09
C0C650,平鎮,2025-11-03,24.897503,121.214636,0.99994147
C0S930,延平,2025-11-03,22.902581,121.084058,0.6767853
C0UA60,樟樹山,2025-11-03,24.41393,121.78325,0.00011829751
C1S670,摩天,2025-11-03,23.199503,121.027,2.2380366e-08
C0V630,茄萣,2025-11-03,22.906642,120.182608,0.6635317
466940,基隆,2025-11-03,25.133314,121.740475,0.9405907
C0X050,東河,2025-11-03,23.296598,120.385608,0.9923292
C0R770,保力,2025-11-03,22.071122,120.764111,0.9706982
G2L020,農試嘉義分所,2025-11-03,23.485028,120.473806,0.9968318
C0X240,關子嶺,2025-11-03,23.331169,120.508025,1.6963288e-07
C0I380,集集,2025-11-03,23.828206,120.801467,0.012248473
466990,花蓮,2025-11-03,23.975128,121.613275,0.8875327
C1V220,小關山,2025-11-03,23.154217,120.813603,4.7183697e-09
C1F9G1,慶福山,2025-11-03,24.180853,120.848378,3.7057095e-09
C0FB20,雪山橋,2025-11-03,24.23192,120.9786,5.951975e-09
C0Z250,瑞穗林道,2025-11-03,23.49284,121.30688,7.434396e-07
C0D590,新豐,2025-11-03,24.87068,120.97721,0.8551375
C0A870,五指山,2025-11-03,25.132153,121.608692,0.0003912706
C0UA50,西帽山,2025-11-03,24.555361,121.802628,4.8060552e-05
C0X160,仁德,2025-11-03,22.968258,120.257689,0.71929693
C1H971,六分寮,2025-11-03,23.92507,120.6378,1.5570436e-08
C0W120,西嶼,2025-11-03,23.5626,119.468436,0.9928761
C0G650,員林,2025-11-03,23.946503,120.585597,0.008432907
C0AD50,鶯歌,2025-11-03,24.951533,121.346294,0.99989086
C2H9Q0,北東眼山,2025-11-03,24.120939,121.189303,5.69724e-09
C2H9T0,名間竹圍,2025-11-03,23.859914,120.637572,8.0435534e-08
C0S990,山豬窟,2025-11-03,22.318619,120.857372,0.9698595
C0X190,安平,2025-11-03,22.993161,120.152181,0.7219906
C0K400,斗六,2025-11-03,23.720583,120.541127,0.99500895
12J990,口湖工作站,2025-11-03,23.589978,120.180394,0.99945205
C0O830,北寮,2025-11-03,23.079561,120.495008,0.03031441
C1D410,白蘭,2025-11-03,24.579364,121.079947,1.2734934e-08
C0S970,加津林,2025-11-03,22.416211,120.926942,0.67689824
C0D700,關西,2025-11-03,24.7977,121.1732,0.9517655
C0M810,里佳,2025-11-03,23.389125,120.716647,3.889629e-09
C0U750,龜山島,2025-11-03,24.841667,121.953133,0.26089978
C0R810,內獅,2025-11-03,22.305064,120.642986,0.08226613
C1M390,龍美,2025-11-03,23.406728,120.654417,3.8515426e-09
C2FB60,頭櫃山,2025-11-03,24.129842,120.858925,4.618934e-09
C1H840,國三N238K,2025-11-03,23.841008,120.707711,4.0303956e-07
CAQ030,崎峰國小,2025-11-03,22.42565,120.49521,0.95053554
C2E520,大湖,2025-11-03,24.414939,120.870872,0.0046369554
467530,阿里山,2025-11-03,23.508208,120.813242,1.0779217e-08
C1E691,南湖,2025-11-03,24.40135,120.837533,8.212593e-08
C0FA30,梧棲,2025-11-03,24.256003,120.523381,0.9917963
C1V231,高中,2025-11-03,23.134911,120.716711,2.7075906e-08
C0AK30,硬漢嶺,2025-11-03,25.136097,121.426372,0.02654984
C0F9V0,新社,2025-11-03,24.200172,120.815806,7.3881374e-08
C0H890,埔里,2025-11-03,23.972169,120.952425,6.354688e-09
C0R690,墾丁,2025-11-03,21.966756,120.810269,0.98166376
C0F0D0,審馬陣,2025-11-03,24.381675,121.4203,4.8643344e-08
C2W030,金門農試所,2025-11-03,24.448431,118.451786,0.9999219
C0R820,白鷺,2025-11-03,22.454275,120.666219,8.991774e-05
C0FB00,大雪山,2025-11-03,24.254668,121.007374,1.3055845e-08
C1V190,南天池,2025-11-03,23.27403,120.91176,1.3766858e-08
C0E940,雪見,2025-11-03,24.42595,121.01347,9.678789e-09
K2E360,苗栗農改場,2025-11-03,24.495722,120.829111,0.31107375
CAJ050,海口故事園區,2025-11-03,23.57543,120.14121,0.9994539
C2H9D0,三隻寮,2025-11-03,24.093078,120.861578,2.2094064e-09
C0O990,媽廟,2025-11-03,22.99175,120.293525,0.9529148
C0D480,打鐵坑,2025-11-03,24.849664,121.150789,0.99983066
C0Z220,和平林道,2025-11-03,24.343922,121.656317,1.0858219e-06
C0TA10,花蓮漁港,2025-11-03,23.995322,121.638331,0.8348933
72C440,桃園農改場,2025-11-03,24.950944,121.030583,0.13329
C1E711,馬拉邦山,2025-11-03,24.367306,120.901656,3.0372995e-09
C0SB20,富岡,2025-11-03,22.792467,121.192669,0.20394826
C0D560,竹東,2025-11-03,24.767147,121.057881,0.93536836
C0F9U0,南屯,2025-11-03,24.137006,120.637969,0.9785814
C0M720,番路,2025-11-03,23.464657,120.554156,0.9759635
C0F0A0,雪山圈谷,2025-11-03,24.388594,121.236339,5.5048684e-08
C1A9N0,四十份,2025-11-03,24.934158,121.593283,0.9998936
C0U760,東澳,2025-11-03,24.52196,121.83318,0.561824
C0X230,鹽水,2025-11-03,23.272621,120.247641,0.34292766
C2H9H0,苗改南投蜂場,2025-11-03,23.852589,120.693481,0.0001361721
C0R950,萬隆國小,2025-11-03,22.507667,120.587817,0.86903733
467540,大武,2025-11-03,22.35572,120.90374,0.6313326
C0V370,古亭坑,2025-11-03,22.893178,120.401947,0.8726702
C1I340,新興橋,2025-11-03,23.563333,120.868728,1.0846885e-08
C0SA80,土坂,2025-11-03,22.453108,120.887572,0.7880633
C0R160,鹽埔,2025-11-03,22.739558,120.530778,0.99290985
C0AC40,大屯山,2025-11-03,25.175675,121.522408,0.0005883306
466850,五分山雷達站,2025-11-03,25.071182,121.781205,0.7370528
C2H9L0,馬烈霸,2025-11-03,24.1512,121.201772,5.627408e-09
C1AI50,國三N016K,2025-11-03,25.034164,121.619664,0.9999809
C1V600,藤枝,2025-11-03,23.071961,120.757042,4.992411e-09
C1E601,南勢,2025-11-03,24.572486,120.734842,0.9739883
C0O980,新市,2025-11-03,23.061614,120.298197,0.97020364
C0K420,西螺,2025-11-03,23.800407,120.467394,0.9970589
C0Z050,佳心,2025-11-03,23.34567,121.21316,5.972003e-08
C0AD30,蘆洲,2025-11-03,25.086594,121.472331,0.999979
C0V610,梓官,2025-11-03,22.760558,120.267211,0.987513
K2F750,種苗改良場,2025-11-03,24.225972,120.800917,7.800004e-07
C0UA80,大溪漁港,2025-11-03,24.941801,121.902955,0.9940867
C1AI60,國一39K邊坡,2025-11-03,25.064361,121.383836,0.9999105
C0W150,金寧,2025-11-03,24.457703,118.328989,0.9999193
C0R960,內埔,2025-11-03,22.608483,120.570714,0.9636961
V2C250,八德合作社,2025-11-03,24.93775,121.266389,0.9999305
C2H9S0,龍南,2025-11-03,23.953536,120.833183,1.3047177e-09
C0AH40,平等,2025-11-03,25.129142,121.577086,0.97911984
C0R540,佳冬,2025-11-03,22.419456,120.552375,0.9759273
466950,彭佳嶼,2025-11-03,25.627975,122.079744,0.99852455
C0A890,雙溪,2025-11-03,25.036003,121.864242,0.94486517
C0C480,桃園,2025-11-03,24.992425,121.323172,0.9999792
C0AH50,林口,2025-11-03,25.072181,121.38084,0.99994874
A2K360,水試臺西試驗場,2025-11-03,23.717231,120.190522,0.99947166
C2M960,外寮,2025-11-03,23.562643,120.665688,5.4506826e-09
C0F9S0,烏日,2025-11-03,24.107058,120.624103,0.24471238
C0C490,八德,2025-11-03,24.928708,121.283289,0.99993145
C0R190,赤山,2025-11-03,22.592333,120.614306,0.96939
C0T820,天祥,2025-11-03,24.179597,121.495639,0.00051092275
C1F9E1,龍安,2025-11-03,24.1605,120.831961,3.8500097e-08
C0V820,小林,2025-11-03,23.148408,120.63325,3.1759505e-08
C2G870,芳苑,2025-11-03,23.922303,120.320025,0.92775184
C0E850,大河,2025-11-03,24.618069,120.948578,0.22605136
C1U670,寒溪,2025-11-03,24.634,121.71691,0.016008765
C0N020,城西,2025-11-03,23.0568,120.0956,0.7219906
C1Z110,三棧,2025-11-03,24.11557,121.60501,5.489065e-06
C0R280,檳榔,2025-11-03,22.076078,120.836777,0.19773811
C2H9J0,中台,2025-11-03,23.9996,120.938739,3.4806407e-09
C0F9L0,后里,2025-11-03,24.310436,120.729725,0.0002438561
467441,高雄,2025-11-03,22.730432,120.312516,0.98855215
C0Z180,新城,2025-11-03,24.040486,121.604878,0.90274453
C0D540,橫山,2025-11-03,24.71116,121.11693,0.94317937
C1D420,太閣南,2025-11-03,24.632808,121.160575,6.6632987e-07
C1E770,公館,2025-11-03,24.526914,120.830806,0.19498782
CAN130,水試所海水繁養殖中心,2025-11-03,23.120802,120.07968,0.9751657
C1I430,翠華,2025-11-03,24.191961,121.224339,3.1569563e-08
C1M400,菜瓜坪,2025-11-03,23.251928,120.576103,8.177923e-08
C0G730,二林,2025-11-03,23.903325,120.376081,0.9911625
72M360,南改義竹分場,2025-11-03,23.360694,120.279361,0.29947394
V2K620,麥寮合作社,2025-11-03,23.753836,120.294783,0.2852411
C0Z070,舞鶴,2025-11-03,23.46811,121.37407,0.4481132
C0B040,大武崙,2025-11-03,25.166676,121.706993,0.96283954
C1Z030,紅葉,2025-11-03,23.493119,121.338806,0.7547873
C1I050,丹大,2025-11-03,23.753747,121.141147,2.6421617e-08
C0I080,信義,2025-11-03,23.689694,120.851036,0.00025924746
C0D750,樂山林道6k,2025-11-03,24.49999,121.08773,1.537586e-08
C2M920,朴子農改,2025-11-03,23.469889,120.259383,0.3283922
C2A880,福隆,2025-11-03,25.017842,121.942083,0.99325985
C0Z160,鳳林,2025-11-03,23.746114,121.453411,0.00085256994
C0UB80,翠峰林道6K,2025-11-03,24.49773,121.568625,1.3448866e-07
C0V210,復興,2025-11-03,23.222403,120.806089,2.3543974e-08
C0H990,昆陽,2025-11-03,24.121322,121.273642,6.635264e-08
C0R741,獅子,2025-11-03,22.202308,120.705236,0.721706
C0S710,鹿野,2025-11-03,22.917711,121.122994,0.27988777
C0I530,小奇萊,2025-11-03,24.131764,121.295717,6.6450795e-08
C0FA70,大雪山埡口,2025-11-03,24.26867,121.03062,1.6094935e-08
C2K630,荷苞,2025-11-03,23.657717,120.595144,0.4442637
C0Z080,富源,2025-11-03,23.587642,121.378225,4.675243e-06
C0SB10,美和,2025-11-03,22.682078,121.060236,0.49943885
C2K620,馬光農場,2025-11-03,23.721453,120.378864,0.9841527
C1I140,卡奈托灣,2025-11-03,23.754364,121.087872,1.8437478e-09
C0I520,玉山風口,2025-11-03,23.470489,120.955994,2.3339242e-08
C1G691,下水埔,2025-11-03,23.816114,120.5676,0.9901868
C0X110,臺南市南區,2025-11-03,22.961189,120.188378,0.71929693
C0V680,仁武,2025-11-03,22.701083,120.347722,0.23100111
C2G840,北斗,2025-11-03,23.877586,120.514222,0.9957148
C0R900,竹坑,2025-11-03,22.1385,120.7022,0.99829775
C0K250,崙背,2025-11-03,23.75555,120.318925,0.2852411
C0G860,社頭,2025-11-03,23.897647,120.5862,0.78641796
C0X150,安定,2025-11-03,23.102614,120.227839,0.8922056
C0R590,里港,2025-11-03,22.77919,120.49459,0.99626714
C0E610,馬都安,2025-11-03,24.451272,120.930192,4.1831175e-08
C0E550,明德,2025-11-03,24.583486,120.885411,0.02793516
C0R150,三地門,2025-11-03,22.709889,120.639944,0.7628236
C0G910,花壇,2025-11-03,24.032076,120.549461,0.99849904
C1D400,鳥嘴山,2025-11-03,24.71909,121.28387,0.251951
C0K500,元長,2025-11-03,23.64981,120.315024,0.32389256
C0F0B0,石岡,2025-11-03,24.276061,120.777644,3.5413446e-05
C2V250,甲仙,2025-11-03,23.080106,120.591758,2.1142081e-05
C0SA20,金崙山,2025-11-03,22.567419,120.959667,6.887904e-09
C0V350,溪埔,2025-11-03,22.738578,120.446797,0.99754274
C0M660,溪口,2025-11-03,23.604131,120.403569,0.995718
C1S880,壽卡,2025-11-03,22.238911,120.858903,0.9118324
72D680,桃改新埔分場,2025-11-03,24.834444,121.066111,0.11021391
