站號,站名,日期,lat,lon,BlastGRU-TW
12J990,口湖工作站,2025-03-10,23.589978,120.180394,0.00018385152
12Q970,東港工作站,2025-03-10,22.479997,120.466058,0.120744996
12Q980,恆春工作站,2025-03-10,22.079678,120.714425,0.0011678232
466881,新北,2025-03-10,24.959207,121.525196,0.0010556813
466900,淡水,2025-03-10,25.164889,121.448906,0.00067033584
466920,臺北,2025-03-10,25.037658,121.514853,0.001215586
466940,基隆,2025-03-10,25.133314,121.740475,0.021912532
466990,花蓮,2025-03-10,23.975128,121.613275,0.012884104
467050,新屋,2025-03-10,25.006725,121.047492,0.00037636765
467080,宜蘭,2025-03-10,24.763975,121.756528,0.008519451
467270,田中,2025-03-10,23.873803,120.581286,0.027691202
467280,後龍,2025-03-10,24.648563,120.831834,0.00027994075
467290,古坑,2025-03-10,23.633639,120.551889,0.009539276
467300,東吉島,2025-03-10,23.25727,119.66762,0.0007285703
467350,澎湖,2025-03-10,23.565503,119.563094,0.00049445714
467410,臺南,2025-03-10,22.99328,120.20492,0.008136753
467420,永康,2025-03-10,23.038386,120.2367,0.020918498
467441,高雄,2025-03-10,22.730432,120.312516,0.17062344
467480,嘉義,2025-03-10,23.495925,120.432906,0.0043130065
467490,臺中,2025-03-10,24.145736,120.684075,0.009916694
467540,大武,2025-03-10,22.35572,120.90374,0.12280488
467571,新竹,2025-03-10,24.827853,121.014219,0.00044656705
467590,恆春,2025-03-10,22.003897,120.746339,0.011926192
467610,成功,2025-03-10,23.097486,121.373428,0.001098325
467620,蘭嶼,2025-03-10,22.0369,121.55843,4.8284826e-05
467660,臺東,2025-03-10,22.752211,121.154586,0.0037111877
467790,墾丁雷達站,2025-03-10,21.948235,120.808028,0.001135296
72AI40,桃改樹林分場,2025-03-10,24.944503,121.386972,0.0034004012
72C440,桃園農改場,2025-03-10,24.950944,121.030583,0.0004468326
72D680,桃改新埔分場,2025-03-10,24.834444,121.066111,0.00040829316
72G600,臺中農改場,2025-03-10,24.003028,120.534389,0.0035866771
72K220,南改斗南分場,2025-03-10,23.634556,120.477333,0.004874284
72M360,南改義竹分場,2025-03-10,23.360694,120.279361,0.008249004
72M700,南改鹿草分場,2025-03-10,23.416869,120.283061,0.02816188
72N100,臺南農改場,2025-03-10,23.0605,120.342194,0.014311239
72N240,七股研究中心,2025-03-10,23.081672,120.062894,0.0022893257
72Q010,高雄農改場,2025-03-10,22.709333,120.525889,0.11407256
72S200,東改班鳩分場,2025-03-10,22.829528,121.077694,0.010617826
72S590,東改賓朗果園,2025-03-10,22.813889,121.071278,0.012063749
72T250,花蓮農改場,2025-03-10,23.975222,121.563889,0.010904153
72U480,花改蘭陽分場,2025-03-10,24.686306,121.716583,0.06624995
72V140,高改旗南分場,2025-03-10,22.857861,120.516667,0.22393803
82A750,茶改北部分場,2025-03-10,24.955778,121.631222,0.010081274
82C160,茶改場,2025-03-10,24.908472,121.185333,0.00085950486
82H840,茶改南部分場,2025-03-10,23.762528,120.7405,0.016607454
82S580,茶改東部分場,2025-03-10,22.907694,121.130139,0.012242053
A2C560,農工中心,2025-03-10,24.985917,121.239833,0.0014205999
A2K360,水試臺西試驗場,2025-03-10,23.717231,120.190522,0.00050007226
A2K570,古坑花卉中心,2025-03-10,23.63353,120.55239,0.009539276
A2K630,臺大雲林校區,2025-03-10,23.730628,120.423903,0.019586364
A2N290,臺南蘭花園區,2025-03-10,23.340258,120.379661,0.0058462955
B2E890,畜試北區分所,2025-03-10,24.527806,120.770972,0.0012881125
B2N890,畜產試驗所,2025-03-10,23.058972,120.336406,0.014311219
B2Q810,畜試南區分所,2025-03-10,21.945583,120.802167,0.0014125616
B2U990,畜試東區分所,2025-03-10,24.669039,121.832561,0.33043137
C0A520,山佳,2025-03-10,24.974944,121.402008,0.0047346726
C0A530,坪林,2025-03-10,24.938183,121.70975,0.019987458
C0A550,泰平,2025-03-10,24.971197,121.823711,0.022926144
C0A570,桶後,2025-03-10,24.848222,121.597992,0.020280061
C0A640,石碇,2025-03-10,24.993969,121.662917,0.00046694753
C0A770,科教館,2025-03-10,25.096356,121.516507,0.0012979859
C0A860,大坪,2025-03-10,25.165914,121.632969,0.0024469914
C0A890,雙溪,2025-03-10,25.036003,121.864242,0.06739334
C0A931,三和,2025-03-10,25.233153,121.595236,0.017258346
C0A940,金山,2025-03-10,25.223628,121.643967,0.047660507
C0A950,鼻頭角,2025-03-10,25.129036,121.923372,0.004384024
C0A970,三貂角,2025-03-10,25.007606,122.002058,0.12948126
C0A980,社子,2025-03-10,25.109508,121.469681,0.0007063498
C0A9C0,天母,2025-03-10,25.117494,121.537169,0.0035426114
C0A9F0,內湖,2025-03-10,25.079422,121.57545,0.001215586
C0AC60,三峽,2025-03-10,24.939025,121.369728,0.0031464759
C0AC70,信義,2025-03-10,25.037822,121.564597,0.001215586
C0AC80,文山,2025-03-10,25.00235,121.575728,0.00096851704
C0ACA0,新莊,2025-03-10,25.051478,121.446756,0.0017797321
C0AD10,八里,2025-03-10,25.150211,121.403947,0.00068857986
C0AD30,蘆洲,2025-03-10,25.086594,121.472331,0.0012713308
C0AD40,土城,2025-03-10,24.973208,121.445169,0.0011566409
C0AD50,鶯歌,2025-03-10,24.951533,121.346294,0.0028096975
C0AG80,中和,2025-03-10,24.991622,121.491792,0.0011566409
C0AH00,汐止,2025-03-10,25.066881,121.658778,0.001215586
C0AH10,永和,2025-03-10,25.01125,121.508111,0.0012194104
C0AH40,平等,2025-03-10,25.129142,121.577086,0.0019385215
C0AH50,林口,2025-03-10,25.072181,121.38084,0.00078828394
C0AH70,松山,2025-03-10,25.04871,121.55042,0.001215586
C0AH80,深坑,2025-03-10,25.002703,121.628328,0.00096851704
C0AI00,五股,2025-03-10,25.07445,121.42728,0.0010246119
C0AI10,屈尺,2025-03-10,24.92184,121.54475,0.012380951
C0AI20,白沙灣,2025-03-10,25.283128,121.519058,0.006973071
C0AI30,三重,2025-03-10,25.057328,121.500629,0.0012979859
C0AI40,石牌,2025-03-10,25.115597,121.513139,0.0036954645
C0AJ20,野柳,2025-03-10,25.20703,121.690021,0.052149836
C0AJ30,淡水觀海,2025-03-10,25.184591,121.408616,0.011253412
C0AJ40,石門,2025-03-10,25.273672,121.601198,0.0036185037
C0AJ50,水湳洞,2025-03-10,25.123695,121.862238,0.019674946
C0AJ60,六塊厝,2025-03-10,25.24,121.4481,0.0075663556
C0AJ70,田寮,2025-03-10,25.2698,121.4886,0.0072644255
C0AJ80,板橋,2025-03-10,25.0107,121.4489,0.0012194104
C0AJ90,澳底,2025-03-10,25.0552,121.9253,0.09587868
C0AK10,太平里,2025-03-10,25.134937,121.364899,0.0006703355
C0B010,七堵,2025-03-10,25.094819,121.71713,0.0027020024
C0B020,基隆嶼,2025-03-10,25.19141,121.78391,0.0016206292
C0B040,大武崙,2025-03-10,25.166676,121.706993,0.017703822
C0B050,八斗子,2025-03-10,25.144754,121.79167,0.023078693
C0B060,暖暖,2025-03-10,25.0957,121.7403,0.0019137404
C0C460,復興,2025-03-10,24.820208,121.352281,0.0013342674
C0C480,桃園,2025-03-10,24.992425,121.323172,0.0027439245
C0C490,八德,2025-03-10,24.928708,121.283289,0.0019658082
C0C590,觀音,2025-03-10,25.027072,121.153317,0.0001772004
C0C620,蘆竹,2025-03-10,25.084275,121.265767,0.00063634134
C0C630,大溪,2025-03-10,24.882853,121.265547,0.0010426656
C0C650,平鎮,2025-03-10,24.897503,121.214636,0.0016302313
C0C660,楊梅,2025-03-10,24.912375,121.143047,0.001021241
C0C670,龍潭,2025-03-10,24.870056,121.221389,0.0009071019
C0C680,龜山,2025-03-10,25.02846,121.38656,0.0008433861
C0C700,中壢,2025-03-10,24.977661,121.256375,0.002430402
C0C710,大溪永福,2025-03-10,24.892936,121.324975,0.004414678
C0C720,竹圍,2025-03-10,25.112692,121.239824,0.0006885789
C0C730,中大臨海站,2025-03-10,24.966126,121.008581,0.0003890162
C0C740,觀音工業區,2025-03-10,25.064764,121.114856,0.00018829643
C0C750,新興坑尾,2025-03-10,25.0061,121.0971,0.0003480384
C0D430,峨眉,2025-03-10,24.6905,121.017189,0.00054547185
C0D480,打鐵坑,2025-03-10,24.849664,121.150789,0.0008964267
C0D540,橫山,2025-03-10,24.71116,121.11693,0.0016472404
C0D560,竹東,2025-03-10,24.767147,121.057881,0.0011353688
C0D580,寶山,2025-03-10,24.735006,121.025192,0.0021666114
C0D590,新豐,2025-03-10,24.87068,120.97721,0.00013697182
C0D650,湖口,2025-03-10,24.904794,121.043628,0.00041291188
C0D660,新竹市東區,2025-03-10,24.798681,120.986942,0.00039730855
C0D670,海天一線,2025-03-10,24.831986,120.914438,0.00012657412
C0D680,香山濕地,2025-03-10,24.783581,120.914988,0.00041275425
C0D690,外湖,2025-03-10,24.917735,120.968711,0.00048691797
C0D700,關西,2025-03-10,24.7977,121.1732,0.0010931003
C0E420,竹南,2025-03-10,24.708978,120.888897,0.00013661975
C0E430,南庄,2025-03-10,24.601775,121.000214,0.004188602
C0E550,明德,2025-03-10,24.583486,120.885411,0.0007924685
C0E570,白沙屯,2025-03-10,24.549447,120.696803,0.00011964272
C0E590,通霄,2025-03-10,24.471892,120.704622,0.00017669461
C0E730,頭份,2025-03-10,24.688247,120.912206,0.00013613158
C0E740,造橋,2025-03-10,24.637056,120.864778,0.0002833164
C0E750,苗栗,2025-03-10,24.564569,120.824575,0.0008189732
C0E780,銅鑼,2025-03-10,24.489681,120.790853,0.001113014
C0E791,卓蘭,2025-03-10,24.3126,120.8244,0.005009365
C0E810,西湖,2025-03-10,24.562947,120.7485,0.0001229649
C0E820,獅潭,2025-03-10,24.539133,120.920042,0.0042853276
C0E830,苑裡,2025-03-10,24.439714,120.653053,0.000147272
C0E850,大河,2025-03-10,24.618069,120.948578,0.001789144
C0E870,高鐵苗栗,2025-03-10,24.60725,120.826094,0.0002833164
C0E910,海埔,2025-03-10,24.648767,120.772435,0.00028937488
C0E920,通霄漁港,2025-03-10,24.498589,120.673876,0.00016833033
C0E930,龍鳳,2025-03-10,24.700034,120.859125,0.0001347158
C0F0B0,石岡,2025-03-10,24.276061,120.777644,0.0054307464
C0F850,東勢,2025-03-10,24.246428,120.833047,0.0021839163
C0F970,大坑,2025-03-10,24.173142,120.722289,0.0072616846
C0F9I0,神岡,2025-03-10,24.272481,120.658314,0.0024010134
C0F9K0,大安,2025-03-10,24.345061,120.588025,0.00020543406
C0F9L0,后里,2025-03-10,24.310436,120.729725,0.0062977932
C0F9M0,豐原,2025-03-10,24.254322,120.720692,0.0068301405
C0F9N0,大里,2025-03-10,24.092464,120.701378,0.046172157
C0F9O0,潭子,2025-03-10,24.213106,120.703933,0.0037609963
C0F9P0,清水,2025-03-10,24.312297,120.562242,0.00024268271
C0F9Q0,外埔,2025-03-10,24.347817,120.705686,0.0020405555
C0F9R0,龍井,2025-03-10,24.184536,120.528972,0.00044697424
C0F9S0,烏日,2025-03-10,24.107058,120.624103,0.06587349
C0F9T0,西屯,2025-03-10,24.179494,120.641275,0.0015843577
C0F9U0,南屯,2025-03-10,24.137006,120.637969,0.0016646454
C0F9X0,大雅(中科園區),2025-03-10,24.21528,120.62445,0.0010744188
C0FA10,松柏,2025-03-10,24.429115,120.617482,0.00014756172
C0FA20,溫寮,2025-03-10,24.372177,120.583125,0.00020953597
C0FA30,梧棲,2025-03-10,24.256003,120.523381,0.00024268271
C0FA40,臺中電廠,2025-03-10,24.2146,120.4907,0.00044697424
C0FA50,霧峰,2025-03-10,24.0419,120.6995,0.037801173
C0FB70,大甲溪埔,2025-03-10,24.370625,120.620067,0.00020508844
C0G620,芬園,2025-03-10,24.015678,120.6213,0.03096809
C0G650,員林,2025-03-10,23.946503,120.585597,0.061040483
C0G660,溪湖,2025-03-10,23.94835,120.479122,0.004735081
C0G720,溪州,2025-03-10,23.851589,120.499093,0.0054930607
C0G730,二林,2025-03-10,23.903325,120.376081,0.00024893234
C0G740,大城,2025-03-10,23.852487,120.320935,0.00015099961
C0G770,福興,2025-03-10,24.041289,120.437669,0.00036877044
C0G780,秀水,2025-03-10,24.03405,120.503869,0.0035866771
C0G800,埔鹽,2025-03-10,24.000394,120.431683,0.0003687701
C0G810,埔心,2025-03-10,23.947633,120.525456,0.004621207
C0G820,田尾,2025-03-10,23.901669,120.509389,0.004621207
C0G830,埤頭,2025-03-10,23.866003,120.452806,0.005606454
C0G860,社頭,2025-03-10,23.897647,120.5862,0.029515304
C0G880,二水,2025-03-10,23.810742,120.6173,0.0057533113
C0G890,伸港,2025-03-10,24.148933,120.484403,0.00050798344
C0G900,線西,2025-03-10,24.143358,120.443536,0.00050798414
C0G910,花壇,2025-03-10,24.032076,120.549461,0.0033994121
C0G920,永靖,2025-03-10,23.924703,120.547533,0.004621207
C0G940,竹塘,2025-03-10,23.848253,120.386764,0.00046190384
C0G950,防潮門,2025-03-10,24.1835,120.4871,0.00044697424
C0G960,福寶,2025-03-10,24.0443,120.3814,0.0004370629
C0G970,三豐,2025-03-10,23.882,120.2895,0.000148807
C0G9B0,和美,2025-03-10,24.105169,120.492131,0.00043762088
C0H890,埔里,2025-03-10,23.972169,120.952425,0.0034434765
C0H960,草屯,2025-03-10,23.973672,120.68085,0.031705104
C0I110,竹山,2025-03-10,23.761225,120.688156,0.00413735
C0I360,水里,2025-03-10,23.812553,120.849792,0.016040696
C0I380,集集,2025-03-10,23.828206,120.801467,0.015873836
C0I410,名間,2025-03-10,23.837053,120.701447,0.0072596264
C0I420,國姓,2025-03-10,24.037803,120.855072,0.009288908
C0I460,南投,2025-03-10,23.911469,120.687331,0.024223449
C0K250,崙背,2025-03-10,23.75555,120.318925,0.0011264714
C0K280,四湖,2025-03-10,23.630414,120.227125,0.001234096
C0K291,宜梧,2025-03-10,23.536281,120.169329,0.0008385101
C0K330,虎尾,2025-03-10,23.719183,120.442036,0.01929355
C0K390,土庫,2025-03-10,23.679029,120.395574,0.016565727
C0K400,斗六,2025-03-10,23.720583,120.541127,0.0055592093
C0K410,北港,2025-03-10,23.573957,120.292802,0.0007735888
C0K420,西螺,2025-03-10,23.800407,120.467394,0.0028737846
C0K430,褒忠,2025-03-10,23.690938,120.303634,0.0011264714
C0K440,二崙,2025-03-10,23.772797,120.408944,0.0029382217
C0K450,大埤,2025-03-10,23.646074,120.431537,0.0050148624
C0K460,斗南,2025-03-10,23.678734,120.478359,0.0048124283
C0K470,林內,2025-03-10,23.748675,120.609642,0.004957442
C0K480,莿桐,2025-03-10,23.761192,120.502372,0.011778332
C0K500,元長,2025-03-10,23.64981,120.315024,0.009828371
C0K510,水林,2025-03-10,23.572924,120.24597,0.0007868445
C0K530,臺西,2025-03-10,23.701547,120.197559,0.0004985825
C0K550,蔦松,2025-03-10,23.514319,120.229736,0.0008385101
C0K560,棋山,2025-03-10,23.68645,120.603417,0.008533253
C0K580,高鐵雲林,2025-03-10,23.737456,120.417944,0.019586364
C0K590,雲林東勢,2025-03-10,23.674192,120.255721,0.009616853
C0K600,箔子寮,2025-03-10,23.6197,120.14,0.00018385152
C0M520,東後寮,2025-03-10,23.369908,120.248065,0.008249004
C0M640,中埔,2025-03-10,23.42538,120.5229,0.004490343
C0M650,朴子,2025-03-10,23.43463,120.23902,0.02816188
C0M660,溪口,2025-03-10,23.604131,120.403569,0.0031307556
C0M670,大林,2025-03-10,23.600616,120.45841,0.0029154422
C0M680,太保,2025-03-10,23.455062,120.331455,0.0063483417
C0M690,水上,2025-03-10,23.419734,120.388909,0.0061692665
C0M700,竹崎,2025-03-10,23.526178,120.555508,0.0030708865
C0M710,東石,2025-03-10,23.458927,120.15385,0.00026826333
C0M720,番路,2025-03-10,23.464657,120.554156,0.004514704
C0M730,嘉義市東區,2025-03-10,23.457673,120.460531,0.006071123
C0M740,六腳,2025-03-10,23.492871,120.290625,0.0033868062
C0M750,布袋,2025-03-10,23.380878,120.167789,0.008295265
C0M760,民雄,2025-03-10,23.551754,120.428457,0.002988933
C0M770,嘉義梅山,2025-03-10,23.585398,120.555587,0.0023635917
C0M780,鹿草,2025-03-10,23.41134,120.30835,0.027700607
C0M790,新港,2025-03-10,23.553269,120.345728,0.0026108888
C0M800,茶山,2025-03-10,23.299075,120.664767,0.006105008
C0M880,好美里,2025-03-10,23.3364,120.138,0.007985713
C0N010,鯤鯓國小,2025-03-10,23.1879,120.0889,0.006987114
C0N020,城西,2025-03-10,23.0568,120.0956,0.008190245
C0N030,四草,2025-03-10,23.0235,120.1116,0.008305392
C0N040,蘆竹溝,2025-03-10,23.2344,120.0961,0.007827115
C0N050,蚵寮,2025-03-10,23.301,120.1104,0.007985713
C0O830,北寮,2025-03-10,23.079561,120.495008,0.06556575
C0O840,王爺宮,2025-03-10,23.222064,120.40085,0.01163597
C0O860,大內,2025-03-10,23.11885,120.36083,0.015128363
C0O900,善化,2025-03-10,23.112883,120.297219,0.017264107
C0O960,崎頂,2025-03-10,22.959547,120.369317,0.027999904
C0O970,虎頭埤,2025-03-10,23.021375,120.347878,0.01231764
C0O980,新市,2025-03-10,23.061614,120.298197,0.017264107
C0O990,媽廟,2025-03-10,22.99175,120.293525,0.017059568
C0R150,三地門,2025-03-10,22.709889,120.639944,0.17626369
C0R160,鹽埔,2025-03-10,22.739558,120.530778,0.1140726
C0R190,赤山,2025-03-10,22.592333,120.614306,0.14988872
C0R220,潮州,2025-03-10,22.534361,120.54,0.16626997
C0R240,來義,2025-03-10,22.527306,120.625111,0.10042442
C0R260,春日,2025-03-10,22.370361,120.628306,0.20304556
C0R270,琉球嶼,2025-03-10,22.332244,120.362236,0.078140795
C0R280,檳榔,2025-03-10,22.076078,120.836777,0.0043133874
C0R320,車城,2025-03-10,22.0744,120.716247,0.0011678232
C0R341,牡丹,2025-03-10,22.130036,120.792639,0.0045245863
C0R350,貓鼻頭,2025-03-10,21.921774,120.7358,0.000119846896
C0R470,高樹,2025-03-10,22.826389,120.600806,0.106279366
C0R480,長治,2025-03-10,22.693128,120.542622,0.35793954
C0R490,九如,2025-03-10,22.7405,120.490503,0.120931156
C0R520,崁頂,2025-03-10,22.514781,120.506914,0.17672823
C0R540,佳冬,2025-03-10,22.419456,120.552375,0.3028167
C0R550,新埤,2025-03-10,22.467947,120.582894,0.09807331
C0R560,新園,2025-03-10,22.5434,120.461558,0.30005032
C0R570,麟洛,2025-03-10,22.65078,120.52719,0.18058856
C0R580,南州,2025-03-10,22.48591,120.50274,0.120744996
C0R590,里港,2025-03-10,22.77919,120.49459,0.37798414
C0R620,墾雷,2025-03-10,21.900836,120.855269,8.8493936e-05
C0R640,東港,2025-03-10,22.46247,120.44074,0.120744996
C0R650,竹田,2025-03-10,22.58486,120.54344,0.17014615
C0R660,枋寮,2025-03-10,22.367722,120.590647,0.3028167
C0R670,楓港,2025-03-10,22.190131,120.692156,0.0075149513
C0R680,佳樂水,2025-03-10,21.993578,120.861633,0.001354588
C0R690,墾丁,2025-03-10,21.966756,120.810269,0.00076922774
C0R700,枋山,2025-03-10,22.246844,120.661086,0.009255433
C0R710,龍磐,2025-03-10,21.931672,120.838942,0.00010905382
C0R720,旭海,2025-03-10,22.205403,120.887614,0.008728288
C0R730,大坪頂,2025-03-10,22.024633,120.69355,0.0011906293
C0R741,獅子,2025-03-10,22.202308,120.705236,0.01936614
C0R760,南仁湖,2025-03-10,22.084681,120.863353,0.002759232
C0R770,保力,2025-03-10,22.071122,120.764111,0.0021246346
C0R780,滿州,2025-03-10,22.024403,120.839892,0.010550748
C0R790,九棚,2025-03-10,22.14195,120.889281,0.0066717276
C0R800,丹路,2025-03-10,22.204481,120.750989,0.011932954
C0R810,內獅,2025-03-10,22.305064,120.642986,0.034086913
C0R830,高士,2025-03-10,22.121825,120.836781,0.002555589
C0R850,林邊,2025-03-10,22.4634,120.5339,0.11228113
C0R860,鼻頭,2025-03-10,22.1043,120.8979,0.019717999
C0R870,興海,2025-03-10,21.9752,120.8439,0.0014125616
C0R880,後壁湖,2025-03-10,21.9457,120.7457,0.00030134173
C0R890,山海,2025-03-10,21.9878,120.7091,0.00028560506
C0R900,竹坑,2025-03-10,22.1385,120.7022,0.0010897166
C0R910,下寮,2025-03-10,22.3929,120.5548,0.3028167
C0R920,塭仔,2025-03-10,22.4169,120.5197,0.31872362
C0R930,萬丹,2025-03-10,22.5885,120.4851,0.28506804
C0R940,加祿堂,2025-03-10,22.3363,120.6217,0.0319278
C0R950,萬隆國小,2025-03-10,22.507667,120.587817,0.1319933
C0R960,內埔,2025-03-10,22.608483,120.570714,0.15779337
C0S710,鹿野,2025-03-10,22.917711,121.122994,0.01981566
C0S730,綠島,2025-03-10,22.6672,121.47533,0.0008683851
C0S740,池上,2025-03-10,23.119628,121.209469,0.00078954024
C0S770,大溪山,2025-03-10,22.478475,120.943325,0.028362386
C0S790,金崙,2025-03-10,22.538122,120.966875,0.061982293
C0S810,東河,2025-03-10,22.972672,121.303986,0.003234464
C0S830,長濱,2025-03-10,23.286817,121.411975,0.017526768
C0S840,南田,2025-03-10,22.279725,120.889208,0.01115415
C0S890,關山,2025-03-10,23.0395,121.175017,0.03386023
C0S900,蘭嶼高中,2025-03-10,22.04909,121.51214,0.00010142808
C0S910,蘭嶼燈塔,2025-03-10,22.081197,121.503117,7.3279996e-05
C0S920,金峰嘉蘭,2025-03-10,22.594789,120.960825,0.11659951
C0S930,延平,2025-03-10,22.902581,121.084058,0.014552692
C0S940,石寧山,2025-03-10,23.223772,121.406639,0.025786528
C0S950,七塊厝,2025-03-10,22.954453,121.229922,0.018906765
C0S960,香蘭,2025-03-10,22.587569,120.993375,0.24613307
C0S970,加津林,2025-03-10,22.416211,120.926942,0.10372823
C0S990,山豬窟,2025-03-10,22.318619,120.857372,0.010568544
C0SA00,歷坵,2025-03-10,22.520969,120.89185,0.017241195
C0SA10,檳榔四格山,2025-03-10,22.810031,121.109308,0.013210609
C0SA30,都歷,2025-03-10,23.020333,121.323642,0.029771985
C0SA40,瑞和,2025-03-10,22.974361,121.156697,0.01686224
C0SA60,知本（水試所）,2025-03-10,22.702394,121.082761,0.3247442
C0SA80,土坂,2025-03-10,22.453108,120.887572,0.06391928
C0SA90,達仁林場,2025-03-10,22.264347,120.823972,0.002639336
C0SB10,美和,2025-03-10,22.682078,121.060236,0.3247442
C0SB20,富岡,2025-03-10,22.792467,121.192669,0.006019937
C0SB30,新蘭,2025-03-10,22.869214,121.223228,0.008055284
C0SB40,興隆,2025-03-10,22.913661,121.257469,0.008164253
C0SB50,叭嗡嗡,2025-03-10,23.047062,121.343223,0.028007919
C0SB60,白守蓮,2025-03-10,23.126769,121.401914,0.0013401564
C0SB70,小港漁港,2025-03-10,23.158558,121.400431,0.0066301655
C0SB80,長濱漁港,2025-03-10,23.313644,121.459994,0.021688933
C0T870,鯉魚潭,2025-03-10,23.935639,121.508944,0.007308774
C0T900,西林,2025-03-10,23.8119,121.441458,0.004429501
C0T960,光復,2025-03-10,23.660694,121.424964,0.030396262
C0T9A0,月眉山,2025-03-10,23.809928,121.539828,0.0011115766
C0T9D0,和中,2025-03-10,24.26676,121.74103,0.017020186
C0T9E0,大坑,2025-03-10,23.880628,121.581981,0.002271745
C0T9F0,水璉,2025-03-10,23.797131,121.542514,0.002809226
C0T9I0,豐濱,2025-03-10,23.583897,121.514806,0.045642804
C0T9M0,靜浦,2025-03-10,23.455167,121.495028,0.02342042
C0T9N0,富里,2025-03-10,23.171639,121.249378,0.0020031515
C0TA10,花蓮漁港,2025-03-10,23.995322,121.638331,0.014477506
C0TA20,加灣,2025-03-10,24.082025,121.608944,0.0016029014
C0TA30,鹽寮,2025-03-10,23.845606,121.592664,0.019350424
C0U600,礁溪,2025-03-10,24.817539,121.765608,0.014764918
C0U650,玉蘭,2025-03-10,24.675286,121.587061,0.028102411
C0U750,龜山島,2025-03-10,24.841667,121.953133,0.0006927744
C0U760,東澳,2025-03-10,24.52196,121.83318,0.119452775
C0U770,南澳,2025-03-10,24.44935,121.81022,0.011167226
C0U780,五結,2025-03-10,24.68637,121.79794,0.07792519
C0U860,頭城,2025-03-10,24.85323,121.8308,0.015579273
C0U870,大礁溪,2025-03-10,24.791042,121.675047,0.010524958
C0U880,北關,2025-03-10,24.9072,121.8734,0.0864269
C0U890,三星,2025-03-10,24.66812,121.65302,0.23974352
C0U900,內城,2025-03-10,24.71813,121.68766,0.059496194
C0U910,冬山,2025-03-10,24.63373,121.7937,0.33043137
C0U940,羅東,2025-03-10,24.68184,121.74934,0.06977998
C0U970,大福,2025-03-10,24.80064,121.81389,0.008998955
C0U990,員山,2025-03-10,24.74435,121.72247,0.073919095
C0UA00,土場,2025-03-10,24.576533,121.495333,0.03454319
C0UA80,大溪漁港,2025-03-10,24.941801,121.902955,0.081953734
C0UA90,石城,2025-03-10,24.980444,121.951214,0.21545315
C0UB00,淡江大學蘭陽校園,2025-03-10,24.823239,121.730383,0.013881417
C0UB10,蘇澳,2025-03-10,24.5969,121.8571,0.47248158
C0UB20,壯圍,2025-03-10,24.7359,121.8163,0.07792519
C0V350,溪埔,2025-03-10,22.738578,120.446797,0.35046878
C0V360,內門,2025-03-10,22.975481,120.466769,0.024797248
C0V370,古亭坑,2025-03-10,22.893178,120.401947,0.24621102
C0V400,阿公店,2025-03-10,22.804194,120.355528,0.32940596
C0V440,鳳山,2025-03-10,22.646653,120.356122,0.039174624
C0V450,鳳森,2025-03-10,22.545064,120.392592,0.21521972
C0V490,新興,2025-03-10,22.627422,120.298803,0.2616135
C0V530,阿蓮,2025-03-10,22.883208,120.327508,0.13210745
C0V610,梓官,2025-03-10,22.760558,120.267211,0.18609723
C0V620,永安,2025-03-10,22.82315,120.236856,0.04234117
C0V630,茄萣,2025-03-10,22.906642,120.182608,0.018011177
C0V640,湖內,2025-03-10,22.887139,120.2445,0.016929619
C0V650,彌陀,2025-03-10,22.783806,120.246361,0.04234117
C0V660,岡山,2025-03-10,22.797078,120.294958,0.04234117
C0V680,仁武,2025-03-10,22.701083,120.347722,0.044019893
C0V690,鼓山,2025-03-10,22.623325,120.275575,0.2616135
C0V700,三民,2025-03-10,22.645017,120.311233,0.044019893
C0V710,苓雅,2025-03-10,22.622742,120.330669,0.2616135
C0V720,林園,2025-03-10,22.507747,120.394511,0.30005032
C0V730,大寮,2025-03-10,22.605614,120.395717,0.24430366
C0V740,旗山,2025-03-10,22.888614,120.483597,0.2091228
C0V750,路竹,2025-03-10,22.854997,120.259439,0.01582102
C0V760,橋頭,2025-03-10,22.757806,120.30575,0.18609723
C0V770,大社,2025-03-10,22.730306,120.346639,0.17062344
C0V790,萬山,2025-03-10,22.905944,120.688056,0.0062920544
C0V800,六龜,2025-03-10,22.997889,120.633583,0.09217987
C0V810,左營,2025-03-10,22.67491,120.28491,0.044019904
C0V820,小林,2025-03-10,23.148408,120.63325,0.0024751753
C0V840,鳳鼻頭,2025-03-10,22.5083,120.3591,0.315599
C0V850,蚵仔寮,2025-03-10,22.7256,120.2527,0.20143749
C0V860,南寮,2025-03-10,22.7616,120.2339,0.20143749
C0V870,文安,2025-03-10,22.8025,120.2164,0.043827143
C0V880,興達,2025-03-10,22.8778,120.2127,0.018011136
C0V890,前鎮,2025-03-10,22.5718,120.3117,0.27855793
C0V900,汕尾,2025-03-10,22.4782,120.4151,0.12074486
C0V910,大樹,2025-03-10,22.684645,120.432803,0.3959146
C0W200,湖西,2025-03-10,23.596314,119.67275,0.00041817798
C0X050,東河,2025-03-10,23.296598,120.385608,0.0268217
C0X060,下營,2025-03-10,23.22695,120.256261,0.020615948
C0X080,佳里,2025-03-10,23.173039,120.145086,0.006987114
C0X100,臺南市北區,2025-03-10,23.010394,120.194228,0.008190245
C0X110,臺南市南區,2025-03-10,22.961189,120.188378,0.036999576
C0X120,麻豆,2025-03-10,23.183289,120.248611,0.017313436
C0X130,官田,2025-03-10,23.193217,120.315422,0.01585529
C0X140,西港,2025-03-10,23.125608,120.203108,0.02007729
C0X150,安定,2025-03-10,23.102614,120.227839,0.02007729
C0X160,仁德,2025-03-10,22.968258,120.257689,0.036999576
C0X170,關廟,2025-03-10,22.963017,120.327797,0.050265227
C0X180,山上,2025-03-10,23.0757,120.363253,0.01562531
C0X190,安平,2025-03-10,22.993161,120.152181,0.008190245
C0X200,左鎮,2025-03-10,23.056758,120.408522,0.013019529
C0X210,白河,2025-03-10,23.347466,120.414427,0.014207759
C0X220,學甲,2025-03-10,23.230367,120.182187,0.0078303
C0X230,鹽水,2025-03-10,23.272621,120.247641,0.007865788
C0X240,關子嶺,2025-03-10,23.331169,120.508025,0.021613615
C0X250,新營,2025-03-10,23.310689,120.316681,0.012251301
C0X260,後壁,2025-03-10,23.366358,120.362326,0.005846304
C0X280,將軍,2025-03-10,23.214999,120.13577,0.007827115
C0X290,北門,2025-03-10,23.267772,120.125481,0.007827115
C0X300,鹿寮,2025-03-10,23.386047,120.477331,0.011693737
C0X320,柳營,2025-03-10,23.253328,120.375253,0.027687006
C0Z020,明里,2025-03-10,23.208717,121.262342,0.024230164
C0Z061,玉里,2025-03-10,23.3215,121.339656,0.022212831
C0Z070,舞鶴,2025-03-10,23.46811,121.37407,0.019994998
C0Z080,富源,2025-03-10,23.587642,121.378225,0.010801566
C0Z100,東華,2025-03-10,23.89525,121.549833,0.016438197
C0Z150,吉安光華,2025-03-10,23.930925,121.595153,0.019576026
C0Z160,鳳林,2025-03-10,23.746114,121.453411,0.009520435
C0Z170,卓溪,2025-03-10,23.3443,121.3029,0.021282857
C0Z180,新城,2025-03-10,24.03946,121.60454,0.012180144
C0Z190,富世,2025-03-10,24.14743,121.6297,0.00090432266
C0Z200,萬榮,2025-03-10,23.709219,121.420106,0.0075338986
C0Z210,瑞穗,2025-03-10,23.5239,121.39021,0.03888061
C0Z230,和平,2025-03-10,24.30717,121.77007,0.018023511
C0Z270,蕃薯寮,2025-03-10,23.73835,121.540108,0.0030403985
C0Z280,德武,2025-03-10,23.47426,121.41071,0.022957195
C0Z300,東里,2025-03-10,23.26853,121.30547,0.025961265
C0Z310,清水斷崖,2025-03-10,24.218294,121.689142,0.001148679
C0Z330,安通山,2025-03-10,23.290728,121.348528,0.0072131
C2A540,四堵,2025-03-10,24.8926,121.745736,0.014851274
C2A560,福山,2025-03-10,24.776203,121.502811,0.042968404
C2A650,火燒寮,2025-03-10,25.002719,121.742892,0.04233276
C2A660,瑞芳,2025-03-10,25.113169,121.801147,0.011769398
C2A880,福隆,2025-03-10,25.017842,121.942083,0.23104319
C2A920,富貴角,2025-03-10,25.263783,121.565258,0.0030136397
C2C410,中央大學,2025-03-10,24.967652,121.185165,0.0013899953
C2D720,關西工作站,2025-03-10,24.757275,121.184792,0.0010539338
C2D730,寶山農場,2025-03-10,24.732444,120.976153,0.00054547185
C2E520,大湖,2025-03-10,24.414939,120.870872,0.0064036027
C2E540,龍溪,2025-03-10,24.606489,120.783933,0.00028584097
C2E970,八甲,2025-03-10,24.535811,120.795983,0.00064064964
C2F000,大肚,2025-03-10,24.15295,120.572117,0.0041316836
C2F930,大甲,2025-03-10,24.347667,120.640403,0.00020127976
C2F9A0,中竹林,2025-03-10,24.103556,120.751061,0.0018040318
C2G640,鹿港,2025-03-10,24.0753,120.430481,0.0004370629
C2G840,北斗,2025-03-10,23.877586,120.514222,0.0054930607
C2G870,芳苑,2025-03-10,23.922303,120.320025,0.00012782024
C2G980,田頭村,2025-03-10,23.8263,120.444175,0.0029382217
C2G9A0,畜試所彰化,2025-03-10,23.86045,120.557964,0.027691202
C2H950,中寮,2025-03-10,23.884447,120.766406,0.0067076874
C2H9F0,柑林,2025-03-10,24.018658,120.847072,0.009970848
C2H9H0,苗改南投蜂場,2025-03-10,23.852589,120.693481,0.007654381
C2H9T0,名間竹圍,2025-03-10,23.859914,120.637572,0.0030385014
C2H9U0,鳳鵬,2025-03-10,23.763919,120.788061,0.01690067
C2K620,馬光農場,2025-03-10,23.721453,120.378864,0.01982405
C2K630,荷苞,2025-03-10,23.657717,120.595144,0.006458746
C2M410,馬頭山,2025-03-10,23.324361,120.582017,0.022126947
C2M910,嘉義大學,2025-03-10,23.471325,120.485903,0.005231955
C2M920,朴子農改,2025-03-10,23.469889,120.259383,0.02816188
C2N160,西拉雅風管處,2025-03-10,23.189481,120.335297,0.015053507
C2O810,曾文,2025-03-10,23.219681,120.497328,0.03384303
C2O930,玉井,2025-03-10,23.126042,120.46055,0.01562531
C2O950,安南,2025-03-10,23.076694,120.144861,0.0023197103
C2R170,屏東,2025-03-10,22.66027,120.49403,0.18058856
C2R970,屏科大,2025-03-10,22.648275,120.619247,0.11504039
C2V250,甲仙,2025-03-10,23.080106,120.591758,0.021275796
C2V260,月眉,2025-03-10,22.971003,120.539853,0.20018378
C2V310,美濃,2025-03-10,22.898792,120.51907,0.22393803
C2W230,畜試所澎湖,2025-03-10,23.628342,119.513206,0.0006691818
CAG100,王功漁港,2025-03-10,23.96824,120.32586,0.0001259196
CAH030,茶改場竹圍站,2025-03-10,23.860083,120.637528,0.0030385014
CAJ050,海口故事園區,2025-03-10,23.57543,120.14121,0.00018385152
CAL110,布袋國中,2025-03-10,23.35893,120.18026,0.008295261
CAN130,水試所海水繁養殖中心,2025-03-10,23.120802,120.07968,0.0022893257
CAN140,六官養殖協會,2025-03-10,23.22881,120.29962,0.020615948
CAQ030,崎峰國小,2025-03-10,22.42565,120.49521,0.120744996
E2K600,四湖植物園,2025-03-10,23.676986,120.163433,0.001234096
E2P980,林試六龜中心,2025-03-10,22.991703,120.645722,0.07523409
E2S960,林試太麻里2,2025-03-10,22.598,120.99775,0.26298413
E2S980,林試太麻里1,2025-03-10,22.598922,120.980044,0.1281308
G2AI50,關渡,2025-03-10,25.11575,121.492,0.00068857986
G2F820,農試所(霧峰),2025-03-10,24.031261,120.688133,0.04029967
G2L020,農試嘉義分所,2025-03-10,23.485028,120.473806,0.0035257114
G2M350,農試溪口農場,2025-03-10,23.58565,120.408111,0.0031307556
G2P820,農試鳳山分所,2025-03-10,22.646611,120.356083,0.039174624
K2E360,苗栗農改場,2025-03-10,24.495722,120.829111,0.0012258395
K2E710,苗改生物防治研究中心,2025-03-10,24.422861,120.871833,0.0069812476
K2F750,種苗改良場,2025-03-10,24.225972,120.800917,0.0018922485
U2HA50,臺大竹山,2025-03-10,23.756972,120.681556,0.0034222712
V2C250,八德合作社,2025-03-10,24.93775,121.266389,0.0020132489
V2C260,八德蔬果,2025-03-10,24.978508,121.281819,0.002659979
V2K610,大庄合作社,2025-03-10,23.8068,120.367939,0.0003356276
V2K620,麥寮合作社,2025-03-10,23.753836,120.294783,0.0011264714
