站號,站名,日期,lat,lon,BLBTSLS
C0K280,四湖,2025-10-22,23.630414,120.227125,0.9027938
A2K570,古坑花卉中心,2025-10-22,23.63353,120.55239,0.99703145
467571,新竹,2025-10-22,24.827853,121.014219,0.9861634
C0E430,南庄,2025-10-22,24.601775,121.000214,0.99830717
C0E420,竹南,2025-10-22,24.708978,120.888897,0.9301642
C0M530,奮起湖,2025-10-22,23.493903,120.699253,1.6418099e-09
C0C590,觀音,2025-10-22,25.027072,121.153317,0.6628549
C0X060,下營,2025-10-22,23.22695,120.256261,0.69002944
C2D740,屯原,2025-10-22,24.067969,121.209389,1.6584975e-09
C0M810,里佳,2025-10-22,23.389125,120.716647,9.736238e-10
C0K250,崙背,2025-10-22,23.75555,120.318925,0.96695775
