站號,站名,日期,lat,lon,BlastGRU-TW
467590,恆春,2025-10-16,22.003897,120.746339,0.21816765
C0AD40,土城,2025-10-16,24.973208,121.445169,0.14881372
467650,日月潭,2025-10-16,23.881325,120.90805,0.9617418
467110,金門,2025-10-16,24.407306,118.289281,0.082666814
C0AH80,深坑,2025-10-16,25.002703,121.628328,0.19209369
C0A970,三貂角,2025-10-16,25.007606,122.002058,0.61821336
467480,嘉義,2025-10-16,23.495925,120.432906,0.08290195
467550,玉山,2025-10-16,23.48718,120.95943,0.0014411055
C0A770,科教館,2025-10-16,25.096356,121.516507,0.1256747
C0AJ60,六塊厝,2025-10-16,25.24,121.4481,0.11503499
467420,永康,2025-10-16,23.038386,120.2367,0.11363242
467080,宜蘭,2025-10-16,24.763975,121.756528,0.3593177
467410,臺南,2025-10-16,22.99328,120.20492,0.12122103
467050,新屋,2025-10-16,25.006725,121.047492,0.71031433
C0AJ90,澳底,2025-10-16,25.0552,121.9253,0.44542712
467280,後龍,2025-10-16,24.648563,120.831834,0.40805602
466930,竹子湖,2025-10-16,25.162078,121.544547,0.9981426
C0A570,桶後,2025-10-16,24.848222,121.597992,0.999742
C0AH70,松山,2025-10-16,25.04871,121.55042,0.13321777
467620,蘭嶼,2025-10-16,22.0369,121.55843,0.46163604
C0AI10,屈尺,2025-10-16,24.92184,121.54475,0.25764683
467300,東吉島,2025-10-16,23.25727,119.66762,0.13273089
467270,田中,2025-10-16,23.873803,120.581286,0.14394547
C0A931,三和,2025-10-16,25.233153,121.595236,0.7277161
C0AD10,八里,2025-10-16,25.150211,121.403947,0.15801072
C0AC70,信義,2025-10-16,25.037822,121.564597,0.1355866
C0AJ50,水湳洞,2025-10-16,25.123695,121.862238,0.17654185
C0AI20,白沙灣,2025-10-16,25.283128,121.519058,0.12857346
C0A860,大坪,2025-10-16,25.165914,121.632969,0.94872123
C0A550,泰平,2025-10-16,24.971197,121.823711,0.9891337
C0AJ20,野柳,2025-10-16,25.20703,121.690021,0.13631718
C0AH90,福山植物園,2025-10-16,24.760717,121.58135,0.9990697
C0AG80,中和,2025-10-16,24.991622,121.491792,0.14964099
467571,新竹,2025-10-16,24.827853,121.014219,0.32229933
C0A640,石碇,2025-10-16,24.993969,121.662917,0.7771318
466920,臺北,2025-10-16,25.037658,121.514853,0.13321777
466910,鞍部,2025-10-16,25.182586,121.529731,0.99705124
467290,古坑,2025-10-16,23.633639,120.551889,0.29035008
467990,馬祖,2025-10-16,26.169467,119.923158,0.9940578
C0AI30,三重,2025-10-16,25.057328,121.500629,0.1256747
C0AH00,汐止,2025-10-16,25.066881,121.658778,0.13321777
466881,新北,2025-10-16,24.959207,121.525196,0.16816543
C0A950,鼻頭角,2025-10-16,25.129036,121.923372,0.43683636
C0A9C0,天母,2025-10-16,25.117494,121.537169,0.13724665
C0AJ40,石門,2025-10-16,25.273672,121.601198,0.36128858
C0AJ70,田寮,2025-10-16,25.2698,121.4886,0.12411572
C0AI00,五股,2025-10-16,25.07445,121.42728,0.9767744
C0ACA0,新莊,2025-10-16,25.051478,121.446756,0.11697473
467490,臺中,2025-10-16,24.145736,120.684075,0.3943404
C0AC80,文山,2025-10-16,25.00235,121.575728,0.19863194
467610,成功,2025-10-16,23.097486,121.373428,0.98200935
C0AJ30,淡水觀海,2025-10-16,25.184591,121.408616,0.11866902
C0A9F0,內湖,2025-10-16,25.079422,121.57545,0.13321777
C0AJ80,板橋,2025-10-16,25.0107,121.4489,0.14504208
467350,澎湖,2025-10-16,23.565503,119.563094,0.12682141
C0AH10,永和,2025-10-16,25.01125,121.508111,0.14102347
C0AI40,石牌,2025-10-16,25.115597,121.513139,0.13088273
467660,臺東,2025-10-16,22.752211,121.154586,0.9998336
C0A940,金山,2025-10-16,25.223628,121.643967,0.15690072
467790,墾丁雷達站,2025-10-16,21.948235,120.808028,0.29402342
466900,淡水,2025-10-16,25.164889,121.448906,0.16328971
C0A520,山佳,2025-10-16,24.974944,121.402008,0.12986794
C0AC60,三峽,2025-10-16,24.939025,121.369728,0.7910267
C0A980,社子,2025-10-16,25.109508,121.469681,0.15065496
C0A530,坪林,2025-10-16,24.938183,121.70975,0.9613317
C0AH30,五分山,2025-10-16,25.07125,121.780794,0.9992764
466940,基隆,2025-10-16,25.133314,121.740475,0.1608226
466990,花蓮,2025-10-16,23.975128,121.613275,0.99949884
C0A870,五指山,2025-10-16,25.132153,121.608692,0.99856764
C0AD50,鶯歌,2025-10-16,24.951533,121.346294,0.8546504
467530,阿里山,2025-10-16,23.508208,120.813242,0.030313795
467540,大武,2025-10-16,22.35572,120.90374,0.9258826
C0AC40,大屯山,2025-10-16,25.175675,121.522408,0.9860786
466850,五分山雷達站,2025-10-16,25.071182,121.781205,0.9992979
C0AD30,蘆洲,2025-10-16,25.086594,121.472331,0.1290968
C0AH40,平等,2025-10-16,25.129142,121.577086,0.97727203
466950,彭佳嶼,2025-10-16,25.627975,122.079744,0.23459092
C0A890,雙溪,2025-10-16,25.036003,121.864242,0.35825655
C0AH50,林口,2025-10-16,25.072181,121.38084,0.74969226
467441,高雄,2025-10-16,22.730432,120.312516,0.082742915
