站號,站名,日期,lat,lon,BlastGRU-TW
C0R710,龍磐,2025-12-30,21.931672,120.838942,0.06800093
C1F9D1,白毛台,2025-12-30,24.158325,120.886933,0.03757808
C0G940,竹塘,2025-12-30,23.848253,120.386764,0.037351605
467590,恆春,2025-12-30,22.003897,120.746339,0.004265194
C1O850,環湖,2025-12-30,23.148617,120.418633,0.36587837
C0U710,太平山,2025-12-30,24.505486,121.525656,0.0006463748
C0E820,獅潭,2025-12-30,24.539133,120.920042,0.004157181
C2SD70,二層坪,2025-12-30,22.94105,121.16838,0.004645187
C0V880,興達,2025-12-30,22.8778,120.2127,0.4542192
C0S890,關山,2025-12-30,23.0395,121.175017,0.009263772
C0SB30,新蘭,2025-12-30,22.869214,121.223228,0.014277988
C2R970,屏科大,2025-12-30,22.648275,120.619247,0.09776029
C1Z130,銅門,2025-12-30,23.965694,121.492842,0.011083643
C0AD40,土城,2025-12-30,24.973208,121.445169,0.0035029727
CAN140,六官養殖協會,2025-12-30,23.22881,120.29962,0.8009291
C0X180,山上,2025-12-30,23.0757,120.363253,0.51502216
C0F9Z0,雪山東峰,2025-12-30,24.388792,121.268675,0.00028415959
C1M480,獨立山,2025-12-30,23.537022,120.607797,0.0065995306
C0X220,學甲,2025-12-30,23.230367,120.182187,0.54483986
467650,日月潭,2025-12-30,23.881325,120.90805,0.008767818
A2K570,古坑(花卉中心),2025-12-30,23.633531,120.552392,0.06975853
C0K600,箔子寮,2025-12-30,23.6197,120.14,0.0387867
C0G830,埤頭,2025-12-30,23.866003,120.452806,0.42645305
C0S950,七塊厝,2025-12-30,22.954453,121.229922,0.0017834533
467110,金門,2025-12-30,24.407306,118.289281,0.00035962398
C0AH80,深坑,2025-12-30,25.002703,121.628328,0.005814411
C0A970,三貂角,2025-12-30,25.007606,122.002058,0.282629
C2D730,寶山農場,2025-12-30,24.732444,120.976153,0.008748378
C0K430,褒忠,2025-12-30,23.690938,120.303634,0.09102868
467480,嘉義,2025-12-30,23.495925,120.432906,0.8162914
C0V400,阿公店,2025-12-30,22.804194,120.355528,0.770529
C0E960,觀霧分站,2025-12-30,24.505781,121.113921,0.0005754327
467550,玉山,2025-12-30,23.48718,120.95943,0.00027984416
C0R440,大漢山,2025-12-30,22.405264,120.753181,0.00074409094
C0SD30,東清國小,2025-12-30,22.057128,121.564922,0.12204355
C1F9B1,桐林,2025-12-30,24.066172,120.735194,0.22817688
C2H9U0,鳳鵬,2025-12-30,23.763919,120.788061,0.07693534
C0K390,土庫,2025-12-30,23.679029,120.395574,0.54934025
C1I450,望鄉山,2025-12-30,23.594153,120.944286,0.00039811156
C0E910,海埔,2025-12-30,24.648767,120.772435,0.0033487487
B2E890,畜試北區分所,2025-12-30,24.527806,120.770972,0.005352456
C0R750,四林格山,2025-12-30,22.076989,120.802439,0.0012833115
C0F0C0,中坑,2025-12-30,24.248517,120.903319,0.013975278
C1I121,大鞍,2025-12-30,23.678381,120.760017,0.00084843196
C2G9E0,移民庄,2025-12-30,23.9784,120.40283,0.015278286
72U480,花改蘭陽分場,2025-12-30,24.686306,121.716583,0.7605129
C0A770,科教館,2025-12-30,25.096356,121.516507,0.010726562
C0AJ60,六塊厝,2025-12-30,25.24,121.4481,0.050865386
C0R620,墾雷,2025-12-30,21.900836,120.855269,0.09729722
467420,永康,2025-12-30,23.038386,120.2367,0.8431246
C2M530,奮起湖,2025-12-30,23.493903,120.699253,0.0023690027
C0I410,名間,2025-12-30,23.837053,120.701447,0.23341238
A2C560,農工中心,2025-12-30,24.985917,121.239833,0.008139494
C0V740,旗山,2025-12-30,22.888614,120.483597,0.6553702
C0Z061,玉里,2025-12-30,23.3215,121.339656,0.016450569
C0S840,南田,2025-12-30,22.279725,120.889208,0.1982776
C1I470,杉林溪,2025-12-30,23.639517,120.786444,0.0009610774
C1X040,東原,2025-12-30,23.291597,120.463822,0.2573116
C0R660,枋寮,2025-12-30,22.367722,120.590647,0.1839231
C1R120,上德文,2025-12-30,22.763272,120.704442,0.027252436
C0K450,大埤,2025-12-30,23.646074,120.431537,0.53024143
C0UA00,土場,2025-12-30,24.576533,121.495333,0.3703284
467080,宜蘭,2025-12-30,24.763975,121.756528,0.08738949
C0N030,四草,2025-12-30,23.0235,120.1116,0.46559504
467410,臺南,2025-12-30,22.99328,120.20492,0.7166511
C0V650,彌陀,2025-12-30,22.783806,120.246361,0.13230811
C0D660,新竹市東區,2025-12-30,24.798681,120.986942,0.0072603333
82S580,茶改東部分場,2025-12-30,22.907694,121.130139,0.0036191277
C0SB40,興隆,2025-12-30,22.913661,121.257469,0.004617061
467050,新屋,2025-12-30,25.006725,121.047492,0.0074130143
C0C710,大溪永福,2025-12-30,24.892936,121.324975,0.010577643
C0FA20,溫寮,2025-12-30,24.372177,120.583125,0.0015845291
C0V640,湖內,2025-12-30,22.887139,120.2445,0.45678478
C0R910,下寮,2025-12-30,22.3929,120.5548,0.0636576
C0Z020,明里,2025-12-30,23.208717,121.262342,0.01829447
C0M770,嘉義梅山,2025-12-30,23.585398,120.555587,0.06732586
C0C660,楊梅,2025-12-30,24.912375,121.143047,0.009053719
C0SD40,牛頭山,2025-12-30,22.676661,121.506944,0.01150976
C1E511,新開,2025-12-30,24.347703,120.827019,0.010239498
G2F820,農試所(霧峰),2025-12-30,24.031261,120.688133,0.32511026
C2M990,大巃頂,2025-12-30,23.5547,120.61439,0.0028878106
C1I070,和社,2025-12-30,23.591131,120.888861,0.020336116
C2E990,新坪頂,2025-12-30,24.30201,120.8574,0.009395439
C0TA80,立霧山,2025-12-30,24.183258,121.641899,0.001793611
C2F000,大肚,2025-12-30,24.15295,120.572117,0.004310527
C1S850,豐南,2025-12-30,23.122139,121.262389,0.004167475
C2M9B0,西興,2025-12-30,23.2428,120.57617,0.24786577
C2A920,富貴角,2025-12-30,25.263783,121.565258,0.010334364
CAH030,茶改場竹圍站,2025-12-30,23.860083,120.637528,0.0513808
C0T960,光復,2025-12-30,23.660694,121.424964,0.033355832
C0F9M0,豐原,2025-12-30,24.254322,120.720692,0.034497567
C0R720,旭海,2025-12-30,22.205403,120.887614,0.010453577
C0V710,苓雅,2025-12-30,22.622742,120.330669,0.1972221
C0C740,觀音工業區,2025-12-30,25.064764,121.114856,0.0029846076
CAC040,拉拉山,2025-12-30,24.699317,121.427133,0.001040434
C0V790,萬山,2025-12-30,22.905944,120.688056,0.11406575
U2HA30,臺大和社,2025-12-30,23.590856,120.888864,0.020336116
C2H9K0,屯原,2025-12-30,24.067969,121.209389,0.0006782367
C0AJ90,澳底,2025-12-30,25.0552,121.9253,0.48429725
C0Z100,東華,2025-12-30,23.89525,121.549833,0.02435277
C0G970,三豐,2025-12-30,23.882,120.2895,0.0017233168
V2K610,大庄合作社,2025-12-30,23.8068,120.367939,0.03796593
C0V900,汕尾,2025-12-30,22.4782,120.4151,0.22627874
C1R630,龍泉,2025-12-30,22.66701,120.59091,0.07552295
C1AC50,關渡,2025-12-30,25.133486,121.469331,0.013075264
C0C800,四稜,2025-12-30,24.64733,121.4293,0.0011939371
C0F9I0,神岡,2025-12-30,24.272481,120.658314,0.03359782
C0K460,斗南,2025-12-30,23.678734,120.478359,0.52726245
C2O810,曾文,2025-12-30,23.219681,120.497328,0.394728
467280,後龍,2025-12-30,24.648563,120.831834,0.0026327667
C1F9J1,清水林,2025-12-30,24.071242,120.820419,0.0071973884
C2A650,火燒寮,2025-12-30,25.002719,121.742892,0.122374274
466930,竹子湖,2025-12-30,25.162078,121.544547,0.002450206
C1I220,樟湖,2025-12-30,23.905333,120.846983,0.0050289747
C0I390,仁愛,2025-12-30,24.022122,121.132206,0.006839731
C0Z300,東里,2025-12-30,23.26853,121.30547,0.014562775
C1V590,新發,2025-12-30,23.057019,120.646064,0.02744726
C0K510,水林,2025-12-30,23.572924,120.24597,0.3504791
72S590,東改賓朗果園,2025-12-30,22.813889,121.071278,0.0020189062
82A750,茶改北部分場,2025-12-30,24.955778,121.631222,0.010512482
C1A750,石碇服務區,2025-12-30,25.00872,121.646242,0.024709353
C0X300,鹿寮,2025-12-30,23.386047,120.477331,0.3925434
G2AI50,關渡,2025-12-30,25.11575,121.492,0.014626187
C0K590,雲林東勢,2025-12-30,23.674192,120.255721,0.1378669
C2K310,港尾布雞,2025-12-30,23.74834,120.38439,0.4753081
C0A570,桶後,2025-12-30,24.848222,121.597992,0.38351175
C1S800,華源,2025-12-30,22.657883,121.02325,0.008443396
C0G720,溪州,2025-12-30,23.851589,120.499093,0.42194328
C1V160,達卡努瓦,2025-12-30,23.279811,120.705319,0.005370576
C2M410,馬頭山,2025-12-30,23.324361,120.582017,0.11016599
C0V850,蚵仔寮,2025-12-30,22.7256,120.2527,0.1307934
C0S740,池上,2025-12-30,23.119628,121.209469,0.00874254
C1V390,尖山,2025-12-30,22.813153,120.367789,0.7782396
C0AH70,松山,2025-12-30,25.04871,121.55042,0.010682661
C0N010,鯤鯓國小,2025-12-30,23.1879,120.0889,0.41970277
C0R550,新埤,2025-12-30,22.467947,120.582894,0.21125878
C0SA60,知本（水試所）,2025-12-30,22.702394,121.082761,0.02926196
C0T9I0,豐濱,2025-12-30,23.583897,121.514806,0.009853294
C0UB00,淡江大學蘭陽校園,2025-12-30,24.823239,121.730383,0.035290506
C0W240,九宮,2025-12-30,24.423753,118.240186,0.00041252587
C0T9N0,富里,2025-12-30,23.171639,121.249378,0.01389449
U2HA50,臺大竹山,2025-12-30,23.756972,120.681556,0.08424993
C0V840,鳳鼻頭,2025-12-30,22.5083,120.3591,0.23605774
C0X140,西港,2025-12-30,23.125608,120.203108,0.7591562
72D080,桃改五峰分場,2025-12-30,24.612194,121.157167,0.0024247887
C2H9P0,伊拿谷,2025-12-30,23.963211,121.088264,0.010614611
C2K250,崙背,2025-12-30,23.75553,120.31893,0.09092166
C2H9F0,柑林,2025-12-30,24.018658,120.847072,0.21637906
C0TA20,加灣,2025-12-30,24.082025,121.608944,0.12056529
C0V530,阿蓮,2025-12-30,22.883208,120.327508,0.7555933
C0FB30,八仙山苗圃,2025-12-30,24.192719,121.001366,0.016122114
C1O880,關山,2025-12-30,23.173397,120.594092,0.24310611
C0E791,卓蘭,2025-12-30,24.3126,120.8244,0.008094431
C1I030,武界,2025-12-30,23.913225,121.052483,0.010286519
C0R520,崁頂,2025-12-30,22.514781,120.506914,0.048821706
C0R341,牡丹,2025-12-30,22.130036,120.792639,0.06469092
C0R930,萬丹,2025-12-30,22.5885,120.4851,0.08695341
C0S760,紅石,2025-12-30,23.069131,121.126219,0.0006283632
C2C410,中央大學,2025-12-30,24.967652,121.185165,0.00799873
C1M610,石磐龍,2025-12-30,23.496606,120.663506,0.0044448925
C0C790,東眼山,2025-12-30,24.8284,121.40888,0.0023184062
C0UA10,鴛鴦湖,2025-12-30,24.590269,121.412228,0.00057692186
V2C260,八德蔬果,2025-12-30,24.978508,121.281819,0.009935119
C0R800,丹路,2025-12-30,22.204481,120.750989,0.043270096
C0G920,永靖,2025-12-30,23.924703,120.547533,0.12708491
C2M950,太和,2025-12-30,23.538372,120.702961,0.002426225
C1A630,下盆,2025-12-30,24.771003,121.538622,0.29423264
B2N890,畜產試驗所,2025-12-30,23.058972,120.336406,0.86049646
C0UA30,白嶺,2025-12-30,24.527819,121.519031,0.0012596649
C1V580,溪南(特生中心),2025-12-30,23.084972,120.788475,0.0013102944
C1T970,大農,2025-12-30,23.615233,121.413331,0.018763823
C0R650,竹田,2025-12-30,22.58486,120.54344,0.040897425
C1H900,清流,2025-12-30,24.080775,120.962997,0.0073913448
C1C510,水尾,2025-12-30,24.940081,121.087161,0.0036269736
C2N170,茅港尾,2025-12-30,23.2061,120.2624,0.80190325
C0F9X0,大雅(中科園區),2025-12-30,24.21528,120.62445,0.01084852
C0SB60,白守蓮,2025-12-30,23.126769,121.401914,0.17346361
C0O970,虎頭埤,2025-12-30,23.021375,120.347878,0.74295974
C0C730,中大臨海站,2025-12-30,24.966126,121.008581,0.011798795
C0X250,新營,2025-12-30,23.310689,120.316681,0.7459454
C0V700,三民,2025-12-30,22.645017,120.311233,0.07238176
C0U870,大礁溪,2025-12-30,24.791042,121.675047,0.06762536
C0E870,高鐵苗栗,2025-12-30,24.60725,120.826094,0.0026434225
A2K570,古坑花卉中心,2025-12-30,23.63353,120.55239,0.094796896
C0TA30,鹽寮,2025-12-30,23.845606,121.592664,0.03065191
C0M860,新美,2025-12-30,23.338017,120.683169,0.30340326
C1E701,八卦,2025-12-30,24.491756,120.927619,0.006309681
C2TA90,加納納,2025-12-30,23.466421,121.359867,0.005038279
C0I420,國姓,2025-12-30,24.037803,120.855072,0.17641748
C2D720,關西工作站,2025-12-30,24.757275,121.184792,0.118710615
C0S960,香蘭,2025-12-30,22.587569,120.993375,0.09998901
467620,蘭嶼,2025-12-30,22.0369,121.55843,0.0011683917
C0R260,春日,2025-12-30,22.370361,120.628306,0.25425467
72G600,臺中農改場,2025-12-30,24.003028,120.534389,0.14489739
C0Z210,瑞穗,2025-12-30,23.5239,121.39021,0.013556007
C0M820,達邦,2025-12-30,23.453994,120.749517,0.006043485
C0V860,南寮,2025-12-30,22.7616,120.2339,0.12987435
C0G740,大城,2025-12-30,23.852487,120.320935,0.0017094275
C0R920,塭仔,2025-12-30,22.4169,120.5197,0.06354406
C0R470,高樹,2025-12-30,22.826389,120.600806,0.12705229
C0R680,佳樂水,2025-12-30,21.993578,120.861633,0.0698134
C1O870,大棟山,2025-12-30,23.31157,120.52226,0.0030220612
C0D360,梅花,2025-12-30,24.678347,121.208558,0.012645383
C0Z190,富世,2025-12-30,24.14743,121.6297,0.74916744
C0AI10,屈尺,2025-12-30,24.92184,121.54475,0.0032239566
B2U990,畜試東區分所,2025-12-30,24.669039,121.832561,0.965162
C0SB80,長濱漁港,2025-12-30,23.313644,121.459994,0.014053105
C0TA50,和仁,2025-12-30,24.241394,121.712472,0.12633932
C0V910,大樹,2025-12-30,22.684645,120.432803,0.37693292
C1R610,西大武山,2025-12-30,22.617719,120.7322,0.0010091272
C0G900,線西,2025-12-30,24.143358,120.443536,0.0037190933
C0M700,竹崎,2025-12-30,23.526178,120.555508,0.059533916
C2E880,三義,2025-12-30,24.405478,120.749819,0.0010147241
C0C720,竹圍,2025-12-30,25.112692,121.239824,0.009748691
C0F9P0,清水,2025-12-30,24.312297,120.562242,0.0019576794
C0Z150,吉安光華,2025-12-30,23.930925,121.595153,0.06244022
C0FA80,小雪山天池,2025-12-30,24.28025,121.02627,0.00040398425
467300,東吉島,2025-12-30,23.25727,119.66762,0.0004152107
C1D640,外坪(五指山),2025-12-30,24.644447,121.090961,0.0070337653
C2R9A0,高士國小,2025-12-30,22.12553,120.84653,0.07335202
C0F9O0,潭子,2025-12-30,24.213106,120.703933,0.035364397
C2H9R0,卓社,2025-12-30,23.887894,121.000086,0.0033743714
72T250,花蓮農改場,2025-12-30,23.975222,121.563889,0.049409132
C0E780,銅鑼,2025-12-30,24.489681,120.790853,0.0050757853
C1T950,太安,2025-12-30,23.666719,121.370128,0.01155176
C0E830,苑裡,2025-12-30,24.439714,120.653053,0.0013322859
467270,田中,2025-12-30,23.873803,120.581286,0.48768285
C0SA10,檳榔四格山,2025-12-30,22.810031,121.109308,0.0014485492
C1T830,布洛灣,2025-12-30,24.17184,121.57127,0.5359533
C0F970,大坑,2025-12-30,24.173142,120.722289,0.07170027
C1U920,思源,2025-12-30,24.393125,121.347214,0.0005994068
C2H9Y0,松茗,2025-12-30,23.8167,120.650765,0.048447732
C0A931,三和,2025-12-30,25.233153,121.595236,0.038444664
C0I010,廬山,2025-12-30,24.033311,121.181808,0.0011299073
C2M940,日野賀,2025-12-30,23.434056,120.727169,0.0038169103
C0R860,鼻頭,2025-12-30,22.1043,120.8979,0.16268292
C0UB20,壯圍,2025-12-30,24.7359,121.8163,0.14629401
C0R790,九棚,2025-12-30,22.14195,120.889281,0.03640244
C0W110,東莒,2025-12-30,25.9652,119.98069,0.00028916917
C1U930,粉鳥林,2025-12-30,24.497088,121.842479,0.9025986
C1I211,蘆竹湳,2025-12-30,23.934019,120.811994,0.027902171
C0S830,長濱,2025-12-30,23.286817,121.411975,0.00772627
C1F9F1,伯公龍,2025-12-30,24.272392,120.849047,0.0193108
C0UB90,太平山莊,2025-12-30,24.494171,121.536209,0.0006390319
C0E810,西湖,2025-12-30,24.562947,120.7485,0.00073285494
C1I440,新高口,2025-12-30,23.478744,120.878939,0.00056956086
C0O840,王爺宮,2025-12-30,23.222064,120.40085,0.8622352
C0T9G0,鳳林山,2025-12-30,23.735269,121.420131,0.047412507
C0X080,佳里,2025-12-30,23.173039,120.145086,0.38115454
C0FB70,大甲溪埔,2025-12-30,24.370625,120.620067,0.0015620936
C0Z310,清水斷崖,2025-12-30,24.218294,121.689142,0.050316367
C0M680,太保,2025-12-30,23.455062,120.331455,0.5737126
C1S820,金峰,2025-12-30,22.590969,120.933236,0.035558783
C0AD10,八里,2025-12-30,25.150211,121.403947,0.014505161
C2K240,草嶺,2025-12-30,23.59555,120.693461,0.0067927497
C1SA70,都蘭,2025-12-30,22.87794,121.226881,0.012137218
C0K440,二崙,2025-12-30,23.772797,120.408944,0.43627012
C1A760,坪林交控,2025-12-30,24.94284,121.713442,0.058247272
C0F9N0,大里,2025-12-30,24.092464,120.701378,0.22409229
C0SA90,達仁林場,2025-12-30,22.264347,120.823972,0.016785474
C1R290,石門山,2025-12-30,22.112611,120.756597,0.00686108
42HA10,萬大發電廠,2025-12-30,23.978875,121.139639,0.012162572
C0R890,山海,2025-12-30,21.9878,120.7091,0.0042755706
C0T9A0,月眉山,2025-12-30,23.809928,121.539828,0.00096609734
C0AC70,信義,2025-12-30,25.037822,121.564597,0.013535472
C0K560,棋山,2025-12-30,23.68645,120.603417,0.07398673
C2FB50,出雲,2025-12-30,24.206469,120.902794,0.00794565
C1Z240,中平林道,2025-12-30,23.42115,121.26763,0.005331641
U2H480,溪頭,2025-12-30,23.670306,120.798194,0.0034198214
C0M880,好美里,2025-12-30,23.3364,120.138,0.60671973
C0T9E0,大坑,2025-12-30,23.880628,121.581981,0.0020789425
C0K530,臺西,2025-12-30,23.701547,120.197559,0.020085232
C1E900,國一N128K,2025-12-30,24.560997,120.844186,0.004766644
C0AJ50,水湳洞,2025-12-30,25.123695,121.862238,0.4623085
C0AI20,白沙灣,2025-12-30,25.283128,121.519058,0.036659166
C2V310,美濃,2025-12-30,22.898792,120.51907,0.6488235
C0A860,大坪,2025-12-30,25.165914,121.632969,0.0140397325
C1U850,觀音海岸,2025-12-30,24.38319,121.77856,0.0016328659
C2K610,草嶺石壁,2025-12-30,23.602469,120.707731,0.0060881344
C0U950,鶯子嶺,2025-12-30,24.89754,121.79244,0.0025931073
C0O900,善化,2025-12-30,23.112883,120.297219,0.8634393
C0K550,蔦松,2025-12-30,23.514319,120.229736,0.27159256
E2P980,林試六龜中心,2025-12-30,22.991703,120.645722,0.20839643
C0E590,通霄,2025-12-30,24.471892,120.704622,0.0020905838
C1I310,西巒,2025-12-30,23.754486,120.883956,0.0015982183
C0A550,泰平,2025-12-30,24.971197,121.823711,0.07349917
C0I360,水里,2025-12-30,23.812553,120.849792,0.23166803
C0R830,高士,2025-12-30,22.121825,120.836781,0.0036383697
C1I101,溪頭,2025-12-30,23.661789,120.807647,0.0007899296
C0AJ20,野柳,2025-12-30,25.20703,121.690021,0.17534289
C0B060,暖暖,2025-12-30,25.0957,121.7403,0.1787593
C1H920,長豐,2025-12-30,24.102039,120.879897,0.022674683
C2S9B0,利吉,2025-12-30,22.86246,121.15486,0.0036783656
C0V360,內門,2025-12-30,22.975481,120.466769,0.7578937
C0R850,林邊,2025-12-30,22.4634,120.5339,0.06888167
C0E930,龍鳳,2025-12-30,24.700034,120.859125,0.0022665283
C0U910,冬山,2025-12-30,24.63373,121.7937,0.965162
C1E721,泰安,2025-12-30,24.489017,120.968036,0.0022035493
82H320,茶改中部分場,2025-12-30,23.875611,120.913583,0.018918803
C0M750,布袋,2025-12-30,23.380878,120.167789,0.12934546
C1S860,利嘉,2025-12-30,22.809417,121.050528,0.0034945768
E2S980,林試太麻里1,2025-12-30,22.598922,120.980044,0.071923636
C0X170,關廟,2025-12-30,22.963017,120.327797,0.8269598
C0V720,林園,2025-12-30,22.507747,120.394511,0.22182083
C1I510,線浸林道,2025-12-30,23.761508,120.832956,0.0011568702
C0D690,外湖,2025-12-30,24.917735,120.968711,0.00216573
C0C750,新興坑尾,2025-12-30,25.0061,121.0971,0.0037392622
B2Q810,畜試南區分所,2025-12-30,21.945583,120.802167,0.06988479
C0S790,金崙,2025-12-30,22.538122,120.966875,0.04162468
C0AH90,福山植物園,2025-12-30,24.760717,121.58135,0.16894929
C0I540,奇萊稜線,2025-12-30,24.109231,121.326456,0.00032395124
C0M850,表湖,2025-12-30,23.24186,120.64166,0.031810973
C0S770,大溪山,2025-12-30,22.478475,120.943325,0.010910871
C0AG80,中和,2025-12-30,24.991622,121.491792,0.0035028262
C0T790,大禹嶺,2025-12-30,24.186117,121.316086,0.00044463435
C0T9B0,水源,2025-12-30,23.991861,121.537169,0.00084078923
C0R840,牡丹池山,2025-12-30,22.168389,120.841225,0.0031630413
C1I131,桶頭,2025-12-30,23.641944,120.654117,0.29640347
CAL110,布袋國中,2025-12-30,23.35893,120.18026,0.60671973
C2M9D0,何竹子腳,2025-12-30,23.53641,120.38203,0.8189923
467571,新竹,2025-12-30,24.827853,121.014219,0.006118712
C0Z290,赤柯山,2025-12-30,23.36893,121.38293,0.0010023854
C0X280,將軍,2025-12-30,23.214999,120.13577,0.55790764
C0S690,太麻里,2025-12-30,22.60902,120.98533,0.0027143552
C0U880,北關,2025-12-30,24.9072,121.8734,0.73192
CAW010,東引,2025-12-30,26.3588,120.4836,0.0003200205
C0G810,埔心,2025-12-30,23.947633,120.525456,0.12827681
C0U970,大福,2025-12-30,24.80064,121.81389,0.08774931
C2H9N0,仁愛東眼,2025-12-30,24.026875,121.1205,0.0026940026
C1E670,南礦,2025-12-30,24.538278,121.002836,0.0024981403
C0M520,東後寮,2025-12-30,23.369908,120.248065,0.57443583
C1E461,松安,2025-12-30,24.397972,120.986022,0.0020714654
C2N160,西拉雅風管處,2025-12-30,23.189481,120.335297,0.7766956
C2M970,碧湖,2025-12-30,23.568632,120.624165,0.0029640645
C0A640,石碇,2025-12-30,24.993969,121.662917,0.058220323
E2S960,林試太麻里2,2025-12-30,22.598,120.99775,0.103268996
C0F9Y0,桃山,2025-12-30,24.432739,121.303808,0.00024440401
C1I020,萬大,2025-12-30,23.979817,121.132261,0.006619668
C2UC20,長嶺,2025-12-30,24.70894,121.61162,0.24090478
C0U940,羅東,2025-12-30,24.68184,121.74934,0.7621252
C0M650,朴子,2025-12-30,23.43463,120.23902,0.58815396
C1I500,大尖山,2025-12-30,23.858572,120.994889,0.0009498943
C0FB40,中橫21.6k,2025-12-30,24.2499,121.1455,0.0018856658
C0G820,田尾,2025-12-30,23.901669,120.509389,0.12804787
E2K600,四湖植物園,2025-12-30,23.676986,120.163433,0.03250558
C0S730,綠島,2025-12-30,22.6672,121.47533,0.005536745
12Q970,東港工作站,2025-12-30,22.479997,120.466058,0.06878555
C1TA00,太魯閣,2025-12-30,24.15773,121.6236,0.7442983
466920,臺北,2025-12-30,25.037658,121.514853,0.010682661
C0R600,舊泰武,2025-12-30,22.588194,120.664944,0.013806969
C1I260,北坑,2025-12-30,23.9246,121.006903,0.042904437
466910,鞍部,2025-12-30,25.182586,121.529731,0.0009921087
C1I230,九份二山,2025-12-30,23.961944,120.845,0.0060108593
C2M810,里佳,2025-12-30,23.389125,120.716647,0.002081868
C2A660,瑞芳,2025-12-30,25.113169,121.801147,0.24019769
C0R270,琉球嶼,2025-12-30,22.332244,120.362236,0.790997
C2V580,瑞山,2025-12-30,22.90304,120.43424,0.84066415
C1T990,高寮,2025-12-30,23.394239,121.356808,0.016591948
C0G620,芬園,2025-12-30,24.015678,120.6213,0.10477561
C1Z140,荖溪,2025-12-30,23.890575,121.45964,0.011575126
C1I201,中心崙,2025-12-30,23.728722,120.712097,0.019458126
C1I400,凌霄,2025-12-30,24.018778,121.004456,0.0026064508
C1M640,十字,2025-12-30,23.492153,120.753683,0.001321673
G2P820,農試鳳山分所,2025-12-30,22.646611,120.356083,0.20965917
C0Z270,蕃薯寮,2025-12-30,23.73835,121.540108,0.002652922
C2E420,竹南,2025-12-30,24.70898,120.88897,0.0021228418
C0FB10,出雲山苗圃,2025-12-30,24.23105,120.90475,0.013954791
C0F9Q0,外埔,2025-12-30,24.347817,120.705686,0.01661099
C0K580,高鐵雲林,2025-12-30,23.737456,120.417944,0.47372496
C2I090,鳳凰,2025-12-30,23.728081,120.787347,0.009030408
C0U990,員山,2025-12-30,24.74435,121.72247,0.76250327
C0V770,大社,2025-12-30,22.730306,120.346639,0.19914952
C0X120,麻豆,2025-12-30,23.183289,120.248611,0.8039848
C0C670,龍潭,2025-12-30,24.870056,121.221389,0.016041577
C0D680,香山濕地,2025-12-30,24.783581,120.914988,0.0021602982
C0S980,勝林山,2025-12-30,22.430439,120.8938,0.0012715366
C0V730,大寮,2025-12-30,22.605614,120.395717,0.10643298
C0R570,麟洛,2025-12-30,22.65078,120.52719,0.05676748
C2M930,石卓,2025-12-30,23.478744,120.702264,0.0013601907
C0G9B0,和美,2025-12-30,24.105169,120.492131,0.0072233034
CAG100,王功漁港,2025-12-30,23.96824,120.32586,0.0010114581
C0X290,北門,2025-12-30,23.267772,120.125481,0.5584317
C2F930,大甲,2025-12-30,24.347667,120.640403,0.002971462
C0D650,湖口,2025-12-30,24.904794,121.043628,0.0039552874
C0U780,五結,2025-12-30,24.68637,121.79794,0.965162
C1I250,鯉潭,2025-12-30,23.961922,120.991131,0.02296079
C0R130,阿禮,2025-12-30,22.742908,120.743678,0.009253437
C0X100,臺南市北區,2025-12-30,23.010394,120.194228,0.72122484
C0S920,金峰嘉蘭,2025-12-30,22.594789,120.960825,0.0683654
C0V490,新興,2025-12-30,22.627422,120.298803,0.07178055
C0F9K0,大安,2025-12-30,24.345061,120.588025,0.0015678304
467290,古坑,2025-12-30,23.633639,120.551889,0.06975853
C2E970,八甲,2025-12-30,24.535811,120.795983,0.004478069
C0V440,鳳山,2025-12-30,22.646653,120.356122,0.20965917
C1T940,大觀,2025-12-30,23.714206,121.373133,0.0018878819
C0E740,造橋,2025-12-30,24.637056,120.864778,0.0026552535
C0R100,尾寮山,2025-12-30,22.833111,120.683889,0.007172066
A2K630,臺大雲林校區,2025-12-30,23.730628,120.423903,0.47299117
467990,馬祖,2025-12-30,26.169467,119.923158,0.00030899871
C0D580,寶山,2025-12-30,24.735006,121.025192,0.016951768
E2P990,林試扇平站,2025-12-30,22.9677,120.6857,0.04789935
C0AI30,三重,2025-12-30,25.057328,121.500629,0.010726562
C0AH00,汐止,2025-12-30,25.066881,121.658778,0.03843202
C1Z040,立山,2025-12-30,23.443356,121.327375,0.0044918885
466881,新北,2025-12-30,24.959207,121.525196,0.0035497772
C0W130,花嶼,2025-12-30,23.40007,119.32276,0.00040134348
C0A950,鼻頭角,2025-12-30,25.129036,121.923372,0.48465666
C0K470,林內,2025-12-30,23.748675,120.609642,0.0743456
C2F990,摩天嶺,2025-12-30,24.322458,120.936819,0.01211287
C2E430,南庄,2025-12-30,24.601775,121.000214,0.0036090056
82C160,茶改場,2025-12-30,24.908472,121.185333,0.008461635
C2TB60,南安,2025-12-30,23.29818,121.26157,0.010859292
C0Z320,清水林道,2025-12-30,23.27125,121.188272,0.0032393534
C0R760,南仁湖,2025-12-30,22.084681,120.863353,0.0068530077
C0M670,大林,2025-12-30,23.600616,120.45841,0.71544707
C0M800,茶山,2025-12-30,23.299075,120.664767,0.3253384
C0A9C0,天母,2025-12-30,25.117494,121.537169,0.01289773
72K220,南改斗南分場,2025-12-30,23.634556,120.477333,0.52484626
72AI40,桃改樹林分場,2025-12-30,24.944503,121.386972,0.0027748463
C0S910,蘭嶼燈塔,2025-12-30,22.081197,121.503117,0.010508832
C0B050,八斗子,2025-12-30,25.144754,121.79167,0.474928
C0U900,內城,2025-12-30,24.71813,121.68766,0.79962957
C0X320,柳營,2025-12-30,23.253328,120.375253,0.8621742
C0M790,新港,2025-12-30,23.553269,120.345728,0.44612962
C0F9T0,西屯,2025-12-30,24.179494,120.641275,0.051394925
C0E950,松安,2025-12-30,24.39792,120.98599,0.0020714654
C0SA30,都歷,2025-12-30,23.020333,121.323642,0.0039723283
C0C620,蘆竹,2025-12-30,25.084275,121.265767,0.0051349727
C0R730,大坪頂,2025-12-30,22.024633,120.69355,0.020864198
C0AJ40,石門,2025-12-30,25.273672,121.601198,0.013524487
C0E750,苗栗,2025-12-30,24.564569,120.824575,0.0047869273
C0T870,鯉魚潭,2025-12-30,23.935639,121.508944,0.01536131
C1V170,排雲,2025-12-30,23.463619,120.954147,0.00028561457
C2H950,中寮,2025-12-30,23.884447,120.766406,0.33401054
C0R350,貓鼻頭,2025-12-30,21.921774,120.7358,0.0048152334
C0V660,岡山,2025-12-30,22.797078,120.294958,0.13361023
C1H941,雙冬,2025-12-30,23.967378,120.802189,0.023120858
C0AJ70,田寮,2025-12-30,25.2698,121.4886,0.0392056
C0AI00,五股,2025-12-30,25.07445,121.42728,0.0027219963
C0Z280,德武,2025-12-30,23.47426,121.41071,0.006921361
C2RA10,大新,2025-12-30,22.67558,120.57788,0.0740316
C0R700,枋山,2025-12-30,22.246844,120.661086,0.0062270523
C0C460,復興,2025-12-30,24.820208,121.352281,0.009165967
C2K300,鹿南,2025-12-30,23.63855,120.3636,0.20090908
E2H360,蓮華池,2025-12-30,23.918333,120.885278,0.027744891
C0M640,中埔,2025-12-30,23.42538,120.5229,0.08978391
C0W140,金沙,2025-12-30,24.488292,118.408778,0.00039366883
C2A540,四堵,2025-12-30,24.8926,121.745736,0.07358868
C0ACA0,新莊,2025-12-30,25.051478,121.446756,0.0052552084
C0R220,潮州,2025-12-30,22.534361,120.54,0.04906929
U2HA40,臺大內茅埔,2025-12-30,23.689722,120.851117,0.0948885
467490,臺中,2025-12-30,24.145736,120.684075,0.07459612
C0UB60,明池,2025-12-30,24.650688,121.475277,0.002691086
C0U960,翠峰湖,2025-12-30,24.510856,121.608044,0.00066624687
E2HA20,林試畢祿溪站,2025-12-30,24.226944,121.308522,0.0007323205
C2M9A0,大華,2025-12-30,23.4824,120.67491,0.00438796
C0V890,前鎮,2025-12-30,22.5718,120.3117,0.17187342
C1F941,雪嶺,2025-12-30,24.280586,121.026642,0.00040398425
C2H9E0,國姓南港,2025-12-30,23.911108,120.846556,0.0044469293
C0AC80,文山,2025-12-30,25.00235,121.575728,0.010645574
C0F9R0,龍井,2025-12-30,24.184536,120.528972,0.0020290136
C0M760,民雄,2025-12-30,23.551754,120.428457,0.7168405
C0UA40,西德山,2025-12-30,24.560647,121.752608,0.009780084
C2TA70,赤科坪,2025-12-30,23.39885,121.39168,0.0011495075
C1T920,中興,2025-12-30,23.769503,121.498653,0.010627449
C0D550,雪霸,2025-12-30,24.526972,121.11605,0.00073535735
C2F860,梨山,2025-12-30,24.247522,121.243669,0.000574093
C0R320,車城,2025-12-30,22.0744,120.716247,0.0045646746
C1S870,南美山,2025-12-30,23.15025,121.382333,0.019043967
C0B020,基隆嶼,2025-12-30,25.19141,121.78391,0.4025674
C1U501,牛鬥,2025-12-30,24.637836,121.573656,0.69145876
C0M730,嘉義市東區,2025-12-30,23.457673,120.460531,0.13651946
C2R990,泰武,2025-12-30,22.60686,120.69765,0.0104985675
C0S700,知本,2025-12-30,22.684866,121.005642,0.0029894335
C1N001,沙崙,2025-12-30,22.935472,120.309406,0.8276995
C0V760,橋頭,2025-12-30,22.757806,120.30575,0.19144543
C0G960,福寶,2025-12-30,24.0443,120.3814,0.014429898
C0X210,白河,2025-12-30,23.347466,120.414427,0.4244156
C0S810,東河,2025-12-30,22.972672,121.303986,0.0027629056
C2R170,屏東,2025-12-30,22.66027,120.49403,0.05631278
C0R670,楓港,2025-12-30,22.190131,120.692156,0.0064621153
C0FA50,霧峰,2025-12-30,24.0419,120.6995,0.22319509
C0UB10,蘇澳,2025-12-30,24.5969,121.8571,0.966553
C0G950,防潮門,2025-12-30,24.1835,120.4871,0.003626438
C0M740,六腳,2025-12-30,23.492871,120.290625,0.5575411
C1R250,力里,2025-12-30,22.428117,120.629228,0.25226545
C0K330,虎尾,2025-12-30,23.719183,120.442036,0.4701173
C2FA00,烏石坑,2025-12-30,24.273503,120.947617,0.012572867
C0V620,永安,2025-12-30,22.82315,120.236856,0.13176689
C1I330,楓樹林,2025-12-30,23.986803,121.076117,0.0051647783
C0W200,湖西,2025-12-30,23.596314,119.67275,0.00045320365
72Q010,高雄農改場,2025-12-30,22.709333,120.525889,0.071534
C0SA40,瑞和,2025-12-30,22.974361,121.156697,0.004684323
C0C680,龜山,2025-12-30,25.02846,121.38656,0.0011466247
C2V260,月眉,2025-12-30,22.971003,120.539853,0.50763494
C0V450,鳳森,2025-12-30,22.545064,120.392592,0.2614694
C0FA90,小雪山林道,2025-12-30,24.29515,121.03651,0.00035288124
C0U720,南山,2025-12-30,24.43742,121.38167,0.0013138665
A2N290,臺南蘭花園區,2025-12-30,23.340258,120.379661,0.6461007
C0R560,新園,2025-12-30,22.5434,120.461558,0.22182083
C0U890,三星,2025-12-30,24.66812,121.65302,0.7236638
C1V300,御油山,2025-12-30,23.001983,120.715364,0.0013788877
C0U600,礁溪,2025-12-30,24.817539,121.765608,0.08702525
C1T980,龍澗,2025-12-30,24.023289,121.411328,0.0015215108
C0D670,海天一線,2025-12-30,24.831986,120.914438,0.0016252286
C0SA00,歷坵,2025-12-30,22.520969,120.89185,0.006910628
C0M710,東石,2025-12-30,23.458927,120.15385,0.1216999
C0M780,鹿草,2025-12-30,23.41134,120.30835,0.5837527
C0U520,雙連埤,2025-12-30,24.753033,121.641303,0.1710844
C0B010,七堵,2025-12-30,25.094819,121.71713,0.38426936
C0R480,長治,2025-12-30,22.693128,120.542622,0.0675133
C1V830,國三S383K,2025-12-30,22.781967,120.426475,0.6423992
12Q980,恆春工作站,2025-12-30,22.079678,120.714425,0.0045603844
C1O940,東山服務區,2025-12-30,23.286016,120.398472,0.6486603
C1U840,東澳嶺,2025-12-30,24.5378,121.8485,0.09278529
C1D630,飛鳳山,2025-12-30,24.766464,121.119178,0.015457398
C0S940,石寧山,2025-12-30,23.223772,121.406639,0.047258355
C0K410,北港,2025-12-30,23.573957,120.292802,0.34875044
C2M620,瑞里,2025-12-30,23.545133,120.675197,0.0039239414
C0SB70,小港漁港,2025-12-30,23.158558,121.400431,0.16142336
C2O950,安南,2025-12-30,23.076694,120.144861,0.39475426
C0F0E0,南湖圈谷,2025-12-30,24.363714,121.444667,0.00024666873
467610,成功,2025-12-30,23.097486,121.373428,0.066713765
C0G890,伸港,2025-12-30,24.148933,120.484403,0.0036067101
C2E540,龍溪,2025-12-30,24.606489,120.783933,0.004890237
C1V200,梅山,2025-12-30,23.268447,120.823556,0.015256506
C0T9H0,加路蘭山,2025-12-30,23.682947,121.5274,0.0008981837
C2O930,玉井,2025-12-30,23.126042,120.46055,0.36566594
C1F911,新伯公,2025-12-30,24.221361,120.841069,0.020859763
C0R490,九如,2025-12-30,22.7405,120.490503,0.0707133
C0X200,左鎮,2025-12-30,23.056758,120.408522,0.6599468
C2TB50,麻汝,2025-12-30,23.42554,121.39358,0.0067523154
C0FA60,鞍馬山工作站,2025-12-30,24.267064,121.000793,0.0003978153
C0SB50,叭嗡嗡,2025-12-30,23.047062,121.343223,0.0932022
C1F891,稍來,2025-12-30,24.265689,121.001142,0.00040596235
C2M9C0,紫雲,2025-12-30,23.494914,120.540253,0.07377633
72N240,七股研究中心,2025-12-30,23.081672,120.062894,0.46559504
C0C700,中壢,2025-12-30,24.977661,121.256375,0.00950388
C0M690,水上,2025-12-30,23.419734,120.388909,0.84514505
C0V690,鼓山,2025-12-30,22.623325,120.275575,0.07124823
C0O860,大內,2025-12-30,23.11885,120.36083,0.8240213
C0Z200,萬榮,2025-12-30,23.709219,121.420106,0.00548997
C0T9D0,和中,2025-12-30,24.26676,121.74103,0.12649587
C2S9A0,北份子寮,2025-12-30,22.78561,121.07813,0.011216814
C1O921,楠西,2025-12-30,23.183511,120.484083,0.36721858
C0AJ30,淡水觀海,2025-12-30,25.184591,121.408616,0.014848792
C0V810,左營,2025-12-30,22.67491,120.28491,0.07252788
C0UA70,桃源谷,2025-12-30,24.962606,121.888875,0.03544781
C0X130,官田,2025-12-30,23.193217,120.315422,0.7779852
C1H000,翠峰,2025-12-30,24.109397,121.205211,0.00056289765
C0UA90,石城,2025-12-30,24.980444,121.951214,0.44404364
C1E681,南勢山,2025-12-30,24.421669,120.923831,0.0032606686
C0A9F0,內湖,2025-12-30,25.079422,121.57545,0.013556053
C0K291,宜梧,2025-12-30,23.536281,120.169329,0.036250446
C1K540,口湖,2025-12-30,23.585344,120.180517,0.03891727
C0R780,滿州,2025-12-30,22.024403,120.839892,0.084081896
C0V870,文安,2025-12-30,22.8025,120.2164,0.1307934
C0U650,玉蘭,2025-12-30,24.675286,121.587061,0.23483384
C0R640,東港,2025-12-30,22.46247,120.44074,0.2365918
C0AJ80,板橋,2025-12-30,25.0107,121.4489,0.0035053734
C0S660,下馬,2025-12-30,23.150427,121.070312,0.001701188
C2N190,烏樹,2025-12-30,23.32393,120.36989,0.40879127
C1H9B1,阿眉,2025-12-30,24.1263,120.994672,0.00096736976
C0UA20,多加屯,2025-12-30,24.368614,121.373189,0.0003671299
C0E730,頭份,2025-12-30,24.688247,120.912206,0.0021344726
72V140,高改旗南分場,2025-12-30,22.857861,120.516667,0.62952626
C0K480,莿桐,2025-12-30,23.761192,120.502372,0.54519314
C0U980,坪林石牌,2025-12-30,24.86478,121.77396,0.021684876
C0T900,西林,2025-12-30,23.8119,121.441458,0.0042458912
C1I150,青雲,2025-12-30,23.793361,120.949378,0.16984294
C2E980,和興,2025-12-30,24.505319,120.923016,0.016841186
467350,澎湖,2025-12-30,23.565503,119.563094,0.00046442283
C0G800,埔鹽,2025-12-30,24.000394,120.431683,0.012324283
C0H960,草屯,2025-12-30,23.973672,120.68085,0.27768567
C1V780,多納林道,2025-12-30,22.888028,120.737917,0.0045312787
C0E920,通霄漁港,2025-12-30,24.498589,120.673876,0.0021459227
C0Z330,安通山,2025-12-30,23.290728,121.348528,0.0022048885
C0AH10,永和,2025-12-30,25.01125,121.508111,0.0035070544
C0AK10,太平里,2025-12-30,25.134937,121.364899,0.0070374864
C2G640,鹿港,2025-12-30,24.0753,120.430481,0.0072693513
C1E890,國三N149K,2025-12-30,24.463414,120.680019,0.0020643757
C1R110,口社,2025-12-30,22.770111,120.645222,0.123670064
C1M870,國三N285K,2025-12-30,23.550319,120.505833,0.07566799
C1E480,鳳美,2025-12-30,24.554803,121.034747,0.017941779
C0T9M0,靜浦,2025-12-30,23.455167,121.495028,0.022417447
C2H9M0,發祥,2025-12-30,24.154094,121.164517,0.0022232663
C2G9C0,埔南,2025-12-30,23.99124,120.46969,0.012302564
C0AI40,石牌,2025-12-30,25.115597,121.513139,0.013556053
C1F871,上谷關,2025-12-30,24.203483,121.018644,0.012546055
C2H9G0,百勝,2025-12-30,24.051142,120.909361,0.06200728
C0G880,二水,2025-12-30,23.810742,120.6173,0.08448897
C0R940,加祿堂,2025-12-30,22.3363,120.6217,0.009781687
C0W220,北竿,2025-12-30,26.220358,119.974881,0.00029717034
C0O960,崎頂,2025-12-30,22.959547,120.369317,0.8213675
C0TA40,秀林,2025-12-30,24.302864,121.731144,0.0060378737
C0S750,向陽,2025-12-30,23.248397,120.986133,0.00077807566
C0T9F0,水璉,2025-12-30,23.797131,121.542514,0.002329525
C1M600,頭凍,2025-12-30,23.406364,120.603339,0.0023032331
467660,臺東,2025-12-30,22.752211,121.154586,0.017614337
C1D380,新埔,2025-12-30,24.84745,121.03834,0.005730714
C2G980,田頭村,2025-12-30,23.8263,120.444175,0.43652403
C0V750,路竹,2025-12-30,22.854997,120.259439,0.14247438
C0N050,蚵寮,2025-12-30,23.301,120.1104,0.5584317
C2X060,下營,2025-12-30,23.226806,120.256291,0.80214024
72M700,南改鹿草分場,2025-12-30,23.416869,120.283061,0.5869778
C1SA50,利嘉林道,2025-12-30,22.82325,121.009389,0.0012428784
C0UB70,太平山中間站,2025-12-30,24.542003,121.513453,0.012969062
C0A940,金山,2025-12-30,25.223628,121.643967,0.19080026
C1V340,大津,2025-12-30,22.888322,120.645986,0.12812267
C0W180,七美,2025-12-30,23.219333,119.444892,0.00041724852
C1F9C1,白冷,2025-12-30,24.182844,120.929889,0.040723287
K2E710,苗改生物防治研究中心,2025-12-30,24.422861,120.871833,0.004075381
C0N040,蘆竹溝,2025-12-30,23.2344,120.0961,0.55879843
C0TB40,崇德,2025-12-30,24.166144,121.657414,0.63416445
C0D760,大坪苗圃,2025-12-30,24.5362,121.1108,0.0016306707
C2W230,畜試所澎湖,2025-12-30,23.628342,119.513206,0.00044772308
C0R880,後壁湖,2025-12-30,21.9457,120.7457,0.0042821066
C1I280,埔中,2025-12-30,23.820778,120.642594,0.046032447
467790,墾丁雷達站,2025-12-30,21.948235,120.808028,0.06922844
C0W190,望安,2025-12-30,23.380564,119.494075,0.0004111902
C0Z170,卓溪,2025-12-30,23.3443,121.3029,0.009209518
C0F850,東勢,2025-12-30,24.246428,120.833047,0.026564851
466900,淡水,2025-12-30,25.164889,121.448906,0.0335207
C0I370,魚池,2025-12-30,23.895703,120.94135,0.02031693
C0C630,大溪,2025-12-30,24.882853,121.265547,0.008103881
C0A520,山佳,2025-12-30,24.974944,121.402008,0.0029446029
C0I110,竹山,2025-12-30,23.761225,120.688156,0.088905565
82H840,茶改南部分場,2025-12-30,23.762528,120.7405,0.07746973
C2SD80,再來山,2025-12-30,23.34371,121.44122,0.0042542517
C0G660,溪湖,2025-12-30,23.94835,120.479122,0.1293002
C1T800,洛韶,2025-12-30,24.204558,121.453956,0.0020507134
C1T810,慈恩,2025-12-30,24.192044,121.388386,0.00043184884
C1E451,象鼻,2025-12-30,24.368617,120.940228,0.0063120197
C0AC60,三峽,2025-12-30,24.939025,121.369728,0.024286592
C0I490,萬大林道,2025-12-30,23.928228,121.091411,0.001854803
C1I290,豐丘,2025-12-30,23.668178,120.887417,0.0012686019
C1I320,奧萬大,2025-12-30,23.952956,121.178556,0.0014642733
C2M910,嘉義大學,2025-12-30,23.471325,120.485903,0.14028484
C0U770,南澳,2025-12-30,24.44935,121.81022,0.90250397
C2TB30,吉安,2025-12-30,23.94538,121.54803,0.032832347
C0A980,社子,2025-12-30,25.109508,121.469681,0.028670419
C0V800,六龜,2025-12-30,22.997889,120.633583,0.2158108
C1G9D0,國一S218K,2025-12-30,23.890641,120.493253,0.20593332
C0E570,白沙屯,2025-12-30,24.549447,120.696803,0.00074196426
C2F9A0,中竹林,2025-12-30,24.103556,120.751061,0.012564132
C0FA40,臺中電廠,2025-12-30,24.2146,120.4907,0.0026883113
C2G9A0,畜試所彰化,2025-12-30,23.86045,120.557964,0.48843807
C0H9C0,合歡山,2025-12-30,24.143442,121.272547,0.00034973474
G2M350,農試溪口農場,2025-12-30,23.58565,120.408111,0.72057235
C0U860,頭城,2025-12-30,24.85323,121.8308,0.28357533
C0R580,南州,2025-12-30,22.48591,120.50274,0.068780236
C0D430,峨眉,2025-12-30,24.6905,121.017189,0.005828292
C0G780,秀水,2025-12-30,24.03405,120.503869,0.14541355
72N100,臺南農改場,2025-12-30,23.0605,120.342194,0.8601952
C0S900,蘭嶼高中,2025-12-30,22.04909,121.51214,0.11183132
C2TA60,六十石,2025-12-30,23.22477,121.31861,0.001430515
C1F9W0,德基,2025-12-30,24.254783,121.190261,0.0006269198
C2M980,安和,2025-12-30,23.51377,120.31593,0.5543149
C1Z120,壽豐,2025-12-30,23.870853,121.508081,0.02435277
C0W160,烏坵,2025-12-30,24.9944,119.44956,0.0002652586
C1I240,外大坪,2025-12-30,23.958697,120.917931,0.014011457
C1I550,國六W023K,2025-12-30,23.979067,120.867742,0.10008925
C0R870,興海,2025-12-30,21.9752,120.8439,0.069857985
C0R140,瑪家,2025-12-30,22.682903,120.686639,0.058137614
C0A530,坪林,2025-12-30,24.938183,121.70975,0.032763742
C0X260,後壁,2025-12-30,23.366358,120.362326,0.7316473
C0Z230,和平,2025-12-30,24.30717,121.77007,0.27450085
C0G770,福興,2025-12-30,24.041289,120.437669,0.01235811
C0H9A0,神木村,2025-12-30,23.532742,120.843667,0.0011432301
C0I460,南投,2025-12-30,23.911469,120.687331,0.27823183
C0I480,梅峰,2025-12-30,24.085272,121.173572,0.0006641643
C1V570,吉東,2025-12-30,22.85422,120.5454,0.112870134
C2A560,福山,2025-12-30,24.776203,121.502811,0.28683302
C0AH30,五分山,2025-12-30,25.07125,121.780794,0.011197243
C0FA10,松柏,2025-12-30,24.429115,120.617482,0.0013435475
72S200,東改班鳩分場,2025-12-30,22.829528,121.077694,0.002751563
72HA00,中改埔里分場,2025-12-30,23.903208,120.963364,0.02225156
C2H9W0,大坪頂農水,2025-12-30,24.043122,120.932781,0.016391397
C0C650,平鎮,2025-12-30,24.897503,121.214636,0.010560132
C0S930,延平,2025-12-30,22.902581,121.084058,0.0026521804
C0UA60,樟樹山,2025-12-30,24.41393,121.78325,0.0025002004
C2UC10,出水溪,2025-12-30,24.615822,121.652253,0.1133484
C1S670,摩天,2025-12-30,23.199503,121.027,0.00071652693
C2C590,觀音,2025-12-30,25.027072,121.153317,0.002393108
C0V630,茄萣,2025-12-30,22.906642,120.182608,0.45438212
466940,基隆,2025-12-30,25.133314,121.740475,0.4552265
C0X050,東河,2025-12-30,23.296598,120.385608,0.6471357
C0R770,保力,2025-12-30,22.071122,120.764111,0.021210881
G2L020,農試嘉義分所,2025-12-30,23.485028,120.473806,0.14143376
C0X240,關子嶺,2025-12-30,23.331169,120.508025,0.22436346
C0I380,集集,2025-12-30,23.828206,120.801467,0.25623614
466990,花蓮,2025-12-30,23.975128,121.613275,0.120427035
C1V220,小關山,2025-12-30,23.154217,120.813603,0.0012452477
C1F9G1,慶福山,2025-12-30,24.180853,120.848378,0.0055431835
C0FB20,雪山橋,2025-12-30,24.23192,120.9786,0.00048984966
C0Z250,瑞穗林道,2025-12-30,23.49284,121.30688,0.008093795
C0D590,新豐,2025-12-30,24.87068,120.97721,0.0014053275
C0A870,五指山,2025-12-30,25.132153,121.608692,0.0024350295
C0UA50,西帽山,2025-12-30,24.555361,121.802628,0.09732451
C2R980,竹田國中,2025-12-30,22.61532,120.52412,0.040942512
C0X160,仁德,2025-12-30,22.968258,120.257689,0.7173507
C1H971,六分寮,2025-12-30,23.92507,120.6378,0.026888134
C0W120,西嶼,2025-12-30,23.5626,119.468436,0.00045635834
C0G650,員林,2025-12-30,23.946503,120.585597,0.16013983
C0AD50,鶯歌,2025-12-30,24.951533,121.346294,0.025164152
C2H9Q0,北東眼山,2025-12-30,24.120939,121.189303,0.00072534056
C2H9T0,名間竹圍,2025-12-30,23.859914,120.637572,0.05136823
C0S990,山豬窟,2025-12-30,22.318619,120.857372,0.05418909
C0X190,安平,2025-12-30,22.993161,120.152181,0.73993003
C0K400,斗六,2025-12-30,23.720583,120.541127,0.5418164
12J990,口湖工作站,2025-12-30,23.589978,120.180394,0.0387867
C0O830,北寮,2025-12-30,23.079561,120.495008,0.46113062
C1D410,白蘭,2025-12-30,24.579364,121.079947,0.0023606766
C0S970,加津林,2025-12-30,22.416211,120.926942,0.33634454
C0D700,關西,2025-12-30,24.7977,121.1732,0.13902377
C0U750,龜山島,2025-12-30,24.841667,121.953133,0.14879416
C0R810,內獅,2025-12-30,22.305064,120.642986,0.00978291
C1M390,龍美,2025-12-30,23.406728,120.654417,0.003924872
C2K290,崙內,2025-12-30,23.69525,120.35601,0.20090908
C2FB60,頭櫃山,2025-12-30,24.129842,120.858925,0.007640723
C1H840,國三N238K,2025-12-30,23.841008,120.707711,0.14500403
CAQ030,崎峰國小,2025-12-30,22.42565,120.49521,0.068780236
C2E520,大湖,2025-12-30,24.414939,120.870872,0.004005272
467530,阿里山,2025-12-30,23.508208,120.813242,0.00046725504
C1E691,南湖,2025-12-30,24.40135,120.837533,0.002572988
C0FA30,梧棲,2025-12-30,24.256003,120.523381,0.0020245663
C1V231,高中,2025-12-30,23.134911,120.716711,0.028842436
C0AK30,硬漢嶺,2025-12-30,25.136097,121.426372,0.0017711206
C0F9V0,新社,2025-12-30,24.200172,120.815806,0.0105070025
C0H890,埔里,2025-12-30,23.972169,120.952425,0.05137449
C0R690,墾丁,2025-12-30,21.966756,120.810269,0.0018006054
C0SD20,富山,2025-12-30,22.822383,121.190825,0.023172714
C0F0D0,審馬陣,2025-12-30,24.381675,121.4203,0.00024364369
C2W030,金門農試所,2025-12-30,24.448431,118.451786,0.00028596798
C0R820,白鷺,2025-12-30,22.454275,120.666219,0.08160145
C0FB00,大雪山,2025-12-30,24.254668,121.007374,0.0003951071
C1V190,南天池,2025-12-30,23.27403,120.91176,0.0006276398
C0E940,雪見,2025-12-30,24.42595,121.01347,0.00076445885
K2E360,苗栗農改場,2025-12-30,24.495722,120.829111,0.0073945783
CAJ050,海口故事園區,2025-12-30,23.57543,120.14121,0.038859498
C2K280,四湖,2025-12-30,23.6304,120.22717,0.032627612
C2H9D0,三隻寮,2025-12-30,24.093078,120.861578,0.0060067014
C0O990,媽廟,2025-12-30,22.99175,120.293525,0.8418538
C0D480,打鐵坑,2025-12-30,24.849664,121.150789,0.0077663655
C0Z220,和平林道,2025-12-30,24.343922,121.656317,0.0013962141
C0TA10,花蓮漁港,2025-12-30,23.995322,121.638331,0.019383814
72C440,桃園農改場,2025-12-30,24.950944,121.030583,0.004124791
C1E711,馬拉邦山,2025-12-30,24.367306,120.901656,0.005932337
C0SB20,富岡,2025-12-30,22.792467,121.192669,0.012727357
C0D560,竹東,2025-12-30,24.767147,121.057881,0.015943157
C0F9U0,南屯,2025-12-30,24.137006,120.637969,0.22223803
C2SD60,明峰,2025-12-30,22.8671,121.11825,0.0033963523
C0M720,番路,2025-12-30,23.464657,120.554156,0.111718945
C0F0A0,雪山圈谷,2025-12-30,24.388594,121.236339,0.00022391453
C1A9N0,四十份,2025-12-30,24.934158,121.593283,0.004203936
C0U760,東澳,2025-12-30,24.52196,121.83318,0.8953304
C0X230,鹽水,2025-12-30,23.272621,120.247641,0.5935796
C2H9H0,苗改南投蜂場,2025-12-30,23.852589,120.693481,0.23352696
C2TB70,達谷寮,2025-12-30,23.38,121.35968,0.007011609
C0R950,萬隆國小,2025-12-30,22.507667,120.587817,0.23589893
467540,大武,2025-12-30,22.35572,120.90374,0.21144961
C0V370,古亭坑,2025-12-30,22.893178,120.401947,0.83268434
C1I340,新興橋,2025-12-30,23.563333,120.868728,0.025778674
C0SA80,土坂,2025-12-30,22.453108,120.887572,0.1904855
C0R160,鹽埔,2025-12-30,22.739558,120.530778,0.072155625
C0AC40,大屯山,2025-12-30,25.175675,121.522408,0.0007109356
466850,五分山雷達站,2025-12-30,25.071182,121.781205,0.01077783
C2H9L0,馬烈霸,2025-12-30,24.1512,121.201772,0.0007537711
C1AI50,國三N016K,2025-12-30,25.034164,121.619664,0.028355591
C2V920,匏子寮,2025-12-30,23.04905,120.55319,0.36689225
C1V600,藤枝,2025-12-30,23.071961,120.757042,0.0017147992
C1E601,南勢,2025-12-30,24.572486,120.734842,0.000711787
C0O980,新市,2025-12-30,23.061614,120.298197,0.86301184
C0K420,西螺,2025-12-30,23.800407,120.467394,0.4323455
C0Z050,佳心,2025-12-30,23.34567,121.21316,0.0017001283
C0AD30,蘆洲,2025-12-30,25.086594,121.472331,0.0062424513
C0V610,梓官,2025-12-30,22.760558,120.267211,0.13384917
K2F750,種苗改良場,2025-12-30,24.225972,120.800917,0.011019887
C0UA80,大溪漁港,2025-12-30,24.941801,121.902955,0.7978394
C1AI60,國一39K邊坡,2025-12-30,25.064361,121.383836,0.0023773399
C0W150,金寧,2025-12-30,24.457703,118.328989,0.00036020816
C0R960,內埔,2025-12-30,22.608483,120.570714,0.0410805
V2C250,八德合作社,2025-12-30,24.93775,121.266389,0.008594123
C2H9S0,龍南,2025-12-30,23.953536,120.833183,0.004270227
C0AH40,平等,2025-12-30,25.129142,121.577086,0.0052399426
C0R540,佳冬,2025-12-30,22.419456,120.552375,0.06382951
466950,彭佳嶼,2025-12-30,25.627975,122.079744,0.0065987143
C0A890,雙溪,2025-12-30,25.036003,121.864242,0.3679049
C0C480,桃園,2025-12-30,24.992425,121.323172,0.010052121
C0AH50,林口,2025-12-30,25.072181,121.38084,0.0019152992
A2K360,水試臺西試驗場,2025-12-30,23.717231,120.190522,0.02013462
C2M960,外寮,2025-12-30,23.562643,120.665688,0.0063506854
C0F9S0,烏日,2025-12-30,24.107058,120.624103,0.08317612
C2N180,鹿陶洋,2025-12-30,23.14325,120.48352,0.3672615
C0C490,八德,2025-12-30,24.928708,121.283289,0.008551448
C0R190,赤山,2025-12-30,22.592333,120.614306,0.04071368
C0T820,天祥,2025-12-30,24.179597,121.495639,0.16734523
C1F9E1,龍安,2025-12-30,24.1605,120.831961,0.009399066
C2SD50,順那,2025-12-30,23.04166,121.29332,0.0023849723
C0V820,小林,2025-12-30,23.148408,120.63325,0.109789774
C2G870,芳苑,2025-12-30,23.922303,120.320025,0.00086826266
C0E850,大河,2025-12-30,24.618069,120.948578,0.0061826073
C1U670,寒溪,2025-12-30,24.634,121.71691,0.7346426
C0N020,城西,2025-12-30,23.0568,120.0956,0.44067022
C1Z110,三棧,2025-12-30,24.11557,121.60501,0.036107674
C0R280,檳榔,2025-12-30,22.076078,120.836777,0.039130475
C2H9J0,中台,2025-12-30,23.9996,120.938739,0.017588275
C0F9L0,后里,2025-12-30,24.310436,120.729725,0.018288366
467441,高雄,2025-12-30,22.730432,120.312516,0.1967966
C0Z180,新城,2025-12-30,24.040486,121.604878,0.10933051
C0D540,橫山,2025-12-30,24.71116,121.11693,0.013615763
C1D420,太閣南,2025-12-30,24.632808,121.160575,0.0015419349
C1E770,公館,2025-12-30,24.526914,120.830806,0.0061768317
CAN130,水試所海水繁養殖中心,2025-12-30,23.120802,120.07968,0.46559504
C1I430,翠華,2025-12-30,24.191961,121.224339,0.0004966555
C1M400,菜瓜坪,2025-12-30,23.251928,120.576103,0.2573717
C0G730,二林,2025-12-30,23.903325,120.376081,0.019092457
72M360,南改義竹分場,2025-12-30,23.360694,120.279361,0.5725543
V2K620,麥寮合作社,2025-12-30,23.753836,120.294783,0.09137971
C0Z070,舞鶴,2025-12-30,23.46811,121.37407,0.0044229473
C0B040,大武崙,2025-12-30,25.166676,121.706993,0.36598688
C1Z030,紅葉,2025-12-30,23.493119,121.338806,0.0062300544
C1I050,丹大,2025-12-30,23.753747,121.141147,0.0004508003
C0I080,信義,2025-12-30,23.689694,120.851036,0.0948885
C2TB80,庄子底,2025-12-30,23.71794,121.49438,0.01484644
C0D750,樂山林道6k,2025-12-30,24.49999,121.08773,0.00042448586
C2M920,朴子農改,2025-12-30,23.469889,120.259383,0.5891343
C2A880,福隆,2025-12-30,25.017842,121.942083,0.48415354
C0Z160,鳳林,2025-12-30,23.746114,121.453411,0.013048414
C0UB80,翠峰林道6K,2025-12-30,24.49773,121.568625,0.00060912414
C0V210,復興,2025-12-30,23.222403,120.806089,0.046917103
C0H990,昆陽,2025-12-30,24.121322,121.273642,0.00038502805
C0R741,獅子,2025-12-30,22.202308,120.705236,0.005056526
C0S710,鹿野,2025-12-30,22.917711,121.122994,0.001312455
C0I530,小奇萊,2025-12-30,24.131764,121.295717,0.00037938185
C0FA70,大雪山埡口,2025-12-30,24.26867,121.03062,0.0004063765
C2K630,荷苞,2025-12-30,23.657717,120.595144,0.06844259
C0Z080,富源,2025-12-30,23.587642,121.378225,0.013923079
C2M9E0,旺來山,2025-12-30,23.555153,120.486463,0.07602089
C0SB10,美和,2025-12-30,22.682078,121.060236,0.02682623
C2K620,馬光農場,2025-12-30,23.721453,120.378864,0.4753081
C1I140,卡奈托灣,2025-12-30,23.754364,121.087872,0.001425473
C0I520,玉山風口,2025-12-30,23.470489,120.955994,0.0002792197
C1G691,下水埔,2025-12-30,23.816114,120.5676,0.55448675
C0X110,臺南市南區,2025-12-30,22.961189,120.188378,0.71193945
C0V680,仁武,2025-12-30,22.701083,120.347722,0.19914952
C2G840,北斗,2025-12-30,23.877586,120.514222,0.20511001
C2TB90,長橋,2025-12-30,23.6874,121.46186,0.012213906
C0R900,竹坑,2025-12-30,22.1385,120.7022,0.0064621153
C0G860,社頭,2025-12-30,23.897647,120.5862,0.23602945
C0X150,安定,2025-12-30,23.102614,120.227839,0.81944543
C0R590,里港,2025-12-30,22.77919,120.49459,0.7534566
C0E610,馬都安,2025-12-30,24.451272,120.930192,0.005971996
C0E550,明德,2025-12-30,24.583486,120.885411,0.020694844
C0R150,三地門,2025-12-30,22.709889,120.639944,0.10019302
C0G910,花壇,2025-12-30,24.032076,120.549461,0.14281122
C1D400,鳥嘴山,2025-12-30,24.71909,121.28387,0.0031309924
C0K500,元長,2025-12-30,23.64981,120.315024,0.13809238
C0F0B0,石岡,2025-12-30,24.276061,120.777644,0.01793231
C2V250,甲仙,2025-12-30,23.080106,120.591758,0.33088127
C0SA20,金崙山,2025-12-30,22.567419,120.959667,0.0007295294
C0V350,溪埔,2025-12-30,22.738578,120.446797,0.5528039
C0M660,溪口,2025-12-30,23.604131,120.403569,0.7203066
C1S880,壽卡,2025-12-30,22.238911,120.858903,0.002383026
72D680,桃改新埔分場,2025-12-30,24.834444,121.066111,0.005787389
