站號,站名,日期,lat,lon,BlastGRU-TW
12J990,口湖工作站,2025-01-26,23.589978,120.180394,0.0005691583
12Q970,東港工作站,2025-01-26,22.479997,120.466058,0.0016597892
12Q980,恆春工作站,2025-01-26,22.079678,120.714425,0.00020501061
466881,新北,2025-01-26,24.9593,121.52,0.00027870375
466900,淡水,2025-01-26,25.164889,121.448906,0.00038636112
466920,臺北,2025-01-26,25.037658,121.514853,0.00040340004
466940,基隆,2025-01-26,25.133314,121.740475,0.00047935505
466990,花蓮,2025-01-26,23.975128,121.613275,0.00067807996
467050,新屋,2025-01-26,25.006744,121.047486,0.00032188767
467080,宜蘭,2025-01-26,24.763975,121.756528,0.0011049901
467270,田中,2025-01-26,23.873803,120.581286,0.0011304247
467280,後龍,2025-01-26,24.648563,120.831834,0.00048416006
467290,古坑,2025-01-26,23.633639,120.551889,0.00052599557
467300,東吉島,2025-01-26,23.25695,119.667467,0.00057915004
467350,澎湖,2025-01-26,23.565503,119.563094,0.00054662366
467410,臺南,2025-01-26,22.993239,120.204772,0.0005639465
467420,永康,2025-01-26,23.038386,120.2367,0.00065316254
467441,高雄,2025-01-26,22.7304,120.3125,0.0008893085
467480,嘉義,2025-01-26,23.495925,120.432906,0.0006987496
467490,臺中,2025-01-26,24.145736,120.684075,0.0006728894
467540,大武,2025-01-26,22.355675,120.903789,0.0008733485
467571,新竹,2025-01-26,24.827853,121.014219,0.0009599541
467590,恆春,2025-01-26,22.003897,120.746339,0.0017713963
467610,成功,2025-01-26,23.097486,121.373428,0.00047424724
467620,蘭嶼,2025-01-26,22.036969,121.558339,0.0005705971
467660,臺東,2025-01-26,22.752211,121.154586,0.00029695654
467790,墾丁雷達站,2025-01-26,21.948235,120.808028,0.0011101518
72AI40,桃改樹林分場,2025-01-26,24.944503,121.386972,0.00037656538
72C440,桃園農改,2025-01-26,24.950944,121.030583,0.000367506
72C440,桃園農改場,2025-01-26,24.950944,121.030583,0.000367506
72D680,桃改新埔分場,2025-01-26,24.834444,121.066111,0.0005750667
72G600,臺中農改,2025-01-26,24.003028,120.534389,0.0004472114
72G600,臺中農改場,2025-01-26,24.003028,120.534389,0.0004472114
72K220,南改斗南分場,2025-01-26,23.634556,120.477333,0.00078870135
72M360,南改義竹分場,2025-01-26,23.360694,120.279361,0.0005074997
72M700,南改鹿草分場,2025-01-26,23.416869,120.283061,0.000567713
72N100,臺南農改,2025-01-26,23.0605,120.342194,0.0015447285
72N100,臺南農改場,2025-01-26,23.0605,120.342194,0.0015447285
72N240,七股研究中心,2025-01-26,23.081672,120.062894,0.00048798733
72Q010,高雄農改,2025-01-26,22.709333,120.525889,0.0016739236
72Q010,高雄農改場,2025-01-26,22.709333,120.525889,0.0016739236
72S200,東改班鳩分場,2025-01-26,22.829528,121.077694,0.00039119044
72S590,東改賓朗果園,2025-01-26,22.813889,121.071278,0.0003818643
72T250,花蓮農改,2025-01-26,23.975222,121.563889,0.0006458831
72T250,花蓮農改場,2025-01-26,23.975222,121.563889,0.0006458831
72U480,花改蘭陽分場,2025-01-26,24.686306,121.716583,0.0030534735
72V140,高改旗南分場,2025-01-26,22.857861,120.516667,0.00441385
82A750,茶改北部分場,2025-01-26,24.955778,121.631222,0.0008403955
82C160,茶改場,2025-01-26,24.908472,121.185333,0.0005048901
82H840,茶改南部分場,2025-01-26,23.762528,120.7405,0.0008017359
82S580,茶改東部分場,2025-01-26,22.907694,121.130139,0.00026350375
A2C560,農工中心,2025-01-26,24.985917,121.239833,0.0003829627
A2K360,水試臺西試驗場,2025-01-26,23.717231,120.190522,0.0005550161
A2K570,古坑花卉中心,2025-01-26,23.63353,120.55239,0.00052599557
A2K630,臺大雲林校區,2025-01-26,23.730628,120.423903,0.00069178944
A2N290,臺南蘭花園區,2025-01-26,23.340258,120.379661,0.00067453115
B2E890,畜試北區分所,2025-01-26,24.527806,120.770972,0.0005128325
B2N890,畜產試驗所,2025-01-26,23.058972,120.336406,0.0015512517
B2N890,畜試所,2025-01-26,23.058972,120.336406,0.0015512517
B2Q810,畜試南區分所,2025-01-26,21.945583,120.802167,0.0010655178
B2U990,畜試東區分所,2025-01-26,24.669039,121.832561,0.02168432
C0A520,山佳,2025-01-26,24.974944,121.402008,0.000261936
C0A530,坪林,2025-01-26,24.938183,121.70975,0.0015674051
C0A550,泰平,2025-01-26,24.971197,121.823711,0.0013117116
C0A570,桶後,2025-01-26,24.848222,121.597992,0.0011202124
C0A640,石碇,2025-01-26,24.993969,121.662917,0.00031813144
C0A770,科教館,2025-01-26,25.096356,121.516507,0.00044535167
C0A860,大坪,2025-01-26,25.165914,121.632969,0.00040433003
C0A890,雙溪,2025-01-26,25.036003,121.864242,0.0017781047
C0A931,三和,2025-01-26,25.233153,121.595236,0.00042254213
C0A940,金山,2025-01-26,25.223628,121.643967,0.00050938176
C0A950,鼻頭角,2025-01-26,25.129036,121.923372,0.00067049975
C0A970,三貂角,2025-01-26,25.007606,122.002058,0.0034469392
C0A980,社子,2025-01-26,25.109508,121.469681,0.00038432708
C0A9C0,天母,2025-01-26,25.117494,121.537169,0.00042237638
C0A9F0,內湖,2025-01-26,25.079422,121.57545,0.00040340004
C0AC60,三峽,2025-01-26,24.939025,121.369728,0.00037350444
C0AC70,信義,2025-01-26,25.037822,121.564597,0.00040340004
C0AC80,文山,2025-01-26,25.00235,121.575728,0.00027838745
C0ACA0,新莊,2025-01-26,25.051478,121.446756,0.00031811235
C0AD10,八里,2025-01-26,25.150211,121.403947,0.00031767137
C0AD30,蘆洲,2025-01-26,25.086594,121.472331,0.0004456379
C0AD40,土城,2025-01-26,24.973208,121.445169,0.0002779928
C0AD50,鶯歌,2025-01-26,24.951533,121.346294,0.00037541517
C0AG80,中和,2025-01-26,24.991622,121.491792,0.0002779928
C0AH00,汐止,2025-01-26,25.066881,121.658778,0.00040340004
C0AH10,永和,2025-01-26,25.01125,121.508111,0.00027838108
C0AH40,平等,2025-01-26,25.129142,121.577086,0.0003751908
C0AH50,林口,2025-01-26,25.072181,121.38084,0.0003166509
C0AH70,松山,2025-01-26,25.04871,121.55042,0.00040340004
C0AH80,深坑,2025-01-26,25.002703,121.628328,0.00027764394
C0AI00,五股,2025-01-26,25.07445,121.42728,0.0002978071
C0AI10,屈尺,2025-01-26,24.92184,121.54475,0.00053576013
C0AI20,白沙灣,2025-01-26,25.283128,121.519058,0.0003088147
C0AI30,三重,2025-01-26,25.057328,121.500629,0.00040322143
C0AI40,石牌,2025-01-26,25.115597,121.513139,0.00042123365
C0AJ20,野柳,2025-01-26,25.20703,121.690021,0.00049696595
C0AJ30,淡水觀海,2025-01-26,25.184591,121.408616,0.00032779202
C0AJ40,石門,2025-01-26,25.273672,121.601198,0.00027221872
C0AJ50,水湳洞,2025-01-26,25.123695,121.862238,0.0013686874
C0AJ60,六塊厝,2025-01-26,25.24,121.4481,0.0003054153
C0AJ70,田寮,2025-01-26,25.2698,121.4886,0.0003076483
C0AJ80,板橋,2025-01-26,25.0107,121.4489,0.00027838108
C0AJ90,澳底,2025-01-26,25.0552,121.9253,0.0019648683
C0B010,七堵,2025-01-26,25.094819,121.71713,0.00048149572
C0B020,基隆嶼,2025-01-26,25.19141,121.78391,0.00029143787
C0B040,大武崙,2025-01-26,25.166676,121.706993,0.00046480927
C0B050,八斗子,2025-01-26,25.144754,121.79167,0.00048342175
C0B060,暖暖,2025-01-26,25.0957,121.7403,0.0004751803
C0C460,復興,2025-01-26,24.820208,121.352281,0.00047508182
C0C480,桃園,2025-01-26,24.992425,121.323172,0.00032838102
C0C490,八德,2025-01-26,24.928708,121.283289,0.0004429114
C0C590,觀音,2025-01-26,25.027072,121.153317,0.00030800022
C0C620,蘆竹,2025-01-26,25.084275,121.265767,0.00028563803
C0C630,大溪,2025-01-26,24.882853,121.265547,0.00053726055
C0C650,平鎮,2025-01-26,24.897503,121.214636,0.00043991735
C0C660,楊梅,2025-01-26,24.912375,121.143047,0.00050545373
C0C670,龍潭,2025-01-26,24.870056,121.221389,0.00053276704
C0C680,龜山,2025-01-26,25.02846,121.38656,0.00038686566
C0C700,中壢,2025-01-26,24.977661,121.256375,0.0003383197
C0C710,大溪永福,2025-01-26,24.892936,121.324975,0.00036704415
C0C720,竹圍,2025-01-26,25.112692,121.239824,0.00028522874
C0C730,中大臨海站,2025-01-26,24.966126,121.008581,0.0003226441
C0C740,觀音工業區,2025-01-26,25.064764,121.114856,0.0003508143
C0C750,新興坑尾,2025-01-26,25.0061,121.0971,0.0002911257
C0D430,峨眉,2025-01-26,24.6905,121.017189,0.0027988327
C0D480,打鐵坑,2025-01-26,24.849664,121.150789,0.0005326706
C0D540,橫山,2025-01-26,24.71116,121.11693,0.0007083977
C0D560,竹東,2025-01-26,24.767147,121.057881,0.0007965729
C0D580,寶山,2025-01-26,24.735006,121.025192,0.0006493949
C0D590,新豐,2025-01-26,24.87068,120.97721,0.0010058221
C0D650,湖口,2025-01-26,24.904794,121.043628,0.0007783245
C0D660,新竹市東區,2025-01-26,24.798681,120.986942,0.0008484756
C0D670,海天一線,2025-01-26,24.831986,120.914438,0.00063162384
C0D680,香山濕地,2025-01-26,24.783581,120.914988,0.00087392755
C0D690,外湖,2025-01-26,24.917735,120.968711,0.0008318016
C0D700,關西,2025-01-26,24.7977,121.1732,0.0009018252
C0E420,竹南,2025-01-26,24.708978,120.888897,0.00094783574
C0E430,南庄,2025-01-26,24.601775,121.000214,0.00084274315
C0E550,明德,2025-01-26,24.583486,120.885411,0.0005810637
C0E590,通霄,2025-01-26,24.471892,120.704622,0.0006333506
C0E730,頭份,2025-01-26,24.688247,120.912206,0.00095463527
C0E740,造橋,2025-01-26,24.637056,120.864778,0.0004833406
C0E750,苗栗,2025-01-26,24.564569,120.824575,0.0005825854
C0E780,銅鑼,2025-01-26,24.489681,120.790853,0.00051228405
C0E791,卓蘭,2025-01-26,24.3126,120.8244,0.00044991783
C0E810,西湖,2025-01-26,24.562947,120.7485,0.00048793782
C0E820,獅潭,2025-01-26,24.539133,120.920042,0.00050305715
C0E830,苑裡,2025-01-26,24.439714,120.653053,0.00052690203
C0E850,大河,2025-01-26,24.618069,120.948578,0.00046495374
C0E870,高鐵苗栗,2025-01-26,24.60725,120.826094,0.00048433105
C0E910,海埔,2025-01-26,24.648767,120.772435,0.00033468264
C0E920,通霄漁港,2025-01-26,24.498589,120.673876,0.0006006789
C0E930,龍鳳,2025-01-26,24.700034,120.859125,0.0009733973
C0F0B0,石岡,2025-01-26,24.276061,120.777644,0.0005189405
C0F850,東勢,2025-01-26,24.246428,120.833047,0.00043599098
C0F970,大坑,2025-01-26,24.173142,120.722289,0.00074621674
C0F9I0,神岡,2025-01-26,24.272481,120.658314,0.0005118015
C0F9K0,大安,2025-01-26,24.345061,120.588025,0.00042390876
C0F9L0,后里,2025-01-26,24.310436,120.729725,0.000530346
C0F9M0,豐原,2025-01-26,24.254322,120.720692,0.0005378526
C0F9N0,大里,2025-01-26,24.092464,120.701378,0.0008366705
C0F9O0,潭子,2025-01-26,24.213106,120.703933,0.0005328387
C0F9P0,清水,2025-01-26,24.312297,120.562242,0.0004908892
C0F9Q0,外埔,2025-01-26,24.347817,120.705686,0.0005597395
C0F9R0,龍井,2025-01-26,24.184536,120.528972,0.0006020118
C0F9S0,烏日,2025-01-26,24.107058,120.624103,0.00087463437
C0F9T0,西屯,2025-01-26,24.179494,120.641275,0.000643989
C0F9U0,南屯,2025-01-26,24.137006,120.637969,0.00065311586
C0F9X0,大雅(中科園區),2025-01-26,24.21528,120.62445,0.00045165434
C0FA10,松柏,2025-01-26,24.429115,120.617482,0.00045398
C0FA20,溫寮,2025-01-26,24.372177,120.583125,0.00042114552
C0FA30,梧棲,2025-01-26,24.256003,120.523381,0.0004908892
C0FA40,臺中電廠,2025-01-26,24.2146,120.4907,0.00045858516
C0FA50,霧峰,2025-01-26,24.0419,120.6995,0.0008561548
C0G620,芬園,2025-01-26,24.015678,120.6213,0.0011592916
C0G650,員林,2025-01-26,23.946503,120.585597,0.00073373993
C0G660,溪湖,2025-01-26,23.94835,120.479122,0.00051368104
C0G720,溪州,2025-01-26,23.851589,120.499093,0.0008959737
C0G730,二林,2025-01-26,23.903325,120.376081,0.0005526185
C0G740,大城,2025-01-26,23.852487,120.320935,0.00083120895
C0G770,福興,2025-01-26,24.041289,120.437669,0.0004925207
C0G780,秀水,2025-01-26,24.03405,120.503869,0.00044814043
C0G800,埔鹽,2025-01-26,24.000394,120.431683,0.0004923581
C0G810,埔心,2025-01-26,23.947633,120.525456,0.00051187887
C0G820,田尾,2025-01-26,23.901669,120.509389,0.0007893378
C0G830,埤頭,2025-01-26,23.866003,120.452806,0.00090753066
C0G860,社頭,2025-01-26,23.897647,120.5862,0.0011532179
C0G880,二水,2025-01-26,23.810742,120.6173,0.00059336564
C0G890,伸港,2025-01-26,24.148933,120.484403,0.0005584768
C0G900,線西,2025-01-26,24.143358,120.443536,0.00055697846
C0G910,花壇,2025-01-26,24.032076,120.549461,0.00044545362
C0G920,永靖,2025-01-26,23.924703,120.547533,0.0007893378
C0G940,竹塘,2025-01-26,23.848253,120.386764,0.00056244317
C0G950,防潮門,2025-01-26,24.1835,120.4871,0.0006020118
C0G960,福寶,2025-01-26,24.0443,120.3814,0.00047180156
C0G970,三豐,2025-01-26,23.882,120.2895,0.0007256392
C0H890,埔里,2025-01-26,23.972169,120.952425,0.0012816155
C0H960,草屯,2025-01-26,23.973672,120.68085,0.0011878965
C0I110,竹山,2025-01-26,23.761225,120.688156,0.0004847682
C0I360,水里,2025-01-26,23.812553,120.849792,0.0008567942
C0I380,集集,2025-01-26,23.828206,120.801467,0.0008715318
C0I410,名間,2025-01-26,23.837053,120.701447,0.0008822906
C0I420,國姓,2025-01-26,24.037803,120.855072,0.0011997055
C0I460,南投,2025-01-26,23.911469,120.687331,0.0011269936
C0K250,崙背,2025-01-26,23.75555,120.318925,0.00062875135
C0K280,四湖,2025-01-26,23.630414,120.227125,0.00063652906
C0K291,宜梧,2025-01-26,23.536281,120.169329,0.00045826178
C0K330,虎尾,2025-01-26,23.719183,120.442036,0.0007826158
C0K390,土庫,2025-01-26,23.679029,120.395574,0.0006329245
C0K400,斗六,2025-01-26,23.720583,120.541127,0.00067307573
C0K410,北港,2025-01-26,23.573957,120.292802,0.00052635063
C0K420,西螺,2025-01-26,23.800407,120.467394,0.00086688297
C0K430,褒忠,2025-01-26,23.690938,120.303634,0.0004316274
C0K440,二崙,2025-01-26,23.772797,120.408944,0.0007500641
C0K450,大埤,2025-01-26,23.646074,120.431537,0.00059089286
C0K460,斗南,2025-01-26,23.678734,120.478359,0.00078870135
C0K470,林內,2025-01-26,23.748675,120.609642,0.0005148376
C0K480,莿桐,2025-01-26,23.761192,120.502372,0.00081785885
C0K500,元長,2025-01-26,23.64981,120.315024,0.0005763507
C0K510,水林,2025-01-26,23.572924,120.24597,0.000528071
C0K530,臺西,2025-01-26,23.701547,120.197559,0.0005536056
C0K550,蔦松,2025-01-26,23.514319,120.229736,0.00045826178
C0K560,棋山,2025-01-26,23.68645,120.603417,0.00051619014
C0K580,高鐵雲林,2025-01-26,23.737456,120.417944,0.00069178944
C0K590,雲林東勢,2025-01-26,23.674192,120.255721,0.00052637217
C0K600,箔子寮,2025-01-26,23.6197,120.14,0.0005691583
C0M520,東後寮,2025-01-26,23.369908,120.248065,0.00050734007
C0M640,中埔,2025-01-26,23.42538,120.5229,0.0007565634
C0M650,朴子,2025-01-26,23.43463,120.23902,0.0005682154
C0M660,溪口,2025-01-26,23.604131,120.403569,0.0005958882
C0M670,大林,2025-01-26,23.600616,120.45841,0.00075608445
C0M680,太保,2025-01-26,23.455062,120.331455,0.0007507088
C0M690,水上,2025-01-26,23.419734,120.388909,0.00073052035
C0M700,竹崎,2025-01-26,23.526178,120.555508,0.00056116417
C0M710,東石,2025-01-26,23.458927,120.15385,0.00047666833
C0M720,番路,2025-01-26,23.464657,120.554156,0.0009745577
C0M730,嘉義市東區,2025-01-26,23.457673,120.460531,0.00091332657
C0M740,六腳,2025-01-26,23.492871,120.290625,0.0004881916
C0M750,布袋,2025-01-26,23.380878,120.167789,0.0004287272
C0M760,民雄,2025-01-26,23.551754,120.428457,0.0006584859
C0M770,嘉義梅山,2025-01-26,23.585398,120.555587,0.0005061776
C0M780,鹿草,2025-01-26,23.41134,120.30835,0.0005645703
C0M790,新港,2025-01-26,23.553269,120.345728,0.00072477467
C0M800,茶山,2025-01-26,23.299075,120.664767,0.0030806535
C0M880,好美里,2025-01-26,23.3364,120.138,0.00042802605
C0N010,鯤鯓國小,2025-01-26,23.1879,120.0889,0.00047815026
C0N020,城西,2025-01-26,23.0568,120.0956,0.0005670003
C0N030,四草,2025-01-26,23.0235,120.1116,0.00057018007
C0N040,蘆竹溝,2025-01-26,23.2344,120.0961,0.00046464647
C0N050,蚵寮,2025-01-26,23.301,120.1104,0.00046322244
C0O830,北寮,2025-01-26,23.079561,120.495008,0.0023440076
C0O840,王爺宮,2025-01-26,23.222064,120.40085,0.0010595355
C0O860,大內,2025-01-26,23.11885,120.36083,0.0018629709
C0O900,善化,2025-01-26,23.112883,120.297219,0.0010967092
C0O960,崎頂,2025-01-26,22.959547,120.369317,0.001353249
C0O970,虎頭埤,2025-01-26,23.021375,120.347878,0.0017477592
C0O980,新市,2025-01-26,23.061614,120.298197,0.00075982587
C0O990,媽廟,2025-01-26,22.99175,120.293525,0.00064166804
C0R150,三地門,2025-01-26,22.709889,120.639944,0.004125935
C0R160,鹽埔,2025-01-26,22.739558,120.530778,0.0016739236
C0R170,屏東,2025-01-26,22.660269,120.494072,0.0026838586
C0R190,赤山,2025-01-26,22.592333,120.614306,0.003188425
C0R220,潮州,2025-01-26,22.534361,120.54,0.0026263688
C0R240,來義,2025-01-26,22.527306,120.625111,0.0015874722
C0R260,春日,2025-01-26,22.370361,120.628306,0.00119416
C0R270,琉球嶼,2025-01-26,22.332244,120.362236,0.0024496582
C0R280,檳榔,2025-01-26,22.076078,120.836777,0.0012028408
C0R320,車城,2025-01-26,22.0744,120.716247,0.00020501061
C0R341,牡丹,2025-01-26,22.130036,120.792639,0.0011708317
C0R350,貓鼻頭,2025-01-26,21.921774,120.7358,0.00042281067
C0R470,高樹,2025-01-26,22.826389,120.600806,0.002065242
C0R480,長治,2025-01-26,22.693128,120.542622,0.0026201536
C0R490,九如,2025-01-26,22.7405,120.490503,0.001744765
C0R520,崁頂,2025-01-26,22.514781,120.506914,0.0027429082
C0R540,佳冬,2025-01-26,22.419456,120.552375,0.001577191
C0R550,新埤,2025-01-26,22.467947,120.582894,0.001530732
C0R560,新園,2025-01-26,22.5434,120.461558,0.0027686332
C0R570,麟洛,2025-01-26,22.65078,120.52719,0.0026838586
C0R580,南州,2025-01-26,22.48591,120.50274,0.0016597892
C0R590,里港,2025-01-26,22.77919,120.49459,0.005080095
C0R620,墾雷,2025-01-26,21.900836,120.855269,0.0019784472
C0R640,東港,2025-01-26,22.46247,120.44074,0.0016597892
C0R650,竹田,2025-01-26,22.58486,120.54344,0.0032031045
C0R660,枋寮,2025-01-26,22.367722,120.590647,0.0015747292
C0R670,楓港,2025-01-26,22.190131,120.692156,0.00023369981
C0R680,佳樂水,2025-01-26,21.993578,120.861633,0.0010739333
C0R690,墾丁,2025-01-26,21.966756,120.810269,0.00048787292
C0R700,枋山,2025-01-26,22.246844,120.661086,0.00051333156
C0R710,龍磐,2025-01-26,21.931672,120.838942,0.0014089436
C0R720,旭海,2025-01-26,22.205403,120.887614,0.00039621472
C0R730,大坪頂,2025-01-26,22.024633,120.69355,0.0005565245
C0R741,獅子,2025-01-26,22.202308,120.705236,0.00057984324
C0R760,南仁湖,2025-01-26,22.084681,120.863353,0.00033002184
C0R770,保力,2025-01-26,22.071122,120.764111,0.00047893278
C0R780,滿州,2025-01-26,22.024403,120.839892,0.0017678712
C0R790,九棚,2025-01-26,22.14195,120.889281,0.00030673546
C0R800,丹路,2025-01-26,22.204481,120.750989,0.0019780386
C0R810,內獅,2025-01-26,22.305064,120.642986,0.0006937278
C0R830,高士,2025-01-26,22.121825,120.836781,0.00032509194
C0R850,林邊,2025-01-26,22.4634,120.5339,0.0015995284
C0R860,鼻頭,2025-01-26,22.1043,120.8979,0.00088284025
C0R870,興海,2025-01-26,21.9752,120.8439,0.0010655178
C0R880,後壁湖,2025-01-26,21.9457,120.7457,0.00030821405
C0R890,山海,2025-01-26,21.9878,120.7091,0.0003134183
C0R900,竹坑,2025-01-26,22.1385,120.7022,0.0002082237
C0R910,下寮,2025-01-26,22.3929,120.5548,0.0015747292
C0R920,塭仔,2025-01-26,22.4169,120.5197,0.0016566323
C0R930,萬丹,2025-01-26,22.5885,120.4851,0.0032060565
C0R940,加祿堂,2025-01-26,22.3363,120.6217,0.0007800025
C0S710,鹿野,2025-01-26,22.917711,121.122994,0.00036487973
C0S730,綠島,2025-01-26,22.6672,121.47533,0.0008167019
C0S740,池上,2025-01-26,23.119628,121.209469,0.00042128126
C0S770,大溪山,2025-01-26,22.478475,120.943325,0.00063873286
C0S790,金崙,2025-01-26,22.538122,120.966875,0.000699919
C0S810,東河,2025-01-26,22.972672,121.303986,0.00031640494
C0S830,長濱,2025-01-26,23.286817,121.411975,0.0005335329
C0S840,南田,2025-01-26,22.279725,120.889208,0.0007611285
C0S890,關山,2025-01-26,23.0395,121.175017,0.0003276274
C0S900,蘭嶼高中,2025-01-26,22.04909,121.51214,0.0008748791
C0S910,蘭嶼燈塔,2025-01-26,22.081197,121.503117,0.00074043754
C0S920,金峰嘉蘭,2025-01-26,22.594789,120.960825,0.0005164015
C0S930,延平,2025-01-26,22.902581,121.084058,0.0002613181
C0S940,石寧山,2025-01-26,23.223772,121.406639,0.0006203718
C0S950,七塊厝,2025-01-26,22.954453,121.229922,0.0003470615
C0S960,香蘭,2025-01-26,22.587569,120.993375,0.0005858417
C0S970,加津林,2025-01-26,22.416211,120.926942,0.00073501613
C0S990,山豬窟,2025-01-26,22.318619,120.857372,0.00047059
C0SA00,歷坵,2025-01-26,22.520969,120.89185,0.0005875156
C0SA10,檳榔四格山,2025-01-26,22.810031,121.109308,0.00031704752
C0SA30,都歷,2025-01-26,23.020333,121.323642,0.00036279773
C0SA40,瑞和,2025-01-26,22.974361,121.156697,0.00033200235
C0SA60,知本（水試所）,2025-01-26,22.702394,121.082761,0.00061326375
C0SA80,土坂,2025-01-26,22.453108,120.887572,0.000874989
C0SA90,達仁林場,2025-01-26,22.264347,120.823972,0.00027972678
C0T870,鯉魚潭,2025-01-26,23.935639,121.508944,0.0005509453
C0T900,西林,2025-01-26,23.8119,121.441458,0.00048742947
C0T960,光復,2025-01-26,23.660694,121.424964,0.00056709704
C0T9A0,月眉山,2025-01-26,23.809928,121.539828,0.00043739672
C0T9D0,和中,2025-01-26,24.26676,121.74103,0.0005998113
C0T9E0,大坑,2025-01-26,23.880628,121.581981,0.00046994872
C0T9F0,水璉,2025-01-26,23.797131,121.542514,0.0004588329
C0T9I0,豐濱,2025-01-26,23.583897,121.514806,0.00053902145
C0T9M0,靜浦,2025-01-26,23.455167,121.495028,0.0006042136
C0T9N0,富里,2025-01-26,23.171639,121.249378,0.00049031916
C0U600,礁溪,2025-01-26,24.817539,121.765608,0.0014668999
C0U650,玉蘭,2025-01-26,24.675286,121.587061,0.0017641775
C0U750,龜山島,2025-01-26,24.841667,121.953133,0.00090164953
C0U760,東澳,2025-01-26,24.52196,121.83318,0.0086615505
C0U770,南澳,2025-01-26,24.44935,121.81022,0.001040423
C0U780,五結,2025-01-26,24.68637,121.79794,0.0033722855
C0U860,頭城,2025-01-26,24.85323,121.8308,0.0014875386
C0U870,大礁溪,2025-01-26,24.791042,121.675047,0.0010829474
C0U880,北關,2025-01-26,24.9072,121.8734,0.002312985
C0U890,三星,2025-01-26,24.66812,121.65302,0.010429307
C0U900,內城,2025-01-26,24.71813,121.68766,0.0028411397
C0U910,冬山,2025-01-26,24.63373,121.7937,0.02168432
C0U940,羅東,2025-01-26,24.68184,121.74934,0.003163458
C0U970,大福,2025-01-26,24.80064,121.81389,0.0011229696
C0U990,員山,2025-01-26,24.74435,121.72247,0.0032399755
C0UA00,土場,2025-01-26,24.576533,121.495333,0.0011961329
C0UA80,大溪漁港,2025-01-26,24.941801,121.902955,0.0040074964
C0UA90,石城,2025-01-26,24.980444,121.951214,0.0042673373
C0UB00,淡江大學蘭陽校園,2025-01-26,24.823239,121.730383,0.0011891577
C0UB10,蘇澳,2025-01-26,24.5969,121.8571,0.037683103
C0UB20,壯圍,2025-01-26,24.7359,121.8163,0.0034113196
C0V310,美濃,2025-01-26,22.898742,120.519153,0.00441385
C0V350,溪埔,2025-01-26,22.738578,120.446797,0.0037484409
C0V360,內門,2025-01-26,22.975481,120.466769,0.0023761662
C0V370,古亭坑,2025-01-26,22.893178,120.401947,0.0022685414
C0V400,阿公店,2025-01-26,22.804194,120.355528,0.00261288
C0V440,鳳山,2025-01-26,22.646653,120.356122,0.000626938
C0V450,鳳森,2025-01-26,22.545064,120.392592,0.0018686926
C0V490,新興,2025-01-26,22.627422,120.298803,0.00081134896
C0V530,阿蓮,2025-01-26,22.883208,120.327508,0.001171846
C0V610,梓官,2025-01-26,22.760558,120.267211,0.0006704585
C0V620,永安,2025-01-26,22.82315,120.236856,0.00039515478
C0V630,茄萣,2025-01-26,22.906642,120.182608,0.00039080257
C0V640,湖內,2025-01-26,22.887139,120.2445,0.00043600384
C0V650,彌陀,2025-01-26,22.783806,120.246361,0.00040911563
C0V660,岡山,2025-01-26,22.797078,120.294958,0.00040293983
C0V680,仁武,2025-01-26,22.701083,120.347722,0.00060288084
C0V690,鼓山,2025-01-26,22.623325,120.275575,0.00081134896
C0V700,三民,2025-01-26,22.645017,120.311233,0.00046495817
C0V710,苓雅,2025-01-26,22.622742,120.330669,0.0015592471
C0V720,林園,2025-01-26,22.507747,120.394511,0.0027314525
C0V730,大寮,2025-01-26,22.605614,120.395717,0.0014855821
C0V740,旗山,2025-01-26,22.888614,120.483597,0.0042026695
C0V750,路竹,2025-01-26,22.854997,120.259439,0.0004347751
C0V760,橋頭,2025-01-26,22.757806,120.30575,0.0006704585
C0V770,大社,2025-01-26,22.730306,120.346639,0.0008893085
C0V790,萬山,2025-01-26,22.905944,120.688056,0.00119298
C0V800,六龜,2025-01-26,22.997889,120.633583,0.0018642473
C0V810,左營,2025-01-26,22.67491,120.28491,0.00046495817
C0V820,小林,2025-01-26,23.148408,120.63325,0.0011924675
C0V840,鳳鼻頭,2025-01-26,22.5083,120.3591,0.0029166914
C0V850,蚵仔寮,2025-01-26,22.7256,120.2527,0.00068382785
C0V860,南寮,2025-01-26,22.7616,120.2339,0.00068382785
C0V870,文安,2025-01-26,22.8025,120.2164,0.0004126496
C0V880,興達,2025-01-26,22.8778,120.2127,0.00043611942
C0V890,前鎮,2025-01-26,22.5718,120.3117,0.0008317366
C0V900,汕尾,2025-01-26,22.4782,120.4151,0.0016597892
C0W200,湖西,2025-01-26,23.596314,119.67275,0.00053376204
C0X050,東河,2025-01-26,23.296598,120.385608,0.0010332537
C0X060,下營,2025-01-26,23.22695,120.256261,0.0006693638
C0X080,佳里,2025-01-26,23.173039,120.145086,0.00047815026
C0X100,臺南市北區,2025-01-26,23.010394,120.194228,0.00056708726
C0X110,臺南市南區,2025-01-26,22.961189,120.188378,0.00046935218
C0X120,麻豆,2025-01-26,23.183289,120.248611,0.00087081536
C0X130,官田,2025-01-26,23.193217,120.315422,0.0011757745
C0X140,西港,2025-01-26,23.125608,120.203108,0.0008635573
C0X150,安定,2025-01-26,23.102614,120.227839,0.0008635573
C0X160,仁德,2025-01-26,22.968258,120.257689,0.00047069162
C0X170,關廟,2025-01-26,22.963017,120.327797,0.001610231
C0X180,山上,2025-01-26,23.0757,120.363253,0.0022834386
C0X190,安平,2025-01-26,22.993161,120.152181,0.00056708726
C0X200,左鎮,2025-01-26,23.056758,120.408522,0.001791599
C0X210,白河,2025-01-26,23.347466,120.414427,0.0009211097
C0X220,學甲,2025-01-26,23.230367,120.182187,0.0004631664
C0X230,鹽水,2025-01-26,23.272621,120.247641,0.0005779267
C0X240,關子嶺,2025-01-26,23.331169,120.508025,0.0008000539
C0X250,新營,2025-01-26,23.310689,120.316681,0.0006910698
C0X260,後壁,2025-01-26,23.366358,120.362326,0.00067453115
C0X280,將軍,2025-01-26,23.214999,120.13577,0.00046464647
C0X290,北門,2025-01-26,23.267772,120.125481,0.00046464647
C0X300,鹿寮,2025-01-26,23.386047,120.477331,0.0010520502
C0X320,柳營,2025-01-26,23.253328,120.375253,0.0014244892
C0Z020,明里,2025-01-26,23.208717,121.262342,0.0005573151
C0Z061,玉里,2025-01-26,23.3215,121.339656,0.0006135084
C0Z070,舞鶴,2025-01-26,23.46811,121.37407,0.0007507782
C0Z080,富源,2025-01-26,23.587642,121.378225,0.0007521431
C0Z100,東華,2025-01-26,23.89525,121.549833,0.0005050551
C0Z150,吉安光華,2025-01-26,23.930925,121.595153,0.00062671746
C0Z160,鳳林,2025-01-26,23.746114,121.453411,0.00070139626
C0Z170,卓溪,2025-01-26,23.3443,121.3029,0.00078871567
C0Z180,新城,2025-01-26,24.03946,121.60454,0.0006666973
C0Z190,富世,2025-01-26,24.14743,121.6297,0.00034784403
C0Z200,萬榮,2025-01-26,23.709219,121.420106,0.00065390125
C0Z210,瑞穗,2025-01-26,23.5239,121.39021,0.0005504794
C0Z230,和平,2025-01-26,24.30717,121.77007,0.00060588657
C0Z270,蕃薯寮,2025-01-26,23.73835,121.540108,0.0005048809
C0Z280,德武,2025-01-26,23.47426,121.41071,0.0005880315
C0Z300,東里,2025-01-26,23.26853,121.30547,0.00059306883
C0Z310,清水斷崖,2025-01-26,24.218294,121.689142,0.0005152146
C0Z330,安通山,2025-01-26,23.290728,121.348528,0.00057220994
C2A540,四堵,2025-01-26,24.8926,121.745736,0.0013494047
C2A560,福山,2025-01-26,24.776203,121.502811,0.0029106431
C2A650,火燒寮,2025-01-26,25.002719,121.742892,0.0012647242
C2A660,瑞芳,2025-01-26,25.113169,121.801147,0.001204813
C2A880,福隆,2025-01-26,25.017842,121.942083,0.0043886052
C2A920,富貴角,2025-01-26,25.263783,121.565258,0.00027441932
C2E520,大湖,2025-01-26,24.414939,120.870872,0.0005405541
C2E540,後龍,2025-01-26,24.606489,120.783933,0.0003356329
C2E540,龍溪,2025-01-26,24.606489,120.783933,0.0003356329
C2F000,大肚,2025-01-26,24.15295,120.572117,0.0005199388
C2F930,大甲,2025-01-26,24.347667,120.640403,0.00042305578
C2F9A0,中竹林,2025-01-26,24.103556,120.751061,0.000758639
C2G640,鹿港,2025-01-26,24.0753,120.430481,0.00047180156
C2G840,北斗,2025-01-26,23.877586,120.514222,0.00089756644
C2G870,芳苑,2025-01-26,23.922303,120.320025,0.00086564024
C2H950,中寮,2025-01-26,23.884447,120.766406,0.001142079
C2M410,馬頭山,2025-01-26,23.324361,120.582017,0.0009579855
C2N160,西拉雅風管處,2025-01-26,23.189481,120.335297,0.0011616834
C2O810,曾文,2025-01-26,23.219681,120.497328,0.0019040221
C2O930,玉井,2025-01-26,23.126042,120.46055,0.0022834386
C2O950,安南,2025-01-26,23.076694,120.144861,0.0004870041
C2V250,甲仙,2025-01-26,23.080106,120.591758,0.0022708424
C2V260,月眉,2025-01-26,22.971003,120.539853,0.002162562
C2W230,畜試所澎湖,2025-01-26,23.628342,119.513206,0.0005046745
CAG100,王功漁港,2025-01-26,23.96824,120.32586,0.00084375835
CAH030,茶改場竹圍站,2025-01-26,23.860083,120.637528,0.0010704437
CAJ050,海口故事園區,2025-01-26,23.57543,120.14121,0.0005691091
CAL110,布袋國中,2025-01-26,23.35893,120.18026,0.0004287272
CAN130,水試所海水繁養殖中心,2025-01-26,23.120802,120.07968,0.00048798733
CAN140,六官養殖協會,2025-01-26,23.22881,120.29962,0.0006693638
CAQ030,崎峰國小,2025-01-26,22.42565,120.49521,0.0016597892
E2K600,四湖植物園,2025-01-26,23.676986,120.163433,0.00063652906
E2P980,林試六龜中心,2025-01-26,22.991703,120.645722,0.0017544065
E2S960,林試太麻里2,2025-01-26,22.598014,120.989761,0.0005889808
E2S960,林試太麻里2,2025-01-26,22.598,120.99775,0.00059491745
E2S980,林試太麻里1,2025-01-26,22.598922,120.980044,0.0005260071
G2AI50,關渡,2025-01-26,25.11575,121.492,0.00038581324
G2F820,農業試驗所,2025-01-26,24.031261,120.688133,0.0008698132
G2F820,農試所(霧峰),2025-01-26,24.031261,120.688133,0.0008698132
G2L020,農試嘉義分所,2025-01-26,23.485028,120.473806,0.0005946358
G2M350,農試溪口農場,2025-01-26,23.58565,120.408111,0.0005958882
G2P820,農試鳳山分所,2025-01-26,22.646611,120.356083,0.000626938
K2E360,苗栗農改,2025-01-26,24.495722,120.829111,0.0006845601
K2E360,苗栗農改場,2025-01-26,24.495722,120.829111,0.0006845601
K2E710,苗改生物防治研究中心,2025-01-26,24.422861,120.871833,0.000552381
K2F750,種苗改良場,2025-01-26,24.225972,120.800917,0.00034315552
K2F750,種苗繁殖,2025-01-26,24.225972,120.800917,0.00034315552
U2HA50,臺大竹山,2025-01-26,23.756972,120.681556,0.00068095984
V2C250,八德合作社,2025-01-26,24.93775,121.266389,0.00038568047
V2C260,八德蔬果,2025-01-26,24.978508,121.281819,0.00033462007
V2K610,大庄合作社,2025-01-26,23.8068,120.367939,0.0006430112
V2K620,麥寮合作社,2025-01-26,23.753836,120.294783,0.0004318344
