站號,站名,日期,lat,lon,BlastGRU-TW
12J990,口湖工作站,2025-05-25,23.589978,120.180394,0.9072262
12Q970,東港工作站,2025-05-25,22.479997,120.466058,0.3206904
12Q980,恆春工作站,2025-05-25,22.079678,120.714425,0.037080877
466881,新北,2025-05-25,24.959207,121.525196,0.98798317
466900,淡水,2025-05-25,25.164889,121.448906,0.9954122
466920,臺北,2025-05-25,25.037658,121.514853,0.97421354
466940,基隆,2025-05-25,25.133314,121.740475,0.96370333
466990,花蓮,2025-05-25,23.975128,121.613275,0.21465474
467050,新屋,2025-05-25,25.006725,121.047492,0.99694747
467080,宜蘭,2025-05-25,24.763975,121.756528,0.7022737
467270,田中,2025-05-25,23.873803,120.581286,0.9897591
467280,後龍,2025-05-25,24.648563,120.831834,0.99421996
467290,古坑,2025-05-25,23.633639,120.551889,0.9885914
467300,東吉島,2025-05-25,23.25727,119.66762,0.8308252
467350,澎湖,2025-05-25,23.565503,119.563094,0.7721569
467410,臺南,2025-05-25,22.99328,120.20492,0.59878576
467420,永康,2025-05-25,23.038386,120.2367,0.60117847
467441,高雄,2025-05-25,22.730432,120.312516,0.14081268
467480,嘉義,2025-05-25,23.495925,120.432906,0.97193813
467490,臺中,2025-05-25,24.145736,120.684075,0.98752326
467540,大武,2025-05-25,22.35572,120.90374,0.13984439
467571,新竹,2025-05-25,24.827853,121.014219,0.99615663
467590,恆春,2025-05-25,22.003897,120.746339,0.034640398
467610,成功,2025-05-25,23.097486,121.373428,0.41409075
467620,蘭嶼,2025-05-25,22.0369,121.55843,0.59501505
467660,臺東,2025-05-25,22.752211,121.154586,0.20580223
467790,墾丁雷達站,2025-05-25,21.948235,120.808028,0.038888194
72AI40,桃改樹林分場,2025-05-25,24.944503,121.386972,0.99547434
72C440,桃園農改場,2025-05-25,24.950944,121.030583,0.99668586
72D680,桃改新埔分場,2025-05-25,24.834444,121.066111,0.9959045
72G600,臺中農改場,2025-05-25,24.003028,120.534389,0.9735168
72K220,南改斗南分場,2025-05-25,23.634556,120.477333,0.98236424
72M360,南改義竹分場,2025-05-25,23.360694,120.279361,0.7121303
72M700,南改鹿草分場,2025-05-25,23.416869,120.283061,0.7384537
72N100,臺南農改場,2025-05-25,23.0605,120.342194,0.2524019
72N240,七股研究中心,2025-05-25,23.081672,120.062894,0.62220454
72Q010,高雄農改場,2025-05-25,22.709333,120.525889,0.13453871
72S200,東改班鳩分場,2025-05-25,22.829528,121.077694,0.6305402
72S590,東改賓朗果園,2025-05-25,22.813889,121.071278,0.7487039
72T250,花蓮農改場,2025-05-25,23.975222,121.563889,0.27257285
72U480,花改蘭陽分場,2025-05-25,24.686306,121.716583,0.8518373
72V140,高改旗南分場,2025-05-25,22.857861,120.516667,0.09392008
82A750,茶改北部分場,2025-05-25,24.955778,121.631222,0.9952809
82C160,茶改場,2025-05-25,24.908472,121.185333,0.9976853
82H840,茶改南部分場,2025-05-25,23.762528,120.7405,0.96990794
82S580,茶改東部分場,2025-05-25,22.907694,121.130139,0.6058512
A2C560,農工中心,2025-05-25,24.985917,121.239833,0.9980903
A2K360,水試臺西試驗場,2025-05-25,23.717231,120.190522,0.8718831
A2K570,古坑花卉中心,2025-05-25,23.63353,120.55239,0.9885914
A2K630,臺大雲林校區,2025-05-25,23.730628,120.423903,0.9740105
A2N290,臺南蘭花園區,2025-05-25,23.340258,120.379661,0.87056464
B2E890,畜試北區分所,2025-05-25,24.527806,120.770972,0.9946779
B2N890,畜產試驗所,2025-05-25,23.058972,120.336406,0.23568545
B2Q810,畜試南區分所,2025-05-25,21.945583,120.802167,0.03694854
B2U990,畜試東區分所,2025-05-25,24.669039,121.832561,0.5843041
C0A520,山佳,2025-05-25,24.974944,121.402008,0.99119973
C0A530,坪林,2025-05-25,24.938183,121.70975,0.9744643
C0A550,泰平,2025-05-25,24.971197,121.823711,0.994878
C0A570,桶後,2025-05-25,24.848222,121.597992,0.9795369
C0A640,石碇,2025-05-25,24.993969,121.662917,0.99265915
C0A770,科教館,2025-05-25,25.096356,121.516507,0.9787886
C0A860,大坪,2025-05-25,25.165914,121.632969,0.9899216
C0A890,雙溪,2025-05-25,25.036003,121.864242,0.70548046
C0A931,三和,2025-05-25,25.233153,121.595236,0.99337894
C0A940,金山,2025-05-25,25.223628,121.643967,0.9902097
C0A950,鼻頭角,2025-05-25,25.129036,121.923372,0.33805913
C0A970,三貂角,2025-05-25,25.007606,122.002058,0.87237185
C0A980,社子,2025-05-25,25.109508,121.469681,0.9949982
C0A9C0,天母,2025-05-25,25.117494,121.537169,0.9868832
C0A9F0,內湖,2025-05-25,25.079422,121.57545,0.97421354
C0AC60,三峽,2025-05-25,24.939025,121.369728,0.99566936
C0AC70,信義,2025-05-25,25.037822,121.564597,0.97421354
C0AC80,文山,2025-05-25,25.00235,121.575728,0.9896995
C0ACA0,新莊,2025-05-25,25.051478,121.446756,0.9859567
C0AD10,八里,2025-05-25,25.150211,121.403947,0.99424005
C0AD30,蘆洲,2025-05-25,25.086594,121.472331,0.97986704
C0AD40,土城,2025-05-25,24.973208,121.445169,0.9866259
C0AD50,鶯歌,2025-05-25,24.951533,121.346294,0.99599576
C0AG80,中和,2025-05-25,24.991622,121.491792,0.9866259
C0AH00,汐止,2025-05-25,25.066881,121.658778,0.97421354
C0AH10,永和,2025-05-25,25.01125,121.508111,0.9858639
C0AH40,平等,2025-05-25,25.129142,121.577086,0.9897417
C0AH50,林口,2025-05-25,25.072181,121.38084,0.9962151
C0AH70,松山,2025-05-25,25.04871,121.55042,0.97421354
C0AH80,深坑,2025-05-25,25.002703,121.628328,0.98917085
C0AI00,五股,2025-05-25,25.07445,121.42728,0.9962333
C0AI10,屈尺,2025-05-25,24.92184,121.54475,0.98933023
C0AI20,白沙灣,2025-05-25,25.283128,121.519058,0.9937467
C0AI30,三重,2025-05-25,25.057328,121.500629,0.9726713
C0AI40,石牌,2025-05-25,25.115597,121.513139,0.98604923
C0AJ20,野柳,2025-05-25,25.20703,121.690021,0.98660195
C0AJ30,淡水觀海,2025-05-25,25.184591,121.408616,0.98229086
C0AJ40,石門,2025-05-25,25.273672,121.601198,0.99605566
C0AJ50,水湳洞,2025-05-25,25.123695,121.862238,0.5856482
C0AJ60,六塊厝,2025-05-25,25.24,121.4481,0.99254423
C0AJ70,田寮,2025-05-25,25.2698,121.4886,0.9933337
C0AJ80,板橋,2025-05-25,25.0107,121.4489,0.9858639
C0AJ90,澳底,2025-05-25,25.0552,121.9253,0.58082014
C0AK10,太平里,2025-05-25,25.134937,121.364899,0.9942591
C0B010,七堵,2025-05-25,25.094819,121.71713,0.96795446
C0B020,基隆嶼,2025-05-25,25.19141,121.78391,0.97702354
C0B040,大武崙,2025-05-25,25.166676,121.706993,0.9737026
C0B050,八斗子,2025-05-25,25.144754,121.79167,0.9605794
C0B060,暖暖,2025-05-25,25.0957,121.7403,0.9791933
C0C460,復興,2025-05-25,24.820208,121.352281,0.9947531
C0C480,桃園,2025-05-25,24.992425,121.323172,0.9971368
C0C490,八德,2025-05-25,24.928708,121.283289,0.9974799
C0C590,觀音,2025-05-25,25.027072,121.153317,0.99756217
C0C620,蘆竹,2025-05-25,25.084275,121.265767,0.9972373
C0C630,大溪,2025-05-25,24.882853,121.265547,0.99727774
C0C650,平鎮,2025-05-25,24.897503,121.214636,0.9977029
C0C660,楊梅,2025-05-25,24.912375,121.143047,0.9975147
C0C670,龍潭,2025-05-25,24.870056,121.221389,0.99741435
C0C680,龜山,2025-05-25,25.02846,121.38656,0.9975627
C0C700,中壢,2025-05-25,24.977661,121.256375,0.99747586
C0C710,大溪永福,2025-05-25,24.892936,121.324975,0.99606186
C0C720,竹圍,2025-05-25,25.112692,121.239824,0.9965578
C0C730,中大臨海站,2025-05-25,24.966126,121.008581,0.9969107
C0C740,觀音工業區,2025-05-25,25.064764,121.114856,0.9973061
C0C750,新興坑尾,2025-05-25,25.0061,121.0971,0.9971797
C0D430,峨眉,2025-05-25,24.6905,121.017189,0.9957451
C0D480,打鐵坑,2025-05-25,24.849664,121.150789,0.9974136
C0D540,橫山,2025-05-25,24.71116,121.11693,0.9951134
C0D560,竹東,2025-05-25,24.767147,121.057881,0.99499696
C0D580,寶山,2025-05-25,24.735006,121.025192,0.99628085
C0D590,新豐,2025-05-25,24.87068,120.97721,0.9963835
C0D650,湖口,2025-05-25,24.904794,121.043628,0.9975231
C0D660,新竹市東區,2025-05-25,24.798681,120.986942,0.99559665
C0D670,海天一線,2025-05-25,24.831986,120.914438,0.99416566
C0D680,香山濕地,2025-05-25,24.783581,120.914988,0.99519867
C0D690,外湖,2025-05-25,24.917735,120.968711,0.9970623
C0D700,關西,2025-05-25,24.7977,121.1732,0.993288
C0E420,竹南,2025-05-25,24.708978,120.888897,0.99564046
C0E430,南庄,2025-05-25,24.601775,121.000214,0.99743795
C0E550,明德,2025-05-25,24.583486,120.885411,0.9959474
C0E570,白沙屯,2025-05-25,24.549447,120.696803,0.99344057
C0E590,通霄,2025-05-25,24.471892,120.704622,0.99146414
C0E730,頭份,2025-05-25,24.688247,120.912206,0.9955762
C0E740,造橋,2025-05-25,24.637056,120.864778,0.9941557
C0E750,苗栗,2025-05-25,24.564569,120.824575,0.99595606
C0E780,銅鑼,2025-05-25,24.489681,120.790853,0.9949574
C0E791,卓蘭,2025-05-25,24.3126,120.8244,0.99695665
C0E810,西湖,2025-05-25,24.562947,120.7485,0.9945578
C0E820,獅潭,2025-05-25,24.539133,120.920042,0.99703556
C0E830,苑裡,2025-05-25,24.439714,120.653053,0.9929628
C0E850,大河,2025-05-25,24.618069,120.948578,0.99609137
C0E870,高鐵苗栗,2025-05-25,24.60725,120.826094,0.9941916
C0E910,海埔,2025-05-25,24.648767,120.772435,0.9932765
C0E920,通霄漁港,2025-05-25,24.498589,120.673876,0.9928788
C0E930,龍鳳,2025-05-25,24.700034,120.859125,0.99534255
C0F0B0,石岡,2025-05-25,24.276061,120.777644,0.9966702
C0F850,東勢,2025-05-25,24.246428,120.833047,0.9957371
C0F970,大坑,2025-05-25,24.173142,120.722289,0.9837419
C0F9I0,神岡,2025-05-25,24.272481,120.658314,0.99409837
C0F9K0,大安,2025-05-25,24.345061,120.588025,0.9854335
C0F9L0,后里,2025-05-25,24.310436,120.729725,0.9964147
C0F9M0,豐原,2025-05-25,24.254322,120.720692,0.9962209
C0F9N0,大里,2025-05-25,24.092464,120.701378,0.9837331
C0F9O0,潭子,2025-05-25,24.213106,120.703933,0.9942299
C0F9P0,清水,2025-05-25,24.312297,120.562242,0.9745492
C0F9Q0,外埔,2025-05-25,24.347817,120.705686,0.99405956
C0F9R0,龍井,2025-05-25,24.184536,120.528972,0.9539887
C0F9S0,烏日,2025-05-25,24.107058,120.624103,0.98114413
C0F9T0,西屯,2025-05-25,24.179494,120.641275,0.99216586
C0F9U0,南屯,2025-05-25,24.137006,120.637969,0.9912085
C0F9X0,大雅(中科園區),2025-05-25,24.21528,120.62445,0.9928473
C0FA10,松柏,2025-05-25,24.429115,120.617482,0.9880407
C0FA20,溫寮,2025-05-25,24.372177,120.583125,0.9824189
C0FA30,梧棲,2025-05-25,24.256003,120.523381,0.9745491
C0FA40,臺中電廠,2025-05-25,24.2146,120.4907,0.96901387
C0FA50,霧峰,2025-05-25,24.0419,120.6995,0.984742
C0FB70,大甲溪埔,2025-05-25,24.370625,120.620067,0.98622644
C0G620,芬園,2025-05-25,24.015678,120.6213,0.9834488
C0G650,員林,2025-05-25,23.946503,120.585597,0.9882991
C0G660,溪湖,2025-05-25,23.94835,120.479122,0.9838542
C0G720,溪州,2025-05-25,23.851589,120.499093,0.98729986
C0G730,二林,2025-05-25,23.903325,120.376081,0.9782517
C0G740,大城,2025-05-25,23.852487,120.320935,0.9777483
C0G770,福興,2025-05-25,24.041289,120.437669,0.95330846
C0G780,秀水,2025-05-25,24.03405,120.503869,0.97084534
C0G800,埔鹽,2025-05-25,24.000394,120.431683,0.9563386
C0G810,埔心,2025-05-25,23.947633,120.525456,0.9850813
C0G820,田尾,2025-05-25,23.901669,120.509389,0.988346
C0G830,埤頭,2025-05-25,23.866003,120.452806,0.98631614
C0G860,社頭,2025-05-25,23.897647,120.5862,0.98952496
C0G880,二水,2025-05-25,23.810742,120.6173,0.9744121
C0G890,伸港,2025-05-25,24.148933,120.484403,0.9547527
C0G900,線西,2025-05-25,24.143358,120.443536,0.9497277
C0G910,花壇,2025-05-25,24.032076,120.549461,0.9760146
C0G920,永靖,2025-05-25,23.924703,120.547533,0.988346
C0G940,竹塘,2025-05-25,23.848253,120.386764,0.9858388
C0G950,防潮門,2025-05-25,24.1835,120.4871,0.9539886
C0G960,福寶,2025-05-25,24.0443,120.3814,0.9715591
C0G970,三豐,2025-05-25,23.882,120.2895,0.9339342
C0G9B0,和美,2025-05-25,24.105169,120.492131,0.97704303
C0H890,埔里,2025-05-25,23.972169,120.952425,0.9807785
C0H960,草屯,2025-05-25,23.973672,120.68085,0.9825434
C0I110,竹山,2025-05-25,23.761225,120.688156,0.98539454
C0I360,水里,2025-05-25,23.812553,120.849792,0.94314
C0I380,集集,2025-05-25,23.828206,120.801467,0.9385782
C0I410,名間,2025-05-25,23.837053,120.701447,0.99084157
C0I420,國姓,2025-05-25,24.037803,120.855072,0.99624
C0I460,南投,2025-05-25,23.911469,120.687331,0.984176
C0K250,崙背,2025-05-25,23.75555,120.318925,0.9591116
C0K280,四湖,2025-05-25,23.630414,120.227125,0.84786946
C0K291,宜梧,2025-05-25,23.536281,120.169329,0.79466766
C0K330,虎尾,2025-05-25,23.719183,120.442036,0.98672205
C0K390,土庫,2025-05-25,23.679029,120.395574,0.96682674
C0K400,斗六,2025-05-25,23.720583,120.541127,0.99218416
C0K410,北港,2025-05-25,23.573957,120.292802,0.81216663
C0K420,西螺,2025-05-25,23.800407,120.467394,0.9869454
C0K430,褒忠,2025-05-25,23.690938,120.303634,0.93349254
C0K440,二崙,2025-05-25,23.772797,120.408944,0.97465605
C0K450,大埤,2025-05-25,23.646074,120.431537,0.97254217
C0K460,斗南,2025-05-25,23.678734,120.478359,0.98236424
C0K470,林內,2025-05-25,23.748675,120.609642,0.98306376
C0K480,莿桐,2025-05-25,23.761192,120.502372,0.9870459
C0K500,元長,2025-05-25,23.64981,120.315024,0.9126419
C0K510,水林,2025-05-25,23.572924,120.24597,0.8108852
C0K530,臺西,2025-05-25,23.701547,120.197559,0.8863301
C0K550,蔦松,2025-05-25,23.514319,120.229736,0.79466766
C0K560,棋山,2025-05-25,23.68645,120.603417,0.989063
C0K580,高鐵雲林,2025-05-25,23.737456,120.417944,0.9740105
C0K590,雲林東勢,2025-05-25,23.674192,120.255721,0.8912564
C0K600,箔子寮,2025-05-25,23.6197,120.14,0.9072262
C0M520,東後寮,2025-05-25,23.369908,120.248065,0.6961543
C0M640,中埔,2025-05-25,23.42538,120.5229,0.8105927
C0M650,朴子,2025-05-25,23.43463,120.23902,0.7247382
C0M660,溪口,2025-05-25,23.604131,120.403569,0.9720619
C0M670,大林,2025-05-25,23.600616,120.45841,0.9836252
C0M680,太保,2025-05-25,23.455062,120.331455,0.9345858
C0M690,水上,2025-05-25,23.419734,120.388909,0.8251887
C0M700,竹崎,2025-05-25,23.526178,120.555508,0.97561806
C0M710,東石,2025-05-25,23.458927,120.15385,0.7565078
C0M720,番路,2025-05-25,23.464657,120.554156,0.9266019
C0M730,嘉義市東區,2025-05-25,23.457673,120.460531,0.8780995
C0M740,六腳,2025-05-25,23.492871,120.290625,0.72776985
C0M750,布袋,2025-05-25,23.380878,120.167789,0.68961084
C0M760,民雄,2025-05-25,23.551754,120.428457,0.97582823
C0M770,嘉義梅山,2025-05-25,23.585398,120.555587,0.9890845
C0M780,鹿草,2025-05-25,23.41134,120.30835,0.7524441
C0M790,新港,2025-05-25,23.553269,120.345728,0.8849151
C0M800,茶山,2025-05-25,23.299075,120.664767,0.98431545
C0M880,好美里,2025-05-25,23.3364,120.138,0.7277849
C0N010,鯤鯓國小,2025-05-25,23.1879,120.0889,0.5970891
C0N020,城西,2025-05-25,23.0568,120.0956,0.5310981
C0N030,四草,2025-05-25,23.0235,120.1116,0.52854836
C0N040,蘆竹溝,2025-05-25,23.2344,120.0961,0.6315495
C0N050,蚵寮,2025-05-25,23.301,120.1104,0.6359491
C0O830,北寮,2025-05-25,23.079561,120.495008,0.57426435
C0O840,王爺宮,2025-05-25,23.222064,120.40085,0.779509
C0O860,大內,2025-05-25,23.11885,120.36083,0.19285256
C0O900,善化,2025-05-25,23.112883,120.297219,0.29889327
C0O960,崎頂,2025-05-25,22.959547,120.369317,0.55025744
C0O970,虎頭埤,2025-05-25,23.021375,120.347878,0.26448542
C0O980,新市,2025-05-25,23.061614,120.298197,0.48384878
C0O990,媽廟,2025-05-25,22.99175,120.293525,0.6302116
C0R150,三地門,2025-05-25,22.709889,120.639944,0.65224326
C0R160,鹽埔,2025-05-25,22.739558,120.530778,0.13453871
C0R190,赤山,2025-05-25,22.592333,120.614306,0.35585028
C0R220,潮州,2025-05-25,22.534361,120.54,0.3097194
C0R240,來義,2025-05-25,22.527306,120.625111,0.45751488
C0R260,春日,2025-05-25,22.370361,120.628306,0.19679546
C0R270,琉球嶼,2025-05-25,22.332244,120.362236,0.36936423
C0R280,檳榔,2025-05-25,22.076078,120.836777,0.07731415
C0R320,車城,2025-05-25,22.0744,120.716247,0.037080877
C0R341,牡丹,2025-05-25,22.130036,120.792639,0.07540681
C0R350,貓鼻頭,2025-05-25,21.921774,120.7358,0.032177787
C0R470,高樹,2025-05-25,22.826389,120.600806,0.19044599
C0R480,長治,2025-05-25,22.693128,120.542622,0.14617303
C0R490,九如,2025-05-25,22.7405,120.490503,0.12676029
C0R520,崁頂,2025-05-25,22.514781,120.506914,0.2959544
C0R540,佳冬,2025-05-25,22.419456,120.552375,0.14755267
C0R550,新埤,2025-05-25,22.467947,120.582894,0.34103334
C0R560,新園,2025-05-25,22.5434,120.461558,0.26958913
C0R570,麟洛,2025-05-25,22.65078,120.52719,0.4309327
C0R580,南州,2025-05-25,22.48591,120.50274,0.3206904
C0R590,里港,2025-05-25,22.77919,120.49459,0.08254925
C0R620,墾雷,2025-05-25,21.900836,120.855269,0.039207008
C0R640,東港,2025-05-25,22.46247,120.44074,0.32069048
C0R650,竹田,2025-05-25,22.58486,120.54344,0.2826497
C0R660,枋寮,2025-05-25,22.367722,120.590647,0.14271927
C0R670,楓港,2025-05-25,22.190131,120.692156,0.09485219
C0R680,佳樂水,2025-05-25,21.993578,120.861633,0.03693327
C0R690,墾丁,2025-05-25,21.966756,120.810269,0.11996115
C0R700,枋山,2025-05-25,22.246844,120.661086,0.07598365
C0R710,龍磐,2025-05-25,21.931672,120.838942,0.03863905
C0R720,旭海,2025-05-25,22.205403,120.887614,0.23981325
C0R730,大坪頂,2025-05-25,22.024633,120.69355,0.041919332
C0R741,獅子,2025-05-25,22.202308,120.705236,0.112029284
C0R760,南仁湖,2025-05-25,22.084681,120.863353,0.24979433
C0R770,保力,2025-05-25,22.071122,120.764111,0.036762215
C0R780,滿州,2025-05-25,22.024403,120.839892,0.035631843
C0R790,九棚,2025-05-25,22.14195,120.889281,0.17359674
C0R800,丹路,2025-05-25,22.204481,120.750989,0.059941247
C0R810,內獅,2025-05-25,22.305064,120.642986,0.060654435
C0R830,高士,2025-05-25,22.121825,120.836781,0.38380972
C0R850,林邊,2025-05-25,22.4634,120.5339,0.3332292
C0R860,鼻頭,2025-05-25,22.1043,120.8979,0.034503527
C0R870,興海,2025-05-25,21.9752,120.8439,0.03694854
C0R880,後壁湖,2025-05-25,21.9457,120.7457,0.03832902
C0R890,山海,2025-05-25,21.9878,120.7091,0.03828292
C0R900,竹坑,2025-05-25,22.1385,120.7022,0.037020057
C0R910,下寮,2025-05-25,22.3929,120.5548,0.14271931
C0R920,塭仔,2025-05-25,22.4169,120.5197,0.1421379
C0R930,萬丹,2025-05-25,22.5885,120.4851,0.23360781
C0R940,加祿堂,2025-05-25,22.3363,120.6217,0.1007017
C0R950,萬隆國小,2025-05-25,22.507667,120.587817,0.3444525
C0R960,內埔,2025-05-25,22.608483,120.570714,0.30520687
C0S710,鹿野,2025-05-25,22.917711,121.122994,0.91038173
C0S730,綠島,2025-05-25,22.6672,121.47533,0.2923179
C0S740,池上,2025-05-25,23.119628,121.209469,0.9741714
C0S770,大溪山,2025-05-25,22.478475,120.943325,0.7773747
C0S790,金崙,2025-05-25,22.538122,120.966875,0.6486387
C0S810,東河,2025-05-25,22.972672,121.303986,0.20191851
C0S830,長濱,2025-05-25,23.286817,121.411975,0.88927436
C0S840,南田,2025-05-25,22.279725,120.889208,0.12560728
C0S890,關山,2025-05-25,23.0395,121.175017,0.73423004
C0S900,蘭嶼高中,2025-05-25,22.04909,121.51214,0.16477892
C0S910,蘭嶼燈塔,2025-05-25,22.081197,121.503117,0.2779541
C0S920,金峰嘉蘭,2025-05-25,22.594789,120.960825,0.31634253
C0S930,延平,2025-05-25,22.902581,121.084058,0.70917946
C0S940,石寧山,2025-05-25,23.223772,121.406639,0.40962443
C0S950,七塊厝,2025-05-25,22.954453,121.229922,0.9180332
C0S960,香蘭,2025-05-25,22.587569,120.993375,0.20778488
C0S970,加津林,2025-05-25,22.416211,120.926942,0.15424535
C0S990,山豬窟,2025-05-25,22.318619,120.857372,0.6188374
C0SA00,歷坵,2025-05-25,22.520969,120.89185,0.911445
C0SA10,檳榔四格山,2025-05-25,22.810031,121.109308,0.8715422
C0SA30,都歷,2025-05-25,23.020333,121.323642,0.28902286
C0SA40,瑞和,2025-05-25,22.974361,121.156697,0.4682409
C0SA60,知本（水試所）,2025-05-25,22.702394,121.082761,0.2953081
C0SA80,土坂,2025-05-25,22.453108,120.887572,0.3223673
C0SA90,達仁林場,2025-05-25,22.264347,120.823972,0.58005077
C0SB10,美和,2025-05-25,22.682078,121.060236,0.30545756
C0SB20,富岡,2025-05-25,22.792467,121.192669,0.22167641
C0SB30,新蘭,2025-05-25,22.869214,121.223228,0.30849907
C0SB40,興隆,2025-05-25,22.913661,121.257469,0.32299906
C0SB50,叭嗡嗡,2025-05-25,23.047062,121.343223,0.19515675
C0SB60,白守蓮,2025-05-25,23.126769,121.401914,0.33982095
C0SB70,小港漁港,2025-05-25,23.158558,121.400431,0.31290326
C0SB80,長濱漁港,2025-05-25,23.313644,121.459994,0.183908
C0T870,鯉魚潭,2025-05-25,23.935639,121.508944,0.3293707
C0T900,西林,2025-05-25,23.8119,121.441458,0.8485057
C0T960,光復,2025-05-25,23.660694,121.424964,0.2905669
C0T9A0,月眉山,2025-05-25,23.809928,121.539828,0.987965
C0T9D0,和中,2025-05-25,24.26676,121.74103,0.99493587
C0T9E0,大坑,2025-05-25,23.880628,121.581981,0.9893737
C0T9F0,水璉,2025-05-25,23.797131,121.542514,0.9760825
C0T9I0,豐濱,2025-05-25,23.583897,121.514806,0.23286633
C0T9M0,靜浦,2025-05-25,23.455167,121.495028,0.10659236
C0T9N0,富里,2025-05-25,23.171639,121.249378,0.964091
C0TA10,花蓮漁港,2025-05-25,23.995322,121.638331,0.18463609
C0TA20,加灣,2025-05-25,24.082025,121.608944,0.91234237
C0TA30,鹽寮,2025-05-25,23.845606,121.592664,0.7084464
C0U600,礁溪,2025-05-25,24.817539,121.765608,0.5820803
C0U650,玉蘭,2025-05-25,24.675286,121.587061,0.9901977
C0U750,龜山島,2025-05-25,24.841667,121.953133,0.9827657
C0U760,東澳,2025-05-25,24.52196,121.83318,0.8202859
C0U770,南澳,2025-05-25,24.44935,121.81022,0.96969163
C0U780,五結,2025-05-25,24.68637,121.79794,0.8063599
C0U860,頭城,2025-05-25,24.85323,121.8308,0.5511065
C0U870,大礁溪,2025-05-25,24.791042,121.675047,0.9935372
C0U880,北關,2025-05-25,24.9072,121.8734,0.7825891
C0U890,三星,2025-05-25,24.66812,121.65302,0.97675294
C0U900,內城,2025-05-25,24.71813,121.68766,0.88796294
C0U910,冬山,2025-05-25,24.63373,121.7937,0.5843041
C0U940,羅東,2025-05-25,24.68184,121.74934,0.8300444
C0U970,大福,2025-05-25,24.80064,121.81389,0.6749589
C0U990,員山,2025-05-25,24.74435,121.72247,0.8292416
C0UA00,土場,2025-05-25,24.576533,121.495333,0.9528005
C0UA80,大溪漁港,2025-05-25,24.941801,121.902955,0.74918675
C0UA90,石城,2025-05-25,24.980444,121.951214,0.70084196
C0UB00,淡江大學蘭陽校園,2025-05-25,24.823239,121.730383,0.992587
C0UB10,蘇澳,2025-05-25,24.5969,121.8571,0.72881716
C0UB20,壯圍,2025-05-25,24.7359,121.8163,0.7824556
C0V350,溪埔,2025-05-25,22.738578,120.446797,0.09820374
C0V360,內門,2025-05-25,22.975481,120.466769,0.1347651
C0V370,古亭坑,2025-05-25,22.893178,120.401947,0.21302986
C0V400,阿公店,2025-05-25,22.804194,120.355528,0.1293887
C0V440,鳳山,2025-05-25,22.646653,120.356122,0.26634195
C0V450,鳳森,2025-05-25,22.545064,120.392592,0.27095938
C0V490,新興,2025-05-25,22.627422,120.298803,0.22307208
C0V530,阿蓮,2025-05-25,22.883208,120.327508,0.21018258
C0V610,梓官,2025-05-25,22.760558,120.267211,0.2113137
C0V620,永安,2025-05-25,22.82315,120.236856,0.34841162
C0V630,茄萣,2025-05-25,22.906642,120.182608,0.65031457
C0V640,湖內,2025-05-25,22.887139,120.2445,0.44487932
C0V650,彌陀,2025-05-25,22.783806,120.246361,0.26307142
C0V660,岡山,2025-05-25,22.797078,120.294958,0.26307142
C0V680,仁武,2025-05-25,22.701083,120.347722,0.19436306
C0V690,鼓山,2025-05-25,22.623325,120.275575,0.22307168
C0V700,三民,2025-05-25,22.645017,120.311233,0.33502778
C0V710,苓雅,2025-05-25,22.622742,120.330669,0.18307647
C0V720,林園,2025-05-25,22.507747,120.394511,0.25729582
C0V730,大寮,2025-05-25,22.605614,120.395717,0.1901991
C0V740,旗山,2025-05-25,22.888614,120.483597,0.09840937
C0V750,路竹,2025-05-25,22.854997,120.259439,0.47600535
C0V760,橋頭,2025-05-25,22.757806,120.30575,0.2113137
C0V770,大社,2025-05-25,22.730306,120.346639,0.14301369
C0V790,萬山,2025-05-25,22.905944,120.688056,0.95917785
C0V800,六龜,2025-05-25,22.997889,120.633583,0.8505958
C0V810,左營,2025-05-25,22.67491,120.28491,0.33502778
C0V820,小林,2025-05-25,23.148408,120.63325,0.9856839
C0V840,鳳鼻頭,2025-05-25,22.5083,120.3591,0.25436345
C0V850,蚵仔寮,2025-05-25,22.7256,120.2527,0.19958732
C0V860,南寮,2025-05-25,22.7616,120.2339,0.19958732
C0V870,文安,2025-05-25,22.8025,120.2164,0.24985641
C0V880,興達,2025-05-25,22.8778,120.2127,0.4210912
C0V890,前鎮,2025-05-25,22.5718,120.3117,0.22154698
C0V900,汕尾,2025-05-25,22.4782,120.4151,0.3206904
C0V910,大樹,2025-05-25,22.684645,120.432803,0.16397817
C0W200,湖西,2025-05-25,23.596314,119.67275,0.8043114
C0X050,東河,2025-05-25,23.296598,120.385608,0.60565084
C0X060,下營,2025-05-25,23.22695,120.256261,0.65875626
C0X080,佳里,2025-05-25,23.173039,120.145086,0.5970893
C0X100,臺南市北區,2025-05-25,23.010394,120.194228,0.5544247
C0X110,臺南市南區,2025-05-25,22.961189,120.188378,0.6236575
C0X120,麻豆,2025-05-25,23.183289,120.248611,0.3783761
C0X130,官田,2025-05-25,23.193217,120.315422,0.43567714
C0X140,西港,2025-05-25,23.125608,120.203108,0.3809028
C0X150,安定,2025-05-25,23.102614,120.227839,0.3809028
C0X160,仁德,2025-05-25,22.968258,120.257689,0.6308549
C0X170,關廟,2025-05-25,22.963017,120.327797,0.32854477
C0X180,山上,2025-05-25,23.0757,120.363253,0.24356806
C0X190,安平,2025-05-25,22.993161,120.152181,0.5544247
C0X200,左鎮,2025-05-25,23.056758,120.408522,0.24392249
C0X210,白河,2025-05-25,23.347466,120.414427,0.8433669
C0X220,學甲,2025-05-25,23.230367,120.182187,0.6341337
C0X230,鹽水,2025-05-25,23.272621,120.247641,0.6078664
C0X240,關子嶺,2025-05-25,23.331169,120.508025,0.98689353
C0X250,新營,2025-05-25,23.310689,120.316681,0.46920112
C0X260,後壁,2025-05-25,23.366358,120.362326,0.87056464
C0X280,將軍,2025-05-25,23.214999,120.13577,0.6315491
C0X290,北門,2025-05-25,23.267772,120.125481,0.6315491
C0X300,鹿寮,2025-05-25,23.386047,120.477331,0.7265719
C0X320,柳營,2025-05-25,23.253328,120.375253,0.52923864
C0Z020,明里,2025-05-25,23.208717,121.262342,0.76495963
C0Z061,玉里,2025-05-25,23.3215,121.339656,0.5113113
C0Z070,舞鶴,2025-05-25,23.46811,121.37407,0.8507686
C0Z080,富源,2025-05-25,23.587642,121.378225,0.9867842
C0Z100,東華,2025-05-25,23.89525,121.549833,0.7660996
C0Z150,吉安光華,2025-05-25,23.930925,121.595153,0.45294625
C0Z160,鳳林,2025-05-25,23.746114,121.453411,0.72311413
C0Z170,卓溪,2025-05-25,23.3443,121.3029,0.8191667
C0Z180,新城,2025-05-25,24.040486,121.604878,0.2308292
C0Z190,富世,2025-05-25,24.14743,121.6297,0.047591988
C0Z200,萬榮,2025-05-25,23.709219,121.420106,0.8401921
C0Z210,瑞穗,2025-05-25,23.5239,121.39021,0.14717598
C0Z230,和平,2025-05-25,24.30717,121.77007,0.9949846
C0Z270,蕃薯寮,2025-05-25,23.73835,121.540108,0.98897916
C0Z280,德武,2025-05-25,23.47426,121.41071,0.5961902
C0Z300,東里,2025-05-25,23.26853,121.30547,0.55111015
C0Z310,清水斷崖,2025-05-25,24.218294,121.689142,0.9920846
C0Z330,安通山,2025-05-25,23.290728,121.348528,0.9716032
C2A540,四堵,2025-05-25,24.8926,121.745736,0.9849773
C2A560,福山,2025-05-25,24.776203,121.502811,0.9911102
C2A650,火燒寮,2025-05-25,25.002719,121.742892,0.9923332
C2A660,瑞芳,2025-05-25,25.113169,121.801147,0.84766084
C2A880,福隆,2025-05-25,25.017842,121.942083,0.67480886
C2A920,富貴角,2025-05-25,25.263783,121.565258,0.9962961
C2C410,中央大學,2025-05-25,24.967652,121.185165,0.9979891
C2D720,關西工作站,2025-05-25,24.757275,121.184792,0.9932481
C2D730,寶山農場,2025-05-25,24.732444,120.976153,0.99570286
C2E520,大湖,2025-05-25,24.414939,120.870872,0.99835396
C2E540,龍溪,2025-05-25,24.606489,120.783933,0.99334097
C2E970,八甲,2025-05-25,24.535811,120.795983,0.9958234
C2F000,大肚,2025-05-25,24.15295,120.572117,0.99394906
C2F930,大甲,2025-05-25,24.347667,120.640403,0.9901515
C2F9A0,中竹林,2025-05-25,24.103556,120.751061,0.9898002
C2G640,鹿港,2025-05-25,24.0753,120.430481,0.9715591
C2G840,北斗,2025-05-25,23.877586,120.514222,0.9869026
C2G870,芳苑,2025-05-25,23.922303,120.320025,0.96940106
C2G980,田頭村,2025-05-25,23.8263,120.444175,0.9859136
C2G9A0,畜試所彰化,2025-05-25,23.86045,120.557964,0.989562
C2H950,中寮,2025-05-25,23.884447,120.766406,0.98295206
C2H9F0,柑林,2025-05-25,24.018658,120.847072,0.99622685
C2H9H0,苗改南投蜂場,2025-05-25,23.852589,120.693481,0.9907157
C2H9T0,名間竹圍,2025-05-25,23.859914,120.637572,0.95813125
C2H9U0,鳳鵬,2025-05-25,23.763919,120.788061,0.9668896
C2K620,馬光農場,2025-05-25,23.721453,120.378864,0.9712222
C2K630,荷苞,2025-05-25,23.657717,120.595144,0.990204
C2M410,馬頭山,2025-05-25,23.324361,120.582017,0.96530646
C2M910,嘉義大學,2025-05-25,23.471325,120.485903,0.9123701
C2M920,朴子農改,2025-05-25,23.469889,120.259383,0.72974473
C2N160,西拉雅風管處,2025-05-25,23.189481,120.335297,0.43755862
C2O810,曾文,2025-05-25,23.219681,120.497328,0.6869429
C2O930,玉井,2025-05-25,23.126042,120.46055,0.24356873
C2O950,安南,2025-05-25,23.076694,120.144861,0.6415319
C2R170,屏東,2025-05-25,22.66027,120.49403,0.4309327
C2R970,屏科大,2025-05-25,22.648275,120.619247,0.36203635
C2V250,甲仙,2025-05-25,23.080106,120.591758,0.8812095
C2V260,月眉,2025-05-25,22.971003,120.539853,0.6594905
C2V310,美濃,2025-05-25,22.898792,120.51907,0.09392008
C2W230,畜試所澎湖,2025-05-25,23.628342,119.513206,0.8146501
CAG100,王功漁港,2025-05-25,23.96824,120.32586,0.9590091
CAH030,茶改場竹圍站,2025-05-25,23.860083,120.637528,0.95813125
CAJ050,海口故事園區,2025-05-25,23.57543,120.14121,0.9018138
CAL110,布袋國中,2025-05-25,23.35893,120.18026,0.68961084
CAN130,水試所海水繁養殖中心,2025-05-25,23.120802,120.07968,0.62220454
CAN140,六官養殖協會,2025-05-25,23.22881,120.29962,0.65875626
CAQ030,崎峰國小,2025-05-25,22.42565,120.49521,0.3206904
E2K600,四湖植物園,2025-05-25,23.676986,120.163433,0.84786946
E2P980,林試六龜中心,2025-05-25,22.991703,120.645722,0.8782638
E2S960,林試太麻里2,2025-05-25,22.598,120.99775,0.19926803
E2S980,林試太麻里1,2025-05-25,22.598922,120.980044,0.3149501
G2AI50,關渡,2025-05-25,25.11575,121.492,0.99524045
G2F820,農試所(霧峰),2025-05-25,24.031261,120.688133,0.9840097
G2L020,農試嘉義分所,2025-05-25,23.485028,120.473806,0.945743
G2M350,農試溪口農場,2025-05-25,23.58565,120.408111,0.9720619
G2P820,農試鳳山分所,2025-05-25,22.646611,120.356083,0.26634195
K2E360,苗栗農改場,2025-05-25,24.495722,120.829111,0.9952246
K2E710,苗改生物防治研究中心,2025-05-25,24.422861,120.871833,0.9982763
K2F750,種苗改良場,2025-05-25,24.225972,120.800917,0.99607277
U2HA50,臺大竹山,2025-05-25,23.756972,120.681556,0.9836016
V2C250,八德合作社,2025-05-25,24.93775,121.266389,0.9968573
V2C260,八德蔬果,2025-05-25,24.978508,121.281819,0.9973651
V2K610,大庄合作社,2025-05-25,23.8068,120.367939,0.98375434
V2K620,麥寮合作社,2025-05-25,23.753836,120.294783,0.9255804
