站號,站名,日期,lat,lon,BLBTSLS
C0R710,龍磐,2025-08-07,21.931672,120.838942,2.036617e-06
C1F9D1,白毛台,2025-08-07,24.158325,120.886933,0.83716327
C0G940,竹塘,2025-08-07,23.848253,120.386764,0.9818615
467590,恆春,2025-08-07,22.003897,120.746339,1.3978554e-07
C1O850,環湖,2025-08-07,23.148617,120.418633,0.99972534
C0U710,太平山,2025-08-07,24.505486,121.525656,2.5746626e-08
C0E820,獅潭,2025-08-07,24.539133,120.920042,0.77573407
C0V880,興達,2025-08-07,22.8778,120.2127,0.99885565
C0S890,關山,2025-08-07,23.0395,121.175017,0.59564686
C0SB30,新蘭,2025-08-07,22.869214,121.223228,0.1571608
C2R970,屏科大,2025-08-07,22.648275,120.619247,0.9947004
C1Z130,銅門,2025-08-07,23.965694,121.492842,0.23124725
C0AD40,土城,2025-08-07,24.973208,121.445169,0.028083656
CAN140,六官養殖協會,2025-08-07,23.22881,120.29962,0.9995399
C0X180,山上,2025-08-07,23.0757,120.363253,0.99967384
C0F9Z0,雪山東峰,2025-08-07,24.388792,121.268675,3.0669202e-08
C1M480,獨立山,2025-08-07,23.537022,120.607797,0.02445124
C0X220,學甲,2025-08-07,23.230367,120.182187,0.99914324
467650,日月潭,2025-08-07,23.881325,120.90805,4.9879736e-07
C0K600,箔子寮,2025-08-07,23.6197,120.14,0.9988372
C0G830,埤頭,2025-08-07,23.866003,120.452806,0.5770042
C0S950,七塊厝,2025-08-07,22.954453,121.229922,0.98711
467110,金門,2025-08-07,24.407306,118.289281,0.019837962
C0AH80,深坑,2025-08-07,25.002703,121.628328,0.020616231
C0A970,三貂角,2025-08-07,25.007606,122.002058,0.362661
C2D730,寶山農場,2025-08-07,24.732444,120.976153,0.9344857
C0K430,褒忠,2025-08-07,23.690938,120.303634,0.98351204
467480,嘉義,2025-08-07,23.495925,120.432906,0.99251854
C0V400,阿公店,2025-08-07,22.804194,120.355528,0.99704516
C0E960,觀霧分站,2025-08-07,24.505781,121.113921,1.7401744e-08
467550,玉山,2025-08-07,23.48718,120.95943,3.3784872e-08
C0R440,大漢山,2025-08-07,22.405264,120.753181,3.182275e-08
C0K280,四湖,2025-08-07,23.630414,120.227125,0.9961366
C1F9B1,桐林,2025-08-07,24.066172,120.735194,0.9782619
C2H9U0,鳳鵬,2025-08-07,23.763919,120.788061,0.5141809
C0K390,土庫,2025-08-07,23.679029,120.395574,0.8829214
C1I450,望鄉山,2025-08-07,23.594153,120.944286,2.2518542e-08
C0E910,海埔,2025-08-07,24.648767,120.772435,0.9838825
B2E890,畜試北區分所,2025-08-07,24.527806,120.770972,0.9228244
C0R750,四林格山,2025-08-07,22.076989,120.802439,1.3979387e-08
C0F0C0,中坑,2025-08-07,24.248517,120.903319,2.8275522e-06
C1I121,大鞍,2025-08-07,23.678381,120.760017,9.162753e-08
72U480,花改蘭陽分場,2025-08-07,24.686306,121.716583,0.95439744
C0A770,科教館,2025-08-07,25.096356,121.516507,0.8795959
C0AJ60,六塊厝,2025-08-07,25.24,121.4481,1.1210418e-05
C0R620,墾雷,2025-08-07,21.900836,120.855269,2.870314e-07
467420,永康,2025-08-07,23.038386,120.2367,0.99826115
C0I410,名間,2025-08-07,23.837053,120.701447,0.65248966
A2C560,農工中心,2025-08-07,24.985917,121.239833,0.13666171
C0V740,旗山,2025-08-07,22.888614,120.483597,0.9960781
C0Z061,玉里,2025-08-07,23.3215,121.339656,0.25743204
C0S840,南田,2025-08-07,22.279725,120.889208,3.635423e-08
C1I470,杉林溪,2025-08-07,23.639517,120.786444,5.178294e-08
C1X040,東原,2025-08-07,23.291597,120.463822,0.9995823
C0R660,枋寮,2025-08-07,22.367722,120.590647,0.90493995
C1R120,上德文,2025-08-07,22.763272,120.704442,0.001084743
C0K450,大埤,2025-08-07,23.646074,120.431537,0.8442324
C0UA00,土場,2025-08-07,24.576533,121.495333,0.8169372
467080,宜蘭,2025-08-07,24.763975,121.756528,0.45360717
C0N030,四草,2025-08-07,23.0235,120.1116,0.99912065
467410,臺南,2025-08-07,22.99328,120.20492,0.9986882
C0V650,彌陀,2025-08-07,22.783806,120.246361,0.9971456
C0D660,新竹市東區,2025-08-07,24.798681,120.986942,0.85618633
82S580,茶改東部分場,2025-08-07,22.907694,121.130139,0.6113004
C0SB40,興隆,2025-08-07,22.913661,121.257469,0.17528823
467050,新屋,2025-08-07,25.006725,121.047492,0.2852069
C0C710,大溪永福,2025-08-07,24.892936,121.324975,0.011830657
C0FA20,溫寮,2025-08-07,24.372177,120.583125,0.99731874
C0V640,湖內,2025-08-07,22.887139,120.2445,0.9989075
C0R910,下寮,2025-08-07,22.3929,120.5548,0.9049068
C0Z020,明里,2025-08-07,23.208717,121.262342,0.29944938
C0M770,嘉義梅山,2025-08-07,23.585398,120.555587,0.9886182
C0C660,楊梅,2025-08-07,24.912375,121.143047,0.0046988227
C1E511,新開,2025-08-07,24.347703,120.827019,0.9873534
G2F820,農試所(霧峰),2025-08-07,24.031261,120.688133,0.92486066
C1I070,和社,2025-08-07,23.591131,120.888861,0.40924317
C0TA80,立霧山,2025-08-07,24.183258,121.641899,7.5314365e-06
C2F000,大肚,2025-08-07,24.15295,120.572117,0.99417126
C1S850,豐南,2025-08-07,23.122139,121.262389,0.9625059
C2A920,富貴角,2025-08-07,25.263783,121.565258,3.8978789e-07
CAH030,茶改場竹圍站,2025-08-07,23.860083,120.637528,0.8684823
C0T960,光復,2025-08-07,23.660694,121.424964,0.99195087
C0F9M0,豐原,2025-08-07,24.254322,120.720692,0.9972524
C0R720,旭海,2025-08-07,22.205403,120.887614,5.2509492e-08
C0V710,苓雅,2025-08-07,22.622742,120.330669,0.9883149
C0C740,觀音工業區,2025-08-07,25.064764,121.114856,0.79147565
CAC040,拉拉山,2025-08-07,24.699317,121.427133,1.3332815e-08
C0V790,萬山,2025-08-07,22.905944,120.688056,0.9964574
U2HA30,臺大和社,2025-08-07,23.590856,120.888864,0.40924317
C0AJ90,澳底,2025-08-07,25.0552,121.9253,0.10779405
C0Z100,東華,2025-08-07,23.89525,121.549833,0.304567
C0G970,三豐,2025-08-07,23.882,120.2895,0.997221
V2K610,大庄合作社,2025-08-07,23.8068,120.367939,0.99110276
C0V900,汕尾,2025-08-07,22.4782,120.4151,0.7585746
C1R630,龍泉,2025-08-07,22.66701,120.59091,0.9844723
C1AC50,關渡,2025-08-07,25.133486,121.469331,0.29844847
C0C800,四稜,2025-08-07,24.64733,121.4293,3.5549678e-05
C0F9I0,神岡,2025-08-07,24.272481,120.658314,0.9914815
C0K460,斗南,2025-08-07,23.678734,120.478359,0.8325312
C2O810,曾文,2025-08-07,23.219681,120.497328,0.99981254
467280,後龍,2025-08-07,24.648563,120.831834,0.9851319
C1F9J1,清水林,2025-08-07,24.071242,120.820419,0.00012835764
C2A650,火燒寮,2025-08-07,25.002719,121.742892,0.7735356
466930,竹子湖,2025-08-07,25.162078,121.544547,0.00029657708
C1I220,樟湖,2025-08-07,23.905333,120.846983,1.7318989e-07
C0I390,仁愛,2025-08-07,24.022122,121.132206,2.2086947e-06
C0Z300,東里,2025-08-07,23.26853,121.30547,0.2926764
C1V590,新發,2025-08-07,23.057019,120.646064,0.86907685
C0K510,水林,2025-08-07,23.572924,120.24597,0.99709314
72S590,東改賓朗果園,2025-08-07,22.813889,121.071278,0.9540975
82A750,茶改北部分場,2025-08-07,24.955778,121.631222,0.9480081
C1A750,石碇服務區,2025-08-07,25.00872,121.646242,0.04720413
C0X300,鹿寮,2025-08-07,23.386047,120.477331,0.99972
G2AI50,關渡,2025-08-07,25.11575,121.492,0.03740047
C0K590,雲林東勢,2025-08-07,23.674192,120.255721,0.9908061
C0A570,桶後,2025-08-07,24.848222,121.597992,0.86832553
C1S800,華源,2025-08-07,22.657883,121.02325,0.16663057
C0G720,溪州,2025-08-07,23.851589,120.499093,0.5679934
C1V160,達卡努瓦,2025-08-07,23.279811,120.705319,3.1310233e-06
C2M410,馬頭山,2025-08-07,23.324361,120.582017,0.99945533
C0V850,蚵仔寮,2025-08-07,22.7256,120.2527,0.9960552
C0S740,池上,2025-08-07,23.119628,121.209469,0.54315287
C1V390,尖山,2025-08-07,22.813153,120.367789,0.99762756
C0AH70,松山,2025-08-07,25.04871,121.55042,0.88620037
C0N010,鯤鯓國小,2025-08-07,23.1879,120.0889,0.99954724
C0R550,新埤,2025-08-07,22.467947,120.582894,0.81579113
C0SA60,知本（水試所）,2025-08-07,22.702394,121.082761,0.12409233
C0T9I0,豐濱,2025-08-07,23.583897,121.514806,0.9007829
C0UB00,淡江大學蘭陽校園,2025-08-07,24.823239,121.730383,0.94130915
C0W240,九宮,2025-08-07,24.423753,118.240186,0.021403927
C0T9N0,富里,2025-08-07,23.171639,121.249378,0.3339382
U2HA50,臺大竹山,2025-08-07,23.756972,120.681556,0.06431304
C0V840,鳳鼻頭,2025-08-07,22.5083,120.3591,0.9501226
C0X140,西港,2025-08-07,23.125608,120.203108,0.9960505
72D080,桃改五峰分場,2025-08-07,24.612194,121.157167,2.1467383e-09
C2H9P0,伊拿谷,2025-08-07,23.963211,121.088264,9.078216e-06
C2H9F0,柑林,2025-08-07,24.018658,120.847072,0.98498297
C0TA20,加灣,2025-08-07,24.082025,121.608944,0.045470435
C0V530,阿蓮,2025-08-07,22.883208,120.327508,0.9984411
C0FB30,八仙山苗圃,2025-08-07,24.192719,121.001366,4.9330265e-06
C1O880,關山,2025-08-07,23.173397,120.594092,0.99710727
C0E791,卓蘭,2025-08-07,24.3126,120.8244,0.99727696
C1I030,武界,2025-08-07,23.913225,121.052483,4.1407225e-06
C0R520,崁頂,2025-08-07,22.514781,120.506914,0.81503856
C0R341,牡丹,2025-08-07,22.130036,120.792639,9.3362803e-07
C0R930,萬丹,2025-08-07,22.5885,120.4851,0.97160596
C0S760,紅石,2025-08-07,23.069131,121.126219,1.0329778e-08
C2C410,中央大學,2025-08-07,24.967652,121.185165,0.12778635
C1M610,石磐龍,2025-08-07,23.496606,120.663506,3.2970333e-06
C0C790,東眼山,2025-08-07,24.8284,121.40888,1.4361823e-05
C0UA10,鴛鴦湖,2025-08-07,24.590269,121.412228,6.335545e-08
V2C260,八德蔬果,2025-08-07,24.978508,121.281819,0.26675895
C0R800,丹路,2025-08-07,22.204481,120.750989,1.5461903e-07
C0G920,永靖,2025-08-07,23.924703,120.547533,0.8700471
C2M950,太和,2025-08-07,23.538372,120.702961,4.008787e-07
C1A630,下盆,2025-08-07,24.771003,121.538622,0.88498
B2N890,畜產試驗所,2025-08-07,23.058972,120.336406,0.99859273
C0UA30,白嶺,2025-08-07,24.527819,121.519031,2.6729634e-07
C1V580,溪南(特生中心),2025-08-07,23.084972,120.788475,1.6284555e-07
C1T970,大農,2025-08-07,23.615233,121.413331,0.98311025
C0R650,竹田,2025-08-07,22.58486,120.54344,0.98699814
C1H900,清流,2025-08-07,24.080775,120.962997,1.4294567e-06
C1C510,水尾,2025-08-07,24.940081,121.087161,9.6819895e-05
C0F9X0,大雅(中科園區),2025-08-07,24.21528,120.62445,0.99141556
C0SB60,白守蓮,2025-08-07,23.126769,121.401914,0.29272673
C0O970,虎頭埤,2025-08-07,23.021375,120.347878,0.9996295
C0C730,中大臨海站,2025-08-07,24.966126,121.008581,0.38935846
C0X250,新營,2025-08-07,23.310689,120.316681,0.9995757
C0V700,三民,2025-08-07,22.645017,120.311233,0.9971959
C0U870,大礁溪,2025-08-07,24.791042,121.675047,0.9470154
C0E870,高鐵苗栗,2025-08-07,24.60725,120.826094,0.51486963
A2K570,古坑花卉中心,2025-08-07,23.63353,120.55239,0.77111834
C0TA30,鹽寮,2025-08-07,23.845606,121.592664,0.29851896
C0M860,新美,2025-08-07,23.338017,120.683169,0.8394782
C1E701,八卦,2025-08-07,24.491756,120.927619,3.251286e-05
C0I420,國姓,2025-08-07,24.037803,120.855072,0.9752274
C2D720,關西工作站,2025-08-07,24.757275,121.184792,2.3083714e-05
C0S960,香蘭,2025-08-07,22.587569,120.993375,0.023874054
467620,蘭嶼,2025-08-07,22.0369,121.55843,4.3356705e-09
C0R260,春日,2025-08-07,22.370361,120.628306,0.9159441
72G600,臺中農改場,2025-08-07,24.003028,120.534389,0.8553901
C0Z210,瑞穗,2025-08-07,23.5239,121.39021,0.96000224
C0M820,達邦,2025-08-07,23.453994,120.749517,0.0003232845
C0V860,南寮,2025-08-07,22.7616,120.2339,0.9960624
C0G740,大城,2025-08-07,23.852487,120.320935,0.9971854
C0R920,塭仔,2025-08-07,22.4169,120.5197,0.9016122
C0R470,高樹,2025-08-07,22.826389,120.600806,0.9947973
C0R680,佳樂水,2025-08-07,21.993578,120.861633,6.6604014e-07
C1O870,大棟山,2025-08-07,23.31157,120.52226,9.651285e-07
C0D360,梅花,2025-08-07,24.678347,121.208558,0.0040896665
C0Z190,富世,2025-08-07,24.14743,121.6297,0.029357465
C0AI10,屈尺,2025-08-07,24.92184,121.54475,0.037988298
B2U990,畜試東區分所,2025-08-07,24.669039,121.832561,0.8841723
C0SB80,長濱漁港,2025-08-07,23.313644,121.459994,0.22163591
C0TA50,和仁,2025-08-07,24.241394,121.712472,0.6229668
C0R240,來義,2025-08-07,22.527306,120.625111,0.9387622
C0V910,大樹,2025-08-07,22.684645,120.432803,0.98531085
C1R610,西大武山,2025-08-07,22.617719,120.7322,6.744718e-08
C0G900,線西,2025-08-07,24.143358,120.443536,0.99492043
C0M700,竹崎,2025-08-07,23.526178,120.555508,0.9949855
C2E880,三義,2025-08-07,24.405478,120.749819,0.0039787553
C0C720,竹圍,2025-08-07,25.112692,121.239824,0.037681807
C0F9P0,清水,2025-08-07,24.312297,120.562242,0.998158
C0Z150,吉安光華,2025-08-07,23.930925,121.595153,0.17981759
C0FA80,小雪山天池,2025-08-07,24.28025,121.02627,3.8915157e-08
467300,東吉島,2025-08-07,23.25727,119.66762,8.1040173e-07
C1D640,外坪(五指山),2025-08-07,24.644447,121.090961,2.7779635e-07
C0F9O0,潭子,2025-08-07,24.213106,120.703933,0.99906725
C2H9R0,卓社,2025-08-07,23.887894,121.000086,8.6891134e-08
72T250,花蓮農改場,2025-08-07,23.975222,121.563889,0.13152242
C0E780,銅鑼,2025-08-07,24.489681,120.790853,0.8748466
C1T950,太安,2025-08-07,23.666719,121.370128,7.396021e-05
C0E830,苑裡,2025-08-07,24.439714,120.653053,0.99744767
467270,田中,2025-08-07,23.873803,120.581286,0.25059772
C0SA10,檳榔四格山,2025-08-07,22.810031,121.109308,0.98227257
C1T830,布洛灣,2025-08-07,24.17184,121.57127,0.27301916
C0F970,大坑,2025-08-07,24.173142,120.722289,0.99759185
C1U920,思源,2025-08-07,24.393125,121.347214,1.5001643e-08
C0A931,三和,2025-08-07,25.233153,121.595236,0.7846401
C0I010,廬山,2025-08-07,24.033311,121.181808,1.2179376e-07
C2M940,日野賀,2025-08-07,23.434056,120.727169,5.7174802e-06
C0R860,鼻頭,2025-08-07,22.1043,120.8979,2.2058298e-06
C0UB20,壯圍,2025-08-07,24.7359,121.8163,0.9435029
C0R790,九棚,2025-08-07,22.14195,120.889281,1.8294882e-06
C0W110,東莒,2025-08-07,25.9652,119.98069,0.8058025
C1U930,粉鳥林,2025-08-07,24.497088,121.842479,0.4081056
C1I211,蘆竹湳,2025-08-07,23.934019,120.811994,0.0059055714
C0S830,長濱,2025-08-07,23.286817,121.411975,0.3826742
C1F9F1,伯公龍,2025-08-07,24.272392,120.849047,0.9978271
C0UB90,太平山莊,2025-08-07,24.494171,121.536209,2.4826162e-08
C0E810,西湖,2025-08-07,24.562947,120.7485,0.9945937
C1I440,新高口,2025-08-07,23.478744,120.878939,2.2947619e-08
C0O840,王爺宮,2025-08-07,23.222064,120.40085,0.9997521
C0T9G0,鳳林山,2025-08-07,23.735269,121.420131,0.84868944
C0X080,佳里,2025-08-07,23.173039,120.145086,0.99954724
C0FB70,大甲溪埔,2025-08-07,24.370625,120.620067,0.9973975
C0Z310,清水斷崖,2025-08-07,24.218294,121.689142,0.8225269
C0M680,太保,2025-08-07,23.455062,120.331455,0.9953971
C1S820,金峰,2025-08-07,22.590969,120.933236,0.21367472
C0AD10,八里,2025-08-07,25.150211,121.403947,0.037709516
C2K240,草嶺,2025-08-07,23.59555,120.693461,2.0408075e-07
C1SA70,都蘭,2025-08-07,22.87794,121.226881,0.17542374
C0K440,二崙,2025-08-07,23.772797,120.408944,0.034238417
C1A760,坪林交控,2025-08-07,24.94284,121.713442,0.44320974
C0F9N0,大里,2025-08-07,24.092464,120.701378,0.96330637
C0SA90,達仁林場,2025-08-07,22.264347,120.823972,1.792786e-07
C1R290,石門山,2025-08-07,22.112611,120.756597,7.333258e-08
42HA10,萬大發電廠,2025-08-07,23.978875,121.139639,8.5823365e-07
C0R890,山海,2025-08-07,21.9878,120.7091,2.0351905e-05
C0T9A0,月眉山,2025-08-07,23.809928,121.539828,0.9890216
C0AC70,信義,2025-08-07,25.037822,121.564597,0.8866246
C0K560,棋山,2025-08-07,23.68645,120.603417,0.7670461
C2FB50,出雲,2025-08-07,24.206469,120.902794,2.4201605e-05
C1Z240,中平林道,2025-08-07,23.42115,121.26763,5.5501994e-05
U2H480,溪頭,2025-08-07,23.670306,120.798194,8.440239e-08
C0M880,好美里,2025-08-07,23.3364,120.138,0.99904853
C0T9E0,大坑,2025-08-07,23.880628,121.581981,0.9106314
C0K530,臺西,2025-08-07,23.701547,120.197559,0.99481755
C1E900,國一N128K,2025-08-07,24.560997,120.844186,0.9341889
C0AJ50,水湳洞,2025-08-07,25.123695,121.862238,0.6662475
C0AI20,白沙灣,2025-08-07,25.283128,121.519058,7.096067e-06
C2V310,美濃,2025-08-07,22.898792,120.51907,0.9963203
C0A860,大坪,2025-08-07,25.165914,121.632969,0.92563766
C1U850,觀音海岸,2025-08-07,24.38319,121.77856,0.9368662
C2K610,草嶺石壁,2025-08-07,23.602469,120.707731,1.7096822e-07
C0U950,鶯子嶺,2025-08-07,24.89754,121.79244,3.22973e-07
C0O900,善化,2025-08-07,23.112883,120.297219,0.99814886
C0K550,蔦松,2025-08-07,23.514319,120.229736,0.99916226
E2P980,林試六龜中心,2025-08-07,22.991703,120.645722,0.9943365
C0E590,通霄,2025-08-07,24.471892,120.704622,0.99111265
C1I310,西巒,2025-08-07,23.754486,120.883956,2.1617818e-06
C0A550,泰平,2025-08-07,24.971197,121.823711,0.9364043
C0I360,水里,2025-08-07,23.812553,120.849792,0.8899528
C0R830,高士,2025-08-07,22.121825,120.836781,3.9490832e-08
C1I101,溪頭,2025-08-07,23.661789,120.807647,6.1747514e-08
C0AJ20,野柳,2025-08-07,25.20703,121.690021,0.84951764
C0B060,暖暖,2025-08-07,25.0957,121.7403,0.9289325
C1H920,長豐,2025-08-07,24.102039,120.879897,4.2593212e-05
C0V360,內門,2025-08-07,22.975481,120.466769,0.9994455
C0R850,林邊,2025-08-07,22.4634,120.5339,0.78403723
C0E930,龍鳳,2025-08-07,24.700034,120.859125,0.98508626
C0U910,冬山,2025-08-07,24.63373,121.7937,0.8841723
C1E721,泰安,2025-08-07,24.489017,120.968036,1.8292681e-08
82H320,茶改中部分場,2025-08-07,23.875611,120.913583,5.8217847e-06
C0M750,布袋,2025-08-07,23.380878,120.167789,0.99821794
C1S860,利嘉,2025-08-07,22.809417,121.050528,0.25169286
E2S980,林試太麻里1,2025-08-07,22.598922,120.980044,0.0658654
C0X170,關廟,2025-08-07,22.963017,120.327797,0.999164
C0V720,林園,2025-08-07,22.507747,120.394511,0.59420663
C1I510,線浸林道,2025-08-07,23.761508,120.832956,1.6622249e-07
C0D690,外湖,2025-08-07,24.917735,120.968711,0.002517059
C0C750,新興坑尾,2025-08-07,25.0061,121.0971,0.06928872
B2Q810,畜試南區分所,2025-08-07,21.945583,120.802167,7.309267e-07
C0S790,金崙,2025-08-07,22.538122,120.966875,0.1324571
C0AH90,福山植物園,2025-08-07,24.760717,121.58135,0.77784175
C0I540,奇萊稜線,2025-08-07,24.109231,121.326456,2.1847253e-08
C0M850,表湖,2025-08-07,23.24186,120.64166,0.07374604
C0S770,大溪山,2025-08-07,22.478475,120.943325,1.5374636e-07
C0AG80,中和,2025-08-07,24.991622,121.491792,0.028062996
C0T790,大禹嶺,2025-08-07,24.186117,121.316086,1.7752445e-08
C0T9B0,水源,2025-08-07,23.991861,121.537169,0.9405305
C0R840,牡丹池山,2025-08-07,22.168389,120.841225,3.393063e-07
C1I131,桶頭,2025-08-07,23.641944,120.654117,0.12540561
CAL110,布袋國中,2025-08-07,23.35893,120.18026,0.99821156
467571,新竹,2025-08-07,24.827853,121.014219,0.13318023
C0Z290,赤柯山,2025-08-07,23.36893,121.38293,2.3566728e-05
C0X280,將軍,2025-08-07,23.214999,120.13577,0.99915993
C0S690,太麻里,2025-08-07,22.60902,120.98533,3.486221e-07
C0U880,北關,2025-08-07,24.9072,121.8734,0.16965336
C0G810,埔心,2025-08-07,23.947633,120.525456,0.86919695
C0U970,大福,2025-08-07,24.80064,121.81389,0.41801715
C2H9N0,仁愛東眼,2025-08-07,24.026875,121.1205,2.1212905e-07
C1E670,南礦,2025-08-07,24.538278,121.002836,2.6535098e-08
C0M520,東後寮,2025-08-07,23.369908,120.248065,0.9981147
C1E461,松安,2025-08-07,24.397972,120.986022,9.582082e-08
C2N160,西拉雅風管處,2025-08-07,23.189481,120.335297,0.99923235
C2M970,碧湖,2025-08-07,23.568632,120.624165,5.67803e-07
C0A640,石碇,2025-08-07,24.993969,121.662917,0.8604943
E2S960,林試太麻里2,2025-08-07,22.598,120.99775,0.021409167
C0F9Y0,桃山,2025-08-07,24.432739,121.303808,2.3710083e-08
C1I020,萬大,2025-08-07,23.979817,121.132261,2.0717591e-06
C0U940,羅東,2025-08-07,24.68184,121.74934,0.9515706
C0M650,朴子,2025-08-07,23.43463,120.23902,0.9953847
C1I500,大尖山,2025-08-07,23.858572,120.994889,1.5980348e-08
C0FB40,中橫21.6k,2025-08-07,24.2499,121.1455,8.222332e-07
C0G820,田尾,2025-08-07,23.901669,120.509389,0.86980057
E2K600,四湖植物園,2025-08-07,23.676986,120.163433,0.99613863
C0S730,綠島,2025-08-07,22.6672,121.47533,2.1798552e-08
12Q970,東港工作站,2025-08-07,22.479997,120.466058,0.7589761
C0E430,南庄,2025-08-07,24.601775,121.000214,0.7750214
C1TA00,太魯閣,2025-08-07,24.15773,121.6236,0.021793325
466920,臺北,2025-08-07,25.037658,121.514853,0.88620037
C0R600,舊泰武,2025-08-07,22.588194,120.664944,0.00020454184
C1I260,北坑,2025-08-07,23.9246,121.006903,0.0003526302
466910,鞍部,2025-08-07,25.182586,121.529731,6.103977e-08
C1I230,九份二山,2025-08-07,23.961944,120.845,0.0001572315
C2A660,瑞芳,2025-08-07,25.113169,121.801147,0.7893385
C0R270,琉球嶼,2025-08-07,22.332244,120.362236,2.2227947e-05
C1T990,高寮,2025-08-07,23.394239,121.356808,0.9090209
C0G620,芬園,2025-08-07,24.015678,120.6213,0.8570143
C1Z140,荖溪,2025-08-07,23.890575,121.45964,0.7328759
C1I201,中心崙,2025-08-07,23.728722,120.712097,4.403397e-06
C1I400,凌霄,2025-08-07,24.018778,121.004456,2.4807167e-07
C1M640,十字,2025-08-07,23.492153,120.753683,1.4975747e-07
G2P820,農試鳳山分所,2025-08-07,22.646611,120.356083,0.9969567
C0Z270,蕃薯寮,2025-08-07,23.73835,121.540108,0.9433362
C0FB10,出雲山苗圃,2025-08-07,24.23105,120.90475,2.830922e-06
C0F9Q0,外埔,2025-08-07,24.347817,120.705686,0.98722845
C0K580,高鐵雲林,2025-08-07,23.737456,120.417944,0.4577912
C2I090,鳳凰,2025-08-07,23.728081,120.787347,5.5619726e-06
C0U990,員山,2025-08-07,24.74435,121.72247,0.9470122
C0V770,大社,2025-08-07,22.730306,120.346639,0.9965824
C0X120,麻豆,2025-08-07,23.183289,120.248611,0.9979291
C0C670,龍潭,2025-08-07,24.870056,121.221389,1.4402201e-05
C0D680,香山濕地,2025-08-07,24.783581,120.914988,0.91531795
C0S980,勝林山,2025-08-07,22.430439,120.8938,9.976243e-07
C0V730,大寮,2025-08-07,22.605614,120.395717,0.91667384
C0R570,麟洛,2025-08-07,22.65078,120.52719,0.9837616
C2M930,石卓,2025-08-07,23.478744,120.702264,2.2976377e-07
C0G9B0,和美,2025-08-07,24.105169,120.492131,0.9901791
CAG100,王功漁港,2025-08-07,23.96824,120.32586,0.99684554
C0X290,北門,2025-08-07,23.267772,120.125481,0.99916005
C2F930,大甲,2025-08-07,24.347667,120.640403,0.99752533
C0D650,湖口,2025-08-07,24.904794,121.043628,0.00011154752
C0E420,竹南,2025-08-07,24.708978,120.888897,0.9807236
C0U780,五結,2025-08-07,24.68637,121.79794,0.94355893
C1I250,鯉潭,2025-08-07,23.961922,120.991131,0.42172396
C0R130,阿禮,2025-08-07,22.742908,120.743678,1.2954343e-05
C0X100,臺南市北區,2025-08-07,23.010394,120.194228,0.99856645
C0S920,金峰嘉蘭,2025-08-07,22.594789,120.960825,0.07407734
C0V490,新興,2025-08-07,22.627422,120.298803,0.9882277
C0F9K0,大安,2025-08-07,24.345061,120.588025,0.99738187
467290,古坑,2025-08-07,23.633639,120.551889,0.77111834
C2E970,八甲,2025-08-07,24.535811,120.795983,0.9473861
C0V440,鳳山,2025-08-07,22.646653,120.356122,0.9969567
C1T940,大觀,2025-08-07,23.714206,121.373133,0.94543874
C0E740,造橋,2025-08-07,24.637056,120.864778,0.9845899
C0R100,尾寮山,2025-08-07,22.833111,120.683889,0.00017364991
A2K630,臺大雲林校區,2025-08-07,23.730628,120.423903,0.4579518
467990,馬祖,2025-08-07,26.169467,119.923158,0.028837698
C0D580,寶山,2025-08-07,24.735006,121.025192,9.76489e-05
E2P990,林試扇平站,2025-08-07,22.9677,120.6857,0.9934308
C0AI30,三重,2025-08-07,25.057328,121.500629,0.8795959
C0AH00,汐止,2025-08-07,25.066881,121.658778,0.88620037
C1Z040,立山,2025-08-07,23.443356,121.327375,0.9621737
466881,新北,2025-08-07,24.959207,121.525196,0.025539897
C0W130,花嶼,2025-08-07,23.40007,119.32276,1.8814068e-06
C0A950,鼻頭角,2025-08-07,25.129036,121.923372,0.01942411
C0K470,林內,2025-08-07,23.748675,120.609642,0.057983845
C2F990,摩天嶺,2025-08-07,24.322458,120.936819,2.029413e-05
82C160,茶改場,2025-08-07,24.908472,121.185333,0.0012596031
C0Z320,清水林道,2025-08-07,23.27125,121.188272,0.8982024
C0R760,南仁湖,2025-08-07,22.084681,120.863353,7.33137e-08
C0M670,大林,2025-08-07,23.600616,120.45841,0.988322
C0M800,茶山,2025-08-07,23.299075,120.664767,0.98373187
C0A9C0,天母,2025-08-07,25.117494,121.537169,0.4521456
72K220,南改斗南分場,2025-08-07,23.634556,120.477333,0.8329467
72AI40,桃改樹林分場,2025-08-07,24.944503,121.386972,0.014247437
C0S910,蘭嶼燈塔,2025-08-07,22.081197,121.503117,5.0723745e-09
C0B050,八斗子,2025-08-07,25.144754,121.79167,0.6664698
C0U900,內城,2025-08-07,24.71813,121.68766,0.96041137
C0X320,柳營,2025-08-07,23.253328,120.375253,0.9998161
C0M790,新港,2025-08-07,23.553269,120.345728,0.9675768
C0F9T0,西屯,2025-08-07,24.179494,120.641275,0.98101574
C0E950,松安,2025-08-07,24.39792,120.98599,9.582082e-08
C0SA30,都歷,2025-08-07,23.020333,121.323642,0.52874696
C0C620,蘆竹,2025-08-07,25.084275,121.265767,0.72751236
C0R730,大坪頂,2025-08-07,22.024633,120.69355,1.9125061e-06
C0AJ40,石門,2025-08-07,25.273672,121.601198,7.4084573e-07
C0E750,苗栗,2025-08-07,24.564569,120.824575,0.9310607
C0T870,鯉魚潭,2025-08-07,23.935639,121.508944,0.21803133
C1V170,排雲,2025-08-07,23.463619,120.954147,2.7024003e-08
C2H950,中寮,2025-08-07,23.884447,120.766406,0.80605805
C0R350,貓鼻頭,2025-08-07,21.921774,120.7358,5.427938e-05
C0V660,岡山,2025-08-07,22.797078,120.294958,0.99714863
C1H941,雙冬,2025-08-07,23.967378,120.802189,0.00013895682
C0AJ70,田寮,2025-08-07,25.2698,121.4886,8.758307e-06
C0AI00,五股,2025-08-07,25.07445,121.42728,0.5547308
C0Z280,德武,2025-08-07,23.47426,121.41071,0.9988542
C0R700,枋山,2025-08-07,22.246844,120.661086,0.01534048
C0C460,復興,2025-08-07,24.820208,121.352281,0.008536095
E2H360,蓮華池,2025-08-07,23.918333,120.885278,8.417396e-06
C0M640,中埔,2025-08-07,23.42538,120.5229,0.9986525
C0W140,金沙,2025-08-07,24.488292,118.408778,0.034042083
C2A540,四堵,2025-08-07,24.8926,121.745736,0.7533034
C0ACA0,新莊,2025-08-07,25.051478,121.446756,0.93809205
C0R220,潮州,2025-08-07,22.534361,120.54,0.84916306
U2HA40,臺大內茅埔,2025-08-07,23.689722,120.851117,0.48664036
467490,臺中,2025-08-07,24.145736,120.684075,0.9988208
C0UB60,明池,2025-08-07,24.650688,121.475277,3.676856e-05
C0U960,翠峰湖,2025-08-07,24.510856,121.608044,1.6040966e-08
E2HA20,林試畢祿溪站,2025-08-07,24.226944,121.308522,4.071768e-08
C0V890,前鎮,2025-08-07,22.5718,120.3117,0.9895324
C1F941,雪嶺,2025-08-07,24.280586,121.026642,3.8915157e-08
C2H9E0,國姓南港,2025-08-07,23.911108,120.846556,1.3607033e-07
C0AC80,文山,2025-08-07,25.00235,121.575728,0.020575311
C0F9R0,龍井,2025-08-07,24.184536,120.528972,0.9981408
C0M760,民雄,2025-08-07,23.551754,120.428457,0.9884174
C0UA40,西德山,2025-08-07,24.560647,121.752608,1.5702383e-07
C1T920,中興,2025-08-07,23.769503,121.498653,0.47339365
C0D550,雪霸,2025-08-07,24.526972,121.11605,2.030849e-08
C2F860,梨山,2025-08-07,24.247522,121.243669,4.0200266e-08
C0R320,車城,2025-08-07,22.0744,120.716247,6.0027724e-05
C1S870,南美山,2025-08-07,23.15025,121.382333,0.3130038
C0B020,基隆嶼,2025-08-07,25.19141,121.78391,0.005624451
C1U501,牛鬥,2025-08-07,24.637836,121.573656,0.5518074
C0M730,嘉義市東區,2025-08-07,23.457673,120.460531,0.9992813
C0S700,知本,2025-08-07,22.684866,121.005642,0.018068984
C1N001,沙崙,2025-08-07,22.935472,120.309406,0.99909043
C0V760,橋頭,2025-08-07,22.757806,120.30575,0.99626285
C0G960,福寶,2025-08-07,24.0443,120.3814,0.9902021
C0X210,白河,2025-08-07,23.347466,120.414427,0.9997747
C0S810,東河,2025-08-07,22.972672,121.303986,0.34632093
C2R170,屏東,2025-08-07,22.66027,120.49403,0.9837537
C0R670,楓港,2025-08-07,22.190131,120.692156,0.003625652
C0FA50,霧峰,2025-08-07,24.0419,120.6995,0.9256816
C0UB10,蘇澳,2025-08-07,24.5969,121.8571,0.85727346
C0G950,防潮門,2025-08-07,24.1835,120.4871,0.9981402
C0M740,六腳,2025-08-07,23.492871,120.290625,0.9875852
C1R250,力里,2025-08-07,22.428117,120.629228,0.9576556
C0K330,虎尾,2025-08-07,23.719183,120.442036,0.44512337
C2FA00,烏石坑,2025-08-07,24.273503,120.947617,3.1538162e-05
C0V620,永安,2025-08-07,22.82315,120.236856,0.9971456
C1I330,楓樹林,2025-08-07,23.986803,121.076117,6.4797354e-07
C0W200,湖西,2025-08-07,23.596314,119.67275,2.9146773e-05
72Q010,高雄農改場,2025-08-07,22.709333,120.525889,0.9551254
C0SA40,瑞和,2025-08-07,22.974361,121.156697,0.53998965
C0C680,龜山,2025-08-07,25.02846,121.38656,0.5503692
C2V260,月眉,2025-08-07,22.971003,120.539853,0.99790704
C0V450,鳳森,2025-08-07,22.545064,120.392592,0.09164252
C0FA90,小雪山林道,2025-08-07,24.29515,121.03651,4.006065e-08
C0U720,南山,2025-08-07,24.43742,121.38167,0.0051236176
A2N290,臺南蘭花園區,2025-08-07,23.340258,120.379661,0.9985049
C0R560,新園,2025-08-07,22.5434,120.461558,0.59420663
C0U890,三星,2025-08-07,24.66812,121.65302,0.50786036
C1V300,御油山,2025-08-07,23.001983,120.715364,1.809273e-07
C0U600,礁溪,2025-08-07,24.817539,121.765608,0.3369213
C1T980,龍澗,2025-08-07,24.023289,121.411328,8.0321297e-07
C0D670,海天一線,2025-08-07,24.831986,120.914438,0.001613168
C0SA00,歷坵,2025-08-07,22.520969,120.89185,1.389545e-05
C0M710,東石,2025-08-07,23.458927,120.15385,0.9992269
C0M780,鹿草,2025-08-07,23.41134,120.30835,0.99515766
C0U520,雙連埤,2025-08-07,24.753033,121.641303,0.9433818
C0B010,七堵,2025-08-07,25.094819,121.71713,0.9240853
C0R480,長治,2025-08-07,22.693128,120.542622,0.9843319
C1V830,國三S383K,2025-08-07,22.781967,120.426475,0.990856
12Q980,恆春工作站,2025-08-07,22.079678,120.714425,6.0027724e-05
C1O940,東山服務區,2025-08-07,23.286016,120.398472,0.99988586
C1U840,東澳嶺,2025-08-07,24.5378,121.8485,5.5962737e-05
C1D630,飛鳳山,2025-08-07,24.766464,121.119178,9.01943e-06
C0S940,石寧山,2025-08-07,23.223772,121.406639,0.2989298
C0K410,北港,2025-08-07,23.573957,120.292802,0.99704564
C2M620,瑞里,2025-08-07,23.545133,120.675197,8.0290664e-07
C0SB70,小港漁港,2025-08-07,23.158558,121.400431,0.074948914
C2O950,安南,2025-08-07,23.076694,120.144861,0.99958336
C0F0E0,南湖圈谷,2025-08-07,24.363714,121.444667,2.455856e-08
467610,成功,2025-08-07,23.097486,121.373428,0.29457077
C0G890,伸港,2025-08-07,24.148933,120.484403,0.994924
C2E540,龍溪,2025-08-07,24.606489,120.783933,0.51537967
C1V200,梅山,2025-08-07,23.268447,120.823556,4.807683e-05
C0T9H0,加路蘭山,2025-08-07,23.682947,121.5274,0.1004967
C2O930,玉井,2025-08-07,23.126042,120.46055,0.99973065
C1F911,新伯公,2025-08-07,24.221361,120.841069,0.9994414
C0R490,九如,2025-08-07,22.7405,120.490503,0.94763625
C0X200,左鎮,2025-08-07,23.056758,120.408522,0.9995979
C0FA60,鞍馬山工作站,2025-08-07,24.267064,121.000793,4.538644e-08
C0SB50,叭嗡嗡,2025-08-07,23.047062,121.343223,0.55822605
C1F891,稍來,2025-08-07,24.265689,121.001142,4.636015e-08
72N240,七股研究中心,2025-08-07,23.081672,120.062894,0.9996228
C0C700,中壢,2025-08-07,24.977661,121.256375,0.22629385
C0M690,水上,2025-08-07,23.419734,120.388909,0.9952389
C0V690,鼓山,2025-08-07,22.623325,120.275575,0.98822385
C0O860,大內,2025-08-07,23.11885,120.36083,0.9984792
C0Z200,萬榮,2025-08-07,23.709219,121.420106,0.93473446
C0T9D0,和中,2025-08-07,24.26676,121.74103,0.22417347
C1O921,楠西,2025-08-07,23.183511,120.484083,0.9997561
C0AJ30,淡水觀海,2025-08-07,25.184591,121.408616,0.026829567
C0V810,左營,2025-08-07,22.67491,120.28491,0.9971959
C0UA70,桃源谷,2025-08-07,24.962606,121.888875,0.014202204
C0X130,官田,2025-08-07,23.193217,120.315422,0.9991727
C1H000,翠峰,2025-08-07,24.109397,121.205211,1.494273e-08
C0UA90,石城,2025-08-07,24.980444,121.951214,0.31997955
C1E681,南勢山,2025-08-07,24.421669,120.923831,5.9820184e-07
C0A9F0,內湖,2025-08-07,25.079422,121.57545,0.88620037
C0K291,宜梧,2025-08-07,23.536281,120.169329,0.99916226
C1K540,口湖,2025-08-07,23.585344,120.180517,0.9988372
C0R780,滿州,2025-08-07,22.024403,120.839892,1.1420436e-07
C0V870,文安,2025-08-07,22.8025,120.2164,0.99693775
C0U650,玉蘭,2025-08-07,24.675286,121.587061,0.95557815
C0R640,東港,2025-08-07,22.46247,120.44074,0.75889575
C0AJ80,板橋,2025-08-07,25.0107,121.4489,0.02948683
C0S660,下馬,2025-08-07,23.150427,121.070312,0.9825092
C1H9B1,阿眉,2025-08-07,24.1263,120.994672,2.1168081e-07
C0UA20,多加屯,2025-08-07,24.368614,121.373189,1.7472653e-08
C0E730,頭份,2025-08-07,24.688247,120.912206,0.98231846
72V140,高改旗南分場,2025-08-07,22.857861,120.516667,0.99509865
C0K480,莿桐,2025-08-07,23.761192,120.502372,0.034755025
C0U980,坪林石牌,2025-08-07,24.86478,121.77396,0.15454002
C0T900,西林,2025-08-07,23.8119,121.441458,0.48218048
C1I150,青雲,2025-08-07,23.793361,120.949378,0.97760665
467350,澎湖,2025-08-07,23.565503,119.563094,1.3387202e-05
C0G800,埔鹽,2025-08-07,24.000394,120.431683,0.9879314
C0H960,草屯,2025-08-07,23.973672,120.68085,0.92425853
C1V780,多納林道,2025-08-07,22.888028,120.737917,6.4791816e-06
C0E920,通霄漁港,2025-08-07,24.498589,120.673876,0.997405
C0Z330,安通山,2025-08-07,23.290728,121.348528,0.9912332
C0AH10,永和,2025-08-07,25.01125,121.508111,0.031827495
C0AK10,太平里,2025-08-07,25.134937,121.364899,0.032679055
C2G640,鹿港,2025-08-07,24.0753,120.430481,0.99021447
C1E890,國三N149K,2025-08-07,24.463414,120.680019,0.99558586
C1R110,口社,2025-08-07,22.770111,120.645222,0.9903573
C1M870,國三N285K,2025-08-07,23.550319,120.505833,0.9894888
C1E480,鳳美,2025-08-07,24.554803,121.034747,0.0011282058
C0M530,奮起湖,2025-08-07,23.493903,120.699253,3.9025355e-07
C0C590,觀音,2025-08-07,25.027072,121.153317,0.5542271
C0T9M0,靜浦,2025-08-07,23.455167,121.495028,0.95055205
C2H9M0,發祥,2025-08-07,24.154094,121.164517,1.8802516e-06
C0AI40,石牌,2025-08-07,25.115597,121.513139,0.46374133
C1F871,上谷關,2025-08-07,24.203483,121.018644,0.00015856227
C2H9G0,百勝,2025-08-07,24.051142,120.909361,0.98000634
C0G880,二水,2025-08-07,23.810742,120.6173,0.33713907
C0R940,加祿堂,2025-08-07,22.3363,120.6217,0.38323653
C0W220,北竿,2025-08-07,26.220358,119.974881,0.017068325
C0O960,崎頂,2025-08-07,22.959547,120.369317,0.9993918
C0TA40,秀林,2025-08-07,24.302864,121.731144,0.02045218
C0S750,向陽,2025-08-07,23.248397,120.986133,3.4042966e-08
C0T9F0,水璉,2025-08-07,23.797131,121.542514,0.55883604
C1M600,頭凍,2025-08-07,23.406364,120.603339,8.064031e-05
467660,臺東,2025-08-07,22.752211,121.154586,0.111040466
C1D380,新埔,2025-08-07,24.84745,121.03834,0.040701844
C2G980,田頭村,2025-08-07,23.8263,120.444175,0.03419366
C0V750,路竹,2025-08-07,22.854997,120.259439,0.9989029
C0N050,蚵寮,2025-08-07,23.301,120.1104,0.9990489
72M700,南改鹿草分場,2025-08-07,23.416869,120.283061,0.9953847
C1SA50,利嘉林道,2025-08-07,22.82325,121.009389,4.4266876e-08
C0UB70,太平山中間站,2025-08-07,24.542003,121.513453,0.00019047888
C0A940,金山,2025-08-07,25.223628,121.643967,0.8670972
C1V340,大津,2025-08-07,22.888322,120.645986,0.9928677
C0W180,七美,2025-08-07,23.219333,119.444892,3.2996222e-06
C1F9C1,白冷,2025-08-07,24.182844,120.929889,0.99774885
K2E710,苗改生物防治研究中心,2025-08-07,24.422861,120.871833,0.02353301
C0N040,蘆竹溝,2025-08-07,23.2344,120.0961,0.99916005
C0D760,大坪苗圃,2025-08-07,24.5362,121.1108,1.4510086e-08
C2W230,畜試所澎湖,2025-08-07,23.628342,119.513206,1.2996006e-05
C0R880,後壁湖,2025-08-07,21.9457,120.7457,2.3252005e-05
C1I280,埔中,2025-08-07,23.820778,120.642594,0.14909221
467790,墾丁雷達站,2025-08-07,21.948235,120.808028,4.2525065e-07
C0W190,望安,2025-08-07,23.380564,119.494075,5.5665414e-06
C0Z170,卓溪,2025-08-07,23.3443,121.3029,0.9265174
C0F850,東勢,2025-08-07,24.246428,120.833047,0.99836683
466900,淡水,2025-08-07,25.164889,121.448906,0.032703057
C0I370,魚池,2025-08-07,23.895703,120.94135,8.191136e-05
C0C630,大溪,2025-08-07,24.882853,121.265547,0.0002553699
C0A520,山佳,2025-08-07,24.974944,121.402008,0.10808643
C0I110,竹山,2025-08-07,23.761225,120.688156,0.2418149
82H840,茶改南部分場,2025-08-07,23.762528,120.7405,0.2799685
C0G660,溪湖,2025-08-07,23.94835,120.479122,0.86605847
C1T800,洛韶,2025-08-07,24.204558,121.453956,1.0411896e-06
C1T810,慈恩,2025-08-07,24.192044,121.388386,6.032424e-09
C1E451,象鼻,2025-08-07,24.368617,120.940228,1.9863846e-06
C0AC60,三峽,2025-08-07,24.939025,121.369728,0.024608536
C0I490,萬大林道,2025-08-07,23.928228,121.091411,6.635505e-08
C1I290,豐丘,2025-08-07,23.668178,120.887417,8.4093536e-08
C1I320,奧萬大,2025-08-07,23.952956,121.178556,3.579659e-07
C2M910,嘉義大學,2025-08-07,23.471325,120.485903,0.99891895
C0U770,南澳,2025-08-07,24.44935,121.81022,0.4995995
C0A980,社子,2025-08-07,25.109508,121.469681,0.040752187
C0V800,六龜,2025-08-07,22.997889,120.633583,0.9942852
C1G9D0,國一S218K,2025-08-07,23.890641,120.493253,0.7714664
C0E570,白沙屯,2025-08-07,24.549447,120.696803,0.9856236
C2F9A0,中竹林,2025-08-07,24.103556,120.751061,0.9879978
C0FA40,臺中電廠,2025-08-07,24.2146,120.4907,0.9981408
C2G9A0,畜試所彰化,2025-08-07,23.86045,120.557964,0.25051212
C0H9C0,合歡山,2025-08-07,24.143442,121.272547,2.9914613e-08
C0X060,下營,2025-08-07,23.22695,120.256261,0.9995398
G2M350,農試溪口農場,2025-08-07,23.58565,120.408111,0.98860323
C0U860,頭城,2025-08-07,24.85323,121.8308,0.3331042
C0R580,南州,2025-08-07,22.48591,120.50274,0.75889575
C0D430,峨眉,2025-08-07,24.6905,121.017189,0.9345557
C0G780,秀水,2025-08-07,24.03405,120.503869,0.85479397
72N100,臺南農改場,2025-08-07,23.0605,120.342194,0.9985961
C0S900,蘭嶼高中,2025-08-07,22.04909,121.51214,1.08233875e-08
C1F9W0,德基,2025-08-07,24.254783,121.190261,4.6910923e-08
C1Z120,壽豐,2025-08-07,23.870853,121.508081,0.304567
C0W160,烏坵,2025-08-07,24.9944,119.44956,0.00013489214
C1I240,外大坪,2025-08-07,23.958697,120.917931,0.113288246
C1I550,國六W023K,2025-08-07,23.979067,120.867742,0.46672535
C0R870,興海,2025-08-07,21.9752,120.8439,7.30926e-07
C0R140,瑪家,2025-08-07,22.682903,120.686639,0.045514517
C0A530,坪林,2025-08-07,24.938183,121.70975,0.60531443
C0X260,後壁,2025-08-07,23.366358,120.362326,0.9985491
C0Z230,和平,2025-08-07,24.30717,121.77007,0.2230096
C0G770,福興,2025-08-07,24.041289,120.437669,0.987923
C0H9A0,神木村,2025-08-07,23.532742,120.843667,1.5777466e-07
C0I460,南投,2025-08-07,23.911469,120.687331,0.9876305
C0I480,梅峰,2025-08-07,24.085272,121.173572,3.5429007e-08
C1V570,吉東,2025-08-07,22.85422,120.5454,0.9942155
C2D740,屯原,2025-08-07,24.067969,121.209389,3.174152e-08
C2A560,福山,2025-08-07,24.776203,121.502811,0.51804525
C0AH30,五分山,2025-08-07,25.07125,121.780794,2.041317e-06
C0FA10,松柏,2025-08-07,24.429115,120.617482,0.9973229
72S200,東改班鳩分場,2025-08-07,22.829528,121.077694,0.881245
72HA00,中改埔里分場,2025-08-07,23.903208,120.963364,3.0208812e-05
C2H9W0,大坪頂農水,2025-08-07,24.043122,120.932781,3.4299712e-05
C0C650,平鎮,2025-08-07,24.897503,121.214636,0.0044742934
C0S930,延平,2025-08-07,22.902581,121.084058,0.845122
C0UA60,樟樹山,2025-08-07,24.41393,121.78325,0.7324839
C1S670,摩天,2025-08-07,23.199503,121.027,2.793544e-08
C0V630,茄萣,2025-08-07,22.906642,120.182608,0.9988556
466940,基隆,2025-08-07,25.133314,121.740475,0.6582463
C0X050,東河,2025-08-07,23.296598,120.385608,0.9998746
C0R770,保力,2025-08-07,22.071122,120.764111,9.2929295e-06
G2L020,農試嘉義分所,2025-08-07,23.485028,120.473806,0.9952302
C0X240,關子嶺,2025-08-07,23.331169,120.508025,0.99850214
C0I380,集集,2025-08-07,23.828206,120.801467,0.9050119
466990,花蓮,2025-08-07,23.975128,121.613275,0.12676053
C1V220,小關山,2025-08-07,23.154217,120.813603,1.0452921e-07
C1F9G1,慶福山,2025-08-07,24.180853,120.848378,3.1894415e-06
C0FB20,雪山橋,2025-08-07,24.23192,120.9786,8.5303526e-08
C0Z250,瑞穗林道,2025-08-07,23.49284,121.30688,2.6647025e-05
C0D590,新豐,2025-08-07,24.87068,120.97721,8.339309e-06
C0A870,五指山,2025-08-07,25.132153,121.608692,6.614707e-06
C0UA50,西帽山,2025-08-07,24.555361,121.802628,0.013141168
C0X160,仁德,2025-08-07,22.968258,120.257689,0.9982337
C1H971,六分寮,2025-08-07,23.92507,120.6378,0.55955976
C0W120,西嶼,2025-08-07,23.5626,119.468436,4.134066e-06
C0G650,員林,2025-08-07,23.946503,120.585597,0.7197628
C0AD50,鶯歌,2025-08-07,24.951533,121.346294,0.024971856
C2H9Q0,北東眼山,2025-08-07,24.120939,121.189303,4.8320064e-08
C2H9T0,名間竹圍,2025-08-07,23.859914,120.637572,0.8682461
C0S990,山豬窟,2025-08-07,22.318619,120.857372,1.7414585e-07
C0X190,安平,2025-08-07,22.993161,120.152181,0.99856716
C0K400,斗六,2025-08-07,23.720583,120.541127,0.04597567
12J990,口湖工作站,2025-08-07,23.589978,120.180394,0.9988372
C0O830,北寮,2025-08-07,23.079561,120.495008,0.9994723
C1D410,白蘭,2025-08-07,24.579364,121.079947,1.854513e-08
C0S970,加津林,2025-08-07,22.416211,120.926942,8.9537236e-05
C0D700,關西,2025-08-07,24.7977,121.1732,0.00014349858
C0M810,里佳,2025-08-07,23.389125,120.716647,7.103767e-07
C0U750,龜山島,2025-08-07,24.841667,121.953133,0.00085550314
C0R810,內獅,2025-08-07,22.305064,120.642986,0.40708318
C1M390,龍美,2025-08-07,23.406728,120.654417,4.515879e-06
C2FB60,頭櫃山,2025-08-07,24.129842,120.858925,3.2278747e-06
C1H840,國三N238K,2025-08-07,23.841008,120.707711,0.96175176
CAQ030,崎峰國小,2025-08-07,22.42565,120.49521,0.75889575
C2E520,大湖,2025-08-07,24.414939,120.870872,0.9341851
467530,阿里山,2025-08-07,23.508208,120.813242,3.239153e-08
C1E691,南湖,2025-08-07,24.40135,120.837533,2.1457654e-05
C0FA30,梧棲,2025-08-07,24.256003,120.523381,0.998157
C1V231,高中,2025-08-07,23.134911,120.716711,0.17655288
C0AK30,硬漢嶺,2025-08-07,25.136097,121.426372,0.0013191479
C0F9V0,新社,2025-08-07,24.200172,120.815806,0.99904984
C0H890,埔里,2025-08-07,23.972169,120.952425,0.0069555603
C0R690,墾丁,2025-08-07,21.966756,120.810269,4.8951044e-08
C0F0D0,審馬陣,2025-08-07,24.381675,121.4203,1.9962771e-08
C2W030,金門農試所,2025-08-07,24.448431,118.451786,0.025020879
C0R820,白鷺,2025-08-07,22.454275,120.666219,0.001223923
C0FB00,大雪山,2025-08-07,24.254668,121.007374,4.329673e-08
C1V190,南天池,2025-08-07,23.27403,120.91176,2.36733e-08
C0E940,雪見,2025-08-07,24.42595,121.01347,3.677736e-08
K2E360,苗栗農改場,2025-08-07,24.495722,120.829111,0.9145473
CAJ050,海口故事園區,2025-08-07,23.57543,120.14121,0.9988372
C2H9D0,三隻寮,2025-08-07,24.093078,120.861578,1.960543e-05
C0O990,媽廟,2025-08-07,22.99175,120.293525,0.9984895
C0D480,打鐵坑,2025-08-07,24.849664,121.150789,1.2795551e-05
C0Z220,和平林道,2025-08-07,24.343922,121.656317,0.79954803
C0TA10,花蓮漁港,2025-08-07,23.995322,121.638331,0.12503394
72C440,桃園農改場,2025-08-07,24.950944,121.030583,0.00062455516
C1E711,馬拉邦山,2025-08-07,24.367306,120.901656,4.1527383e-07
C0SB20,富岡,2025-08-07,22.792467,121.192669,0.13940708
C0D560,竹東,2025-08-07,24.767147,121.057881,6.53538e-05
C0F9U0,南屯,2025-08-07,24.137006,120.637969,0.96444327
C0M720,番路,2025-08-07,23.464657,120.554156,0.9981326
C0F0A0,雪山圈谷,2025-08-07,24.388594,121.236339,2.765647e-08
C1A9N0,四十份,2025-08-07,24.934158,121.593283,0.9241088
C0U760,東澳,2025-08-07,24.52196,121.83318,0.41214615
C0X230,鹽水,2025-08-07,23.272621,120.247641,0.9989286
C2H9H0,苗改南投蜂場,2025-08-07,23.852589,120.693481,0.6674905
C0R950,萬隆國小,2025-08-07,22.507667,120.587817,0.9193864
467540,大武,2025-08-07,22.35572,120.90374,0.00015250534
C0V370,古亭坑,2025-08-07,22.893178,120.401947,0.99898446
C1I340,新興橋,2025-08-07,23.563333,120.868728,1.9331023e-06
C0SA80,土坂,2025-08-07,22.453108,120.887572,4.1829688e-05
C0R160,鹽埔,2025-08-07,22.739558,120.530778,0.9551674
C0AC40,大屯山,2025-08-07,25.175675,121.522408,7.0484893e-09
466850,五分山雷達站,2025-08-07,25.071182,121.781205,1.7880355e-06
C2H9L0,馬烈霸,2025-08-07,24.1512,121.201772,5.804073e-08
C1AI50,國三N016K,2025-08-07,25.034164,121.619664,0.91561687
C1V600,藤枝,2025-08-07,23.071961,120.757042,1.5054461e-07
C1E601,南勢,2025-08-07,24.572486,120.734842,0.9946861
C0O980,新市,2025-08-07,23.061614,120.298197,0.9981501
C0K420,西螺,2025-08-07,23.800407,120.467394,0.023841899
C0Z050,佳心,2025-08-07,23.34567,121.21316,0.013384491
C0AD30,蘆洲,2025-08-07,25.086594,121.472331,0.88002336
C0V610,梓官,2025-08-07,22.760558,120.267211,0.9962624
K2F750,種苗改良場,2025-08-07,24.225972,120.800917,0.9992942
C0UA80,大溪漁港,2025-08-07,24.941801,121.902955,0.30049112
C1AI60,國一39K邊坡,2025-08-07,25.064361,121.383836,0.5817255
C0W150,金寧,2025-08-07,24.457703,118.328989,0.0234847
C0R960,內埔,2025-08-07,22.608483,120.570714,0.988097
V2C250,八德合作社,2025-08-07,24.93775,121.266389,0.0127480505
C2H9S0,龍南,2025-08-07,23.953536,120.833183,7.682492e-08
C0AH40,平等,2025-08-07,25.129142,121.577086,0.64945626
C0R540,佳冬,2025-08-07,22.419456,120.552375,0.9050725
466950,彭佳嶼,2025-08-07,25.627975,122.079744,1.1591904e-06
C0A890,雙溪,2025-08-07,25.036003,121.864242,0.027261019
C0C480,桃園,2025-08-07,24.992425,121.323172,0.2830349
C0AH50,林口,2025-08-07,25.072181,121.38084,0.49032804
A2K360,水試臺西試驗場,2025-08-07,23.717231,120.190522,0.99489474
C2M960,外寮,2025-08-07,23.562643,120.665688,3.5554962e-07
C0F9S0,烏日,2025-08-07,24.107058,120.624103,0.953857
C0C490,八德,2025-08-07,24.928708,121.283289,0.011781579
C0R190,赤山,2025-08-07,22.592333,120.614306,0.9900125
C0T820,天祥,2025-08-07,24.179597,121.495639,0.3833148
C1F9E1,龍安,2025-08-07,24.1605,120.831961,0.99682564
C0V820,小林,2025-08-07,23.148408,120.63325,0.9188228
C2G870,芳苑,2025-08-07,23.922303,120.320025,0.9968175
C0E850,大河,2025-08-07,24.618069,120.948578,0.98522156
C1U670,寒溪,2025-08-07,24.634,121.71691,0.94483966
C0N020,城西,2025-08-07,23.0568,120.0956,0.99917495
C1Z110,三棧,2025-08-07,24.11557,121.60501,0.7977928
C0R280,檳榔,2025-08-07,22.076078,120.836777,1.965285e-07
C2H9J0,中台,2025-08-07,23.9996,120.938739,0.9091268
C0F9L0,后里,2025-08-07,24.310436,120.729725,0.9961268
467441,高雄,2025-08-07,22.730432,120.312516,0.99658054
C0Z180,新城,2025-08-07,24.040486,121.604878,0.13045253
C0D540,橫山,2025-08-07,24.71116,121.11693,9.617734e-06
C1D420,太閣南,2025-08-07,24.632808,121.160575,3.630753e-07
C1E770,公館,2025-08-07,24.526914,120.830806,0.9228243
CAN130,水試所海水繁養殖中心,2025-08-07,23.120802,120.07968,0.99962276
C1I430,翠華,2025-08-07,24.191961,121.224339,1.4968801e-08
C1M400,菜瓜坪,2025-08-07,23.251928,120.576103,0.9913014
C0G730,二林,2025-08-07,23.903325,120.376081,0.9930761
72M360,南改義竹分場,2025-08-07,23.360694,120.279361,0.99811643
V2K620,麥寮合作社,2025-08-07,23.753836,120.294783,0.98350835
C0Z070,舞鶴,2025-08-07,23.46811,121.37407,0.99919003
C0B040,大武崙,2025-08-07,25.166676,121.706993,0.67930084
C1Z030,紅葉,2025-08-07,23.493119,121.338806,0.99726033
C1I050,丹大,2025-08-07,23.753747,121.141147,1.01641415e-08
C0I080,信義,2025-08-07,23.689694,120.851036,0.48664036
C0D750,樂山林道6k,2025-08-07,24.49999,121.08773,1.764311e-08
C2M920,朴子農改,2025-08-07,23.469889,120.259383,0.9953825
C2A880,福隆,2025-08-07,25.017842,121.942083,0.31920093
C0Z160,鳳林,2025-08-07,23.746114,121.453411,0.9357149
C0UB80,翠峰林道6K,2025-08-07,24.49773,121.568625,1.9726171e-08
C0V210,復興,2025-08-07,23.222403,120.806089,0.19616495
C0H990,昆陽,2025-08-07,24.121322,121.273642,1.5046519e-08
C0R741,獅子,2025-08-07,22.202308,120.705236,4.156312e-07
C0S710,鹿野,2025-08-07,22.917711,121.122994,0.96836543
C0I530,小奇萊,2025-08-07,24.131764,121.295717,1.569507e-08
C0FA70,大雪山埡口,2025-08-07,24.26867,121.03062,3.8926515e-08
C2K630,荷苞,2025-08-07,23.657717,120.595144,0.6779006
C0Z080,富源,2025-08-07,23.587642,121.378225,0.7557374
C0SB10,美和,2025-08-07,22.682078,121.060236,0.12414957
C2K620,馬光農場,2025-08-07,23.721453,120.378864,0.521009
C1I140,卡奈托灣,2025-08-07,23.754364,121.087872,1.43586645e-08
C0I520,玉山風口,2025-08-07,23.470489,120.955994,3.9604885e-08
C1G691,下水埔,2025-08-07,23.816114,120.5676,0.02570272
C0X110,臺南市南區,2025-08-07,22.961189,120.188378,0.9982326
C0V680,仁武,2025-08-07,22.701083,120.347722,0.9971975
C2G840,北斗,2025-08-07,23.877586,120.514222,0.76574886
C0R900,竹坑,2025-08-07,22.1385,120.7022,0.0018103385
C0K250,崙背,2025-08-07,23.75555,120.318925,0.98352003
C0G860,社頭,2025-08-07,23.897647,120.5862,0.47759897
C0X150,安定,2025-08-07,23.102614,120.227839,0.99447936
C0R590,里港,2025-08-07,22.77919,120.49459,0.9903766
C0E610,馬都安,2025-08-07,24.451272,120.930192,5.8965306e-06
C0E550,明德,2025-08-07,24.583486,120.885411,0.93689144
C0R150,三地門,2025-08-07,22.709889,120.639944,0.9892969
C0G910,花壇,2025-08-07,24.032076,120.549461,0.86076283
C1D400,鳥嘴山,2025-08-07,24.71909,121.28387,1.3718601e-08
C0K500,元長,2025-08-07,23.64981,120.315024,0.9910474
C0F0B0,石岡,2025-08-07,24.276061,120.777644,0.9959408
C2V250,甲仙,2025-08-07,23.080106,120.591758,0.998056
C0SA20,金崙山,2025-08-07,22.567419,120.959667,1.8643392e-07
C0V350,溪埔,2025-08-07,22.738578,120.446797,0.9882655
C0M660,溪口,2025-08-07,23.604131,120.403569,0.98860323
C1S880,壽卡,2025-08-07,22.238911,120.858903,2.072906e-07
72D680,桃改新埔分場,2025-08-07,24.834444,121.066111,0.06398818
