站號,站名,日期,lat,lon,BlastGRU-TW
CAH030,茶改場竹圍站,2025-12-28,23.860083,120.637528,0.051604714
V2K610,大庄合作社,2025-12-28,23.8068,120.367939,0.2774204
G2AI50,關渡,2025-12-28,25.11575,121.492,0.11864313
V2C260,八德蔬果,2025-12-28,24.978508,121.281819,0.034265526
A2K570,古坑花卉中心,2025-12-28,23.63353,120.55239,0.029713674
467571,新竹,2025-12-28,24.827853,121.014219,0.008521812
V2C250,八德合作社,2025-12-28,24.93775,121.266389,0.01206957
