站號,站名,日期,lat,lon,BlastGRU-TW
12J990,口湖工作站,2025-01-11,23.589978,120.180394,0.00047071735
12Q970,東港工作站,2025-01-11,22.479997,120.466058,0.014344816
12Q980,恆春工作站,2025-01-11,22.079678,120.714425,6.6495995e-05
466881,新北,2025-01-11,24.9593,121.52,0.0035988754
466900,淡水,2025-01-11,25.164889,121.448906,0.003796949
466920,臺北,2025-01-11,25.037658,121.514853,0.0037576498
466940,基隆,2025-01-11,25.133314,121.740475,0.012576177
466990,花蓮,2025-01-11,23.975128,121.613275,0.0040396694
467050,新屋,2025-01-11,25.006744,121.047486,0.000601591
467080,宜蘭,2025-01-11,24.763975,121.756528,0.0039408486
467270,田中,2025-01-11,23.873803,120.581286,0.0027877449
467280,後龍,2025-01-11,24.648563,120.831834,0.0005635233
467290,古坑,2025-01-11,23.633639,120.551889,0.004754022
467300,東吉島,2025-01-11,23.25695,119.667467,0.00041546425
467350,澎湖,2025-01-11,23.565503,119.563094,0.0003930724
467410,臺南,2025-01-11,22.993239,120.204772,0.0011697041
467420,永康,2025-01-11,23.038386,120.2367,0.0028223915
467441,高雄,2025-01-11,22.7304,120.3125,0.005575817
467480,嘉義,2025-01-11,23.495925,120.432906,0.001878513
467490,臺中,2025-01-11,24.145736,120.684075,0.0025908218
467540,大武,2025-01-11,22.355675,120.903789,0.02173955
467571,新竹,2025-01-11,24.827853,121.014219,0.00043770898
467590,恆春,2025-01-11,22.003897,120.746339,0.0016479462
467610,成功,2025-01-11,23.097486,121.373428,0.0029117088
467620,蘭嶼,2025-01-11,22.036969,121.558339,0.00031879576
467660,臺東,2025-01-11,22.752211,121.154586,0.0056342417
467790,墾丁雷達站,2025-01-11,21.948235,120.808028,0.0008698642
72AI40,桃改樹林分場,2025-01-11,24.944503,121.386972,0.0011055823
72C440,桃園農改,2025-01-11,24.950944,121.030583,0.0003564969
72C440,桃園農改場,2025-01-11,24.950944,121.030583,0.00035649707
72D680,桃改新埔分場,2025-01-11,24.834444,121.066111,0.0004386013
72G600,臺中農改,2025-01-11,24.003028,120.534389,0.0014285492
72G600,臺中農改場,2025-01-11,24.003028,120.534389,0.0014285492
72K220,南改斗南分場,2025-01-11,23.634556,120.477333,0.0020451488
72M360,南改義竹分場,2025-01-11,23.360694,120.279361,0.0010771367
72M700,南改鹿草分場,2025-01-11,23.416869,120.283061,0.0013473377
72N100,臺南農改,2025-01-11,23.0605,120.342194,0.0042695706
72N100,臺南農改場,2025-01-11,23.0605,120.342194,0.0042695743
72N240,七股研究中心,2025-01-11,23.081672,120.062894,0.00068352616
72Q010,高雄農改,2025-01-11,22.709333,120.525889,0.013128745
72Q010,高雄農改場,2025-01-11,22.709333,120.525889,0.013128745
72S200,東改班鳩分場,2025-01-11,22.829528,121.077694,0.0029471868
72S590,東改賓朗果園,2025-01-11,22.813889,121.071278,0.0024477784
72T250,花蓮農改,2025-01-11,23.975222,121.563889,0.0035867249
72T250,花蓮農改場,2025-01-11,23.975222,121.563889,0.0035867249
72U480,花改蘭陽分場,2025-01-11,24.686306,121.716583,0.031870343
72V140,高改旗南分場,2025-01-11,22.857861,120.516667,0.015521154
82A750,茶改北部分場,2025-01-11,24.955778,121.631222,0.0021666875
82C160,茶改場,2025-01-11,24.908472,121.185333,0.0005819585
82H840,茶改南部分場,2025-01-11,23.762528,120.7405,0.0042067077
82S580,茶改東部分場,2025-01-11,22.907694,121.130139,0.0030838624
A2C560,農工中心,2025-01-11,24.985917,121.239833,0.0006411863
A2K360,水試臺西試驗場,2025-01-11,23.717231,120.190522,0.0005034867
A2K570,古坑花卉中心,2025-01-11,23.63353,120.55239,0.004754029
A2K630,臺大雲林校區,2025-01-11,23.730628,120.423903,0.0015054791
A2N290,臺南蘭花園區,2025-01-11,23.340258,120.379661,0.002574991
B2E890,畜試北區分所,2025-01-11,24.527806,120.770972,0.00067529076
B2N890,畜產試驗所,2025-01-11,23.058972,120.336406,0.0042969594
B2N890,畜試所,2025-01-11,23.058972,120.336406,0.0042969594
B2Q810,畜試南區分所,2025-01-11,21.945583,120.802167,0.000910298
B2U990,畜試東區分所,2025-01-11,24.669039,121.832561,0.15848501
C0A520,山佳,2025-01-11,24.974944,121.402008,0.00211296
C0A530,坪林,2025-01-11,24.938183,121.70975,0.0030044748
C0A550,泰平,2025-01-11,24.971197,121.823711,0.005017254
C0A570,桶後,2025-01-11,24.848222,121.597992,0.0048089903
C0A640,石碇,2025-01-11,24.993969,121.662917,0.0015218795
C0A770,科教館,2025-01-11,25.096356,121.516507,0.0037665141
C0A860,大坪,2025-01-11,25.165914,121.632969,0.0013231265
C0A890,雙溪,2025-01-11,25.036003,121.864242,0.0089797955
C0A931,三和,2025-01-11,25.233153,121.595236,0.0029546898
C0A940,金山,2025-01-11,25.223628,121.643967,0.01140259
C0A950,鼻頭角,2025-01-11,25.129036,121.923372,0.0009474092
C0A970,三貂角,2025-01-11,25.007606,122.002058,0.025671834
C0A980,社子,2025-01-11,25.109508,121.469681,0.004216387
C0A9C0,天母,2025-01-11,25.117494,121.537169,0.0027669182
C0A9F0,內湖,2025-01-11,25.079422,121.57545,0.0037576517
C0AC60,三峽,2025-01-11,24.939025,121.369728,0.0010556761
C0AC70,信義,2025-01-11,25.037822,121.564597,0.0037576498
C0AC80,文山,2025-01-11,25.00235,121.575728,0.0031605903
C0ACA0,新莊,2025-01-11,25.051478,121.446756,0.00336359
C0AD10,八里,2025-01-11,25.150211,121.403947,0.0040389006
C0AD30,蘆洲,2025-01-11,25.086594,121.472331,0.0037836346
C0AD40,土城,2025-01-11,24.973208,121.445169,0.0036906872
C0AD50,鶯歌,2025-01-11,24.951533,121.346294,0.000986745
C0AG80,中和,2025-01-11,24.991622,121.491792,0.0036906872
C0AH00,汐止,2025-01-11,25.066881,121.658778,0.0037576498
C0AH10,永和,2025-01-11,25.01125,121.508111,0.0038575893
C0AH40,平等,2025-01-11,25.129142,121.577086,0.0011637483
C0AH50,林口,2025-01-11,25.072181,121.38084,0.00079213147
C0AH70,松山,2025-01-11,25.04871,121.55042,0.0037576517
C0AH80,深坑,2025-01-11,25.002703,121.628328,0.0031182559
C0AI00,五股,2025-01-11,25.07445,121.42728,0.0010180479
C0AI10,屈尺,2025-01-11,24.92184,121.54475,0.004554393
C0AI20,白沙灣,2025-01-11,25.283128,121.519058,0.0015915761
C0AI30,三重,2025-01-11,25.057328,121.500629,0.003936032
C0AI40,石牌,2025-01-11,25.115597,121.513139,0.0029555485
C0AJ20,野柳,2025-01-11,25.20703,121.690021,0.010956555
C0AJ30,淡水觀海,2025-01-11,25.184591,121.408616,0.0028348607
C0AJ40,石門,2025-01-11,25.273672,121.601198,0.00085690606
C0AJ50,水湳洞,2025-01-11,25.123695,121.862238,0.009527632
C0AJ60,六塊厝,2025-01-11,25.24,121.4481,0.0017242358
C0AJ70,田寮,2025-01-11,25.2698,121.4886,0.0016510803
C0AJ80,板橋,2025-01-11,25.0107,121.4489,0.0038575893
C0AJ90,澳底,2025-01-11,25.0552,121.9253,0.011476721
C0B010,七堵,2025-01-11,25.094819,121.71713,0.0028017182
C0B020,基隆嶼,2025-01-11,25.19141,121.78391,0.0010584801
C0B040,大武崙,2025-01-11,25.166676,121.706993,0.0101950085
C0B050,八斗子,2025-01-11,25.144754,121.79167,0.013316938
C0B060,暖暖,2025-01-11,25.0957,121.7403,0.0021959862
C0C460,復興,2025-01-11,24.820208,121.352281,0.00096072536
C0C480,桃園,2025-01-11,24.992425,121.323172,0.0008110266
C0C490,八德,2025-01-11,24.928708,121.283289,0.00077927293
C0C590,觀音,2025-01-11,25.027072,121.153317,0.000949412
C0C620,蘆竹,2025-01-11,25.084275,121.265767,0.00087007013
C0C630,大溪,2025-01-11,24.882853,121.265547,0.0007375705
C0C650,平鎮,2025-01-11,24.897503,121.214636,0.00070646417
C0C660,楊梅,2025-01-11,24.912375,121.143047,0.0006212105
C0C670,龍潭,2025-01-11,24.870056,121.221389,0.00067223783
C0C680,龜山,2025-01-11,25.02846,121.38656,0.00088116695
C0C700,中壢,2025-01-11,24.977661,121.256375,0.0006717079
C0C710,大溪永福,2025-01-11,24.892936,121.324975,0.0016043033
C0C720,竹圍,2025-01-11,25.112692,121.239824,0.0019825879
C0C730,中大臨海站,2025-01-11,24.966126,121.008581,0.0006789277
C0C740,觀音工業區,2025-01-11,25.064764,121.114856,0.0012449026
C0C750,新興坑尾,2025-01-11,25.0061,121.0971,0.0005780794
C0D430,峨眉,2025-01-11,24.6905,121.017189,0.0005106445
C0D480,打鐵坑,2025-01-11,24.849664,121.150789,0.0006680787
C0D540,橫山,2025-01-11,24.71116,121.11693,0.00086388027
C0D560,竹東,2025-01-11,24.767147,121.057881,0.0006039977
C0D580,寶山,2025-01-11,24.735006,121.025192,0.0007977359
C0D590,新豐,2025-01-11,24.87068,120.97721,0.00037055893
C0D650,湖口,2025-01-11,24.904794,121.043628,0.00043278906
C0D660,新竹市東區,2025-01-11,24.798681,120.986942,0.0004177265
C0D670,海天一線,2025-01-11,24.831986,120.914438,0.00035927462
C0D680,香山濕地,2025-01-11,24.783581,120.914988,0.00044079573
C0D690,外湖,2025-01-11,24.917735,120.968711,0.0004968965
C0D700,關西,2025-01-11,24.7977,121.1732,0.00075655186
C0E420,竹南,2025-01-11,24.708978,120.888897,0.00041907202
C0E430,南庄,2025-01-11,24.601775,121.000214,0.0011652941
C0E550,明德,2025-01-11,24.583486,120.885411,0.00062781543
C0E590,通霄,2025-01-11,24.471892,120.704622,0.00046295894
C0E730,頭份,2025-01-11,24.688247,120.912206,0.00042311588
C0E740,造橋,2025-01-11,24.637056,120.864778,0.0005675671
C0E750,苗栗,2025-01-11,24.564569,120.824575,0.0006408997
C0E780,銅鑼,2025-01-11,24.489681,120.790853,0.00059932645
C0E791,卓蘭,2025-01-11,24.3126,120.8244,0.0012969855
C0E810,西湖,2025-01-11,24.562947,120.7485,0.00034484168
C0E820,獅潭,2025-01-11,24.539133,120.920042,0.001102942
C0E830,苑裡,2025-01-11,24.439714,120.653053,0.00042206084
C0E850,大河,2025-01-11,24.618069,120.948578,0.000958891
C0E870,高鐵苗栗,2025-01-11,24.60725,120.826094,0.0005653306
C0E910,海埔,2025-01-11,24.648767,120.772435,0.00044310797
C0E920,通霄漁港,2025-01-11,24.498589,120.673876,0.0004118948
C0E930,龍鳳,2025-01-11,24.700034,120.859125,0.00043667143
C0F0B0,石岡,2025-01-11,24.276061,120.777644,0.0016733293
C0F850,東勢,2025-01-11,24.246428,120.833047,0.0009914387
C0F970,大坑,2025-01-11,24.173142,120.722289,0.002443962
C0F9I0,神岡,2025-01-11,24.272481,120.658314,0.00094416196
C0F9K0,大安,2025-01-11,24.345061,120.588025,0.0004533486
C0F9L0,后里,2025-01-11,24.310436,120.729725,0.0020100344
C0F9M0,豐原,2025-01-11,24.254322,120.720692,0.0022103095
C0F9N0,大里,2025-01-11,24.092464,120.701378,0.0032552967
C0F9O0,潭子,2025-01-11,24.213106,120.703933,0.002060855
C0F9P0,清水,2025-01-11,24.312297,120.562242,0.0005665649
C0F9Q0,外埔,2025-01-11,24.347817,120.705686,0.000945085
C0F9R0,龍井,2025-01-11,24.184536,120.528972,0.0007585497
C0F9S0,烏日,2025-01-11,24.107058,120.624103,0.0038103631
C0F9T0,西屯,2025-01-11,24.179494,120.641275,0.0013973549
C0F9U0,南屯,2025-01-11,24.137006,120.637969,0.0015342063
C0F9X0,大雅(中科園區),2025-01-11,24.21528,120.62445,0.0009975652
C0FA10,松柏,2025-01-11,24.429115,120.617482,0.00042409555
C0FA20,溫寮,2025-01-11,24.372177,120.583125,0.0004608545
C0FA30,梧棲,2025-01-11,24.256003,120.523381,0.0005665649
C0FA40,臺中電廠,2025-01-11,24.2146,120.4907,0.0005965628
C0FA50,霧峰,2025-01-11,24.0419,120.6995,0.0032967126
C0G620,芬園,2025-01-11,24.015678,120.6213,0.0029495389
C0G650,員林,2025-01-11,23.946503,120.585597,0.0031862736
C0G660,溪湖,2025-01-11,23.94835,120.479122,0.0014504256
C0G720,溪州,2025-01-11,23.851589,120.499093,0.0018575444
C0G730,二林,2025-01-11,23.903325,120.376081,0.0005795658
C0G740,大城,2025-01-11,23.852487,120.320935,0.000512904
C0G770,福興,2025-01-11,24.041289,120.437669,0.0006355846
C0G780,秀水,2025-01-11,24.03405,120.503869,0.0014382511
C0G800,埔鹽,2025-01-11,24.000394,120.431683,0.0006345469
C0G810,埔心,2025-01-11,23.947633,120.525456,0.0014105345
C0G820,田尾,2025-01-11,23.901669,120.509389,0.0019339004
C0G830,埤頭,2025-01-11,23.866003,120.452806,0.0019273841
C0G860,社頭,2025-01-11,23.897647,120.5862,0.0028926518
C0G880,二水,2025-01-11,23.810742,120.6173,0.0051782243
C0G890,伸港,2025-01-11,24.148933,120.484403,0.00081468606
C0G900,線西,2025-01-11,24.143358,120.443536,0.0008185332
C0G910,花壇,2025-01-11,24.032076,120.549461,0.0013588131
C0G920,永靖,2025-01-11,23.924703,120.547533,0.0019339004
C0G940,竹塘,2025-01-11,23.848253,120.386764,0.0006250062
C0G950,防潮門,2025-01-11,24.1835,120.4871,0.0007585504
C0G960,福寶,2025-01-11,24.0443,120.3814,0.000717659
C0G970,三豐,2025-01-11,23.882,120.2895,0.00046189816
C0H890,埔里,2025-01-11,23.972169,120.952425,0.0033794588
C0H960,草屯,2025-01-11,23.973672,120.68085,0.0030257413
C0I110,竹山,2025-01-11,23.761225,120.688156,0.0034564591
C0I360,水里,2025-01-11,23.812553,120.849792,0.0066821068
C0I380,集集,2025-01-11,23.828206,120.801467,0.0069645536
C0I410,名間,2025-01-11,23.837053,120.701447,0.0036125153
C0I420,國姓,2025-01-11,24.037803,120.855072,0.0034586391
C0I460,南投,2025-01-11,23.911469,120.687331,0.008141688
C0K250,崙背,2025-01-11,23.75555,120.318925,0.0010200604
C0K280,四湖,2025-01-11,23.630414,120.227125,0.0005384814
C0K291,宜梧,2025-01-11,23.536281,120.169329,0.0007992302
C0K330,虎尾,2025-01-11,23.719183,120.442036,0.0016440573
C0K390,土庫,2025-01-11,23.679029,120.395574,0.0013879158
C0K400,斗六,2025-01-11,23.720583,120.541127,0.002307157
C0K410,北港,2025-01-11,23.573957,120.292802,0.0008613048
C0K420,西螺,2025-01-11,23.800407,120.467394,0.001850957
C0K430,褒忠,2025-01-11,23.690938,120.303634,0.0007554622
C0K440,二崙,2025-01-11,23.772797,120.408944,0.0016885614
C0K450,大埤,2025-01-11,23.646074,120.431537,0.001613887
C0K460,斗南,2025-01-11,23.678734,120.478359,0.0020451488
C0K470,林內,2025-01-11,23.748675,120.609642,0.0048317504
C0K480,莿桐,2025-01-11,23.761192,120.502372,0.0021982924
C0K500,元長,2025-01-11,23.64981,120.315024,0.0010287998
C0K510,水林,2025-01-11,23.572924,120.24597,0.00087202684
C0K530,臺西,2025-01-11,23.701547,120.197559,0.00049939845
C0K550,蔦松,2025-01-11,23.514319,120.229736,0.0007992302
C0K560,棋山,2025-01-11,23.68645,120.603417,0.004352872
C0K580,高鐵雲林,2025-01-11,23.737456,120.417944,0.0015054791
C0K590,雲林東勢,2025-01-11,23.674192,120.255721,0.00090033776
C0K600,箔子寮,2025-01-11,23.6197,120.14,0.00047071735
C0M520,東後寮,2025-01-11,23.369908,120.248065,0.0010826482
C0M640,中埔,2025-01-11,23.42538,120.5229,0.0039425055
C0M650,朴子,2025-01-11,23.43463,120.23902,0.0013541547
C0M660,溪口,2025-01-11,23.604131,120.403569,0.0014270085
C0M670,大林,2025-01-11,23.600616,120.45841,0.001718887
C0M680,太保,2025-01-11,23.455062,120.331455,0.0026914494
C0M690,水上,2025-01-11,23.419734,120.388909,0.0026852
C0M700,竹崎,2025-01-11,23.526178,120.555508,0.0032187323
C0M710,東石,2025-01-11,23.458927,120.15385,0.00071471086
C0M720,番路,2025-01-11,23.464657,120.554156,0.004235318
C0M730,嘉義市東區,2025-01-11,23.457673,120.460531,0.0080010025
C0M740,六腳,2025-01-11,23.492871,120.290625,0.0012897773
C0M750,布袋,2025-01-11,23.380878,120.167789,0.000977914
C0M760,民雄,2025-01-11,23.551754,120.428457,0.001581159
C0M770,嘉義梅山,2025-01-11,23.585398,120.555587,0.0026632445
C0M780,鹿草,2025-01-11,23.41134,120.30835,0.0013117235
C0M790,新港,2025-01-11,23.553269,120.345728,0.0015367805
C0M800,茶山,2025-01-11,23.299075,120.664767,0.026663749
C0M880,好美里,2025-01-11,23.3364,120.138,0.00088045106
C0N010,鯤鯓國小,2025-01-11,23.1879,120.0889,0.0008717888
C0N020,城西,2025-01-11,23.0568,120.0956,0.001227488
C0N030,四草,2025-01-11,23.0235,120.1116,0.0012500219
C0N040,蘆竹溝,2025-01-11,23.2344,120.0961,0.00091720297
C0N050,蚵寮,2025-01-11,23.301,120.1104,0.0009166958
C0O830,北寮,2025-01-11,23.079561,120.495008,0.015069861
C0O840,王爺宮,2025-01-11,23.222064,120.40085,0.001932226
C0O860,大內,2025-01-11,23.11885,120.36083,0.0051011126
C0O900,善化,2025-01-11,23.112883,120.297219,0.0041471557
C0O960,崎頂,2025-01-11,22.959547,120.369317,0.0034593344
C0O970,虎頭埤,2025-01-11,23.021375,120.347878,0.004768538
C0O980,新市,2025-01-11,23.061614,120.298197,0.0036470024
C0O990,媽廟,2025-01-11,22.99175,120.293525,0.002623605
C0R150,三地門,2025-01-11,22.709889,120.639944,0.12493198
C0R160,鹽埔,2025-01-11,22.739558,120.530778,0.013128745
C0R170,屏東,2025-01-11,22.660269,120.494072,0.013164324
C0R190,赤山,2025-01-11,22.592333,120.614306,0.049006328
C0R220,潮州,2025-01-11,22.534361,120.54,0.04373227
C0R240,來義,2025-01-11,22.527306,120.625111,0.015189848
C0R260,春日,2025-01-11,22.370361,120.628306,0.22477877
C0R270,琉球嶼,2025-01-11,22.332244,120.362236,0.013819277
C0R280,檳榔,2025-01-11,22.076078,120.836777,0.0024147858
C0R320,車城,2025-01-11,22.0744,120.716247,6.6495995e-05
C0R341,牡丹,2025-01-11,22.130036,120.792639,0.0024133793
C0R350,貓鼻頭,2025-01-11,21.921774,120.7358,0.00011153827
C0R470,高樹,2025-01-11,22.826389,120.600806,0.016955463
C0R480,長治,2025-01-11,22.693128,120.542622,0.015684748
C0R490,九如,2025-01-11,22.7405,120.490503,0.013960377
C0R520,崁頂,2025-01-11,22.514781,120.506914,0.048007052
C0R540,佳冬,2025-01-11,22.419456,120.552375,0.26153934
C0R550,新埤,2025-01-11,22.467947,120.582894,0.008388612
C0R560,新園,2025-01-11,22.5434,120.461558,0.013590881
C0R570,麟洛,2025-01-11,22.65078,120.52719,0.013164334
C0R580,南州,2025-01-11,22.48591,120.50274,0.014344816
C0R590,里港,2025-01-11,22.77919,120.49459,0.015025888
C0R620,墾雷,2025-01-11,21.900836,120.855269,0.00075103005
C0R640,東港,2025-01-11,22.46247,120.44074,0.014344816
C0R650,竹田,2025-01-11,22.58486,120.54344,0.052850805
C0R660,枋寮,2025-01-11,22.367722,120.590647,0.25354794
C0R670,楓港,2025-01-11,22.190131,120.692156,0.00015852402
C0R680,佳樂水,2025-01-11,21.993578,120.861633,0.00090173975
C0R690,墾丁,2025-01-11,21.966756,120.810269,0.0005200213
C0R700,枋山,2025-01-11,22.246844,120.661086,0.0027739147
C0R710,龍磐,2025-01-11,21.931672,120.838942,0.00052604947
C0R720,旭海,2025-01-11,22.205403,120.887614,0.0011019276
C0R730,大坪頂,2025-01-11,22.024633,120.69355,0.00037641212
C0R740,獅子,2025-01-11,22.201569,120.70525,0.0048744692
C0R760,南仁湖,2025-01-11,22.084681,120.863353,0.0007573395
C0R770,保力,2025-01-11,22.071122,120.764111,0.00031322712
C0R780,滿州,2025-01-11,22.024403,120.839892,0.0015195054
C0R790,九棚,2025-01-11,22.14195,120.889281,0.0035955051
C0R800,丹路,2025-01-11,22.204481,120.750989,0.0040265913
C0R810,內獅,2025-01-11,22.305064,120.642986,0.0017066605
C0R830,高士,2025-01-11,22.121825,120.836781,0.00056164496
C0R850,林邊,2025-01-11,22.4634,120.5339,0.013239898
C0R860,鼻頭,2025-01-11,22.1043,120.8979,0.0024874003
C0R870,興海,2025-01-11,21.9752,120.8439,0.000910298
C0R880,後壁湖,2025-01-11,21.9457,120.7457,9.506045e-05
C0R890,山海,2025-01-11,21.9878,120.7091,9.67395e-05
C0R900,竹坑,2025-01-11,22.1385,120.7022,6.586288e-05
C0R910,下寮,2025-01-11,22.3929,120.5548,0.25354794
C0R920,塭仔,2025-01-11,22.4169,120.5197,0.25962934
C0R930,萬丹,2025-01-11,22.5885,120.4851,0.013083665
C0R940,加祿堂,2025-01-11,22.3363,120.6217,0.02094121
C0S710,鹿野,2025-01-11,22.917711,121.122994,0.0016651874
C0S730,綠島,2025-01-11,22.6672,121.47533,0.0004456817
C0S740,池上,2025-01-11,23.119628,121.209469,0.0012232997
C0S770,大溪山,2025-01-11,22.478475,120.943325,0.0016493056
C0S790,金崙,2025-01-11,22.538122,120.966875,0.0074233473
C0S810,東河,2025-01-11,22.972672,121.303986,0.0052049835
C0S830,長濱,2025-01-11,23.286817,121.411975,0.0014992687
C0S840,南田,2025-01-11,22.279725,120.889208,0.00220494
C0S890,關山,2025-01-11,23.0395,121.175017,0.0018908664
C0S900,蘭嶼高中,2025-01-11,22.04909,121.51214,0.00067723263
C0S910,蘭嶼燈塔,2025-01-11,22.081197,121.503117,0.0005235251
C0S920,金峰嘉蘭,2025-01-11,22.594789,120.960825,0.015652742
C0S930,延平,2025-01-11,22.902581,121.084058,0.0024283912
C0S940,石寧山,2025-01-11,23.223772,121.406639,0.0025039837
C0S950,七塊厝,2025-01-11,22.954453,121.229922,0.0016492845
C0S960,香蘭,2025-01-11,22.587569,120.993375,0.047541235
C0S970,加津林,2025-01-11,22.416211,120.926942,0.01569608
C0S990,山豬窟,2025-01-11,22.318619,120.857372,0.0012707212
C0SA00,歷坵,2025-01-11,22.520969,120.89185,0.002108646
C0SA10,檳榔四格山,2025-01-11,22.810031,121.109308,0.0018287898
C0SA30,都歷,2025-01-11,23.020333,121.323642,0.003499785
C0SA40,瑞和,2025-01-11,22.974361,121.156697,0.0036195456
C0SA60,知本（水試所）,2025-01-11,22.702394,121.082761,0.049190044
C0SA80,土坂,2025-01-11,22.453108,120.887572,0.007574391
C0SA90,達仁林場,2025-01-11,22.264347,120.823972,0.0006421409
C0T870,鯉魚潭,2025-01-11,23.935639,121.508944,0.0019424723
C0T900,西林,2025-01-11,23.8119,121.441458,0.0017167013
C0T960,光復,2025-01-11,23.660694,121.424964,0.0013687043
C0T9A0,月眉山,2025-01-11,23.809928,121.539828,0.0015091032
C0T9D0,和中,2025-01-11,24.26676,121.74103,0.0038890531
C0T9E0,大坑,2025-01-11,23.880628,121.581981,0.0015334339
C0T9F0,水璉,2025-01-11,23.797131,121.542514,0.0014180589
C0T9I0,豐濱,2025-01-11,23.583897,121.514806,0.0013285069
C0T9M0,靜浦,2025-01-11,23.455167,121.495028,0.002042203
C0T9N0,富里,2025-01-11,23.171639,121.249378,0.0012275588
C0U600,礁溪,2025-01-11,24.817539,121.765608,0.0046751276
C0U650,玉蘭,2025-01-11,24.675286,121.587061,0.0049162386
C0U750,龜山島,2025-01-11,24.841667,121.953133,0.0008744435
C0U760,東澳,2025-01-11,24.52196,121.83318,0.010143837
C0U770,南澳,2025-01-11,24.44935,121.81022,0.0016950552
C0U780,五結,2025-01-11,24.68637,121.79794,0.037741505
C0U860,頭城,2025-01-11,24.85323,121.8308,0.004878764
C0U870,大礁溪,2025-01-11,24.791042,121.675047,0.0038227295
C0U880,北關,2025-01-11,24.9072,121.8734,0.01965325
C0U890,三星,2025-01-11,24.66812,121.65302,0.06919003
C0U900,內城,2025-01-11,24.71813,121.68766,0.028480753
C0U910,冬山,2025-01-11,24.63373,121.7937,0.15848501
C0U940,羅東,2025-01-11,24.68184,121.74934,0.03385988
C0U970,大福,2025-01-11,24.80064,121.81389,0.004107408
C0U990,員山,2025-01-11,24.74435,121.72247,0.03549131
C0UA00,土場,2025-01-11,24.576533,121.495333,0.005459246
C0UA80,大溪漁港,2025-01-11,24.941801,121.902955,0.014651838
C0UA90,石城,2025-01-11,24.980444,121.951214,0.041909218
C0UB00,淡江大學蘭陽校園,2025-01-11,24.823239,121.730383,0.003479416
C0UB10,蘇澳,2025-01-11,24.5969,121.8571,0.16321242
C0UB20,壯圍,2025-01-11,24.7359,121.8163,0.038032956
C0V310,美濃,2025-01-11,22.898742,120.519153,0.015521154
C0V350,溪埔,2025-01-11,22.738578,120.446797,0.014537451
C0V360,內門,2025-01-11,22.975481,120.466769,0.0070673414
C0V370,古亭坑,2025-01-11,22.893178,120.401947,0.006335742
C0V400,阿公店,2025-01-11,22.804194,120.355528,0.00879969
C0V440,鳳山,2025-01-11,22.646653,120.356122,0.005940039
C0V450,鳳森,2025-01-11,22.545064,120.392592,0.006972077
C0V490,新興,2025-01-11,22.627422,120.298803,0.015761783
C0V530,阿蓮,2025-01-11,22.883208,120.327508,0.0037590568
C0V610,梓官,2025-01-11,22.760558,120.267211,0.005452884
C0V620,永安,2025-01-11,22.82315,120.236856,0.0020673915
C0V630,茄萣,2025-01-11,22.906642,120.182608,0.0011443823
C0V640,湖內,2025-01-11,22.887139,120.2445,0.0012526447
C0V650,彌陀,2025-01-11,22.783806,120.246361,0.0021464915
C0V660,岡山,2025-01-11,22.797078,120.294958,0.0021464915
C0V680,仁武,2025-01-11,22.701083,120.347722,0.0068649123
C0V690,鼓山,2025-01-11,22.623325,120.275575,0.015761739
C0V700,三民,2025-01-11,22.645017,120.311233,0.006764726
C0V710,苓雅,2025-01-11,22.622742,120.330669,0.019112876
C0V720,林園,2025-01-11,22.507747,120.394511,0.010678634
C0V730,大寮,2025-01-11,22.605614,120.395717,0.017382791
C0V740,旗山,2025-01-11,22.888614,120.483597,0.014547947
C0V750,路竹,2025-01-11,22.854997,120.259439,0.0012229409
C0V760,橋頭,2025-01-11,22.757806,120.30575,0.005452876
C0V770,大社,2025-01-11,22.730306,120.346639,0.005575817
C0V790,萬山,2025-01-11,22.905944,120.688056,0.0073412834
C0V800,六龜,2025-01-11,22.997889,120.633583,0.008328674
C0V810,左營,2025-01-11,22.67491,120.28491,0.006764726
C0V820,小林,2025-01-11,23.148408,120.63325,0.0036357932
C0V840,鳳鼻頭,2025-01-11,22.5083,120.3591,0.014646364
C0V850,蚵仔寮,2025-01-11,22.7256,120.2527,0.0058085513
C0V860,南寮,2025-01-11,22.7616,120.2339,0.005954472
C0V870,文安,2025-01-11,22.8025,120.2164,0.0022217382
C0V880,興達,2025-01-11,22.8778,120.2127,0.0012815411
C0V890,前鎮,2025-01-11,22.5718,120.3117,0.016993161
C0V900,汕尾,2025-01-11,22.4782,120.4151,0.014344816
C0W200,湖西,2025-01-11,23.596314,119.67275,0.00038738988
C0X050,東河,2025-01-11,23.296598,120.385608,0.0046168766
C0X060,下營,2025-01-11,23.22695,120.256261,0.002062549
C0X080,佳里,2025-01-11,23.173039,120.145086,0.0008717888
C0X100,臺南市北區,2025-01-11,23.010394,120.194228,0.0012222463
C0X110,臺南市南區,2025-01-11,22.961189,120.188378,0.0015085823
C0X120,麻豆,2025-01-11,23.183289,120.248611,0.0035012402
C0X130,官田,2025-01-11,23.193217,120.315422,0.0039381464
C0X140,西港,2025-01-11,23.125608,120.203108,0.002710044
C0X150,安定,2025-01-11,23.102614,120.227839,0.002710044
C0X160,仁德,2025-01-11,22.968258,120.257689,0.0015045446
C0X170,關廟,2025-01-11,22.963017,120.327797,0.004965083
C0X180,山上,2025-01-11,23.0757,120.363253,0.00514581
C0X190,安平,2025-01-11,22.993161,120.152181,0.0012222463
C0X200,左鎮,2025-01-11,23.056758,120.408522,0.004986403
C0X210,白河,2025-01-11,23.347466,120.414427,0.006564958
C0X220,學甲,2025-01-11,23.230367,120.182187,0.00090315595
C0X230,鹽水,2025-01-11,23.272621,120.247641,0.0010812996
C0X240,關子嶺,2025-01-11,23.331169,120.508025,0.0033427607
C0X250,新營,2025-01-11,23.310689,120.316681,0.0018157356
C0X260,後壁,2025-01-11,23.366358,120.362326,0.002574991
C0X280,將軍,2025-01-11,23.214999,120.13577,0.00091720297
C0X290,北門,2025-01-11,23.267772,120.125481,0.00091720297
C0X300,鹿寮,2025-01-11,23.386047,120.477331,0.0056674783
C0X320,柳營,2025-01-11,23.253328,120.375253,0.0034113294
C0Z020,明里,2025-01-11,23.208717,121.262342,0.0017672242
C0Z061,玉里,2025-01-11,23.3215,121.339656,0.0021922262
C0Z070,舞鶴,2025-01-11,23.46811,121.37407,0.0014141627
C0Z080,富源,2025-01-11,23.587642,121.378225,0.003079712
C0Z100,東華,2025-01-11,23.89525,121.549833,0.0023695852
C0Z150,吉安光華,2025-01-11,23.930925,121.595153,0.0034667628
C0Z160,鳳林,2025-01-11,23.746114,121.453411,0.0034209138
C0Z170,卓溪,2025-01-11,23.3443,121.3029,0.001720402
C0Z180,新城,2025-01-11,24.03946,121.60454,0.0039073224
C0Z190,富世,2025-01-11,24.14743,121.6297,0.001312077
C0Z200,萬榮,2025-01-11,23.709219,121.420106,0.0029115055
C0Z210,瑞穗,2025-01-11,23.5239,121.39021,0.0015209944
C0Z230,和平,2025-01-11,24.30717,121.77007,0.003974255
C0Z270,蕃薯寮,2025-01-11,23.73835,121.540108,0.0016433054
C0Z280,德武,2025-01-11,23.47426,121.41071,0.0015979299
C0Z300,東里,2025-01-11,23.26853,121.30547,0.002168899
C0Z310,清水斷崖,2025-01-11,24.218294,121.689142,0.0011259078
C0Z330,安通山,2025-01-11,23.290728,121.348528,0.0008951073
C2A540,四堵,2025-01-11,24.8926,121.745736,0.0024040572
C2A560,福山,2025-01-11,24.776203,121.502811,0.016333284
C2A650,火燒寮,2025-01-11,25.002719,121.742892,0.0080488315
C2A660,瑞芳,2025-01-11,25.113169,121.801147,0.0059301443
C2A880,福隆,2025-01-11,25.017842,121.942083,0.04455293
C2A920,富貴角,2025-01-11,25.263783,121.565258,0.00078184356
C2E520,大湖,2025-01-11,24.414939,120.870872,0.0013213218
C2E540,後龍,2025-01-11,24.606489,120.783933,0.0004400371
C2E540,龍溪,2025-01-11,24.606489,120.783933,0.0004400373
C2F000,大肚,2025-01-11,24.15295,120.572117,0.0013752019
C2F930,大甲,2025-01-11,24.347667,120.640403,0.00043314564
C2F9A0,中竹林,2025-01-11,24.103556,120.751061,0.0022128588
C2G640,鹿港,2025-01-11,24.0753,120.430481,0.000717659
C2G840,北斗,2025-01-11,23.877586,120.514222,0.0018673901
C2G870,芳苑,2025-01-11,23.922303,120.320025,0.0004904568
C2H950,中寮,2025-01-11,23.884447,120.766406,0.0036274025
C2M410,馬頭山,2025-01-11,23.324361,120.582017,0.0055544823
C2N160,西拉雅風管處,2025-01-11,23.189481,120.335297,0.0038132514
C2O810,曾文,2025-01-11,23.219681,120.497328,0.011760927
C2O930,玉井,2025-01-11,23.126042,120.46055,0.00514581
C2O950,安南,2025-01-11,23.076694,120.144861,0.0006733179
C2V250,甲仙,2025-01-11,23.080106,120.591758,0.0055712187
C2V260,月眉,2025-01-11,22.971003,120.539853,0.012172114
C2W230,畜試所澎湖,2025-01-11,23.628342,119.513206,0.00036438872
CAG100,王功漁港,2025-01-11,23.96824,120.32586,0.00051204214
CAH030,茶改場竹圍站,2025-01-11,23.860083,120.637528,0.0042319354
CAJ050,海口故事園區,2025-01-11,23.57543,120.14121,0.000471368
CAL110,布袋國中,2025-01-11,23.35893,120.18026,0.000977914
CAN130,水試所海水繁養殖中心,2025-01-11,23.120802,120.07968,0.00068352616
CAN140,六官養殖協會,2025-01-11,23.22881,120.29962,0.002062549
CAQ030,崎峰國小,2025-01-11,22.42565,120.49521,0.014344816
E2K600,四湖植物園,2025-01-11,23.676986,120.163433,0.0005384814
E2P980,林試六龜中心,2025-01-11,22.991703,120.645722,0.0074631963
E2S960,林試太麻里2,2025-01-11,22.598014,120.989761,0.045831632
E2S960,林試太麻里2,2025-01-11,22.598,120.99775,0.05417565
E2S980,林試太麻里1,2025-01-11,22.598922,120.980044,0.01711855
G2AI50,關渡,2025-01-11,25.11575,121.492,0.0040241866
G2F820,農業試驗所,2025-01-11,24.031261,120.688133,0.0034454605
G2F820,農試所(霧峰),2025-01-11,24.031261,120.688133,0.0034454605
G2L020,農試嘉義分所,2025-01-11,23.485028,120.473806,0.004482459
G2M350,農試溪口農場,2025-01-11,23.58565,120.408111,0.0014270091
G2P820,農試鳳山分所,2025-01-11,22.646611,120.356083,0.005940039
K2E360,苗栗農改,2025-01-11,24.495722,120.829111,0.0007170987
K2E360,苗栗農改場,2025-01-11,24.495722,120.829111,0.0007170987
K2E710,苗改生物防治研究中心,2025-01-11,24.422861,120.871833,0.0014471635
K2F750,種苗改良場,2025-01-11,24.225972,120.800917,0.0011864823
K2F750,種苗繁殖,2025-01-11,24.225972,120.800917,0.0011864823
U2HA50,臺大竹山,2025-01-11,23.756972,120.681556,0.0046195616
V2C250,八德合作社,2025-01-11,24.93775,121.266389,0.000728293
V2C260,八德蔬果,2025-01-11,24.978508,121.281819,0.0007013522
V2K610,大庄合作社,2025-01-11,23.8068,120.367939,0.0008679608
V2K620,麥寮合作社,2025-01-11,23.753836,120.294783,0.00075941003
