站號,站名,日期,lat,lon,BLBTSLS
C0R710,龍磐,2025-11-14,21.931672,120.838942,0.9624794
C1F9D1,白毛台,2025-11-14,24.158325,120.886933,7.638658e-08
C0G940,竹塘,2025-11-14,23.848253,120.386764,0.9958423
467590,恆春,2025-11-14,22.003897,120.746339,0.9931663
C1O850,環湖,2025-11-14,23.148617,120.418633,0.9995296
C0U710,太平山,2025-11-14,24.505486,121.525656,6.1610783e-09
C0E820,獅潭,2025-11-14,24.539133,120.920042,1.3839251e-07
C2SD70,二層坪,2025-11-14,22.94105,121.16838,0.89251363
C0V880,興達,2025-11-14,22.8778,120.2127,0.9815419
C0S890,關山,2025-11-14,23.0395,121.175017,0.9927124
C0SB30,新蘭,2025-11-14,22.869214,121.223228,0.39717892
C2R970,屏科大,2025-11-14,22.648275,120.619247,0.99611914
C1Z130,銅門,2025-11-14,23.965694,121.492842,0.0016340823
C0AD40,土城,2025-11-14,24.973208,121.445169,0.9992956
CAN140,六官養殖協會,2025-11-14,23.22881,120.29962,0.99131685
C0X180,山上,2025-11-14,23.0757,120.363253,0.9990262
C0F9Z0,雪山東峰,2025-11-14,24.388792,121.268675,7.0161774e-09
C1M480,獨立山,2025-11-14,23.537022,120.607797,7.420277e-09
C0X220,學甲,2025-11-14,23.230367,120.182187,0.9910803
467650,日月潭,2025-11-14,23.881325,120.90805,1.7400441e-09
A2K570,古坑(花卉中心),2025-11-14,23.633531,120.552392,0.99936914
C0K600,箔子寮,2025-11-14,23.6197,120.14,0.91846156
C0G830,埤頭,2025-11-14,23.866003,120.452806,0.9996642
C0S950,七塊厝,2025-11-14,22.954453,121.229922,0.3060722
467110,金門,2025-11-14,24.407306,118.289281,0.8225958
C0AH80,深坑,2025-11-14,25.002703,121.628328,0.9997991
C0A970,三貂角,2025-11-14,25.007606,122.002058,0.99989945
C2D730,寶山農場,2025-11-14,24.732444,120.976153,0.41875464
C0K430,褒忠,2025-11-14,23.690938,120.303634,0.9988047
467480,嘉義,2025-11-14,23.495925,120.432906,0.99934673
C0V400,阿公店,2025-11-14,22.804194,120.355528,0.9986691
C0E960,觀霧分站,2025-11-14,24.505781,121.113921,1.3699585e-09
467550,玉山,2025-11-14,23.48718,120.95943,1.0440843e-08
C0R440,大漢山,2025-11-14,22.405264,120.753181,1.2701184e-07
C0SD30,東清國小,2025-11-14,22.057128,121.564922,0.99070066
C0K280,四湖,2025-11-14,23.630414,120.227125,0.956919
C1F9B1,桐林,2025-11-14,24.066172,120.735194,0.99979997
C2H9U0,鳳鵬,2025-11-14,23.763919,120.788061,0.9858075
C0K390,土庫,2025-11-14,23.679029,120.395574,0.99945086
C1I450,望鄉山,2025-11-14,23.594153,120.944286,3.4546412e-09
C0E910,海埔,2025-11-14,24.648767,120.772435,0.11066361
B2E890,畜試北區分所,2025-11-14,24.527806,120.770972,0.0027745138
C0R750,四林格山,2025-11-14,22.076989,120.802439,0.36555886
C0F0C0,中坑,2025-11-14,24.248517,120.903319,1.1888498e-09
C1I121,大鞍,2025-11-14,23.678381,120.760017,1.3023532e-09
C2G9E0,移民庄,2025-11-14,23.9784,120.40283,0.9932211
72U480,花改蘭陽分場,2025-11-14,24.686306,121.716583,4.636782e-09
C0A770,科教館,2025-11-14,25.096356,121.516507,0.99890643
C0AJ60,六塊厝,2025-11-14,25.24,121.4481,0.99977314
C0R620,墾雷,2025-11-14,21.900836,120.855269,0.96319294
467420,永康,2025-11-14,23.038386,120.2367,0.9883273
C2M530,奮起湖,2025-11-14,23.493903,120.699253,1.4756553e-09
C0I410,名間,2025-11-14,23.837053,120.701447,0.9997516
A2C560,農工中心,2025-11-14,24.985917,121.239833,0.99636906
C0V740,旗山,2025-11-14,22.888614,120.483597,0.9995409
C0Z061,玉里,2025-11-14,23.3215,121.339656,0.0036158692
C0S840,南田,2025-11-14,22.279725,120.889208,0.4070529
C1I470,杉林溪,2025-11-14,23.639517,120.786444,1.5671281e-09
C1X040,東原,2025-11-14,23.291597,120.463822,0.999534
C0R660,枋寮,2025-11-14,22.367722,120.590647,0.013738876
C1R120,上德文,2025-11-14,22.763272,120.704442,4.7328452e-09
C0K450,大埤,2025-11-14,23.646074,120.431537,0.99963254
C0UA00,土場,2025-11-14,24.576533,121.495333,2.074879e-05
467080,宜蘭,2025-11-14,24.763975,121.756528,3.7611255e-08
C0N030,四草,2025-11-14,23.0235,120.1116,0.9624331
467410,臺南,2025-11-14,22.99328,120.20492,0.98004174
C0V650,彌陀,2025-11-14,22.783806,120.246361,0.94337463
C0D660,新竹市東區,2025-11-14,24.798681,120.986942,0.22530712
82S580,茶改東部分場,2025-11-14,22.907694,121.130139,0.5648104
C0SB40,興隆,2025-11-14,22.913661,121.257469,0.100855276
467050,新屋,2025-11-14,25.006725,121.047492,0.9562308
C0C710,大溪永福,2025-11-14,24.892936,121.324975,0.99866897
C0FA20,溫寮,2025-11-14,24.372177,120.583125,0.67439514
C0V640,湖內,2025-11-14,22.887139,120.2445,0.9815419
C0R910,下寮,2025-11-14,22.3929,120.5548,0.99828225
C0Z020,明里,2025-11-14,23.208717,121.262342,0.8683471
C0M770,嘉義梅山,2025-11-14,23.585398,120.555587,0.9991123
C0C660,楊梅,2025-11-14,24.912375,121.143047,0.98903877
C0SD40,牛頭山,2025-11-14,22.676661,121.506944,0.64823824
C1E511,新開,2025-11-14,24.347703,120.827019,3.6849056e-06
G2F820,農試所(霧峰),2025-11-14,24.031261,120.688133,0.9997999
C2M990,大巃頂,2025-11-14,23.5547,120.61439,1.8377196e-09
C1I070,和社,2025-11-14,23.591131,120.888861,5.9549157e-09
C2E990,新坪頂,2025-11-14,24.30201,120.8574,5.988074e-08
C0TA80,立霧山,2025-11-14,24.183258,121.641899,2.1706818e-08
C2F000,大肚,2025-11-14,24.15295,120.572117,0.9993648
C1S850,豐南,2025-11-14,23.122139,121.262389,0.0035307237
C2M9B0,西興,2025-11-14,23.2428,120.57617,0.02440928
C2A920,富貴角,2025-11-14,25.263783,121.565258,0.99995756
CAH030,茶改場竹圍站,2025-11-14,23.860083,120.637528,0.999151
C0T960,光復,2025-11-14,23.660694,121.424964,1.2139283e-05
C0F9M0,豐原,2025-11-14,24.254322,120.720692,0.3494185
C0R720,旭海,2025-11-14,22.205403,120.887614,0.08800141
C0V710,苓雅,2025-11-14,22.622742,120.330669,0.9797703
C0C740,觀音工業區,2025-11-14,25.064764,121.114856,0.8747397
CAC040,拉拉山,2025-11-14,24.699317,121.427133,6.403603e-08
C0V790,萬山,2025-11-14,22.905944,120.688056,0.9972579
U2HA30,臺大和社,2025-11-14,23.590856,120.888864,5.9549157e-09
C2H9K0,屯原,2025-11-14,24.067969,121.209389,1.2954634e-09
C0AJ90,澳底,2025-11-14,25.0552,121.9253,0.9999274
C0Z100,東華,2025-11-14,23.89525,121.549833,0.008093065
C0G970,三豐,2025-11-14,23.882,120.2895,0.47449932
V2K610,大庄合作社,2025-11-14,23.8068,120.367939,0.9984548
C0V900,汕尾,2025-11-14,22.4782,120.4151,0.99666834
C1R630,龍泉,2025-11-14,22.66701,120.59091,0.99611914
C1AC50,關渡,2025-11-14,25.133486,121.469331,0.9776003
C0C800,四稜,2025-11-14,24.64733,121.4293,6.151781e-08
C0F9I0,神岡,2025-11-14,24.272481,120.658314,0.0002909301
C0K460,斗南,2025-11-14,23.678734,120.478359,0.99963254
C2O810,曾文,2025-11-14,23.219681,120.497328,0.99955225
467280,後龍,2025-11-14,24.648563,120.831834,0.121471554
C1F9J1,清水林,2025-11-14,24.071242,120.820419,3.593643e-09
C2A650,火燒寮,2025-11-14,25.002719,121.742892,0.7201324
466930,竹子湖,2025-11-14,25.162078,121.544547,7.94521e-06
C1I220,樟湖,2025-11-14,23.905333,120.846983,1.218973e-09
C0I390,仁愛,2025-11-14,24.022122,121.132206,9.374846e-10
C0Z300,東里,2025-11-14,23.26853,121.30547,0.0018706031
C1V590,新發,2025-11-14,23.057019,120.646064,2.128761e-09
C0K510,水林,2025-11-14,23.572924,120.24597,0.99904376
72S590,東改賓朗果園,2025-11-14,22.813889,121.071278,0.7946304
82A750,茶改北部分場,2025-11-14,24.955778,121.631222,0.0026057025
C1A750,石碇服務區,2025-11-14,25.00872,121.646242,0.9997051
C0X300,鹿寮,2025-11-14,23.386047,120.477331,0.9981368
G2AI50,關渡,2025-11-14,25.11575,121.492,0.9994038
C0K590,雲林東勢,2025-11-14,23.674192,120.255721,0.99909276
C2K310,港尾布雞,2025-11-14,23.74834,120.38439,0.9995519
C0A570,桶後,2025-11-14,24.848222,121.597992,0.00032255976
C1S800,華源,2025-11-14,22.657883,121.02325,0.42003167
C0G720,溪州,2025-11-14,23.851589,120.499093,0.9996642
C1V160,達卡努瓦,2025-11-14,23.279811,120.705319,1.302547e-09
C2M410,馬頭山,2025-11-14,23.324361,120.582017,0.9994723
C0V850,蚵仔寮,2025-11-14,22.7256,120.2527,0.93738234
C0S740,池上,2025-11-14,23.119628,121.209469,0.42205974
C1V390,尖山,2025-11-14,22.813153,120.367789,0.9986691
C0AH70,松山,2025-11-14,25.04871,121.55042,0.99890643
C0N010,鯤鯓國小,2025-11-14,23.1879,120.0889,0.98607016
C0R550,新埤,2025-11-14,22.467947,120.582894,0.0070243534
C0SA60,知本（水試所）,2025-11-14,22.702394,121.082761,0.33023518
C0T9I0,豐濱,2025-11-14,23.583897,121.514806,0.76919544
C0UB00,淡江大學蘭陽校園,2025-11-14,24.823239,121.730383,2.072783e-06
C0W240,九宮,2025-11-14,24.423753,118.240186,0.71461856
C0T9N0,富里,2025-11-14,23.171639,121.249378,0.4732098
U2HA50,臺大竹山,2025-11-14,23.756972,120.681556,0.9996412
C0V840,鳳鼻頭,2025-11-14,22.5083,120.3591,0.99664795
C0X140,西港,2025-11-14,23.125608,120.203108,0.99322635
72D080,桃改五峰分場,2025-11-14,24.612194,121.157167,2.4835245e-09
C2H9P0,伊拿谷,2025-11-14,23.963211,121.088264,1.5006842e-09
C2K250,崙背,2025-11-14,23.75553,120.31893,0.9988047
C2H9F0,柑林,2025-11-14,24.018658,120.847072,0.69880384
C0TA20,加灣,2025-11-14,24.082025,121.608944,0.853613
C0V530,阿蓮,2025-11-14,22.883208,120.327508,0.99034613
C0FB30,八仙山苗圃,2025-11-14,24.192719,121.001366,1.3117317e-09
C1O880,關山,2025-11-14,23.173397,120.594092,0.9518198
C0E791,卓蘭,2025-11-14,24.3126,120.8244,8.78861e-07
C1I030,武界,2025-11-14,23.913225,121.052483,1.4563146e-09
C0R520,崁頂,2025-11-14,22.514781,120.506914,0.9975902
C0R341,牡丹,2025-11-14,22.130036,120.792639,0.10550385
C0R930,萬丹,2025-11-14,22.5885,120.4851,0.99735576
C0S760,紅石,2025-11-14,23.069131,121.126219,5.5320006e-09
C2C410,中央大學,2025-11-14,24.967652,121.185165,0.99636906
C1M610,石磐龍,2025-11-14,23.496606,120.663506,1.4966367e-09
C0C790,東眼山,2025-11-14,24.8284,121.40888,3.4553392e-07
C0UA10,鴛鴦湖,2025-11-14,24.590269,121.412228,1.1866483e-08
V2C260,八德蔬果,2025-11-14,24.978508,121.281819,0.99886656
C0R800,丹路,2025-11-14,22.204481,120.750989,0.17805876
C0G920,永靖,2025-11-14,23.924703,120.547533,0.9996441
C2M950,太和,2025-11-14,23.538372,120.702961,1.4863669e-09
C1A630,下盆,2025-11-14,24.771003,121.538622,7.232073e-07
B2N890,畜產試驗所,2025-11-14,23.058972,120.336406,0.9930017
C0UA30,白嶺,2025-11-14,24.527819,121.519031,7.0907356e-09
467571,新竹,2025-11-14,24.828575,121.01455,0.553382
C1V580,溪南(特生中心),2025-11-14,23.084972,120.788475,1.1077791e-09
C1T970,大農,2025-11-14,23.615233,121.413331,5.2166047e-07
C0R650,竹田,2025-11-14,22.58486,120.54344,0.9954677
C1H900,清流,2025-11-14,24.080775,120.962997,9.229027e-10
C1C510,水尾,2025-11-14,24.940081,121.087161,0.9565703
C2N170,茅港尾,2025-11-14,23.2061,120.2624,0.99131685
C0F9X0,大雅(中科園區),2025-11-14,24.21528,120.62445,0.9956867
C0SB60,白守蓮,2025-11-14,23.126769,121.401914,0.18219729
C0O970,虎頭埤,2025-11-14,23.021375,120.347878,0.99894905
C0C730,中大臨海站,2025-11-14,24.966126,121.008581,0.77023876
C0X250,新營,2025-11-14,23.310689,120.316681,0.99514884
C0V700,三民,2025-11-14,22.645017,120.311233,0.99087024
C0U870,大礁溪,2025-11-14,24.791042,121.675047,1.2178018e-07
C0E870,高鐵苗栗,2025-11-14,24.60725,120.826094,0.121471554
A2K570,古坑花卉中心,2025-11-14,23.63353,120.55239,0.999078
C0TA30,鹽寮,2025-11-14,23.845606,121.592664,0.030237028
C0M860,新美,2025-11-14,23.338017,120.683169,1.6449929e-05
C1E701,八卦,2025-11-14,24.491756,120.927619,4.6538116e-09
C2TA90,加納納,2025-11-14,23.466421,121.359867,0.0019578524
C0I420,國姓,2025-11-14,24.037803,120.855072,0.36047208
C2D720,關西工作站,2025-11-14,24.757275,121.184792,0.86028147
C0S960,香蘭,2025-11-14,22.587569,120.993375,0.00571161
467620,蘭嶼,2025-11-14,22.0369,121.55843,0.97821283
C0R260,春日,2025-11-14,22.370361,120.628306,0.0025372924
72G600,臺中農改場,2025-11-14,24.003028,120.534389,0.99934787
C0Z210,瑞穗,2025-11-14,23.5239,121.39021,0.9311831
C0M820,達邦,2025-11-14,23.453994,120.749517,1.1541974e-09
C0V860,南寮,2025-11-14,22.7616,120.2339,0.9373504
C0G740,大城,2025-11-14,23.852487,120.320935,0.47449932
C0R920,塭仔,2025-11-14,22.4169,120.5197,0.9982876
C0R470,高樹,2025-11-14,22.826389,120.600806,0.9991889
C0R680,佳樂水,2025-11-14,21.993578,120.861633,0.9624794
C1O870,大棟山,2025-11-14,23.31157,120.52226,1.87179e-09
C0D360,梅花,2025-11-14,24.678347,121.208558,0.9836656
C0Z190,富世,2025-11-14,24.14743,121.6297,0.9991834
C0AI10,屈尺,2025-11-14,24.92184,121.54475,0.99933314
B2U990,畜試東區分所,2025-11-14,24.669039,121.832561,3.2716496e-09
C0SB80,長濱漁港,2025-11-14,23.313644,121.459994,0.9064791
C0TA50,和仁,2025-11-14,24.241394,121.712472,0.0014739683
C0V910,大樹,2025-11-14,22.684645,120.432803,0.9978433
C1R610,西大武山,2025-11-14,22.617719,120.7322,7.835447e-09
C0G900,線西,2025-11-14,24.143358,120.443536,0.9701443
C0M700,竹崎,2025-11-14,23.526178,120.555508,0.998511
C2E880,三義,2025-11-14,24.405478,120.749819,3.4888294e-09
C0C720,竹圍,2025-11-14,25.112692,121.239824,0.99835026
C0F9P0,清水,2025-11-14,24.312297,120.562242,0.9915363
C0Z150,吉安光華,2025-11-14,23.930925,121.595153,0.58193743
C0FA80,小雪山天池,2025-11-14,24.28025,121.02627,4.1349955e-09
467300,東吉島,2025-11-14,23.25727,119.66762,0.9900011
C1D640,外坪(五指山),2025-11-14,24.644447,121.090961,1.763126e-07
C2R9A0,高士國小,2025-11-14,22.12553,120.84653,0.10550385
C0F9O0,潭子,2025-11-14,24.213106,120.703933,0.3494186
C2H9R0,卓社,2025-11-14,23.887894,121.000086,3.7441653e-10
72T250,花蓮農改場,2025-11-14,23.975222,121.563889,0.3998791
C0E780,銅鑼,2025-11-14,24.489681,120.790853,0.0027745138
C1T950,太安,2025-11-14,23.666719,121.370128,5.0749875e-09
C0E830,苑裡,2025-11-14,24.439714,120.653053,0.028254962
467270,田中,2025-11-14,23.873803,120.581286,0.9998173
C0SA10,檳榔四格山,2025-11-14,22.810031,121.109308,0.65068394
C1T830,布洛灣,2025-11-14,24.17184,121.57127,9.352721e-06
C0F970,大坑,2025-11-14,24.173142,120.722289,0.9988597
C1U920,思源,2025-11-14,24.393125,121.347214,4.4783106e-09
C2H9Y0,松茗,2025-11-14,23.8167,120.650765,0.5719532
C0A931,三和,2025-11-14,25.233153,121.595236,0.99661314
C0I010,廬山,2025-11-14,24.033311,121.181808,7.0717415e-10
C2M940,日野賀,2025-11-14,23.434056,120.727169,1.4197601e-09
C0R860,鼻頭,2025-11-14,22.1043,120.8979,0.7017587
C0UB20,壯圍,2025-11-14,24.7359,121.8163,9.198018e-08
C0R790,九棚,2025-11-14,22.14195,120.889281,0.09237491
C0W110,東莒,2025-11-14,25.9652,119.98069,0.4071632
C1U930,粉鳥林,2025-11-14,24.497088,121.842479,1.2817145e-07
C1I211,蘆竹湳,2025-11-14,23.934019,120.811994,3.8611586e-07
C0S830,長濱,2025-11-14,23.286817,121.411975,7.0030066e-05
C1F9F1,伯公龍,2025-11-14,24.272392,120.849047,1.9740432e-05
C0UB90,太平山莊,2025-11-14,24.494171,121.536209,6.258459e-09
C0E810,西湖,2025-11-14,24.562947,120.7485,0.18058176
C1I440,新高口,2025-11-14,23.478744,120.878939,1.501778e-09
C0O840,王爺宮,2025-11-14,23.222064,120.40085,0.99634475
C0T9G0,鳳林山,2025-11-14,23.735269,121.420131,4.4601878e-09
C0X080,佳里,2025-11-14,23.173039,120.145086,0.9885235
C0FB70,大甲溪埔,2025-11-14,24.370625,120.620067,0.6743951
C0Z310,清水斷崖,2025-11-14,24.218294,121.689142,3.52703e-06
C0M680,太保,2025-11-14,23.455062,120.331455,0.99920017
C1S820,金峰,2025-11-14,22.590969,120.933236,0.059742454
C0AD10,八里,2025-11-14,25.150211,121.403947,0.999356
C2K240,草嶺,2025-11-14,23.59555,120.693461,2.329187e-09
C1SA70,都蘭,2025-11-14,22.87794,121.226881,0.46426973
C0K440,二崙,2025-11-14,23.772797,120.408944,0.9996353
C1A760,坪林交控,2025-11-14,24.94284,121.713442,0.9805526
C0F9N0,大里,2025-11-14,24.092464,120.701378,0.99979806
C0SA90,達仁林場,2025-11-14,22.264347,120.823972,0.9344845
C1R290,石門山,2025-11-14,22.112611,120.756597,0.11175063
42HA10,萬大發電廠,2025-11-14,23.978875,121.139639,1.6089923e-09
C0R890,山海,2025-11-14,21.9878,120.7091,0.9931663
C0T9A0,月眉山,2025-11-14,23.809928,121.539828,5.8157834e-09
C0AC70,信義,2025-11-14,25.037822,121.564597,0.99932224
C0K560,棋山,2025-11-14,23.68645,120.603417,0.99944764
C2FB50,出雲,2025-11-14,24.206469,120.902794,9.270929e-10
C1Z240,中平林道,2025-11-14,23.42115,121.26763,8.733356e-09
U2H480,溪頭,2025-11-14,23.670306,120.798194,1.2731625e-09
C0M880,好美里,2025-11-14,23.3364,120.138,0.9879632
C0T9E0,大坑,2025-11-14,23.880628,121.581981,1.1913693e-07
C0K530,臺西,2025-11-14,23.701547,120.197559,0.95418054
C1E900,國一N128K,2025-11-14,24.560997,120.844186,0.76409143
C0AJ50,水湳洞,2025-11-14,25.123695,121.862238,0.99992526
C0AI20,白沙灣,2025-11-14,25.283128,121.519058,0.9999367
C2V310,美濃,2025-11-14,22.898792,120.51907,0.9995409
C0A860,大坪,2025-11-14,25.165914,121.632969,0.8524881
C1U850,觀音海岸,2025-11-14,24.38319,121.77856,2.276143e-09
C2K610,草嶺石壁,2025-11-14,23.602469,120.707731,2.2458524e-09
C0U950,鶯子嶺,2025-11-14,24.89754,121.79244,4.7767554e-07
C0O900,善化,2025-11-14,23.112883,120.297219,0.9930017
C0K550,蔦松,2025-11-14,23.514319,120.229736,0.9975398
E2P980,林試六龜中心,2025-11-14,22.991703,120.645722,0.9996179
C0E590,通霄,2025-11-14,24.471892,120.704622,0.033965386
C1I310,西巒,2025-11-14,23.754486,120.883956,2.121214e-09
C0A550,泰平,2025-11-14,24.971197,121.823711,1.7163855e-05
C0I360,水里,2025-11-14,23.812553,120.849792,0.94134116
C0R830,高士,2025-11-14,22.121825,120.836781,0.13233873
C1I101,溪頭,2025-11-14,23.661789,120.807647,1.696811e-09
C0AJ20,野柳,2025-11-14,25.20703,121.690021,0.99995995
C0B060,暖暖,2025-11-14,25.0957,121.7403,0.99989074
C1H920,長豐,2025-11-14,24.102039,120.879897,9.260366e-09
C2S9B0,利吉,2025-11-14,22.86246,121.15486,0.5648104
C0V360,內門,2025-11-14,22.975481,120.466769,0.9985225
C0R850,林邊,2025-11-14,22.4634,120.5339,0.99804306
C0E930,龍鳳,2025-11-14,24.700034,120.859125,0.75516766
C0U910,冬山,2025-11-14,24.63373,121.7937,3.2716496e-09
C1E721,泰安,2025-11-14,24.489017,120.968036,5.012149e-10
82H320,茶改中部分場,2025-11-14,23.875611,120.913583,4.4775503e-09
C0M750,布袋,2025-11-14,23.380878,120.167789,0.9712223
C1S860,利嘉,2025-11-14,22.809417,121.050528,6.356943e-09
E2S980,林試太麻里1,2025-11-14,22.598922,120.980044,0.021298895
C0X170,關廟,2025-11-14,22.963017,120.327797,0.9942728
C0V720,林園,2025-11-14,22.507747,120.394511,0.99681795
C1I510,線浸林道,2025-11-14,23.761508,120.832956,1.2133226e-09
C0D690,外湖,2025-11-14,24.917735,120.968711,0.5467976
C0C750,新興坑尾,2025-11-14,25.0061,121.0971,0.98529613
B2Q810,畜試南區分所,2025-11-14,21.945583,120.802167,0.9624794
C0S790,金崙,2025-11-14,22.538122,120.966875,0.26333082
C0AH90,福山植物園,2025-11-14,24.760717,121.58135,3.9033546e-07
C0I540,奇萊稜線,2025-11-14,24.109231,121.326456,1.3244534e-08
C0M850,表湖,2025-11-14,23.24186,120.64166,1.5205716e-08
C0S770,大溪山,2025-11-14,22.478475,120.943325,0.013397418
C0AG80,中和,2025-11-14,24.991622,121.491792,0.9992956
C0T790,大禹嶺,2025-11-14,24.186117,121.316086,3.870314e-09
C0T9B0,水源,2025-11-14,23.991861,121.537169,5.3592004e-07
C0R840,牡丹池山,2025-11-14,22.168389,120.841225,0.18293001
C1I131,桶頭,2025-11-14,23.641944,120.654117,0.9970093
CAL110,布袋國中,2025-11-14,23.35893,120.18026,0.9879632
C2M9D0,何竹子腳,2025-11-14,23.53641,120.38203,0.99934673
467571,新竹,2025-11-14,24.827853,121.014219,0.553382
C0Z290,赤柯山,2025-11-14,23.36893,121.38293,4.7076543e-09
C0X280,將軍,2025-11-14,23.214999,120.13577,0.9908102
C0S690,太麻里,2025-11-14,22.60902,120.98533,4.667726e-08
C0U880,北關,2025-11-14,24.9072,121.8734,0.9996755
CAW010,東引,2025-11-14,26.3588,120.4836,0.081985556
C0G810,埔心,2025-11-14,23.947633,120.525456,0.9996441
C0U970,大福,2025-11-14,24.80064,121.81389,3.7611255e-08
C2H9N0,仁愛東眼,2025-11-14,24.026875,121.1205,6.7352635e-10
C1E670,南礦,2025-11-14,24.538278,121.002836,6.750156e-10
C0M520,東後寮,2025-11-14,23.369908,120.248065,0.9924195
C1E461,松安,2025-11-14,24.397972,120.986022,7.049911e-10
C2N160,西拉雅風管處,2025-11-14,23.189481,120.335297,0.99383175
C2M970,碧湖,2025-11-14,23.568632,120.624165,1.8243437e-09
C0A640,石碇,2025-11-14,24.993969,121.662917,0.9805526
E2S960,林試太麻里2,2025-11-14,22.598,120.99775,0.00614615
C0F9Y0,桃山,2025-11-14,24.432739,121.303808,1.09882965e-08
C1I020,萬大,2025-11-14,23.979817,121.132261,9.053974e-10
C2UC20,長嶺,2025-11-14,24.70894,121.61162,1.5330858e-07
C0U940,羅東,2025-11-14,24.68184,121.74934,4.636782e-09
C0M650,朴子,2025-11-14,23.43463,120.23902,0.99832433
C1I500,大尖山,2025-11-14,23.858572,120.994889,9.689073e-10
C0FB40,中橫21.6k,2025-11-14,24.2499,121.1455,7.868555e-10
C0G820,田尾,2025-11-14,23.901669,120.509389,0.9996441
E2K600,四湖植物園,2025-11-14,23.676986,120.163433,0.9401645
C0S730,綠島,2025-11-14,22.6672,121.47533,0.9118158
12Q970,東港工作站,2025-11-14,22.479997,120.466058,0.99804306
C0E430,南庄,2025-11-14,24.601775,121.000214,1.3930832e-06
C1TA00,太魯閣,2025-11-14,24.15773,121.6236,0.99731565
466920,臺北,2025-11-14,25.037658,121.514853,0.99890643
C0R600,舊泰武,2025-11-14,22.588194,120.664944,1.3414894e-09
C1I260,北坑,2025-11-14,23.9246,121.006903,1.6417362e-06
466910,鞍部,2025-11-14,25.182586,121.529731,0.0016851005
C1I230,九份二山,2025-11-14,23.961944,120.845,3.4997396e-09
C2M810,里佳,2025-11-14,23.389125,120.716647,1.4866277e-09
C2A660,瑞芳,2025-11-14,25.113169,121.801147,0.999934
C0R270,琉球嶼,2025-11-14,22.332244,120.362236,3.009001e-05
C2V580,瑞山,2025-11-14,22.90304,120.43424,0.9974785
C1T990,高寮,2025-11-14,23.394239,121.356808,0.028647222
C0G620,芬園,2025-11-14,24.015678,120.6213,0.9998023
C1Z140,荖溪,2025-11-14,23.890575,121.45964,1.899321e-08
C1I201,中心崙,2025-11-14,23.728722,120.712097,3.9884e-06
C1I400,凌霄,2025-11-14,24.018778,121.004456,6.639841e-10
C1M640,十字,2025-11-14,23.492153,120.753683,2.1396664e-09
G2P820,農試鳳山分所,2025-11-14,22.646611,120.356083,0.9797703
C0Z270,蕃薯寮,2025-11-14,23.73835,121.540108,3.9324494e-08
C2E420,竹南,2025-11-14,24.70898,120.88897,0.75516766
C0FB10,出雲山苗圃,2025-11-14,24.23105,120.90475,1.1888498e-09
C0F9Q0,外埔,2025-11-14,24.347817,120.705686,5.4781704e-05
C0K580,高鐵雲林,2025-11-14,23.737456,120.417944,0.9995519
C2I090,鳳凰,2025-11-14,23.728081,120.787347,4.00168e-09
C0U990,員山,2025-11-14,24.74435,121.72247,4.636782e-09
C0V770,大社,2025-11-14,22.730306,120.346639,0.99115103
C0X120,麻豆,2025-11-14,23.183289,120.248611,0.9932742
C0C670,龍潭,2025-11-14,24.870056,121.221389,0.98791885
C0D680,香山濕地,2025-11-14,24.783581,120.914988,0.5467976
C0S980,勝林山,2025-11-14,22.430439,120.8938,9.4693405e-06
C0V730,大寮,2025-11-14,22.605614,120.395717,0.9797703
C0R570,麟洛,2025-11-14,22.65078,120.52719,0.9955169
C2M930,石卓,2025-11-14,23.478744,120.702264,2.1114699e-09
C0G9B0,和美,2025-11-14,24.105169,120.492131,0.9879936
CAG100,王功漁港,2025-11-14,23.96824,120.32586,0.04456431
C0X290,北門,2025-11-14,23.267772,120.125481,0.9908102
C2F930,大甲,2025-11-14,24.347667,120.640403,0.67439514
C0D650,湖口,2025-11-14,24.904794,121.043628,0.9565703
C0E420,竹南,2025-11-14,24.708978,120.888897,0.6300972
C0U780,五結,2025-11-14,24.68637,121.79794,3.2716496e-09
C1I250,鯉潭,2025-11-14,23.961922,120.991131,3.4984467e-08
C0R130,阿禮,2025-11-14,22.742908,120.743678,1.944246e-09
C0X100,臺南市北區,2025-11-14,23.010394,120.194228,0.98004174
C0S920,金峰嘉蘭,2025-11-14,22.594789,120.960825,0.027861679
C0V490,新興,2025-11-14,22.627422,120.298803,0.9921824
C0F9K0,大安,2025-11-14,24.345061,120.588025,0.67439514
467290,古坑,2025-11-14,23.633639,120.551889,0.99936914
C2E970,八甲,2025-11-14,24.535811,120.795983,0.76409143
C0V440,鳳山,2025-11-14,22.646653,120.356122,0.9797703
C1T940,大觀,2025-11-14,23.714206,121.373133,2.4114433e-09
C0E740,造橋,2025-11-14,24.637056,120.864778,0.121471554
C0R100,尾寮山,2025-11-14,22.833111,120.683889,1.5981771e-09
A2K630,臺大雲林校區,2025-11-14,23.730628,120.423903,0.9995519
467990,馬祖,2025-11-14,26.169467,119.923158,0.9683318
C0D580,寶山,2025-11-14,24.735006,121.025192,0.9818358
E2P990,林試扇平站,2025-11-14,22.9677,120.6857,4.121775e-09
C0AI30,三重,2025-11-14,25.057328,121.500629,0.99890643
C0AH00,汐止,2025-11-14,25.066881,121.658778,0.9998747
C1Z040,立山,2025-11-14,23.443356,121.327375,3.4484682e-08
466881,新北,2025-11-14,24.959207,121.525196,0.99927944
C0W130,花嶼,2025-11-14,23.40007,119.32276,0.7334368
C0A950,鼻頭角,2025-11-14,25.129036,121.923372,0.9999274
C0K470,林內,2025-11-14,23.748675,120.609642,0.99944764
C2F990,摩天嶺,2025-11-14,24.322458,120.936819,1.0970638e-09
C2E430,南庄,2025-11-14,24.601775,121.000214,0.014727991
82C160,茶改場,2025-11-14,24.908472,121.185333,0.98903877
C2TB60,南安,2025-11-14,23.29818,121.26157,0.0004030395
C0Z320,清水林道,2025-11-14,23.27125,121.188272,8.3669205e-09
C0R760,南仁湖,2025-11-14,22.084681,120.863353,0.11175063
C0M670,大林,2025-11-14,23.600616,120.45841,0.9996548
C0M800,茶山,2025-11-14,23.299075,120.664767,0.04680866
C0A9C0,天母,2025-11-14,25.117494,121.537169,0.9992375
72K220,南改斗南分場,2025-11-14,23.634556,120.477333,0.99963254
72AI40,桃改樹林分場,2025-11-14,24.944503,121.386972,0.9900192
C0S910,蘭嶼燈塔,2025-11-14,22.081197,121.503117,0.9878687
C0B050,八斗子,2025-11-14,25.144754,121.79167,0.9999611
C0U900,內城,2025-11-14,24.71813,121.68766,5.4199343e-09
C0X320,柳營,2025-11-14,23.253328,120.375253,0.99634475
C0M790,新港,2025-11-14,23.553269,120.345728,0.9992462
C0F9T0,西屯,2025-11-14,24.179494,120.641275,0.9956867
C0E950,松安,2025-11-14,24.39792,120.98599,7.049911e-10
C0SA30,都歷,2025-11-14,23.020333,121.323642,0.099067286
C0C620,蘆竹,2025-11-14,25.084275,121.265767,0.9988191
C0R730,大坪頂,2025-11-14,22.024633,120.69355,0.85957193
C0AJ40,石門,2025-11-14,25.273672,121.601198,0.99995714
C0E750,苗栗,2025-11-14,24.564569,120.824575,0.76409143
C0T870,鯉魚潭,2025-11-14,23.935639,121.508944,0.005334533
C1V170,排雲,2025-11-14,23.463619,120.954147,8.193267e-09
C2H950,中寮,2025-11-14,23.884447,120.766406,0.99820113
C0R350,貓鼻頭,2025-11-14,21.921774,120.7358,0.9933425
C0V660,岡山,2025-11-14,22.797078,120.294958,0.9456268
C1H941,雙冬,2025-11-14,23.967378,120.802189,3.463019e-07
C0AJ70,田寮,2025-11-14,25.2698,121.4886,0.99993473
C0AI00,五股,2025-11-14,25.07445,121.42728,0.99292964
C0Z280,德武,2025-11-14,23.47426,121.41071,0.017250303
C2RA10,大新,2025-11-14,22.67558,120.57788,0.99611914
C0R700,枋山,2025-11-14,22.246844,120.661086,0.9889196
C0C460,復興,2025-11-14,24.820208,121.352281,0.98501694
C2K300,鹿南,2025-11-14,23.63855,120.3636,0.99945086
E2H360,蓮華池,2025-11-14,23.918333,120.885278,7.3559863e-07
C0M640,中埔,2025-11-14,23.42538,120.5229,0.99855465
C0W140,金沙,2025-11-14,24.488292,118.408778,0.776559
C2A540,四堵,2025-11-14,24.8926,121.745736,0.01153003
C0ACA0,新莊,2025-11-14,25.051478,121.446756,0.9960589
C0R220,潮州,2025-11-14,22.534361,120.54,0.9975902
U2HA40,臺大內茅埔,2025-11-14,23.689722,120.851117,4.5030378e-05
467490,臺中,2025-11-14,24.145736,120.684075,0.9988597
C0UB60,明池,2025-11-14,24.650688,121.475277,1.5244677e-07
C0U960,翠峰湖,2025-11-14,24.510856,121.608044,5.89311e-09
E2HA20,林試畢祿溪站,2025-11-14,24.226944,121.308522,1.6939783e-09
C2M9A0,大華,2025-11-14,23.4824,120.67491,1.0399795e-09
C0V890,前鎮,2025-11-14,22.5718,120.3117,0.98051494
C1F941,雪嶺,2025-11-14,24.280586,121.026642,4.1349955e-09
C2H9E0,國姓南港,2025-11-14,23.911108,120.846556,1.1390069e-09
C0AC80,文山,2025-11-14,25.00235,121.575728,0.9997991
C0F9R0,龍井,2025-11-14,24.184536,120.528972,0.9818575
C0M760,民雄,2025-11-14,23.551754,120.428457,0.9996548
C0UA40,西德山,2025-11-14,24.560647,121.752608,3.427857e-08
C2TA70,赤科坪,2025-11-14,23.39885,121.39168,5.876812e-09
C1T920,中興,2025-11-14,23.769503,121.498653,0.0031889768
C0D550,雪霸,2025-11-14,24.526972,121.11605,9.75051e-10
C2F860,梨山,2025-11-14,24.247522,121.243669,2.2159563e-09
C0R320,車城,2025-11-14,22.0744,120.716247,0.9926699
C1S870,南美山,2025-11-14,23.15025,121.382333,0.9815299
C0B020,基隆嶼,2025-11-14,25.19141,121.78391,0.9999592
C1U501,牛鬥,2025-11-14,24.637836,121.573656,0.054422703
C0M730,嘉義市東區,2025-11-14,23.457673,120.460531,0.9980944
C2R990,泰武,2025-11-14,22.60686,120.69765,2.5071945e-08
C0S700,知本,2025-11-14,22.684866,121.005642,9.176619e-09
C1N001,沙崙,2025-11-14,22.935472,120.309406,0.9942728
C0V760,橋頭,2025-11-14,22.757806,120.30575,0.99115103
C0G960,福寶,2025-11-14,24.0443,120.3814,0.9878088
C0X210,白河,2025-11-14,23.347466,120.414427,0.9981368
C0S810,東河,2025-11-14,22.972672,121.303986,0.09797487
C2R170,屏東,2025-11-14,22.66027,120.49403,0.9955169
C0R670,楓港,2025-11-14,22.190131,120.692156,0.99242806
C0FA50,霧峰,2025-11-14,24.0419,120.6995,0.99979806
C0UB10,蘇澳,2025-11-14,24.5969,121.8571,3.2985423e-09
C0G950,防潮門,2025-11-14,24.1835,120.4871,0.9716009
C0M740,六腳,2025-11-14,23.492871,120.290625,0.99927855
C1R250,力里,2025-11-14,22.428117,120.629228,0.001068457
C0K330,虎尾,2025-11-14,23.719183,120.442036,0.9995519
C2FA00,烏石坑,2025-11-14,24.273503,120.947617,1.1229342e-09
C0V620,永安,2025-11-14,22.82315,120.236856,0.9456268
C1I330,楓樹林,2025-11-14,23.986803,121.076117,4.598266e-10
C0W200,湖西,2025-11-14,23.596314,119.67275,0.98689204
72Q010,高雄農改場,2025-11-14,22.709333,120.525889,0.9977093
C0SA40,瑞和,2025-11-14,22.974361,121.156697,0.89251363
C0C680,龜山,2025-11-14,25.02846,121.38656,0.9927707
C2V260,月眉,2025-11-14,22.971003,120.539853,0.9996852
C0V450,鳳森,2025-11-14,22.545064,120.392592,0.99681795
C0FA90,小雪山林道,2025-11-14,24.29515,121.03651,6.0912972e-09
C0U720,南山,2025-11-14,24.43742,121.38167,4.1406465e-09
A2N290,臺南蘭花園區,2025-11-14,23.340258,120.379661,0.99710006
C0R560,新園,2025-11-14,22.5434,120.461558,0.99681795
C0U890,三星,2025-11-14,24.66812,121.65302,4.3127253e-09
C1V300,御油山,2025-11-14,23.001983,120.715364,1.0791431e-09
C0U600,礁溪,2025-11-14,24.817539,121.765608,3.7611255e-08
C1T980,龍澗,2025-11-14,24.023289,121.411328,3.5199992e-08
C0D670,海天一線,2025-11-14,24.831986,120.914438,0.4634628
C0SA00,歷坵,2025-11-14,22.520969,120.89185,0.0006308035
C0M710,東石,2025-11-14,23.458927,120.15385,0.9735364
C0M780,鹿草,2025-11-14,23.41134,120.30835,0.99832433
C0U520,雙連埤,2025-11-14,24.753033,121.641303,9.955677e-08
C0B010,七堵,2025-11-14,25.094819,121.71713,0.99995816
C0R480,長治,2025-11-14,22.693128,120.542622,0.9952483
C1V830,國三S383K,2025-11-14,22.781967,120.426475,0.99890107
12Q980,恆春工作站,2025-11-14,22.079678,120.714425,0.9926699
C1O940,東山服務區,2025-11-14,23.286016,120.398472,0.99710006
C1U840,東澳嶺,2025-11-14,24.5378,121.8485,3.3850792e-08
C1D630,飛鳳山,2025-11-14,24.766464,121.119178,0.99450356
C0S940,石寧山,2025-11-14,23.223772,121.406639,0.8782863
C0K410,北港,2025-11-14,23.573957,120.292802,0.99904376
C2M620,瑞里,2025-11-14,23.545133,120.675197,1.4966367e-09
C0SB70,小港漁港,2025-11-14,23.158558,121.400431,0.19524713
C2O950,安南,2025-11-14,23.076694,120.144861,0.9722264
C0F0E0,南湖圈谷,2025-11-14,24.363714,121.444667,1.2756521e-08
467610,成功,2025-11-14,23.097486,121.373428,0.1444558
C0G890,伸港,2025-11-14,24.148933,120.484403,0.9716009
C2E540,龍溪,2025-11-14,24.606489,120.783933,0.76409143
C1V200,梅山,2025-11-14,23.268447,120.823556,2.119928e-09
C0T9H0,加路蘭山,2025-11-14,23.682947,121.5274,1.4413316e-09
C2O930,玉井,2025-11-14,23.126042,120.46055,0.9995296
C1F911,新伯公,2025-11-14,24.221361,120.841069,0.07139667
C0R490,九如,2025-11-14,22.7405,120.490503,0.9977093
C0X200,左鎮,2025-11-14,23.056758,120.408522,0.9990262
C2TB50,麻汝,2025-11-14,23.42554,121.39358,0.017250303
C0FA60,鞍馬山工作站,2025-11-14,24.267064,121.000793,2.156481e-09
C0SB50,叭嗡嗡,2025-11-14,23.047062,121.343223,0.1301536
C1F891,稍來,2025-11-14,24.265689,121.001142,2.0304993e-09
C2M9C0,紫雲,2025-11-14,23.494914,120.540253,0.9981987
72N240,七股研究中心,2025-11-14,23.081672,120.062894,0.9623983
C0C700,中壢,2025-11-14,24.977661,121.256375,0.99886656
C0M690,水上,2025-11-14,23.419734,120.388909,0.99920017
C0V690,鼓山,2025-11-14,22.623325,120.275575,0.9921824
C0O860,大內,2025-11-14,23.11885,120.36083,0.99383175
C0Z200,萬榮,2025-11-14,23.709219,121.420106,2.4036967e-06
C0T9D0,和中,2025-11-14,24.26676,121.74103,0.0014739683
C2S9A0,北份子寮,2025-11-14,22.78561,121.07813,0.36427018
C1O921,楠西,2025-11-14,23.183511,120.484083,0.9995296
C0AJ30,淡水觀海,2025-11-14,25.184591,121.408616,0.9993554
C0V810,左營,2025-11-14,22.67491,120.28491,0.99087024
C0UA70,桃源谷,2025-11-14,24.962606,121.888875,8.0844256e-07
C0X130,官田,2025-11-14,23.193217,120.315422,0.99383175
C1H000,翠峰,2025-11-14,24.109397,121.205211,2.3091489e-09
C0UA90,石城,2025-11-14,24.980444,121.951214,0.999924
C1E681,南勢山,2025-11-14,24.421669,120.923831,9.875801e-10
C0A9F0,內湖,2025-11-14,25.079422,121.57545,0.99932224
C0K291,宜梧,2025-11-14,23.536281,120.169329,0.9201031
C1K540,口湖,2025-11-14,23.585344,120.180517,0.91846156
C0R780,滿州,2025-11-14,22.024403,120.839892,0.59377676
C0V870,文安,2025-11-14,22.8025,120.2164,0.93738234
C0U650,玉蘭,2025-11-14,24.675286,121.587061,1.4628249e-07
C0R640,東港,2025-11-14,22.46247,120.44074,0.99664795
C0AJ80,板橋,2025-11-14,25.0107,121.4489,0.9992956
C0S660,下馬,2025-11-14,23.150427,121.070312,4.4931805e-09
C2N190,烏樹,2025-11-14,23.32393,120.36989,0.99710006
C1H9B1,阿眉,2025-11-14,24.1263,120.994672,1.0563709e-09
C0UA20,多加屯,2025-11-14,24.368614,121.373189,4.9392006e-09
C0E730,頭份,2025-11-14,24.688247,120.912206,0.75516766
72V140,高改旗南分場,2025-11-14,22.857861,120.516667,0.9995409
C0K480,莿桐,2025-11-14,23.761192,120.502372,0.9997344
C0U980,坪林石牌,2025-11-14,24.86478,121.77396,1.8262604e-05
C0T900,西林,2025-11-14,23.8119,121.441458,4.7635473e-05
C1I150,青雲,2025-11-14,23.793361,120.949378,0.0020112167
C2E980,和興,2025-11-14,24.505319,120.923016,2.681463e-07
467350,澎湖,2025-11-14,23.565503,119.563094,0.9831143
C0G800,埔鹽,2025-11-14,24.000394,120.431683,0.99008197
C0H960,草屯,2025-11-14,23.973672,120.68085,0.9997334
C1V780,多納林道,2025-11-14,22.888028,120.737917,9.525548e-10
C0E920,通霄漁港,2025-11-14,24.498589,120.673876,0.033965386
C0Z330,安通山,2025-11-14,23.290728,121.348528,1.4173744e-08
C0AH10,永和,2025-11-14,25.01125,121.508111,0.9992956
C0AK10,太平里,2025-11-14,25.134937,121.364899,0.9993076
C2G640,鹿港,2025-11-14,24.0753,120.430481,0.9879936
C1E890,國三N149K,2025-11-14,24.463414,120.680019,0.033965386
C1R110,口社,2025-11-14,22.770111,120.645222,0.99056816
C1M870,國三N285K,2025-11-14,23.550319,120.505833,0.9981987
C1E480,鳳美,2025-11-14,24.554803,121.034747,1.5051283e-08
C0M530,奮起湖,2025-11-14,23.493903,120.699253,1.4756553e-09
C0C590,觀音,2025-11-14,25.027072,121.153317,0.9219284
C0T9M0,靜浦,2025-11-14,23.455167,121.495028,0.97801155
C2H9M0,發祥,2025-11-14,24.154094,121.164517,3.939472e-10
C2G9C0,埔南,2025-11-14,23.99124,120.46969,0.99008197
C0AI40,石牌,2025-11-14,25.115597,121.513139,0.99932224
C1F871,上谷關,2025-11-14,24.203483,121.018644,1.1229342e-09
C2H9G0,百勝,2025-11-14,24.051142,120.909361,1.4726764e-06
C0G880,二水,2025-11-14,23.810742,120.6173,0.999554
C0R940,加祿堂,2025-11-14,22.3363,120.6217,0.9889196
C0W220,北竿,2025-11-14,26.220358,119.974881,0.82841367
C0O960,崎頂,2025-11-14,22.959547,120.369317,0.9942728
C0TA40,秀林,2025-11-14,24.302864,121.731144,2.843078e-08
C0S750,向陽,2025-11-14,23.248397,120.986133,2.043024e-09
C0T9F0,水璉,2025-11-14,23.797131,121.542514,3.3469298e-06
C1M600,頭凍,2025-11-14,23.406364,120.603339,1.1253786e-09
467660,臺東,2025-11-14,22.752211,121.154586,0.3295253
C1D380,新埔,2025-11-14,24.84745,121.03834,0.553382
C2G980,田頭村,2025-11-14,23.8263,120.444175,0.9996353
C0V750,路竹,2025-11-14,22.854997,120.259439,0.9456268
C0N050,蚵寮,2025-11-14,23.301,120.1104,0.9908102
C2X060,下營,2025-11-14,23.226806,120.256291,0.99131685
72M700,南改鹿草分場,2025-11-14,23.416869,120.283061,0.99832433
C1SA50,利嘉林道,2025-11-14,22.82325,121.009389,1.3176779e-08
C0UB70,太平山中間站,2025-11-14,24.542003,121.513453,3.943957e-08
C0A940,金山,2025-11-14,25.223628,121.643967,0.9998571
C1V340,大津,2025-11-14,22.888322,120.645986,0.99972373
C0W180,七美,2025-11-14,23.219333,119.444892,0.95488304
C1F9C1,白冷,2025-11-14,24.182844,120.929889,1.1632242e-07
K2E710,苗改生物防治研究中心,2025-11-14,24.422861,120.871833,3.9271765e-07
C0N040,蘆竹溝,2025-11-14,23.2344,120.0961,0.9908102
C0TB40,崇德,2025-11-14,24.166144,121.657414,0.9993268
C0D760,大坪苗圃,2025-11-14,24.5362,121.1108,6.1786454e-10
C2W230,畜試所澎湖,2025-11-14,23.628342,119.513206,0.96354026
C0R880,後壁湖,2025-11-14,21.9457,120.7457,0.9931663
C1I280,埔中,2025-11-14,23.820778,120.642594,0.46177223
467790,墾丁雷達站,2025-11-14,21.948235,120.808028,0.9624794
C0W190,望安,2025-11-14,23.380564,119.494075,0.9732012
C0Z170,卓溪,2025-11-14,23.3443,121.3029,0.00040718634
C0F850,東勢,2025-11-14,24.246428,120.833047,0.68097866
466900,淡水,2025-11-14,25.164889,121.448906,0.9957678
C0I370,魚池,2025-11-14,23.895703,120.94135,5.6901623e-08
C0C630,大溪,2025-11-14,24.882853,121.265547,0.9913251
C0A520,山佳,2025-11-14,24.974944,121.402008,0.9904061
C0I110,竹山,2025-11-14,23.761225,120.688156,0.9996383
82H840,茶改南部分場,2025-11-14,23.762528,120.7405,0.98618597
C2SD80,再來山,2025-11-14,23.34371,121.44122,6.8759204e-05
C0G660,溪湖,2025-11-14,23.94835,120.479122,0.9996441
C1T800,洛韶,2025-11-14,24.204558,121.453956,2.2556586e-08
C1T810,慈恩,2025-11-14,24.192044,121.388386,3.7363983e-09
C1E451,象鼻,2025-11-14,24.368617,120.940228,9.875801e-10
C0AC60,三峽,2025-11-14,24.939025,121.369728,0.98972917
C0I490,萬大林道,2025-11-14,23.928228,121.091411,4.4972595e-10
C1I290,豐丘,2025-11-14,23.668178,120.887417,1.6882239e-09
C1I320,奧萬大,2025-11-14,23.952956,121.178556,4.5497597e-10
C2M910,嘉義大學,2025-11-14,23.471325,120.485903,0.9980944
C0U770,南澳,2025-11-14,24.44935,121.81022,1.2817145e-07
C2TB30,吉安,2025-11-14,23.94538,121.54803,0.090146475
C0A980,社子,2025-11-14,25.109508,121.469681,0.996302
C0V800,六龜,2025-11-14,22.997889,120.633583,0.9996522
C1G9D0,國一S218K,2025-11-14,23.890641,120.493253,0.9996642
C0E570,白沙屯,2025-11-14,24.549447,120.696803,0.18058176
C2F9A0,中竹林,2025-11-14,24.103556,120.751061,0.95032537
C0FA40,臺中電廠,2025-11-14,24.2146,120.4907,0.94320977
C2G9A0,畜試所彰化,2025-11-14,23.86045,120.557964,0.9998173
C0H9C0,合歡山,2025-11-14,24.143442,121.272547,7.581379e-09
C0X060,下營,2025-11-14,23.22695,120.256261,0.9920409
G2M350,農試溪口農場,2025-11-14,23.58565,120.408111,0.9996548
C0U860,頭城,2025-11-14,24.85323,121.8308,0.99679613
C0R580,南州,2025-11-14,22.48591,120.50274,0.99804306
C0D430,峨眉,2025-11-14,24.6905,121.017189,0.45081976
C0G780,秀水,2025-11-14,24.03405,120.503869,0.99934787
72N100,臺南農改場,2025-11-14,23.0605,120.342194,0.9930017
C0S900,蘭嶼高中,2025-11-14,22.04909,121.51214,0.99048454
C2TA60,六十石,2025-11-14,23.22477,121.31861,4.6120765e-09
C1F9W0,德基,2025-11-14,24.254783,121.190261,1.7944437e-09
C2M980,安和,2025-11-14,23.51377,120.31593,0.99927855
C1Z120,壽豐,2025-11-14,23.870853,121.508081,0.008093065
C0W160,烏坵,2025-11-14,24.9944,119.44956,0.26386505
C1I240,外大坪,2025-11-14,23.958697,120.917931,1.0011582e-08
C1I550,國六W023K,2025-11-14,23.979067,120.867742,0.0031275114
C0R870,興海,2025-11-14,21.9752,120.8439,0.9624794
C0R140,瑪家,2025-11-14,22.682903,120.686639,2.9249898e-09
C0A530,坪林,2025-11-14,24.938183,121.70975,0.8775456
C0X260,後壁,2025-11-14,23.366358,120.362326,0.99796385
C0Z230,和平,2025-11-14,24.30717,121.77007,6.443504e-06
C0G770,福興,2025-11-14,24.041289,120.437669,0.99008197
C0H9A0,神木村,2025-11-14,23.532742,120.843667,1.4532763e-09
C0I460,南投,2025-11-14,23.911469,120.687331,0.9997334
C0I480,梅峰,2025-11-14,24.085272,121.173572,1.218385e-09
C1V570,吉東,2025-11-14,22.85422,120.5454,0.9991889
C2D740,屯原,2025-11-14,24.067969,121.209389,1.0504076e-09
C2A560,福山,2025-11-14,24.776203,121.502811,1.8357261e-07
C0AH30,五分山,2025-11-14,25.07125,121.780794,5.2102456e-07
C0FA10,松柏,2025-11-14,24.429115,120.617482,0.028254962
72S200,東改班鳩分場,2025-11-14,22.829528,121.077694,0.79794014
72HA00,中改埔里分場,2025-11-14,23.903208,120.963364,1.0258293e-07
C2H9W0,大坪頂農水,2025-11-14,24.043122,120.932781,1.6492807e-08
C0C650,平鎮,2025-11-14,24.897503,121.214636,0.9879188
C0S930,延平,2025-11-14,22.902581,121.084058,0.5701174
C0UA60,樟樹山,2025-11-14,24.41393,121.78325,2.5224611e-09
C2UC10,出水溪,2025-11-14,24.615822,121.652253,7.129027e-07
C1S670,摩天,2025-11-14,23.199503,121.027,4.6021467e-09
C2C590,觀音,2025-11-14,25.027072,121.153317,0.8747397
C0V630,茄萣,2025-11-14,22.906642,120.182608,0.9815419
466940,基隆,2025-11-14,25.133314,121.740475,0.9999606
C0X050,東河,2025-11-14,23.296598,120.385608,0.99710006
C0R770,保力,2025-11-14,22.071122,120.764111,0.87989336
G2L020,農試嘉義分所,2025-11-14,23.485028,120.473806,0.9980944
C0X240,關子嶺,2025-11-14,23.331169,120.508025,0.999534
C0I380,集集,2025-11-14,23.828206,120.801467,0.9743894
466990,花蓮,2025-11-14,23.975128,121.613275,0.853613
C1V220,小關山,2025-11-14,23.154217,120.813603,1.1045194e-09
C1F9G1,慶福山,2025-11-14,24.180853,120.848378,4.0762185e-09
C0FB20,雪山橋,2025-11-14,24.23192,120.9786,1.6708358e-09
C0Z250,瑞穗林道,2025-11-14,23.49284,121.30688,1.19104735e-08
C0D590,新豐,2025-11-14,24.87068,120.97721,0.4634626
C0A870,五指山,2025-11-14,25.132153,121.608692,1.8313895e-05
C0UA50,西帽山,2025-11-14,24.555361,121.802628,3.418318e-08
C2R980,竹田國中,2025-11-14,22.61532,120.52412,0.9954677
C0X160,仁德,2025-11-14,22.968258,120.257689,0.9847899
C1H971,六分寮,2025-11-14,23.92507,120.6378,0.96076584
C0W120,西嶼,2025-11-14,23.5626,119.468436,0.9798484
C0G650,員林,2025-11-14,23.946503,120.585597,0.99981904
C0AD50,鶯歌,2025-11-14,24.951533,121.346294,0.9976288
C2H9Q0,北東眼山,2025-11-14,24.120939,121.189303,1.1667095e-09
C2H9T0,名間竹圍,2025-11-14,23.859914,120.637572,0.999151
C0S990,山豬窟,2025-11-14,22.318619,120.857372,0.89667284
C0X190,安平,2025-11-14,22.993161,120.152181,0.97820723
C0K400,斗六,2025-11-14,23.720583,120.541127,0.9997344
12J990,口湖工作站,2025-11-14,23.589978,120.180394,0.91846156
C0O830,北寮,2025-11-14,23.079561,120.495008,0.9969239
C1D410,白蘭,2025-11-14,24.579364,121.079947,6.7883343e-10
C0S970,加津林,2025-11-14,22.416211,120.926942,0.33156976
C0D700,關西,2025-11-14,24.7977,121.1732,0.8920534
C0M810,里佳,2025-11-14,23.389125,120.716647,1.4866277e-09
C0U750,龜山島,2025-11-14,24.841667,121.953133,0.00026487172
C0R810,內獅,2025-11-14,22.305064,120.642986,0.9889196
C1M390,龍美,2025-11-14,23.406728,120.654417,1.3993092e-09
C2K290,崙內,2025-11-14,23.69525,120.35601,0.99945086
C2FB60,頭櫃山,2025-11-14,24.129842,120.858925,9.437136e-10
C1H840,國三N238K,2025-11-14,23.841008,120.707711,0.9985453
CAQ030,崎峰國小,2025-11-14,22.42565,120.49521,0.99804306
C2E520,大湖,2025-11-14,24.414939,120.870872,3.9271765e-07
467530,阿里山,2025-11-14,23.508208,120.813242,2.1710327e-09
C1E691,南湖,2025-11-14,24.40135,120.837533,3.0076335e-09
C0FA30,梧棲,2025-11-14,24.256003,120.523381,0.9818575
C1V231,高中,2025-11-14,23.134911,120.716711,2.225733e-09
C0AK30,硬漢嶺,2025-11-14,25.136097,121.426372,0.5865864
C0F9V0,新社,2025-11-14,24.200172,120.815806,1.650263e-06
C0H890,埔里,2025-11-14,23.972169,120.952425,2.3508053e-05
C0R690,墾丁,2025-11-14,21.966756,120.810269,0.9324587
C0SD20,富山,2025-11-14,22.822383,121.190825,0.120436616
C0F0D0,審馬陣,2025-11-14,24.381675,121.4203,8.165607e-09
C2W030,金門農試所,2025-11-14,24.448431,118.451786,0.7675845
C0R820,白鷺,2025-11-14,22.454275,120.666219,6.584533e-08
C0FB00,大雪山,2025-11-14,24.254668,121.007374,2.1822921e-09
C1V190,南天池,2025-11-14,23.27403,120.91176,2.45877e-09
C0E940,雪見,2025-11-14,24.42595,121.01347,9.831335e-10
K2E360,苗栗農改場,2025-11-14,24.495722,120.829111,0.02214273
CAJ050,海口故事園區,2025-11-14,23.57543,120.14121,0.91846156
C2K280,四湖,2025-11-14,23.6304,120.22717,0.9401645
C2H9D0,三隻寮,2025-11-14,24.093078,120.861578,2.4394824e-09
C0O990,媽廟,2025-11-14,22.99175,120.293525,0.9883273
C0D480,打鐵坑,2025-11-14,24.849664,121.150789,0.97503483
C0Z220,和平林道,2025-11-14,24.343922,121.656317,1.8858304e-09
C0TA10,花蓮漁港,2025-11-14,23.995322,121.638331,0.8553223
72C440,桃園農改場,2025-11-14,24.950944,121.030583,0.9565703
C1E711,馬拉邦山,2025-11-14,24.367306,120.901656,7.349059e-10
C0SB20,富岡,2025-11-14,22.792467,121.192669,0.13281024
C0D560,竹東,2025-11-14,24.767147,121.057881,0.49834257
C0F9U0,南屯,2025-11-14,24.137006,120.637969,0.99944216
C2SD60,明峰,2025-11-14,22.8671,121.11825,0.5648104
C0M720,番路,2025-11-14,23.464657,120.554156,0.99905044
C0F0A0,雪山圈谷,2025-11-14,24.388594,121.236339,1.1318932e-08
C1A9N0,四十份,2025-11-14,24.934158,121.593283,0.9917587
C0U760,東澳,2025-11-14,24.52196,121.83318,7.649534e-08
C0X230,鹽水,2025-11-14,23.272621,120.247641,0.98838776
C2H9H0,苗改南投蜂場,2025-11-14,23.852589,120.693481,0.9997516
C2TB70,達谷寮,2025-11-14,23.38,121.35968,8.280067e-05
C0R950,萬隆國小,2025-11-14,22.507667,120.587817,0.004343947
467540,大武,2025-11-14,22.35572,120.90374,0.4298146
C0V370,古亭坑,2025-11-14,22.893178,120.401947,0.9974785
C1I340,新興橋,2025-11-14,23.563333,120.868728,5.709576e-09
C0SA80,土坂,2025-11-14,22.453108,120.887572,0.34724048
C0R160,鹽埔,2025-11-14,22.739558,120.530778,0.9977093
C0AC40,大屯山,2025-11-14,25.175675,121.522408,1.2200272e-05
466850,五分山雷達站,2025-11-14,25.071182,121.781205,4.805789e-07
C2H9L0,馬烈霸,2025-11-14,24.1512,121.201772,1.1667095e-09
C1AI50,國三N016K,2025-11-14,25.034164,121.619664,0.99980015
C2V920,匏子寮,2025-11-14,23.04905,120.55319,0.9989524
C1V600,藤枝,2025-11-14,23.071961,120.757042,9.850405e-10
C1E601,南勢,2025-11-14,24.572486,120.734842,0.18058176
C0O980,新市,2025-11-14,23.061614,120.298197,0.9930017
C0K420,西螺,2025-11-14,23.800407,120.467394,0.9996353
C0Z050,佳心,2025-11-14,23.34567,121.21316,5.3726503e-09
C0AD30,蘆洲,2025-11-14,25.086594,121.472331,0.99578327
C0V610,梓官,2025-11-14,22.760558,120.267211,0.94348854
K2F750,種苗改良場,2025-11-14,24.225972,120.800917,1.650263e-06
C0UA80,大溪漁港,2025-11-14,24.941801,121.902955,0.9994642
C1AI60,國一39K邊坡,2025-11-14,25.064361,121.383836,0.9901428
C0W150,金寧,2025-11-14,24.457703,118.328989,0.8225958
C0R960,內埔,2025-11-14,22.608483,120.570714,0.9954677
V2C250,八德合作社,2025-11-14,24.93775,121.266389,0.9913251
C2H9S0,龍南,2025-11-14,23.953536,120.833183,1.2672994e-09
C0AH40,平等,2025-11-14,25.129142,121.577086,0.04956715
C0R540,佳冬,2025-11-14,22.419456,120.552375,0.99828196
466950,彭佳嶼,2025-11-14,25.627975,122.079744,0.9391636
C0A890,雙溪,2025-11-14,25.036003,121.864242,0.99991626
C0C480,桃園,2025-11-14,24.992425,121.323172,0.99886656
C0AH50,林口,2025-11-14,25.072181,121.38084,0.9818934
A2K360,水試臺西試驗場,2025-11-14,23.717231,120.190522,0.95418054
C2M960,外寮,2025-11-14,23.562643,120.665688,1.716197e-09
C0F9S0,烏日,2025-11-14,24.107058,120.624103,0.99944216
C2N180,鹿陶洋,2025-11-14,23.14325,120.48352,0.9995296
C0C490,八德,2025-11-14,24.928708,121.283289,0.9913251
C0R190,赤山,2025-11-14,22.592333,120.614306,0.9963437
C0T820,天祥,2025-11-14,24.179597,121.495639,3.9194055e-07
C1F9E1,龍安,2025-11-14,24.1605,120.831961,7.1957203e-07
C2SD50,順那,2025-11-14,23.04166,121.29332,0.097590946
C0V820,小林,2025-11-14,23.148408,120.63325,0.026994783
C2G870,芳苑,2025-11-14,23.922303,120.320025,0.04456431
C0E850,大河,2025-11-14,24.618069,120.948578,0.20850882
C1U670,寒溪,2025-11-14,24.634,121.71691,4.4054933e-09
C0N020,城西,2025-11-14,23.0568,120.0956,0.9665583
C1Z110,三棧,2025-11-14,24.11557,121.60501,8.355633e-08
C0R280,檳榔,2025-11-14,22.076078,120.836777,0.10550385
C2H9J0,中台,2025-11-14,23.9996,120.938739,1.6492807e-08
C0F9L0,后里,2025-11-14,24.310436,120.729725,1.3135675e-05
467441,高雄,2025-11-14,22.730432,120.312516,0.99115103
C0Z180,新城,2025-11-14,24.040486,121.604878,0.85413647
C0D540,橫山,2025-11-14,24.71116,121.11693,0.9746186
C1D420,太閣南,2025-11-14,24.632808,121.160575,5.5356e-09
C1E770,公館,2025-11-14,24.526914,120.830806,0.54435456
CAN130,水試所海水繁養殖中心,2025-11-14,23.120802,120.07968,0.9624331
C1I430,翠華,2025-11-14,24.191961,121.224339,2.8509015e-09
C1M400,菜瓜坪,2025-11-14,23.251928,120.576103,0.02440928
C0G730,二林,2025-11-14,23.903325,120.376081,0.9958423
72M360,南改義竹分場,2025-11-14,23.360694,120.279361,0.9924195
V2K620,麥寮合作社,2025-11-14,23.753836,120.294783,0.9988047
C0Z070,舞鶴,2025-11-14,23.46811,121.37407,0.00092087855
C0B040,大武崙,2025-11-14,25.166676,121.706993,0.99995685
C1Z030,紅葉,2025-11-14,23.493119,121.338806,0.007665374
C1I050,丹大,2025-11-14,23.753747,121.141147,2.953266e-09
C0I080,信義,2025-11-14,23.689694,120.851036,4.5030378e-05
C2TB80,庄子底,2025-11-14,23.71794,121.49438,0.00028639418
C0D750,樂山林道6k,2025-11-14,24.49999,121.08773,1.7446468e-09
C2M920,朴子農改,2025-11-14,23.469889,120.259383,0.99832433
C2A880,福隆,2025-11-14,25.017842,121.942083,0.9999274
C0Z160,鳳林,2025-11-14,23.746114,121.453411,0.00014954523
C0UB80,翠峰林道6K,2025-11-14,24.49773,121.568625,6.6013297e-09
C0V210,復興,2025-11-14,23.222403,120.806089,5.981348e-09
C0H990,昆陽,2025-11-14,24.121322,121.273642,5.3203775e-09
C0R741,獅子,2025-11-14,22.202308,120.705236,0.9845723
C0S710,鹿野,2025-11-14,22.917711,121.122994,0.6598135
C0I530,小奇萊,2025-11-14,24.131764,121.295717,5.751855e-09
C0FA70,大雪山埡口,2025-11-14,24.26867,121.03062,4.053989e-09
C2K630,荷苞,2025-11-14,23.657717,120.595144,0.99936914
C0Z080,富源,2025-11-14,23.587642,121.378225,1.0335043e-07
C2M9E0,旺來山,2025-11-14,23.555153,120.486463,0.9981987
C0SB10,美和,2025-11-14,22.682078,121.060236,0.32910818
C2K620,馬光農場,2025-11-14,23.721453,120.378864,0.9995519
C1I140,卡奈托灣,2025-11-14,23.754364,121.087872,6.5787015e-10
C0I520,玉山風口,2025-11-14,23.470489,120.955994,1.0540589e-08
C1G691,下水埔,2025-11-14,23.816114,120.5676,0.999791
C0X110,臺南市南區,2025-11-14,22.961189,120.188378,0.9851272
C0V680,仁武,2025-11-14,22.701083,120.347722,0.99115103
C2G840,北斗,2025-11-14,23.877586,120.514222,0.9996642
C2TB90,長橋,2025-11-14,23.6874,121.46186,0.00011660248
C0R900,竹坑,2025-11-14,22.1385,120.7022,0.99242806
C0K250,崙背,2025-11-14,23.75555,120.318925,0.9988122
C0G860,社頭,2025-11-14,23.897647,120.5862,0.9998173
C0X150,安定,2025-11-14,23.102614,120.227839,0.99322635
C0R590,里港,2025-11-14,22.77919,120.49459,0.99931175
C0E610,馬都安,2025-11-14,24.451272,120.930192,2.8451705e-09
C0E550,明德,2025-11-14,24.583486,120.885411,0.024078008
C0R150,三地門,2025-11-14,22.709889,120.639944,0.99616116
C0G910,花壇,2025-11-14,24.032076,120.549461,0.99934787
C1D400,鳥嘴山,2025-11-14,24.71909,121.28387,3.551852e-08
C0K500,元長,2025-11-14,23.64981,120.315024,0.99909276
C0F0B0,石岡,2025-11-14,24.276061,120.777644,1.3135675e-05
C2V250,甲仙,2025-11-14,23.080106,120.591758,0.98264384
C0SA20,金崙山,2025-11-14,22.567419,120.959667,2.519552e-09
C0V350,溪埔,2025-11-14,22.738578,120.446797,0.99890107
C0M660,溪口,2025-11-14,23.604131,120.403569,0.9996548
C1S880,壽卡,2025-11-14,22.238911,120.858903,0.08976964
72D680,桃改新埔分場,2025-11-14,24.834444,121.066111,0.553382
