站號,站名,日期,lat,lon,BlastGRU-TW
C0K280,四湖,2025-10-02,23.630414,120.227125,0.048009347
C0E430,南庄,2025-10-02,24.601775,121.000214,0.12470372
C0E420,竹南,2025-10-02,24.708978,120.888897,0.17564923
C0M530,奮起湖,2025-10-02,23.493903,120.699253,0.60131115
C0C590,觀音,2025-10-02,25.027072,121.153317,0.1349913
C0X060,下營,2025-10-02,23.22695,120.256261,0.04166017
C2D740,屯原,2025-10-02,24.067969,121.209389,0.12548637
C0M810,里佳,2025-10-02,23.389125,120.716647,0.78484076
C0K250,崙背,2025-10-02,23.75555,120.318925,0.032664374
