站號,站名,日期,lat,lon,BLBTSLS
C0R710,龍磐,2025-03-24,21.931672,120.838942,0.9936762
C1F9D1,白毛台,2025-03-24,24.158325,120.886933,2.750322e-09
C0G940,竹塘,2025-03-24,23.848253,120.386764,4.894208e-08
467590,恆春,2025-03-24,22.003897,120.746339,6.0218906e-07
C1O850,環湖,2025-03-24,23.148617,120.418633,1.0389525e-09
C0U710,太平山,2025-03-24,24.505486,121.525656,2.8541566e-08
C0E820,獅潭,2025-03-24,24.539133,120.920042,1.921816e-08
C0V880,興達,2025-03-24,22.8778,120.2127,1.9165327e-09
C0S890,關山,2025-03-24,23.0395,121.175017,4.0038635e-09
C0SB30,新蘭,2025-03-24,22.869214,121.223228,3.4680168e-09
C2R970,屏科大,2025-03-24,22.648275,120.619247,1.3772156e-09
K2F750,種苗繁殖,2025-03-24,24.225972,120.800917,1.6716527e-08
C1Z130,銅門,2025-03-24,23.965694,121.492842,9.535042e-09
C0AD40,土城,2025-03-24,24.973208,121.445169,4.726839e-08
CAN140,六官養殖協會,2025-03-24,23.22881,120.29962,1.5408381e-09
C0X180,山上,2025-03-24,23.0757,120.363253,9.374829e-10
C0F9Z0,雪山東峰,2025-03-24,24.388792,121.268675,3.758221e-08
C1M480,獨立山,2025-03-24,23.537022,120.607797,3.2614504e-09
C0X220,學甲,2025-03-24,23.230367,120.182187,6.964714e-08
467650,日月潭,2025-03-24,23.881325,120.90805,8.1052915e-09
C0K600,箔子寮,2025-03-24,23.6197,120.14,0.0014386654
C0G830,埤頭,2025-03-24,23.866003,120.452806,8.774732e-09
C0S950,七塊厝,2025-03-24,22.954453,121.229922,5.3683684e-09
467110,金門,2025-03-24,24.407306,118.289281,1.7686911e-08
C0AH80,深坑,2025-03-24,25.002703,121.628328,4.8548987e-08
467990,馬祖,2025-03-24,26.169269,119.923419,2.7494421e-08
C0A970,三貂角,2025-03-24,25.007606,122.002058,2.2211792e-08
C2D730,寶山農場,2025-03-24,24.732444,120.976153,8.1256553e-07
C0K430,褒忠,2025-03-24,23.690938,120.303634,1.01429745e-08
467480,嘉義,2025-03-24,23.495925,120.432906,2.344502e-09
C2E540,後龍,2025-03-24,24.606489,120.783933,0.9838331
C0V400,阿公店,2025-03-24,22.804194,120.355528,9.948248e-10
C0E960,觀霧分站,2025-03-24,24.505781,121.113921,1.8463954e-08
467550,玉山,2025-03-24,23.48718,120.95943,4.1331525e-08
C0R440,大漢山,2025-03-24,22.405264,120.753181,2.19982e-08
C0K280,四湖,2025-03-24,23.630414,120.227125,2.0287687e-05
C1F9B1,桐林,2025-03-24,24.066172,120.735194,2.0789368e-09
C2H9U0,鳳鵬,2025-03-24,23.763919,120.788061,1.6965553e-09
C0K390,土庫,2025-03-24,23.679029,120.395574,1.2317227e-08
C1I450,望鄉山,2025-03-24,23.594153,120.944286,2.509984e-08
C0E910,海埔,2025-03-24,24.648767,120.772435,6.459707e-05
B2E890,畜試北區分所,2025-03-24,24.527806,120.770972,3.4309117e-08
C0R750,四林格山,2025-03-24,22.076989,120.802439,3.91871e-08
C0F0C0,中坑,2025-03-24,24.248517,120.903319,4.882104e-09
C1I121,大鞍,2025-03-24,23.678381,120.760017,1.9146448e-08
72U480,花改蘭陽分場,2025-03-24,24.686306,121.716583,2.8030163e-09
C0A770,科教館,2025-03-24,25.096356,121.516507,9.3265715e-09
C0AJ60,六塊厝,2025-03-24,25.24,121.4481,9.550741e-07
C0R620,墾雷,2025-03-24,21.900836,120.855269,0.92135453
467420,永康,2025-03-24,23.038386,120.2367,1.1469597e-09
467300,東吉島,2025-03-24,23.25695,119.667467,0.9999878
C0I410,名間,2025-03-24,23.837053,120.701447,2.578711e-09
A2C560,農工中心,2025-03-24,24.985917,121.239833,1.6061024e-06
C0V740,旗山,2025-03-24,22.888614,120.483597,2.461534e-09
C0Z061,玉里,2025-03-24,23.3215,121.339656,7.8252755e-09
C0S840,南田,2025-03-24,22.279725,120.889208,4.3097835e-08
C1I470,杉林溪,2025-03-24,23.639517,120.786444,2.1203252e-08
C1X040,東原,2025-03-24,23.291597,120.463822,2.0629314e-09
C0R660,枋寮,2025-03-24,22.367722,120.590647,1.2045349e-09
C1R120,上德文,2025-03-24,22.763272,120.704442,2.8603298e-09
C0K450,大埤,2025-03-24,23.646074,120.431537,6.0213883e-09
C0UA00,土場,2025-03-24,24.576533,121.495333,1.2103991e-08
467080,宜蘭,2025-03-24,24.763975,121.756528,2.6306701e-09
C0N030,四草,2025-03-24,23.0235,120.1116,1.3354441e-09
467410,臺南,2025-03-24,22.99328,120.20492,1.3082662e-09
C0V650,彌陀,2025-03-24,22.783806,120.246361,1.016817e-09
C0D660,新竹市東區,2025-03-24,24.798681,120.986942,0.007524641
82S580,茶改東部分場,2025-03-24,22.907694,121.130139,3.7293497e-09
C0SB40,興隆,2025-03-24,22.913661,121.257469,3.4980578e-09
467050,新屋,2025-03-24,25.006725,121.047492,0.061509393
C0C710,大溪永福,2025-03-24,24.892936,121.324975,8.7018066e-07
C0FA20,溫寮,2025-03-24,24.372177,120.583125,1.2320575e-06
C0V640,湖內,2025-03-24,22.887139,120.2445,1.9007442e-09
C0R910,下寮,2025-03-24,22.3929,120.5548,1.2045349e-09
C0Z020,明里,2025-03-24,23.208717,121.262342,9.807029e-09
C0M770,嘉義梅山,2025-03-24,23.585398,120.555587,2.47371e-09
G2F820,農業試驗所,2025-03-24,24.031261,120.688133,0.94096345
C0C660,楊梅,2025-03-24,24.912375,121.143047,7.4555714e-06
C1E511,新開,2025-03-24,24.347703,120.827019,5.266584e-09
G2F820,農試所(霧峰),2025-03-24,24.031261,120.688133,2.5032034e-09
C1I070,和社,2025-03-24,23.591131,120.888861,1.2903864e-08
C2F000,大肚,2025-03-24,24.15295,120.572117,1.4317717e-09
C1S850,豐南,2025-03-24,23.122139,121.262389,5.771328e-09
C2A920,富貴角,2025-03-24,25.263783,121.565258,6.184959e-07
CAH030,茶改場竹圍站,2025-03-24,23.860083,120.637528,1.9147899e-09
C0T960,光復,2025-03-24,23.660694,121.424964,3.0598721e-09
C0F9M0,豐原,2025-03-24,24.254322,120.720692,2.2758087e-09
C0R720,旭海,2025-03-24,22.205403,120.887614,4.9119862e-08
C0V710,苓雅,2025-03-24,22.622742,120.330669,1.071869e-09
C0C740,觀音工業區,2025-03-24,25.064764,121.114856,0.080197684
CAC040,拉拉山,2025-03-24,24.699317,121.427133,3.4002795e-08
C0V790,萬山,2025-03-24,22.905944,120.688056,2.3618265e-09
U2HA30,臺大和社,2025-03-24,23.590856,120.888864,1.2903864e-08
C0AJ90,澳底,2025-03-24,25.0552,121.9253,8.567245e-06
C0Z100,東華,2025-03-24,23.89525,121.549833,7.890156e-09
C0G970,三豐,2025-03-24,23.882,120.2895,0.00016752665
V2K610,大庄合作社,2025-03-24,23.8068,120.367939,3.0968994e-08
C0V900,汕尾,2025-03-24,22.4782,120.4151,6.6629174e-10
C1R630,龍泉,2025-03-24,22.66701,120.59091,1.3922011e-09
C1AC50,關渡,2025-03-24,25.133486,121.469331,1.6308435e-08
C0C800,四稜,2025-03-24,24.64733,121.4293,3.364783e-08
C0F9I0,神岡,2025-03-24,24.272481,120.658314,6.47943e-09
C0K460,斗南,2025-03-24,23.678734,120.478359,5.9193805e-09
467410,臺南,2025-03-24,22.993239,120.204772,0.31529686
C2O810,曾文,2025-03-24,23.219681,120.497328,1.7316312e-09
467280,後龍,2025-03-24,24.648563,120.831834,4.1662242e-05
C1F9J1,清水林,2025-03-24,24.071242,120.820419,3.9057317e-09
C2A650,火燒寮,2025-03-24,25.002719,121.742892,1.9612123e-08
466930,竹子湖,2025-03-24,25.162078,121.544547,1.7861673e-08
C1I220,樟湖,2025-03-24,23.905333,120.846983,6.892504e-09
C0I390,仁愛,2025-03-24,24.022122,121.132206,7.94931e-09
C0Z300,東里,2025-03-24,23.26853,121.30547,9.64983e-09
C1V590,新發,2025-03-24,23.057019,120.646064,4.582998e-09
C0K510,水林,2025-03-24,23.572924,120.24597,5.141967e-08
72S590,東改賓朗果園,2025-03-24,22.813889,121.071278,4.4676716e-09
82A750,茶改北部分場,2025-03-24,24.955778,121.631222,1.7572852e-08
C1A750,石碇服務區,2025-03-24,25.00872,121.646242,1.1436523e-07
C0X300,鹿寮,2025-03-24,23.386047,120.477331,2.0045137e-09
G2AI50,關渡,2025-03-24,25.11575,121.492,1.2099753e-06
C0K590,雲林東勢,2025-03-24,23.674192,120.255721,1.6550318e-08
C0A570,桶後,2025-03-24,24.848222,121.597992,6.6796284e-09
C1S800,華源,2025-03-24,22.657883,121.02325,1.47190615e-08
C0G720,溪州,2025-03-24,23.851589,120.499093,8.614965e-09
C1V160,達卡努瓦,2025-03-24,23.279811,120.705319,6.8778347e-09
C2M410,馬頭山,2025-03-24,23.324361,120.582017,2.1731623e-09
C0V850,蚵仔寮,2025-03-24,22.7256,120.2527,7.4130585e-10
C0S740,池上,2025-03-24,23.119628,121.209469,5.799046e-09
C1V390,尖山,2025-03-24,22.813153,120.367789,1.0029638e-09
C0AH70,松山,2025-03-24,25.04871,121.55042,9.310433e-09
C0N010,鯤鯓國小,2025-03-24,23.1879,120.0889,2.4884173e-07
C0R550,新埤,2025-03-24,22.467947,120.582894,6.662295e-10
C0SA60,知本（水試所）,2025-03-24,22.702394,121.082761,1.6464615e-08
C0T9I0,豐濱,2025-03-24,23.583897,121.514806,4.1313535e-09
C0UB00,淡江大學蘭陽校園,2025-03-24,24.823239,121.730383,7.135031e-09
C0W240,九宮,2025-03-24,24.423753,118.240186,1.7846519e-08
C0T9N0,富里,2025-03-24,23.171639,121.249378,6.0324354e-09
U2HA50,臺大竹山,2025-03-24,23.756972,120.681556,2.1822422e-09
C0V840,鳳鼻頭,2025-03-24,22.5083,120.3591,9.913244e-10
C0X140,西港,2025-03-24,23.125608,120.203108,1.1952181e-09
72D080,桃改五峰分場,2025-03-24,24.612194,121.157167,1.3466661e-08
C2H9P0,伊拿谷,2025-03-24,23.963211,121.088264,5.4070584e-09
C2H9F0,柑林,2025-03-24,24.018658,120.847072,1.5853469e-09
C0TA20,加灣,2025-03-24,24.082025,121.608944,3.2597793e-08
C0V530,阿蓮,2025-03-24,22.883208,120.327508,1.0403327e-09
C0FB30,八仙山苗圃,2025-03-24,24.192719,121.001366,4.7128115e-09
C1O880,關山,2025-03-24,23.173397,120.594092,1.9986914e-09
C0E791,卓蘭,2025-03-24,24.3126,120.8244,2.5475504e-09
C1I030,武界,2025-03-24,23.913225,121.052483,5.5865765e-09
C0R520,崁頂,2025-03-24,22.514781,120.506914,6.8339595e-10
C0R341,牡丹,2025-03-24,22.130036,120.792639,1.4053676e-07
C0R930,萬丹,2025-03-24,22.5885,120.4851,1.667264e-09
C0S760,紅石,2025-03-24,23.069131,121.126219,4.015873e-08
C2C410,中央大學,2025-03-24,24.967652,121.185165,1.4221087e-06
C1M610,石磐龍,2025-03-24,23.496606,120.663506,8.7262135e-09
C0C790,東眼山,2025-03-24,24.8284,121.40888,2.1945313e-08
C0UA10,鴛鴦湖,2025-03-24,24.590269,121.412228,3.3746744e-08
V2C260,八德蔬果,2025-03-24,24.978508,121.281819,1.7092096e-07
C0R800,丹路,2025-03-24,22.204481,120.750989,7.4508854e-08
C0G920,永靖,2025-03-24,23.924703,120.547533,6.6428845e-09
C2M950,太和,2025-03-24,23.538372,120.702961,1.0417847e-08
C1A630,下盆,2025-03-24,24.771003,121.538622,7.922563e-09
B2N890,畜產試驗所,2025-03-24,23.058972,120.336406,8.643648e-10
C0UA30,白嶺,2025-03-24,24.527819,121.519031,2.376174e-08
C1V580,溪南(特生中心),2025-03-24,23.084972,120.788475,9.039019e-09
C1T970,大農,2025-03-24,23.615233,121.413331,4.216101e-09
E2S960,林試太麻里2,2025-03-24,22.598014,120.989761,1.5469424e-05
C0R650,竹田,2025-03-24,22.58486,120.54344,1.1206555e-09
C1H900,清流,2025-03-24,24.080775,120.962997,5.014676e-09
C1C510,水尾,2025-03-24,24.940081,121.087161,0.11645298
C0F9X0,大雅(中科園區),2025-03-24,24.21528,120.62445,4.2130623e-09
C0SB60,白守蓮,2025-03-24,23.126769,121.401914,5.42936e-09
C0O970,虎頭埤,2025-03-24,23.021375,120.347878,1.3099841e-09
C0C730,中大臨海站,2025-03-24,24.966126,121.008581,0.105036125
C0X250,新營,2025-03-24,23.310689,120.316681,1.4589141e-09
C0V700,三民,2025-03-24,22.645017,120.311233,1.1850894e-09
C0U870,大礁溪,2025-03-24,24.791042,121.675047,7.548855e-09
C0E870,高鐵苗栗,2025-03-24,24.60725,120.826094,4.5863428e-05
A2K570,古坑花卉中心,2025-03-24,23.63353,120.55239,1.7150975e-09
C0TA30,鹽寮,2025-03-24,23.845606,121.592664,7.962268e-09
C0M860,新美,2025-03-24,23.338017,120.683169,3.998407e-09
C1E701,八卦,2025-03-24,24.491756,120.927619,8.379874e-09
C0I420,國姓,2025-03-24,24.037803,120.855072,1.6555708e-09
C2D720,關西工作站,2025-03-24,24.757275,121.184792,3.1242803e-07
C0S960,香蘭,2025-03-24,22.587569,120.993375,1.8235863e-08
467620,蘭嶼,2025-03-24,22.0369,121.55843,0.99482995
C0R260,春日,2025-03-24,22.370361,120.628306,1.0997433e-09
72G600,臺中農改場,2025-03-24,24.003028,120.534389,5.5199956e-09
C0Z210,瑞穗,2025-03-24,23.5239,121.39021,5.384787e-09
C0M820,達邦,2025-03-24,23.453994,120.749517,6.596094e-09
C0V860,南寮,2025-03-24,22.7616,120.2339,7.4130585e-10
C0G740,大城,2025-03-24,23.852487,120.320935,0.00013308138
C0R920,塭仔,2025-03-24,22.4169,120.5197,1.2220064e-09
C0R470,高樹,2025-03-24,22.826389,120.600806,2.0825561e-09
C0R680,佳樂水,2025-03-24,21.993578,120.861633,0.25857723
C1O870,大棟山,2025-03-24,23.31157,120.52226,7.3108537e-09
C0D360,梅花,2025-03-24,24.678347,121.208558,1.4707079e-08
C0Z190,富世,2025-03-24,24.14743,121.6297,3.581943e-08
C0AI10,屈尺,2025-03-24,24.92184,121.54475,2.976965e-07
B2U990,畜試東區分所,2025-03-24,24.669039,121.832561,1.714476e-09
C0SB80,長濱漁港,2025-03-24,23.313644,121.459994,7.6607884e-09
C0R240,來義,2025-03-24,22.527306,120.625111,7.0970096e-10
C0V910,大樹,2025-03-24,22.684645,120.432803,1.2603089e-09
C1R610,西大武山,2025-03-24,22.617719,120.7322,2.357507e-08
C0G900,線西,2025-03-24,24.143358,120.443536,6.2493484e-08
C0M700,竹崎,2025-03-24,23.526178,120.555508,3.3911325e-09
C2E880,三義,2025-03-24,24.405478,120.749819,1.1960694e-08
C0C720,竹圍,2025-03-24,25.112692,121.239824,1.2185666e-06
C0F9P0,清水,2025-03-24,24.312297,120.562242,4.950063e-07
C0Z150,吉安光華,2025-03-24,23.930925,121.595153,1.1248683e-08
C0FA80,小雪山天池,2025-03-24,24.28025,121.02627,3.651908e-08
467300,東吉島,2025-03-24,23.25727,119.66762,0.8824578
C1D640,外坪(五指山),2025-03-24,24.644447,121.090961,1.0146651e-08
C0F9O0,潭子,2025-03-24,24.213106,120.703933,1.3792134e-09
C2H9R0,卓社,2025-03-24,23.887894,121.000086,9.910715e-09
72T250,花蓮農改場,2025-03-24,23.975222,121.563889,2.3664859e-08
C0E780,銅鑼,2025-03-24,24.489681,120.790853,2.966048e-08
C1T950,太安,2025-03-24,23.666719,121.370128,4.7758302e-08
C0E830,苑裡,2025-03-24,24.439714,120.653053,7.320505e-07
467270,田中,2025-03-24,23.873803,120.581286,4.42856e-09
C0SA10,檳榔四格山,2025-03-24,22.810031,121.109308,4.8194586e-09
C1T830,布洛灣,2025-03-24,24.17184,121.57127,5.8270786e-08
C0F970,大坑,2025-03-24,24.173142,120.722289,1.2076474e-09
C1U920,思源,2025-03-24,24.393125,121.347214,1.4321658e-08
C0A931,三和,2025-03-24,25.233153,121.595236,2.3514085e-08
C0I010,廬山,2025-03-24,24.033311,121.181808,1.1403117e-08
C2M940,日野賀,2025-03-24,23.434056,120.727169,7.604739e-09
C0R860,鼻頭,2025-03-24,22.1043,120.8979,1.3407965e-06
C0UB20,壯圍,2025-03-24,24.7359,121.8163,2.729481e-09
C0R790,九棚,2025-03-24,22.14195,120.889281,2.8112748e-07
C0W110,東莒,2025-03-24,25.9652,119.98069,5.3932695e-08
C1U930,粉鳥林,2025-03-24,24.497088,121.842479,5.04813e-09
C1I211,蘆竹湳,2025-03-24,23.934019,120.811994,2.7721945e-09
C0S830,長濱,2025-03-24,23.286817,121.411975,8.1153e-09
C1F9F1,伯公龍,2025-03-24,24.272392,120.849047,1.8939228e-09
C0UB90,太平山莊,2025-03-24,24.494171,121.536209,2.8686467e-08
C0E810,西湖,2025-03-24,24.562947,120.7485,0.68381125
C1I440,新高口,2025-03-24,23.478744,120.878939,1.9838232e-08
C0O840,王爺宮,2025-03-24,23.222064,120.40085,1.4127314e-09
C0T9G0,鳳林山,2025-03-24,23.735269,121.420131,1.328124e-08
C0X080,佳里,2025-03-24,23.173039,120.145086,2.4884173e-07
C0FB70,大甲溪埔,2025-03-24,24.370625,120.620067,8.7656827e-07
C0Z310,清水斷崖,2025-03-24,24.218294,121.689142,1.3462475e-08
C0M680,太保,2025-03-24,23.455062,120.331455,2.0706896e-09
C1S820,金峰,2025-03-24,22.590969,120.933236,1.506846e-08
C0AD10,八里,2025-03-24,25.150211,121.403947,1.2185666e-06
C2K240,草嶺,2025-03-24,23.59555,120.693461,7.940581e-09
C1SA70,都蘭,2025-03-24,22.87794,121.226881,3.4980578e-09
C0K440,二崙,2025-03-24,23.772797,120.408944,8.143287e-09
C1A760,坪林交控,2025-03-24,24.94284,121.713442,1.2037248e-08
C0F9N0,大里,2025-03-24,24.092464,120.701378,2.0187523e-09
C0SA90,達仁林場,2025-03-24,22.264347,120.823972,5.367409e-08
C1R290,石門山,2025-03-24,22.112611,120.756597,8.227425e-08
42HA10,萬大發電廠,2025-03-24,23.978875,121.139639,6.7069994e-09
C0R890,山海,2025-03-24,21.9878,120.7091,0.95423675
C0T9A0,月眉山,2025-03-24,23.809928,121.539828,1.0502479e-08
C0AC70,信義,2025-03-24,25.037822,121.564597,9.310433e-09
C0K560,棋山,2025-03-24,23.68645,120.603417,1.7220926e-09
C2FB50,出雲,2025-03-24,24.206469,120.902794,5.4588707e-09
C1Z240,中平林道,2025-03-24,23.42115,121.26763,5.5345154e-08
U2H480,溪頭,2025-03-24,23.670306,120.798194,9.53586e-09
C0M880,好美里,2025-03-24,23.3364,120.138,5.8649228e-08
C0T9E0,大坑,2025-03-24,23.880628,121.581981,8.134175e-09
C0K530,臺西,2025-03-24,23.701547,120.197559,3.6248027e-06
C1E900,國一N128K,2025-03-24,24.560997,120.844186,7.789376e-08
C0AJ50,水湳洞,2025-03-24,25.123695,121.862238,1.9000188e-07
C0AI20,白沙灣,2025-03-24,25.283128,121.519058,8.9456904e-07
C2V310,美濃,2025-03-24,22.898792,120.51907,2.4490396e-09
C0A860,大坪,2025-03-24,25.165914,121.632969,1.4463361e-08
C1U850,觀音海岸,2025-03-24,24.38319,121.77856,8.5954825e-09
C2K610,草嶺石壁,2025-03-24,23.602469,120.707731,8.07246e-09
C0U950,鶯子嶺,2025-03-24,24.89754,121.79244,1.4852738e-08
C0O900,善化,2025-03-24,23.112883,120.297219,8.5894303e-10
C0K550,蔦松,2025-03-24,23.514319,120.229736,5.1865477e-08
E2P980,林試六龜中心,2025-03-24,22.991703,120.645722,3.0635512e-09
C0E590,通霄,2025-03-24,24.471892,120.704622,3.1543498e-06
C1I310,西巒,2025-03-24,23.754486,120.883956,1.4989801e-08
C0A550,泰平,2025-03-24,24.971197,121.823711,1.0356747e-08
C0I360,水里,2025-03-24,23.812553,120.849792,1.5301337e-09
C0R830,高士,2025-03-24,22.121825,120.836781,6.332488e-08
C1I101,溪頭,2025-03-24,23.661789,120.807647,1.596545e-08
C0AJ20,野柳,2025-03-24,25.20703,121.690021,2.381419e-08
C0B060,暖暖,2025-03-24,25.0957,121.7403,3.993622e-08
C1H920,長豐,2025-03-24,24.102039,120.879897,4.2193187e-09
C0V360,內門,2025-03-24,22.975481,120.466769,1.2556205e-09
C0R850,林邊,2025-03-24,22.4634,120.5339,6.648332e-10
C0E930,龍鳳,2025-03-24,24.700034,120.859125,0.18637796
C0U910,冬山,2025-03-24,24.63373,121.7937,1.714476e-09
C1E721,泰安,2025-03-24,24.489017,120.968036,9.722547e-09
82H320,茶改中部分場,2025-03-24,23.875611,120.913583,7.187522e-09
C0M750,布袋,2025-03-24,23.380878,120.167789,4.538471e-08
C1S860,利嘉,2025-03-24,22.809417,121.050528,1.2798269e-08
72C440,桃園農改,2025-03-24,24.950944,121.030583,0.14043954
E2S980,林試太麻里1,2025-03-24,22.598922,120.980044,1.6741799e-08
C0X170,關廟,2025-03-24,22.963017,120.327797,1.948092e-09
C0V720,林園,2025-03-24,22.507747,120.394511,9.88413e-10
C1I510,線浸林道,2025-03-24,23.761508,120.832956,1.0803711e-08
C0D690,外湖,2025-03-24,24.917735,120.968711,0.7550472
C0C750,新興坑尾,2025-03-24,25.0061,121.0971,0.015907446
B2Q810,畜試南區分所,2025-03-24,21.945583,120.802167,0.2855022
C0S790,金崙,2025-03-24,22.538122,120.966875,1.35818885e-08
C0AH90,福山植物園,2025-03-24,24.760717,121.58135,1.7403968e-08
C0I540,奇萊稜線,2025-03-24,24.109231,121.326456,3.3854537e-08
C0M850,表湖,2025-03-24,23.24186,120.64166,4.919081e-09
C0S770,大溪山,2025-03-24,22.478475,120.943325,1.7565613e-08
C0AG80,中和,2025-03-24,24.991622,121.491792,4.726839e-08
C0T790,大禹嶺,2025-03-24,24.186117,121.316086,2.6439514e-08
C0T9B0,水源,2025-03-24,23.991861,121.537169,1.2584047e-08
C0R840,牡丹池山,2025-03-24,22.168389,120.841225,8.9001425e-08
C1I131,桶頭,2025-03-24,23.641944,120.654117,1.988209e-09
CAL110,布袋國中,2025-03-24,23.35893,120.18026,4.538471e-08
467571,新竹,2025-03-24,24.827853,121.014219,0.4157213
C0Z290,赤柯山,2025-03-24,23.36893,121.38293,3.5452057e-08
C0X280,將軍,2025-03-24,23.214999,120.13577,7.913218e-08
C0S690,太麻里,2025-03-24,22.60902,120.98533,1.2926354e-08
C0U880,北關,2025-03-24,24.9072,121.8734,1.4321111e-08
C1H860,瑞岩,2025-03-24,24.123772,121.18345,1.7638365e-08
C0G810,埔心,2025-03-24,23.947633,120.525456,6.6368564e-09
C0U970,大福,2025-03-24,24.80064,121.81389,2.6173772e-09
C2H9N0,仁愛東眼,2025-03-24,24.026875,121.1205,1.03798055e-08
C1E670,南礦,2025-03-24,24.538278,121.002836,1.1418134e-08
C0M520,東後寮,2025-03-24,23.369908,120.248065,3.962944e-08
C1E461,松安,2025-03-24,24.397972,120.986022,1.2098567e-08
72G600,臺中農改,2025-03-24,24.003028,120.534389,0.00069362856
C2N160,西拉雅風管處,2025-03-24,23.189481,120.335297,9.042705e-10
C2M970,碧湖,2025-03-24,23.568632,120.624165,7.38929e-09
C0A640,石碇,2025-03-24,24.993969,121.662917,7.619043e-08
E2S960,林試太麻里2,2025-03-24,22.598,120.99775,1.8348766e-08
C0F9Y0,桃山,2025-03-24,24.432739,121.303808,3.5840888e-08
C1I020,萬大,2025-03-24,23.979817,121.132261,8.0071345e-09
C0U940,羅東,2025-03-24,24.68184,121.74934,2.7809273e-09
C0M650,朴子,2025-03-24,23.43463,120.23902,1.9704435e-08
C1I500,大尖山,2025-03-24,23.858572,120.994889,1.6957346e-08
C0FB40,中橫21.6k,2025-03-24,24.2499,121.1455,1.2651529e-08
C0G820,田尾,2025-03-24,23.901669,120.509389,6.6368564e-09
E2K600,四湖植物園,2025-03-24,23.676986,120.163433,2.0287687e-05
C0S730,綠島,2025-03-24,22.6672,121.47533,0.31380394
12Q970,東港工作站,2025-03-24,22.479997,120.466058,6.6629174e-10
C0E430,南庄,2025-03-24,24.601775,121.000214,1.9111312e-08
C1TA00,太魯閣,2025-03-24,24.15773,121.6236,3.3237875e-08
466920,臺北,2025-03-24,25.037658,121.514853,9.310433e-09
C0R600,舊泰武,2025-03-24,22.588194,120.664944,2.2139244e-09
C1I260,北坑,2025-03-24,23.9246,121.006903,2.8885316e-09
466910,鞍部,2025-03-24,25.182586,121.529731,3.6216505e-08
C1I230,九份二山,2025-03-24,23.961944,120.845,5.0398272e-09
C2A660,瑞芳,2025-03-24,25.113169,121.801147,1.4322552e-07
C0R270,琉球嶼,2025-03-24,22.332244,120.362236,8.63767e-09
C1T990,高寮,2025-03-24,23.394239,121.356808,7.2521753e-09
C0G620,芬園,2025-03-24,24.015678,120.6213,2.5191627e-09
C1Z140,荖溪,2025-03-24,23.890575,121.45964,3.1799754e-08
C1I201,中心崙,2025-03-24,23.728722,120.712097,2.578116e-09
C1I400,凌霄,2025-03-24,24.018778,121.004456,1.0152284e-08
C1M640,十字,2025-03-24,23.492153,120.753683,2.3967708e-08
G2P820,農試鳳山分所,2025-03-24,22.646611,120.356083,1.2134799e-09
C0Z270,蕃薯寮,2025-03-24,23.73835,121.540108,1.27713236e-08
C0FB10,出雲山苗圃,2025-03-24,24.23105,120.90475,4.8821134e-09
C0F9Q0,外埔,2025-03-24,24.347817,120.705686,8.986452e-09
C0K580,高鐵雲林,2025-03-24,23.737456,120.417944,9.403845e-09
C2I090,鳳凰,2025-03-24,23.728081,120.787347,6.6337935e-09
C0U990,員山,2025-03-24,24.74435,121.72247,2.7517544e-09
C0V770,大社,2025-03-24,22.730306,120.346639,7.385651e-10
C0X120,麻豆,2025-03-24,23.183289,120.248611,1.1116164e-09
C0C670,龍潭,2025-03-24,24.870056,121.221389,7.5084415e-07
C0D680,香山濕地,2025-03-24,24.783581,120.914988,0.0144330915
C0S980,勝林山,2025-03-24,22.430439,120.8938,2.8211467e-08
C0V730,大寮,2025-03-24,22.605614,120.395717,1.0702348e-09
C0R570,麟洛,2025-03-24,22.65078,120.52719,2.253172e-09
C2M930,石卓,2025-03-24,23.478744,120.702264,2.0340666e-08
C0G9B0,和美,2025-03-24,24.105169,120.492131,2.5488589e-08
CAG100,王功漁港,2025-03-24,23.96824,120.32586,0.00043160745
C0X290,北門,2025-03-24,23.267772,120.125481,7.9008515e-08
C2F930,大甲,2025-03-24,24.347667,120.640403,3.1637714e-07
C0D650,湖口,2025-03-24,24.904794,121.043628,0.14467312
C0E420,竹南,2025-03-24,24.708978,120.888897,0.05380024
C0U780,五結,2025-03-24,24.68637,121.79794,2.729481e-09
C1I250,鯉潭,2025-03-24,23.961922,120.991131,4.607979e-09
C0R130,阿禮,2025-03-24,22.742908,120.743678,3.4536662e-09
C0X100,臺南市北區,2025-03-24,23.010394,120.194228,1.3260528e-09
C0S920,金峰嘉蘭,2025-03-24,22.594789,120.960825,1.6528361e-08
C0V490,新興,2025-03-24,22.627422,120.298803,1.071869e-09
C0F9K0,大安,2025-03-24,24.345061,120.588025,9.747392e-07
72N100,臺南農改,2025-03-24,23.0605,120.342194,0.11535759
467290,古坑,2025-03-24,23.633639,120.551889,1.7150975e-09
C2E970,八甲,2025-03-24,24.535811,120.795983,6.1654774e-08
C0V440,鳳山,2025-03-24,22.646653,120.356122,1.2134799e-09
C1T940,大觀,2025-03-24,23.714206,121.373133,1.2983285e-08
72T250,花蓮農改,2025-03-24,23.975222,121.563889,1.9974043e-06
C0E740,造橋,2025-03-24,24.637056,120.864778,4.5863428e-05
C0R100,尾寮山,2025-03-24,22.833111,120.683889,3.948441e-09
A2K630,臺大雲林校區,2025-03-24,23.730628,120.423903,9.403845e-09
467990,馬祖,2025-03-24,26.169467,119.923158,9.4833716e-08
C0D580,寶山,2025-03-24,24.735006,121.025192,4.144473e-08
E2P990,林試扇平站,2025-03-24,22.9677,120.6857,4.0534247e-09
C0AI30,三重,2025-03-24,25.057328,121.500629,9.3265715e-09
C0AH00,汐止,2025-03-24,25.066881,121.658778,9.310433e-09
C1Z040,立山,2025-03-24,23.443356,121.327375,4.4784237e-08
466881,新北,2025-03-24,24.959207,121.525196,4.969394e-08
C0W130,花嶼,2025-03-24,23.40007,119.32276,0.9435325
C0A950,鼻頭角,2025-03-24,25.129036,121.923372,0.0024483164
C0K470,林內,2025-03-24,23.748675,120.609642,2.2454154e-09
C2F990,摩天嶺,2025-03-24,24.322458,120.936819,5.6892913e-09
82C160,茶改場,2025-03-24,24.908472,121.185333,3.699702e-06
C0Z320,清水林道,2025-03-24,23.27125,121.188272,2.4237933e-08
C0R760,南仁湖,2025-03-24,22.084681,120.863353,8.2274404e-08
C0M670,大林,2025-03-24,23.600616,120.45841,7.5611615e-09
C0M800,茶山,2025-03-24,23.299075,120.664767,3.5843057e-09
C0A9C0,天母,2025-03-24,25.117494,121.537169,1.7121895e-08
72K220,南改斗南分場,2025-03-24,23.634556,120.477333,5.9193805e-09
72AI40,桃改樹林分場,2025-03-24,24.944503,121.386972,3.0824678e-05
C0S910,蘭嶼燈塔,2025-03-24,22.081197,121.503117,0.994854
C0B050,八斗子,2025-03-24,25.144754,121.79167,2.1475896e-07
C0U900,內城,2025-03-24,24.71813,121.68766,2.8556961e-09
C0X320,柳營,2025-03-24,23.253328,120.375253,1.3324927e-09
C0M790,新港,2025-03-24,23.553269,120.345728,2.0723066e-08
C0F9T0,西屯,2025-03-24,24.179494,120.641275,4.3378376e-09
C0E950,松安,2025-03-24,24.39792,120.98599,1.2098567e-08
C0SA30,都歷,2025-03-24,23.020333,121.323642,3.5770458e-09
C0C620,蘆竹,2025-03-24,25.084275,121.265767,2.9683938e-06
C0R730,大坪頂,2025-03-24,22.024633,120.69355,1.5006829e-06
C0AJ40,石門,2025-03-24,25.273672,121.601198,6.038384e-07
C0E750,苗栗,2025-03-24,24.564569,120.824575,8.1236664e-08
C0T870,鯉魚潭,2025-03-24,23.935639,121.508944,9.749065e-09
C1V170,排雲,2025-03-24,23.463619,120.954147,3.4606312e-08
C2H950,中寮,2025-03-24,23.884447,120.766406,2.6052194e-09
C0R350,貓鼻頭,2025-03-24,21.921774,120.7358,0.9992542
C0V660,岡山,2025-03-24,22.797078,120.294958,1.016817e-09
C1H941,雙冬,2025-03-24,23.967378,120.802189,2.9386342e-09
C0AJ70,田寮,2025-03-24,25.2698,121.4886,9.19634e-07
C0AI00,五股,2025-03-24,25.07445,121.42728,8.9554845e-08
C0Z280,德武,2025-03-24,23.47426,121.41071,5.2179203e-09
C0R700,枋山,2025-03-24,22.246844,120.661086,1.01916585e-05
C0C460,復興,2025-03-24,24.820208,121.352281,4.78347e-08
E2H360,蓮華池,2025-03-24,23.918333,120.885278,3.1956975e-09
C0M640,中埔,2025-03-24,23.42538,120.5229,2.0912136e-09
C0W140,金沙,2025-03-24,24.488292,118.408778,1.8847022e-08
C2A540,四堵,2025-03-24,24.8926,121.745736,1.1970234e-08
C0ACA0,新莊,2025-03-24,25.051478,121.446756,1.5824355e-08
C0R220,潮州,2025-03-24,22.534361,120.54,6.876087e-10
U2HA40,臺大內茅埔,2025-03-24,23.689722,120.851117,6.0555028e-09
467490,臺中,2025-03-24,24.145736,120.684075,1.1732928e-09
C0UB60,明池,2025-03-24,24.650688,121.475277,3.3669462e-08
C0U960,翠峰湖,2025-03-24,24.510856,121.608044,3.0387035e-08
E2HA20,林試畢祿溪站,2025-03-24,24.226944,121.308522,2.69283e-08
C0V890,前鎮,2025-03-24,22.5718,120.3117,1.0694756e-09
467620,蘭嶼,2025-03-24,22.036969,121.558339,0.9999795
C1F941,雪嶺,2025-03-24,24.280586,121.026642,3.651908e-08
C2H9E0,國姓南港,2025-03-24,23.911108,120.846556,7.141607e-09
C0AC80,文山,2025-03-24,25.00235,121.575728,4.8548987e-08
C0F9R0,龍井,2025-03-24,24.184536,120.528972,2.710568e-07
C0M760,民雄,2025-03-24,23.551754,120.428457,7.708983e-09
C0UA40,西德山,2025-03-24,24.560647,121.752608,1.6689066e-08
C1T920,中興,2025-03-24,23.769503,121.498653,9.956301e-09
C0D550,雪霸,2025-03-24,24.526972,121.11605,1.6209663e-08
C2F860,梨山,2025-03-24,24.247522,121.243669,2.7403221e-08
C0R320,車城,2025-03-24,22.0744,120.716247,0.24763212
C1S870,南美山,2025-03-24,23.15025,121.382333,6.074405e-09
C0B020,基隆嶼,2025-03-24,25.19141,121.78391,9.597594e-06
C1U501,牛鬥,2025-03-24,24.637836,121.573656,5.4723817e-09
C0M730,嘉義市東區,2025-03-24,23.457673,120.460531,2.0138642e-09
C0S700,知本,2025-03-24,22.684866,121.005642,1.2469481e-08
C1N001,沙崙,2025-03-24,22.935472,120.309406,1.95846e-09
C0V760,橋頭,2025-03-24,22.757806,120.30575,7.443634e-10
C0G960,福寶,2025-03-24,24.0443,120.3814,2.6283393e-08
C0X210,白河,2025-03-24,23.347466,120.414427,1.9826534e-09
C0S810,東河,2025-03-24,22.972672,121.303986,8.181992e-09
C2R170,屏東,2025-03-24,22.66027,120.49403,2.253172e-09
C0R670,楓港,2025-03-24,22.190131,120.692156,9.982848e-06
C0FA50,霧峰,2025-03-24,24.0419,120.6995,2.5026687e-09
C0UB10,蘇澳,2025-03-24,24.5969,121.8571,5.542562e-09
C0G950,防潮門,2025-03-24,24.1835,120.4871,2.710568e-07
C0M740,六腳,2025-03-24,23.492871,120.290625,1.8678678e-08
C1R250,力里,2025-03-24,22.428117,120.629228,5.898415e-10
C0K330,虎尾,2025-03-24,23.719183,120.442036,9.223436e-09
C2FA00,烏石坑,2025-03-24,24.273503,120.947617,5.588655e-09
C0V620,永安,2025-03-24,22.82315,120.236856,1.016817e-09
C1I330,楓樹林,2025-03-24,23.986803,121.076117,8.809512e-09
C0W200,湖西,2025-03-24,23.596314,119.67275,0.36587706
72Q010,高雄農改場,2025-03-24,22.709333,120.525889,1.7946388e-09
C0SA40,瑞和,2025-03-24,22.974361,121.156697,4.631258e-09
C0C680,龜山,2025-03-24,25.02846,121.38656,8.201463e-08
C2V260,月眉,2025-03-24,22.971003,120.539853,2.3112066e-09
C0V450,鳳森,2025-03-24,22.545064,120.392592,1.0107608e-09
C0FA90,小雪山林道,2025-03-24,24.29515,121.03651,4.29611e-08
C0U720,南山,2025-03-24,24.43742,121.38167,1.5170546e-08
A2N290,臺南蘭花園區,2025-03-24,23.340258,120.379661,1.9461568e-09
C0R560,新園,2025-03-24,22.5434,120.461558,9.88413e-10
C0U890,三星,2025-03-24,24.66812,121.65302,4.91956e-09
C1V300,御油山,2025-03-24,23.001983,120.715364,9.358718e-09
C0U600,礁溪,2025-03-24,24.817539,121.765608,4.499261e-09
C1T980,龍澗,2025-03-24,24.023289,121.411328,4.0939856e-08
C0D670,海天一線,2025-03-24,24.831986,120.914438,0.93895197
C0SA00,歷坵,2025-03-24,22.520969,120.89185,1.1689442e-08
C0M710,東石,2025-03-24,23.458927,120.15385,3.204641e-08
C0M780,鹿草,2025-03-24,23.41134,120.30835,1.7869784e-08
C0U520,雙連埤,2025-03-24,24.753033,121.641303,7.578603e-09
C0B010,七堵,2025-03-24,25.094819,121.71713,4.4833122e-08
C0R480,長治,2025-03-24,22.693128,120.542622,1.2502054e-09
C1V830,國三S383K,2025-03-24,22.781967,120.426475,1.9272697e-09
12Q980,恆春工作站,2025-03-24,22.079678,120.714425,0.24763212
C1O940,東山服務區,2025-03-24,23.286016,120.398472,1.5445456e-09
C1U840,東澳嶺,2025-03-24,24.5378,121.8485,8.595417e-09
C1D630,飛鳳山,2025-03-24,24.766464,121.119178,4.2460915e-08
C0S940,石寧山,2025-03-24,23.223772,121.406639,9.675412e-09
C0K410,北港,2025-03-24,23.573957,120.292802,4.8023935e-08
C2M620,瑞里,2025-03-24,23.545133,120.675197,9.64834e-09
C0SB70,小港漁港,2025-03-24,23.158558,121.400431,5.8520917e-09
C2O950,安南,2025-03-24,23.076694,120.144861,3.847914e-07
C0F0E0,南湖圈谷,2025-03-24,24.363714,121.444667,3.775911e-08
467610,成功,2025-03-24,23.097486,121.373428,4.9832494e-09
C0G890,伸港,2025-03-24,24.148933,120.484403,6.2493484e-08
C2E540,龍溪,2025-03-24,24.606489,120.783933,5.9300088e-05
C1V200,梅山,2025-03-24,23.268447,120.823556,5.0078133e-09
C0T9H0,加路蘭山,2025-03-24,23.682947,121.5274,2.1201554e-08
C2O930,玉井,2025-03-24,23.126042,120.46055,9.374829e-10
C1F911,新伯公,2025-03-24,24.221361,120.841069,1.4350224e-09
C0R490,九如,2025-03-24,22.7405,120.490503,1.7814915e-09
C0X200,左鎮,2025-03-24,23.056758,120.408522,1.3144793e-09
C0FA60,鞍馬山工作站,2025-03-24,24.267064,121.000793,2.3076485e-08
C0SB50,叭嗡嗡,2025-03-24,23.047062,121.343223,3.4571264e-09
C1F891,稍來,2025-03-24,24.265689,121.001142,2.2563384e-08
72N240,七股研究中心,2025-03-24,23.081672,120.062894,4.9546634e-07
C0C700,中壢,2025-03-24,24.977661,121.256375,1.469182e-07
C0M690,水上,2025-03-24,23.419734,120.388909,2.0178283e-09
C0V690,鼓山,2025-03-24,22.623325,120.275575,1.071869e-09
C0O860,大內,2025-03-24,23.11885,120.36083,8.6579044e-10
C0Z200,萬榮,2025-03-24,23.709219,121.420106,1.2832122e-08
C0T9D0,和中,2025-03-24,24.26676,121.74103,2.1246287e-08
C1O921,楠西,2025-03-24,23.183511,120.484083,1.0482082e-09
C0AJ30,淡水觀海,2025-03-24,25.184591,121.408616,1.6361783e-07
C0V810,左營,2025-03-24,22.67491,120.28491,1.2345422e-09
C0UA70,桃源谷,2025-03-24,24.962606,121.888875,1.1430031e-08
C0X130,官田,2025-03-24,23.193217,120.315422,9.0282454e-10
C1H000,翠峰,2025-03-24,24.109397,121.205211,2.051655e-08
C0UA90,石城,2025-03-24,24.980444,121.951214,2.4344866e-08
C1E681,南勢山,2025-03-24,24.421669,120.923831,7.46928e-09
C0A9F0,內湖,2025-03-24,25.079422,121.57545,9.310433e-09
C0K291,宜梧,2025-03-24,23.536281,120.169329,5.2024596e-08
C1K540,口湖,2025-03-24,23.585344,120.180517,0.0014386654
C0R780,滿州,2025-03-24,22.024403,120.839892,4.8445895e-07
C0V870,文安,2025-03-24,22.8025,120.2164,1.0168247e-09
C0U650,玉蘭,2025-03-24,24.675286,121.587061,8.4068486e-09
C0R640,東港,2025-03-24,22.46247,120.44074,6.6629174e-10
K2E360,苗栗農改,2025-03-24,24.495722,120.829111,6.583113e-07
C0AJ80,板橋,2025-03-24,25.0107,121.4489,4.8375302e-08
C0S660,下馬,2025-03-24,23.150427,121.070312,2.2640982e-08
C1H9B1,阿眉,2025-03-24,24.1263,120.994672,2.7705836e-08
C0UA20,多加屯,2025-03-24,24.368614,121.373189,2.3646134e-08
C0E730,頭份,2025-03-24,24.688247,120.912206,0.08196674
72V140,高改旗南分場,2025-03-24,22.857861,120.516667,2.4490396e-09
C0K480,莿桐,2025-03-24,23.761192,120.502372,4.290908e-09
C0U980,坪林石牌,2025-03-24,24.86478,121.77396,8.346646e-09
C0T900,西林,2025-03-24,23.8119,121.441458,9.790806e-09
C1I150,青雲,2025-03-24,23.793361,120.949378,3.1652028e-09
467350,澎湖,2025-03-24,23.565503,119.563094,0.71100634
C0G800,埔鹽,2025-03-24,24.000394,120.431683,3.9009986e-08
C0H960,草屯,2025-03-24,23.973672,120.68085,2.5096956e-09
C1V780,多納林道,2025-03-24,22.888028,120.737917,5.027624e-09
C0E920,通霄漁港,2025-03-24,24.498589,120.673876,3.98548e-06
C0Z330,安通山,2025-03-24,23.290728,121.348528,9.135388e-09
C0AH10,永和,2025-03-24,25.01125,121.508111,4.8257156e-08
C0AK10,太平里,2025-03-24,25.134937,121.364899,1.1160101e-06
C2G640,鹿港,2025-03-24,24.0753,120.430481,2.6283393e-08
C1E890,國三N149K,2025-03-24,24.463414,120.680019,6.080841e-07
C1R110,口社,2025-03-24,22.770111,120.645222,1.4586693e-09
C1M870,國三N285K,2025-03-24,23.550319,120.505833,2.4596052e-09
467050,新屋,2025-03-24,25.006744,121.047486,0.25405577
C1E480,鳳美,2025-03-24,24.554803,121.034747,9.18026e-09
C0M530,奮起湖,2025-03-24,23.493903,120.699253,1.0475471e-08
C0C590,觀音,2025-03-24,25.027072,121.153317,0.033467468
C0T9M0,靜浦,2025-03-24,23.455167,121.495028,4.9689937e-09
C2H9M0,發祥,2025-03-24,24.154094,121.164517,2.1696263e-08
C0AI40,石牌,2025-03-24,25.115597,121.513139,1.7157332e-08
C1F871,上谷關,2025-03-24,24.203483,121.018644,5.0109374e-09
C2H9G0,百勝,2025-03-24,24.051142,120.909361,2.965956e-09
C0G880,二水,2025-03-24,23.810742,120.6173,2.4817013e-09
C0R940,加祿堂,2025-03-24,22.3363,120.6217,4.729319e-08
C0W220,北竿,2025-03-24,26.220358,119.974881,6.4762446e-08
C0O960,崎頂,2025-03-24,22.959547,120.369317,1.9300435e-09
C0S750,向陽,2025-03-24,23.248397,120.986133,1.7671535e-08
C0T9F0,水璉,2025-03-24,23.797131,121.542514,9.953757e-09
C1M600,頭凍,2025-03-24,23.406364,120.603339,8.92947e-09
467660,臺東,2025-03-24,22.752211,121.154586,9.0702965e-09
C1D380,新埔,2025-03-24,24.84745,121.03834,0.13401368
C2G980,田頭村,2025-03-24,23.8263,120.444175,8.143287e-09
C0V750,路竹,2025-03-24,22.854997,120.259439,1.8588324e-09
C0N050,蚵寮,2025-03-24,23.301,120.1104,5.8649228e-08
72M700,南改鹿草分場,2025-03-24,23.416869,120.283061,1.9704435e-08
C1SA50,利嘉林道,2025-03-24,22.82325,121.009389,1.36744776e-08
467550,玉山,2025-03-24,23.487614,120.959522,5.6608478e-08
C0UB70,太平山中間站,2025-03-24,24.542003,121.513453,1.4829696e-08
C0A940,金山,2025-03-24,25.223628,121.643967,2.362233e-08
C1V340,大津,2025-03-24,22.888322,120.645986,2.0961535e-09
C0W180,七美,2025-03-24,23.219333,119.444892,0.95153064
C1F9C1,白冷,2025-03-24,24.182844,120.929889,1.9362636e-09
K2E710,苗改生物防治研究中心,2025-03-24,24.422861,120.871833,1.0256763e-08
C0N040,蘆竹溝,2025-03-24,23.2344,120.0961,7.9008515e-08
C0D760,大坪苗圃,2025-03-24,24.5362,121.1108,1.3165625e-08
C2W230,畜試所澎湖,2025-03-24,23.628342,119.513206,0.8516241
C0R880,後壁湖,2025-03-24,21.9457,120.7457,0.95498204
C1I280,埔中,2025-03-24,23.820778,120.642594,1.8824056e-09
467790,墾丁雷達站,2025-03-24,21.948235,120.808028,0.10830175
C0W190,望安,2025-03-24,23.380564,119.494075,0.8048567
466881,新北,2025-03-24,24.9593,121.52,0.34975687
C0Z170,卓溪,2025-03-24,23.3443,121.3029,7.493439e-09
C0F850,東勢,2025-03-24,24.246428,120.833047,1.7795592e-09
466900,淡水,2025-03-24,25.164889,121.448906,1.1160101e-06
C0I370,魚池,2025-03-24,23.895703,120.94135,2.9519032e-09
C0C630,大溪,2025-03-24,24.882853,121.265547,1.0845757e-06
C0A520,山佳,2025-03-24,24.974944,121.402008,6.777344e-08
C0I110,竹山,2025-03-24,23.761225,120.688156,2.5563311e-09
82H840,茶改南部分場,2025-03-24,23.762528,120.7405,1.807135e-09
C0G660,溪湖,2025-03-24,23.94835,120.479122,6.715512e-09
C1T800,洛韶,2025-03-24,24.204558,121.453956,3.353014e-08
C1T810,慈恩,2025-03-24,24.192044,121.388386,1.3738999e-08
C1E451,象鼻,2025-03-24,24.368617,120.940228,5.424495e-09
C0AC60,三峽,2025-03-24,24.939025,121.369728,1.7068203e-05
C0I490,萬大林道,2025-03-24,23.928228,121.091411,9.364628e-09
C1I290,豐丘,2025-03-24,23.668178,120.887417,9.914421e-09
C1I320,奧萬大,2025-03-24,23.952956,121.178556,6.7929102e-09
C2M910,嘉義大學,2025-03-24,23.471325,120.485903,2.0425914e-09
C0U770,南澳,2025-03-24,24.44935,121.81022,7.3342337e-09
C0A980,社子,2025-03-24,25.109508,121.469681,1.2526224e-06
C0V800,六龜,2025-03-24,22.997889,120.633583,3.0361236e-09
C1G9D0,國一S218K,2025-03-24,23.890641,120.493253,8.774732e-09
C0E570,白沙屯,2025-03-24,24.549447,120.696803,0.84761786
C2F9A0,中竹林,2025-03-24,24.103556,120.751061,1.4286075e-09
C0FA40,臺中電廠,2025-03-24,24.2146,120.4907,2.710568e-07
C2G9A0,畜試所彰化,2025-03-24,23.86045,120.557964,4.4285517e-09
C0H9C0,合歡山,2025-03-24,24.143442,121.272547,4.0519424e-08
C0X060,下營,2025-03-24,23.22695,120.256261,1.5408381e-09
G2M350,農試溪口農場,2025-03-24,23.58565,120.408111,7.973621e-09
C0U860,頭城,2025-03-24,24.85323,121.8308,4.476782e-09
C0R580,南州,2025-03-24,22.48591,120.50274,6.6629174e-10
C0D430,峨眉,2025-03-24,24.6905,121.017189,8.162057e-07
C0G780,秀水,2025-03-24,24.03405,120.503869,5.5199956e-09
72N100,臺南農改場,2025-03-24,23.0605,120.342194,8.643648e-10
C0S900,蘭嶼高中,2025-03-24,22.04909,121.51214,0.99411994
467540,大武,2025-03-24,22.355675,120.903789,2.603483e-05
C1F9W0,德基,2025-03-24,24.254783,121.190261,1.9477955e-08
C1Z120,壽豐,2025-03-24,23.870853,121.508081,7.890156e-09
C0W160,烏坵,2025-03-24,24.9944,119.44956,4.2708973e-07
C1I240,外大坪,2025-03-24,23.958697,120.917931,4.679812e-09
C1I550,國六W023K,2025-03-24,23.979067,120.867742,1.8173907e-09
C0R870,興海,2025-03-24,21.9752,120.8439,0.2855022
C0R140,瑪家,2025-03-24,22.682903,120.686639,2.4525313e-09
C0A530,坪林,2025-03-24,24.938183,121.70975,1.1926568e-08
C0X260,後壁,2025-03-24,23.366358,120.362326,1.9466582e-09
C0Z230,和平,2025-03-24,24.30717,121.77007,2.1874772e-08
C0G770,福興,2025-03-24,24.041289,120.437669,3.9009986e-08
C0H9A0,神木村,2025-03-24,23.532742,120.843667,2.4243203e-08
C0I460,南投,2025-03-24,23.911469,120.687331,2.1307516e-09
C0I480,梅峰,2025-03-24,24.085272,121.173572,1.9020291e-08
C1V570,吉東,2025-03-24,22.85422,120.5454,2.4529991e-09
C2D740,屯原,2025-03-24,24.067969,121.209389,1.7666075e-08
C2A560,福山,2025-03-24,24.776203,121.502811,1.6171557e-08
C0AH30,五分山,2025-03-24,25.07125,121.780794,2.739904e-08
C0FA10,松柏,2025-03-24,24.429115,120.617482,8.6293636e-07
72S200,東改班鳩分場,2025-03-24,22.829528,121.077694,4.2851993e-09
72HA00,中改埔里分場,2025-03-24,23.903208,120.963364,3.0450373e-09
C2H9W0,大坪頂農水,2025-03-24,24.043122,120.932781,4.2399146e-09
C0C650,平鎮,2025-03-24,24.897503,121.214636,1.8441043e-06
C0S930,延平,2025-03-24,22.902581,121.084058,3.9104875e-09
C0UA60,樟樹山,2025-03-24,24.41393,121.78325,1.6724181e-08
C1S670,摩天,2025-03-24,23.199503,121.027,4.4208488e-08
C0V630,茄萣,2025-03-24,22.906642,120.182608,1.9166497e-09
466940,基隆,2025-03-24,25.133314,121.740475,2.0088459e-07
C0X050,東河,2025-03-24,23.296598,120.385608,1.5370604e-09
C0R770,保力,2025-03-24,22.071122,120.764111,1.6550588e-05
G2L020,農試嘉義分所,2025-03-24,23.485028,120.473806,3.453205e-09
C0X240,關子嶺,2025-03-24,23.331169,120.508025,2.3532785e-09
C0I380,集集,2025-03-24,23.828206,120.801467,1.5108224e-09
466990,花蓮,2025-03-24,23.975128,121.613275,2.647514e-08
C1V220,小關山,2025-03-24,23.154217,120.813603,1.0495951e-08
C1F9G1,慶福山,2025-03-24,24.180853,120.848378,3.194637e-09
C0FB20,雪山橋,2025-03-24,24.23192,120.9786,3.269655e-08
C0Z250,瑞穗林道,2025-03-24,23.49284,121.30688,5.52162e-08
C0D590,新豐,2025-03-24,24.87068,120.97721,0.30783638
C0A870,五指山,2025-03-24,25.132153,121.608692,1.8686803e-08
C0UA50,西帽山,2025-03-24,24.555361,121.802628,1.3619061e-08
C0X160,仁德,2025-03-24,22.968258,120.257689,1.3089401e-09
C1H971,六分寮,2025-03-24,23.92507,120.6378,2.9623601e-09
C0W120,西嶼,2025-03-24,23.5626,119.468436,0.8284096
C0G650,員林,2025-03-24,23.946503,120.585597,2.7604123e-09
C0AD50,鶯歌,2025-03-24,24.951533,121.346294,9.6085105e-06
C2H9Q0,北東眼山,2025-03-24,24.120939,121.189303,2.3720894e-08
C2H9T0,名間竹圍,2025-03-24,23.859914,120.637572,1.9147899e-09
C0S990,山豬窟,2025-03-24,22.318619,120.857372,5.416599e-08
72Q010,高雄農改,2025-03-24,22.709333,120.525889,1.2398239e-08
C0X190,安平,2025-03-24,22.993161,120.152181,1.3260528e-09
C0K400,斗六,2025-03-24,23.720583,120.541127,3.8690073e-09
12J990,口湖工作站,2025-03-24,23.589978,120.180394,0.0014386654
C0O830,北寮,2025-03-24,23.079561,120.495008,1.4855819e-09
C1D410,白蘭,2025-03-24,24.579364,121.079947,1.2263125e-08
C0S970,加津林,2025-03-24,22.416211,120.926942,1.3843184e-07
C0D700,關西,2025-03-24,24.7977,121.1732,3.3067496e-07
C0M810,里佳,2025-03-24,23.389125,120.716647,1.1737253e-08
C0U750,龜山島,2025-03-24,24.841667,121.953133,0.00532767
C0R810,內獅,2025-03-24,22.305064,120.642986,4.8401144e-08
C1M390,龍美,2025-03-24,23.406728,120.654417,9.948973e-09
C2FB60,頭櫃山,2025-03-24,24.129842,120.858925,7.986559e-09
C1H840,國三N238K,2025-03-24,23.841008,120.707711,1.7956112e-09
CAQ030,崎峰國小,2025-03-24,22.42565,120.49521,6.6629174e-10
C2E520,大湖,2025-03-24,24.414939,120.870872,1.0341034e-08
467530,阿里山,2025-03-24,23.508208,120.813242,2.9304024e-08
C1E691,南湖,2025-03-24,24.40135,120.837533,6.258292e-09
C0FA30,梧棲,2025-03-24,24.256003,120.523381,4.950063e-07
C1V231,高中,2025-03-24,23.134911,120.716711,4.426787e-09
C0AK30,硬漢嶺,2025-03-24,25.136097,121.426372,1.7431343e-08
C0F9V0,新社,2025-03-24,24.200172,120.815806,1.6707274e-09
C0H890,埔里,2025-03-24,23.972169,120.952425,2.0073794e-09
C0R690,墾丁,2025-03-24,21.966756,120.810269,5.163335e-05
C0F0D0,審馬陣,2025-03-24,24.381675,121.4203,3.0489097e-08
C2W030,金門農試所,2025-03-24,24.448431,118.451786,1.8043187e-08
C0R820,白鷺,2025-03-24,22.454275,120.666219,2.3966509e-09
C0FB00,大雪山,2025-03-24,24.254668,121.007374,3.060148e-08
U2H480,臺大溪頭,2025-03-24,23.670306,120.798194,8.030444e-09
C1V190,南天池,2025-03-24,23.27403,120.91176,1.859681e-08
C0E940,雪見,2025-03-24,24.42595,121.01347,1.8545414e-08
K2E360,苗栗農改場,2025-03-24,24.495722,120.829111,3.2465937e-08
CAJ050,海口故事園區,2025-03-24,23.57543,120.14121,0.0014386654
C2H9D0,三隻寮,2025-03-24,24.093078,120.861578,4.3092308e-09
C0O990,媽廟,2025-03-24,22.99175,120.293525,1.1559798e-09
C0D480,打鐵坑,2025-03-24,24.849664,121.150789,7.2512995e-07
C0Z220,和平林道,2025-03-24,24.343922,121.656317,8.16285e-09
C0TA10,花蓮漁港,2025-03-24,23.995322,121.638331,2.8262631e-08
72C440,桃園農改場,2025-03-24,24.950944,121.030583,0.45797265
C1E711,馬拉邦山,2025-03-24,24.367306,120.901656,5.596431e-09
C0SB20,富岡,2025-03-24,22.792467,121.192669,3.9034527e-09
C0D560,竹東,2025-03-24,24.767147,121.057881,3.5027307e-07
C0F9U0,南屯,2025-03-24,24.137006,120.637969,4.437692e-09
C0M720,番路,2025-03-24,23.464657,120.554156,2.198393e-09
C0F0A0,雪山圈谷,2025-03-24,24.388594,121.236339,3.9678454e-08
C1A9N0,四十份,2025-03-24,24.934158,121.593283,2.9582399e-08
C0U760,東澳,2025-03-24,24.52196,121.83318,4.9637836e-09
C0X230,鹽水,2025-03-24,23.272621,120.247641,5.1435656e-08
C2H9H0,苗改南投蜂場,2025-03-24,23.852589,120.693481,2.5883595e-09
C0R950,萬隆國小,2025-03-24,22.507667,120.587817,6.968402e-10
467540,大武,2025-03-24,22.35572,120.90374,1.5556415e-07
C0V370,古亭坑,2025-03-24,22.893178,120.401947,1.1528575e-09
C1I340,新興橋,2025-03-24,23.563333,120.868728,6.7726504e-09
C0SA80,土坂,2025-03-24,22.453108,120.887572,2.4797105e-08
C0R160,鹽埔,2025-03-24,22.739558,120.530778,1.7946388e-09
C0AC40,大屯山,2025-03-24,25.175675,121.522408,4.28021e-08
466850,五分山雷達站,2025-03-24,25.071182,121.781205,2.7492849e-08
C2H9L0,馬烈霸,2025-03-24,24.1512,121.201772,2.3531493e-08
C1AI50,國三N016K,2025-03-24,25.034164,121.619664,9.029284e-09
C1V600,藤枝,2025-03-24,23.071961,120.757042,8.243396e-09
C1E601,南勢,2025-03-24,24.572486,120.734842,0.12911895
C0Z180,新城,2025-03-24,24.03946,121.60454,2.5152366e-08
C0O980,新市,2025-03-24,23.061614,120.298197,8.5894303e-10
C0K420,西螺,2025-03-24,23.800407,120.467394,8.136254e-09
C0Z050,佳心,2025-03-24,23.34567,121.21316,3.5699387e-08
C0AD30,蘆洲,2025-03-24,25.086594,121.472331,9.331322e-09
C0V610,梓官,2025-03-24,22.760558,120.267211,7.443634e-10
K2F750,種苗改良場,2025-03-24,24.225972,120.800917,1.5362895e-09
C0UA80,大溪漁港,2025-03-24,24.941801,121.902955,1.3917133e-08
C1AI60,國一39K邊坡,2025-03-24,25.064361,121.383836,8.552803e-08
C0W150,金寧,2025-03-24,24.457703,118.328989,1.7861435e-08
C0R960,內埔,2025-03-24,22.608483,120.570714,1.1125794e-09
V2C250,八德合作社,2025-03-24,24.93775,121.266389,3.1342229e-06
C2H9S0,龍南,2025-03-24,23.953536,120.833183,4.6740314e-09
C0AH40,平等,2025-03-24,25.129142,121.577086,1.495168e-08
C0R540,佳冬,2025-03-24,22.419456,120.552375,1.155378e-09
466950,彭佳嶼,2025-03-24,25.627975,122.079744,0.9948808
C0A890,雙溪,2025-03-24,25.036003,121.864242,5.2206133e-06
C0C480,桃園,2025-03-24,24.992425,121.323172,1.7564531e-07
C0AH50,林口,2025-03-24,25.072181,121.38084,9.02438e-08
A2K360,水試臺西試驗場,2025-03-24,23.717231,120.190522,4.6828063e-06
B2N890,畜試所,2025-03-24,23.058972,120.336406,0.18747711
C2M960,外寮,2025-03-24,23.562643,120.665688,7.618372e-09
C0F9S0,烏日,2025-03-24,24.107058,120.624103,2.0104753e-09
C0C490,八德,2025-03-24,24.928708,121.283289,3.0310882e-06
C0R190,赤山,2025-03-24,22.592333,120.614306,1.1213033e-09
C0T820,天祥,2025-03-24,24.179597,121.495639,4.985172e-08
C1F9E1,龍安,2025-03-24,24.1605,120.831961,1.6614545e-09
C0V820,小林,2025-03-24,23.148408,120.63325,2.2583782e-09
C2G870,芳苑,2025-03-24,23.922303,120.320025,0.00035728663
C0E850,大河,2025-03-24,24.618069,120.948578,4.5131696e-08
C1U670,寒溪,2025-03-24,24.634,121.71691,1.8676496e-09
C0N020,城西,2025-03-24,23.0568,120.0956,1.3260528e-09
C1Z110,三棧,2025-03-24,24.11557,121.60501,4.4778258e-08
C0R280,檳榔,2025-03-24,22.076078,120.836777,1.4016572e-07
C2H9J0,中台,2025-03-24,23.9996,120.938739,3.1668512e-09
C0F9L0,后里,2025-03-24,24.310436,120.729725,2.3204119e-09
467441,高雄,2025-03-24,22.730432,120.312516,7.3864537e-10
C0Z180,新城,2025-03-24,24.040486,121.604878,2.510798e-08
C0D540,橫山,2025-03-24,24.71116,121.11693,3.657568e-08
C1D420,太閣南,2025-03-24,24.632808,121.160575,1.9540098e-08
C1E770,公館,2025-03-24,24.526914,120.830806,3.4309117e-08
CAN130,水試所海水繁養殖中心,2025-03-24,23.120802,120.07968,4.9546634e-07
C1I430,翠華,2025-03-24,24.191961,121.224339,2.0871342e-08
C1M400,菜瓜坪,2025-03-24,23.251928,120.576103,3.586665e-09
C0G730,二林,2025-03-24,23.903325,120.376081,6.3481366e-08
72M360,南改義竹分場,2025-03-24,23.360694,120.279361,3.962944e-08
V2K620,麥寮合作社,2025-03-24,23.753836,120.294783,1.01429745e-08
C0Z070,舞鶴,2025-03-24,23.46811,121.37407,5.3131672e-09
C0B040,大武崙,2025-03-24,25.166676,121.706993,1.6049373e-07
C1Z030,紅葉,2025-03-24,23.493119,121.338806,5.4989786e-09
C1I050,丹大,2025-03-24,23.753747,121.141147,1.907144e-08
C0I080,信義,2025-03-24,23.689694,120.851036,6.0555028e-09
C0D750,樂山林道6k,2025-03-24,24.49999,121.08773,2.1748177e-08
C2M920,朴子農改,2025-03-24,23.469889,120.259383,1.9683476e-08
C2A880,福隆,2025-03-24,25.017842,121.942083,2.4945349e-08
C0Z160,鳳林,2025-03-24,23.746114,121.453411,1.3026619e-08
C0UB80,翠峰林道6K,2025-03-24,24.49773,121.568625,2.9759818e-08
C0V210,復興,2025-03-24,23.222403,120.806089,4.6552677e-09
C0H990,昆陽,2025-03-24,24.121322,121.273642,2.9160619e-08
C0R741,獅子,2025-03-24,22.202308,120.705236,1.2766932e-07
C0S710,鹿野,2025-03-24,22.917711,121.122994,5.212608e-09
C0I530,小奇萊,2025-03-24,24.131764,121.295717,3.0220974e-08
C0FA70,大雪山埡口,2025-03-24,24.26867,121.03062,3.6231636e-08
C2K630,荷苞,2025-03-24,23.657717,120.595144,1.758461e-09
C0Z080,富源,2025-03-24,23.587642,121.378225,2.3422905e-08
467441,高雄,2025-03-24,22.7304,120.3125,0.99869365
C0SB10,美和,2025-03-24,22.682078,121.060236,1.6464615e-08
C2K620,馬光農場,2025-03-24,23.721453,120.378864,9.774573e-09
C1I140,卡奈托灣,2025-03-24,23.754364,121.087872,1.084372e-08
C0I520,玉山風口,2025-03-24,23.470489,120.955994,4.2169553e-08
C1G691,下水埔,2025-03-24,23.816114,120.5676,4.189423e-09
C0X110,臺南市南區,2025-03-24,22.961189,120.188378,1.3089426e-09
C0V680,仁武,2025-03-24,22.701083,120.347722,1.2345422e-09
C2G840,北斗,2025-03-24,23.877586,120.514222,8.595942e-09
C0R900,竹坑,2025-03-24,22.1385,120.7022,0.20146155
C0K250,崙背,2025-03-24,23.75555,120.318925,1.01429745e-08
C0G860,社頭,2025-03-24,23.897647,120.5862,4.5289568e-09
C0X150,安定,2025-03-24,23.102614,120.227839,1.1952181e-09
C0R590,里港,2025-03-24,22.77919,120.49459,1.9273727e-09
C0E610,馬都安,2025-03-24,24.451272,120.930192,6.471673e-09
C0E550,明德,2025-03-24,24.583486,120.885411,7.7261646e-08
C0R150,三地門,2025-03-24,22.709889,120.639944,1.4688317e-09
C0G910,花壇,2025-03-24,24.032076,120.549461,5.3069282e-09
C1D400,鳥嘴山,2025-03-24,24.71909,121.28387,2.5694918e-08
C0K500,元長,2025-03-24,23.64981,120.315024,1.7225043e-08
C0F0B0,石岡,2025-03-24,24.276061,120.777644,2.3826854e-09
C2V250,甲仙,2025-03-24,23.080106,120.591758,1.6206748e-09
C0SA20,金崙山,2025-03-24,22.567419,120.959667,1.4070928e-08
C0V350,溪埔,2025-03-24,22.738578,120.446797,1.7712559e-09
C0M660,溪口,2025-03-24,23.604131,120.403569,7.973621e-09
C1S880,壽卡,2025-03-24,22.238911,120.858903,5.5656486e-08
72D680,桃改新埔分場,2025-03-24,24.834444,121.066111,0.15280314
