站號,站名,日期,lat,lon,BLBTSLS
C0R710,龍磐,2026-01-05,21.931672,120.838942,0.99547064
C1F9D1,白毛台,2026-01-05,24.158325,120.886933,6.123682e-09
C0G940,竹塘,2026-01-05,23.848253,120.386764,1.4777685e-08
467590,恆春,2026-01-05,22.003897,120.746339,0.8607776
C1O850,環湖,2026-01-05,23.148617,120.418633,3.491299e-09
C0U710,太平山,2026-01-05,24.505486,121.525656,5.099792e-08
C0E820,獅潭,2026-01-05,24.539133,120.920042,0.8696349
C2SD70,二層坪,2026-01-05,22.94105,121.16838,3.0115443e-06
C0V880,興達,2026-01-05,22.8778,120.2127,0.9972718
C0S890,關山,2026-01-05,23.0395,121.175017,2.4392662e-06
C0SB30,新蘭,2026-01-05,22.869214,121.223228,0.0016046781
C2R970,屏科大,2026-01-05,22.648275,120.619247,2.3037302e-08
C1Z130,銅門,2026-01-05,23.965694,121.492842,7.039733e-08
C0AD40,土城,2026-01-05,24.973208,121.445169,7.954247e-07
CAN140,六官養殖協會,2026-01-05,23.22881,120.29962,0.98763543
C0X180,山上,2026-01-05,23.0757,120.363253,0.96525633
C0F9Z0,雪山東峰,2026-01-05,24.388792,121.268675,6.354764e-08
C1M480,獨立山,2026-01-05,23.537022,120.607797,2.456923e-09
C0X220,學甲,2026-01-05,23.230367,120.182187,0.9877493
467650,日月潭,2026-01-05,23.881325,120.90805,5.3976814e-09
C0K600,箔子寮,2026-01-05,23.6197,120.14,0.97392696
C0G830,埤頭,2026-01-05,23.866003,120.452806,1.385056e-08
C0S950,七塊厝,2026-01-05,22.954453,121.229922,2.5929694e-07
467110,金門,2026-01-05,24.407306,118.289281,0.98239493
C0AH80,深坑,2026-01-05,25.002703,121.628328,5.3270367e-07
C0A970,三貂角,2026-01-05,25.007606,122.002058,3.749104e-07
C2D730,寶山農場,2026-01-05,24.732444,120.976153,0.99904627
C0K430,褒忠,2026-01-05,23.690938,120.303634,0.23966292
467480,嘉義,2026-01-05,23.495925,120.432906,3.8370684e-09
C0V400,阿公店,2026-01-05,22.804194,120.355528,0.99741113
C0E960,觀霧分站,2026-01-05,24.505781,121.113921,3.792208e-08
467550,玉山,2026-01-05,23.48718,120.95943,6.200278e-08
C0R440,大漢山,2026-01-05,22.405264,120.753181,2.0339773e-08
C0SD30,東清國小,2026-01-05,22.057128,121.564922,0.8482104
C1F9B1,桐林,2026-01-05,24.066172,120.735194,6.807765e-08
C2H9U0,鳳鵬,2026-01-05,23.763919,120.788061,2.0063764e-09
C0K390,土庫,2026-01-05,23.679029,120.395574,1.4065615e-08
C1I450,望鄉山,2026-01-05,23.594153,120.944286,4.083808e-08
C0E910,海埔,2026-01-05,24.648767,120.772435,0.9998104
B2E890,畜試北區分所,2026-01-05,24.527806,120.770972,0.9988113
C0R750,四林格山,2026-01-05,22.076989,120.802439,0.99991786
C0F0C0,中坑,2026-01-05,24.248517,120.903319,8.0496125e-09
C1I121,大鞍,2026-01-05,23.678381,120.760017,8.977252e-09
C2G9E0,移民庄,2026-01-05,23.9784,120.40283,0.96736574
72U480,花改蘭陽分場,2026-01-05,24.686306,121.716583,6.50859e-08
C0A770,科教館,2026-01-05,25.096356,121.516507,8.872521e-07
C0AJ60,六塊厝,2026-01-05,25.24,121.4481,0.9998792
C0R620,墾雷,2026-01-05,21.900836,120.855269,0.9336337
467420,永康,2026-01-05,23.038386,120.2367,0.995961
C2M530,奮起湖,2026-01-05,23.493903,120.699253,7.344985e-09
C0I410,名間,2026-01-05,23.837053,120.701447,2.252764e-09
A2C560,農工中心,2026-01-05,24.985917,121.239833,0.9991086
C0V740,旗山,2026-01-05,22.888614,120.483597,2.0330077e-08
C0Z061,玉里,2026-01-05,23.3215,121.339656,1.2966548e-07
C0S840,南田,2026-01-05,22.279725,120.889208,0.99950665
C1I470,杉林溪,2026-01-05,23.639517,120.786444,1.1037386e-08
C1X040,東原,2026-01-05,23.291597,120.463822,1.7595682e-09
C0R660,枋寮,2026-01-05,22.367722,120.590647,0.34312204
C1R120,上德文,2026-01-05,22.763272,120.704442,4.4100834e-09
C0K450,大埤,2026-01-05,23.646074,120.431537,1.34224765e-08
C0UA00,土場,2026-01-05,24.576533,121.495333,4.2024865e-08
467080,宜蘭,2026-01-05,24.763975,121.756528,6.8686745e-08
C0N030,四草,2026-01-05,23.0235,120.1116,0.997792
467410,臺南,2026-01-05,22.99328,120.20492,0.99471235
C0V650,彌陀,2026-01-05,22.783806,120.246361,0.9990239
C0D660,新竹市東區,2026-01-05,24.798681,120.986942,0.99985677
82S580,茶改東部分場,2026-01-05,22.907694,121.130139,4.506423e-06
C0SB40,興隆,2026-01-05,22.913661,121.257469,0.00058295863
467050,新屋,2026-01-05,25.006725,121.047492,0.9999295
C0C710,大溪永福,2026-01-05,24.892936,121.324975,0.99771285
C0FA20,溫寮,2026-01-05,24.372177,120.583125,0.99945354
C0V640,湖內,2026-01-05,22.887139,120.2445,0.99587095
C0R910,下寮,2026-01-05,22.3929,120.5548,0.36467722
C0Z020,明里,2026-01-05,23.208717,121.262342,9.9867535e-08
C0M770,嘉義梅山,2026-01-05,23.585398,120.555587,2.011814e-09
C0C660,楊梅,2026-01-05,24.912375,121.143047,0.991586
C0SD40,牛頭山,2026-01-05,22.676661,121.506944,0.99937445
C1E511,新開,2026-01-05,24.347703,120.827019,4.3528743e-07
G2F820,農試所(霧峰),2026-01-05,24.031261,120.688133,2.1051036e-07
C2M990,大巃頂,2026-01-05,23.5547,120.61439,3.7528114e-09
C1I070,和社,2026-01-05,23.591131,120.888861,3.4072047e-09
C2E990,新坪頂,2026-01-05,24.30201,120.8574,4.211072e-08
C0TA80,立霧山,2026-01-05,24.183258,121.641899,4.5645756e-08
C2F000,大肚,2026-01-05,24.15295,120.572117,0.94405884
C1S850,豐南,2026-01-05,23.122139,121.262389,1.7470295e-07
C2M9B0,西興,2026-01-05,23.2428,120.57617,1.4955523e-09
C2A920,富貴角,2026-01-05,25.263783,121.565258,0.7459235
CAH030,茶改場竹圍站,2026-01-05,23.860083,120.637528,2.009448e-09
C0T960,光復,2026-01-05,23.660694,121.424964,8.367435e-08
C0F9M0,豐原,2026-01-05,24.254322,120.720692,1.2303783e-05
C0R720,旭海,2026-01-05,22.205403,120.887614,0.9998951
C0V710,苓雅,2026-01-05,22.622742,120.330669,0.9987106
C0C740,觀音工業區,2026-01-05,25.064764,121.114856,0.9999398
CAC040,拉拉山,2026-01-05,24.699317,121.427133,5.8176944e-08
C0V790,萬山,2026-01-05,22.905944,120.688056,2.8568619e-09
U2HA30,臺大和社,2026-01-05,23.590856,120.888864,3.4072047e-09
C2H9K0,屯原,2026-01-05,24.067969,121.209389,2.48157e-08
C0AJ90,澳底,2026-01-05,25.0552,121.9253,9.0366063e-07
C0Z100,東華,2026-01-05,23.89525,121.549833,1.15911256e-07
C0G970,三豐,2026-01-05,23.882,120.2895,0.35217756
V2K610,大庄合作社,2026-01-05,23.8068,120.367939,0.21453665
C0V900,汕尾,2026-01-05,22.4782,120.4151,0.39936295
C1R630,龍泉,2026-01-05,22.66701,120.59091,9.9136486e-08
C1AC50,關渡,2026-01-05,25.133486,121.469331,0.9974114
C0C800,四稜,2026-01-05,24.64733,121.4293,5.198135e-08
C0F9I0,神岡,2026-01-05,24.272481,120.658314,5.07687e-05
C0K460,斗南,2026-01-05,23.678734,120.478359,1.2002904e-08
C2O810,曾文,2026-01-05,23.219681,120.497328,2.082723e-09
467280,後龍,2026-01-05,24.648563,120.831834,0.9996327
C1F9J1,清水林,2026-01-05,24.071242,120.820419,5.256709e-09
C2A650,火燒寮,2026-01-05,25.002719,121.742892,1.2062961e-07
466930,竹子湖,2026-01-05,25.162078,121.544547,9.783453e-07
C1I220,樟湖,2026-01-05,23.905333,120.846983,6.427351e-09
C0I390,仁愛,2026-01-05,24.022122,121.132206,6.7265753e-09
C0Z300,東里,2026-01-05,23.26853,121.30547,1.2251137e-07
C1V590,新發,2026-01-05,23.057019,120.646064,3.6135617e-09
C0K510,水林,2026-01-05,23.572924,120.24597,0.9648466
72S590,東改賓朗果園,2026-01-05,22.813889,121.071278,0.0006434268
82A750,茶改北部分場,2026-01-05,24.955778,121.631222,7.551134e-08
C1A750,石碇服務區,2026-01-05,25.00872,121.646242,4.1687292e-07
C0X300,鹿寮,2026-01-05,23.386047,120.477331,2.894764e-09
G2AI50,關渡,2026-01-05,25.11575,121.492,9.415322e-07
C0K590,雲林東勢,2026-01-05,23.674192,120.255721,0.23208211
C2K310,港尾布雞,2026-01-05,23.74834,120.38439,1.47590375e-08
C0A570,桶後,2026-01-05,24.848222,121.597992,6.940486e-08
C1S800,華源,2026-01-05,22.657883,121.02325,0.99329466
C0G720,溪州,2026-01-05,23.851589,120.499093,1.1595355e-08
C1V160,達卡努瓦,2026-01-05,23.279811,120.705319,4.5801145e-09
C2M410,馬頭山,2026-01-05,23.324361,120.582017,1.5398745e-09
C0V850,蚵仔寮,2026-01-05,22.7256,120.2527,0.99914783
C0S740,池上,2026-01-05,23.119628,121.209469,8.5365673e-07
C1V390,尖山,2026-01-05,22.813153,120.367789,0.99445933
C0AH70,松山,2026-01-05,25.04871,121.55042,8.188066e-07
C0N010,鯤鯓國小,2026-01-05,23.1879,120.0889,0.9915149
C0R550,新埤,2026-01-05,22.467947,120.582894,0.097335435
C0SA60,知本（水試所）,2026-01-05,22.702394,121.082761,0.9997995
C0T9I0,豐濱,2026-01-05,23.583897,121.514806,7.976621e-08
C0UB00,淡江大學蘭陽校園,2026-01-05,24.823239,121.730383,3.606891e-08
C0W240,九宮,2026-01-05,24.423753,118.240186,9.090182e-08
C0T9N0,富里,2026-01-05,23.171639,121.249378,9.1537565e-08
U2HA50,臺大竹山,2026-01-05,23.756972,120.681556,2.298778e-09
C0V840,鳳鼻頭,2026-01-05,22.5083,120.3591,0.366251
C0X140,西港,2026-01-05,23.125608,120.203108,0.98757607
72D080,桃改五峰分場,2026-01-05,24.612194,121.157167,2.167211e-08
C2H9P0,伊拿谷,2026-01-05,23.963211,121.088264,4.5371014e-09
C2K250,崙背,2026-01-05,23.75553,120.31893,0.23555933
C2H9F0,柑林,2026-01-05,24.018658,120.847072,1.1555504e-08
C0TA20,加灣,2026-01-05,24.082025,121.608944,1.9725479e-07
C0V530,阿蓮,2026-01-05,22.883208,120.327508,0.9914612
C0FB30,八仙山苗圃,2026-01-05,24.192719,121.001366,7.8139255e-09
C1O880,關山,2026-01-05,23.173397,120.594092,1.5464204e-09
C0E791,卓蘭,2026-01-05,24.3126,120.8244,3.1596497e-07
C1I030,武界,2026-01-05,23.913225,121.052483,4.7561564e-09
C0R520,崁頂,2026-01-05,22.514781,120.506914,0.2568585
C0R341,牡丹,2026-01-05,22.130036,120.792639,0.29643145
C0R930,萬丹,2026-01-05,22.5885,120.4851,0.134517
C0S760,紅石,2026-01-05,23.069131,121.126219,2.4397673e-08
C2C410,中央大學,2026-01-05,24.967652,121.185165,0.9984755
C1M610,石磐龍,2026-01-05,23.496606,120.663506,5.38679e-09
C0C790,東眼山,2026-01-05,24.8284,121.40888,5.129908e-08
C0UA10,鴛鴦湖,2026-01-05,24.590269,121.412228,4.7888285e-08
V2C260,八德蔬果,2026-01-05,24.978508,121.281819,0.99928236
C0R800,丹路,2026-01-05,22.204481,120.750989,0.99958915
C0G920,永靖,2026-01-05,23.924703,120.547533,0.89317554
C2M950,太和,2026-01-05,23.538372,120.702961,7.2664506e-09
C1A630,下盆,2026-01-05,24.771003,121.538622,5.5619765e-08
B2N890,畜產試驗所,2026-01-05,23.058972,120.336406,0.9905326
C0UA30,白嶺,2026-01-05,24.527819,121.519031,4.3056012e-08
C1V580,溪南(特生中心),2026-01-05,23.084972,120.788475,1.136022e-08
C1T970,大農,2026-01-05,23.615233,121.413331,6.974285e-08
C0R650,竹田,2026-01-05,22.58486,120.54344,0.15037556
C1H900,清流,2026-01-05,24.080775,120.962997,4.543787e-09
C1C510,水尾,2026-01-05,24.940081,121.087161,0.99968535
C2N170,茅港尾,2026-01-05,23.2061,120.2624,0.9912143
C0F9X0,大雅(中科園區),2026-01-05,24.21528,120.62445,0.9927445
C0SB60,白守蓮,2026-01-05,23.126769,121.401914,0.9998907
C0O970,虎頭埤,2026-01-05,23.021375,120.347878,0.9635008
C0C730,中大臨海站,2026-01-05,24.966126,121.008581,0.99994355
C0X250,新營,2026-01-05,23.310689,120.316681,0.9843586
C0V700,三民,2026-01-05,22.645017,120.311233,0.9987106
C0U870,大礁溪,2026-01-05,24.791042,121.675047,3.3860413e-08
C0E870,高鐵苗栗,2026-01-05,24.60725,120.826094,0.9996973
A2K570,古坑花卉中心,2026-01-05,23.63353,120.55239,6.337089e-09
C0TA30,鹽寮,2026-01-05,23.845606,121.592664,1.2267328e-07
C0M860,新美,2026-01-05,23.338017,120.683169,2.246075e-09
C1E701,八卦,2026-01-05,24.491756,120.927619,2.7784369e-08
C2TA90,加納納,2026-01-05,23.466421,121.359867,6.405093e-08
C0I420,國姓,2026-01-05,24.037803,120.855072,9.278842e-09
C2D720,關西工作站,2026-01-05,24.757275,121.184792,3.1647613e-07
C0S960,香蘭,2026-01-05,22.587569,120.993375,0.9997837
467620,蘭嶼,2026-01-05,22.0369,121.55843,0.9852628
C0R260,春日,2026-01-05,22.370361,120.628306,0.008929337
72G600,臺中農改場,2026-01-05,24.003028,120.534389,0.95571274
C0Z210,瑞穗,2026-01-05,23.5239,121.39021,8.571289e-08
C0M820,達邦,2026-01-05,23.453994,120.749517,4.3696757e-09
C0V860,南寮,2026-01-05,22.7616,120.2339,0.9991638
C0G740,大城,2026-01-05,23.852487,120.320935,0.23555933
C0R920,塭仔,2026-01-05,22.4169,120.5197,0.39936295
C0R470,高樹,2026-01-05,22.826389,120.600806,4.199986e-08
C0R680,佳樂水,2026-01-05,21.993578,120.861633,0.8312563
C1O870,大棟山,2026-01-05,23.31157,120.52226,4.5620148e-09
C0D360,梅花,2026-01-05,24.678347,121.208558,7.2190566e-08
C0Z190,富世,2026-01-05,24.14743,121.6297,0.00019504456
C0AI10,屈尺,2026-01-05,24.92184,121.54475,5.683464e-07
B2U990,畜試東區分所,2026-01-05,24.669039,121.832561,7.078631e-08
C0SB80,長濱漁港,2026-01-05,23.313644,121.459994,0.9998715
C0TA50,和仁,2026-01-05,24.241394,121.712472,0.0007258592
C0V910,大樹,2026-01-05,22.684645,120.432803,2.4390584e-07
C1R610,西大武山,2026-01-05,22.617719,120.7322,2.0962265e-08
C0G900,線西,2026-01-05,24.143358,120.443536,0.9994532
C0M700,竹崎,2026-01-05,23.526178,120.555508,2.113545e-09
C2E880,三義,2026-01-05,24.405478,120.749819,1.917276e-06
C0C720,竹圍,2026-01-05,25.112692,121.239824,0.9999411
C0F9P0,清水,2026-01-05,24.312297,120.562242,0.9994184
C0Z150,吉安光華,2026-01-05,23.930925,121.595153,1.2674938e-07
C0FA80,小雪山天池,2026-01-05,24.28025,121.02627,3.7045453e-08
467300,東吉島,2026-01-05,23.25727,119.66762,0.9990977
C1D640,外坪(五指山),2026-01-05,24.644447,121.090961,3.2536335e-07
C2R9A0,高士國小,2026-01-05,22.12553,120.84653,0.9866904
C0F9O0,潭子,2026-01-05,24.213106,120.703933,8.694399e-05
C2H9R0,卓社,2026-01-05,23.887894,121.000086,8.260599e-09
72T250,花蓮農改場,2026-01-05,23.975222,121.563889,1.1484898e-07
C0E780,銅鑼,2026-01-05,24.489681,120.790853,0.9837983
C1T950,太安,2026-01-05,23.666719,121.370128,1.7173408e-08
C0E830,苑裡,2026-01-05,24.439714,120.653053,0.9997182
467270,田中,2026-01-05,23.873803,120.581286,1.0859471e-08
C0SA10,檳榔四格山,2026-01-05,22.810031,121.109308,3.1426807e-05
C1T830,布洛灣,2026-01-05,24.17184,121.57127,7.507662e-08
C0F970,大坑,2026-01-05,24.173142,120.722289,0.0009239036
C1U920,思源,2026-01-05,24.393125,121.347214,3.726607e-08
C2H9Y0,松茗,2026-01-05,23.8167,120.650765,2.080333e-09
C0A931,三和,2026-01-05,25.233153,121.595236,0.1281116
C0I010,廬山,2026-01-05,24.033311,121.181808,1.692965e-08
C2M940,日野賀,2026-01-05,23.434056,120.727169,5.5987583e-09
C0R860,鼻頭,2026-01-05,22.1043,120.8979,0.84503174
C0UB20,壯圍,2026-01-05,24.7359,121.8163,7.086385e-08
C0R790,九棚,2026-01-05,22.14195,120.889281,0.99988645
C0W110,東莒,2026-01-05,25.9652,119.98069,0.9983987
C1U930,粉鳥林,2026-01-05,24.497088,121.842479,2.0410994e-07
C1I211,蘆竹湳,2026-01-05,23.934019,120.811994,5.2970988e-09
C0S830,長濱,2026-01-05,23.286817,121.411975,9.139347e-08
C1F9F1,伯公龍,2026-01-05,24.272392,120.849047,6.360657e-08
C0UB90,太平山莊,2026-01-05,24.494171,121.536209,5.1160814e-08
C0E810,西湖,2026-01-05,24.562947,120.7485,0.99958336
C1I440,新高口,2026-01-05,23.478744,120.878939,3.0093798e-08
C0O840,王爺宮,2026-01-05,23.222064,120.40085,2.1573037e-09
C0T9G0,鳳林山,2026-01-05,23.735269,121.420131,4.0059888e-08
C0X080,佳里,2026-01-05,23.173039,120.145086,0.99158067
C0FB70,大甲溪埔,2026-01-05,24.370625,120.620067,0.99929804
C0Z310,清水斷崖,2026-01-05,24.218294,121.689142,4.294011e-05
C0M680,太保,2026-01-05,23.455062,120.331455,0.93885034
C1S820,金峰,2026-01-05,22.590969,120.933236,0.9990936
C0AD10,八里,2026-01-05,25.150211,121.403947,0.99986225
C2K240,草嶺,2026-01-05,23.59555,120.693461,5.4473674e-09
C1SA70,都蘭,2026-01-05,22.87794,121.226881,0.0005720486
C0K440,二崙,2026-01-05,23.772797,120.408944,1.3902143e-08
C1A760,坪林交控,2026-01-05,24.94284,121.713442,1.5332685e-07
C0F9N0,大里,2026-01-05,24.092464,120.701378,2.5745825e-07
C0SA90,達仁林場,2026-01-05,22.264347,120.823972,1.991227e-08
C1R290,石門山,2026-01-05,22.112611,120.756597,0.99995303
42HA10,萬大發電廠,2026-01-05,23.978875,121.139639,5.6120157e-09
C0R890,山海,2026-01-05,21.9878,120.7091,0.674492
C0T9A0,月眉山,2026-01-05,23.809928,121.539828,4.27538e-08
C0AC70,信義,2026-01-05,25.037822,121.564597,8.120016e-07
C0K560,棋山,2026-01-05,23.68645,120.603417,5.489652e-09
C2FB50,出雲,2026-01-05,24.206469,120.902794,8.8808925e-09
C1Z240,中平林道,2026-01-05,23.42115,121.26763,3.8072027e-08
U2H480,溪頭,2026-01-05,23.670306,120.798194,6.047446e-09
C0M880,好美里,2026-01-05,23.3364,120.138,0.99158067
C0T9E0,大坑,2026-01-05,23.880628,121.581981,6.635644e-08
C0K530,臺西,2026-01-05,23.701547,120.197559,0.30698553
C1E900,國一N128K,2026-01-05,24.560997,120.844186,0.99928254
C0AJ50,水湳洞,2026-01-05,25.123695,121.862238,8.682426e-07
C0AI20,白沙灣,2026-01-05,25.283128,121.519058,0.9998294
C2V310,美濃,2026-01-05,22.898792,120.51907,2.5039208e-08
C0A860,大坪,2026-01-05,25.165914,121.632969,1.3000178e-07
C1U850,觀音海岸,2026-01-05,24.38319,121.77856,3.240537e-08
C2K610,草嶺石壁,2026-01-05,23.602469,120.707731,5.654079e-09
C0U950,鶯子嶺,2026-01-05,24.89754,121.79244,4.9015043e-08
C0O900,善化,2026-01-05,23.112883,120.297219,0.9970825
C0K550,蔦松,2026-01-05,23.514319,120.229736,0.9736043
E2P980,林試六龜中心,2026-01-05,22.991703,120.645722,2.397364e-09
C0E590,通霄,2026-01-05,24.471892,120.704622,0.9995014
C1I310,西巒,2026-01-05,23.754486,120.883956,6.880262e-09
C0A550,泰平,2026-01-05,24.971197,121.823711,7.651183e-08
C0I360,水里,2026-01-05,23.812553,120.849792,1.999645e-09
C0R830,高士,2026-01-05,22.121825,120.836781,0.99996096
C1I101,溪頭,2026-01-05,23.661789,120.807647,1.2616564e-08
C0AJ20,野柳,2026-01-05,25.20703,121.690021,0.99985105
C0B060,暖暖,2026-01-05,25.0957,121.7403,4.3207137e-07
C1H920,長豐,2026-01-05,24.102039,120.879897,3.5477945e-09
C2S9B0,利吉,2026-01-05,22.86246,121.15486,1.0860478e-05
C0V360,內門,2026-01-05,22.975481,120.466769,1.1842764e-08
C0R850,林邊,2026-01-05,22.4634,120.5339,0.2316244
C0E930,龍鳳,2026-01-05,24.700034,120.859125,0.9999458
C0U910,冬山,2026-01-05,24.63373,121.7937,7.078631e-08
C1E721,泰安,2026-01-05,24.489017,120.968036,3.0299873e-08
82H320,茶改中部分場,2026-01-05,23.875611,120.913583,4.2948956e-09
C0M750,布袋,2026-01-05,23.380878,120.167789,0.97740906
C1S860,利嘉,2026-01-05,22.809417,121.050528,9.6954e-07
E2S980,林試太麻里1,2026-01-05,22.598922,120.980044,0.9996885
C0X170,關廟,2026-01-05,22.963017,120.327797,0.98273283
C0V720,林園,2026-01-05,22.507747,120.394511,0.21790679
C1I510,線浸林道,2026-01-05,23.761508,120.832956,6.4311156e-09
C0D690,外湖,2026-01-05,24.917735,120.968711,0.9999458
C0C750,新興坑尾,2026-01-05,25.0061,121.0971,0.99987847
B2Q810,畜試南區分所,2026-01-05,21.945583,120.802167,0.7848232
C0S790,金崙,2026-01-05,22.538122,120.966875,0.9982789
C0AH90,福山植物園,2026-01-05,24.760717,121.58135,5.3366925e-08
C0I540,奇萊稜線,2026-01-05,24.109231,121.326456,5.3091988e-08
C0M850,表湖,2026-01-05,23.24186,120.64166,2.716165e-09
C0S770,大溪山,2026-01-05,22.478475,120.943325,0.5761043
C0AG80,中和,2026-01-05,24.991622,121.491792,7.9460057e-07
C0T790,大禹嶺,2026-01-05,24.186117,121.316086,4.154334e-08
C0T9B0,水源,2026-01-05,23.991861,121.537169,5.531476e-08
C0R840,牡丹池山,2026-01-05,22.168389,120.841225,2.0475229e-08
C1I131,桶頭,2026-01-05,23.641944,120.654117,1.9919477e-09
CAL110,布袋國中,2026-01-05,23.35893,120.18026,0.9917499
C2M9D0,何竹子腳,2026-01-05,23.53641,120.38203,4.302964e-09
467571,新竹,2026-01-05,24.827853,121.014219,0.999911
C0Z290,赤柯山,2026-01-05,23.36893,121.38293,4.058192e-08
C0X280,將軍,2026-01-05,23.214999,120.13577,0.9915149
C0S690,太麻里,2026-01-05,22.60902,120.98533,5.731989e-05
C0U880,北關,2026-01-05,24.9072,121.8734,9.839209e-07
CAW010,東引,2026-01-05,26.3588,120.4836,0.9995215
C0G810,埔心,2026-01-05,23.947633,120.525456,0.9257567
C0U970,大福,2026-01-05,24.80064,121.81389,7.156418e-08
C2H9N0,仁愛東眼,2026-01-05,24.026875,121.1205,9.797532e-09
C1E670,南礦,2026-01-05,24.538278,121.002836,2.8393387e-08
C0M520,東後寮,2026-01-05,23.369908,120.248065,0.9877493
C1E461,松安,2026-01-05,24.397972,120.986022,2.941434e-08
C2N160,西拉雅風管處,2026-01-05,23.189481,120.335297,0.9786942
C2M970,碧湖,2026-01-05,23.568632,120.624165,3.730118e-09
C0A640,石碇,2026-01-05,24.993969,121.662917,1.5082067e-07
E2S960,林試太麻里2,2026-01-05,22.598,120.99775,0.99978787
C0F9Y0,桃山,2026-01-05,24.432739,121.303808,6.663674e-08
C1I020,萬大,2026-01-05,23.979817,121.132261,6.782747e-09
C2UC20,長嶺,2026-01-05,24.70894,121.61162,6.0294816e-08
C0U940,羅東,2026-01-05,24.68184,121.74934,6.820892e-08
C0M650,朴子,2026-01-05,23.43463,120.23902,0.9648466
C1I500,大尖山,2026-01-05,23.858572,120.994889,1.9011512e-08
C0FB40,中橫21.6k,2026-01-05,24.2499,121.1455,1.1744531e-08
C0G820,田尾,2026-01-05,23.901669,120.509389,0.922379
E2K600,四湖植物園,2026-01-05,23.676986,120.163433,0.24313925
C0S730,綠島,2026-01-05,22.6672,121.47533,0.99955726
12Q970,東港工作站,2026-01-05,22.479997,120.466058,0.34312204
C1TA00,太魯閣,2026-01-05,24.15773,121.6236,1.03587645e-07
466920,臺北,2026-01-05,25.037658,121.514853,8.188066e-07
C0R600,舊泰武,2026-01-05,22.588194,120.664944,1.4436792e-08
C1I260,北坑,2026-01-05,23.9246,121.006903,3.0182938e-09
466910,鞍部,2026-01-05,25.182586,121.529731,2.6295513e-07
C1I230,九份二山,2026-01-05,23.961944,120.845,5.718655e-09
C2M810,里佳,2026-01-05,23.389125,120.716647,7.348138e-09
C2A660,瑞芳,2026-01-05,25.113169,121.801147,3.4351913e-07
C0R270,琉球嶼,2026-01-05,22.332244,120.362236,0.0060128625
C2V580,瑞山,2026-01-05,22.90304,120.43424,9.818558e-09
C1T990,高寮,2026-01-05,23.394239,121.356808,1.6596113e-07
C0G620,芬園,2026-01-05,24.015678,120.6213,0.027357653
C1Z140,荖溪,2026-01-05,23.890575,121.45964,4.6162413e-08
C1I201,中心崙,2026-01-05,23.728722,120.712097,2.6730556e-09
C1I400,凌霄,2026-01-05,24.018778,121.004456,9.533624e-09
C1M640,十字,2026-01-05,23.492153,120.753683,9.61716e-09
G2P820,農試鳳山分所,2026-01-05,22.646611,120.356083,0.99796563
C0Z270,蕃薯寮,2026-01-05,23.73835,121.540108,5.182434e-08
C2E420,竹南,2026-01-05,24.70898,120.88897,0.99991137
C0FB10,出雲山苗圃,2026-01-05,24.23105,120.90475,8.020081e-09
C0F9Q0,外埔,2026-01-05,24.347817,120.705686,0.00045625676
C0K580,高鐵雲林,2026-01-05,23.737456,120.417944,1.3902143e-08
C2I090,鳳凰,2026-01-05,23.728081,120.787347,3.8880716e-09
C0U990,員山,2026-01-05,24.74435,121.72247,6.855363e-08
C0V770,大社,2026-01-05,22.730306,120.346639,0.99862015
C0X120,麻豆,2026-01-05,23.183289,120.248611,0.98757607
C0C670,龍潭,2026-01-05,24.870056,121.221389,2.0417458e-07
C0D680,香山濕地,2026-01-05,24.783581,120.914988,0.99994445
C0S980,勝林山,2026-01-05,22.430439,120.8938,2.5270305e-07
C0V730,大寮,2026-01-05,22.605614,120.395717,0.097335435
C0R570,麟洛,2026-01-05,22.65078,120.52719,2.2704234e-07
C2M930,石卓,2026-01-05,23.478744,120.702264,9.458152e-09
C0G9B0,和美,2026-01-05,24.105169,120.492131,0.9634247
CAG100,王功漁港,2026-01-05,23.96824,120.32586,0.9766874
C0X290,北門,2026-01-05,23.267772,120.125481,0.9917499
C2F930,大甲,2026-01-05,24.347667,120.640403,0.013177437
C0D650,湖口,2026-01-05,24.904794,121.043628,0.9992933
C0U780,五結,2026-01-05,24.68637,121.79794,7.078631e-08
C1I250,鯉潭,2026-01-05,23.961922,120.991131,3.5477945e-09
C0R130,阿禮,2026-01-05,22.742908,120.743678,5.4970073e-09
C0X100,臺南市北區,2026-01-05,23.010394,120.194228,0.9972718
C0S920,金峰嘉蘭,2026-01-05,22.594789,120.960825,0.99968785
C0V490,新興,2026-01-05,22.627422,120.298803,0.9989877
C0F9K0,大安,2026-01-05,24.345061,120.588025,0.99933386
467290,古坑,2026-01-05,23.633639,120.551889,6.337089e-09
C2E970,八甲,2026-01-05,24.535811,120.795983,0.9727112
C0V440,鳳山,2026-01-05,22.646653,120.356122,0.99796563
C1T940,大觀,2026-01-05,23.714206,121.373133,4.2706365e-08
C0E740,造橋,2026-01-05,24.637056,120.864778,0.9997386
C0R100,尾寮山,2026-01-05,22.833111,120.683889,5.498066e-09
A2K630,臺大雲林校區,2026-01-05,23.730628,120.423903,1.3511659e-08
467990,馬祖,2026-01-05,26.169467,119.923158,0.9438301
C0D580,寶山,2026-01-05,24.735006,121.025192,0.9859525
E2P990,林試扇平站,2026-01-05,22.9677,120.6857,3.3473442e-09
C0AI30,三重,2026-01-05,25.057328,121.500629,8.872521e-07
C0AH00,汐止,2026-01-05,25.066881,121.658778,8.9622733e-07
C1Z040,立山,2026-01-05,23.443356,121.327375,5.7113652e-08
466881,新北,2026-01-05,24.959207,121.525196,6.8080686e-07
C0W130,花嶼,2026-01-05,23.40007,119.32276,0.9972615
C0A950,鼻頭角,2026-01-05,25.129036,121.923372,9.4919375e-07
C0K470,林內,2026-01-05,23.748675,120.609642,6.33912e-09
C2F990,摩天嶺,2026-01-05,24.322458,120.936819,8.318389e-09
C2E430,南庄,2026-01-05,24.601775,121.000214,0.0670461
82C160,茶改場,2026-01-05,24.908472,121.185333,0.8428191
C2TB60,南安,2026-01-05,23.29818,121.26157,1.06205285e-07
C0Z320,清水林道,2026-01-05,23.27125,121.188272,4.5945708e-08
C0R760,南仁湖,2026-01-05,22.084681,120.863353,0.99995434
C0M670,大林,2026-01-05,23.600616,120.45841,3.6153818e-09
C0M800,茶山,2026-01-05,23.299075,120.664767,1.4791665e-09
C0A9C0,天母,2026-01-05,25.117494,121.537169,7.9460057e-07
72K220,南改斗南分場,2026-01-05,23.634556,120.477333,1.1355432e-08
72AI40,桃改樹林分場,2026-01-05,24.944503,121.386972,7.17712e-07
C0S910,蘭嶼燈塔,2026-01-05,22.081197,121.503117,0.7660449
C0B050,八斗子,2026-01-05,25.144754,121.79167,1.1484892e-06
C0U900,內城,2026-01-05,24.71813,121.68766,6.266776e-08
C0X320,柳營,2026-01-05,23.253328,120.375253,4.1602948e-09
C0M790,新港,2026-01-05,23.553269,120.345728,0.9553837
C0F9T0,西屯,2026-01-05,24.179494,120.641275,0.013177437
C0E950,松安,2026-01-05,24.39792,120.98599,2.941434e-08
C0SA30,都歷,2026-01-05,23.020333,121.323642,0.0001980924
C0C620,蘆竹,2026-01-05,25.084275,121.265767,0.99992925
C0R730,大坪頂,2026-01-05,22.024633,120.69355,0.99920774
C0AJ40,石門,2026-01-05,25.273672,121.601198,0.98382294
C0E750,苗栗,2026-01-05,24.564569,120.824575,0.99935466
C0T870,鯉魚潭,2026-01-05,23.935639,121.508944,7.893034e-08
C1V170,排雲,2026-01-05,23.463619,120.954147,5.621993e-08
C2H950,中寮,2026-01-05,23.884447,120.766406,2.3073449e-08
C0R350,貓鼻頭,2026-01-05,21.921774,120.7358,0.8991028
C0V660,岡山,2026-01-05,22.797078,120.294958,0.99899256
C1H941,雙冬,2026-01-05,23.967378,120.802189,5.1796745e-09
C0AJ70,田寮,2026-01-05,25.2698,121.4886,0.9998512
C0AI00,五股,2026-01-05,25.07445,121.42728,2.713022e-07
C0Z280,德武,2026-01-05,23.47426,121.41071,6.956695e-08
C2RA10,大新,2026-01-05,22.67558,120.57788,1.07863784e-07
C0R700,枋山,2026-01-05,22.246844,120.661086,0.99997145
C0C460,復興,2026-01-05,24.820208,121.352281,8.608004e-08
C2K300,鹿南,2026-01-05,23.63855,120.3636,0.21650317
E2H360,蓮華池,2026-01-05,23.918333,120.885278,3.3792198e-09
C0M640,中埔,2026-01-05,23.42538,120.5229,2.0578343e-09
C0W140,金沙,2026-01-05,24.488292,118.408778,0.9687272
C2A540,四堵,2026-01-05,24.8926,121.745736,8.981262e-08
C0ACA0,新莊,2026-01-05,25.051478,121.446756,8.483062e-07
C0R220,潮州,2026-01-05,22.534361,120.54,0.13876973
U2HA40,臺大內茅埔,2026-01-05,23.689722,120.851117,2.3143254e-09
467490,臺中,2026-01-05,24.145736,120.684075,0.017959263
C0UB60,明池,2026-01-05,24.650688,121.475277,5.1762797e-08
C0U960,翠峰湖,2026-01-05,24.510856,121.608044,5.0358224e-08
E2HA20,林試畢祿溪站,2026-01-05,24.226944,121.308522,2.8521702e-08
C2M9A0,大華,2026-01-05,23.4824,120.67491,4.871435e-09
C0V890,前鎮,2026-01-05,22.5718,120.3117,0.9990239
C1F941,雪嶺,2026-01-05,24.280586,121.026642,3.7045453e-08
C2H9E0,國姓南港,2026-01-05,23.911108,120.846556,6.725626e-09
C0AC80,文山,2026-01-05,25.00235,121.575728,5.8088847e-07
C0F9R0,龍井,2026-01-05,24.184536,120.528972,0.99942255
C0M760,民雄,2026-01-05,23.551754,120.428457,3.7846117e-09
C0UA40,西德山,2026-01-05,24.560647,121.752608,3.39437e-08
C2TA70,赤科坪,2026-01-05,23.39885,121.39168,4.1005737e-08
C1T920,中興,2026-01-05,23.769503,121.498653,1.0140405e-07
C0D550,雪霸,2026-01-05,24.526972,121.11605,3.4151967e-08
C2F860,梨山,2026-01-05,24.247522,121.243669,2.913899e-08
C0R320,車城,2026-01-05,22.0744,120.716247,0.67947894
C1S870,南美山,2026-01-05,23.15025,121.382333,1.5185693e-06
C0B020,基隆嶼,2026-01-05,25.19141,121.78391,8.568189e-07
C1U501,牛鬥,2026-01-05,24.637836,121.573656,7.4868986e-08
C0M730,嘉義市東區,2026-01-05,23.457673,120.460531,3.7767807e-09
C2R990,泰武,2026-01-05,22.60686,120.69765,1.4082661e-08
C0S700,知本,2026-01-05,22.684866,121.005642,1.1198163e-06
C1N001,沙崙,2026-01-05,22.935472,120.309406,0.9908156
C0V760,橋頭,2026-01-05,22.757806,120.30575,0.9989877
C0G960,福寶,2026-01-05,24.0443,120.3814,0.9769841
C0X210,白河,2026-01-05,23.347466,120.414427,4.015511e-09
C0S810,東河,2026-01-05,22.972672,121.303986,0.0019673598
C2R170,屏東,2026-01-05,22.66027,120.49403,2.3614184e-07
C0R670,楓港,2026-01-05,22.190131,120.692156,0.99997175
C0FA50,霧峰,2026-01-05,24.0419,120.6995,1.4683918e-07
C0UB10,蘇澳,2026-01-05,24.5969,121.8571,2.0418237e-07
C0G950,防潮門,2026-01-05,24.1835,120.4871,0.99945337
C0M740,六腳,2026-01-05,23.492871,120.290625,0.964478
C1R250,力里,2026-01-05,22.428117,120.629228,4.783347e-07
C0K330,虎尾,2026-01-05,23.719183,120.442036,1.2408341e-08
C2FA00,烏石坑,2026-01-05,24.273503,120.947617,8.230466e-09
C0V620,永安,2026-01-05,22.82315,120.236856,0.9990239
C1I330,楓樹林,2026-01-05,23.986803,121.076117,7.9172e-09
C0W200,湖西,2026-01-05,23.596314,119.67275,0.99551964
72Q010,高雄農改場,2026-01-05,22.709333,120.525889,1.6223944e-07
C0SA40,瑞和,2026-01-05,22.974361,121.156697,4.072486e-06
C0C680,龜山,2026-01-05,25.02846,121.38656,2.0230728e-07
C2V260,月眉,2026-01-05,22.971003,120.539853,7.3750406e-09
C0V450,鳳森,2026-01-05,22.545064,120.392592,0.009519545
C0FA90,小雪山林道,2026-01-05,24.29515,121.03651,4.4684832e-08
C0U720,南山,2026-01-05,24.43742,121.38167,4.1046036e-08
A2N290,臺南蘭花園區,2026-01-05,23.340258,120.379661,4.2869406e-09
C0R560,新園,2026-01-05,22.5434,120.461558,0.21790679
C0U890,三星,2026-01-05,24.66812,121.65302,5.4582593e-08
C1V300,御油山,2026-01-05,23.001983,120.715364,1.098111e-08
C0U600,礁溪,2026-01-05,24.817539,121.765608,6.784121e-08
C1T980,龍澗,2026-01-05,24.023289,121.411328,4.660778e-08
C0D670,海天一線,2026-01-05,24.831986,120.914438,0.9999458
C0SA00,歷坵,2026-01-05,22.520969,120.89185,0.011533128
C0M710,東石,2026-01-05,23.458927,120.15385,0.97719395
C0M780,鹿草,2026-01-05,23.41134,120.30835,0.93880475
C0U520,雙連埤,2026-01-05,24.753033,121.641303,3.369529e-08
C0B010,七堵,2026-01-05,25.094819,121.71713,7.2751277e-07
C0R480,長治,2026-01-05,22.693128,120.542622,1.2188521e-07
C1V830,國三S383K,2026-01-05,22.781967,120.426475,2.6451467e-08
12Q980,恆春工作站,2026-01-05,22.079678,120.714425,0.6810259
C1O940,東山服務區,2026-01-05,23.286016,120.398472,3.9622545e-09
C1U840,東澳嶺,2026-01-05,24.5378,121.8485,3.1747334e-08
C1D630,飛鳳山,2026-01-05,24.766464,121.119178,3.710748e-06
C0S940,石寧山,2026-01-05,23.223772,121.406639,0.9996267
C0K410,北港,2026-01-05,23.573957,120.292802,0.9570813
C2M620,瑞里,2026-01-05,23.545133,120.675197,6.399937e-09
C0SB70,小港漁港,2026-01-05,23.158558,121.400431,0.9998773
C2O950,安南,2026-01-05,23.076694,120.144861,0.99764025
C0F0E0,南湖圈谷,2026-01-05,24.363714,121.444667,7.9944265e-08
467610,成功,2026-01-05,23.097486,121.373428,0.009671477
C0G890,伸港,2026-01-05,24.148933,120.484403,0.99942136
C2E540,龍溪,2026-01-05,24.606489,120.783933,0.999752
C1V200,梅山,2026-01-05,23.268447,120.823556,3.3623175e-09
C0T9H0,加路蘭山,2026-01-05,23.682947,121.5274,3.8557122e-08
C2O930,玉井,2026-01-05,23.126042,120.46055,3.515817e-09
C1F911,新伯公,2026-01-05,24.221361,120.841069,1.1347491e-07
C0R490,九如,2026-01-05,22.7405,120.490503,1.6956949e-07
C0X200,左鎮,2026-01-05,23.056758,120.408522,2.034633e-08
C2TB50,麻汝,2026-01-05,23.42554,121.39358,6.178109e-08
C0FA60,鞍馬山工作站,2026-01-05,24.267064,121.000793,2.943898e-08
C0SB50,叭嗡嗡,2026-01-05,23.047062,121.343223,0.05831199
C1F891,稍來,2026-01-05,24.265689,121.001142,2.8686083e-08
C2M9C0,紫雲,2026-01-05,23.494914,120.540253,2.4347595e-09
72N240,七股研究中心,2026-01-05,23.081672,120.062894,0.9978382
C0C700,中壢,2026-01-05,24.977661,121.256375,0.99836874
C0M690,水上,2026-01-05,23.419734,120.388909,3.841411e-09
C0V690,鼓山,2026-01-05,22.623325,120.275575,0.998997
C0O860,大內,2026-01-05,23.11885,120.36083,0.9915045
C0Z200,萬榮,2026-01-05,23.709219,121.420106,7.903323e-08
C0T9D0,和中,2026-01-05,24.26676,121.74103,0.00090352865
C2S9A0,北份子寮,2026-01-05,22.78561,121.07813,0.9965182
C1O921,楠西,2026-01-05,23.183511,120.484083,2.9460647e-09
C0AJ30,淡水觀海,2026-01-05,25.184591,121.408616,0.9998748
C0V810,左營,2026-01-05,22.67491,120.28491,0.9987034
C0UA70,桃源谷,2026-01-05,24.962606,121.888875,6.222385e-08
C0X130,官田,2026-01-05,23.193217,120.315422,0.9828879
C1H000,翠峰,2026-01-05,24.109397,121.205211,3.281751e-08
C0UA90,石城,2026-01-05,24.980444,121.951214,8.3264297e-07
C1E681,南勢山,2026-01-05,24.421669,120.923831,2.6653998e-08
C0A9F0,內湖,2026-01-05,25.079422,121.57545,8.188066e-07
C0K291,宜梧,2026-01-05,23.536281,120.169329,0.97740906
C1K540,口湖,2026-01-05,23.585344,120.180517,0.97736114
C0R780,滿州,2026-01-05,22.024403,120.839892,0.9371215
C0V870,文安,2026-01-05,22.8025,120.2164,0.99914783
C0U650,玉蘭,2026-01-05,24.675286,121.587061,6.024964e-08
C0R640,東港,2026-01-05,22.46247,120.44074,0.36467722
C0AJ80,板橋,2026-01-05,25.0107,121.4489,8.120016e-07
C0S660,下馬,2026-01-05,23.150427,121.070312,4.2851603e-08
C2N190,烏樹,2026-01-05,23.32393,120.36989,0.9823441
C1H9B1,阿眉,2026-01-05,24.1263,120.994672,1.6579259e-08
C0UA20,多加屯,2026-01-05,24.368614,121.373189,3.914713e-08
C0E730,頭份,2026-01-05,24.688247,120.912206,0.9999144
72V140,高改旗南分場,2026-01-05,22.857861,120.516667,1.2269763e-07
C0K480,莿桐,2026-01-05,23.761192,120.502372,1.0889068e-08
C0U980,坪林石牌,2026-01-05,24.86478,121.77396,3.321867e-08
C0T900,西林,2026-01-05,23.8119,121.441458,7.0246834e-08
C1I150,青雲,2026-01-05,23.793361,120.949378,2.132569e-09
C2E980,和興,2026-01-05,24.505319,120.923016,3.25679e-08
467350,澎湖,2026-01-05,23.565503,119.563094,0.99574566
C0G800,埔鹽,2026-01-05,24.000394,120.431683,0.9634356
C0H960,草屯,2026-01-05,23.973672,120.68085,9.27973e-08
C1V780,多納林道,2026-01-05,22.888028,120.737917,5.647106e-09
C0E920,通霄漁港,2026-01-05,24.498589,120.673876,0.99981004
C0Z330,安通山,2026-01-05,23.290728,121.348528,5.6367995e-08
C0AH10,永和,2026-01-05,25.01125,121.508111,8.4542773e-07
C0AK10,太平里,2026-01-05,25.134937,121.364899,0.9998512
C2G640,鹿港,2026-01-05,24.0753,120.430481,0.9764777
C1E890,國三N149K,2026-01-05,24.463414,120.680019,0.9991978
C1R110,口社,2026-01-05,22.770111,120.645222,2.3037257e-08
C1M870,國三N285K,2026-01-05,23.550319,120.505833,2.2754354e-09
C1E480,鳳美,2026-01-05,24.554803,121.034747,3.5361765e-08
C0T9M0,靜浦,2026-01-05,23.455167,121.495028,9.878899e-08
C2H9M0,發祥,2026-01-05,24.154094,121.164517,1.0889193e-08
C2G9C0,埔南,2026-01-05,23.99124,120.46969,0.96230847
C0AI40,石牌,2026-01-05,25.115597,121.513139,8.188066e-07
C1F871,上谷關,2026-01-05,24.203483,121.018644,8.22157e-09
C2H9G0,百勝,2026-01-05,24.051142,120.909361,2.6117022e-09
C0G880,二水,2026-01-05,23.810742,120.6173,6.4419683e-09
C0R940,加祿堂,2026-01-05,22.3363,120.6217,0.21540813
C0W220,北竿,2026-01-05,26.220358,119.974881,0.9846555
C0O960,崎頂,2026-01-05,22.959547,120.369317,0.63702697
C0TA40,秀林,2026-01-05,24.302864,121.731144,3.1810675e-08
C0S750,向陽,2026-01-05,23.248397,120.986133,3.2031135e-08
C0T9F0,水璉,2026-01-05,23.797131,121.542514,5.7058557e-08
C1M600,頭凍,2026-01-05,23.406364,120.603339,3.379194e-09
467660,臺東,2026-01-05,22.752211,121.154586,0.9999035
C1D380,新埔,2026-01-05,24.84745,121.03834,0.9989416
C2G980,田頭村,2026-01-05,23.8263,120.444175,1.3915488e-08
C0V750,路竹,2026-01-05,22.854997,120.259439,0.9985022
C0N050,蚵寮,2026-01-05,23.301,120.1104,0.9917499
C2X060,下營,2026-01-05,23.226806,120.256291,0.9915149
72M700,南改鹿草分場,2026-01-05,23.416869,120.283061,0.95747685
C1SA50,利嘉林道,2026-01-05,22.82325,121.009389,4.5303064e-08
C0UB70,太平山中間站,2026-01-05,24.542003,121.513453,3.9885904e-08
C0A940,金山,2026-01-05,25.223628,121.643967,0.9997654
C1V340,大津,2026-01-05,22.888322,120.645986,1.5506627e-08
C0W180,七美,2026-01-05,23.219333,119.444892,0.99838614
C1F9C1,白冷,2026-01-05,24.182844,120.929889,6.0662075e-09
K2E710,苗改生物防治研究中心,2026-01-05,24.422861,120.871833,0.04811781
C0N040,蘆竹溝,2026-01-05,23.2344,120.0961,0.9918038
C0TB40,崇德,2026-01-05,24.166144,121.657414,0.00090352865
C0D760,大坪苗圃,2026-01-05,24.5362,121.1108,3.030259e-08
C2W230,畜試所澎湖,2026-01-05,23.628342,119.513206,0.9919076
C0R880,後壁湖,2026-01-05,21.9457,120.7457,0.5968943
C1I280,埔中,2026-01-05,23.820778,120.642594,2.1038278e-09
467790,墾丁雷達站,2026-01-05,21.948235,120.808028,0.9637668
C0W190,望安,2026-01-05,23.380564,119.494075,0.9958067
C0Z170,卓溪,2026-01-05,23.3443,121.3029,1.16026385e-07
C0F850,東勢,2026-01-05,24.246428,120.833047,1.6508709e-07
466900,淡水,2026-01-05,25.164889,121.448906,0.99985105
C0I370,魚池,2026-01-05,23.895703,120.94135,3.3145995e-09
C0C630,大溪,2026-01-05,24.882853,121.265547,0.89329815
C0A520,山佳,2026-01-05,24.974944,121.402008,7.188046e-07
C0I110,竹山,2026-01-05,23.761225,120.688156,2.3095452e-09
82H840,茶改南部分場,2026-01-05,23.762528,120.7405,2.0396054e-09
C2SD80,再來山,2026-01-05,23.34371,121.44122,0.99899197
C0G660,溪湖,2026-01-05,23.94835,120.479122,0.943469
C1T800,洛韶,2026-01-05,24.204558,121.453956,3.663384e-08
C1T810,慈恩,2026-01-05,24.192044,121.388386,4.6665154e-08
C1E451,象鼻,2026-01-05,24.368617,120.940228,8.040283e-09
C0AC60,三峽,2026-01-05,24.939025,121.369728,0.9999028
C0I490,萬大林道,2026-01-05,23.928228,121.091411,1.1832197e-08
C1I290,豐丘,2026-01-05,23.668178,120.887417,8.556878e-09
C1I320,奧萬大,2026-01-05,23.952956,121.178556,1.3638454e-08
C2M910,嘉義大學,2026-01-05,23.471325,120.485903,2.9636205e-09
C0U770,南澳,2026-01-05,24.44935,121.81022,2.0391849e-07
C2TB30,吉安,2026-01-05,23.94538,121.54803,9.814611e-08
C0A980,社子,2026-01-05,25.109508,121.469681,9.604504e-07
C0V800,六龜,2026-01-05,22.997889,120.633583,2.5344888e-09
C1G9D0,國一S218K,2026-01-05,23.890641,120.493253,0.9246611
C0E570,白沙屯,2026-01-05,24.549447,120.696803,0.9998108
C2F9A0,中竹林,2026-01-05,24.103556,120.751061,6.4047727e-09
C0FA40,臺中電廠,2026-01-05,24.2146,120.4907,0.99942136
C2G9A0,畜試所彰化,2026-01-05,23.86045,120.557964,1.0864008e-08
C0H9C0,合歡山,2026-01-05,24.143442,121.272547,5.6086265e-08
G2M350,農試溪口農場,2026-01-05,23.58565,120.408111,4.3151114e-09
C0U860,頭城,2026-01-05,24.85323,121.8308,7.046866e-08
C0R580,南州,2026-01-05,22.48591,120.50274,0.36467722
C0D430,峨眉,2026-01-05,24.6905,121.017189,0.99872047
C0G780,秀水,2026-01-05,24.03405,120.503869,0.96041596
72N100,臺南農改場,2026-01-05,23.0605,120.342194,0.9874975
C0S900,蘭嶼高中,2026-01-05,22.04909,121.51214,0.8540639
C2TA60,六十石,2026-01-05,23.22477,121.31861,4.0536587e-08
C1F9W0,德基,2026-01-05,24.254783,121.190261,2.4613566e-08
C2M980,安和,2026-01-05,23.51377,120.31593,0.9389856
C1Z120,壽豐,2026-01-05,23.870853,121.508081,1.15911256e-07
C0W160,烏坵,2026-01-05,24.9944,119.44956,0.99803716
C1I240,外大坪,2026-01-05,23.958697,120.917931,3.6091738e-09
C1I550,國六W023K,2026-01-05,23.979067,120.867742,7.030471e-09
C0R870,興海,2026-01-05,21.9752,120.8439,0.7862453
C0R140,瑪家,2026-01-05,22.682903,120.686639,3.7093584e-09
C0A530,坪林,2026-01-05,24.938183,121.70975,1.07678986e-07
C0X260,後壁,2026-01-05,23.366358,120.362326,0.9792954
C0Z230,和平,2026-01-05,24.30717,121.77007,1.9523394e-07
C0G770,福興,2026-01-05,24.041289,120.437669,0.96736574
C0H9A0,神木村,2026-01-05,23.532742,120.843667,9.901872e-09
C0I460,南投,2026-01-05,23.911469,120.687331,1.1943932e-07
C0I480,梅峰,2026-01-05,24.085272,121.173572,2.6925733e-08
C1V570,吉東,2026-01-05,22.85422,120.5454,7.8993594e-08
C2A560,福山,2026-01-05,24.776203,121.502811,6.2011416e-08
C0AH30,五分山,2026-01-05,25.07125,121.780794,5.1535036e-08
C0FA10,松柏,2026-01-05,24.429115,120.617482,0.99981004
72S200,東改班鳩分場,2026-01-05,22.829528,121.077694,0.008901471
72HA00,中改埔里分場,2026-01-05,23.903208,120.963364,3.1774758e-09
C2H9W0,大坪頂農水,2026-01-05,24.043122,120.932781,3.568303e-09
C0C650,平鎮,2026-01-05,24.897503,121.214636,0.83827686
C0S930,延平,2026-01-05,22.902581,121.084058,1.5559725e-06
C0UA60,樟樹山,2026-01-05,24.41393,121.78325,3.4109977e-08
C2UC10,出水溪,2026-01-05,24.615822,121.652253,3.4109977e-08
C1S670,摩天,2026-01-05,23.199503,121.027,2.0325308e-08
C2C590,觀音,2026-01-05,25.027072,121.153317,0.9998319
C0V630,茄萣,2026-01-05,22.906642,120.182608,0.9972585
466940,基隆,2026-01-05,25.133314,121.740475,9.989772e-07
C0X050,東河,2026-01-05,23.296598,120.385608,4.1602948e-09
C0R770,保力,2026-01-05,22.071122,120.764111,0.9847555
G2L020,農試嘉義分所,2026-01-05,23.485028,120.473806,2.8888072e-09
C0X240,關子嶺,2026-01-05,23.331169,120.508025,1.4817021e-09
C0I380,集集,2026-01-05,23.828206,120.801467,2.0012625e-09
466990,花蓮,2026-01-05,23.975128,121.613275,2.0483456e-07
C1V220,小關山,2026-01-05,23.154217,120.813603,1.2293546e-08
C1F9G1,慶福山,2026-01-05,24.180853,120.848378,2.3617826e-08
C0FB20,雪山橋,2026-01-05,24.23192,120.9786,2.3726324e-08
C0Z250,瑞穗林道,2026-01-05,23.49284,121.30688,3.8249336e-08
C0D590,新豐,2026-01-05,24.87068,120.97721,0.9859525
C0A870,五指山,2026-01-05,25.132153,121.608692,6.005557e-07
C0UA50,西帽山,2026-01-05,24.555361,121.802628,3.165603e-08
C2R980,竹田國中,2026-01-05,22.61532,120.52412,0.134517
C0X160,仁德,2026-01-05,22.968258,120.257689,0.995961
C1H971,六分寮,2026-01-05,23.92507,120.6378,6.115511e-09
C0W120,西嶼,2026-01-05,23.5626,119.468436,0.9957729
C0G650,員林,2026-01-05,23.946503,120.585597,0.9078367
C0AD50,鶯歌,2026-01-05,24.951533,121.346294,0.9998549
C2H9Q0,北東眼山,2026-01-05,24.120939,121.189303,2.4451527e-08
C2H9T0,名間竹圍,2026-01-05,23.859914,120.637572,2.009126e-09
C0S990,山豬窟,2026-01-05,22.318619,120.857372,2.7235435e-08
C0X190,安平,2026-01-05,22.993161,120.152181,0.99722964
C0K400,斗六,2026-01-05,23.720583,120.541127,9.41508e-09
12J990,口湖工作站,2026-01-05,23.589978,120.180394,0.97392696
C0O830,北寮,2026-01-05,23.079561,120.495008,7.344509e-09
C1D410,白蘭,2026-01-05,24.579364,121.079947,2.9229724e-08
C0S970,加津林,2026-01-05,22.416211,120.926942,0.9997837
C0D700,關西,2026-01-05,24.7977,121.1732,3.6450155e-07
C0U750,龜山島,2026-01-05,24.841667,121.953133,3.6862406e-08
C0R810,內獅,2026-01-05,22.305064,120.642986,0.21790679
C1M390,龍美,2026-01-05,23.406728,120.654417,5.495697e-09
C2K290,崙內,2026-01-05,23.69525,120.35601,0.21650317
C2FB60,頭櫃山,2026-01-05,24.129842,120.858925,6.277528e-09
C1H840,國三N238K,2026-01-05,23.841008,120.707711,1.995762e-09
CAQ030,崎峰國小,2026-01-05,22.42565,120.49521,0.36467722
C2E520,大湖,2026-01-05,24.414939,120.870872,0.009344548
467530,阿里山,2026-01-05,23.508208,120.813242,2.8338743e-08
C1E691,南湖,2026-01-05,24.40135,120.837533,1.3538404e-07
C0FA30,梧棲,2026-01-05,24.256003,120.523381,0.99942
C1V231,高中,2026-01-05,23.134911,120.716711,2.7996876e-09
C0AK30,硬漢嶺,2026-01-05,25.136097,121.426372,1.3504713e-06
C0F9V0,新社,2026-01-05,24.200172,120.815806,4.9668166e-08
C0H890,埔里,2026-01-05,23.972169,120.952425,2.5915161e-09
C0R690,墾丁,2026-01-05,21.966756,120.810269,0.99988765
C0SD20,富山,2026-01-05,22.822383,121.190825,0.08497949
C0F0D0,審馬陣,2026-01-05,24.381675,121.4203,7.679283e-08
C2W030,金門農試所,2026-01-05,24.448431,118.451786,0.9999648
C0R820,白鷺,2026-01-05,22.454275,120.666219,1.6991114e-08
C0FB00,大雪山,2026-01-05,24.254668,121.007374,2.9612375e-08
C1V190,南天池,2026-01-05,23.27403,120.91176,3.5001957e-08
C0E940,雪見,2026-01-05,24.42595,121.01347,3.4433416e-08
K2E360,苗栗農改場,2026-01-05,24.495722,120.829111,0.9969765
CAJ050,海口故事園區,2026-01-05,23.57543,120.14121,0.97719395
C2K280,四湖,2026-01-05,23.6304,120.22717,0.28784505
C2H9D0,三隻寮,2026-01-05,24.093078,120.861578,5.449487e-09
C0O990,媽廟,2026-01-05,22.99175,120.293525,0.9942271
C0D480,打鐵坑,2026-01-05,24.849664,121.150789,2.0406907e-07
C0Z220,和平林道,2026-01-05,24.343922,121.656317,3.4161868e-08
C0TA10,花蓮漁港,2026-01-05,23.995322,121.638331,0.99955463
72C440,桃園農改場,2026-01-05,24.950944,121.030583,0.99989045
C1E711,馬拉邦山,2026-01-05,24.367306,120.901656,8.131926e-09
C0SB20,富岡,2026-01-05,22.792467,121.192669,0.9998994
C0D560,竹東,2026-01-05,24.767147,121.057881,0.9900322
C0F9U0,南屯,2026-01-05,24.137006,120.637969,0.24791673
C2SD60,明峰,2026-01-05,22.8671,121.11825,8.1543544e-07
C0M720,番路,2026-01-05,23.464657,120.554156,1.7120644e-09
C0F0A0,雪山圈谷,2026-01-05,24.388594,121.236339,7.603437e-08
C1A9N0,四十份,2026-01-05,24.934158,121.593283,1.124961e-07
C0U760,東澳,2026-01-05,24.52196,121.83318,1.7104684e-07
C0X230,鹽水,2026-01-05,23.272621,120.247641,0.9877493
C2H9H0,苗改南投蜂場,2026-01-05,23.852589,120.693481,2.371446e-09
C2TB70,達谷寮,2026-01-05,23.38,121.35968,1.3542976e-07
C0R950,萬隆國小,2026-01-05,22.507667,120.587817,0.023354674
467540,大武,2026-01-05,22.35572,120.90374,0.99945056
C0V370,古亭坑,2026-01-05,22.893178,120.401947,1.5135056e-08
C1I340,新興橋,2026-01-05,23.563333,120.868728,3.9948773e-09
C0SA80,土坂,2026-01-05,22.453108,120.887572,0.99955
C0R160,鹽埔,2026-01-05,22.739558,120.530778,1.2929738e-07
C0AC40,大屯山,2026-01-05,25.175675,121.522408,1.4802785e-07
466850,五分山雷達站,2026-01-05,25.071182,121.781205,5.1411234e-08
C2H9L0,馬烈霸,2026-01-05,24.1512,121.201772,2.5154092e-08
C1AI50,國三N016K,2026-01-05,25.034164,121.619664,6.243171e-07
C2V920,匏子寮,2026-01-05,23.04905,120.55319,3.3142833e-09
C1V600,藤枝,2026-01-05,23.071961,120.757042,1.0049348e-08
C1E601,南勢,2026-01-05,24.572486,120.734842,0.996903
C0O980,新市,2026-01-05,23.061614,120.298197,0.995961
C0K420,西螺,2026-01-05,23.800407,120.467394,1.2028963e-08
C0Z050,佳心,2026-01-05,23.34567,121.21316,4.1744375e-08
C0AD30,蘆洲,2026-01-05,25.086594,121.472331,8.619592e-07
C0V610,梓官,2026-01-05,22.760558,120.267211,0.998997
K2F750,種苗改良場,2026-01-05,24.225972,120.800917,7.2098096e-08
C0UA80,大溪漁港,2026-01-05,24.941801,121.902955,8.9622733e-07
C1AI60,國一39K邊坡,2026-01-05,25.064361,121.383836,2.3558175e-07
C0W150,金寧,2026-01-05,24.457703,118.328989,0.9915068
C0R960,內埔,2026-01-05,22.608483,120.570714,0.08727309
V2C250,八德合作社,2026-01-05,24.93775,121.266389,0.9949695
C2H9S0,龍南,2026-01-05,23.953536,120.833183,5.4990625e-09
C0AH40,平等,2026-01-05,25.129142,121.577086,1.6952556e-05
C0R540,佳冬,2026-01-05,22.419456,120.552375,0.2704613
466950,彭佳嶼,2026-01-05,25.627975,122.079744,0.9999574
C0A890,雙溪,2026-01-05,25.036003,121.864242,5.853735e-07
C0C480,桃園,2026-01-05,24.992425,121.323172,0.9995288
C0AH50,林口,2026-01-05,25.072181,121.38084,1.894428e-07
A2K360,水試臺西試驗場,2026-01-05,23.717231,120.190522,0.35161373
C2M960,外寮,2026-01-05,23.562643,120.665688,5.013184e-09
C0F9S0,烏日,2026-01-05,24.107058,120.624103,0.8931757
C2N180,鹿陶洋,2026-01-05,23.14325,120.48352,2.9200844e-09
C0C490,八德,2026-01-05,24.928708,121.283289,0.99382377
C0R190,赤山,2026-01-05,22.592333,120.614306,0.048552133
C0T820,天祥,2026-01-05,24.179597,121.495639,5.903463e-08
C1F9E1,龍安,2026-01-05,24.1605,120.831961,4.211072e-08
C2SD50,順那,2026-01-05,23.04166,121.29332,1.4411955e-05
C0V820,小林,2026-01-05,23.148408,120.63325,1.4859105e-09
C2G870,芳苑,2026-01-05,23.922303,120.320025,0.30476543
C0E850,大河,2026-01-05,24.618069,120.948578,0.9990559
C1U670,寒溪,2026-01-05,24.634,121.71691,5.437861e-08
C0N020,城西,2026-01-05,23.0568,120.0956,0.9973296
C1Z110,三棧,2026-01-05,24.11557,121.60501,5.0223647e-08
C0R280,檳榔,2026-01-05,22.076078,120.836777,0.9998583
C2H9J0,中台,2026-01-05,23.9996,120.938739,2.7959521e-09
C0F9L0,后里,2026-01-05,24.310436,120.729725,3.319902e-06
467441,高雄,2026-01-05,22.730432,120.312516,0.9987034
C0Z180,新城,2026-01-05,24.040486,121.604878,1.9471292e-07
C0D540,橫山,2026-01-05,24.71116,121.11693,0.1068777
C1D420,太閣南,2026-01-05,24.632808,121.160575,5.1969256e-08
C1E770,公館,2026-01-05,24.526914,120.830806,0.9988113
CAN130,水試所海水繁養殖中心,2026-01-05,23.120802,120.07968,0.997792
C1I430,翠華,2026-01-05,24.191961,121.224339,3.314437e-08
C1M400,菜瓜坪,2026-01-05,23.251928,120.576103,1.4817247e-09
C0G730,二林,2026-01-05,23.903325,120.376081,0.96041596
72M360,南改義竹分場,2026-01-05,23.360694,120.279361,0.9873243
V2K620,麥寮合作社,2026-01-05,23.753836,120.294783,0.27988055
C0Z070,舞鶴,2026-01-05,23.46811,121.37407,6.188912e-08
C0B040,大武崙,2026-01-05,25.166676,121.706993,6.982464e-07
C1Z030,紅葉,2026-01-05,23.493119,121.338806,6.813974e-08
C1I050,丹大,2026-01-05,23.753747,121.141147,4.037724e-08
C0I080,信義,2026-01-05,23.689694,120.851036,2.3143254e-09
C2TB80,庄子底,2026-01-05,23.71794,121.49438,9.29452e-08
C0D750,樂山林道6k,2026-01-05,24.49999,121.08773,4.3194614e-08
C2M920,朴子農改,2026-01-05,23.469889,120.259383,0.9719544
C2A880,福隆,2026-01-05,25.017842,121.942083,8.9622733e-07
C0Z160,鳳林,2026-01-05,23.746114,121.453411,8.8934904e-08
C0UB80,翠峰林道6K,2026-01-05,24.49773,121.568625,5.2415732e-08
C0V210,復興,2026-01-05,23.222403,120.806089,2.8181766e-09
C0H990,昆陽,2026-01-05,24.121322,121.273642,4.721325e-08
C0R741,獅子,2026-01-05,22.202308,120.705236,0.99996156
C0S710,鹿野,2026-01-05,22.917711,121.122994,3.3802635e-07
C0I530,小奇萊,2026-01-05,24.131764,121.295717,4.9897572e-08
C0FA70,大雪山埡口,2026-01-05,24.26867,121.03062,3.6770487e-08
C2K630,荷苞,2026-01-05,23.657717,120.595144,4.062e-09
C0Z080,富源,2026-01-05,23.587642,121.378225,5.2867758e-08
C2M9E0,旺來山,2026-01-05,23.555153,120.486463,2.1835953e-09
C0SB10,美和,2026-01-05,22.682078,121.060236,0.9997756
C2K620,馬光農場,2026-01-05,23.721453,120.378864,1.4777685e-08
C1I140,卡奈托灣,2026-01-05,23.754364,121.087872,1.5346153e-08
C0I520,玉山風口,2026-01-05,23.470489,120.955994,6.251459e-08
C1G691,下水埔,2026-01-05,23.816114,120.5676,8.956062e-09
C0X110,臺南市南區,2026-01-05,22.961189,120.188378,0.9970972
C0V680,仁武,2026-01-05,22.701083,120.347722,0.99862015
C2G840,北斗,2026-01-05,23.877586,120.514222,0.90573853
C2TB90,長橋,2026-01-05,23.6874,121.46186,8.8426624e-08
C0R900,竹坑,2026-01-05,22.1385,120.7022,0.99997175
C0G860,社頭,2026-01-05,23.897647,120.5862,0.86476624
C0X150,安定,2026-01-05,23.102614,120.227839,0.9972585
C0R590,里港,2026-01-05,22.77919,120.49459,1.294716e-07
C0E610,馬都安,2026-01-05,24.451272,120.930192,2.7064186e-08
C0E550,明德,2026-01-05,24.583486,120.885411,0.9990319
C0R150,三地門,2026-01-05,22.709889,120.639944,2.6451467e-08
C0G910,花壇,2026-01-05,24.032076,120.549461,0.9257567
C1D400,鳥嘴山,2026-01-05,24.71909,121.28387,5.4126023e-08
C0K500,元長,2026-01-05,23.64981,120.315024,0.23966292
C0F0B0,石岡,2026-01-05,24.276061,120.777644,7.8367776e-07
C2V250,甲仙,2026-01-05,23.080106,120.591758,2.378127e-09
C0SA20,金崙山,2026-01-05,22.567419,120.959667,2.6473154e-07
C0V350,溪埔,2026-01-05,22.738578,120.446797,2.2704234e-07
C0M660,溪口,2026-01-05,23.604131,120.403569,4.302964e-09
C1S880,壽卡,2026-01-05,22.238911,120.858903,2.0616973e-08
72D680,桃改新埔分場,2026-01-05,24.834444,121.066111,0.9992933
