站號,站名,日期,lat,lon,BLBTSLS
C1O850,環湖,2026-02-07,23.148617,120.418633,4.3132495e-10
C0S890,關山,2026-02-07,23.0395,121.175017,1.930927e-09
C1R120,上德文,2026-02-07,22.763272,120.704442,7.881969e-10
CAH030,茶改場竹圍站,2026-02-07,23.860083,120.637528,8.4991947e-10
V2K610,大庄合作社,2026-02-07,23.8068,120.367939,1.19930865e-08
G2AI50,關渡,2026-02-07,25.11575,121.492,3.694906e-08
C1S800,華源,2026-02-07,22.657883,121.02325,1.6885975e-09
C0R550,新埤,2026-02-07,22.467947,120.582894,3.8194473e-10
C1O880,關山,2026-02-07,23.173397,120.594092,3.8116746e-10
V2C260,八德蔬果,2026-02-07,24.978508,121.281819,1.4336231e-07
C0R260,春日,2026-02-07,22.370361,120.628306,3.5895034e-10
C1I211,蘆竹湳,2026-02-07,23.934019,120.811994,8.668479e-10
C1I260,北坑,2026-02-07,23.9246,121.006903,1.0313157e-09
467290,古坑,2026-02-07,23.633639,120.551889,5.435274e-10
C0SA40,瑞和,2026-02-07,22.974361,121.156697,2.1826083e-09
C0R490,九如,2026-02-07,22.7405,120.490503,4.3877172e-08
C0D430,峨眉,2026-02-07,24.6905,121.017189,2.084759e-08
C1I240,外大坪,2026-02-07,23.958697,120.917931,1.2620096e-09
C1V570,吉東,2026-02-07,22.85422,120.5454,4.4682174e-09
C0D480,打鐵坑,2026-02-07,24.849664,121.150789,6.557236e-08
V2C250,八德合作社,2026-02-07,24.93775,121.266389,1.6477753e-07
C0C480,桃園,2026-02-07,24.992425,121.323172,4.2718668e-08
