站號,站名,日期,lat,lon,BLBTSLS
C0R710,龍磐,2026-04-15,21.931672,120.838942,3.5516894e-08
C1F9D1,白毛台,2026-04-15,24.158325,120.886933,5.5385674e-09
C0G940,竹塘,2026-04-15,23.848253,120.386764,3.633094e-08
467590,恆春,2026-04-15,22.003897,120.746339,1.1626486e-07
C0U710,太平山,2026-04-15,24.505486,121.525656,5.839002e-09
C0E820,獅潭,2026-04-15,24.539133,120.920042,1.8138733e-08
C2SD70,二層坪,2026-04-15,22.94105,121.16838,1.835295e-06
C0V880,興達,2026-04-15,22.8778,120.2127,4.0615492e-07
C0SB30,新蘭,2026-04-15,22.869214,121.223228,6.4447426e-07
C2R970,屏科大,2026-04-15,22.648275,120.619247,0.9877069
C1Z130,銅門,2026-04-15,23.965694,121.492842,1.403833e-05
C0AD40,土城,2026-04-15,24.973208,121.445169,3.3972263e-08
CAN140,六官養殖協會,2026-04-15,23.22881,120.29962,2.0959729e-07
C0X180,山上,2026-04-15,23.0757,120.363253,0.00010682979
C0F9Z0,雪山東峰,2026-04-15,24.388792,121.268675,2.221569e-08
C1M480,獨立山,2026-04-15,23.537022,120.607797,4.551524e-09
C0X220,學甲,2026-04-15,23.230367,120.182187,1.4488356e-07
467650,日月潭,2026-04-15,23.881325,120.90805,3.1554195e-09
A2K570,古坑(花卉中心),2026-04-15,23.633531,120.552392,2.076433e-06
C0K600,箔子寮,2026-04-15,23.6197,120.14,9.071874e-08
C0G830,埤頭,2026-04-15,23.866003,120.452806,1.9152292e-08
C0S950,七塊厝,2026-04-15,22.954453,121.229922,8.3774154e-08
467110,金門,2026-04-15,24.407306,118.289281,3.7199719e-09
C0AH80,深坑,2026-04-15,25.002703,121.628328,1.879513e-06
C0A970,三貂角,2026-04-15,25.007606,122.002058,4.6276443e-07
C2D730,寶山農場,2026-04-15,24.732444,120.976153,2.192196e-09
C0K430,褒忠,2026-04-15,23.690938,120.303634,3.8762852e-08
467480,嘉義,2026-04-15,23.495925,120.432906,0.014120356
C0V400,阿公店,2026-04-15,22.804194,120.355528,0.01662858
C2S800,華源,2026-04-15,22.65783,121.0232,1.1260757e-06
C2SA40,瑞和,2026-04-15,22.974361,121.156697,1.9046864e-06
C0E960,觀霧分站,2026-04-15,24.505781,121.113921,7.1934743e-09
467550,玉山,2026-04-15,23.48718,120.95943,3.118487e-08
C0R440,大漢山,2026-04-15,22.405264,120.753181,1.4551651e-09
C0SD30,東清國小,2026-04-15,22.057128,121.564922,7.4128077e-09
C1F9B1,桐林,2026-04-15,24.066172,120.735194,4.7127036e-09
C2I210,蘆竹湳,2026-04-15,23.93398,120.81209,1.5739909e-09
C2H9U0,鳳鵬,2026-04-15,23.763919,120.788061,1.6133447e-08
C0K390,土庫,2026-04-15,23.679029,120.395574,1.6927704e-07
C1I450,望鄉山,2026-04-15,23.594153,120.944286,1.33745095e-08
C0E910,海埔,2026-04-15,24.648767,120.772435,8.0976585e-09
B2E890,畜試北區分所,2026-04-15,24.527806,120.770972,1.6337296e-08
C0R750,四林格山,2026-04-15,22.076989,120.802439,1.0474887e-09
C0F0C0,中坑,2026-04-15,24.248517,120.903319,6.419155e-09
C1I121,大鞍,2026-04-15,23.678381,120.760017,4.972862e-09
C2G9E0,移民庄,2026-04-15,23.9784,120.40283,2.5418485e-08
72U480,花改蘭陽分場,2026-04-15,24.686306,121.716583,3.3847095e-06
C0A770,科教館,2026-04-15,25.096356,121.516507,1.0216e-07
C0AJ60,六塊厝,2026-04-15,25.24,121.4481,3.8317807e-09
C0R620,墾雷,2026-04-15,21.900836,120.855269,6.0086215e-08
467420,永康,2026-04-15,23.038386,120.2367,7.2606454e-06
C2M530,奮起湖,2026-04-15,23.493903,120.699253,2.8731737e-09
C0I410,名間,2026-04-15,23.837053,120.701447,1.5532223e-07
A2C560,農工中心,2026-04-15,24.985917,121.239833,8.626289e-10
C0V740,旗山,2026-04-15,22.888614,120.483597,0.762462
C0Z061,玉里,2026-04-15,23.3215,121.339656,9.283519e-08
C0S840,南田,2026-04-15,22.279725,120.889208,5.572873e-06
C1I470,杉林溪,2026-04-15,23.639517,120.786444,4.1812487e-09
C1X040,東原,2026-04-15,23.291597,120.463822,0.00052990037
C0R660,枋寮,2026-04-15,22.367722,120.590647,0.34776396
C1R120,上德文,2026-04-15,22.763272,120.704442,0.9970594
C0K450,大埤,2026-04-15,23.646074,120.431537,4.741038e-06
C0UA00,土場,2026-04-15,24.576533,121.495333,2.86571e-08
467080,宜蘭,2026-04-15,24.763975,121.756528,5.327443e-07
C0N030,四草,2026-04-15,23.0235,120.1116,9.461417e-07
467410,臺南,2026-04-15,22.99328,120.20492,1.8796102e-07
C0V650,彌陀,2026-04-15,22.783806,120.246361,3.209201e-05
C0D660,新竹市東區,2026-04-15,24.798681,120.986942,9.622404e-10
82S580,茶改東部分場,2026-04-15,22.907694,121.130139,9.946662e-08
C0SB40,興隆,2026-04-15,22.913661,121.257469,0.00084033585
467050,新屋,2026-04-15,25.006725,121.047492,1.1331606e-09
C0C710,大溪永福,2026-04-15,24.892936,121.324975,1.1649729e-09
C0FA20,溫寮,2026-04-15,24.372177,120.583125,2.4534309e-08
C0V640,湖內,2026-04-15,22.887139,120.2445,4.0768623e-07
C0R910,下寮,2026-04-15,22.3929,120.5548,0.0031972
C0Z020,明里,2026-04-15,23.208717,121.262342,2.5567306e-07
C0M770,嘉義梅山,2026-04-15,23.585398,120.555587,0.0024742738
C0C660,楊梅,2026-04-15,24.912375,121.143047,7.780044e-10
C0SD40,牛頭山,2026-04-15,22.676661,121.506944,2.1473332e-08
C1E511,新開,2026-04-15,24.347703,120.827019,3.7996332e-07
G2F820,農試所(霧峰),2026-04-15,24.031261,120.688133,6.1880003e-09
C2M990,大巃頂,2026-04-15,23.5547,120.61439,1.7119893e-09
C1I070,和社,2026-04-15,23.591131,120.888861,3.3103915e-09
C2E990,新坪頂,2026-04-15,24.30201,120.8574,1.0548838e-07
C0TA80,立霧山,2026-04-15,24.183258,121.641899,4.4558766e-09
C2F000,大肚,2026-04-15,24.15295,120.572117,4.4624766e-09
C1S850,豐南,2026-04-15,23.122139,121.262389,8.613194e-08
C2M9B0,西興,2026-04-15,23.2428,120.57617,1.9874122e-07
C2A920,富貴角,2026-04-15,25.263783,121.565258,1.7637246e-09
C0T960,光復,2026-04-15,23.660694,121.424964,2.342008e-06
C0F9M0,豐原,2026-04-15,24.254322,120.720692,7.6518365e-09
C0R720,旭海,2026-04-15,22.205403,120.887614,8.3137444e-08
C0V710,苓雅,2026-04-15,22.622742,120.330669,4.1329994e-07
C0C740,觀音工業區,2026-04-15,25.064764,121.114856,1.3269637e-09
CAC040,拉拉山,2026-04-15,24.699317,121.427133,4.7088666e-09
C0V790,萬山,2026-04-15,22.905944,120.688056,0.9838646
U2HA30,臺大和社,2026-04-15,23.590856,120.888864,3.3103915e-09
C2H9K0,屯原,2026-04-15,24.067969,121.209389,6.329527e-09
C0AJ90,澳底,2026-04-15,25.0552,121.9253,3.0072794e-08
C0Z100,東華,2026-04-15,23.89525,121.549833,3.50441e-05
C0G970,三豐,2026-04-15,23.882,120.2895,4.099221e-08
C0V900,汕尾,2026-04-15,22.4782,120.4151,2.1999933e-05
C1R630,龍泉,2026-04-15,22.66701,120.59091,0.98955506
C1AC50,關渡,2026-04-15,25.133486,121.469331,1.7014097e-09
C0C800,四稜,2026-04-15,24.64733,121.4293,3.7379024e-09
C0F9I0,神岡,2026-04-15,24.272481,120.658314,2.778209e-08
C0K460,斗南,2026-04-15,23.678734,120.478359,4.794491e-06
C2O810,曾文,2026-04-15,23.219681,120.497328,0.00058823836
467280,後龍,2026-04-15,24.648563,120.831834,7.1181483e-09
C1F9J1,清水林,2026-04-15,24.071242,120.820419,2.0333635e-09
C2A650,火燒寮,2026-04-15,25.002719,121.742892,9.388397e-09
466930,竹子湖,2026-04-15,25.162078,121.544547,1.1422028e-09
C1I220,樟湖,2026-04-15,23.905333,120.846983,1.6807635e-09
C0I390,仁愛,2026-04-15,24.022122,121.132206,4.4099067e-09
C0Z300,東里,2026-04-15,23.26853,121.30547,7.699772e-08
C1V590,新發,2026-04-15,23.057019,120.646064,2.1466987e-05
C0K510,水林,2026-04-15,23.572924,120.24597,1.246145e-07
72S590,東改賓朗果園,2026-04-15,22.813889,121.071278,4.607647e-08
82A750,茶改北部分場,2026-04-15,24.955778,121.631222,6.2250534e-09
C1A750,石碇服務區,2026-04-15,25.00872,121.646242,3.299246e-05
C0X300,鹿寮,2026-04-15,23.386047,120.477331,0.08006138
C0K590,雲林東勢,2026-04-15,23.674192,120.255721,2.9390842e-08
C2K310,港尾布雞,2026-04-15,23.74834,120.38439,2.2144475e-07
C0A570,桶後,2026-04-15,24.848222,121.597992,5.1734443e-09
C0G720,溪州,2026-04-15,23.851589,120.499093,1.923811e-08
C1V160,達卡努瓦,2026-04-15,23.279811,120.705319,4.3221458e-09
C2M410,馬頭山,2026-04-15,23.324361,120.582017,0.00012187556
C0V850,蚵仔寮,2026-04-15,22.7256,120.2527,4.3011627e-05
C0S740,池上,2026-04-15,23.119628,121.209469,4.436095e-07
C1V390,尖山,2026-04-15,22.813153,120.367789,0.01233279
C0AH70,松山,2026-04-15,25.04871,121.55042,8.787984e-08
C0N010,鯤鯓國小,2026-04-15,23.1879,120.0889,4.408509e-07
C0SA60,知本（水試所）,2026-04-15,22.702394,121.082761,4.3889588e-05
C0T9I0,豐濱,2026-04-15,23.583897,121.514806,3.3398195e-05
C0UB00,淡江大學蘭陽校園,2026-04-15,24.823239,121.730383,1.536261e-08
C0W240,九宮,2026-04-15,24.423753,118.240186,3.2857703e-09
C0T9N0,富里,2026-04-15,23.171639,121.249378,1.6645234e-07
U2HA50,臺大竹山,2026-04-15,23.756972,120.681556,0.00041082484
C0V840,鳳鼻頭,2026-04-15,22.5083,120.3591,1.5330887e-05
C0X140,西港,2026-04-15,23.125608,120.203108,2.7281376e-06
72D080,桃改五峰分場,2026-04-15,24.612194,121.157167,3.4502687e-09
C2H9P0,伊拿谷,2026-04-15,23.963211,121.088264,4.6540336e-09
C2K250,崙背,2026-04-15,23.75553,120.31893,3.879584e-08
C2H9F0,柑林,2026-04-15,24.018658,120.847072,2.637362e-09
C0TA20,加灣,2026-04-15,24.082025,121.608944,9.12684e-05
C0V530,阿蓮,2026-04-15,22.883208,120.327508,0.0001679795
C0FB30,八仙山苗圃,2026-04-15,24.192719,121.001366,6.8669683e-09
C0E791,卓蘭,2026-04-15,24.3126,120.8244,2.514134e-07
C2R260,春日,2026-04-15,22.370361,120.628306,6.787024e-05
C1I030,武界,2026-04-15,23.913225,121.052483,3.753835e-09
C0R520,崁頂,2026-04-15,22.514781,120.506914,0.11107954
C0R341,牡丹,2026-04-15,22.130036,120.792639,2.5968993e-07
C0R930,萬丹,2026-04-15,22.5885,120.4851,0.00733576
C0S760,紅石,2026-04-15,23.069131,121.126219,3.0052365e-09
C2C410,中央大學,2026-04-15,24.967652,121.185165,8.5715096e-10
C1M610,石磐龍,2026-04-15,23.496606,120.663506,2.9353628e-09
C2C830,中德,2026-04-15,24.981862,121.291344,9.1385016e-10
C0C790,東眼山,2026-04-15,24.8284,121.40888,2.621884e-09
C0UA10,鴛鴦湖,2026-04-15,24.590269,121.412228,6.587444e-09
C0R800,丹路,2026-04-15,22.204481,120.750989,1.1108825e-06
C2R240,萬巒,2026-04-15,22.527306,120.625111,0.014502789
C0G920,永靖,2026-04-15,23.924703,120.547533,9.337144e-09
C2M950,太和,2026-04-15,23.538372,120.702961,2.8807188e-09
C1A630,下盆,2026-04-15,24.771003,121.538622,5.139827e-09
B2N890,畜產試驗所,2026-04-15,23.058972,120.336406,1.8024804e-06
C0UA30,白嶺,2026-04-15,24.527819,121.519031,4.6455817e-09
467571,新竹,2026-04-15,24.828575,121.01455,1.3947713e-09
C1V580,溪南(特生中心),2026-04-15,23.084972,120.788475,3.2876823e-09
C1T970,大農,2026-04-15,23.615233,121.413331,2.8316188e-06
C0R650,竹田,2026-04-15,22.58486,120.54344,0.18073982
C1H900,清流,2026-04-15,24.080775,120.962997,4.908116e-09
C1C510,水尾,2026-04-15,24.940081,121.087161,8.8311586e-10
C2N170,茅港尾,2026-04-15,23.2061,120.2624,2.0959729e-07
C0F9X0,大雅(中科園區),2026-04-15,24.21528,120.62445,1.3747493e-08
C0SB60,白守蓮,2026-04-15,23.126769,121.401914,2.5704878e-07
C0O970,虎頭埤,2026-04-15,23.021375,120.347878,0.00033637552
C0C730,中大臨海站,2026-04-15,24.966126,121.008581,1.787083e-09
C0X250,新營,2026-04-15,23.310689,120.316681,3.1232258e-07
C0V700,三民,2026-04-15,22.645017,120.311233,6.743168e-07
C0U870,大礁溪,2026-04-15,24.791042,121.675047,1.3704192e-08
C0E870,高鐵苗栗,2026-04-15,24.60725,120.826094,7.109695e-09
C2S890,關山,2026-04-15,23.0395,121.175017,6.259656e-05
C0TA30,鹽寮,2026-04-15,23.845606,121.592664,6.260659e-05
C0M860,新美,2026-04-15,23.338017,120.683169,2.471024e-07
C1E701,八卦,2026-04-15,24.491756,120.927619,1.3352225e-07
C2TA90,加納納,2026-04-15,23.466421,121.359867,5.3507094e-05
C0I420,國姓,2026-04-15,24.037803,120.855072,2.3891065e-09
C2D720,關西工作站,2026-04-15,24.757275,121.184792,3.0668486e-09
C2AK30,信賢,2026-04-15,24.84108,121.53492,4.1732973e-09
C0S960,香蘭,2026-04-15,22.587569,120.993375,9.927102e-08
467620,蘭嶼,2026-04-15,22.0369,121.55843,2.5267082e-09
C2UC40,中城,2026-04-15,24.62865,121.74745,1.309447e-07
72G600,臺中農改場,2026-04-15,24.003028,120.534389,2.7767084e-09
C0Z210,瑞穗,2026-04-15,23.5239,121.39021,6.863074e-05
C0M820,達邦,2026-04-15,23.453994,120.749517,6.51389e-09
C0V860,南寮,2026-04-15,22.7616,120.2339,4.3011627e-05
C0G740,大城,2026-04-15,23.852487,120.320935,4.0458726e-08
C0R920,塭仔,2026-04-15,22.4169,120.5197,0.0041801017
C0R470,高樹,2026-04-15,22.826389,120.600806,0.9915546
C0R680,佳樂水,2026-04-15,21.993578,120.861633,6.819513e-08
C1O870,大棟山,2026-04-15,23.31157,120.52226,7.746081e-09
C0D360,梅花,2026-04-15,24.678347,121.208558,2.6329392e-09
C0Z190,富世,2026-04-15,24.14743,121.6297,2.9987707e-06
C0AI10,屈尺,2026-04-15,24.92184,121.54475,1.964533e-08
B2U990,畜試東區分所,2026-04-15,24.669039,121.832561,2.3082104e-07
C0SB80,長濱漁港,2026-04-15,23.313644,121.459994,0.0009759076
C0TA50,和仁,2026-04-15,24.241394,121.712472,0.0011714364
C2AK40,漁光,2026-04-15,24.96875,121.72132,6.3289716e-09
C0V910,大樹,2026-04-15,22.684645,120.432803,0.7105023
C1R610,西大武山,2026-04-15,22.617719,120.7322,1.8052608e-09
C0G900,線西,2026-04-15,24.143358,120.443536,2.5234149e-08
C0M700,竹崎,2026-04-15,23.526178,120.555508,0.0147106955
C2E880,三義,2026-04-15,24.405478,120.749819,3.3517844e-09
C0C720,竹圍,2026-04-15,25.112692,121.239824,1.4902759e-09
C0F9P0,清水,2026-04-15,24.312297,120.562242,1.9047033e-07
C0Z150,吉安光華,2026-04-15,23.930925,121.595153,0.00061469304
C0FA80,小雪山天池,2026-04-15,24.28025,121.02627,2.123721e-08
467300,東吉島,2026-04-15,23.25727,119.66762,1.1498504e-06
C1D640,外坪(五指山),2026-04-15,24.644447,121.090961,1.5549415e-09
C2R9A0,高士國小,2026-04-15,22.12553,120.84653,4.4616195e-07
C0F9O0,潭子,2026-04-15,24.213106,120.703933,7.845676e-09
C2H9R0,卓社,2026-04-15,23.887894,121.000086,3.748126e-09
72T250,花蓮農改場,2026-04-15,23.975222,121.563889,0.00031074559
C0E780,銅鑼,2026-04-15,24.489681,120.790853,1.5137683e-08
C1T950,太安,2026-04-15,23.666719,121.370128,8.412607e-09
C0E830,苑裡,2026-04-15,24.439714,120.653053,1.6508858e-08
467270,田中,2026-04-15,23.873803,120.581286,3.939296e-08
C0SA10,檳榔四格山,2026-04-15,22.810031,121.109308,2.627813e-08
C1T830,布洛灣,2026-04-15,24.17184,121.57127,5.2603017e-08
C0F970,大坑,2026-04-15,24.173142,120.722289,8.341696e-09
C1U920,思源,2026-04-15,24.393125,121.347214,5.4857163e-09
C2H9Y0,松茗,2026-04-15,23.8167,120.650765,8.873848e-09
C0A931,三和,2026-04-15,25.233153,121.595236,1.891688e-09
C0I010,廬山,2026-04-15,24.033311,121.181808,5.6363127e-09
C2M940,日野賀,2026-04-15,23.434056,120.727169,3.683076e-09
C0R860,鼻頭,2026-04-15,22.1043,120.8979,7.780823e-08
C2I260,北坑,2026-04-15,23.92463,121.00683,7.842414e-09
C0UB20,壯圍,2026-04-15,24.7359,121.8163,3.2273483e-06
C0R790,九棚,2026-04-15,22.14195,120.889281,8.827863e-09
C0W110,東莒,2026-04-15,25.9652,119.98069,8.400917e-09
C1U930,粉鳥林,2026-04-15,24.497088,121.842479,1.8861873e-06
C0S830,長濱,2026-04-15,23.286817,121.411975,2.6984995e-07
C1F9F1,伯公龍,2026-04-15,24.272392,120.849047,4.265203e-07
C0UB90,太平山莊,2026-04-15,24.494171,121.536209,5.9419816e-09
C0E810,西湖,2026-04-15,24.562947,120.7485,5.4572675e-09
C1I440,新高口,2026-04-15,23.478744,120.878939,8.65999e-09
C0O840,王爺宮,2026-04-15,23.222064,120.40085,0.021903139
C0T9G0,鳳林山,2026-04-15,23.735269,121.420131,1.0117662e-08
C0X080,佳里,2026-04-15,23.173039,120.145086,3.578437e-07
C0FB70,大甲溪埔,2026-04-15,24.370625,120.620067,2.4557202e-08
C0Z310,清水斷崖,2026-04-15,24.218294,121.689142,0.00010859257
C0M680,太保,2026-04-15,23.455062,120.331455,3.2460882e-06
C1S820,金峰,2026-04-15,22.590969,120.933236,9.087443e-08
C0AD10,八里,2026-04-15,25.150211,121.403947,2.3786804e-09
C2K240,草嶺,2026-04-15,23.59555,120.693461,5.233878e-09
C1SA70,都蘭,2026-04-15,22.87794,121.226881,4.7975647e-07
C0K440,二崙,2026-04-15,23.772797,120.408944,1.5052451e-07
C1A760,坪林交控,2026-04-15,24.94284,121.713442,9.791927e-09
C0F9N0,大里,2026-04-15,24.092464,120.701378,4.728442e-09
C0SA90,達仁林場,2026-04-15,22.264347,120.823972,1.9314244e-09
C1R290,石門山,2026-04-15,22.112611,120.756597,2.3559776e-09
42HA10,萬大發電廠,2026-04-15,23.978875,121.139639,4.5217927e-09
C0R890,山海,2026-04-15,21.9878,120.7091,1.5171132e-07
C0T9A0,月眉山,2026-04-15,23.809928,121.539828,9.954364e-09
C0AC70,信義,2026-04-15,25.037822,121.564597,1.7744294e-07
C0K560,棋山,2026-04-15,23.68645,120.603417,7.29728e-07
C2FB50,出雲,2026-04-15,24.206469,120.902794,5.245741e-09
C1Z240,中平林道,2026-04-15,23.42115,121.26763,7.1012924e-09
U2H480,溪頭,2026-04-15,23.670306,120.798194,2.8311986e-09
C0M880,好美里,2026-04-15,23.3364,120.138,4.7482548e-08
C0T9E0,大坑,2026-04-15,23.880628,121.581981,1.124414e-07
C0K530,臺西,2026-04-15,23.701547,120.197559,4.948038e-08
C1E900,國一N128K,2026-04-15,24.560997,120.844186,9.264058e-09
C0AJ50,水湳洞,2026-04-15,25.123695,121.862238,2.8373627e-08
C0AI20,白沙灣,2026-04-15,25.283128,121.519058,4.6132906e-09
C2V310,美濃,2026-04-15,22.898792,120.51907,0.76186997
C0A860,大坪,2026-04-15,25.165914,121.632969,1.924002e-06
C1U850,觀音海岸,2026-04-15,24.38319,121.77856,1.0643521e-08
C2K610,草嶺石壁,2026-04-15,23.602469,120.707731,4.9157234e-09
C0U950,鶯子嶺,2026-04-15,24.89754,121.79244,6.6007506e-09
C0O900,善化,2026-04-15,23.112883,120.297219,1.8133926e-06
C0K550,蔦松,2026-04-15,23.514319,120.229736,2.6687198e-07
E2P980,林試六龜中心,2026-04-15,22.991703,120.645722,0.56213766
C0E590,通霄,2026-04-15,24.471892,120.704622,8.458866e-09
C1I310,西巒,2026-04-15,23.754486,120.883956,6.1952985e-09
C0A550,泰平,2026-04-15,24.971197,121.823711,8.15703e-09
C2UC30,金洋,2026-04-15,24.42465,121.74573,2.2691389e-05
C0I360,水里,2026-04-15,23.812553,120.849792,1.1151825e-08
C0R830,高士,2026-04-15,22.121825,120.836781,1.680193e-09
C1I101,溪頭,2026-04-15,23.661789,120.807647,4.799589e-09
C0AJ20,野柳,2026-04-15,25.20703,121.690021,1.4956892e-09
C0B060,暖暖,2026-04-15,25.0957,121.7403,1.1437472e-07
C1H920,長豐,2026-04-15,24.102039,120.879897,4.6443587e-09
C2S9B0,利吉,2026-04-15,22.86246,121.15486,1.00425105e-07
C0V360,內門,2026-04-15,22.975481,120.466769,0.046987418
C0R850,林邊,2026-04-15,22.4634,120.5339,0.021699315
C0E930,龍鳳,2026-04-15,24.700034,120.859125,1.6059508e-09
C0U910,冬山,2026-04-15,24.63373,121.7937,2.3082104e-07
C1E721,泰安,2026-04-15,24.489017,120.968036,6.062876e-09
82H320,茶改中部分場,2026-04-15,23.875611,120.913583,3.4488805e-09
C0M750,布袋,2026-04-15,23.380878,120.167789,1.812513e-07
C1S860,利嘉,2026-04-15,22.809417,121.050528,4.688872e-09
E2S980,林試太麻里1,2026-04-15,22.598922,120.980044,2.802754e-07
C0X170,關廟,2026-04-15,22.963017,120.327797,0.00089500094
C0V720,林園,2026-04-15,22.507747,120.394511,2.3077133e-05
C2M9G0,沄水,2026-04-15,23.38293,120.52666,0.0012411653
C1I510,線浸林道,2026-04-15,23.761508,120.832956,3.0246619e-09
C0D690,外湖,2026-04-15,24.917735,120.968711,2.2047169e-09
C0C750,新興坑尾,2026-04-15,25.0061,121.0971,1.0185037e-09
B2Q810,畜試南區分所,2026-04-15,21.945583,120.802167,6.8195256e-08
C0S790,金崙,2026-04-15,22.538122,120.966875,1.4208572e-07
C0AH90,福山植物園,2026-04-15,24.760717,121.58135,4.2588075e-09
C0I540,奇萊稜線,2026-04-15,24.109231,121.326456,2.1452985e-08
C0M850,表湖,2026-04-15,23.24186,120.64166,1.175031e-06
C0S770,大溪山,2026-04-15,22.478475,120.943325,1.6641758e-09
C0AG80,中和,2026-04-15,24.991622,121.491792,3.3972263e-08
C0T790,大禹嶺,2026-04-15,24.186117,121.316086,1.7690487e-08
C0T9B0,水源,2026-04-15,23.991861,121.537169,1.0033911e-08
C0R840,牡丹池山,2026-04-15,22.168389,120.841225,1.8960118e-09
C1I131,桶頭,2026-04-15,23.641944,120.654117,0.00022049743
CAL110,布袋國中,2026-04-15,23.35893,120.18026,4.7482548e-08
C2M9D0,何竹子腳,2026-04-15,23.53641,120.38203,0.0146201
C0Z290,赤柯山,2026-04-15,23.36893,121.38293,2.436785e-09
C0X280,將軍,2026-04-15,23.214999,120.13577,1.497172e-07
C0S690,太麻里,2026-04-15,22.60902,120.98533,5.4333174e-09
C0U880,北關,2026-04-15,24.9072,121.8734,4.755456e-07
CAW010,東引,2026-04-15,26.3588,120.4836,8.514728e-09
C0G810,埔心,2026-04-15,23.947633,120.525456,9.507456e-09
C0U970,大福,2026-04-15,24.80064,121.81389,5.487864e-07
C2H9N0,仁愛東眼,2026-04-15,24.026875,121.1205,4.9767146e-09
C1E670,南礦,2026-04-15,24.538278,121.002836,4.3154738e-09
C0M520,東後寮,2026-04-15,23.369908,120.248065,3.7234663e-08
C1E461,松安,2026-04-15,24.397972,120.986022,3.7701016e-09
C2N160,西拉雅風管處,2026-04-15,23.189481,120.335297,1.0294167e-06
C2O850,環湖,2026-04-15,23.148665,120.4186,0.0020201057
C2M970,碧湖,2026-04-15,23.568632,120.624165,1.7028219e-09
C0A640,石碇,2026-04-15,24.993969,121.662917,9.791927e-09
E2S960,林試太麻里2,2026-04-15,22.598,120.99775,1.1017661e-07
C0F9Y0,桃山,2026-04-15,24.432739,121.303808,2.1324153e-08
C1I020,萬大,2026-04-15,23.979817,121.132261,4.3812256e-09
C2UC20,長嶺,2026-04-15,24.70894,121.61162,6.6342745e-09
C0U940,羅東,2026-04-15,24.68184,121.74934,3.578857e-06
C0M650,朴子,2026-04-15,23.43463,120.23902,3.214577e-08
C1I500,大尖山,2026-04-15,23.858572,120.994889,7.1212307e-09
C0FB40,中橫21.6k,2026-04-15,24.2499,121.1455,6.3641856e-09
C0G820,田尾,2026-04-15,23.901669,120.509389,9.507456e-09
E2K600,四湖植物園,2026-04-15,23.676986,120.163433,7.338477e-08
C0S730,綠島,2026-04-15,22.6672,121.47533,2.3760968e-08
12Q970,東港工作站,2026-04-15,22.479997,120.466058,0.03659684
C1TA00,太魯閣,2026-04-15,24.15773,121.6236,8.2842047e-07
466920,臺北,2026-04-15,25.037658,121.514853,8.787984e-08
C0R600,舊泰武,2026-04-15,22.588194,120.664944,8.2047546e-07
466910,鞍部,2026-04-15,25.182586,121.529731,1.2522268e-09
C1I230,九份二山,2026-04-15,23.961944,120.845,1.4434279e-09
C2M810,里佳,2026-04-15,23.389125,120.716647,3.658222e-09
C2A660,瑞芳,2026-04-15,25.113169,121.801147,2.754343e-07
C0R270,琉球嶼,2026-04-15,22.332244,120.362236,4.4663786e-08
C2V580,瑞山,2026-04-15,22.90304,120.43424,0.31984654
C1T990,高寮,2026-04-15,23.394239,121.356808,0.00018551156
C0G620,芬園,2026-04-15,24.015678,120.6213,2.934568e-09
C1Z140,荖溪,2026-04-15,23.890575,121.45964,5.842433e-09
C1I201,中心崙,2026-04-15,23.728722,120.712097,1.038741e-08
C1I400,凌霄,2026-04-15,24.018778,121.004456,4.8929176e-09
C1M640,十字,2026-04-15,23.492153,120.753683,4.391047e-09
G2P820,農試鳳山分所,2026-04-15,22.646611,120.356083,4.070033e-07
C0Z270,蕃薯寮,2026-04-15,23.73835,121.540108,7.8831945e-08
C2E420,竹南,2026-04-15,24.70898,120.88897,1.5538653e-09
C2D480,打鐵坑,2026-04-15,24.849664,121.150789,2.4759994e-09
C0FB10,出雲山苗圃,2026-04-15,24.23105,120.90475,6.419155e-09
C0F9Q0,外埔,2026-04-15,24.347817,120.705686,5.5883376e-08
C0K580,高鐵雲林,2026-04-15,23.737456,120.417944,2.1750174e-07
C2I090,鳳凰,2026-04-15,23.728081,120.787347,3.8399017e-09
C0U990,員山,2026-04-15,24.74435,121.72247,4.0412715e-06
C0V770,大社,2026-04-15,22.730306,120.346639,6.404566e-05
C0X120,麻豆,2026-04-15,23.183289,120.248611,2.3597548e-07
C0C670,龍潭,2026-04-15,24.870056,121.221389,2.8074252e-09
C0D680,香山濕地,2026-04-15,24.783581,120.914988,2.2047169e-09
C0S980,勝林山,2026-04-15,22.430439,120.8938,1.3162454e-09
C0V730,大寮,2026-04-15,22.605614,120.395717,4.0999288e-07
C0R570,麟洛,2026-04-15,22.65078,120.52719,0.9973763
C2M930,石卓,2026-04-15,23.478744,120.702264,4.336034e-09
C0G9B0,和美,2026-04-15,24.105169,120.492131,3.0826612e-08
C2I240,外大坪,2026-04-15,23.9587,120.91788,3.0794978e-09
CAG100,王功漁港,2026-04-15,23.96824,120.32586,4.2929482e-08
C0X290,北門,2026-04-15,23.267772,120.125481,1.4971734e-07
C2F930,大甲,2026-04-15,24.347667,120.640403,6.42641e-08
C0D650,湖口,2026-04-15,24.904794,121.043628,1.3754096e-09
C0U780,五結,2026-04-15,24.68637,121.79794,2.3082104e-07
C1I250,鯉潭,2026-04-15,23.961922,120.991131,5.1354663e-09
C0R130,阿禮,2026-04-15,22.742908,120.743678,1.5628455e-08
C0X100,臺南市北區,2026-04-15,23.010394,120.194228,1.8972666e-07
C0S920,金峰嘉蘭,2026-04-15,22.594789,120.960825,4.2962167e-08
C0V490,新興,2026-04-15,22.627422,120.298803,1.8116331e-06
C0F9K0,大安,2026-04-15,24.345061,120.588025,6.283676e-08
467290,古坑,2026-04-15,23.633639,120.551889,0.98508704
C2E970,八甲,2026-04-15,24.535811,120.795983,8.718095e-09
C0V440,鳳山,2026-04-15,22.646653,120.356122,4.070033e-07
C1T940,大觀,2026-04-15,23.714206,121.373133,8.778683e-09
C0E740,造橋,2026-04-15,24.637056,120.864778,3.119574e-09
C0R100,尾寮山,2026-04-15,22.833111,120.683889,1.0693802e-08
A2K630,臺大雲林校區,2026-04-15,23.730628,120.423903,2.1759033e-07
467990,馬祖,2026-04-15,26.169467,119.923158,1.4290605e-08
C0D580,寶山,2026-04-15,24.735006,121.025192,1.5789493e-09
E2P990,林試扇平站,2026-04-15,22.9677,120.6857,0.0043546124
C0AI30,三重,2026-04-15,25.057328,121.500629,1.0216e-07
C0AH00,汐止,2026-04-15,25.066881,121.658778,0.00013769232
C1Z040,立山,2026-04-15,23.443356,121.327375,9.698618e-09
466881,新北,2026-04-15,24.959207,121.525196,3.2014583e-08
C0W130,花嶼,2026-04-15,23.40007,119.32276,7.2978924e-07
C0A950,鼻頭角,2026-04-15,25.129036,121.923372,1.2128728e-06
C0K470,林內,2026-04-15,23.748675,120.609642,7.4502736e-07
C2F990,摩天嶺,2026-04-15,24.322458,120.936819,6.0771628e-09
C2E430,南庄,2026-04-15,24.601775,121.000214,1.4003237e-09
82C160,茶改場,2026-04-15,24.908472,121.185333,7.605504e-10
C2TB60,南安,2026-04-15,23.29818,121.26157,4.9091295e-08
C0Z320,清水林道,2026-04-15,23.27125,121.188272,3.744267e-09
C0R760,南仁湖,2026-04-15,22.084681,120.863353,2.2307607e-09
C0M670,大林,2026-04-15,23.600616,120.45841,0.008350031
C0M800,茶山,2026-04-15,23.299075,120.664767,5.4663545e-08
C0A9C0,天母,2026-04-15,25.117494,121.537169,1.6847564e-07
72K220,南改斗南分場,2026-04-15,23.634556,120.477333,4.5344186e-06
72AI40,桃改樹林分場,2026-04-15,24.944503,121.386972,1.6437003e-08
C0S910,蘭嶼燈塔,2026-04-15,22.081197,121.503117,5.4509632e-09
C0B050,八斗子,2026-04-15,25.144754,121.79167,3.300006e-06
C0U900,內城,2026-04-15,24.71813,121.68766,8.111494e-06
C0X320,柳營,2026-04-15,23.253328,120.375253,0.027880006
C0M790,新港,2026-04-15,23.553269,120.345728,9.6799184e-08
C0F9T0,西屯,2026-04-15,24.179494,120.641275,1.4274042e-08
C0E950,松安,2026-04-15,24.39792,120.98599,3.7701016e-09
C0SA30,都歷,2026-04-15,23.020333,121.323642,0.0006292417
C0C620,蘆竹,2026-04-15,25.084275,121.265767,1.1136919e-09
C0R730,大坪頂,2026-04-15,22.024633,120.69355,2.0372969e-08
C0AJ40,石門,2026-04-15,25.273672,121.601198,2.1009485e-09
C0E750,苗栗,2026-04-15,24.564569,120.824575,9.251027e-09
C0T870,鯉魚潭,2026-04-15,23.935639,121.508944,2.4252296e-05
C1V170,排雲,2026-04-15,23.463619,120.954147,2.6424138e-08
C2H950,中寮,2026-04-15,23.884447,120.766406,7.5033215e-09
C0R350,貓鼻頭,2026-04-15,21.921774,120.7358,1.2305175e-07
C0V660,岡山,2026-04-15,22.797078,120.294958,2.9809908e-05
C1H941,雙冬,2026-04-15,23.967378,120.802189,1.4995798e-09
C0AJ70,田寮,2026-04-15,25.2698,121.4886,4.708705e-09
C0AI00,五股,2026-04-15,25.07445,121.42728,1.209739e-08
C0Z280,德武,2026-04-15,23.47426,121.41071,9.839958e-05
C2RA10,大新,2026-04-15,22.67558,120.57788,0.98955506
C0R700,枋山,2026-04-15,22.246844,120.661086,0.00030372708
C0C460,復興,2026-04-15,24.820208,121.352281,3.904577e-09
C2AA10,中八仙,2026-04-15,25.11576,121.49199,2.6289592e-07
C2K300,鹿南,2026-04-15,23.63855,120.3636,1.1607541e-07
E2H360,蓮華池,2026-04-15,23.918333,120.885278,3.6520729e-09
C0M640,中埔,2026-04-15,23.42538,120.5229,0.029790642
C2C810,八德蔬果,2026-04-15,24.97858,121.28187,9.1385016e-10
C2M9F0,安溪寮,2026-04-15,23.350334,120.208039,4.5970165e-08
C0W140,金沙,2026-04-15,24.488292,118.408778,4.613009e-09
C2A540,四堵,2026-04-15,24.8926,121.745736,1.0029835e-08
C0ACA0,新莊,2026-04-15,25.051478,121.446756,2.4068225e-07
C0R220,潮州,2026-04-15,22.534361,120.54,0.063997045
U2HA40,臺大內茅埔,2026-04-15,23.689722,120.851117,7.2843793e-09
467490,臺中,2026-04-15,24.145736,120.684075,8.545869e-09
C0UB60,明池,2026-04-15,24.650688,121.475277,2.9641745e-09
C0U960,翠峰湖,2026-04-15,24.510856,121.608044,5.543461e-09
E2HA20,林試畢祿溪站,2026-04-15,24.226944,121.308522,9.081046e-09
C2M9A0,大華,2026-04-15,23.4824,120.67491,5.1309135e-09
C0V890,前鎮,2026-04-15,22.5718,120.3117,1.5798033e-06
C1F941,雪嶺,2026-04-15,24.280586,121.026642,2.123721e-08
C2H9E0,國姓南港,2026-04-15,23.911108,120.846556,1.7348909e-09
C0AC80,文山,2026-04-15,25.00235,121.575728,3.0429008e-09
C0F9R0,龍井,2026-04-15,24.184536,120.528972,5.0940173e-08
C0M760,民雄,2026-04-15,23.551754,120.428457,0.008350031
C0UA40,西德山,2026-04-15,24.560647,121.752608,7.4272717e-09
C2TA70,赤科坪,2026-04-15,23.39885,121.39168,4.491887e-09
C1T920,中興,2026-04-15,23.769503,121.498653,1.4468474e-05
C0D550,雪霸,2026-04-15,24.526972,121.11605,6.1794845e-09
C2F860,梨山,2026-04-15,24.247522,121.243669,1.3598893e-08
C0R320,車城,2026-04-15,22.0744,120.716247,1.4548182e-07
C1S870,南美山,2026-04-15,23.15025,121.382333,1.708301e-08
C0B020,基隆嶼,2026-04-15,25.19141,121.78391,1.8235639e-06
C1U501,牛鬥,2026-04-15,24.637836,121.573656,8.67072e-08
C0M730,嘉義市東區,2026-04-15,23.457673,120.460531,0.09056252
C2R990,泰武,2026-04-15,22.60686,120.69765,2.5070068e-09
C0S700,知本,2026-04-15,22.684866,121.005642,4.9498667e-09
C1N001,沙崙,2026-04-15,22.935472,120.309406,0.00090554665
C0V760,橋頭,2026-04-15,22.757806,120.30575,6.385678e-05
C2V570,吉東,2026-04-15,22.85418,120.54539,0.99333507
C0G960,福寶,2026-04-15,24.0443,120.3814,3.1667927e-08
C0X210,白河,2026-04-15,23.347466,120.414427,0.13809225
C0S810,東河,2026-04-15,22.972672,121.303986,0.00028834652
C2R170,屏東,2026-04-15,22.66027,120.49403,0.9973763
C0R670,楓港,2026-04-15,22.190131,120.692156,0.0001163052
C0FA50,霧峰,2026-04-15,24.0419,120.6995,4.689328e-09
C0UB10,蘇澳,2026-04-15,24.5969,121.8571,1.3943736e-07
C0G950,防潮門,2026-04-15,24.1835,120.4871,2.3821185e-08
C0M740,六腳,2026-04-15,23.492871,120.290625,8.100643e-08
C1R250,力里,2026-04-15,22.428117,120.629228,0.0011112214
C0K330,虎尾,2026-04-15,23.719183,120.442036,2.1884041e-07
C2FA00,烏石坑,2026-04-15,24.273503,120.947617,6.0901475e-09
C0V620,永安,2026-04-15,22.82315,120.236856,2.9712644e-05
C1I330,楓樹林,2026-04-15,23.986803,121.076117,4.02538e-09
C0W200,湖西,2026-04-15,23.596314,119.67275,1.1271587e-06
72Q010,高雄農改場,2026-04-15,22.709333,120.525889,0.9962541
C0C680,龜山,2026-04-15,25.02846,121.38656,2.2307989e-09
C2V260,月眉,2026-04-15,22.971003,120.539853,0.031643793
C0V450,鳳森,2026-04-15,22.545064,120.392592,8.17753e-06
C0FA90,小雪山林道,2026-04-15,24.29515,121.03651,2.788689e-08
C0U720,南山,2026-04-15,24.43742,121.38167,5.713999e-09
A2N290,臺南蘭花園區,2026-04-15,23.340258,120.379661,0.07344732
C0R560,新園,2026-04-15,22.5434,120.461558,2.3077133e-05
C0U890,三星,2026-04-15,24.66812,121.65302,8.88679e-07
C1V300,御油山,2026-04-15,23.001983,120.715364,3.2295953e-09
C0U600,礁溪,2026-04-15,24.817539,121.765608,4.9247916e-07
C1T980,龍澗,2026-04-15,24.023289,121.411328,4.323803e-09
C0D670,海天一線,2026-04-15,24.831986,120.914438,2.086763e-09
C0SA00,歷坵,2026-04-15,22.520969,120.89185,1.9669926e-08
C0M710,東石,2026-04-15,23.458927,120.15385,1.7431483e-07
C0M780,鹿草,2026-04-15,23.41134,120.30835,3.1766778e-08
C0U520,雙連埤,2026-04-15,24.753033,121.641303,1.13822995e-08
C0B010,七堵,2026-04-15,25.094819,121.71713,1.3609879e-06
C0R480,長治,2026-04-15,22.693128,120.542622,0.9867262
C1V830,國三S383K,2026-04-15,22.781967,120.426475,0.9736399
12Q980,恆春工作站,2026-04-15,22.079678,120.714425,1.4548182e-07
C1O940,東山服務區,2026-04-15,23.286016,120.398472,0.07375053
C1U840,東澳嶺,2026-04-15,24.5378,121.8485,9.80127e-09
C1D630,飛鳳山,2026-04-15,24.766464,121.119178,2.1751485e-09
C0S940,石寧山,2026-04-15,23.223772,121.406639,1.5888114e-06
C0K410,北港,2026-04-15,23.573957,120.292802,1.2501981e-07
C2M620,瑞里,2026-04-15,23.545133,120.675197,3.0174994e-09
C0SB70,小港漁港,2026-04-15,23.158558,121.400431,2.1738975e-07
C2O950,安南,2026-04-15,23.076694,120.144861,6.5669667e-07
C0F0E0,南湖圈谷,2026-04-15,24.363714,121.444667,2.890236e-08
467610,成功,2026-04-15,23.097486,121.373428,1.9061183e-06
C0G890,伸港,2026-04-15,24.148933,120.484403,2.3558213e-08
C2E540,龍溪,2026-04-15,24.606489,120.783933,9.4201456e-09
C1V200,梅山,2026-04-15,23.268447,120.823556,5.208484e-09
C0T9H0,加路蘭山,2026-04-15,23.682947,121.5274,4.275133e-09
C2O930,玉井,2026-04-15,23.126042,120.46055,0.0020201057
C1F911,新伯公,2026-04-15,24.221361,120.841069,2.9181093e-08
C0X200,左鎮,2026-04-15,23.056758,120.408522,0.008023608
C2TB50,麻汝,2026-04-15,23.42554,121.39358,8.2414605e-05
C0FA60,鞍馬山工作站,2026-04-15,24.267064,121.000793,1.32196245e-08
C0SB50,叭嗡嗡,2026-04-15,23.047062,121.343223,3.0155331e-06
C2R550,新埤,2026-04-15,22.467947,120.582894,0.1451596
C1F891,稍來,2026-04-15,24.265689,121.001142,1.2787361e-08
C2M9C0,紫雲,2026-04-15,23.494914,120.540253,0.03799337
72N240,七股研究中心,2026-04-15,23.081672,120.062894,9.461417e-07
C0C700,中壢,2026-04-15,24.977661,121.256375,9.0229263e-10
C0M690,水上,2026-04-15,23.419734,120.388909,0.015592259
C0V690,鼓山,2026-04-15,22.623325,120.275575,1.8116331e-06
C0O860,大內,2026-04-15,23.11885,120.36083,8.886332e-07
C0Z200,萬榮,2026-04-15,23.709219,121.420106,5.038196e-07
C0T9D0,和中,2026-04-15,24.26676,121.74103,0.0012554318
C2S9A0,北份子寮,2026-04-15,22.78561,121.07813,2.166471e-06
C1O921,楠西,2026-04-15,23.183511,120.484083,0.0018739564
C0AJ30,淡水觀海,2026-04-15,25.184591,121.408616,2.5696916e-09
C0V810,左營,2026-04-15,22.67491,120.28491,6.743168e-07
C0UA70,桃源谷,2026-04-15,24.962606,121.888875,8.450786e-09
C0X130,官田,2026-04-15,23.193217,120.315422,1.0539452e-06
C1H000,翠峰,2026-04-15,24.109397,121.205211,1.0165925e-08
C0UA90,石城,2026-04-15,24.980444,121.951214,1.2921976e-06
C1E681,南勢山,2026-04-15,24.421669,120.923831,4.760297e-08
C0A9F0,內湖,2026-04-15,25.079422,121.57545,1.7744294e-07
C0K291,宜梧,2026-04-15,23.536281,120.169329,8.9256595e-08
C1K540,口湖,2026-04-15,23.585344,120.180517,9.071874e-08
C0R780,滿州,2026-04-15,22.024403,120.839892,4.7308166e-08
C0V870,文安,2026-04-15,22.8025,120.2164,4.3011627e-05
C0U650,玉蘭,2026-04-15,24.675286,121.587061,6.5807755e-09
C0R640,東港,2026-04-15,22.46247,120.44074,1.5330887e-05
C0AJ80,板橋,2026-04-15,25.0107,121.4489,3.3972263e-08
C0S660,下馬,2026-04-15,23.150427,121.070312,5.5997944e-09
C2N190,烏樹,2026-04-15,23.32393,120.36989,0.00021956512
C1H9B1,阿眉,2026-04-15,24.1263,120.994672,7.6610664e-09
C0UA20,多加屯,2026-04-15,24.368614,121.373189,1.1246238e-08
C0E730,頭份,2026-04-15,24.688247,120.912206,1.5600838e-09
72V140,高改旗南分場,2026-04-15,22.857861,120.516667,0.09764118
C2R490,九如,2026-04-15,22.74049,120.490555,0.9962541
C0K480,莿桐,2026-04-15,23.761192,120.502372,1.6512578e-05
C0U980,坪林石牌,2026-04-15,24.86478,121.77396,8.733956e-09
C0T900,西林,2026-04-15,23.8119,121.441458,1.1015314e-06
C1I150,青雲,2026-04-15,23.793361,120.949378,3.9595576e-09
C2E980,和興,2026-04-15,24.505319,120.923016,7.2036306e-07
467350,澎湖,2026-04-15,23.565503,119.563094,1.7473805e-06
C0G800,埔鹽,2026-04-15,24.000394,120.431683,2.789173e-08
C0H960,草屯,2026-04-15,23.973672,120.68085,1.0480427e-08
C1V780,多納林道,2026-04-15,22.888028,120.737917,1.8877458e-08
C0E920,通霄漁港,2026-04-15,24.498589,120.673876,8.647776e-09
C0Z330,安通山,2026-04-15,23.290728,121.348528,4.7250523e-09
C0AH10,永和,2026-04-15,25.01125,121.508111,3.544117e-08
C0AK10,太平里,2026-04-15,25.134937,121.364899,1.536015e-08
C2G640,鹿港,2026-04-15,24.0753,120.430481,3.0869092e-08
C1E890,國三N149K,2026-04-15,24.463414,120.680019,8.385741e-09
C1R110,口社,2026-04-15,22.770111,120.645222,0.9940188
C1M870,國三N285K,2026-04-15,23.550319,120.505833,0.034950018
C1E480,鳳美,2026-04-15,24.554803,121.034747,2.8071304e-07
C0T9M0,靜浦,2026-04-15,23.455167,121.495028,0.0001797858
C2H9M0,發祥,2026-04-15,24.154094,121.164517,6.3824195e-09
C2G9C0,埔南,2026-04-15,23.99124,120.46969,2.789173e-08
C0AI40,石牌,2026-04-15,25.115597,121.513139,1.7744294e-07
C1F871,上谷關,2026-04-15,24.203483,121.018644,6.0901475e-09
C2H9G0,百勝,2026-04-15,24.051142,120.909361,6.2669523e-09
C0G880,二水,2026-04-15,23.810742,120.6173,3.0962974e-07
C0R940,加祿堂,2026-04-15,22.3363,120.6217,0.002320456
C0W220,北竿,2026-04-15,26.220358,119.974881,1.0974682e-08
C0O960,崎頂,2026-04-15,22.959547,120.369317,0.00080669485
C0TA40,秀林,2026-04-15,24.302864,121.731144,9.432389e-09
C0S750,向陽,2026-04-15,23.248397,120.986133,5.6532916e-09
C0T9F0,水璉,2026-04-15,23.797131,121.542514,1.9075681e-07
C1M600,頭凍,2026-04-15,23.406364,120.603339,1.9622104e-09
467660,臺東,2026-04-15,22.752211,121.154586,6.402662e-08
C1D380,新埔,2026-04-15,24.84745,121.03834,1.3533267e-09
C2G980,田頭村,2026-04-15,23.8263,120.444175,1.5390201e-07
C0V750,路竹,2026-04-15,22.854997,120.259439,3.0018384e-05
C0N050,蚵寮,2026-04-15,23.301,120.1104,1.497172e-07
C2X060,下營,2026-04-15,23.226806,120.256291,2.0959729e-07
72M700,南改鹿草分場,2026-04-15,23.416869,120.283061,3.2239225e-08
C1SA50,利嘉林道,2026-04-15,22.82325,121.009389,1.677772e-09
C0UB70,太平山中間站,2026-04-15,24.542003,121.513453,4.2334016e-09
C0A940,金山,2026-04-15,25.223628,121.643967,6.4268733e-09
C1V340,大津,2026-04-15,22.888322,120.645986,0.97315586
C0W180,七美,2026-04-15,23.219333,119.444892,1.1850472e-05
C1F9C1,白冷,2026-04-15,24.182844,120.929889,5.7878196e-09
K2E710,苗改生物防治研究中心,2026-04-15,24.422861,120.871833,4.6033602e-08
C0N040,蘆竹溝,2026-04-15,23.2344,120.0961,1.5055653e-07
C0TB40,崇德,2026-04-15,24.166144,121.657414,4.856129e-05
C0D760,大坪苗圃,2026-04-15,24.5362,121.1108,4.301413e-09
C2D430,峨眉,2026-04-15,24.6905,121.017189,1.9105908e-09
C2W230,畜試所澎湖,2026-04-15,23.628342,119.513206,1.4496982e-06
C0R880,後壁湖,2026-04-15,21.9457,120.7457,1.5171116e-07
C1I280,埔中,2026-04-15,23.820778,120.642594,8.372636e-09
467790,墾丁雷達站,2026-04-15,21.948235,120.808028,5.4492197e-08
C0W190,望安,2026-04-15,23.380564,119.494075,1.5099538e-06
C0Z170,卓溪,2026-04-15,23.3443,121.3029,6.741773e-06
C0F850,東勢,2026-04-15,24.246428,120.833047,3.595119e-08
466900,淡水,2026-04-15,25.164889,121.448906,5.1067492e-09
C0I370,魚池,2026-04-15,23.895703,120.94135,3.312419e-09
C0C630,大溪,2026-04-15,24.882853,121.265547,7.625374e-10
C0A520,山佳,2026-04-15,24.974944,121.402008,1.7887107e-08
C0I110,竹山,2026-04-15,23.761225,120.688156,0.0006080067
82H840,茶改南部分場,2026-04-15,23.762528,120.7405,1.5889169e-08
C2SD80,再來山,2026-04-15,23.34371,121.44122,1.8033807e-05
C0G660,溪湖,2026-04-15,23.94835,120.479122,9.575338e-09
C1T800,洛韶,2026-04-15,24.204558,121.453956,6.317948e-09
C1T810,慈恩,2026-04-15,24.192044,121.388386,6.3877175e-09
C1E451,象鼻,2026-04-15,24.368617,120.940228,4.760297e-08
C0AC60,三峽,2026-04-15,24.939025,121.369728,2.0843285e-09
C0I490,萬大林道,2026-04-15,23.928228,121.091411,5.041625e-09
C1I290,豐丘,2026-04-15,23.668178,120.887417,6.68905e-09
C1I320,奧萬大,2026-04-15,23.952956,121.178556,4.0038173e-09
C2M910,嘉義大學,2026-04-15,23.471325,120.485903,0.08160018
C0U770,南澳,2026-04-15,24.44935,121.81022,1.8861873e-06
C2TB30,吉安,2026-04-15,23.94538,121.54803,0.00010964138
C0A980,社子,2026-04-15,25.109508,121.469681,1.1905288e-07
C0V800,六龜,2026-04-15,22.997889,120.633583,0.6773345
C1G9D0,國一S218K,2026-04-15,23.890641,120.493253,2.8541294e-08
C0E570,白沙屯,2026-04-15,24.549447,120.696803,5.612487e-09
C2F9A0,中竹林,2026-04-15,24.103556,120.751061,2.3017614e-09
C0FA40,臺中電廠,2026-04-15,24.2146,120.4907,8.4159645e-08
C2G9A0,畜試所彰化,2026-04-15,23.86045,120.557964,3.939296e-08
C0H9C0,合歡山,2026-04-15,24.143442,121.272547,3.259947e-08
G2M350,農試溪口農場,2026-04-15,23.58565,120.408111,0.008749081
C0U860,頭城,2026-04-15,24.85323,121.8308,3.0222648e-07
C0R580,南州,2026-04-15,22.48591,120.50274,0.03659684
C0G780,秀水,2026-04-15,24.03405,120.503869,2.7767084e-09
72N100,臺南農改場,2026-04-15,23.0605,120.342194,1.7188584e-06
C0S900,蘭嶼高中,2026-04-15,22.04909,121.51214,8.000754e-09
C2TA60,六十石,2026-04-15,23.22477,121.31861,3.708481e-09
C1F9W0,德基,2026-04-15,24.254783,121.190261,1.3294267e-08
C2M980,安和,2026-04-15,23.51377,120.31593,8.100643e-08
C1Z120,壽豐,2026-04-15,23.870853,121.508081,3.50441e-05
C0W160,烏坵,2026-04-15,24.9944,119.44956,1.8472337e-08
C1I550,國六W023K,2026-04-15,23.979067,120.867742,1.9431563e-09
C0R870,興海,2026-04-15,21.9752,120.8439,6.819513e-08
C0R140,瑪家,2026-04-15,22.682903,120.686639,2.8472858e-05
C0A530,坪林,2026-04-15,24.938183,121.70975,7.141743e-09
C0X260,後壁,2026-04-15,23.366358,120.362326,3.8078128e-06
C0Z230,和平,2026-04-15,24.30717,121.77007,0.0006667039
C0G770,福興,2026-04-15,24.041289,120.437669,2.789173e-08
C0H9A0,神木村,2026-04-15,23.532742,120.843667,3.800613e-09
C0I460,南投,2026-04-15,23.911469,120.687331,1.0535463e-08
C0I480,梅峰,2026-04-15,24.085272,121.173572,7.652814e-09
C2D770,巨埔,2026-04-15,24.84435,121.11442,1.1927314e-09
C2A560,福山,2026-04-15,24.776203,121.502811,7.595737e-09
C0AH30,五分山,2026-04-15,25.07125,121.780794,5.908653e-09
C0FA10,松柏,2026-04-15,24.429115,120.617482,1.6589729e-08
72S200,東改班鳩分場,2026-04-15,22.829528,121.077694,7.34887e-08
72HA00,中改埔里分場,2026-04-15,23.903208,120.963364,3.3928533e-09
C2H9W0,大坪頂農水,2026-04-15,24.043122,120.932781,3.9055306e-09
C0C650,平鎮,2026-04-15,24.897503,121.214636,9.011833e-10
C0S930,延平,2026-04-15,22.902581,121.084058,5.8799877e-08
C0UA60,樟樹山,2026-04-15,24.41393,121.78325,1.7814925e-08
C2UC10,出水溪,2026-04-15,24.615822,121.652253,1.220863e-08
C1S670,摩天,2026-04-15,23.199503,121.027,3.9144123e-09
C2C590,觀音,2026-04-15,25.027072,121.153317,1.2073296e-09
C0V630,茄萣,2026-04-15,22.906642,120.182608,4.0615492e-07
466940,基隆,2026-04-15,25.133314,121.740475,2.8583436e-06
C0X050,東河,2026-04-15,23.296598,120.385608,0.07344732
C0R770,保力,2026-04-15,22.071122,120.764111,4.1445993e-08
G2L020,農試嘉義分所,2026-04-15,23.485028,120.473806,0.080511734
C0X240,關子嶺,2026-04-15,23.331169,120.508025,9.405123e-05
C0I380,集集,2026-04-15,23.828206,120.801467,1.2574257e-08
466990,花蓮,2026-04-15,23.975128,121.613275,9.146941e-05
C1V220,小關山,2026-04-15,23.154217,120.813603,5.1171134e-09
C1F9G1,慶福山,2026-04-15,24.180853,120.848378,2.5696671e-09
C0FB20,雪山橋,2026-04-15,24.23192,120.9786,1.12082486e-08
C0Z250,瑞穗林道,2026-04-15,23.49284,121.30688,7.766912e-09
C0D590,新豐,2026-04-15,24.87068,120.97721,2.0292759e-09
C2N200,口宵里,2026-04-15,23.15987,120.45988,1.7399792e-05
C0A870,五指山,2026-04-15,25.132153,121.608692,1.3506963e-09
C0UA50,西帽山,2026-04-15,24.555361,121.802628,9.84025e-09
C2R980,竹田國中,2026-04-15,22.61532,120.52412,0.15975966
C0X160,仁德,2026-04-15,22.968258,120.257689,1.0091173e-06
C1H971,六分寮,2026-04-15,23.92507,120.6378,2.5371683e-09
C2D790,石鹿,2026-04-15,24.56551,121.15841,4.768728e-09
C0W120,西嶼,2026-04-15,23.5626,119.468436,3.0878068e-06
C0G650,員林,2026-04-15,23.946503,120.585597,2.991534e-09
C0AD50,鶯歌,2026-04-15,24.951533,121.346294,2.014352e-09
C2H9Q0,北東眼山,2026-04-15,24.120939,121.189303,9.389364e-09
C2H9T0,名間竹圍,2026-04-15,23.859914,120.637572,2.7442606e-08
C0S990,山豬窟,2026-04-15,22.318619,120.857372,7.1239343e-09
C0X190,安平,2026-04-15,22.993161,120.152181,2.3787116e-07
C0K400,斗六,2026-04-15,23.720583,120.541127,1.6731536e-05
12J990,口湖工作站,2026-04-15,23.589978,120.180394,9.071874e-08
C0O830,北寮,2026-04-15,23.079561,120.495008,2.5840404e-06
C1D410,白蘭,2026-04-15,24.579364,121.079947,4.3915667e-09
C0S970,加津林,2026-04-15,22.416211,120.926942,2.2600884e-07
C0D700,關西,2026-04-15,24.7977,121.1732,3.2192506e-09
C0U750,龜山島,2026-04-15,24.841667,121.953133,1.4813355e-08
C0R810,內獅,2026-04-15,22.305064,120.642986,0.00030372708
C2EA10,拉庫斯,2026-04-15,24.53637,121.02137,4.6027964e-09
C1M390,龍美,2026-04-15,23.406728,120.654417,3.709415e-09
C2K290,崙內,2026-04-15,23.69525,120.35601,1.1607541e-07
C2FB60,頭櫃山,2026-04-15,24.129842,120.858925,3.0908902e-09
C1H840,國三N238K,2026-04-15,23.841008,120.707711,4.0892875e-08
CAQ030,崎峰國小,2026-04-15,22.42565,120.49521,0.03659684
C2E520,大湖,2026-04-15,24.414939,120.870872,4.286681e-08
467530,阿里山,2026-04-15,23.508208,120.813242,8.7535525e-09
C1E691,南湖,2026-04-15,24.40135,120.837533,5.2134435e-09
C0FA30,梧棲,2026-04-15,24.256003,120.523381,5.0940173e-08
C1V231,高中,2026-04-15,23.134911,120.716711,0.00010815595
C0AK30,硬漢嶺,2026-04-15,25.136097,121.426372,8.069808e-10
C0F9V0,新社,2026-04-15,24.200172,120.815806,1.14459136e-08
C0H890,埔里,2026-04-15,23.972169,120.952425,6.648259e-09
C0R690,墾丁,2026-04-15,21.966756,120.810269,6.8120216e-09
C0SD20,富山,2026-04-15,22.822383,121.190825,1.5719285e-06
C0F0D0,審馬陣,2026-04-15,24.381675,121.4203,1.6098557e-08
C2W030,金門農試所,2026-04-15,24.448431,118.451786,1.1024951e-08
C0R820,白鷺,2026-04-15,22.454275,120.666219,2.8762494e-07
C0FB00,大雪山,2026-04-15,24.254668,121.007374,1.3440743e-08
C2O880,南化,2026-04-15,23.17332,120.59413,0.00017614082
C1V190,南天池,2026-04-15,23.27403,120.91176,6.7243557e-09
C0E940,雪見,2026-04-15,24.42595,121.01347,7.9820515e-09
K2E360,苗栗農改場,2026-04-15,24.495722,120.829111,1.8920064e-08
CAJ050,海口故事園區,2026-04-15,23.57543,120.14121,9.071874e-08
C2K280,四湖,2026-04-15,23.6304,120.22717,7.338477e-08
C2H9D0,三隻寮,2026-04-15,24.093078,120.861578,2.0286606e-09
C0O990,媽廟,2026-04-15,22.99175,120.293525,6.9931525e-06
C0Z220,和平林道,2026-04-15,24.343922,121.656317,2.591018e-08
C0TA10,花蓮漁港,2026-04-15,23.995322,121.638331,0.0002755128
72C440,桃園農改場,2026-04-15,24.950944,121.030583,1.3890581e-09
C1E711,馬拉邦山,2026-04-15,24.367306,120.901656,3.3572057e-08
C0SB20,富岡,2026-04-15,22.792467,121.192669,1.1578381e-06
C0D560,竹東,2026-04-15,24.767147,121.057881,1.6543554e-09
C0F9U0,南屯,2026-04-15,24.137006,120.637969,2.0699364e-08
C2SD60,明峰,2026-04-15,22.8671,121.11825,1.2974552e-07
C0M720,番路,2026-04-15,23.464657,120.554156,0.00033869842
C0F0A0,雪山圈谷,2026-04-15,24.388594,121.236339,3.4437882e-08
C1A9N0,四十份,2026-04-15,24.934158,121.593283,1.6363795e-09
C0U760,東澳,2026-04-15,24.52196,121.83318,1.2897315e-06
C0X230,鹽水,2026-04-15,23.272621,120.247641,4.5970165e-08
C2H9H0,苗改南投蜂場,2026-04-15,23.852589,120.693481,1.5588999e-07
C2TB70,達谷寮,2026-04-15,23.38,121.35968,2.2769425e-05
C0R950,萬隆國小,2026-04-15,22.507667,120.587817,0.030462572
467540,大武,2026-04-15,22.35572,120.90374,6.9646476e-06
C0V370,古亭坑,2026-04-15,22.893178,120.401947,0.39733553
C1I340,新興橋,2026-04-15,23.563333,120.868728,1.1542662e-08
C2C480,桃園,2026-04-15,24.992425,121.323172,9.1385016e-10
C0SA80,土坂,2026-04-15,22.453108,120.887572,9.460049e-08
C0R160,鹽埔,2026-04-15,22.739558,120.530778,0.9962541
C0AC40,大屯山,2026-04-15,25.175675,121.522408,1.8549189e-09
466850,五分山雷達站,2026-04-15,25.071182,121.781205,5.8725984e-09
C2H9L0,馬烈霸,2026-04-15,24.1512,121.201772,1.1330444e-08
C1AI50,國三N016K,2026-04-15,25.034164,121.619664,4.9147673e-09
C2V920,匏子寮,2026-04-15,23.04905,120.55319,0.00057941343
C1V600,藤枝,2026-04-15,23.071961,120.757042,3.0290264e-09
C1E601,南勢,2026-04-15,24.572486,120.734842,5.2364943e-09
C0O980,新市,2026-04-15,23.061614,120.298197,1.8515407e-06
C0K420,西螺,2026-04-15,23.800407,120.467394,1.5166574e-07
C0Z050,佳心,2026-04-15,23.34567,121.21316,2.7998104e-09
C0AD30,蘆洲,2026-04-15,25.086594,121.472331,3.5571512e-07
C0V610,梓官,2026-04-15,22.760558,120.267211,3.218518e-05
K2F750,種苗改良場,2026-04-15,24.225972,120.800917,1.2271759e-08
C0UA80,大溪漁港,2026-04-15,24.941801,121.902955,8.5555925e-08
C1AI60,國一39K邊坡,2026-04-15,25.064361,121.383836,8.531374e-09
C0W150,金寧,2026-04-15,24.457703,118.328989,7.723716e-09
C0R960,內埔,2026-04-15,22.608483,120.570714,0.114545174
C2H9S0,龍南,2026-04-15,23.953536,120.833183,1.599165e-09
C0AH40,平等,2026-04-15,25.129142,121.577086,1.1914126e-09
C0R540,佳冬,2026-04-15,22.419456,120.552375,0.002561101
466950,彭佳嶼,2026-04-15,25.627975,122.079744,4.196487e-08
C0A890,雙溪,2026-04-15,25.036003,121.864242,2.1676408e-08
C0AH50,林口,2026-04-15,25.072181,121.38084,4.9329585e-09
A2K360,水試臺西試驗場,2026-04-15,23.717231,120.190522,5.057982e-08
C2M960,外寮,2026-04-15,23.562643,120.665688,3.2282772e-09
C0F9S0,烏日,2026-04-15,24.107058,120.624103,4.5195163e-09
C2N180,鹿陶洋,2026-04-15,23.14325,120.48352,0.0018739564
C0C490,八德,2026-04-15,24.928708,121.283289,7.7431817e-10
C0R190,赤山,2026-04-15,22.592333,120.614306,0.07606204
C0T820,天祥,2026-04-15,24.179597,121.495639,1.4835608e-08
C1F9E1,龍安,2026-04-15,24.1605,120.831961,9.620536e-09
C2SD50,順那,2026-04-15,23.04166,121.29332,0.00023446222
C0V820,小林,2026-04-15,23.148408,120.63325,0.00047992036
C2G870,芳苑,2026-04-15,23.922303,120.320025,2.9432018e-08
C0E850,大河,2026-04-15,24.618069,120.948578,2.3673243e-09
C1U670,寒溪,2026-04-15,24.634,121.71691,1.0826e-06
C0N020,城西,2026-04-15,23.0568,120.0956,8.454036e-07
C1Z110,三棧,2026-04-15,24.11557,121.60501,7.1806983e-09
C0R280,檳榔,2026-04-15,22.076078,120.836777,5.6323475e-09
C2H9J0,中台,2026-04-15,23.9996,120.938739,3.9103383e-09
C0F9L0,后里,2026-04-15,24.310436,120.729725,3.62743e-08
467441,高雄,2026-04-15,22.730432,120.312516,6.404566e-05
C2N210,岩坑,2026-04-15,23.24614,120.47458,0.0005286908
C0Z180,新城,2026-04-15,24.040486,121.604878,8.3597944e-05
C0D540,橫山,2026-04-15,24.71116,121.11693,1.5618911e-09
C1D420,太閣南,2026-04-15,24.632808,121.160575,3.0709284e-09
C1E770,公館,2026-04-15,24.526914,120.830806,1.0328044e-08
CAN130,水試所海水繁養殖中心,2026-04-15,23.120802,120.07968,9.461417e-07
C1I430,翠華,2026-04-15,24.191961,121.224339,1.6290901e-08
C1M400,菜瓜坪,2026-04-15,23.251928,120.576103,2.1663621e-07
C0G730,二林,2026-04-15,23.903325,120.376081,5.6875038e-08
72M360,南改義竹分場,2026-04-15,23.360694,120.279361,3.7055276e-08
V2K620,麥寮合作社,2026-04-15,23.753836,120.294783,3.8762852e-08
C0Z070,舞鶴,2026-04-15,23.46811,121.37407,4.03298e-05
C0B040,大武崙,2026-04-15,25.166676,121.706993,1.4004307e-09
C1Z030,紅葉,2026-04-15,23.493119,121.338806,7.966466e-05
C1I050,丹大,2026-04-15,23.753747,121.141147,1.0567342e-08
467290,古坑,2026-04-15,23.380729,120.336861,8.6781625e-07
C0I080,信義,2026-04-15,23.689694,120.851036,7.2843793e-09
C2TB80,庄子底,2026-04-15,23.71794,121.49438,7.668658e-06
C0D750,樂山林道6k,2026-04-15,24.49999,121.08773,8.897779e-09
C2M920,朴子農改,2026-04-15,23.469889,120.259383,3.214577e-08
C2A880,福隆,2026-04-15,25.017842,121.942083,1.6837762e-06
C0Z160,鳳林,2026-04-15,23.746114,121.453411,5.3599533e-06
C0UB80,翠峰林道6K,2026-04-15,24.49773,121.568625,6.4129995e-09
C0V210,復興,2026-04-15,23.222403,120.806089,5.9973326e-07
C0H990,昆陽,2026-04-15,24.121322,121.273642,1.954263e-08
C0R741,獅子,2026-04-15,22.202308,120.705236,4.1399268e-05
C0S710,鹿野,2026-04-15,22.917711,121.122994,1.7110468e-08
C0I530,小奇萊,2026-04-15,24.131764,121.295717,2.6363876e-08
C0FA70,大雪山埡口,2026-04-15,24.26867,121.03062,2.0202247e-08
C2K630,荷苞,2026-04-15,23.657717,120.595144,1.6496132e-06
C0Z080,富源,2026-04-15,23.587642,121.378225,6.899885e-07
C2M9E0,旺來山,2026-04-15,23.555153,120.486463,0.03232261
C0SB10,美和,2026-04-15,22.682078,121.060236,2.611166e-05
C2K620,馬光農場,2026-04-15,23.721453,120.378864,2.2144475e-07
C1I140,卡奈托灣,2026-04-15,23.754364,121.087872,5.333474e-09
C0I520,玉山風口,2026-04-15,23.470489,120.955994,3.1454885e-08
C1G691,下水埔,2026-04-15,23.816114,120.5676,7.7473405e-06
C0X110,臺南市南區,2026-04-15,22.961189,120.188378,9.564797e-07
C0V680,仁武,2026-04-15,22.701083,120.347722,6.404566e-05
C2G840,北斗,2026-04-15,23.877586,120.514222,2.8007838e-08
C2TB90,長橋,2026-04-15,23.6874,121.46186,4.485619e-06
C0R900,竹坑,2026-04-15,22.1385,120.7022,0.0001163052
C0G860,社頭,2026-04-15,23.897647,120.5862,6.800938e-08
C0X150,安定,2026-04-15,23.102614,120.227839,2.6190598e-06
C0R590,里港,2026-04-15,22.77919,120.49459,0.8525264
C0E610,馬都安,2026-04-15,24.451272,120.930192,2.1456775e-07
C0E550,明德,2026-04-15,24.583486,120.885411,5.7224764e-08
C0R150,三地門,2026-04-15,22.709889,120.639944,0.98886067
C0G910,花壇,2026-04-15,24.032076,120.549461,2.7810492e-09
C1D400,鳥嘴山,2026-04-15,24.71909,121.28387,4.046511e-09
C0K500,元長,2026-04-15,23.64981,120.315024,2.9467069e-08
C0F0B0,石岡,2026-04-15,24.276061,120.777644,3.65985e-08
C2V250,甲仙,2026-04-15,23.080106,120.591758,0.0016667522
C0SA20,金崙山,2026-04-15,22.567419,120.959667,2.414131e-09
C0V350,溪埔,2026-04-15,22.738578,120.446797,0.98607254
C0M660,溪口,2026-04-15,23.604131,120.403569,0.008749081
C1S880,壽卡,2026-04-15,22.238911,120.858903,1.4445681e-09
72D680,桃改新埔分場,2026-04-15,24.834444,121.066111,1.3656642e-09
