站號,站名,日期,lat,lon,BLBTSLS
C0R710,龍磐,2026-04-18,21.931672,120.838942,0.982841
C1F9D1,白毛台,2026-04-18,24.158325,120.886933,1.5095838e-09
C0G940,竹塘,2026-04-18,23.848253,120.386764,1.4805305e-08
467590,恆春,2026-04-18,22.003897,120.746339,0.588607
C0U710,太平山,2026-04-18,24.505486,121.525656,9.41127e-10
C0E820,獅潭,2026-04-18,24.539133,120.920042,1.460763e-09
C2SD70,二層坪,2026-04-18,22.94105,121.16838,3.9740917e-09
C0V880,興達,2026-04-18,22.8778,120.2127,2.5978602e-07
C0SB30,新蘭,2026-04-18,22.869214,121.223228,3.5409684e-08
C2R970,屏科大,2026-04-18,22.648275,120.619247,0.9999265
C1Z130,銅門,2026-04-18,23.965694,121.492842,0.00035242282
C0AD40,土城,2026-04-18,24.973208,121.445169,1.578366e-08
CAN140,六官養殖協會,2026-04-18,23.22881,120.29962,0.0058703646
C0X180,山上,2026-04-18,23.0757,120.363253,0.00037672732
C0F9Z0,雪山東峰,2026-04-18,24.388792,121.268675,7.0849357e-09
C1M480,獨立山,2026-04-18,23.537022,120.607797,1.5722237e-09
C0X220,學甲,2026-04-18,23.230367,120.182187,1.4433181e-06
467650,日月潭,2026-04-18,23.881325,120.90805,5.481237e-10
A2K570,古坑(花卉中心),2026-04-18,23.633531,120.552392,9.779584e-06
C0K600,箔子寮,2026-04-18,23.6197,120.14,2.2153827e-08
C0G830,埤頭,2026-04-18,23.866003,120.452806,2.407786e-08
C0S950,七塊厝,2026-04-18,22.954453,121.229922,9.747014e-10
467110,金門,2026-04-18,24.407306,118.289281,1.38894745e-08
C0AH80,深坑,2026-04-18,25.002703,121.628328,1.8197043e-09
C0A970,三貂角,2026-04-18,25.007606,122.002058,1.8945235e-08
C2D730,寶山農場,2026-04-18,24.732444,120.976153,5.919276e-10
C0K430,褒忠,2026-04-18,23.690938,120.303634,1.7572725e-07
467480,嘉義,2026-04-18,23.495925,120.432906,5.545612e-06
C0V400,阿公店,2026-04-18,22.804194,120.355528,1.7807399e-05
C2S800,華源,2026-04-18,22.65783,121.0232,4.9645865e-07
C2SA40,瑞和,2026-04-18,22.974361,121.156697,3.9740917e-09
C0E960,觀霧分站,2026-04-18,24.505781,121.113921,1.9759714e-09
467550,玉山,2026-04-18,23.48718,120.95943,2.87042e-08
C0R440,大漢山,2026-04-18,22.405264,120.753181,6.339903e-10
C0SD30,東清國小,2026-04-18,22.057128,121.564922,8.407972e-07
C1F9B1,桐林,2026-04-18,24.066172,120.735194,2.2347052e-08
C2I210,蘆竹湳,2026-04-18,23.93398,120.81209,1.0657085e-09
C2H9U0,鳳鵬,2026-04-18,23.763919,120.788061,9.2013963e-10
C0K390,土庫,2026-04-18,23.679029,120.395574,7.355222e-08
C1I450,望鄉山,2026-04-18,23.594153,120.944286,7.6322175e-09
C0E910,海埔,2026-04-18,24.648767,120.772435,1.5588137e-09
B2E890,畜試北區分所,2026-04-18,24.527806,120.770972,1.866307e-09
C0R750,四林格山,2026-04-18,22.076989,120.802439,1.4070499e-08
C0F0C0,中坑,2026-04-18,24.248517,120.903319,8.5517177e-10
C1I121,大鞍,2026-04-18,23.678381,120.760017,4.775753e-10
C2G9E0,移民庄,2026-04-18,23.9784,120.40283,1.791449e-08
72U480,花改蘭陽分場,2026-04-18,24.686306,121.716583,2.7703353e-08
C0A770,科教館,2026-04-18,25.096356,121.516507,8.2773965e-09
C0AJ60,六塊厝,2026-04-18,25.24,121.4481,1.1717167e-08
C0R620,墾雷,2026-04-18,21.900836,120.855269,0.988263
467420,永康,2026-04-18,23.038386,120.2367,0.0016659581
C2M530,奮起湖,2026-04-18,23.493903,120.699253,5.725659e-10
C0I410,名間,2026-04-18,23.837053,120.701447,2.0713962e-07
A2C560,農工中心,2026-04-18,24.985917,121.239833,7.014635e-10
C0V740,旗山,2026-04-18,22.888614,120.483597,1.8379837e-06
C0Z061,玉里,2026-04-18,23.3215,121.339656,3.5663018e-07
C0S840,南田,2026-04-18,22.279725,120.889208,0.0001691946
C1I470,杉林溪,2026-04-18,23.639517,120.786444,1.9074267e-09
C1X040,東原,2026-04-18,23.291597,120.463822,1.777023e-08
C0R660,枋寮,2026-04-18,22.367722,120.590647,0.9998839
C1R120,上德文,2026-04-18,22.763272,120.704442,0.9998503
C0K450,大埤,2026-04-18,23.646074,120.431537,7.5309237e-07
C0UA00,土場,2026-04-18,24.576533,121.495333,3.867008e-09
467080,宜蘭,2026-04-18,24.763975,121.756528,8.163601e-08
C0N030,四草,2026-04-18,23.0235,120.1116,8.25926e-06
467410,臺南,2026-04-18,22.99328,120.20492,4.1080736e-07
C0V650,彌陀,2026-04-18,22.783806,120.246361,9.551393e-06
C0D660,新竹市東區,2026-04-18,24.798681,120.986942,4.5662168e-10
82S580,茶改東部分場,2026-04-18,22.907694,121.130139,6.9087984e-09
C0SB40,興隆,2026-04-18,22.913661,121.257469,6.703165e-07
467050,新屋,2026-04-18,25.006725,121.047492,1.7527718e-09
C0C710,大溪永福,2026-04-18,24.892936,121.324975,3.7322248e-09
C0FA20,溫寮,2026-04-18,24.372177,120.583125,6.0282948e-09
C0V640,湖內,2026-04-18,22.887139,120.2445,2.597858e-07
C0R910,下寮,2026-04-18,22.3929,120.5548,0.9998807
C0Z020,明里,2026-04-18,23.208717,121.262342,8.3280725e-09
C0M770,嘉義梅山,2026-04-18,23.585398,120.555587,0.00020727904
C0C660,楊梅,2026-04-18,24.912375,121.143047,6.658522e-10
C0SD40,牛頭山,2026-04-18,22.676661,121.506944,2.867208e-08
C1E511,新開,2026-04-18,24.347703,120.827019,4.2059746e-08
G2F820,農試所(霧峰),2026-04-18,24.031261,120.688133,4.4916916e-08
C2M990,大巃頂,2026-04-18,23.5547,120.61439,6.367412e-10
C1I070,和社,2026-04-18,23.591131,120.888861,2.835326e-10
C2E990,新坪頂,2026-04-18,24.30201,120.8574,1.2242249e-07
C0TA80,立霧山,2026-04-18,24.183258,121.641899,1.1979661e-09
C2F000,大肚,2026-04-18,24.15295,120.572117,3.2924579e-09
C1S850,豐南,2026-04-18,23.122139,121.262389,5.7959476e-10
C2M9B0,西興,2026-04-18,23.2428,120.57617,3.0675622e-09
C2A920,富貴角,2026-04-18,25.263783,121.565258,2.441172e-09
C0T960,光復,2026-04-18,23.660694,121.424964,1.0656098e-07
C0F9M0,豐原,2026-04-18,24.254322,120.720692,3.4359124e-07
C0R720,旭海,2026-04-18,22.205403,120.887614,1.0712155e-06
C0V710,苓雅,2026-04-18,22.622742,120.330669,1.1293258e-06
C0C740,觀音工業區,2026-04-18,25.064764,121.114856,2.923562e-09
CAC040,拉拉山,2026-04-18,24.699317,121.427133,1.8579605e-09
C0V790,萬山,2026-04-18,22.905944,120.688056,0.025291491
U2HA30,臺大和社,2026-04-18,23.590856,120.888864,2.835326e-10
C2H9K0,屯原,2026-04-18,24.067969,121.209389,1.1541137e-09
C0AJ90,澳底,2026-04-18,25.0552,121.9253,3.282446e-08
C0Z100,東華,2026-04-18,23.89525,121.549833,0.0018192225
C0G970,三豐,2026-04-18,23.882,120.2895,1.5851784e-08
C0V900,汕尾,2026-04-18,22.4782,120.4151,0.12579028
C1R630,龍泉,2026-04-18,22.66701,120.59091,0.9999265
C1AC50,關渡,2026-04-18,25.133486,121.469331,2.9479814e-09
C0C800,四稜,2026-04-18,24.64733,121.4293,9.782029e-10
C0F9I0,神岡,2026-04-18,24.272481,120.658314,9.597553e-09
C0K460,斗南,2026-04-18,23.678734,120.478359,7.5309237e-07
C2O810,曾文,2026-04-18,23.219681,120.497328,2.1042607e-07
467280,後龍,2026-04-18,24.648563,120.831834,1.4254338e-09
C1F9J1,清水林,2026-04-18,24.071242,120.820419,7.409567e-10
C2A650,火燒寮,2026-04-18,25.002719,121.742892,1.6926411e-09
466930,竹子湖,2026-04-18,25.162078,121.544547,6.5911354e-10
C1I220,樟湖,2026-04-18,23.905333,120.846983,4.7579596e-10
C0I390,仁愛,2026-04-18,24.022122,121.132206,6.7204675e-10
C0Z300,東里,2026-04-18,23.26853,121.30547,2.2607415e-07
C1V590,新發,2026-04-18,23.057019,120.646064,2.9387348e-07
C0K510,水林,2026-04-18,23.572924,120.24597,3.1656486e-07
72S590,東改賓朗果園,2026-04-18,22.813889,121.071278,3.4076988e-09
82A750,茶改北部分場,2026-04-18,24.955778,121.631222,1.6406642e-09
C1A750,石碇服務區,2026-04-18,25.00872,121.646242,2.2034472e-09
C0X300,鹿寮,2026-04-18,23.386047,120.477331,1.2077114e-05
C0K590,雲林東勢,2026-04-18,23.674192,120.255721,3.9840936e-07
C2K310,港尾布雞,2026-04-18,23.74834,120.38439,8.963721e-08
C0A570,桶後,2026-04-18,24.848222,121.597992,3.111694e-09
C0G720,溪州,2026-04-18,23.851589,120.499093,2.407786e-08
C1V160,達卡努瓦,2026-04-18,23.279811,120.705319,5.888501e-10
C2M410,馬頭山,2026-04-18,23.324361,120.582017,2.4372557e-08
C0V850,蚵仔寮,2026-04-18,22.7256,120.2527,1.420183e-05
C0S740,池上,2026-04-18,23.119628,121.209469,1.201749e-09
C1V390,尖山,2026-04-18,22.813153,120.367789,1.7807399e-05
C0AH70,松山,2026-04-18,25.04871,121.55042,8.2773965e-09
C0N010,鯤鯓國小,2026-04-18,23.1879,120.0889,3.5839454e-05
C0SA60,知本（水試所）,2026-04-18,22.702394,121.082761,3.520401e-05
C0T9I0,豐濱,2026-04-18,23.583897,121.514806,0.017765757
C0UB00,淡江大學蘭陽校園,2026-04-18,24.823239,121.730383,3.824494e-09
C0W240,九宮,2026-04-18,24.423753,118.240186,1.1121174e-08
C0T9N0,富里,2026-04-18,23.171639,121.249378,6.6061916e-09
U2HA50,臺大竹山,2026-04-18,23.756972,120.681556,2.000424e-08
C0V840,鳳鼻頭,2026-04-18,22.5083,120.3591,0.06408449
C0X140,西港,2026-04-18,23.125608,120.203108,0.00021947241
72D080,桃改五峰分場,2026-04-18,24.612194,121.157167,6.413547e-10
C2H9P0,伊拿谷,2026-04-18,23.963211,121.088264,7.0466843e-10
C2K250,崙背,2026-04-18,23.75553,120.31893,1.7572725e-07
C2H9F0,柑林,2026-04-18,24.018658,120.847072,4.976736e-08
C0TA20,加灣,2026-04-18,24.082025,121.608944,0.0032115409
C0V530,阿蓮,2026-04-18,22.883208,120.327508,3.6668378e-06
C0FB30,八仙山苗圃,2026-04-18,24.192719,121.001366,9.118618e-10
C0E791,卓蘭,2026-04-18,24.3126,120.8244,2.5211346e-08
C2R260,春日,2026-04-18,22.370361,120.628306,0.9998805
C1I030,武界,2026-04-18,23.913225,121.052483,6.3027555e-10
C0R520,崁頂,2026-04-18,22.514781,120.506914,0.99992794
C0R341,牡丹,2026-04-18,22.130036,120.792639,1.0741938e-05
C0R930,萬丹,2026-04-18,22.5885,120.4851,0.9986563
C0S760,紅石,2026-04-18,23.069131,121.126219,8.260926e-10
C2C410,中央大學,2026-04-18,24.967652,121.185165,7.014635e-10
C1M610,石磐龍,2026-04-18,23.496606,120.663506,5.7107064e-10
C2C830,中德,2026-04-18,24.981862,121.291344,1.2330362e-09
C0C790,東眼山,2026-04-18,24.8284,121.40888,1.2748708e-09
C0UA10,鴛鴦湖,2026-04-18,24.590269,121.412228,1.4479556e-09
C0R800,丹路,2026-04-18,22.204481,120.750989,0.00021385982
C2R240,萬巒,2026-04-18,22.527306,120.625111,0.9999145
C0G920,永靖,2026-04-18,23.924703,120.547533,2.2107479e-08
C2M950,太和,2026-04-18,23.538372,120.702961,5.698889e-10
C1A630,下盆,2026-04-18,24.771003,121.538622,3.1363447e-09
B2N890,畜產試驗所,2026-04-18,23.058972,120.336406,0.91280526
C0UA30,白嶺,2026-04-18,24.527819,121.519031,5.9981503e-10
467571,新竹,2026-04-18,24.828575,121.01455,5.948817e-10
C1V580,溪南(特生中心),2026-04-18,23.084972,120.788475,2.7162999e-09
C1T970,大農,2026-04-18,23.615233,121.413331,3.9698815e-08
C0R650,竹田,2026-04-18,22.58486,120.54344,0.99991107
C1H900,清流,2026-04-18,24.080775,120.962997,5.3121413e-10
C1C510,水尾,2026-04-18,24.940081,121.087161,7.870627e-10
C2N170,茅港尾,2026-04-18,23.2061,120.2624,0.0058703646
C0F9X0,大雅(中科園區),2026-04-18,24.21528,120.62445,2.1208065e-08
C0SB60,白守蓮,2026-04-18,23.126769,121.401914,0.20066361
C0O970,虎頭埤,2026-04-18,23.021375,120.347878,0.00048605524
C0C730,中大臨海站,2026-04-18,24.966126,121.008581,1.2034854e-09
C0X250,新營,2026-04-18,23.310689,120.316681,7.736963e-05
C0V700,三民,2026-04-18,22.645017,120.311233,2.1099218e-05
C0U870,大礁溪,2026-04-18,24.791042,121.675047,4.3421173e-09
C0E870,高鐵苗栗,2026-04-18,24.60725,120.826094,1.4254338e-09
C2S890,關山,2026-04-18,23.0395,121.175017,3.6202534e-09
C0TA30,鹽寮,2026-04-18,23.845606,121.592664,0.0047844094
C0M860,新美,2026-04-18,23.338017,120.683169,8.175264e-10
C1E701,八卦,2026-04-18,24.491756,120.927619,7.4448305e-09
C2TA90,加納納,2026-04-18,23.466421,121.359867,6.8971417e-07
C0I420,國姓,2026-04-18,24.037803,120.855072,3.3124397e-08
C2D720,關西工作站,2026-04-18,24.757275,121.184792,6.981669e-09
C2AK30,信賢,2026-04-18,24.84108,121.53492,1.2401711e-09
C0S960,香蘭,2026-04-18,22.587569,120.993375,2.3567607e-08
467620,蘭嶼,2026-04-18,22.0369,121.55843,2.1007732e-08
C2UC40,中城,2026-04-18,24.62865,121.74745,8.462351e-09
72G600,臺中農改場,2026-04-18,24.003028,120.534389,3.0869504e-08
C0Z210,瑞穗,2026-04-18,23.5239,121.39021,0.4788946
C0M820,達邦,2026-04-18,23.453994,120.749517,4.94575e-10
C0V860,南寮,2026-04-18,22.7616,120.2339,1.420183e-05
C0G740,大城,2026-04-18,23.852487,120.320935,1.5851784e-08
C0R920,塭仔,2026-04-18,22.4169,120.5197,0.9998807
C0R470,高樹,2026-04-18,22.826389,120.600806,0.9999058
C0R680,佳樂水,2026-04-18,21.993578,120.861633,0.982841
C1O870,大棟山,2026-04-18,23.31157,120.52226,4.9156273e-10
C0D360,梅花,2026-04-18,24.678347,121.208558,7.4709006e-10
C0Z190,富世,2026-04-18,24.14743,121.6297,2.2746685e-08
C0AI10,屈尺,2026-04-18,24.92184,121.54475,1.1396289e-08
B2U990,畜試東區分所,2026-04-18,24.669039,121.832561,1.2178559e-08
C0SB80,長濱漁港,2026-04-18,23.313644,121.459994,0.013027637
C0TA50,和仁,2026-04-18,24.241394,121.712472,1.1280061e-06
C2AK40,漁光,2026-04-18,24.96875,121.72132,2.1842326e-09
C0V910,大樹,2026-04-18,22.684645,120.432803,0.0004921092
C1R610,西大武山,2026-04-18,22.617719,120.7322,8.359818e-10
C0G900,線西,2026-04-18,24.143358,120.443536,7.4954636e-07
C0M700,竹崎,2026-04-18,23.526178,120.555508,1.4771051e-05
C2E880,三義,2026-04-18,24.405478,120.749819,5.1041854e-10
C0C720,竹圍,2026-04-18,25.112692,121.239824,2.4642164e-09
C0F9P0,清水,2026-04-18,24.312297,120.562242,1.520728e-08
C0Z150,吉安光華,2026-04-18,23.930925,121.595153,0.3065663
C0FA80,小雪山天池,2026-04-18,24.28025,121.02627,4.2928563e-09
467300,東吉島,2026-04-18,23.25727,119.66762,0.61479884
C1D640,外坪(五指山),2026-04-18,24.644447,121.090961,8.0991364e-10
C2R9A0,高士國小,2026-04-18,22.12553,120.84653,1.0741938e-05
C0F9O0,潭子,2026-04-18,24.213106,120.703933,3.4359124e-07
C2H9R0,卓社,2026-04-18,23.887894,121.000086,4.3856963e-10
72T250,花蓮農改場,2026-04-18,23.975222,121.563889,0.12108195
C0E780,銅鑼,2026-04-18,24.489681,120.790853,1.866307e-09
C1T950,太安,2026-04-18,23.666719,121.370128,8.461507e-10
C0E830,苑裡,2026-04-18,24.439714,120.653053,4.1376227e-09
467270,田中,2026-04-18,23.873803,120.581286,2.2849726e-07
C0SA10,檳榔四格山,2026-04-18,22.810031,121.109308,2.326634e-09
C1T830,布洛灣,2026-04-18,24.17184,121.57127,2.8530611e-09
C0F970,大坑,2026-04-18,24.173142,120.722289,7.148588e-08
C1U920,思源,2026-04-18,24.393125,121.347214,1.1782556e-09
C2H9Y0,松茗,2026-04-18,23.8167,120.650765,6.3835126e-10
C0A931,三和,2026-04-18,25.233153,121.595236,3.587233e-09
C0I010,廬山,2026-04-18,24.033311,121.181808,1.2374916e-09
C2M940,日野賀,2026-04-18,23.434056,120.727169,9.465997e-10
C0R860,鼻頭,2026-04-18,22.1043,120.8979,0.08936588
C2I260,北坑,2026-04-18,23.92463,121.00683,7.3743793e-09
C0UB20,壯圍,2026-04-18,24.7359,121.8163,3.6064134e-07
C0R790,九棚,2026-04-18,22.14195,120.889281,2.7319336e-06
C0W110,東莒,2026-04-18,25.9652,119.98069,1.6823714e-08
C1U930,粉鳥林,2026-04-18,24.497088,121.842479,6.838008e-08
C0S830,長濱,2026-04-18,23.286817,121.411975,2.823343e-08
C1F9F1,伯公龍,2026-04-18,24.272392,120.849047,3.8695043e-06
C0UB90,太平山莊,2026-04-18,24.494171,121.536209,9.642558e-10
C0E810,西湖,2026-04-18,24.562947,120.7485,4.4007145e-09
C1I440,新高口,2026-04-18,23.478744,120.878939,4.6168998e-09
C0O840,王爺宮,2026-04-18,23.222064,120.40085,0.0007218125
C0T9G0,鳳林山,2026-04-18,23.735269,121.420131,1.4306525e-09
C0X080,佳里,2026-04-18,23.173039,120.145086,2.192445e-05
C0FB70,大甲溪埔,2026-04-18,24.370625,120.620067,6.0282948e-09
C0Z310,清水斷崖,2026-04-18,24.218294,121.689142,7.100754e-08
C0M680,太保,2026-04-18,23.455062,120.331455,4.031767e-06
C1S820,金峰,2026-04-18,22.590969,120.933236,4.7515143e-09
C0AD10,八里,2026-04-18,25.150211,121.403947,4.7005213e-09
C2K240,草嶺,2026-04-18,23.59555,120.693461,4.2482176e-10
C1SA70,都蘭,2026-04-18,22.87794,121.226881,2.7922496e-08
C0K440,二崙,2026-04-18,23.772797,120.408944,8.978214e-08
C1A760,坪林交控,2026-04-18,24.94284,121.713442,1.905136e-09
C0F9N0,大里,2026-04-18,24.092464,120.701378,2.0481751e-08
C0SA90,達仁林場,2026-04-18,22.264347,120.823972,6.8448585e-08
C1R290,石門山,2026-04-18,22.112611,120.756597,7.6383355e-07
42HA10,萬大發電廠,2026-04-18,23.978875,121.139639,7.762361e-10
C0R890,山海,2026-04-18,21.9878,120.7091,0.588607
C0T9A0,月眉山,2026-04-18,23.809928,121.539828,3.4132475e-09
C0AC70,信義,2026-04-18,25.037822,121.564597,1.5212242e-08
C0K560,棋山,2026-04-18,23.68645,120.603417,1.8146368e-07
C2FB50,出雲,2026-04-18,24.206469,120.902794,7.2831113e-10
C1Z240,中平林道,2026-04-18,23.42115,121.26763,9.2382907e-10
U2H480,溪頭,2026-04-18,23.670306,120.798194,2.622748e-10
C0M880,好美里,2026-04-18,23.3364,120.138,1.6254795e-07
C0T9E0,大坑,2026-04-18,23.880628,121.581981,7.366567e-08
C0K530,臺西,2026-04-18,23.701547,120.197559,2.390498e-08
C1E900,國一N128K,2026-04-18,24.560997,120.844186,1.1889155e-09
C0AJ50,水湳洞,2026-04-18,25.123695,121.862238,3.1111025e-08
C0AI20,白沙灣,2026-04-18,25.283128,121.519058,1.0738012e-08
C2V310,美濃,2026-04-18,22.898792,120.51907,1.8379837e-06
C0A860,大坪,2026-04-18,25.165914,121.632969,2.8103397e-09
C1U850,觀音海岸,2026-04-18,24.38319,121.77856,1.636417e-09
C2K610,草嶺石壁,2026-04-18,23.602469,120.707731,4.2359272e-10
C0U950,鶯子嶺,2026-04-18,24.89754,121.79244,2.1530697e-09
C0O900,善化,2026-04-18,23.112883,120.297219,0.91280526
C0K550,蔦松,2026-04-18,23.514319,120.229736,1.6176467e-07
E2P980,林試六龜中心,2026-04-18,22.991703,120.645722,0.90650386
C0E590,通霄,2026-04-18,24.471892,120.704622,9.089814e-09
C1I310,西巒,2026-04-18,23.754486,120.883956,4.6871973e-10
C0A550,泰平,2026-04-18,24.971197,121.823711,3.1132434e-09
C2UC30,金洋,2026-04-18,24.42465,121.74573,6.611665e-07
C0I360,水里,2026-04-18,23.812553,120.849792,1.0531164e-08
C0R830,高士,2026-04-18,22.121825,120.836781,1.7760141e-07
C1I101,溪頭,2026-04-18,23.661789,120.807647,2.014329e-09
C0AJ20,野柳,2026-04-18,25.20703,121.690021,2.8081013e-08
C0B060,暖暖,2026-04-18,25.0957,121.7403,7.864778e-09
C1H920,長豐,2026-04-18,24.102039,120.879897,9.737278e-10
C2S9B0,利吉,2026-04-18,22.86246,121.15486,6.9087984e-09
C0V360,內門,2026-04-18,22.975481,120.466769,3.0648614e-06
C0R850,林邊,2026-04-18,22.4634,120.5339,0.99988806
C0E930,龍鳳,2026-04-18,24.700034,120.859125,8.3276547e-10
C0U910,冬山,2026-04-18,24.63373,121.7937,1.2178559e-08
C1E721,泰安,2026-04-18,24.489017,120.968036,2.8302698e-09
82H320,茶改中部分場,2026-04-18,23.875611,120.913583,8.2156715e-10
C0M750,布袋,2026-04-18,23.380878,120.167789,1.1135017e-07
C1S860,利嘉,2026-04-18,22.809417,121.050528,5.2128146e-10
E2S980,林試太麻里1,2026-04-18,22.598922,120.980044,1.1558656e-08
C0X170,關廟,2026-04-18,22.963017,120.327797,5.5236865e-06
C0V720,林園,2026-04-18,22.507747,120.394511,0.3614192
C2M9G0,沄水,2026-04-18,23.38293,120.52666,2.1703883e-07
C1I510,線浸林道,2026-04-18,23.761508,120.832956,4.618271e-10
C0D690,外湖,2026-04-18,24.917735,120.968711,5.2150546e-09
C0C750,新興坑尾,2026-04-18,25.0061,121.0971,1.3842893e-09
B2Q810,畜試南區分所,2026-04-18,21.945583,120.802167,0.982841
C0S790,金崙,2026-04-18,22.538122,120.966875,1.1772161e-08
C0AH90,福山植物園,2026-04-18,24.760717,121.58135,2.702708e-09
C0I540,奇萊稜線,2026-04-18,24.109231,121.326456,1.1414672e-08
C0M850,表湖,2026-04-18,23.24186,120.64166,1.0969486e-09
C0S770,大溪山,2026-04-18,22.478475,120.943325,1.7867422e-09
C0AG80,中和,2026-04-18,24.991622,121.491792,1.578366e-08
C0T790,大禹嶺,2026-04-18,24.186117,121.316086,4.1849586e-09
C0T9B0,水源,2026-04-18,23.991861,121.537169,2.7417375e-09
C0R840,牡丹池山,2026-04-18,22.168389,120.841225,1.6806107e-08
C1I131,桶頭,2026-04-18,23.641944,120.654117,1.3042157e-08
CAL110,布袋國中,2026-04-18,23.35893,120.18026,1.6254795e-07
C2M9D0,何竹子腳,2026-04-18,23.53641,120.38203,5.545612e-06
C0Z290,赤柯山,2026-04-18,23.36893,121.38293,7.793247e-10
C0X280,將軍,2026-04-18,23.214999,120.13577,1.5908764e-06
C0S690,太麻里,2026-04-18,22.60902,120.98533,5.6307764e-10
C0U880,北關,2026-04-18,24.9072,121.8734,4.1323884e-07
CAW010,東引,2026-04-18,26.3588,120.4836,5.8094223e-08
C0G810,埔心,2026-04-18,23.947633,120.525456,2.2107479e-08
C0U970,大福,2026-04-18,24.80064,121.81389,8.163601e-08
C2H9N0,仁愛東眼,2026-04-18,24.026875,121.1205,6.5928457e-10
C1E670,南礦,2026-04-18,24.538278,121.002836,1.0852157e-09
C0M520,東後寮,2026-04-18,23.369908,120.248065,8.322089e-08
C1E461,松安,2026-04-18,24.397972,120.986022,8.9043956e-10
C2N160,西拉雅風管處,2026-04-18,23.189481,120.335297,0.7531071
C2O850,環湖,2026-04-18,23.148665,120.4186,1.8336996e-06
C2M970,碧湖,2026-04-18,23.568632,120.624165,6.443661e-10
C0A640,石碇,2026-04-18,24.993969,121.662917,1.9039228e-09
E2S960,林試太麻里2,2026-04-18,22.598,120.99775,2.7349124e-08
C0F9Y0,桃山,2026-04-18,24.432739,121.303808,7.139659e-09
C1I020,萬大,2026-04-18,23.979817,121.132261,6.687809e-10
C2UC20,長嶺,2026-04-18,24.70894,121.61162,3.6517736e-09
C0U940,羅東,2026-04-18,24.68184,121.74934,2.7703353e-08
C0M650,朴子,2026-04-18,23.43463,120.23902,1.3914128e-07
C1I500,大尖山,2026-04-18,23.858572,120.994889,6.066575e-10
C0FB40,中橫21.6k,2026-04-18,24.2499,121.1455,6.4888506e-10
C0G820,田尾,2026-04-18,23.901669,120.509389,2.2107479e-08
E2K600,四湖植物園,2026-04-18,23.676986,120.163433,3.2364913e-08
C0S730,綠島,2026-04-18,22.6672,121.47533,5.3169614e-08
12Q970,東港工作站,2026-04-18,22.479997,120.466058,0.99988806
C1TA00,太魯閣,2026-04-18,24.15773,121.6236,1.655938e-08
466920,臺北,2026-04-18,25.037658,121.514853,8.2773965e-09
C0R600,舊泰武,2026-04-18,22.588194,120.664944,4.3349473e-06
466910,鞍部,2026-04-18,25.182586,121.529731,5.9332245e-10
C1I230,九份二山,2026-04-18,23.961944,120.845,6.948401e-10
C2M810,里佳,2026-04-18,23.389125,120.716647,1.0100555e-09
C2A660,瑞芳,2026-04-18,25.113169,121.801147,1.0818042e-08
C0R270,琉球嶼,2026-04-18,22.332244,120.362236,0.0007556551
C2V580,瑞山,2026-04-18,22.90304,120.43424,2.4147657e-05
C1T990,高寮,2026-04-18,23.394239,121.356808,3.4684097e-05
C0G620,芬園,2026-04-18,24.015678,120.6213,6.028792e-08
C1Z140,荖溪,2026-04-18,23.890575,121.45964,1.129139e-09
C1I201,中心崙,2026-04-18,23.728722,120.712097,3.143692e-10
C1I400,凌霄,2026-04-18,24.018778,121.004456,6.6730416e-10
C1M640,十字,2026-04-18,23.492153,120.753683,1.5180988e-09
G2P820,農試鳳山分所,2026-04-18,22.646611,120.356083,1.1293258e-06
C0Z270,蕃薯寮,2026-04-18,23.73835,121.540108,1.1032566e-08
C2E420,竹南,2026-04-18,24.70898,120.88897,8.3276547e-10
C2D480,打鐵坑,2026-04-18,24.849664,121.150789,6.2812977e-10
C0FB10,出雲山苗圃,2026-04-18,24.23105,120.90475,8.5517177e-10
C0F9Q0,外埔,2026-04-18,24.347817,120.705686,4.2156425e-09
C0K580,高鐵雲林,2026-04-18,23.737456,120.417944,8.963721e-08
C2I090,鳳凰,2026-04-18,23.728081,120.787347,5.132516e-10
C0U990,員山,2026-04-18,24.74435,121.72247,2.7703353e-08
C0V770,大社,2026-04-18,22.730306,120.346639,1.4425665e-05
C0X120,麻豆,2026-04-18,23.183289,120.248611,0.100606404
C0C670,龍潭,2026-04-18,24.870056,121.221389,9.674188e-10
C0D680,香山濕地,2026-04-18,24.783581,120.914988,5.2150546e-09
C0S980,勝林山,2026-04-18,22.430439,120.8938,1.1685647e-09
C0V730,大寮,2026-04-18,22.605614,120.395717,1.1293258e-06
C0R570,麟洛,2026-04-18,22.65078,120.52719,0.9990767
C2M930,石卓,2026-04-18,23.478744,120.702264,1.4928733e-09
C0G9B0,和美,2026-04-18,24.105169,120.492131,3.6487717e-07
C2I240,外大坪,2026-04-18,23.9587,120.91788,9.118618e-10
CAG100,王功漁港,2026-04-18,23.96824,120.32586,2.202654e-08
C0X290,北門,2026-04-18,23.267772,120.125481,1.5908764e-06
C2F930,大甲,2026-04-18,24.347667,120.640403,6.0282948e-09
C0D650,湖口,2026-04-18,24.904794,121.043628,7.870627e-10
C0U780,五結,2026-04-18,24.68637,121.79794,1.2178559e-08
C1I250,鯉潭,2026-04-18,23.961922,120.991131,1.62142e-09
C0R130,阿禮,2026-04-18,22.742908,120.743678,1.9896993e-07
C0X100,臺南市北區,2026-04-18,23.010394,120.194228,4.1080736e-07
C0S920,金峰嘉蘭,2026-04-18,22.594789,120.960825,1.1069832e-08
C0V490,新興,2026-04-18,22.627422,120.298803,0.00021969726
C0F9K0,大安,2026-04-18,24.345061,120.588025,6.0282948e-09
467290,古坑,2026-04-18,23.633639,120.551889,0.99914736
C2E970,八甲,2026-04-18,24.535811,120.795983,1.1889155e-09
C0V440,鳳山,2026-04-18,22.646653,120.356122,1.1293258e-06
C1T940,大觀,2026-04-18,23.714206,121.373133,2.6863136e-09
C0E740,造橋,2026-04-18,24.637056,120.864778,1.4254338e-09
C0R100,尾寮山,2026-04-18,22.833111,120.683889,1.3144228e-07
A2K630,臺大雲林校區,2026-04-18,23.730628,120.423903,8.963721e-08
467990,馬祖,2026-04-18,26.169467,119.923158,7.09856e-08
C0D580,寶山,2026-04-18,24.735006,121.025192,8.5474616e-10
E2P990,林試扇平站,2026-04-18,22.9677,120.6857,0.9931395
C0AI30,三重,2026-04-18,25.057328,121.500629,8.2773965e-09
C0AH00,汐止,2026-04-18,25.066881,121.658778,3.903587e-09
C1Z040,立山,2026-04-18,23.443356,121.327375,9.875053e-09
466881,新北,2026-04-18,24.959207,121.525196,1.7917257e-08
C0W130,花嶼,2026-04-18,23.40007,119.32276,0.05227504
C0A950,鼻頭角,2026-04-18,25.129036,121.923372,3.282446e-08
C0K470,林內,2026-04-18,23.748675,120.609642,1.8146368e-07
C2F990,摩天嶺,2026-04-18,24.322458,120.936819,8.125425e-10
C2E430,南庄,2026-04-18,24.601775,121.000214,5.2169224e-10
82C160,茶改場,2026-04-18,24.908472,121.185333,6.658522e-10
C2TB60,南安,2026-04-18,23.29818,121.26157,6.8463734e-08
C0Z320,清水林道,2026-04-18,23.27125,121.188272,9.1883656e-10
C0R760,南仁湖,2026-04-18,22.084681,120.863353,7.6604465e-07
C0M670,大林,2026-04-18,23.600616,120.45841,8.3365836e-07
C0M800,茶山,2026-04-18,23.299075,120.664767,1.785417e-09
C0A9C0,天母,2026-04-18,25.117494,121.537169,1.4340546e-08
72K220,南改斗南分場,2026-04-18,23.634556,120.477333,7.5309237e-07
72AI40,桃改樹林分場,2026-04-18,24.944503,121.386972,5.6033976e-08
C0S910,蘭嶼燈塔,2026-04-18,22.081197,121.503117,1.2931686e-07
C0B050,八斗子,2026-04-18,25.144754,121.79167,3.485233e-08
C0U900,內城,2026-04-18,24.71813,121.68766,4.605187e-08
C0X320,柳營,2026-04-18,23.253328,120.375253,0.0007218125
C0M790,新港,2026-04-18,23.553269,120.345728,5.4301914e-08
C0F9T0,西屯,2026-04-18,24.179494,120.641275,2.1208065e-08
C0E950,松安,2026-04-18,24.39792,120.98599,8.9043956e-10
C0SA30,都歷,2026-04-18,23.020333,121.323642,3.8390144e-07
C0C620,蘆竹,2026-04-18,25.084275,121.265767,1.1813025e-09
C0R730,大坪頂,2026-04-18,22.024633,120.69355,0.0024770906
C0AJ40,石門,2026-04-18,25.273672,121.601198,3.2160041e-09
C0E750,苗栗,2026-04-18,24.564569,120.824575,1.1889155e-09
C0T870,鯉魚潭,2026-04-18,23.935639,121.508944,0.0013683321
C1V170,排雲,2026-04-18,23.463619,120.954147,2.3614808e-08
C2H950,中寮,2026-04-18,23.884447,120.766406,2.6670271e-08
C0R350,貓鼻頭,2026-04-18,21.921774,120.7358,0.6838905
C0V660,岡山,2026-04-18,22.797078,120.294958,9.612617e-06
C1H941,雙冬,2026-04-18,23.967378,120.802189,1.5615544e-09
C0AJ70,田寮,2026-04-18,25.2698,121.4886,1.1434152e-08
C0AI00,五股,2026-04-18,25.07445,121.42728,6.170863e-09
C0Z280,德武,2026-04-18,23.47426,121.41071,3.3587894e-06
C2RA10,大新,2026-04-18,22.67558,120.57788,0.9999265
C0R700,枋山,2026-04-18,22.246844,120.661086,0.9817922
C0C460,復興,2026-04-18,24.820208,121.352281,8.35255e-10
C2AA10,中八仙,2026-04-18,25.11576,121.49199,1.8453813e-08
C2K300,鹿南,2026-04-18,23.63855,120.3636,7.355222e-08
E2H360,蓮華池,2026-04-18,23.918333,120.885278,1.7434658e-09
C0M640,中埔,2026-04-18,23.42538,120.5229,5.469198e-06
C2C810,八德蔬果,2026-04-18,24.97858,121.28187,1.2330362e-09
C2M9F0,安溪寮,2026-04-18,23.350334,120.208039,1.4157052e-07
C0W140,金沙,2026-04-18,24.488292,118.408778,1.275657e-08
C2A540,四堵,2026-04-18,24.8926,121.745736,3.8939567e-09
C0ACA0,新莊,2026-04-18,25.051478,121.446756,3.6752468e-08
C0R220,潮州,2026-04-18,22.534361,120.54,0.99992794
U2HA40,臺大內茅埔,2026-04-18,23.689722,120.851117,9.194467e-10
467490,臺中,2026-04-18,24.145736,120.684075,7.148588e-08
C0UB60,明池,2026-04-18,24.650688,121.475277,1.0702857e-09
C0U960,翠峰湖,2026-04-18,24.510856,121.608044,8.825804e-10
E2HA20,林試畢祿溪站,2026-04-18,24.226944,121.308522,1.9824493e-09
C2M9A0,大華,2026-04-18,23.4824,120.67491,4.6124082e-10
C0V890,前鎮,2026-04-18,22.5718,120.3117,4.6375586e-05
C1F941,雪嶺,2026-04-18,24.280586,121.026642,4.2928563e-09
C2H9E0,國姓南港,2026-04-18,23.911108,120.846556,4.6804527e-10
C0AC80,文山,2026-04-18,25.00235,121.575728,1.8197043e-09
C0F9R0,龍井,2026-04-18,24.184536,120.528972,1.031472e-07
C0M760,民雄,2026-04-18,23.551754,120.428457,8.3365836e-07
C0UA40,西德山,2026-04-18,24.560647,121.752608,9.968267e-10
C2TA70,赤科坪,2026-04-18,23.39885,121.39168,1.0411049e-09
C1T920,中興,2026-04-18,23.769503,121.498653,5.663073e-06
C0D550,雪霸,2026-04-18,24.526972,121.11605,1.6422139e-09
C2F860,梨山,2026-04-18,24.247522,121.243669,2.7620082e-09
C0R320,車城,2026-04-18,22.0744,120.716247,0.7908147
C1S870,南美山,2026-04-18,23.15025,121.382333,3.8308514e-07
C0B020,基隆嶼,2026-04-18,25.19141,121.78391,2.3661833e-08
C1U501,牛鬥,2026-04-18,24.637836,121.573656,9.31244e-09
C0M730,嘉義市東區,2026-04-18,23.457673,120.460531,0.00016492432
C2R990,泰武,2026-04-18,22.60686,120.69765,5.531017e-10
C0S700,知本,2026-04-18,22.684866,121.005642,6.4409583e-10
C1N001,沙崙,2026-04-18,22.935472,120.309406,5.5236865e-06
C0V760,橋頭,2026-04-18,22.757806,120.30575,1.4425665e-05
C2V570,吉東,2026-04-18,22.85418,120.54539,0.9999058
C0G960,福寶,2026-04-18,24.0443,120.3814,9.2291764e-08
C0X210,白河,2026-04-18,23.347466,120.414427,1.2077114e-05
C0S810,東河,2026-04-18,22.972672,121.303986,7.893983e-08
C2R170,屏東,2026-04-18,22.66027,120.49403,0.9990767
C0R670,楓港,2026-04-18,22.190131,120.692156,0.7515339
C0FA50,霧峰,2026-04-18,24.0419,120.6995,2.0481751e-08
C0UB10,蘇澳,2026-04-18,24.5969,121.8571,1.2660412e-08
C0G950,防潮門,2026-04-18,24.1835,120.4871,6.009556e-07
C0M740,六腳,2026-04-18,23.492871,120.290625,1.5672028e-07
C1R250,力里,2026-04-18,22.428117,120.629228,0.9998611
C0K330,虎尾,2026-04-18,23.719183,120.442036,8.963721e-08
C2FA00,烏石坑,2026-04-18,24.273503,120.947617,8.130851e-10
C0V620,永安,2026-04-18,22.82315,120.236856,9.612617e-06
C1I330,楓樹林,2026-04-18,23.986803,121.076117,4.2880913e-10
C0W200,湖西,2026-04-18,23.596314,119.67275,0.007063615
72Q010,高雄農改場,2026-04-18,22.709333,120.525889,0.9993888
C0C680,龜山,2026-04-18,25.02846,121.38656,2.1046986e-09
C2V260,月眉,2026-04-18,22.971003,120.539853,3.2032943e-07
C0V450,鳳森,2026-04-18,22.545064,120.392592,0.3614192
C0FA90,小雪山林道,2026-04-18,24.29515,121.03651,6.4572716e-09
C0U720,南山,2026-04-18,24.43742,121.38167,4.3710235e-10
A2N290,臺南蘭花園區,2026-04-18,23.340258,120.379661,1.4439346e-05
C0R560,新園,2026-04-18,22.5434,120.461558,0.3614192
C0U890,三星,2026-04-18,24.66812,121.65302,2.040264e-08
C1V300,御油山,2026-04-18,23.001983,120.715364,2.7054623e-09
C0U600,礁溪,2026-04-18,24.817539,121.765608,8.163601e-08
C1T980,龍澗,2026-04-18,24.023289,121.411328,8.063884e-10
C0D670,海天一線,2026-04-18,24.831986,120.914438,4.363529e-09
C0SA00,歷坵,2026-04-18,22.520969,120.89185,1.2345893e-09
C0M710,東石,2026-04-18,23.458927,120.15385,1.0351536e-07
C0M780,鹿草,2026-04-18,23.41134,120.30835,1.3914128e-07
C0U520,雙連埤,2026-04-18,24.753033,121.641303,3.051043e-09
C0B010,七堵,2026-04-18,25.094819,121.71713,2.0820409e-08
C0R480,長治,2026-04-18,22.693128,120.542622,0.9999078
C1V830,國三S383K,2026-04-18,22.781967,120.426475,0.0004831483
12Q980,恆春工作站,2026-04-18,22.079678,120.714425,0.7908147
C1O940,東山服務區,2026-04-18,23.286016,120.398472,1.4439346e-05
C1U840,東澳嶺,2026-04-18,24.5378,121.8485,2.2753444e-09
C1D630,飛鳳山,2026-04-18,24.766464,121.119178,1.0075348e-09
C0S940,石寧山,2026-04-18,23.223772,121.406639,0.00028910354
C0K410,北港,2026-04-18,23.573957,120.292802,3.1656486e-07
C2M620,瑞里,2026-04-18,23.545133,120.675197,5.7107064e-10
C0SB70,小港漁港,2026-04-18,23.158558,121.400431,0.13187483
C2O950,安南,2026-04-18,23.076694,120.144861,3.7754214e-06
C0F0E0,南湖圈谷,2026-04-18,24.363714,121.444667,9.930167e-09
467610,成功,2026-04-18,23.097486,121.373428,0.72990036
C0G890,伸港,2026-04-18,24.148933,120.484403,6.009556e-07
C2E540,龍溪,2026-04-18,24.606489,120.783933,1.1889155e-09
C1V200,梅山,2026-04-18,23.268447,120.823556,6.3429634e-10
C0T9H0,加路蘭山,2026-04-18,23.682947,121.5274,7.64696e-10
C2O930,玉井,2026-04-18,23.126042,120.46055,1.8336996e-06
C1F911,新伯公,2026-04-18,24.221361,120.841069,2.5365562e-06
C0X200,左鎮,2026-04-18,23.056758,120.408522,0.00037672732
C2TB50,麻汝,2026-04-18,23.42554,121.39358,3.3587894e-06
C0FA60,鞍馬山工作站,2026-04-18,24.267064,121.000793,1.9152429e-09
C0SB50,叭嗡嗡,2026-04-18,23.047062,121.343223,0.922153
C2R550,新埤,2026-04-18,22.467947,120.582894,0.99988776
C1F891,稍來,2026-04-18,24.265689,121.001142,1.8127689e-09
C2M9C0,紫雲,2026-04-18,23.494914,120.540253,0.0003221053
72N240,七股研究中心,2026-04-18,23.081672,120.062894,8.25926e-06
C0C700,中壢,2026-04-18,24.977661,121.256375,1.2330362e-09
C0M690,水上,2026-04-18,23.419734,120.388909,4.031767e-06
C0V690,鼓山,2026-04-18,22.623325,120.275575,0.00021969726
C0O860,大內,2026-04-18,23.11885,120.36083,0.75310683
C0Z200,萬榮,2026-04-18,23.709219,121.420106,3.3578843e-08
C0T9D0,和中,2026-04-18,24.26676,121.74103,1.1278502e-06
C2S9A0,北份子寮,2026-04-18,22.78561,121.07813,1.0997418e-06
C1O921,楠西,2026-04-18,23.183511,120.484083,1.8336996e-06
C0AJ30,淡水觀海,2026-04-18,25.184591,121.408616,4.7012927e-09
C0V810,左營,2026-04-18,22.67491,120.28491,2.1099198e-05
C0UA70,桃源谷,2026-04-18,24.962606,121.888875,6.42778e-09
C0X130,官田,2026-04-18,23.193217,120.315422,0.7531071
C1H000,翠峰,2026-04-18,24.109397,121.205211,3.044753e-09
C0UA90,石城,2026-04-18,24.980444,121.951214,2.8939153e-08
C1E681,南勢山,2026-04-18,24.421669,120.923831,5.472068e-09
C0A9F0,內湖,2026-04-18,25.079422,121.57545,1.5212242e-08
C0K291,宜梧,2026-04-18,23.536281,120.169329,2.101671e-08
C1K540,口湖,2026-04-18,23.585344,120.180517,2.2153827e-08
C0R780,滿州,2026-04-18,22.024403,120.839892,0.0030207857
C0V870,文安,2026-04-18,22.8025,120.2164,1.42018425e-05
C0U650,玉蘭,2026-04-18,24.675286,121.587061,3.6211167e-09
C0R640,東港,2026-04-18,22.46247,120.44074,0.06408449
C0AJ80,板橋,2026-04-18,25.0107,121.4489,1.578366e-08
C0S660,下馬,2026-04-18,23.150427,121.070312,6.3058697e-10
C2N190,烏樹,2026-04-18,23.32393,120.36989,1.4439346e-05
C1H9B1,阿眉,2026-04-18,24.1263,120.994672,8.9037505e-10
C0UA20,多加屯,2026-04-18,24.368614,121.373189,3.2307965e-09
C0E730,頭份,2026-04-18,24.688247,120.912206,8.3276547e-10
72V140,高改旗南分場,2026-04-18,22.857861,120.516667,1.8379837e-06
C2R490,九如,2026-04-18,22.74049,120.490555,0.9993888
C0K480,莿桐,2026-04-18,23.761192,120.502372,2.7445492e-06
C0U980,坪林石牌,2026-04-18,24.86478,121.77396,2.4797946e-09
C0T900,西林,2026-04-18,23.8119,121.441458,1.1649983e-07
C1I150,青雲,2026-04-18,23.793361,120.949378,2.8868021e-09
C2E980,和興,2026-04-18,24.505319,120.923016,2.0021417e-08
467350,澎湖,2026-04-18,23.565503,119.563094,0.17936619
C0G800,埔鹽,2026-04-18,24.000394,120.431683,7.399914e-08
C0H960,草屯,2026-04-18,23.973672,120.68085,1.4512985e-07
C1V780,多納林道,2026-04-18,22.888028,120.737917,4.3695295e-06
C0E920,通霄漁港,2026-04-18,24.498589,120.673876,9.089814e-09
C0Z330,安通山,2026-04-18,23.290728,121.348528,1.5934531e-09
C0AH10,永和,2026-04-18,25.01125,121.508111,1.578366e-08
C0AK10,太平里,2026-04-18,25.134937,121.364899,2.2575168e-09
C2G640,鹿港,2026-04-18,24.0753,120.430481,3.6487717e-07
C1E890,國三N149K,2026-04-18,24.463414,120.680019,9.089814e-09
C1R110,口社,2026-04-18,22.770111,120.645222,0.99990994
C1M870,國三N285K,2026-04-18,23.550319,120.505833,0.0003221053
C1E480,鳳美,2026-04-18,24.554803,121.034747,5.152764e-09
C0T9M0,靜浦,2026-04-18,23.455167,121.495028,0.8691653
C2H9M0,發祥,2026-04-18,24.154094,121.164517,7.8427687e-10
C2G9C0,埔南,2026-04-18,23.99124,120.46969,7.399914e-08
C0AI40,石牌,2026-04-18,25.115597,121.513139,1.5212242e-08
C1F871,上谷關,2026-04-18,24.203483,121.018644,8.130851e-10
C2H9G0,百勝,2026-04-18,24.051142,120.909361,2.5914568e-09
C0G880,二水,2026-04-18,23.810742,120.6173,5.2344497e-08
C0R940,加祿堂,2026-04-18,22.3363,120.6217,0.9817922
C0W220,北竿,2026-04-18,26.220358,119.974881,4.413182e-08
C0O960,崎頂,2026-04-18,22.959547,120.369317,5.5236865e-06
C0TA40,秀林,2026-04-18,24.302864,121.731144,1.6410272e-09
C0S750,向陽,2026-04-18,23.248397,120.986133,1.6854312e-09
C0T9F0,水璉,2026-04-18,23.797131,121.542514,2.6622141e-08
C1M600,頭凍,2026-04-18,23.406364,120.603339,4.8931115e-10
467660,臺東,2026-04-18,22.752211,121.154586,1.975435e-05
C1D380,新埔,2026-04-18,24.84745,121.03834,5.9488053e-10
C2G980,田頭村,2026-04-18,23.8263,120.444175,8.978214e-08
C0V750,路竹,2026-04-18,22.854997,120.259439,9.612617e-06
C0N050,蚵寮,2026-04-18,23.301,120.1104,1.5908764e-06
C2X060,下營,2026-04-18,23.226806,120.256291,0.0058703646
72M700,南改鹿草分場,2026-04-18,23.416869,120.283061,1.3914128e-07
C1SA50,利嘉林道,2026-04-18,22.82325,121.009389,1.8821613e-09
C0UB70,太平山中間站,2026-04-18,24.542003,121.513453,6.334343e-10
C0A940,金山,2026-04-18,25.223628,121.643967,5.04282e-08
C1V340,大津,2026-04-18,22.888322,120.645986,0.99941087
C0W180,七美,2026-04-18,23.219333,119.444892,0.38844082
C1F9C1,白冷,2026-04-18,24.182844,120.929889,1.7180048e-09
K2E710,苗改生物防治研究中心,2026-04-18,24.422861,120.871833,1.2150646e-08
C0N040,蘆竹溝,2026-04-18,23.2344,120.0961,1.5908764e-06
C0TB40,崇德,2026-04-18,24.166144,121.657414,8.546541e-08
C0D760,大坪苗圃,2026-04-18,24.5362,121.1108,1.0974175e-09
C2D430,峨眉,2026-04-18,24.6905,121.017189,4.723419e-10
C2W230,畜試所澎湖,2026-04-18,23.628342,119.513206,0.058929503
C0R880,後壁湖,2026-04-18,21.9457,120.7457,0.588607
C1I280,埔中,2026-04-18,23.820778,120.642594,6.148819e-10
467790,墾丁雷達站,2026-04-18,21.948235,120.808028,0.982841
C0W190,望安,2026-04-18,23.380564,119.494075,0.45319867
C0Z170,卓溪,2026-04-18,23.3443,121.3029,6.8704094e-07
C0F850,東勢,2026-04-18,24.246428,120.833047,1.1493305e-05
466900,淡水,2026-04-18,25.164889,121.448906,2.7951963e-08
C0I370,魚池,2026-04-18,23.895703,120.94135,1.210798e-09
C0C630,大溪,2026-04-18,24.882853,121.265547,9.83925e-10
C0A520,山佳,2026-04-18,24.974944,121.402008,7.028597e-08
C0I110,竹山,2026-04-18,23.761225,120.688156,2.3169854e-08
82H840,茶改南部分場,2026-04-18,23.762528,120.7405,9.604324e-10
C2SD80,再來山,2026-04-18,23.34371,121.44122,1.2709036e-07
C0G660,溪湖,2026-04-18,23.94835,120.479122,2.2107479e-08
C1T800,洛韶,2026-04-18,24.204558,121.453956,1.1957199e-09
C1T810,慈恩,2026-04-18,24.192044,121.388386,1.7432963e-09
C1E451,象鼻,2026-04-18,24.368617,120.940228,5.472068e-09
C0AC60,三峽,2026-04-18,24.939025,121.369728,4.69874e-08
C0I490,萬大林道,2026-04-18,23.928228,121.091411,4.9993837e-10
C1I290,豐丘,2026-04-18,23.668178,120.887417,4.193274e-10
C1I320,奧萬大,2026-04-18,23.952956,121.178556,4.3035772e-10
C2M910,嘉義大學,2026-04-18,23.471325,120.485903,0.00016492432
C0U770,南澳,2026-04-18,24.44935,121.81022,6.838008e-08
C2TB30,吉安,2026-04-18,23.94538,121.54803,0.021708298
C0A980,社子,2026-04-18,25.109508,121.469681,3.4643165e-08
C0V800,六龜,2026-04-18,22.997889,120.633583,0.9505117
C1G9D0,國一S218K,2026-04-18,23.890641,120.493253,2.407786e-08
C0E570,白沙屯,2026-04-18,24.549447,120.696803,4.4007145e-09
C2F9A0,中竹林,2026-04-18,24.103556,120.751061,1.4073935e-08
C0FA40,臺中電廠,2026-04-18,24.2146,120.4907,2.6535713e-07
C2G9A0,畜試所彰化,2026-04-18,23.86045,120.557964,2.2849726e-07
C0H9C0,合歡山,2026-04-18,24.143442,121.272547,9.307787e-09
G2M350,農試溪口農場,2026-04-18,23.58565,120.408111,8.3365836e-07
C0U860,頭城,2026-04-18,24.85323,121.8308,3.037487e-07
C0R580,南州,2026-04-18,22.48591,120.50274,0.99988806
C0G780,秀水,2026-04-18,24.03405,120.503869,3.0869447e-08
72N100,臺南農改場,2026-04-18,23.0605,120.342194,0.91280526
C0S900,蘭嶼高中,2026-04-18,22.04909,121.51214,4.4045797e-07
C2TA60,六十石,2026-04-18,23.22477,121.31861,6.429249e-10
C1F9W0,德基,2026-04-18,24.254783,121.190261,1.8621753e-09
C2M980,安和,2026-04-18,23.51377,120.31593,1.5672028e-07
C1Z120,壽豐,2026-04-18,23.870853,121.508081,0.0018192225
C0W160,烏坵,2026-04-18,24.9944,119.44956,2.8780896e-08
C1I550,國六W023K,2026-04-18,23.979067,120.867742,7.677874e-09
C0R870,興海,2026-04-18,21.9752,120.8439,0.982841
C0R140,瑪家,2026-04-18,22.682903,120.686639,9.233419e-05
C0A530,坪林,2026-04-18,24.938183,121.70975,1.5921043e-09
C0X260,後壁,2026-04-18,23.366358,120.362326,4.705216e-06
C0Z230,和平,2026-04-18,24.30717,121.77007,6.23328e-05
C0G770,福興,2026-04-18,24.041289,120.437669,7.399914e-08
C0H9A0,神木村,2026-04-18,23.532742,120.843667,1.8348442e-09
C0I460,南投,2026-04-18,23.911469,120.687331,1.4512985e-07
C0I480,梅峰,2026-04-18,24.085272,121.173572,2.1359476e-09
C2D770,巨埔,2026-04-18,24.84435,121.11442,9.714665e-10
C2A560,福山,2026-04-18,24.776203,121.502811,4.014845e-09
C0AH30,五分山,2026-04-18,25.07125,121.780794,2.1704365e-09
C0FA10,松柏,2026-04-18,24.429115,120.617482,4.1376227e-09
72S200,東改班鳩分場,2026-04-18,22.829528,121.077694,4.792911e-09
72HA00,中改埔里分場,2026-04-18,23.903208,120.963364,1.3095044e-09
C2H9W0,大坪頂農水,2026-04-18,24.043122,120.932781,1.1324433e-09
C0C650,平鎮,2026-04-18,24.897503,121.214636,9.674188e-10
C0S930,延平,2026-04-18,22.902581,121.084058,4.845599e-09
C0UA60,樟樹山,2026-04-18,24.41393,121.78325,2.105337e-09
C2UC10,出水溪,2026-04-18,24.615822,121.652253,2.0987498e-09
C1S670,摩天,2026-04-18,23.199503,121.027,9.24208e-10
C2C590,觀音,2026-04-18,25.027072,121.153317,2.923562e-09
C0V630,茄萣,2026-04-18,22.906642,120.182608,2.5978602e-07
466940,基隆,2026-04-18,25.133314,121.740475,3.244198e-08
C0X050,東河,2026-04-18,23.296598,120.385608,1.4439346e-05
C0R770,保力,2026-04-18,22.071122,120.764111,0.0061221835
G2L020,農試嘉義分所,2026-04-18,23.485028,120.473806,0.00016492416
C0X240,關子嶺,2026-04-18,23.331169,120.508025,1.777023e-08
C0I380,集集,2026-04-18,23.828206,120.801467,1.22099575e-08
466990,花蓮,2026-04-18,23.975128,121.613275,0.0032115409
C1V220,小關山,2026-04-18,23.154217,120.813603,1.4082224e-09
C1F9G1,慶福山,2026-04-18,24.180853,120.848378,8.343888e-10
C0FB20,雪山橋,2026-04-18,24.23192,120.9786,1.5228868e-09
C0Z250,瑞穗林道,2026-04-18,23.49284,121.30688,1.0361009e-09
C0D590,新豐,2026-04-18,24.87068,120.97721,4.363529e-09
C2N200,口宵里,2026-04-18,23.15987,120.45988,6.7118656e-08
C0A870,五指山,2026-04-18,25.132153,121.608692,1.2116481e-09
C0UA50,西帽山,2026-04-18,24.555361,121.802628,2.2896542e-09
C2R980,竹田國中,2026-04-18,22.61532,120.52412,0.99991107
C0X160,仁德,2026-04-18,22.968258,120.257689,2.74556e-07
C1H971,六分寮,2026-04-18,23.92507,120.6378,6.4237113e-09
C2D790,石鹿,2026-04-18,24.56551,121.15841,6.8793793e-10
C0W120,西嶼,2026-04-18,23.5626,119.468436,0.22518055
C0G650,員林,2026-04-18,23.946503,120.585597,1.24357e-07
C0AD50,鶯歌,2026-04-18,24.951533,121.346294,3.350514e-08
C2H9Q0,北東眼山,2026-04-18,24.120939,121.189303,2.1104913e-09
C2H9T0,名間竹圍,2026-04-18,23.859914,120.637572,1.1216076e-08
C0S990,山豬窟,2026-04-18,22.318619,120.857372,4.475879e-07
C0X190,安平,2026-04-18,22.993161,120.152181,5.3862834e-07
C0K400,斗六,2026-04-18,23.720583,120.541127,2.7445492e-06
12J990,口湖工作站,2026-04-18,23.589978,120.180394,2.2153827e-08
C0O830,北寮,2026-04-18,23.079561,120.495008,1.1040864e-07
C1D410,白蘭,2026-04-18,24.579364,121.079947,1.088271e-09
C0S970,加津林,2026-04-18,22.416211,120.926942,1.4524407e-05
C0D700,關西,2026-04-18,24.7977,121.1732,9.477998e-09
C0U750,龜山島,2026-04-18,24.841667,121.953133,1.1074394e-08
C0R810,內獅,2026-04-18,22.305064,120.642986,0.9817922
C2EA10,拉庫斯,2026-04-18,24.53637,121.02137,1.1116567e-09
C1M390,龍美,2026-04-18,23.406728,120.654417,9.456956e-10
C2K290,崙內,2026-04-18,23.69525,120.35601,7.355222e-08
C2FB60,頭櫃山,2026-04-18,24.129842,120.858925,7.380933e-10
C1H840,國三N238K,2026-04-18,23.841008,120.707711,2.1727726e-09
CAQ030,崎峰國小,2026-04-18,22.42565,120.49521,0.99988806
C2E520,大湖,2026-04-18,24.414939,120.870872,1.2150646e-08
467530,阿里山,2026-04-18,23.508208,120.813242,6.7367054e-09
C1E691,南湖,2026-04-18,24.40135,120.837533,2.2382928e-08
C0FA30,梧棲,2026-04-18,24.256003,120.523381,1.031472e-07
C1V231,高中,2026-04-18,23.134911,120.716711,3.419134e-07
C0AK30,硬漢嶺,2026-04-18,25.136097,121.426372,5.228727e-10
C0F9V0,新社,2026-04-18,24.200172,120.815806,1.3184578e-07
C0H890,埔里,2026-04-18,23.972169,120.952425,4.935434e-09
C0R690,墾丁,2026-04-18,21.966756,120.810269,0.030860927
C0SD20,富山,2026-04-18,22.822383,121.190825,8.481066e-08
C0F0D0,審馬陣,2026-04-18,24.381675,121.4203,5.7638583e-09
C2W030,金門農試所,2026-04-18,24.448431,118.451786,1.2289209e-08
C0R820,白鷺,2026-04-18,22.454275,120.666219,2.8074908e-08
C0FB00,大雪山,2026-04-18,24.254668,121.007374,1.9502853e-09
C2O880,南化,2026-04-18,23.17332,120.59413,8.4802736e-08
C1V190,南天池,2026-04-18,23.27403,120.91176,3.1144909e-09
C0E940,雪見,2026-04-18,24.42595,121.01347,1.7763578e-09
K2E360,苗栗農改場,2026-04-18,24.495722,120.829111,2.2157578e-09
CAJ050,海口故事園區,2026-04-18,23.57543,120.14121,2.2153827e-08
C2K280,四湖,2026-04-18,23.6304,120.22717,3.2364913e-08
C2H9D0,三隻寮,2026-04-18,24.093078,120.861578,6.722647e-10
C0O990,媽廟,2026-04-18,22.99175,120.293525,0.0016659581
C0Z220,和平林道,2026-04-18,24.343922,121.656317,6.996169e-10
C0TA10,花蓮漁港,2026-04-18,23.995322,121.638331,0.00768584
72C440,桃園農改場,2026-04-18,24.950944,121.030583,7.870627e-10
C1E711,馬拉邦山,2026-04-18,24.367306,120.901656,4.7411755e-09
C0SB20,富岡,2026-04-18,22.792467,121.192669,6.204513e-08
C0D560,竹東,2026-04-18,24.767147,121.057881,1.267164e-09
C0F9U0,南屯,2026-04-18,24.137006,120.637969,2.995258e-08
C2SD60,明峰,2026-04-18,22.8671,121.11825,6.9087984e-09
C0M720,番路,2026-04-18,23.464657,120.554156,4.127247e-06
C0F0A0,雪山圈谷,2026-04-18,24.388594,121.236339,1.0149922e-08
C1A9N0,四十份,2026-04-18,24.934158,121.593283,1.2401284e-09
C0U760,東澳,2026-04-18,24.52196,121.83318,4.392272e-08
C0X230,鹽水,2026-04-18,23.272621,120.247641,1.4157052e-07
C2H9H0,苗改南投蜂場,2026-04-18,23.852589,120.693481,2.0713962e-07
C2TB70,達谷寮,2026-04-18,23.38,121.35968,1.4235155e-07
C0R950,萬隆國小,2026-04-18,22.507667,120.587817,0.9998864
467540,大武,2026-04-18,22.35572,120.90374,0.00022593168
C0V370,古亭坑,2026-04-18,22.893178,120.401947,2.4147657e-05
C1I340,新興橋,2026-04-18,23.563333,120.868728,5.312101e-10
C2C480,桃園,2026-04-18,24.992425,121.323172,1.2330362e-09
C0SA80,土坂,2026-04-18,22.453108,120.887572,7.778299e-07
C0R160,鹽埔,2026-04-18,22.739558,120.530778,0.9993888
C0AC40,大屯山,2026-04-18,25.175675,121.522408,7.522921e-10
466850,五分山雷達站,2026-04-18,25.071182,121.781205,2.1506932e-09
C2H9L0,馬烈霸,2026-04-18,24.1512,121.201772,2.1104913e-09
C1AI50,國三N016K,2026-04-18,25.034164,121.619664,2.591279e-09
C2V920,匏子寮,2026-04-18,23.04905,120.55319,1.1916488e-07
C1V600,藤枝,2026-04-18,23.071961,120.757042,2.8103289e-09
C1E601,南勢,2026-04-18,24.572486,120.734842,4.4007145e-09
C0O980,新市,2026-04-18,23.061614,120.298197,0.91280526
C0K420,西螺,2026-04-18,23.800407,120.467394,8.978214e-08
C0Z050,佳心,2026-04-18,23.34567,121.21316,6.721942e-10
C0AD30,蘆洲,2026-04-18,25.086594,121.472331,6.231067e-08
C0V610,梓官,2026-04-18,22.760558,120.267211,1.0667172e-05
K2F750,種苗改良場,2026-04-18,24.225972,120.800917,1.3184578e-07
C0UA80,大溪漁港,2026-04-18,24.941801,121.902955,1.0166549e-07
C1AI60,國一39K邊坡,2026-04-18,25.064361,121.383836,3.7333994e-09
C0W150,金寧,2026-04-18,24.457703,118.328989,1.38894745e-08
C0R960,內埔,2026-04-18,22.608483,120.570714,0.99991107
C2H9S0,龍南,2026-04-18,23.953536,120.833183,5.503614e-10
C0AH40,平等,2026-04-18,25.129142,121.577086,1.0645465e-09
C0R540,佳冬,2026-04-18,22.419456,120.552375,0.99987787
466950,彭佳嶼,2026-04-18,25.627975,122.079744,4.188099e-07
C0A890,雙溪,2026-04-18,25.036003,121.864242,2.3993094e-08
C0AH50,林口,2026-04-18,25.072181,121.38084,1.9926811e-09
A2K360,水試臺西試驗場,2026-04-18,23.717231,120.190522,2.390498e-08
C2M960,外寮,2026-04-18,23.562643,120.665688,6.1368916e-10
C0F9S0,烏日,2026-04-18,24.107058,120.624103,2.995258e-08
C2N180,鹿陶洋,2026-04-18,23.14325,120.48352,1.8336996e-06
C0C490,八德,2026-04-18,24.928708,121.283289,9.83925e-10
C0R190,赤山,2026-04-18,22.592333,120.614306,0.99992657
C0T820,天祥,2026-04-18,24.179597,121.495639,1.2050474e-09
C1F9E1,龍安,2026-04-18,24.1605,120.831961,1.0170816e-07
C2SD50,順那,2026-04-18,23.04166,121.29332,5.3214965e-08
C0V820,小林,2026-04-18,23.148408,120.63325,5.2471048e-08
C2G870,芳苑,2026-04-18,23.922303,120.320025,2.202654e-08
C0E850,大河,2026-04-18,24.618069,120.948578,1.0382096e-09
C1U670,寒溪,2026-04-18,24.634,121.71691,2.2573543e-08
C0N020,城西,2026-04-18,23.0568,120.0956,6.1806054e-06
C1Z110,三棧,2026-04-18,24.11557,121.60501,8.7191876e-10
C0R280,檳榔,2026-04-18,22.076078,120.836777,1.0741938e-05
C2H9J0,中台,2026-04-18,23.9996,120.938739,1.1324476e-09
C0F9L0,后里,2026-04-18,24.310436,120.729725,7.8133905e-07
467441,高雄,2026-04-18,22.730432,120.312516,1.4425665e-05
C2N210,岩坑,2026-04-18,23.24614,120.47458,2.1042607e-07
C0Z180,新城,2026-04-18,24.040486,121.604878,0.0024971685
C0D540,橫山,2026-04-18,24.71116,121.11693,8.26288e-10
C1D420,太閣南,2026-04-18,24.632808,121.160575,7.4784856e-10
C1E770,公館,2026-04-18,24.526914,120.830806,1.315041e-09
CAN130,水試所海水繁養殖中心,2026-04-18,23.120802,120.07968,8.25926e-06
C1I430,翠華,2026-04-18,24.191961,121.224339,3.5392784e-09
C1M400,菜瓜坪,2026-04-18,23.251928,120.576103,3.0675622e-09
C0G730,二林,2026-04-18,23.903325,120.376081,1.4805305e-08
72M360,南改義竹分場,2026-04-18,23.360694,120.279361,8.322089e-08
V2K620,麥寮合作社,2026-04-18,23.753836,120.294783,1.7572725e-07
C0Z070,舞鶴,2026-04-18,23.46811,121.37407,3.8016628e-07
C0B040,大武崙,2026-04-18,25.166676,121.706993,1.9737273e-08
C1Z030,紅葉,2026-04-18,23.493119,121.338806,1.8062472e-06
C1I050,丹大,2026-04-18,23.753747,121.141147,1.2913189e-09
467290,古坑,2026-04-18,23.380729,120.336861,4.705216e-06
C0I080,信義,2026-04-18,23.689694,120.851036,9.194467e-10
C2TB80,庄子底,2026-04-18,23.71794,121.49438,3.3853607e-07
C0D750,樂山林道6k,2026-04-18,24.49999,121.08773,2.0857762e-09
C2M920,朴子農改,2026-04-18,23.469889,120.259383,1.3914128e-07
C2A880,福隆,2026-04-18,25.017842,121.942083,3.282446e-08
C0Z160,鳳林,2026-04-18,23.746114,121.453411,2.2855195e-07
C0UB80,翠峰林道6K,2026-04-18,24.49773,121.568625,1.070586e-09
C0V210,復興,2026-04-18,23.222403,120.806089,5.7939193e-08
C0H990,昆陽,2026-04-18,24.121322,121.273642,6.5043553e-09
C0R741,獅子,2026-04-18,22.202308,120.705236,0.9440048
C0S710,鹿野,2026-04-18,22.917711,121.122994,2.102504e-09
C0I530,小奇萊,2026-04-18,24.131764,121.295717,7.075793e-09
C0FA70,大雪山埡口,2026-04-18,24.26867,121.03062,4.2099937e-09
C2K630,荷苞,2026-04-18,23.657717,120.595144,9.779574e-06
C0Z080,富源,2026-04-18,23.587642,121.378225,4.021568e-08
C2M9E0,旺來山,2026-04-18,23.555153,120.486463,0.0003221053
C0SB10,美和,2026-04-18,22.682078,121.060236,1.975435e-05
C2K620,馬光農場,2026-04-18,23.721453,120.378864,8.963721e-08
C1I140,卡奈托灣,2026-04-18,23.754364,121.087872,5.0059773e-10
C0I520,玉山風口,2026-04-18,23.470489,120.955994,2.9009007e-08
C1G691,下水埔,2026-04-18,23.816114,120.5676,7.796397e-07
C0X110,臺南市南區,2026-04-18,22.961189,120.188378,2.5723492e-07
C0V680,仁武,2026-04-18,22.701083,120.347722,1.4425665e-05
C2G840,北斗,2026-04-18,23.877586,120.514222,2.407786e-08
C2TB90,長橋,2026-04-18,23.6874,121.46186,1.7499742e-07
C0R900,竹坑,2026-04-18,22.1385,120.7022,0.7515339
C0G860,社頭,2026-04-18,23.897647,120.5862,2.2849726e-07
C0X150,安定,2026-04-18,23.102614,120.227839,0.00021947261
C0R590,里港,2026-04-18,22.77919,120.49459,3.8820814e-05
C0E610,馬都安,2026-04-18,24.451272,120.930192,1.6225748e-08
C0E550,明德,2026-04-18,24.583486,120.885411,5.3443396e-09
C0R150,三地門,2026-04-18,22.709889,120.639944,0.9999293
C0G910,花壇,2026-04-18,24.032076,120.549461,3.0869447e-08
C1D400,鳥嘴山,2026-04-18,24.71909,121.28387,7.524614e-10
C0K500,元長,2026-04-18,23.64981,120.315024,3.9840936e-07
C0F0B0,石岡,2026-04-18,24.276061,120.777644,7.8133905e-07
C2V250,甲仙,2026-04-18,23.080106,120.591758,6.0758157e-07
C0SA20,金崙山,2026-04-18,22.567419,120.959667,4.3834467e-10
C0V350,溪埔,2026-04-18,22.738578,120.446797,0.0004831483
C0M660,溪口,2026-04-18,23.604131,120.403569,8.3365836e-07
C1S880,壽卡,2026-04-18,22.238911,120.858903,3.0456082e-08
72D680,桃改新埔分場,2026-04-18,24.834444,121.066111,5.948817e-10
