站號,站名,日期,lat,lon,BLBTSLS
C1R120,上德文,2026-04-05,22.763272,120.704442,1.3649637e-09
467290,古坑,2026-04-05,23.633639,120.551889,0.99750656
C0R700,枋山,2026-04-05,22.246844,120.661086,6.3265907e-07
C2K300,鹿南,2026-04-05,23.63855,120.3636,0.4603809
C1R110,口社,2026-04-05,22.770111,120.645222,0.9998767
467290,古坑,2026-04-05,23.380729,120.336861,0.9986131
C0K500,元長,2026-04-05,23.64981,120.315024,0.0030159892
