站號,站名,日期,lat,lon,BLBTSLS
C1O850,環湖,2026-02-26,23.148617,120.418633,1.3384283e-08
C0S890,關山,2026-02-26,23.0395,121.175017,1.2303509e-09
C1R120,上德文,2026-02-26,22.763272,120.704442,4.3838314e-10
C1S800,華源,2026-02-26,22.657883,121.02325,1.9013897e-09
C0R550,新埤,2026-02-26,22.467947,120.582894,6.7376695e-09
C1O880,關山,2026-02-26,23.173397,120.594092,6.5703126e-10
C0R260,春日,2026-02-26,22.370361,120.628306,4.003382e-09
C1I211,蘆竹湳,2026-02-26,23.934019,120.811994,4.7189885e-10
C1I260,北坑,2026-02-26,23.9246,121.006903,4.5484583e-10
467290,古坑,2026-02-26,23.633639,120.551889,4.764003e-08
C0R700,枋山,2026-02-26,22.246844,120.661086,2.0656675e-07
C0SA40,瑞和,2026-02-26,22.974361,121.156697,1.5316112e-09
C0R490,九如,2026-02-26,22.7405,120.490503,0.9803872
C0D430,峨眉,2026-02-26,24.6905,121.017189,8.606961e-10
C1I240,外大坪,2026-02-26,23.958697,120.917931,5.7809985e-10
C1V570,吉東,2026-02-26,22.85422,120.5454,0.37902293
C0D480,打鐵坑,2026-02-26,24.849664,121.150789,8.5667695e-10
C0C480,桃園,2026-02-26,24.992425,121.323172,1.4261707e-09
467290,古坑,2026-02-26,23.380729,120.336861,5.498625e-08
