站號,站名,日期,lat,lon,BLBTSLS
C0R710,龍磐,2026-02-22,21.931672,120.838942,0.9995642
C1F9D1,白毛台,2026-02-22,24.158325,120.886933,1.1893702e-07
C0G940,竹塘,2026-02-22,23.848253,120.386764,6.3557004e-06
467590,恆春,2026-02-22,22.003897,120.746339,0.9656355
C1O850,環湖,2026-02-22,23.148617,120.418633,0.016794818
C0U710,太平山,2026-02-22,24.505486,121.525656,2.419576e-08
C0E820,獅潭,2026-02-22,24.539133,120.920042,4.2509456e-07
C2SD70,二層坪,2026-02-22,22.94105,121.16838,2.7484967e-07
C0V880,興達,2026-02-22,22.8778,120.2127,0.9992766
C0S890,關山,2026-02-22,23.0395,121.175017,2.3128179e-07
C0SB30,新蘭,2026-02-22,22.869214,121.223228,3.2800133e-06
C2R970,屏科大,2026-02-22,22.648275,120.619247,0.98495024
C1Z130,銅門,2026-02-22,23.965694,121.492842,2.6882269e-08
C0AD40,土城,2026-02-22,24.973208,121.445169,3.1854668e-07
CAN140,六官養殖協會,2026-02-22,23.22881,120.29962,0.9933761
C0X180,山上,2026-02-22,23.0757,120.363253,0.99415535
C0F9Z0,雪山東峰,2026-02-22,24.388792,121.268675,3.83841e-08
C1M480,獨立山,2026-02-22,23.537022,120.607797,1.8611845e-09
C0X220,學甲,2026-02-22,23.230367,120.182187,0.9933761
467650,日月潭,2026-02-22,23.881325,120.90805,4.5234057e-09
A2K570,古坑(花卉中心),2026-02-22,23.633531,120.552392,1.0030259e-07
C0K600,箔子寮,2026-02-22,23.6197,120.14,0.26874202
C0G830,埤頭,2026-02-22,23.866003,120.452806,6.3557004e-06
C0S950,七塊厝,2026-02-22,22.954453,121.229922,6.154833e-08
467110,金門,2026-02-22,24.407306,118.289281,8.725884e-08
C0AH80,深坑,2026-02-22,25.002703,121.628328,5.6621974e-07
C0A970,三貂角,2026-02-22,25.007606,122.002058,4.0780873e-07
C2D730,寶山農場,2026-02-22,24.732444,120.976153,2.7029346e-05
C0K430,褒忠,2026-02-22,23.690938,120.303634,4.28765e-07
467480,嘉義,2026-02-22,23.495925,120.432906,0.095669575
C0V400,阿公店,2026-02-22,22.804194,120.355528,0.9842191
C0E960,觀霧分站,2026-02-22,24.505781,121.113921,1.7863888e-08
467550,玉山,2026-02-22,23.48718,120.95943,4.950653e-08
C0R440,大漢山,2026-02-22,22.405264,120.753181,1.8084462e-08
C0SD30,東清國小,2026-02-22,22.057128,121.564922,0.9159616
C1F9B1,桐林,2026-02-22,24.066172,120.735194,0.5424818
C2H9U0,鳳鵬,2026-02-22,23.763919,120.788061,1.9230556e-07
C0K390,土庫,2026-02-22,23.679029,120.395574,6.3557004e-06
C1I450,望鄉山,2026-02-22,23.594153,120.944286,3.0645054e-08
C0E910,海埔,2026-02-22,24.648767,120.772435,0.038505547
B2E890,畜試北區分所,2026-02-22,24.527806,120.770972,0.000113714166
C0R750,四林格山,2026-02-22,22.076989,120.802439,0.99995005
C0F0C0,中坑,2026-02-22,24.248517,120.903319,1.1419397e-08
C1I121,大鞍,2026-02-22,23.678381,120.760017,5.812512e-09
C2G9E0,移民庄,2026-02-22,23.9784,120.40283,1.1836429e-06
72U480,花改蘭陽分場,2026-02-22,24.686306,121.716583,2.2051973e-08
C0A770,科教館,2026-02-22,25.096356,121.516507,4.1365917e-07
C0AJ60,六塊厝,2026-02-22,25.24,121.4481,0.9866884
C0R620,墾雷,2026-02-22,21.900836,120.855269,0.9812191
467420,永康,2026-02-22,23.038386,120.2367,0.99914974
C2M530,奮起湖,2026-02-22,23.493903,120.699253,4.8718065e-09
C0I410,名間,2026-02-22,23.837053,120.701447,0.006128532
A2C560,農工中心,2026-02-22,24.985917,121.239833,0.00018295163
C0V740,旗山,2026-02-22,22.888614,120.483597,0.9339834
C0Z061,玉里,2026-02-22,23.3215,121.339656,1.7441944e-07
C0S840,南田,2026-02-22,22.279725,120.889208,0.9999354
C1I470,杉林溪,2026-02-22,23.639517,120.786444,7.143623e-09
C1X040,東原,2026-02-22,23.291597,120.463822,1.9383563e-06
C0R660,枋寮,2026-02-22,22.367722,120.590647,0.99954534
C1R120,上德文,2026-02-22,22.763272,120.704442,3.550184e-09
C0K450,大埤,2026-02-22,23.646074,120.431537,2.8803224e-06
C0UA00,土場,2026-02-22,24.576533,121.495333,1.705163e-08
467080,宜蘭,2026-02-22,24.763975,121.756528,2.3024826e-08
C0N030,四草,2026-02-22,23.0235,120.1116,0.9992766
467410,臺南,2026-02-22,22.99328,120.20492,0.9987265
C0V650,彌陀,2026-02-22,22.783806,120.246361,0.9970283
C0D660,新竹市東區,2026-02-22,24.798681,120.986942,0.00015692189
82S580,茶改東部分場,2026-02-22,22.907694,121.130139,3.311417e-07
C0SB40,興隆,2026-02-22,22.913661,121.257469,2.9298576e-06
467050,新屋,2026-02-22,25.006725,121.047492,0.0035989063
C0C710,大溪永福,2026-02-22,24.892936,121.324975,0.000113391055
C0FA20,溫寮,2026-02-22,24.372177,120.583125,0.008946808
C0V640,湖內,2026-02-22,22.887139,120.2445,0.99914974
C0R910,下寮,2026-02-22,22.3929,120.5548,0.99954534
C0Z020,明里,2026-02-22,23.208717,121.262342,1.15134e-07
C0M770,嘉義梅山,2026-02-22,23.585398,120.555587,0.0012061319
C0C660,楊梅,2026-02-22,24.912375,121.143047,5.8559093e-05
C0SD40,牛頭山,2026-02-22,22.676661,121.506944,0.99996185
C1E511,新開,2026-02-22,24.347703,120.827019,0.000819412
G2F820,農試所(霧峰),2026-02-22,24.031261,120.688133,0.8529485
C2M990,大巃頂,2026-02-22,23.5547,120.61439,2.1126663e-09
C1I070,和社,2026-02-22,23.591131,120.888861,3.2452856e-09
C2E990,新坪頂,2026-02-22,24.30201,120.8574,8.4286874e-08
C0TA80,立霧山,2026-02-22,24.183258,121.641899,3.3380438e-08
C2F000,大肚,2026-02-22,24.15295,120.572117,2.3825963e-07
C1S850,豐南,2026-02-22,23.122139,121.262389,4.808525e-08
C2M9B0,西興,2026-02-22,23.2428,120.57617,4.1747223e-09
C2A920,富貴角,2026-02-22,25.263783,121.565258,0.2075075
C0T960,光復,2026-02-22,23.660694,121.424964,2.9726516e-08
C0F9M0,豐原,2026-02-22,24.254322,120.720692,0.0976852
C0R720,旭海,2026-02-22,22.205403,120.887614,0.99980193
C0V710,苓雅,2026-02-22,22.622742,120.330669,0.9956629
C0C740,觀音工業區,2026-02-22,25.064764,121.114856,0.004923363
CAC040,拉拉山,2026-02-22,24.699317,121.427133,2.2632477e-08
C0V790,萬山,2026-02-22,22.905944,120.688056,7.4678566e-09
U2HA30,臺大和社,2026-02-22,23.590856,120.888864,3.2452856e-09
C2H9K0,屯原,2026-02-22,24.067969,121.209389,1.43476315e-08
C0AJ90,澳底,2026-02-22,25.0552,121.9253,1.6228663e-06
C0Z100,東華,2026-02-22,23.89525,121.549833,3.736892e-08
C0G970,三豐,2026-02-22,23.882,120.2895,5.4594096e-07
C0V900,汕尾,2026-02-22,22.4782,120.4151,0.999573
C1R630,龍泉,2026-02-22,22.66701,120.59091,0.9957081
C1AC50,關渡,2026-02-22,25.133486,121.469331,0.71581316
C0C800,四稜,2026-02-22,24.64733,121.4293,1.5733525e-08
C0F9I0,神岡,2026-02-22,24.272481,120.658314,0.27827242
C0K460,斗南,2026-02-22,23.678734,120.478359,1.5221841e-06
C2O810,曾文,2026-02-22,23.219681,120.497328,0.00042748204
467280,後龍,2026-02-22,24.648563,120.831834,0.0029273762
C1F9J1,清水林,2026-02-22,24.071242,120.820419,1.0997941e-08
C2A650,火燒寮,2026-02-22,25.002719,121.742892,8.959363e-08
466930,竹子湖,2026-02-22,25.162078,121.544547,4.9813457e-06
C1I220,樟湖,2026-02-22,23.905333,120.846983,4.5943147e-09
C0I390,仁愛,2026-02-22,24.022122,121.132206,4.6668513e-09
C0Z300,東里,2026-02-22,23.26853,121.30547,1.5779499e-07
C1V590,新發,2026-02-22,23.057019,120.646064,3.0847886e-09
C0K510,水林,2026-02-22,23.572924,120.24597,0.26874202
72S590,東改賓朗果園,2026-02-22,22.813889,121.071278,1.5927837e-05
82A750,茶改北部分場,2026-02-22,24.955778,121.631222,5.401392e-08
C1A750,石碇服務區,2026-02-22,25.00872,121.646242,4.3744768e-07
C0X300,鹿寮,2026-02-22,23.386047,120.477331,0.01909916
C0K590,雲林東勢,2026-02-22,23.674192,120.255721,4.28765e-07
C2K310,港尾布雞,2026-02-22,23.74834,120.38439,6.3557004e-06
C0A570,桶後,2026-02-22,24.848222,121.597992,1.0837062e-08
C1S800,華源,2026-02-22,22.657883,121.02325,0.0063502826
C0G720,溪州,2026-02-22,23.851589,120.499093,1.5221841e-06
C1V160,達卡努瓦,2026-02-22,23.279811,120.705319,3.3600993e-09
C2M410,馬頭山,2026-02-22,23.324361,120.582017,6.986761e-08
C0V850,蚵仔寮,2026-02-22,22.7256,120.2527,0.9970283
C0S740,池上,2026-02-22,23.119628,121.209469,1.3036455e-07
C1V390,尖山,2026-02-22,22.813153,120.367789,0.94099367
C0AH70,松山,2026-02-22,25.04871,121.55042,3.67854e-07
C0N010,鯤鯓國小,2026-02-22,23.1879,120.0889,0.9933761
C0R550,新埤,2026-02-22,22.467947,120.582894,0.9994797
C0SA60,知本（水試所）,2026-02-22,22.702394,121.082761,0.84857434
C0T9I0,豐濱,2026-02-22,23.583897,121.514806,2.8856256e-08
C0UB00,淡江大學蘭陽校園,2026-02-22,24.823239,121.730383,1.4924726e-08
C0W240,九宮,2026-02-22,24.423753,118.240186,4.6296265e-08
C0T9N0,富里,2026-02-22,23.171639,121.249378,1.03259794e-07
U2HA50,臺大竹山,2026-02-22,23.756972,120.681556,0.006128532
C0V840,鳳鼻頭,2026-02-22,22.5083,120.3591,0.999573
C0X140,西港,2026-02-22,23.125608,120.203108,0.9933761
72D080,桃改五峰分場,2026-02-22,24.612194,121.157167,7.0518915e-09
C2H9P0,伊拿谷,2026-02-22,23.963211,121.088264,4.9243005e-09
C2K250,崙背,2026-02-22,23.75553,120.31893,4.28765e-07
C2H9F0,柑林,2026-02-22,24.018658,120.847072,0.003945729
C0TA20,加灣,2026-02-22,24.082025,121.608944,3.0545823e-07
C0V530,阿蓮,2026-02-22,22.883208,120.327508,0.9984836
C0FB30,八仙山苗圃,2026-02-22,24.192719,121.001366,1.2248234e-08
C1O880,關山,2026-02-22,23.173397,120.594092,5.4775533e-08
C0E791,卓蘭,2026-02-22,24.3126,120.8244,0.00048180352
C1I030,武界,2026-02-22,23.913225,121.052483,4.7469033e-09
C0R520,崁頂,2026-02-22,22.514781,120.506914,0.99954534
C0R341,牡丹,2026-02-22,22.130036,120.792639,0.999068
C0R930,萬丹,2026-02-22,22.5885,120.4851,0.9994797
C0S760,紅石,2026-02-22,23.069131,121.126219,1.9046247e-08
C2C410,中央大學,2026-02-22,24.967652,121.185165,0.000113391055
C1M610,石磐龍,2026-02-22,23.496606,120.663506,3.8548134e-09
C0C790,東眼山,2026-02-22,24.8284,121.40888,1.2891195e-08
C0UA10,鴛鴦湖,2026-02-22,24.590269,121.412228,2.1377094e-08
C0R800,丹路,2026-02-22,22.204481,120.750989,0.9998348
C0G920,永靖,2026-02-22,23.924703,120.547533,3.9549744e-07
C2M950,太和,2026-02-22,23.538372,120.702961,4.8448965e-09
C1A630,下盆,2026-02-22,24.771003,121.538622,1.0994963e-08
B2N890,畜產試驗所,2026-02-22,23.058972,120.336406,0.99761796
C0UA30,白嶺,2026-02-22,24.527819,121.519031,1.7408318e-08
467571,新竹,2026-02-22,24.828575,121.01455,0.00031682328
C1V580,溪南(特生中心),2026-02-22,23.084972,120.788475,7.465877e-09
C1T970,大農,2026-02-22,23.615233,121.413331,2.6223253e-08
C0R650,竹田,2026-02-22,22.58486,120.54344,0.9995176
C1H900,清流,2026-02-22,24.080775,120.962997,4.8429194e-09
C1C510,水尾,2026-02-22,24.940081,121.087161,0.00039189772
C2N170,茅港尾,2026-02-22,23.2061,120.2624,0.9933761
C0F9X0,大雅(中科園區),2026-02-22,24.21528,120.62445,6.3690127e-06
C0SB60,白守蓮,2026-02-22,23.126769,121.401914,0.99951637
C0O970,虎頭埤,2026-02-22,23.021375,120.347878,0.9899604
C0C730,中大臨海站,2026-02-22,24.966126,121.008581,0.0014928806
C0X250,新營,2026-02-22,23.310689,120.316681,0.9843215
C0V700,三民,2026-02-22,22.645017,120.311233,0.9956629
C0U870,大礁溪,2026-02-22,24.791042,121.675047,1.4901858e-08
C0E870,高鐵苗栗,2026-02-22,24.60725,120.826094,0.005531434
C0TA30,鹽寮,2026-02-22,23.845606,121.592664,4.126284e-08
C0M860,新美,2026-02-22,23.338017,120.683169,3.902857e-09
C1E701,八卦,2026-02-22,24.491756,120.927619,1.306434e-08
C2TA90,加納納,2026-02-22,23.466421,121.359867,2.425236e-08
C0I420,國姓,2026-02-22,24.037803,120.855072,0.0014360346
C2D720,關西工作站,2026-02-22,24.757275,121.184792,1.6367206e-08
C0S960,香蘭,2026-02-22,22.587569,120.993375,0.99283016
467620,蘭嶼,2026-02-22,22.0369,121.55843,0.9999789
C0R260,春日,2026-02-22,22.370361,120.628306,0.99915224
72G600,臺中農改場,2026-02-22,24.003028,120.534389,7.8544656e-07
C0Z210,瑞穗,2026-02-22,23.5239,121.39021,2.9924774e-08
C0M820,達邦,2026-02-22,23.453994,120.749517,3.5488028e-09
C0V860,南寮,2026-02-22,22.7616,120.2339,0.99779254
C0G740,大城,2026-02-22,23.852487,120.320935,4.28765e-07
C0R920,塭仔,2026-02-22,22.4169,120.5197,0.999573
C0R470,高樹,2026-02-22,22.826389,120.600806,0.9910886
C0R680,佳樂水,2026-02-22,21.993578,120.861633,0.95472986
C1O870,大棟山,2026-02-22,23.31157,120.52226,2.592945e-09
C0D360,梅花,2026-02-22,24.678347,121.208558,6.1570486e-09
C0Z190,富世,2026-02-22,24.14743,121.6297,1.16109625e-07
C0AI10,屈尺,2026-02-22,24.92184,121.54475,1.9260199e-07
B2U990,畜試東區分所,2026-02-22,24.669039,121.832561,2.3826775e-08
C0SB80,長濱漁港,2026-02-22,23.313644,121.459994,0.9992174
C0TA50,和仁,2026-02-22,24.241394,121.712472,1.6023068e-07
C0V910,大樹,2026-02-22,22.684645,120.432803,0.99752825
C1R610,西大武山,2026-02-22,22.617719,120.7322,1.8721266e-08
C0G900,線西,2026-02-22,24.143358,120.443536,0.008946808
C0M700,竹崎,2026-02-22,23.526178,120.555508,0.0022052198
C2E880,三義,2026-02-22,24.405478,120.749819,1.2634311e-08
C0C720,竹圍,2026-02-22,25.112692,121.239824,0.0061759683
C0F9P0,清水,2026-02-22,24.312297,120.562242,0.0062916223
C0Z150,吉安光華,2026-02-22,23.930925,121.595153,4.126284e-08
C0FA80,小雪山天池,2026-02-22,24.28025,121.02627,2.5235401e-08
467300,東吉島,2026-02-22,23.25727,119.66762,0.9980494
C1D640,外坪(五指山),2026-02-22,24.644447,121.090961,1.0929915e-08
C2R9A0,高士國小,2026-02-22,22.12553,120.84653,0.99970853
C0F9O0,潭子,2026-02-22,24.213106,120.703933,0.36204073
C2H9R0,卓社,2026-02-22,23.887894,121.000086,5.179576e-09
72T250,花蓮農改場,2026-02-22,23.975222,121.563889,3.736892e-08
C0E780,銅鑼,2026-02-22,24.489681,120.790853,1.8605645e-06
C1T950,太安,2026-02-22,23.666719,121.370128,9.317716e-09
C0E830,苑裡,2026-02-22,24.439714,120.653053,0.005531434
467270,田中,2026-02-22,23.873803,120.581286,8.505679e-07
C0SA10,檳榔四格山,2026-02-22,22.810031,121.109308,2.5967136e-06
C1T830,布洛灣,2026-02-22,24.17184,121.57127,6.857796e-08
C0F970,大坑,2026-02-22,24.173142,120.722289,0.68200463
C1U920,思源,2026-02-22,24.393125,121.347214,1.7470919e-08
C2H9Y0,松茗,2026-02-22,23.8167,120.650765,3.4283342e-08
C0A931,三和,2026-02-22,25.233153,121.595236,0.08262609
C0I010,廬山,2026-02-22,24.033311,121.181808,9.106543e-09
C2M940,日野賀,2026-02-22,23.434056,120.727169,3.9441432e-09
C0R860,鼻頭,2026-02-22,22.1043,120.8979,0.9844325
C0UB20,壯圍,2026-02-22,24.7359,121.8163,2.3826775e-08
C0R790,九棚,2026-02-22,22.14195,120.889281,0.9999023
C0W110,東莒,2026-02-22,25.9652,119.98069,2.1593861e-07
C1U930,粉鳥林,2026-02-22,24.497088,121.842479,4.800049e-08
C1I211,蘆竹湳,2026-02-22,23.934019,120.811994,3.9111008e-08
C0S830,長濱,2026-02-22,23.286817,121.411975,1.03259794e-07
C1F9F1,伯公龍,2026-02-22,24.272392,120.849047,4.847603e-07
C0UB90,太平山莊,2026-02-22,24.494171,121.536209,2.4425145e-08
C0E810,西湖,2026-02-22,24.562947,120.7485,0.001491883
C1I440,新高口,2026-02-22,23.478744,120.878939,2.1718952e-08
C0O840,王爺宮,2026-02-22,23.222064,120.40085,0.00042748204
C0T9G0,鳳林山,2026-02-22,23.735269,121.420131,1.9503643e-08
C0X080,佳里,2026-02-22,23.173039,120.145086,0.9951136
C0FB70,大甲溪埔,2026-02-22,24.370625,120.620067,0.0029105477
C0Z310,清水斷崖,2026-02-22,24.218294,121.689142,8.529295e-08
C0M680,太保,2026-02-22,23.455062,120.331455,0.19705914
C1S820,金峰,2026-02-22,22.590969,120.933236,0.034267057
C0AD10,八里,2026-02-22,25.150211,121.403947,0.98418385
C2K240,草嶺,2026-02-22,23.59555,120.693461,3.9045993e-09
C1SA70,都蘭,2026-02-22,22.87794,121.226881,2.9298576e-06
C0K440,二崙,2026-02-22,23.772797,120.408944,6.3557004e-06
C1A760,坪林交控,2026-02-22,24.94284,121.713442,1.1436567e-07
C0F9N0,大里,2026-02-22,24.092464,120.701378,0.9054453
C0SA90,達仁林場,2026-02-22,22.264347,120.823972,1.06550004e-07
C1R290,石門山,2026-02-22,22.112611,120.756597,0.99998736
42HA10,萬大發電廠,2026-02-22,23.978875,121.139639,4.492761e-09
C0R890,山海,2026-02-22,21.9878,120.7091,0.9305782
C0T9A0,月眉山,2026-02-22,23.809928,121.539828,1.976583e-08
C0AC70,信義,2026-02-22,25.037822,121.564597,3.67854e-07
C0K560,棋山,2026-02-22,23.68645,120.603417,6.0027794e-08
C2FB50,出雲,2026-02-22,24.206469,120.902794,9.94057e-09
C1Z240,中平林道,2026-02-22,23.42115,121.26763,2.7002981e-08
U2H480,溪頭,2026-02-22,23.670306,120.798194,3.793733e-09
C0M880,好美里,2026-02-22,23.3364,120.138,0.9951136
C0T9E0,大坑,2026-02-22,23.880628,121.581981,5.811761e-08
C0K530,臺西,2026-02-22,23.701547,120.197559,5.4594096e-07
C1E900,國一N128K,2026-02-22,24.560997,120.844186,0.00028582627
C0AJ50,水湳洞,2026-02-22,25.123695,121.862238,1.4110269e-06
C0AI20,白沙灣,2026-02-22,25.283128,121.519058,0.97840244
C2V310,美濃,2026-02-22,22.898792,120.51907,0.9435197
C0A860,大坪,2026-02-22,25.165914,121.632969,3.81069e-08
C1U850,觀音海岸,2026-02-22,24.38319,121.77856,1.6517898e-08
C2K610,草嶺石壁,2026-02-22,23.602469,120.707731,3.9981933e-09
C0U950,鶯子嶺,2026-02-22,24.89754,121.79244,3.717463e-08
C0O900,善化,2026-02-22,23.112883,120.297219,0.99914974
C0K550,蔦松,2026-02-22,23.514319,120.229736,0.26874202
E2P980,林試六龜中心,2026-02-22,22.991703,120.645722,0.0070449174
C0E590,通霄,2026-02-22,24.471892,120.704622,0.0008504409
C1I310,西巒,2026-02-22,23.754486,120.883956,5.686362e-09
C0A550,泰平,2026-02-22,24.971197,121.823711,5.401392e-08
C0I360,水里,2026-02-22,23.812553,120.849792,2.3342429e-05
C0R830,高士,2026-02-22,22.121825,120.836781,0.9999851
C1I101,溪頭,2026-02-22,23.661789,120.807647,8.286685e-09
C0AJ20,野柳,2026-02-22,25.20703,121.690021,0.97840244
C0B060,暖暖,2026-02-22,25.0957,121.7403,4.3744768e-07
C1H920,長豐,2026-02-22,24.102039,120.879897,7.692723e-09
C2S9B0,利吉,2026-02-22,22.86246,121.15486,5.0762634e-07
C0V360,內門,2026-02-22,22.975481,120.466769,0.8284651
C0R850,林邊,2026-02-22,22.4634,120.5339,0.99954534
C0E930,龍鳳,2026-02-22,24.700034,120.859125,0.0014928806
C0U910,冬山,2026-02-22,24.63373,121.7937,2.3826775e-08
C1E721,泰安,2026-02-22,24.489017,120.968036,1.4790571e-08
82H320,茶改中部分場,2026-02-22,23.875611,120.913583,5.1736615e-09
C0M750,布袋,2026-02-22,23.380878,120.167789,0.49711347
C1S860,利嘉,2026-02-22,22.809417,121.050528,2.29357e-07
E2S980,林試太麻里1,2026-02-22,22.598922,120.980044,0.837817
C0X170,關廟,2026-02-22,22.963017,120.327797,0.9970778
C0V720,林園,2026-02-22,22.507747,120.394511,0.9995176
C1I510,線浸林道,2026-02-22,23.761508,120.832956,4.0006802e-09
C0D690,外湖,2026-02-22,24.917735,120.968711,0.0014928806
C0C750,新興坑尾,2026-02-22,25.0061,121.0971,0.0010320083
B2Q810,畜試南區分所,2026-02-22,21.945583,120.802167,0.95472986
C0S790,金崙,2026-02-22,22.538122,120.966875,0.009227736
C0AH90,福山植物園,2026-02-22,24.760717,121.58135,1.1328564e-08
C0I540,奇萊稜線,2026-02-22,24.109231,121.326456,3.677722e-08
C0M850,表湖,2026-02-22,23.24186,120.64166,3.0416996e-09
C0S770,大溪山,2026-02-22,22.478475,120.943325,4.1774438e-05
C0AG80,中和,2026-02-22,24.991622,121.491792,3.1854668e-07
C0T790,大禹嶺,2026-02-22,24.186117,121.316086,2.900541e-08
C0T9B0,水源,2026-02-22,23.991861,121.537169,4.4172157e-08
C0R840,牡丹池山,2026-02-22,22.168389,120.841225,1.1688343e-07
C1I131,桶頭,2026-02-22,23.641944,120.654117,1.1146923e-06
CAL110,布袋國中,2026-02-22,23.35893,120.18026,0.99555004
C2M9D0,何竹子腳,2026-02-22,23.53641,120.38203,0.123934396
C0Z290,赤柯山,2026-02-22,23.36893,121.38293,3.0678446e-08
C0X280,將軍,2026-02-22,23.214999,120.13577,0.9933761
C0S690,太麻里,2026-02-22,22.60902,120.98533,1.1443489e-06
C0U880,北關,2026-02-22,24.9072,121.8734,1.6228663e-06
CAW010,東引,2026-02-22,26.3588,120.4836,6.2897135e-07
C0G810,埔心,2026-02-22,23.947633,120.525456,5.676844e-07
C0U970,大福,2026-02-22,24.80064,121.81389,2.3826775e-08
C2H9N0,仁愛東眼,2026-02-22,24.026875,121.1205,5.9490124e-09
C1E670,南礦,2026-02-22,24.538278,121.002836,1.311935e-08
C0M520,東後寮,2026-02-22,23.369908,120.248065,0.9933761
C1E461,松安,2026-02-22,24.397972,120.986022,1.3896815e-08
C2N160,西拉雅風管處,2026-02-22,23.189481,120.335297,0.9759361
C2M970,碧湖,2026-02-22,23.568632,120.624165,2.1131177e-09
C0A640,石碇,2026-02-22,24.993969,121.662917,1.1436567e-07
E2S960,林試太麻里2,2026-02-22,22.598,120.99775,0.996012
C0F9Y0,桃山,2026-02-22,24.432739,121.303808,4.0683133e-08
C1I020,萬大,2026-02-22,23.979817,121.132261,4.67883e-09
C2UC20,長嶺,2026-02-22,24.70894,121.61162,1.0619673e-08
C0U940,羅東,2026-02-22,24.68184,121.74934,2.2767084e-08
C0M650,朴子,2026-02-22,23.43463,120.23902,0.26874202
C1I500,大尖山,2026-02-22,23.858572,120.994889,1.1964207e-08
C0FB40,中橫21.6k,2026-02-22,24.2499,121.1455,9.451497e-09
C0G820,田尾,2026-02-22,23.901669,120.509389,3.9549744e-07
E2K600,四湖植物園,2026-02-22,23.676986,120.163433,4.28765e-07
C0S730,綠島,2026-02-22,22.6672,121.47533,0.99997747
12Q970,東港工作站,2026-02-22,22.479997,120.466058,0.99954534
C1TA00,太魯閣,2026-02-22,24.15773,121.6236,2.981942e-08
466920,臺北,2026-02-22,25.037658,121.514853,3.67854e-07
C0R600,舊泰武,2026-02-22,22.588194,120.664944,2.2892536e-08
C1I260,北坑,2026-02-22,23.9246,121.006903,1.9906725e-08
466910,鞍部,2026-02-22,25.182586,121.529731,7.753762e-07
C1I230,九份二山,2026-02-22,23.961944,120.845,6.78593e-09
C2M810,里佳,2026-02-22,23.389125,120.716647,4.8718065e-09
C2A660,瑞芳,2026-02-22,25.113169,121.801147,3.279355e-07
C0R270,琉球嶼,2026-02-22,22.332244,120.362236,0.99915224
C2V580,瑞山,2026-02-22,22.90304,120.43424,0.76538163
C1T990,高寮,2026-02-22,23.394239,121.356808,2.5781253e-07
C0G620,芬園,2026-02-22,24.015678,120.6213,3.0622385e-08
C1Z140,荖溪,2026-02-22,23.890575,121.45964,3.3901127e-08
C1I201,中心崙,2026-02-22,23.728722,120.712097,4.787493e-09
C1I400,凌霄,2026-02-22,24.018778,121.004456,5.7823133e-09
C1M640,十字,2026-02-22,23.492153,120.753683,6.264311e-09
G2P820,農試鳳山分所,2026-02-22,22.646611,120.356083,0.9897268
C0Z270,蕃薯寮,2026-02-22,23.73835,121.540108,2.1650584e-08
C2E420,竹南,2026-02-22,24.70898,120.88897,0.00031682328
C0FB10,出雲山苗圃,2026-02-22,24.23105,120.90475,1.1360848e-08
C0F9Q0,外埔,2026-02-22,24.347817,120.705686,0.64275455
C0K580,高鐵雲林,2026-02-22,23.737456,120.417944,6.3557004e-06
C2I090,鳳凰,2026-02-22,23.728081,120.787347,3.141086e-09
C0U990,員山,2026-02-22,24.74435,121.72247,2.3024826e-08
C0V770,大社,2026-02-22,22.730306,120.346639,0.99332535
C0X120,麻豆,2026-02-22,23.183289,120.248611,0.9933761
C0C670,龍潭,2026-02-22,24.870056,121.221389,1.0128282e-08
C0D680,香山濕地,2026-02-22,24.783581,120.914988,0.0014928806
C0S980,勝林山,2026-02-22,22.430439,120.8938,6.785571e-08
C0V730,大寮,2026-02-22,22.605614,120.395717,0.9994797
C0R570,麟洛,2026-02-22,22.65078,120.52719,0.99731785
C2M930,石卓,2026-02-22,23.478744,120.702264,6.147907e-09
C0G9B0,和美,2026-02-22,24.105169,120.492131,1.1836429e-06
CAG100,王功漁港,2026-02-22,23.96824,120.32586,1.7399623e-06
C0X290,北門,2026-02-22,23.267772,120.125481,0.99555004
C2F930,大甲,2026-02-22,24.347667,120.640403,0.93234205
C0D650,湖口,2026-02-22,24.904794,121.043628,3.9570194e-05
C0U780,五結,2026-02-22,24.68637,121.79794,2.3826775e-08
C1I250,鯉潭,2026-02-22,23.961922,120.991131,7.692723e-09
C0R130,阿禮,2026-02-22,22.742908,120.743678,3.8650985e-09
C0X100,臺南市北區,2026-02-22,23.010394,120.194228,0.9992766
C0S920,金峰嘉蘭,2026-02-22,22.594789,120.960825,0.837817
C0V490,新興,2026-02-22,22.627422,120.298803,0.9956629
C0F9K0,大安,2026-02-22,24.345061,120.588025,0.0029105477
467290,古坑,2026-02-22,23.633639,120.551889,1.0030259e-07
C2E970,八甲,2026-02-22,24.535811,120.795983,1.3932413e-06
C0V440,鳳山,2026-02-22,22.646653,120.356122,0.9897268
C1T940,大觀,2026-02-22,23.714206,121.373133,1.9795408e-08
C0E740,造橋,2026-02-22,24.637056,120.864778,0.011301391
C0R100,尾寮山,2026-02-22,22.833111,120.683889,3.915144e-09
A2K630,臺大雲林校區,2026-02-22,23.730628,120.423903,2.8803224e-06
467990,馬祖,2026-02-22,26.169467,119.923158,9.433346e-08
C0D580,寶山,2026-02-22,24.735006,121.025192,2.4747435e-06
E2P990,林試扇平站,2026-02-22,22.9677,120.6857,3.2170042e-09
C0AI30,三重,2026-02-22,25.057328,121.500629,4.1365877e-07
C0AH00,汐止,2026-02-22,25.066881,121.658778,1.4110269e-06
C1Z040,立山,2026-02-22,23.443356,121.327375,4.999913e-08
466881,新北,2026-02-22,24.959207,121.525196,2.5416918e-07
C0W130,花嶼,2026-02-22,23.40007,119.32276,0.999465
C0A950,鼻頭角,2026-02-22,25.129036,121.923372,1.6228663e-06
C0K470,林內,2026-02-22,23.748675,120.609642,1.0030259e-07
C2F990,摩天嶺,2026-02-22,24.322458,120.936819,1.0757425e-08
C2E430,南庄,2026-02-22,24.601775,121.000214,7.54395e-08
82C160,茶改場,2026-02-22,24.908472,121.185333,1.3660612e-05
C2TB60,南安,2026-02-22,23.29818,121.26157,1.3127979e-07
C0Z320,清水林道,2026-02-22,23.27125,121.188272,3.6294576e-08
C0R760,南仁湖,2026-02-22,22.084681,120.863353,0.99998736
C0M670,大林,2026-02-22,23.600616,120.45841,0.072010875
C0M800,茶山,2026-02-22,23.299075,120.664767,5.39013e-09
C0A9C0,天母,2026-02-22,25.117494,121.537169,3.1854668e-07
72K220,南改斗南分場,2026-02-22,23.634556,120.477333,1.5221841e-06
72AI40,桃改樹林分場,2026-02-22,24.944503,121.386972,2.879944e-07
C0S910,蘭嶼燈塔,2026-02-22,22.081197,121.503117,0.99371684
C0B050,八斗子,2026-02-22,25.144754,121.79167,2.2623233e-06
C0U900,內城,2026-02-22,24.71813,121.68766,2.1190557e-08
C0X320,柳營,2026-02-22,23.253328,120.375253,0.052369546
C0M790,新港,2026-02-22,23.553269,120.345728,0.19705904
C0F9T0,西屯,2026-02-22,24.179494,120.641275,0.93234205
C0E950,松安,2026-02-22,24.39792,120.98599,1.3896815e-08
C0SA30,都歷,2026-02-22,23.020333,121.323642,2.0645207e-06
C0C620,蘆竹,2026-02-22,25.084275,121.265767,0.0028863885
C0R730,大坪頂,2026-02-22,22.024633,120.69355,0.9999209
C0AJ40,石門,2026-02-22,25.273672,121.601198,0.46432424
C0E750,苗栗,2026-02-22,24.564569,120.824575,0.0004661197
C0T870,鯉魚潭,2026-02-22,23.935639,121.508944,2.8682145e-08
C1V170,排雲,2026-02-22,23.463619,120.954147,4.428402e-08
C2H950,中寮,2026-02-22,23.884447,120.766406,0.059103947
C0R350,貓鼻頭,2026-02-22,21.921774,120.7358,0.97292215
C0V660,岡山,2026-02-22,22.797078,120.294958,0.9956629
C1H941,雙冬,2026-02-22,23.967378,120.802189,2.2615993e-08
C0AJ70,田寮,2026-02-22,25.2698,121.4886,0.97840244
C0AI00,五股,2026-02-22,25.07445,121.42728,7.8773176e-08
C0Z280,德武,2026-02-22,23.47426,121.41071,2.6106177e-08
C2RA10,大新,2026-02-22,22.67558,120.57788,0.99645627
C0R700,枋山,2026-02-22,22.246844,120.661086,0.9999271
C0C460,復興,2026-02-22,24.820208,121.352281,6.2302323e-09
C2K300,鹿南,2026-02-22,23.63855,120.3636,3.7523517e-07
E2H360,蓮華池,2026-02-22,23.918333,120.885278,1.0026316e-08
C0M640,中埔,2026-02-22,23.42538,120.5229,0.0022052198
C0W140,金沙,2026-02-22,24.488292,118.408778,0.5196864
C2A540,四堵,2026-02-22,24.8926,121.745736,6.341372e-08
C0ACA0,新莊,2026-02-22,25.051478,121.446756,4.1365877e-07
C0R220,潮州,2026-02-22,22.534361,120.54,0.9995176
U2HA40,臺大內茅埔,2026-02-22,23.689722,120.851117,9.794654e-09
467490,臺中,2026-02-22,24.145736,120.684075,0.94429165
C0UB60,明池,2026-02-22,24.650688,121.475277,1.5698573e-08
C0U960,翠峰湖,2026-02-22,24.510856,121.608044,2.3517988e-08
E2HA20,林試畢祿溪站,2026-02-22,24.226944,121.308522,1.8723194e-08
C2M9A0,大華,2026-02-22,23.4824,120.67491,3.6796566e-09
C0V890,前鎮,2026-02-22,22.5718,120.3117,0.9970283
C1F941,雪嶺,2026-02-22,24.280586,121.026642,2.5235401e-08
C2H9E0,國姓南港,2026-02-22,23.911108,120.846556,4.6668513e-09
C0AC80,文山,2026-02-22,25.00235,121.575728,2.0842705e-07
C0F9R0,龍井,2026-02-22,24.184536,120.528972,0.008946808
C0M760,民雄,2026-02-22,23.551754,120.428457,0.072010875
C0UA40,西德山,2026-02-22,24.560647,121.752608,2.089269e-08
C2TA70,赤科坪,2026-02-22,23.39885,121.39168,3.1100345e-08
C1T920,中興,2026-02-22,23.769503,121.498653,3.3893237e-08
C0D550,雪霸,2026-02-22,24.526972,121.11605,1.5122358e-08
C2F860,梨山,2026-02-22,24.247522,121.243669,1.9164643e-08
C0R320,車城,2026-02-22,22.0744,120.716247,0.9305782
C1S870,南美山,2026-02-22,23.15025,121.382333,1.7678825e-07
C0B020,基隆嶼,2026-02-22,25.19141,121.78391,1.4110269e-06
C1U501,牛鬥,2026-02-22,24.637836,121.573656,1.10437455e-08
C0M730,嘉義市東區,2026-02-22,23.457673,120.460531,0.072010875
C2R990,泰武,2026-02-22,22.60686,120.69765,1.5674189e-08
C0S700,知本,2026-02-22,22.684866,121.005642,2.551158e-07
C1N001,沙崙,2026-02-22,22.935472,120.309406,0.99761796
C0V760,橋頭,2026-02-22,22.757806,120.30575,0.9956629
C0G960,福寶,2026-02-22,24.0443,120.3814,1.7399623e-06
C0X210,白河,2026-02-22,23.347466,120.414427,0.03985712
C0S810,東河,2026-02-22,22.972672,121.303986,4.311652e-06
C2R170,屏東,2026-02-22,22.66027,120.49403,0.99752825
C0R670,楓港,2026-02-22,22.190131,120.692156,0.9999271
C0FA50,霧峰,2026-02-22,24.0419,120.6995,0.81725335
C0UB10,蘇澳,2026-02-22,24.5969,121.8571,4.800049e-08
C0G950,防潮門,2026-02-22,24.1835,120.4871,0.008946816
C0M740,六腳,2026-02-22,23.492871,120.290625,0.26874202
C1R250,力里,2026-02-22,22.428117,120.629228,0.14597042
C0K330,虎尾,2026-02-22,23.719183,120.442036,2.8803224e-06
C2FA00,烏石坑,2026-02-22,24.273503,120.947617,1.1038838e-08
C0V620,永安,2026-02-22,22.82315,120.236856,0.9970283
C1I330,楓樹林,2026-02-22,23.986803,121.076117,5.041731e-09
C0W200,湖西,2026-02-22,23.596314,119.67275,0.99682105
72Q010,高雄農改場,2026-02-22,22.709333,120.525889,0.99680156
C0SA40,瑞和,2026-02-22,22.974361,121.156697,3.311417e-07
C0C680,龜山,2026-02-22,25.02846,121.38656,5.789898e-08
C2V260,月眉,2026-02-22,22.971003,120.539853,0.57831556
C0V450,鳳森,2026-02-22,22.545064,120.392592,0.99923456
C0FA90,小雪山林道,2026-02-22,24.29515,121.03651,3.1408362e-08
C0U720,南山,2026-02-22,24.43742,121.38167,1.5439074e-08
A2N290,臺南蘭花園區,2026-02-22,23.340258,120.379661,0.052369546
C0R560,新園,2026-02-22,22.5434,120.461558,0.9995176
C0U890,三星,2026-02-22,24.66812,121.65302,1.9018294e-08
C1V300,御油山,2026-02-22,23.001983,120.715364,7.26713e-09
C0U600,礁溪,2026-02-22,24.817539,121.765608,2.2767084e-08
C1T980,龍澗,2026-02-22,24.023289,121.411328,3.386377e-08
C0D670,海天一線,2026-02-22,24.831986,120.914438,0.0014928806
C0SA00,歷坵,2026-02-22,22.520969,120.89185,5.772592e-06
C0M710,東石,2026-02-22,23.458927,120.15385,0.4971136
C0M780,鹿草,2026-02-22,23.41134,120.30835,0.19705904
C0U520,雙連埤,2026-02-22,24.753033,121.641303,1.4965632e-08
C0B010,七堵,2026-02-22,25.094819,121.71713,1.0749969e-06
C0R480,長治,2026-02-22,22.693128,120.542622,0.99645627
C1V830,國三S383K,2026-02-22,22.781967,120.426475,0.9879127
12Q980,恆春工作站,2026-02-22,22.079678,120.714425,0.9449007
C1O940,東山服務區,2026-02-22,23.286016,120.398472,0.03985712
C1U840,東澳嶺,2026-02-22,24.5378,121.8485,1.7280852e-08
C1D630,飛鳳山,2026-02-22,24.766464,121.119178,1.3332205e-08
C0S940,石寧山,2026-02-22,23.223772,121.406639,0.96244
C0K410,北港,2026-02-22,23.573957,120.292802,0.19705904
C2M620,瑞里,2026-02-22,23.545133,120.675197,4.377183e-09
C0SB70,小港漁港,2026-02-22,23.158558,121.400431,0.9994174
C2O950,安南,2026-02-22,23.076694,120.144861,0.9992766
C0F0E0,南湖圈谷,2026-02-22,24.363714,121.444667,6.087827e-08
467610,成功,2026-02-22,23.097486,121.373428,6.536765e-06
C0G890,伸港,2026-02-22,24.148933,120.484403,0.008946808
C2E540,龍溪,2026-02-22,24.606489,120.783933,0.011301391
C1V200,梅山,2026-02-22,23.268447,120.823556,2.9404956e-09
C0T9H0,加路蘭山,2026-02-22,23.682947,121.5274,1.9809232e-08
C2O930,玉井,2026-02-22,23.126042,120.46055,0.016794818
C1F911,新伯公,2026-02-22,24.221361,120.841069,1.2738216e-05
C0R490,九如,2026-02-22,22.7405,120.490503,0.99731785
C0X200,左鎮,2026-02-22,23.056758,120.408522,0.93861425
C2TB50,麻汝,2026-02-22,23.42554,121.39358,2.3709541e-08
C0FA60,鞍馬山工作站,2026-02-22,24.267064,121.000793,1.9388331e-08
C0SB50,叭嗡嗡,2026-02-22,23.047062,121.343223,1.1465334e-05
C1F891,稍來,2026-02-22,24.265689,121.001142,1.8942885e-08
C2M9C0,紫雲,2026-02-22,23.494914,120.540253,0.006584193
72N240,七股研究中心,2026-02-22,23.081672,120.062894,0.9995064
C0C700,中壢,2026-02-22,24.977661,121.256375,0.000113391055
C0M690,水上,2026-02-22,23.419734,120.388909,0.095669575
C0V690,鼓山,2026-02-22,22.623325,120.275575,0.9970283
C0O860,大內,2026-02-22,23.11885,120.36083,0.9984836
C0Z200,萬榮,2026-02-22,23.709219,121.420106,2.8682145e-08
C0T9D0,和中,2026-02-22,24.26676,121.74103,1.7284881e-07
C2S9A0,北份子寮,2026-02-22,22.78561,121.07813,0.01316218
C1O921,楠西,2026-02-22,23.183511,120.484083,0.0071387766
C0AJ30,淡水觀海,2026-02-22,25.184591,121.408616,0.9866884
C0V810,左營,2026-02-22,22.67491,120.28491,0.9956629
C0UA70,桃源谷,2026-02-22,24.962606,121.888875,4.4604192e-08
C0X130,官田,2026-02-22,23.193217,120.315422,0.9843215
C1H000,翠峰,2026-02-22,24.109397,121.205211,2.0166366e-08
C0UA90,石城,2026-02-22,24.980444,121.951214,1.0749969e-06
C1E681,南勢山,2026-02-22,24.421669,120.923831,1.1698141e-08
C0A9F0,內湖,2026-02-22,25.079422,121.57545,3.67854e-07
C0K291,宜梧,2026-02-22,23.536281,120.169329,0.4971136
C1K540,口湖,2026-02-22,23.585344,120.180517,0.4971136
C0R780,滿州,2026-02-22,22.024403,120.839892,0.9812191
C0V870,文安,2026-02-22,22.8025,120.2164,0.9970283
C0U650,玉蘭,2026-02-22,24.675286,121.587061,1.0683711e-08
C0R640,東港,2026-02-22,22.46247,120.44074,0.99954534
C0AJ80,板橋,2026-02-22,25.0107,121.4489,3.67854e-07
C0S660,下馬,2026-02-22,23.150427,121.070312,3.3093077e-08
C2N190,烏樹,2026-02-22,23.32393,120.36989,0.9843215
C1H9B1,阿眉,2026-02-22,24.1263,120.994672,1.1624786e-08
C0UA20,多加屯,2026-02-22,24.368614,121.373189,2.688673e-08
C0E730,頭份,2026-02-22,24.688247,120.912206,0.0004459318
72V140,高改旗南分場,2026-02-22,22.857861,120.516667,0.99645627
C0K480,莿桐,2026-02-22,23.761192,120.502372,8.505679e-07
C0U980,坪林石牌,2026-02-22,24.86478,121.77396,1.5243959e-08
C0T900,西林,2026-02-22,23.8119,121.441458,2.6223253e-08
C1I150,青雲,2026-02-22,23.793361,120.949378,2.3339643e-08
C2E980,和興,2026-02-22,24.505319,120.923016,2.0104878e-08
467350,澎湖,2026-02-22,23.565503,119.563094,0.9984647
C0G800,埔鹽,2026-02-22,24.000394,120.431683,1.1836429e-06
C0H960,草屯,2026-02-22,23.973672,120.68085,0.69706434
C1V780,多納林道,2026-02-22,22.888028,120.737917,3.776161e-09
C0E920,通霄漁港,2026-02-22,24.498589,120.673876,0.038505547
C0Z330,安通山,2026-02-22,23.290728,121.348528,4.8998963e-08
C0AH10,永和,2026-02-22,25.01125,121.508111,3.67854e-07
C0AK10,太平里,2026-02-22,25.134937,121.364899,0.97840244
C2G640,鹿港,2026-02-22,24.0753,120.430481,1.7399623e-06
C1E890,國三N149K,2026-02-22,24.463414,120.680019,0.00028582627
C1R110,口社,2026-02-22,22.770111,120.645222,0.98495024
C1M870,國三N285K,2026-02-22,23.550319,120.505833,0.0038637067
C1E480,鳳美,2026-02-22,24.554803,121.034747,2.5228951e-08
C0T9M0,靜浦,2026-02-22,23.455167,121.495028,3.3893237e-08
C2H9M0,發祥,2026-02-22,24.154094,121.164517,9.2397405e-09
C2G9C0,埔南,2026-02-22,23.99124,120.46969,1.1836429e-06
C0AI40,石牌,2026-02-22,25.115597,121.513139,3.67854e-07
C1F871,上谷關,2026-02-22,24.203483,121.018644,1.078732e-08
C2H9G0,百勝,2026-02-22,24.051142,120.909361,1.8221718e-07
C0G880,二水,2026-02-22,23.810742,120.6173,1.3526389e-07
C0R940,加祿堂,2026-02-22,22.3363,120.6217,0.9995176
C0W220,北竿,2026-02-22,26.220358,119.974881,1.0230956e-07
C0O960,崎頂,2026-02-22,22.959547,120.369317,0.8955144
C0TA40,秀林,2026-02-22,24.302864,121.731144,1.8375454e-08
C0S750,向陽,2026-02-22,23.248397,120.986133,2.3383489e-08
C0T9F0,水璉,2026-02-22,23.797131,121.542514,2.2763786e-08
C1M600,頭凍,2026-02-22,23.406364,120.603339,1.9730864e-09
467660,臺東,2026-02-22,22.752211,121.154586,0.9440222
C1D380,新埔,2026-02-22,24.84745,121.03834,1.9816087e-05
C2G980,田頭村,2026-02-22,23.8263,120.444175,6.3557004e-06
C0V750,路竹,2026-02-22,22.854997,120.259439,0.99332535
C0N050,蚵寮,2026-02-22,23.301,120.1104,0.99555004
C2X060,下營,2026-02-22,23.226806,120.256291,0.9933761
72M700,南改鹿草分場,2026-02-22,23.416869,120.283061,0.26874202
C1SA50,利嘉林道,2026-02-22,22.82325,121.009389,2.2684857e-08
C0UB70,太平山中間站,2026-02-22,24.542003,121.513453,1.4016472e-08
C0A940,金山,2026-02-22,25.223628,121.643967,0.9655024
C1V340,大津,2026-02-22,22.888322,120.645986,0.96918017
C0W180,七美,2026-02-22,23.219333,119.444892,0.99952585
C1F9C1,白冷,2026-02-22,24.182844,120.929889,1.5625108e-07
K2E710,苗改生物防治研究中心,2026-02-22,24.422861,120.871833,6.3034584e-08
C0N040,蘆竹溝,2026-02-22,23.2344,120.0961,0.99555004
C0TB40,崇德,2026-02-22,24.166144,121.657414,1.7284881e-07
C0D760,大坪苗圃,2026-02-22,24.5362,121.1108,1.4790571e-08
C2W230,畜試所澎湖,2026-02-22,23.628342,119.513206,0.99768853
C0R880,後壁湖,2026-02-22,21.9457,120.7457,0.92418677
C1I280,埔中,2026-02-22,23.820778,120.642594,2.9916155e-08
467790,墾丁雷達站,2026-02-22,21.948235,120.808028,0.98633367
C0W190,望安,2026-02-22,23.380564,119.494075,0.9979402
C0Z170,卓溪,2026-02-22,23.3443,121.3029,1.4930599e-07
C0F850,東勢,2026-02-22,24.246428,120.833047,7.136625e-05
466900,淡水,2026-02-22,25.164889,121.448906,0.97840244
C0I370,魚池,2026-02-22,23.895703,120.94135,1.1184778e-08
C0C630,大溪,2026-02-22,24.882853,121.265547,1.6534797e-05
C0A520,山佳,2026-02-22,24.974944,121.402008,2.879944e-07
C0I110,竹山,2026-02-22,23.761225,120.688156,0.008528546
82H840,茶改南部分場,2026-02-22,23.762528,120.7405,5.798087e-08
C2SD80,再來山,2026-02-22,23.34371,121.44122,0.2426682
C0G660,溪湖,2026-02-22,23.94835,120.479122,7.8544656e-07
C1T800,洛韶,2026-02-22,24.204558,121.453956,2.4381903e-08
C1T810,慈恩,2026-02-22,24.192044,121.388386,3.174394e-08
C1E451,象鼻,2026-02-22,24.368617,120.940228,1.1729308e-08
C0AC60,三峽,2026-02-22,24.939025,121.369728,0.0017233341
C0I490,萬大林道,2026-02-22,23.928228,121.091411,7.0694526e-09
C1I290,豐丘,2026-02-22,23.668178,120.887417,5.981051e-09
C1I320,奧萬大,2026-02-22,23.952956,121.178556,7.2662845e-09
C2M910,嘉義大學,2026-02-22,23.471325,120.485903,0.02447151
C0U770,南澳,2026-02-22,24.44935,121.81022,4.6489962e-08
C2TB30,吉安,2026-02-22,23.94538,121.54803,3.3600564e-08
C0A980,社子,2026-02-22,25.109508,121.469681,4.90511e-07
C0V800,六龜,2026-02-22,22.997889,120.633583,0.009618782
C1G9D0,國一S218K,2026-02-22,23.890641,120.493253,5.676844e-07
C0E570,白沙屯,2026-02-22,24.549447,120.696803,0.038505547
C2F9A0,中竹林,2026-02-22,24.103556,120.751061,1.831307e-06
C0FA40,臺中電廠,2026-02-22,24.2146,120.4907,0.008946808
C2G9A0,畜試所彰化,2026-02-22,23.86045,120.557964,8.505679e-07
C0H9C0,合歡山,2026-02-22,24.143442,121.272547,4.131001e-08
G2M350,農試溪口農場,2026-02-22,23.58565,120.408111,0.123934396
C0U860,頭城,2026-02-22,24.85323,121.8308,2.3024826e-08
C0R580,南州,2026-02-22,22.48591,120.50274,0.99954534
C0D430,峨眉,2026-02-22,24.6905,121.017189,1.9816087e-05
C0G780,秀水,2026-02-22,24.03405,120.503869,7.8544656e-07
72N100,臺南農改場,2026-02-22,23.0605,120.342194,0.99761796
C0S900,蘭嶼高中,2026-02-22,22.04909,121.51214,0.9100763
C2TA60,六十石,2026-02-22,23.22477,121.31861,3.0767872e-08
C1F9W0,德基,2026-02-22,24.254783,121.190261,1.5860888e-08
C2M980,安和,2026-02-22,23.51377,120.31593,0.19705904
C1Z120,壽豐,2026-02-22,23.870853,121.508081,3.736892e-08
C0W160,烏坵,2026-02-22,24.9944,119.44956,0.005415846
C1I240,外大坪,2026-02-22,23.958697,120.917931,7.5843145e-09
C1I550,國六W023K,2026-02-22,23.979067,120.867742,1.6508739e-05
C0R870,興海,2026-02-22,21.9752,120.8439,0.95472986
C0R140,瑪家,2026-02-22,22.682903,120.686639,4.071735e-09
C0A530,坪林,2026-02-22,24.938183,121.70975,7.8476845e-08
C0X260,後壁,2026-02-22,23.366358,120.362326,0.9843215
C0Z230,和平,2026-02-22,24.30717,121.77007,4.6489962e-08
C0G770,福興,2026-02-22,24.041289,120.437669,1.1836429e-06
C0H9A0,神木村,2026-02-22,23.532742,120.843667,6.3830283e-09
C0I460,南投,2026-02-22,23.911469,120.687331,0.75343275
C0I480,梅峰,2026-02-22,24.085272,121.173572,1.5935361e-08
C1V570,吉東,2026-02-22,22.85422,120.5454,0.99522334
C2A560,福山,2026-02-22,24.776203,121.502811,1.0663394e-08
C0AH30,五分山,2026-02-22,25.07125,121.780794,3.794813e-08
C0FA10,松柏,2026-02-22,24.429115,120.617482,0.038505547
72S200,東改班鳩分場,2026-02-22,22.829528,121.077694,6.976804e-05
72HA00,中改埔里分場,2026-02-22,23.903208,120.963364,1.263395e-08
C2H9W0,大坪頂農水,2026-02-22,24.043122,120.932781,7.5843145e-09
C0C650,平鎮,2026-02-22,24.897503,121.214636,1.01353835e-05
C0S930,延平,2026-02-22,22.902581,121.084058,1.9710474e-07
C0UA60,樟樹山,2026-02-22,24.41393,121.78325,1.6218602e-08
C2UC10,出水溪,2026-02-22,24.615822,121.652253,1.6218602e-08
C1S670,摩天,2026-02-22,23.199503,121.027,1.4031799e-08
C2C590,觀音,2026-02-22,25.027072,121.153317,0.0006335268
C0V630,茄萣,2026-02-22,22.906642,120.182608,0.9992766
466940,基隆,2026-02-22,25.133314,121.740475,2.2623276e-06
C0X050,東河,2026-02-22,23.296598,120.385608,0.052369546
C0R770,保力,2026-02-22,22.071122,120.764111,0.9963295
G2L020,農試嘉義分所,2026-02-22,23.485028,120.473806,0.01909916
C0X240,關子嶺,2026-02-22,23.331169,120.508025,8.39363e-09
C0I380,集集,2026-02-22,23.828206,120.801467,8.018987e-05
466990,花蓮,2026-02-22,23.975128,121.613275,3.0545823e-07
C1V220,小關山,2026-02-22,23.154217,120.813603,8.258378e-09
C1F9G1,慶福山,2026-02-22,24.180853,120.848378,1.487678e-08
C0FB20,雪山橋,2026-02-22,24.23192,120.9786,1.6709706e-08
C0Z250,瑞穗林道,2026-02-22,23.49284,121.30688,2.7066921e-08
C0D590,新豐,2026-02-22,24.87068,120.97721,2.4747435e-06
C0A870,五指山,2026-02-22,25.132153,121.608692,2.3762864e-06
C0UA50,西帽山,2026-02-22,24.555361,121.802628,1.7165481e-08
C2R980,竹田國中,2026-02-22,22.61532,120.52412,0.9994797
C0X160,仁德,2026-02-22,22.968258,120.257689,0.99914974
C1H971,六分寮,2026-02-22,23.92507,120.6378,8.042899e-07
C0W120,西嶼,2026-02-22,23.5626,119.468436,0.9984647
C0G650,員林,2026-02-22,23.946503,120.585597,3.9549744e-07
C0AD50,鶯歌,2026-02-22,24.951533,121.346294,0.0007731447
C2H9Q0,北東眼山,2026-02-22,24.120939,121.189303,1.4157721e-08
C2H9T0,名間竹圍,2026-02-22,23.859914,120.637572,1.1146923e-06
C0S990,山豬窟,2026-02-22,22.318619,120.857372,6.0514816e-07
C0X190,安平,2026-02-22,22.993161,120.152181,0.9992766
C0K400,斗六,2026-02-22,23.720583,120.541127,5.449484e-07
12J990,口湖工作站,2026-02-22,23.589978,120.180394,0.26874202
C0O830,北寮,2026-02-22,23.079561,120.495008,0.57831556
C1D410,白蘭,2026-02-22,24.579364,121.079947,1.3896815e-08
C0S970,加津林,2026-02-22,22.416211,120.926942,0.99283016
C0D700,關西,2026-02-22,24.7977,121.1732,1.7718685e-08
C0U750,龜山島,2026-02-22,24.841667,121.953133,1.5016987e-08
C0R810,內獅,2026-02-22,22.305064,120.642986,0.9995176
C1M390,龍美,2026-02-22,23.406728,120.654417,3.9045993e-09
C2K290,崙內,2026-02-22,23.69525,120.35601,3.7523517e-07
C2FB60,頭櫃山,2026-02-22,24.129842,120.858925,4.5477058e-09
C1H840,國三N238K,2026-02-22,23.841008,120.707711,8.018987e-05
CAQ030,崎峰國小,2026-02-22,22.42565,120.49521,0.99954534
C2E520,大湖,2026-02-22,24.414939,120.870872,4.7525134e-08
467530,阿里山,2026-02-22,23.508208,120.813242,2.0293543e-08
C1E691,南湖,2026-02-22,24.40135,120.837533,9.632949e-09
C0FA30,梧棲,2026-02-22,24.256003,120.523381,0.0062916223
C1V231,高中,2026-02-22,23.134911,120.716711,3.0057123e-09
C0AK30,硬漢嶺,2026-02-22,25.136097,121.426372,7.567673e-06
C0F9V0,新社,2026-02-22,24.200172,120.815806,1.5926435e-07
C0H890,埔里,2026-02-22,23.972169,120.952425,5.0456345e-07
C0R690,墾丁,2026-02-22,21.966756,120.810269,0.9999829
C0SD20,富山,2026-02-22,22.822383,121.190825,1.1465334e-05
C0F0D0,審馬陣,2026-02-22,24.381675,121.4203,4.6853426e-08
C2W030,金門農試所,2026-02-22,24.448431,118.451786,1.913495e-06
C0R820,白鷺,2026-02-22,22.454275,120.666219,5.2849913e-08
C0FB00,大雪山,2026-02-22,24.254668,121.007374,1.9614069e-08
C1V190,南天池,2026-02-22,23.27403,120.91176,2.5926544e-08
C0E940,雪見,2026-02-22,24.42595,121.01347,1.5325853e-08
K2E360,苗栗農改場,2026-02-22,24.495722,120.829111,2.3095627e-05
CAJ050,海口故事園區,2026-02-22,23.57543,120.14121,0.4971136
C2K280,四湖,2026-02-22,23.6304,120.22717,4.28765e-07
C2H9D0,三隻寮,2026-02-22,24.093078,120.861578,9.312582e-09
C0O990,媽廟,2026-02-22,22.99175,120.293525,0.9984836
C0D480,打鐵坑,2026-02-22,24.849664,121.150789,9.757585e-09
C0Z220,和平林道,2026-02-22,24.343922,121.656317,1.6118651e-08
C0TA10,花蓮漁港,2026-02-22,23.995322,121.638331,0.0013617299
72C440,桃園農改場,2026-02-22,24.950944,121.030583,0.00021391691
C1E711,馬拉邦山,2026-02-22,24.367306,120.901656,1.10820855e-08
C0SB20,富岡,2026-02-22,22.792467,121.192669,0.8929413
C0D560,竹東,2026-02-22,24.767147,121.057881,2.4747435e-06
C0F9U0,南屯,2026-02-22,24.137006,120.637969,0.986808
C2SD60,明峰,2026-02-22,22.8671,121.11825,1.1931692e-07
C0M720,番路,2026-02-22,23.464657,120.554156,7.217516e-05
C0F0A0,雪山圈谷,2026-02-22,24.388594,121.236339,4.8781132e-08
C1A9N0,四十份,2026-02-22,24.934158,121.593283,3.446653e-08
C0U760,東澳,2026-02-22,24.52196,121.83318,4.2310706e-08
C0X230,鹽水,2026-02-22,23.272621,120.247641,0.9933761
C2H9H0,苗改南投蜂場,2026-02-22,23.852589,120.693481,0.008528546
C2TB70,達谷寮,2026-02-22,23.38,121.35968,1.9395104e-07
C0R950,萬隆國小,2026-02-22,22.507667,120.587817,0.99931246
467540,大武,2026-02-22,22.35572,120.90374,0.99992687
C0V370,古亭坑,2026-02-22,22.893178,120.401947,0.89606297
C1I340,新興橋,2026-02-22,23.563333,120.868728,3.5062742e-09
C0SA80,土坂,2026-02-22,22.453108,120.887572,0.41239896
C0R160,鹽埔,2026-02-22,22.739558,120.530778,0.99680156
C0AC40,大屯山,2026-02-22,25.175675,121.522408,3.0251456e-07
466850,五分山雷達站,2026-02-22,25.071182,121.781205,3.802696e-08
C2H9L0,馬烈霸,2026-02-22,24.1512,121.201772,1.6244979e-08
C1AI50,國三N016K,2026-02-22,25.034164,121.619664,2.3258237e-07
C2V920,匏子寮,2026-02-22,23.04905,120.55319,0.042234644
C1V600,藤枝,2026-02-22,23.071961,120.757042,6.545187e-09
C1E601,南勢,2026-02-22,24.572486,120.734842,1.5341242e-05
C0O980,新市,2026-02-22,23.061614,120.298197,0.99914974
C0K420,西螺,2026-02-22,23.800407,120.467394,1.5221841e-06
C0Z050,佳心,2026-02-22,23.34567,121.21316,3.1844003e-08
C0AD30,蘆洲,2026-02-22,25.086594,121.472331,4.1365877e-07
C0V610,梓官,2026-02-22,22.760558,120.267211,0.9970283
K2F750,種苗改良場,2026-02-22,24.225972,120.800917,8.0027155e-07
C0UA80,大溪漁港,2026-02-22,24.941801,121.902955,1.4110269e-06
C1AI60,國一39K邊坡,2026-02-22,25.064361,121.383836,6.643914e-08
C0W150,金寧,2026-02-22,24.457703,118.328989,1.3496134e-07
C0R960,內埔,2026-02-22,22.608483,120.570714,0.9994797
C2H9S0,龍南,2026-02-22,23.953536,120.833183,4.5069655e-09
C0AH40,平等,2026-02-22,25.129142,121.577086,0.00024378518
C0R540,佳冬,2026-02-22,22.419456,120.552375,0.99954534
466950,彭佳嶼,2026-02-22,25.627975,122.079744,0.9999883
C0A890,雙溪,2026-02-22,25.036003,121.864242,6.9294737e-07
C0C480,桃園,2026-02-22,24.992425,121.323172,0.00024316237
C0AH50,林口,2026-02-22,25.072181,121.38084,5.2816052e-08
A2K360,水試臺西試驗場,2026-02-22,23.717231,120.190522,5.4594096e-07
C2M960,外寮,2026-02-22,23.562643,120.665688,3.755883e-09
C0F9S0,烏日,2026-02-22,24.107058,120.624103,3.9549744e-07
C2N180,鹿陶洋,2026-02-22,23.14325,120.48352,0.0071387766
C0C490,八德,2026-02-22,24.928708,121.283289,5.8559093e-05
C0R190,赤山,2026-02-22,22.592333,120.614306,0.9994332
C0T820,天祥,2026-02-22,24.179597,121.495639,4.853667e-08
C1F9E1,龍安,2026-02-22,24.1605,120.831961,8.4286874e-08
C2SD50,順那,2026-02-22,23.04166,121.29332,6.481052e-07
C0V820,小林,2026-02-22,23.148408,120.63325,4.9163047e-09
C2G870,芳苑,2026-02-22,23.922303,120.320025,5.150772e-07
C0E850,大河,2026-02-22,24.618069,120.948578,2.7029346e-05
C1U670,寒溪,2026-02-22,24.634,121.71691,1.9136955e-08
C0N020,城西,2026-02-22,23.0568,120.0956,0.9992766
C1Z110,三棧,2026-02-22,24.11557,121.60501,3.835051e-08
C0R280,檳榔,2026-02-22,22.076078,120.836777,0.9999802
C2H9J0,中台,2026-02-22,23.9996,120.938739,4.759743e-08
C0F9L0,后里,2026-02-22,24.310436,120.729725,0.036564495
467441,高雄,2026-02-22,22.730432,120.312516,0.9956629
C0Z180,新城,2026-02-22,24.040486,121.604878,2.8329322e-07
C0D540,橫山,2026-02-22,24.71116,121.11693,8.698781e-08
C1D420,太閣南,2026-02-22,24.632808,121.160575,1.10497504e-08
C1E770,公館,2026-02-22,24.526914,120.830806,0.000113714166
CAN130,水試所海水繁養殖中心,2026-02-22,23.120802,120.07968,0.9992766
C1I430,翠華,2026-02-22,24.191961,121.224339,2.2131443e-08
C1M400,菜瓜坪,2026-02-22,23.251928,120.576103,5.761034e-09
C0G730,二林,2026-02-22,23.903325,120.376081,7.8544656e-07
72M360,南改義竹分場,2026-02-22,23.360694,120.279361,0.989621
V2K620,麥寮合作社,2026-02-22,23.753836,120.294783,4.28765e-07
C0Z070,舞鶴,2026-02-22,23.46811,121.37407,2.4175877e-08
C0B040,大武崙,2026-02-22,25.166676,121.706993,9.614566e-07
C1Z030,紅葉,2026-02-22,23.493119,121.338806,2.550313e-08
C1I050,丹大,2026-02-22,23.753747,121.141147,2.5841233e-08
C0I080,信義,2026-02-22,23.689694,120.851036,9.794654e-09
C2TB80,庄子底,2026-02-22,23.71794,121.49438,3.2426268e-08
C0D750,樂山林道6k,2026-02-22,24.49999,121.08773,2.201541e-08
C2M920,朴子農改,2026-02-22,23.469889,120.259383,0.26874202
C2A880,福隆,2026-02-22,25.017842,121.942083,1.4110269e-06
C0Z160,鳳林,2026-02-22,23.746114,121.453411,3.11096e-08
C0UB80,翠峰林道6K,2026-02-22,24.49773,121.568625,2.539014e-08
C0V210,復興,2026-02-22,23.222403,120.806089,2.976968e-09
C0H990,昆陽,2026-02-22,24.121322,121.273642,3.180315e-08
C0R741,獅子,2026-02-22,22.202308,120.705236,0.99991304
C0S710,鹿野,2026-02-22,22.917711,121.122994,7.154562e-08
C0I530,小奇萊,2026-02-22,24.131764,121.295717,3.5867764e-08
C0FA70,大雪山埡口,2026-02-22,24.26867,121.03062,2.5068598e-08
C2K630,荷苞,2026-02-22,23.657717,120.595144,1.6271958e-08
C0Z080,富源,2026-02-22,23.587642,121.378225,2.1955152e-08
C2M9E0,旺來山,2026-02-22,23.555153,120.486463,0.0028483272
C0SB10,美和,2026-02-22,22.682078,121.060236,0.84857434
C2K620,馬光農場,2026-02-22,23.721453,120.378864,6.3557004e-06
C1I140,卡奈托灣,2026-02-22,23.754364,121.087872,9.601399e-09
C0I520,玉山風口,2026-02-22,23.470489,120.955994,4.9904617e-08
C1G691,下水埔,2026-02-22,23.816114,120.5676,3.5739592e-07
C0X110,臺南市南區,2026-02-22,22.961189,120.188378,0.99914974
C0V680,仁武,2026-02-22,22.701083,120.347722,0.99332535
C2G840,北斗,2026-02-22,23.877586,120.514222,3.9549744e-07
C2TB90,長橋,2026-02-22,23.6874,121.46186,3.0883992e-08
C0R900,竹坑,2026-02-22,22.1385,120.7022,0.9999271
C0G860,社頭,2026-02-22,23.897647,120.5862,2.9716182e-07
C0X150,安定,2026-02-22,23.102614,120.227839,0.9992766
C0R590,里港,2026-02-22,22.77919,120.49459,0.99680156
C0E610,馬都安,2026-02-22,24.451272,120.930192,1.2382334e-08
C0E550,明德,2026-02-22,24.583486,120.885411,0.00017074411
C0R150,三地門,2026-02-22,22.709889,120.639944,0.9879127
C0G910,花壇,2026-02-22,24.032076,120.549461,5.676844e-07
C1D400,鳥嘴山,2026-02-22,24.71909,121.28387,7.647693e-09
C0K500,元長,2026-02-22,23.64981,120.315024,4.28765e-07
C0F0B0,石岡,2026-02-22,24.276061,120.777644,0.0034180344
C2V250,甲仙,2026-02-22,23.080106,120.591758,0.0042617545
C0SA20,金崙山,2026-02-22,22.567419,120.959667,6.99152e-08
C0V350,溪埔,2026-02-22,22.738578,120.446797,0.99731785
C0M660,溪口,2026-02-22,23.604131,120.403569,0.123934396
C1S880,壽卡,2026-02-22,22.238911,120.858903,1.2773351e-07
72D680,桃改新埔分場,2026-02-22,24.834444,121.066111,3.9570266e-05
