站號,站名,日期,lat,lon,BLBTSLS
C0R710,龍磐,2026-04-16,21.931672,120.838942,9.193242e-05
C1F9D1,白毛台,2026-04-16,24.158325,120.886933,2.100297e-07
C0G940,竹塘,2026-04-16,23.848253,120.386764,8.003212e-06
467590,恆春,2026-04-16,22.003897,120.746339,0.0008783119
C0U710,太平山,2026-04-16,24.505486,121.525656,3.1412e-09
C0E820,獅潭,2026-04-16,24.539133,120.920042,1.7812411e-08
C2SD70,二層坪,2026-04-16,22.94105,121.16838,0.0029429246
C0V880,興達,2026-04-16,22.8778,120.2127,0.00024350599
C0SB30,新蘭,2026-04-16,22.869214,121.223228,0.012874755
C2R970,屏科大,2026-04-16,22.648275,120.619247,0.0056739016
C1Z130,銅門,2026-04-16,23.965694,121.492842,2.1242078e-05
C0AD40,土城,2026-04-16,24.973208,121.445169,3.1034453e-08
CAN140,六官養殖協會,2026-04-16,23.22881,120.29962,0.00046073983
C0X180,山上,2026-04-16,23.0757,120.363253,7.866754e-06
C0F9Z0,雪山東峰,2026-04-16,24.388792,121.268675,1.1275018e-08
C1M480,獨立山,2026-04-16,23.537022,120.607797,1.0454507e-09
C0X220,學甲,2026-04-16,23.230367,120.182187,6.241455e-06
467650,日月潭,2026-04-16,23.881325,120.90805,2.6673819e-09
A2K570,古坑(花卉中心),2026-04-16,23.633531,120.552392,0.0026376771
C0K600,箔子寮,2026-04-16,23.6197,120.14,1.3272725e-07
C0G830,埤頭,2026-04-16,23.866003,120.452806,7.2693547e-06
C0S950,七塊厝,2026-04-16,22.954453,121.229922,1.1196048e-06
467110,金門,2026-04-16,24.407306,118.289281,3.063208e-08
C0AH80,深坑,2026-04-16,25.002703,121.628328,0.00041262616
C0A970,三貂角,2026-04-16,25.007606,122.002058,0.00015967697
C2D730,寶山農場,2026-04-16,24.732444,120.976153,2.7207502e-08
C0K430,褒忠,2026-04-16,23.690938,120.303634,3.4469858e-07
467480,嘉義,2026-04-16,23.495925,120.432906,3.851806e-05
C0V400,阿公店,2026-04-16,22.804194,120.355528,0.00052582764
C2S800,華源,2026-04-16,22.65783,121.0232,0.0453657
C2SA40,瑞和,2026-04-16,22.974361,121.156697,0.0045661596
C0E960,觀霧分站,2026-04-16,24.505781,121.113921,4.3659933e-09
467550,玉山,2026-04-16,23.48718,120.95943,2.5139656e-08
C0R440,大漢山,2026-04-16,22.405264,120.753181,1.3118319e-09
C0SD30,東清國小,2026-04-16,22.057128,121.564922,2.6121866e-08
C1F9B1,桐林,2026-04-16,24.066172,120.735194,0.0005296231
C2I210,蘆竹湳,2026-04-16,23.93398,120.81209,4.4264088e-08
C2H9U0,鳳鵬,2026-04-16,23.763919,120.788061,0.015222702
C0K390,土庫,2026-04-16,23.679029,120.395574,4.1779298e-05
C1I450,望鄉山,2026-04-16,23.594153,120.944286,8.039854e-09
C0E910,海埔,2026-04-16,24.648767,120.772435,7.7891826e-08
B2E890,畜試北區分所,2026-04-16,24.527806,120.770972,1.0323885e-05
C0R750,四林格山,2026-04-16,22.076989,120.802439,8.510652e-09
C0F0C0,中坑,2026-04-16,24.248517,120.903319,9.588506e-07
C1I121,大鞍,2026-04-16,23.678381,120.760017,3.578513e-09
C2G9E0,移民庄,2026-04-16,23.9784,120.40283,1.6804764e-06
72U480,花改蘭陽分場,2026-04-16,24.686306,121.716583,3.13957e-07
C0A770,科教館,2026-04-16,25.096356,121.516507,3.3477676e-08
C0AJ60,六塊厝,2026-04-16,25.24,121.4481,6.8467057e-07
C0R620,墾雷,2026-04-16,21.900836,120.855269,0.0005075262
467420,永康,2026-04-16,23.038386,120.2367,0.00015748868
C2M530,奮起湖,2026-04-16,23.493903,120.699253,2.906759e-09
C0I410,名間,2026-04-16,23.837053,120.701447,0.08441276
A2C560,農工中心,2026-04-16,24.985917,121.239833,1.3266278e-08
C0V740,旗山,2026-04-16,22.888614,120.483597,0.005954463
C0Z061,玉里,2026-04-16,23.3215,121.339656,2.9420478e-05
C0S840,南田,2026-04-16,22.279725,120.889208,0.99896365
C1I470,杉林溪,2026-04-16,23.639517,120.786444,2.3773243e-09
C1X040,東原,2026-04-16,23.291597,120.463822,0.0035509784
C0R660,枋寮,2026-04-16,22.367722,120.590647,0.1239568
C1R120,上德文,2026-04-16,22.763272,120.704442,0.99958223
C0K450,大埤,2026-04-16,23.646074,120.431537,0.00017650785
C0UA00,土場,2026-04-16,24.576533,121.495333,1.1126567e-07
467080,宜蘭,2026-04-16,24.763975,121.756528,1.7165355e-06
C0N030,四草,2026-04-16,23.0235,120.1116,5.5077824e-05
467410,臺南,2026-04-16,22.99328,120.20492,2.4715458e-05
C0V650,彌陀,2026-04-16,22.783806,120.246361,0.004870867
C0D660,新竹市東區,2026-04-16,24.798681,120.986942,8.341091e-09
82S580,茶改東部分場,2026-04-16,22.907694,121.130139,0.004864944
C0SB40,興隆,2026-04-16,22.913661,121.257469,0.0153655065
467050,新屋,2026-04-16,25.006725,121.047492,2.051029e-08
C0C710,大溪永福,2026-04-16,24.892936,121.324975,1.3284889e-08
C0FA20,溫寮,2026-04-16,24.372177,120.583125,4.2831545e-07
C0V640,湖內,2026-04-16,22.887139,120.2445,0.00023575047
C0R910,下寮,2026-04-16,22.3929,120.5548,0.031981625
C0Z020,明里,2026-04-16,23.208717,121.262342,1.3713503e-05
C0M770,嘉義梅山,2026-04-16,23.585398,120.555587,4.856358e-07
C0C660,楊梅,2026-04-16,24.912375,121.143047,5.599463e-09
C0SD40,牛頭山,2026-04-16,22.676661,121.506944,2.5491163e-05
C1E511,新開,2026-04-16,24.347703,120.827019,7.909612e-08
G2F820,農試所(霧峰),2026-04-16,24.031261,120.688133,0.57328457
C2M990,大巃頂,2026-04-16,23.5547,120.61439,1.1882672e-09
C1I070,和社,2026-04-16,23.591131,120.888861,3.154113e-07
C2E990,新坪頂,2026-04-16,24.30201,120.8574,2.7213781e-08
C0TA80,立霧山,2026-04-16,24.183258,121.641899,1.8266522e-09
C2F000,大肚,2026-04-16,24.15295,120.572117,5.666801e-06
C1S850,豐南,2026-04-16,23.122139,121.262389,2.0303512e-06
C2M9B0,西興,2026-04-16,23.2428,120.57617,2.0131878e-07
C2A920,富貴角,2026-04-16,25.263783,121.565258,6.7247825e-08
C0T960,光復,2026-04-16,23.660694,121.424964,4.2240245e-05
C0F9M0,豐原,2026-04-16,24.254322,120.720692,9.922718e-07
C0R720,旭海,2026-04-16,22.205403,120.887614,0.7883888
C0V710,苓雅,2026-04-16,22.622742,120.330669,0.0003515668
C0C740,觀音工業區,2026-04-16,25.064764,121.114856,2.4296114e-08
CAC040,拉拉山,2026-04-16,24.699317,121.427133,3.824129e-09
C0V790,萬山,2026-04-16,22.905944,120.688056,0.06749257
U2HA30,臺大和社,2026-04-16,23.590856,120.888864,3.154113e-07
C2H9K0,屯原,2026-04-16,24.067969,121.209389,2.706061e-09
C0AJ90,澳底,2026-04-16,25.0552,121.9253,1.2497707e-06
C0Z100,東華,2026-04-16,23.89525,121.549833,0.00035981933
C0G970,三豐,2026-04-16,23.882,120.2895,1.0176812e-07
C0V900,汕尾,2026-04-16,22.4782,120.4151,0.013671847
C1R630,龍泉,2026-04-16,22.66701,120.59091,0.07988319
C1AC50,關渡,2026-04-16,25.133486,121.469331,1.1421187e-07
C0C800,四稜,2026-04-16,24.64733,121.4293,2.837237e-09
C0F9I0,神岡,2026-04-16,24.272481,120.658314,8.738898e-07
C0K460,斗南,2026-04-16,23.678734,120.478359,0.00014870173
C2O810,曾文,2026-04-16,23.219681,120.497328,0.03386158
467280,後龍,2026-04-16,24.648563,120.831834,5.3024287e-08
C1F9J1,清水林,2026-04-16,24.071242,120.820419,4.572259e-09
C2A650,火燒寮,2026-04-16,25.002719,121.742892,2.8933586e-05
466930,竹子湖,2026-04-16,25.162078,121.544547,4.307135e-09
C1I220,樟湖,2026-04-16,23.905333,120.846983,1.1524156e-09
C0I390,仁愛,2026-04-16,24.022122,121.132206,2.242163e-09
C0Z300,東里,2026-04-16,23.26853,121.30547,1.7904034e-05
C1V590,新發,2026-04-16,23.057019,120.646064,7.239222e-07
C0K510,水林,2026-04-16,23.572924,120.24597,6.3503165e-07
72S590,東改賓朗果園,2026-04-16,22.813889,121.071278,5.683996e-05
82A750,茶改北部分場,2026-04-16,24.955778,121.631222,7.2990343e-07
C1A750,石碇服務區,2026-04-16,25.00872,121.646242,0.0004724298
C0X300,鹿寮,2026-04-16,23.386047,120.477331,1.219213e-05
C0K590,雲林東勢,2026-04-16,23.674192,120.255721,2.885145e-07
C2K310,港尾布雞,2026-04-16,23.74834,120.38439,0.08698111
C0A570,桶後,2026-04-16,24.848222,121.597992,3.2856702e-09
C0G720,溪州,2026-04-16,23.851589,120.499093,6.3178636e-06
C1V160,達卡努瓦,2026-04-16,23.279811,120.705319,3.2602874e-09
C2M410,馬頭山,2026-04-16,23.324361,120.582017,0.00014287612
C0V850,蚵仔寮,2026-04-16,22.7256,120.2527,0.005117918
C0S740,池上,2026-04-16,23.119628,121.209469,5.0932216e-05
C1V390,尖山,2026-04-16,22.813153,120.367789,0.0013834673
C0AH70,松山,2026-04-16,25.04871,121.55042,2.7311488e-08
C0N010,鯤鯓國小,2026-04-16,23.1879,120.0889,1.5393078e-05
C0SA60,知本（水試所）,2026-04-16,22.702394,121.082761,0.11889436
C0T9I0,豐濱,2026-04-16,23.583897,121.514806,0.036546413
C0UB00,淡江大學蘭陽校園,2026-04-16,24.823239,121.730383,1.0348966e-08
C0W240,九宮,2026-04-16,24.423753,118.240186,2.7024363e-08
C0T9N0,富里,2026-04-16,23.171639,121.249378,5.8147543e-06
U2HA50,臺大竹山,2026-04-16,23.756972,120.681556,0.98785216
C0V840,鳳鼻頭,2026-04-16,22.5083,120.3591,0.008470561
C0X140,西港,2026-04-16,23.125608,120.203108,1.480926e-05
72D080,桃改五峰分場,2026-04-16,24.612194,121.157167,4.039902e-09
C2H9P0,伊拿谷,2026-04-16,23.963211,121.088264,9.4686206e-09
C2K250,崙背,2026-04-16,23.75553,120.31893,2.3264315e-07
C2H9F0,柑林,2026-04-16,24.018658,120.847072,0.0041087824
C0TA20,加灣,2026-04-16,24.082025,121.608944,0.00027322627
C0V530,阿蓮,2026-04-16,22.883208,120.327508,0.00019782984
C0FB30,八仙山苗圃,2026-04-16,24.192719,121.001366,1.840736e-06
C0E791,卓蘭,2026-04-16,24.3126,120.8244,6.1199835e-08
C2R260,春日,2026-04-16,22.370361,120.628306,0.72532034
C1I030,武界,2026-04-16,23.913225,121.052483,6.4708834e-09
C0R520,崁頂,2026-04-16,22.514781,120.506914,0.52044696
C0R341,牡丹,2026-04-16,22.130036,120.792639,0.6836185
C0R930,萬丹,2026-04-16,22.5885,120.4851,0.51403266
C0S760,紅石,2026-04-16,23.069131,121.126219,2.4348803e-09
C2C410,中央大學,2026-04-16,24.967652,121.185165,1.138712e-08
C1M610,石磐龍,2026-04-16,23.496606,120.663506,1.3879835e-08
C2C830,中德,2026-04-16,24.981862,121.291344,2.2579227e-08
C0C790,東眼山,2026-04-16,24.8284,121.40888,9.929144e-09
C0UA10,鴛鴦湖,2026-04-16,24.590269,121.412228,2.684613e-09
C0R800,丹路,2026-04-16,22.204481,120.750989,0.99309665
C2R240,萬巒,2026-04-16,22.527306,120.625111,0.0022072636
C0G920,永靖,2026-04-16,23.924703,120.547533,1.4034335e-07
C2M950,太和,2026-04-16,23.538372,120.702961,2.9689842e-09
C1A630,下盆,2026-04-16,24.771003,121.538622,2.408134e-09
B2N890,畜產試驗所,2026-04-16,23.058972,120.336406,0.0010223731
C0UA30,白嶺,2026-04-16,24.527819,121.519031,2.3365376e-09
467571,新竹,2026-04-16,24.828575,121.01455,8.706313e-09
C1V580,溪南(特生中心),2026-04-16,23.084972,120.788475,1.9854007e-09
C1T970,大農,2026-04-16,23.615233,121.413331,0.971923
C0R650,竹田,2026-04-16,22.58486,120.54344,0.46904266
C1H900,清流,2026-04-16,24.080775,120.962997,1.0368744e-08
C1C510,水尾,2026-04-16,24.940081,121.087161,1.01365725e-08
C2N170,茅港尾,2026-04-16,23.2061,120.2624,0.00046073983
C0F9X0,大雅(中科園區),2026-04-16,24.21528,120.62445,2.0329803e-06
C0SB60,白守蓮,2026-04-16,23.126769,121.401914,0.012457254
C0O970,虎頭埤,2026-04-16,23.021375,120.347878,1.7352746e-05
C0C730,中大臨海站,2026-04-16,24.966126,121.008581,1.3607974e-08
C0X250,新營,2026-04-16,23.310689,120.316681,7.88184e-06
C0V700,三民,2026-04-16,22.645017,120.311233,0.0027150358
C0U870,大礁溪,2026-04-16,24.791042,121.675047,8.967565e-09
C0E870,高鐵苗栗,2026-04-16,24.60725,120.826094,5.4251704e-08
C2S890,關山,2026-04-16,23.0395,121.175017,0.0010515788
C0TA30,鹽寮,2026-04-16,23.845606,121.592664,0.00066907756
C0M860,新美,2026-04-16,23.338017,120.683169,3.3518796e-07
C1E701,八卦,2026-04-16,24.491756,120.927619,3.683893e-08
C2TA90,加納納,2026-04-16,23.466421,121.359867,0.9968653
C0I420,國姓,2026-04-16,24.037803,120.855072,2.9961986e-05
C2D720,關西工作站,2026-04-16,24.757275,121.184792,7.7579156e-05
C2AK30,信賢,2026-04-16,24.84108,121.53492,1.4063115e-06
C0S960,香蘭,2026-04-16,22.587569,120.993375,7.634725e-08
467620,蘭嶼,2026-04-16,22.0369,121.55843,3.8641623e-09
C2UC40,中城,2026-04-16,24.62865,121.74745,3.1708728e-07
72G600,臺中農改場,2026-04-16,24.003028,120.534389,1.7258162e-06
C0Z210,瑞穗,2026-04-16,23.5239,121.39021,0.16569851
C0M820,達邦,2026-04-16,23.453994,120.749517,1.65673e-07
C0V860,南寮,2026-04-16,22.7616,120.2339,0.005117918
C0G740,大城,2026-04-16,23.852487,120.320935,9.107154e-08
C0R920,塭仔,2026-04-16,22.4169,120.5197,0.039552607
C0R470,高樹,2026-04-16,22.826389,120.600806,0.0016166238
C0R680,佳樂水,2026-04-16,21.993578,120.861633,0.0006149245
C1O870,大棟山,2026-04-16,23.31157,120.52226,2.3307114e-09
C0D360,梅花,2026-04-16,24.678347,121.208558,5.1839346e-09
C0Z190,富世,2026-04-16,24.14743,121.6297,0.0050318693
C0AI10,屈尺,2026-04-16,24.92184,121.54475,1.9343673e-08
B2U990,畜試東區分所,2026-04-16,24.669039,121.832561,9.546908e-07
C0SB80,長濱漁港,2026-04-16,23.313644,121.459994,0.99058557
C0TA50,和仁,2026-04-16,24.241394,121.712472,0.0044430573
C2AK40,漁光,2026-04-16,24.96875,121.72132,1.1751814e-08
C0V910,大樹,2026-04-16,22.684645,120.432803,0.0061397273
C1R610,西大武山,2026-04-16,22.617719,120.7322,1.9080126e-09
C0G900,線西,2026-04-16,24.143358,120.443536,1.0644302e-06
C0M700,竹崎,2026-04-16,23.526178,120.555508,1.1201099e-06
C2E880,三義,2026-04-16,24.405478,120.749819,5.3924025e-09
C0C720,竹圍,2026-04-16,25.112692,121.239824,2.8197158e-08
C0F9P0,清水,2026-04-16,24.312297,120.562242,0.0004388087
C0Z150,吉安光華,2026-04-16,23.930925,121.595153,0.0011106796
C0FA80,小雪山天池,2026-04-16,24.28025,121.02627,8.976652e-09
467300,東吉島,2026-04-16,23.25727,119.66762,6.408921e-05
C1D640,外坪(五指山),2026-04-16,24.644447,121.090961,1.0740957e-09
C2R9A0,高士國小,2026-04-16,22.12553,120.84653,0.006511595
C0F9O0,潭子,2026-04-16,24.213106,120.703933,2.718699e-06
C2H9R0,卓社,2026-04-16,23.887894,121.000086,2.7048845e-09
72T250,花蓮農改場,2026-04-16,23.975222,121.563889,0.2882577
C0E780,銅鑼,2026-04-16,24.489681,120.790853,2.7735233e-08
C1T950,太安,2026-04-16,23.666719,121.370128,1.0106074e-07
C0E830,苑裡,2026-04-16,24.439714,120.653053,2.4958896e-07
467270,田中,2026-04-16,23.873803,120.581286,9.324213e-06
C0SA10,檳榔四格山,2026-04-16,22.810031,121.109308,2.1495894e-07
C1T830,布洛灣,2026-04-16,24.17184,121.57127,5.802042e-07
C0F970,大坑,2026-04-16,24.173142,120.722289,2.5883542e-06
C1U920,思源,2026-04-16,24.393125,121.347214,2.5629026e-09
C2H9Y0,松茗,2026-04-16,23.8167,120.650765,0.0016348439
C0A931,三和,2026-04-16,25.233153,121.595236,8.3947384e-08
C0I010,廬山,2026-04-16,24.033311,121.181808,2.4489881e-09
C2M940,日野賀,2026-04-16,23.434056,120.727169,1.1909724e-08
C0R860,鼻頭,2026-04-16,22.1043,120.8979,0.0039093513
C2I260,北坑,2026-04-16,23.92463,121.00683,2.7748072e-06
C0UB20,壯圍,2026-04-16,24.7359,121.8163,2.5923512e-06
C0R790,九棚,2026-04-16,22.14195,120.889281,3.638324e-05
C0W110,東莒,2026-04-16,25.9652,119.98069,4.4371188e-08
C1U930,粉鳥林,2026-04-16,24.497088,121.842479,0.56319296
C0S830,長濱,2026-04-16,23.286817,121.411975,0.00041472178
C1F9F1,伯公龍,2026-04-16,24.272392,120.849047,7.586039e-08
C0UB90,太平山莊,2026-04-16,24.494171,121.536209,3.2198832e-09
C0E810,西湖,2026-04-16,24.562947,120.7485,4.9702663e-08
C1I440,新高口,2026-04-16,23.478744,120.878939,5.147538e-09
C0O840,王爺宮,2026-04-16,23.222064,120.40085,0.0008553435
C0T9G0,鳳林山,2026-04-16,23.735269,121.420131,2.0887152e-08
C0X080,佳里,2026-04-16,23.173039,120.145086,1.3714052e-05
C0FB70,大甲溪埔,2026-04-16,24.370625,120.620067,3.0871598e-07
C0Z310,清水斷崖,2026-04-16,24.218294,121.689142,0.00058399915
C0M680,太保,2026-04-16,23.455062,120.331455,3.8597852e-07
C1S820,金峰,2026-04-16,22.590969,120.933236,0.009078588
C0AD10,八里,2026-04-16,25.150211,121.403947,3.224172e-07
C2K240,草嶺,2026-04-16,23.59555,120.693461,1.0960331e-08
C1SA70,都蘭,2026-04-16,22.87794,121.226881,0.16283333
C0K440,二崙,2026-04-16,23.772797,120.408944,3.2068147e-05
C1A760,坪林交控,2026-04-16,24.94284,121.713442,1.9710134e-07
C0F9N0,大里,2026-04-16,24.092464,120.701378,0.0012448545
C0SA90,達仁林場,2026-04-16,22.264347,120.823972,4.9529e-06
C1R290,石門山,2026-04-16,22.112611,120.756597,2.3990118e-08
42HA10,萬大發電廠,2026-04-16,23.978875,121.139639,3.0860834e-09
C0R890,山海,2026-04-16,21.9878,120.7091,0.0011325394
C0T9A0,月眉山,2026-04-16,23.809928,121.539828,3.9638515e-08
C0AC70,信義,2026-04-16,25.037822,121.564597,3.0111252e-08
C0K560,棋山,2026-04-16,23.68645,120.603417,2.0270563e-06
C2FB50,出雲,2026-04-16,24.206469,120.902794,3.438505e-07
C1Z240,中平林道,2026-04-16,23.42115,121.26763,8.096932e-09
U2H480,溪頭,2026-04-16,23.670306,120.798194,3.5411016e-09
C0M880,好美里,2026-04-16,23.3364,120.138,6.561654e-06
C0T9E0,大坑,2026-04-16,23.880628,121.581981,3.7018683e-08
C0K530,臺西,2026-04-16,23.701547,120.197559,1.8548549e-07
C1E900,國一N128K,2026-04-16,24.560997,120.844186,5.5155464e-08
C0AJ50,水湳洞,2026-04-16,25.123695,121.862238,1.1571592e-06
C0AI20,白沙灣,2026-04-16,25.283128,121.519058,3.983725e-07
C2V310,美濃,2026-04-16,22.898792,120.51907,0.11862013
C0A860,大坪,2026-04-16,25.165914,121.632969,3.442033e-05
C1U850,觀音海岸,2026-04-16,24.38319,121.77856,1.5066085e-05
C2K610,草嶺石壁,2026-04-16,23.602469,120.707731,7.82553e-09
C0U950,鶯子嶺,2026-04-16,24.89754,121.79244,5.100373e-09
C0O900,善化,2026-04-16,23.112883,120.297219,0.00011410052
C0K550,蔦松,2026-04-16,23.514319,120.229736,4.938158e-07
E2P980,林試六龜中心,2026-04-16,22.991703,120.645722,0.00035428163
C0E590,通霄,2026-04-16,24.471892,120.704622,6.082222e-08
C1I310,西巒,2026-04-16,23.754486,120.883956,2.7269637e-08
C0A550,泰平,2026-04-16,24.971197,121.823711,1.639467e-08
C2UC30,金洋,2026-04-16,24.42465,121.74573,0.34869686
C0I360,水里,2026-04-16,23.812553,120.849792,1.0036725e-05
C0R830,高士,2026-04-16,22.121825,120.836781,1.2353689e-07
C1I101,溪頭,2026-04-16,23.661789,120.807647,2.522158e-09
C0AJ20,野柳,2026-04-16,25.20703,121.690021,3.60455e-07
C0B060,暖暖,2026-04-16,25.0957,121.7403,0.00037118635
C1H920,長豐,2026-04-16,24.102039,120.879897,1.696604e-07
C2S9B0,利吉,2026-04-16,22.86246,121.15486,0.010767494
C0V360,內門,2026-04-16,22.975481,120.466769,0.0017973841
C0R850,林邊,2026-04-16,22.4634,120.5339,0.047974013
C0E930,龍鳳,2026-04-16,24.700034,120.859125,8.114759e-09
C0U910,冬山,2026-04-16,24.63373,121.7937,1.365869e-06
C1E721,泰安,2026-04-16,24.489017,120.968036,2.0790558e-09
82H320,茶改中部分場,2026-04-16,23.875611,120.913583,7.746998e-09
C0M750,布袋,2026-04-16,23.380878,120.167789,4.237956e-07
C1S860,利嘉,2026-04-16,22.809417,121.050528,8.0869185e-08
E2S980,林試太麻里1,2026-04-16,22.598922,120.980044,0.14699963
C0X170,關廟,2026-04-16,22.963017,120.327797,7.117392e-05
C0V720,林園,2026-04-16,22.507747,120.394511,0.010493834
C2M9G0,沄水,2026-04-16,23.38293,120.52666,4.3098394e-06
C1I510,線浸林道,2026-04-16,23.761508,120.832956,2.5735716e-09
C0D690,外湖,2026-04-16,24.917735,120.968711,6.549633e-09
C0C750,新興坑尾,2026-04-16,25.0061,121.0971,1.3567259e-08
B2Q810,畜試南區分所,2026-04-16,21.945583,120.802167,1.9129593e-05
C0S790,金崙,2026-04-16,22.538122,120.966875,3.580956e-05
C0AH90,福山植物園,2026-04-16,24.760717,121.58135,1.975553e-09
C0I540,奇萊稜線,2026-04-16,24.109231,121.326456,1.3607352e-08
C0M850,表湖,2026-04-16,23.24186,120.64166,4.074153e-08
C0S770,大溪山,2026-04-16,22.478475,120.943325,0.022803735
C0AG80,中和,2026-04-16,24.991622,121.491792,3.1034453e-08
C0T790,大禹嶺,2026-04-16,24.186117,121.316086,1.1252911e-08
C0T9B0,水源,2026-04-16,23.991861,121.537169,1.08846665e-08
C0R840,牡丹池山,2026-04-16,22.168389,120.841225,5.198485e-06
C1I131,桶頭,2026-04-16,23.641944,120.654117,0.30887896
CAL110,布袋國中,2026-04-16,23.35893,120.18026,0.00024279518
C2M9D0,何竹子腳,2026-04-16,23.53641,120.38203,0.0019592806
C0Z290,赤柯山,2026-04-16,23.36893,121.38293,2.1796838e-09
C0X280,將軍,2026-04-16,23.214999,120.13577,6.364671e-06
C0S690,太麻里,2026-04-16,22.60902,120.98533,2.9281955e-08
C0U880,北關,2026-04-16,24.9072,121.8734,0.00016354749
CAW010,東引,2026-04-16,26.3588,120.4836,2.6435277e-08
C0G810,埔心,2026-04-16,23.947633,120.525456,1.7551237e-07
C0U970,大福,2026-04-16,24.80064,121.81389,2.3124837e-06
C2H9N0,仁愛東眼,2026-04-16,24.026875,121.1205,2.7718772e-09
C1E670,南礦,2026-04-16,24.538278,121.002836,2.1867044e-09
C0M520,東後寮,2026-04-16,23.369908,120.248065,5.362551e-06
C1E461,松安,2026-04-16,24.397972,120.986022,2.0098427e-09
C2N160,西拉雅風管處,2026-04-16,23.189481,120.335297,0.00025011878
C2O850,環湖,2026-04-16,23.148665,120.4186,0.16602871
C2M970,碧湖,2026-04-16,23.568632,120.624165,1.1902564e-09
C0A640,石碇,2026-04-16,24.993969,121.662917,1.9710134e-07
E2S960,林試太麻里2,2026-04-16,22.598,120.99775,5.7270734e-07
C0F9Y0,桃山,2026-04-16,24.432739,121.303808,1.3108745e-08
C1I020,萬大,2026-04-16,23.979817,121.132261,2.5912295e-09
C2UC20,長嶺,2026-04-16,24.70894,121.61162,7.3768655e-07
C0U940,羅東,2026-04-16,24.68184,121.74934,1.2156787e-06
C0M650,朴子,2026-04-16,23.43463,120.23902,3.8707037e-07
C1I500,大尖山,2026-04-16,23.858572,120.994889,4.2536197e-09
C0FB40,中橫21.6k,2026-04-16,24.2499,121.1455,3.0098888e-09
C0G820,田尾,2026-04-16,23.901669,120.509389,1.7551237e-07
E2K600,四湖植物園,2026-04-16,23.676986,120.163433,1.6192968e-07
C0S730,綠島,2026-04-16,22.6672,121.47533,0.00010232289
12Q970,東港工作站,2026-04-16,22.479997,120.466058,0.011099847
C1TA00,太魯閣,2026-04-16,24.15773,121.6236,0.00071510056
466920,臺北,2026-04-16,25.037658,121.514853,2.7311488e-08
C0R600,舊泰武,2026-04-16,22.588194,120.664944,0.0036572411
466910,鞍部,2026-04-16,25.182586,121.529731,3.718766e-09
C1I230,九份二山,2026-04-16,23.961944,120.845,1.3019682e-09
C2M810,里佳,2026-04-16,23.389125,120.716647,3.1921823e-09
C2A660,瑞芳,2026-04-16,25.113169,121.801147,0.00038797327
C0R270,琉球嶼,2026-04-16,22.332244,120.362236,1.0409253e-05
C2V580,瑞山,2026-04-16,22.90304,120.43424,0.048235845
C1T990,高寮,2026-04-16,23.394239,121.356808,0.99985117
C0G620,芬園,2026-04-16,24.015678,120.6213,5.306992e-08
C1Z140,荖溪,2026-04-16,23.890575,121.45964,2.3890063e-09
C1I201,中心崙,2026-04-16,23.728722,120.712097,6.37787e-05
C1I400,凌霄,2026-04-16,24.018778,121.004456,2.6895024e-09
C1M640,十字,2026-04-16,23.492153,120.753683,2.5712508e-09
G2P820,農試鳳山分所,2026-04-16,22.646611,120.356083,0.0032646647
C0Z270,蕃薯寮,2026-04-16,23.73835,121.540108,7.4886543e-07
C2E420,竹南,2026-04-16,24.70898,120.88897,3.0293112e-08
C2D480,打鐵坑,2026-04-16,24.849664,121.150789,1.5332583e-06
C0FB10,出雲山苗圃,2026-04-16,24.23105,120.90475,9.588506e-07
C0F9Q0,外埔,2026-04-16,24.347817,120.705686,3.0288863e-06
C0K580,高鐵雲林,2026-04-16,23.737456,120.417944,3.500275e-05
C2I090,鳳凰,2026-04-16,23.728081,120.787347,7.267324e-09
C0U990,員山,2026-04-16,24.74435,121.72247,1.2850734e-06
C0V770,大社,2026-04-16,22.730306,120.346639,0.0025474255
C0X120,麻豆,2026-04-16,23.183289,120.248611,1.322034e-05
C0C670,龍潭,2026-04-16,24.870056,121.221389,1.9609678e-07
C0D680,香山濕地,2026-04-16,24.783581,120.914988,6.549633e-09
C0S980,勝林山,2026-04-16,22.430439,120.8938,1.1698859e-05
C0V730,大寮,2026-04-16,22.605614,120.395717,0.002765562
C0R570,麟洛,2026-04-16,22.65078,120.52719,0.53335303
C2M930,石卓,2026-04-16,23.478744,120.702264,2.5953002e-09
C0G9B0,和美,2026-04-16,24.105169,120.492131,1.0090682e-06
C2I240,外大坪,2026-04-16,23.9587,120.91788,3.0346087e-08
CAG100,王功漁港,2026-04-16,23.96824,120.32586,1.1224325e-06
C0X290,北門,2026-04-16,23.267772,120.125481,6.364671e-06
C2F930,大甲,2026-04-16,24.347667,120.640403,0.0568858
C0D650,湖口,2026-04-16,24.904794,121.043628,7.2741884e-09
C0U780,五結,2026-04-16,24.68637,121.79794,1.365869e-06
C1I250,鯉潭,2026-04-16,23.961922,120.991131,8.847977e-08
C0R130,阿禮,2026-04-16,22.742908,120.743678,1.4966881e-07
C0X100,臺南市北區,2026-04-16,23.010394,120.194228,3.201675e-05
C0S920,金峰嘉蘭,2026-04-16,22.594789,120.960825,2.8567218e-08
C0V490,新興,2026-04-16,22.627422,120.298803,0.0036773228
C0F9K0,大安,2026-04-16,24.345061,120.588025,0.00029453982
467290,古坑,2026-04-16,23.633639,120.551889,0.9991064
C2E970,八甲,2026-04-16,24.535811,120.795983,3.831056e-07
C0V440,鳳山,2026-04-16,22.646653,120.356122,0.00025789844
C1T940,大觀,2026-04-16,23.714206,121.373133,4.440154e-07
C0E740,造橋,2026-04-16,24.637056,120.864778,1.0018459e-08
C0R100,尾寮山,2026-04-16,22.833111,120.683889,1.3999713e-07
A2K630,臺大雲林校區,2026-04-16,23.730628,120.423903,0.064045034
467990,馬祖,2026-04-16,26.169467,119.923158,9.634238e-08
C0D580,寶山,2026-04-16,24.735006,121.025192,1.00555795e-08
E2P990,林試扇平站,2026-04-16,22.9677,120.6857,1.5300158e-05
C0AI30,三重,2026-04-16,25.057328,121.500629,3.3477676e-08
C0AH00,汐止,2026-04-16,25.066881,121.658778,0.00046064105
C1Z040,立山,2026-04-16,23.443356,121.327375,0.00029023972
466881,新北,2026-04-16,24.959207,121.525196,2.5689234e-08
C0W130,花嶼,2026-04-16,23.40007,119.32276,0.00018198896
C0A950,鼻頭角,2026-04-16,25.129036,121.923372,0.028684864
C0K470,林內,2026-04-16,23.748675,120.609642,4.359619e-06
C2F990,摩天嶺,2026-04-16,24.322458,120.936819,1.877775e-06
C2E430,南庄,2026-04-16,24.601775,121.000214,8.747544e-09
82C160,茶改場,2026-04-16,24.908472,121.185333,4.2674184e-09
C2TB60,南安,2026-04-16,23.29818,121.26157,0.0006624527
C0Z320,清水林道,2026-04-16,23.27125,121.188272,6.186478e-09
C0R760,南仁湖,2026-04-16,22.084681,120.863353,3.589836e-07
C0M670,大林,2026-04-16,23.600616,120.45841,4.41395e-05
C0M800,茶山,2026-04-16,23.299075,120.664767,4.6584763e-08
C0A9C0,天母,2026-04-16,25.117494,121.537169,2.9582173e-08
72K220,南改斗南分場,2026-04-16,23.634556,120.477333,0.061162923
72AI40,桃改樹林分場,2026-04-16,24.944503,121.386972,4.896596e-09
C0S910,蘭嶼燈塔,2026-04-16,22.081197,121.503117,9.357326e-09
C0B050,八斗子,2026-04-16,25.144754,121.79167,0.0007662698
C0U900,內城,2026-04-16,24.71813,121.68766,6.82975e-07
C0X320,柳營,2026-04-16,23.253328,120.375253,0.02241371
C0M790,新港,2026-04-16,23.553269,120.345728,4.7205955e-07
C0F9T0,西屯,2026-04-16,24.179494,120.641275,1.005862e-05
C0E950,松安,2026-04-16,24.39792,120.98599,2.0098427e-09
C0SA30,都歷,2026-04-16,23.020333,121.323642,0.010788689
C0C620,蘆竹,2026-04-16,25.084275,121.265767,2.1264894e-08
C0R730,大坪頂,2026-04-16,22.024633,120.69355,3.216358e-05
C0AJ40,石門,2026-04-16,25.273672,121.601198,9.2503775e-08
C0E750,苗栗,2026-04-16,24.564569,120.824575,5.650039e-08
C0T870,鯉魚潭,2026-04-16,23.935639,121.508944,6.259531e-05
C1V170,排雲,2026-04-16,23.463619,120.954147,1.919896e-08
C2H950,中寮,2026-04-16,23.884447,120.766406,0.006531302
C0R350,貓鼻頭,2026-04-16,21.921774,120.7358,0.00077700167
C0V660,岡山,2026-04-16,22.797078,120.294958,0.0038489706
C1H941,雙冬,2026-04-16,23.967378,120.802189,5.1619122e-09
C0AJ70,田寮,2026-04-16,25.2698,121.4886,4.1125227e-07
C0AI00,五股,2026-04-16,25.07445,121.42728,5.3568616e-09
C0Z280,德武,2026-04-16,23.47426,121.41071,0.044369232
C2RA10,大新,2026-04-16,22.67558,120.57788,0.07988327
C0R700,枋山,2026-04-16,22.246844,120.661086,0.99818563
C0C460,復興,2026-04-16,24.820208,121.352281,1.2535631e-08
C2AA10,中八仙,2026-04-16,25.11576,121.49199,5.7177494e-09
C2K300,鹿南,2026-04-16,23.63855,120.3636,2.298168e-07
E2H360,蓮華池,2026-04-16,23.918333,120.885278,1.3419091e-07
C0M640,中埔,2026-04-16,23.42538,120.5229,1.7608837e-06
C2C810,八德蔬果,2026-04-16,24.97858,121.28187,2.2579227e-08
C2M9F0,安溪寮,2026-04-16,23.350334,120.208039,0.0002368217
C0W140,金沙,2026-04-16,24.488292,118.408778,5.6944614e-08
C2A540,四堵,2026-04-16,24.8926,121.745736,7.032491e-06
C0ACA0,新莊,2026-04-16,25.051478,121.446756,2.365854e-08
C0R220,潮州,2026-04-16,22.534361,120.54,0.39420304
U2HA40,臺大內茅埔,2026-04-16,23.689722,120.851117,1.1725028e-05
467490,臺中,2026-04-16,24.145736,120.684075,7.575326e-06
C0UB60,明池,2026-04-16,24.650688,121.475277,2.6263987e-09
C0U960,翠峰湖,2026-04-16,24.510856,121.608044,2.9218785e-09
E2HA20,林試畢祿溪站,2026-04-16,24.226944,121.308522,4.749729e-09
C2M9A0,大華,2026-04-16,23.4824,120.67491,3.2400425e-08
C0V890,前鎮,2026-04-16,22.5718,120.3117,0.0010606662
C1F941,雪嶺,2026-04-16,24.280586,121.026642,8.976652e-09
C2H9E0,國姓南港,2026-04-16,23.911108,120.846556,1.1775322e-09
C0AC80,文山,2026-04-16,25.00235,121.575728,1.4652983e-08
C0F9R0,龍井,2026-04-16,24.184536,120.528972,6.223228e-07
C0M760,民雄,2026-04-16,23.551754,120.428457,4.41395e-05
C0UA40,西德山,2026-04-16,24.560647,121.752608,6.4084995e-09
C2TA70,赤科坪,2026-04-16,23.39885,121.39168,3.8194802e-08
C1T920,中興,2026-04-16,23.769503,121.498653,0.062385816
C0D550,雪霸,2026-04-16,24.526972,121.11605,3.1900338e-09
C2F860,梨山,2026-04-16,24.247522,121.243669,5.7194947e-09
C0R320,車城,2026-04-16,22.0744,120.716247,0.0032999448
C1S870,南美山,2026-04-16,23.15025,121.382333,0.00012816122
C0B020,基隆嶼,2026-04-16,25.19141,121.78391,0.0007391206
C1U501,牛鬥,2026-04-16,24.637836,121.573656,2.4977686e-05
C0M730,嘉義市東區,2026-04-16,23.457673,120.460531,0.00011804442
C2R990,泰武,2026-04-16,22.60686,120.69765,7.843927e-06
C0S700,知本,2026-04-16,22.684866,121.005642,4.0632262e-08
C1N001,沙崙,2026-04-16,22.935472,120.309406,0.0011771836
C0V760,橋頭,2026-04-16,22.757806,120.30575,0.0025532392
C2V570,吉東,2026-04-16,22.85418,120.54539,0.015579684
C0G960,福寶,2026-04-16,24.0443,120.3814,5.790472e-07
C0X210,白河,2026-04-16,23.347466,120.414427,0.031050367
C0S810,東河,2026-04-16,22.972672,121.303986,0.012151553
C2R170,屏東,2026-04-16,22.66027,120.49403,0.12372285
C0R670,楓港,2026-04-16,22.190131,120.692156,0.9970216
C0FA50,霧峰,2026-04-16,24.0419,120.6995,0.0009987403
C0UB10,蘇澳,2026-04-16,24.5969,121.8571,2.1344679e-06
C0G950,防潮門,2026-04-16,24.1835,120.4871,1.0232133e-06
C0M740,六腳,2026-04-16,23.492871,120.290625,3.3813532e-07
C1R250,力里,2026-04-16,22.428117,120.629228,0.0014448528
C0K330,虎尾,2026-04-16,23.719183,120.442036,1.9766958e-05
C2FA00,烏石坑,2026-04-16,24.273503,120.947617,2.5058234e-06
C0V620,永安,2026-04-16,22.82315,120.236856,0.004789186
C1I330,楓樹林,2026-04-16,23.986803,121.076117,2.960982e-09
C0W200,湖西,2026-04-16,23.596314,119.67275,9.3041795e-05
72Q010,高雄農改場,2026-04-16,22.709333,120.525889,0.09010257
C0C680,龜山,2026-04-16,25.02846,121.38656,4.4160346e-09
C2V260,月眉,2026-04-16,22.971003,120.539853,0.036418434
C0V450,鳳森,2026-04-16,22.545064,120.392592,0.0018397971
C0FA90,小雪山林道,2026-04-16,24.29515,121.03651,1.6045984e-08
C0U720,南山,2026-04-16,24.43742,121.38167,3.0172922e-09
A2N290,臺南蘭花園區,2026-04-16,23.340258,120.379661,0.5672035
C0R560,新園,2026-04-16,22.5434,120.461558,0.010493834
C0U890,三星,2026-04-16,24.66812,121.65302,1.7542084e-07
C1V300,御油山,2026-04-16,23.001983,120.715364,1.9458786e-09
C0U600,礁溪,2026-04-16,24.817539,121.765608,1.615405e-06
C1T980,龍澗,2026-04-16,24.023289,121.411328,1.630087e-09
C0D670,海天一線,2026-04-16,24.831986,120.914438,5.7377636e-09
C0SA00,歷坵,2026-04-16,22.520969,120.89185,0.79893225
C0M710,東石,2026-04-16,23.458927,120.15385,3.474624e-07
C0M780,鹿草,2026-04-16,23.41134,120.30835,2.931882e-07
C0U520,雙連埤,2026-04-16,24.753033,121.641303,8.033124e-09
C0B010,七堵,2026-04-16,25.094819,121.71713,0.00076246215
C0R480,長治,2026-04-16,22.693128,120.542622,0.056117356
C1V830,國三S383K,2026-04-16,22.781967,120.426475,0.0008606961
12Q980,恆春工作站,2026-04-16,22.079678,120.714425,3.2198262e-05
C1O940,東山服務區,2026-04-16,23.286016,120.398472,0.52125746
C1U840,東澳嶺,2026-04-16,24.5378,121.8485,1.4945244e-06
C1D630,飛鳳山,2026-04-16,24.766464,121.119178,1.4114198e-09
C0S940,石寧山,2026-04-16,23.223772,121.406639,0.00657435
C0K410,北港,2026-04-16,23.573957,120.292802,6.0070806e-07
C2M620,瑞里,2026-04-16,23.545133,120.675197,4.3741117e-09
C0SB70,小港漁港,2026-04-16,23.158558,121.400431,0.008938285
C2O950,安南,2026-04-16,23.076694,120.144861,0.0013192055
C0F0E0,南湖圈谷,2026-04-16,24.363714,121.444667,2.2303022e-08
467610,成功,2026-04-16,23.097486,121.373428,0.03406892
C0G890,伸港,2026-04-16,24.148933,120.484403,9.665036e-07
C2E540,龍溪,2026-04-16,24.606489,120.783933,4.9411476e-05
C1V200,梅山,2026-04-16,23.268447,120.823556,9.584821e-09
C0T9H0,加路蘭山,2026-04-16,23.682947,121.5274,5.2885984e-09
C2O930,玉井,2026-04-16,23.126042,120.46055,0.16602871
C1F911,新伯公,2026-04-16,24.221361,120.841069,5.8513244e-08
C0X200,左鎮,2026-04-16,23.056758,120.408522,0.00572547
C2TB50,麻汝,2026-04-16,23.42554,121.39358,0.9971789
C0FA60,鞍馬山工作站,2026-04-16,24.267064,121.000793,5.0451074e-09
C0SB50,叭嗡嗡,2026-04-16,23.047062,121.343223,0.069381125
C2R550,新埤,2026-04-16,22.467947,120.582894,0.012795873
C1F891,稍來,2026-04-16,24.265689,121.001142,4.8273154e-09
C2M9C0,紫雲,2026-04-16,23.494914,120.540253,0.0001002145
72N240,七股研究中心,2026-04-16,23.081672,120.062894,0.0015120893
C0C700,中壢,2026-04-16,24.977661,121.256375,1.3029252e-08
C0M690,水上,2026-04-16,23.419734,120.388909,6.1854415e-05
C0V690,鼓山,2026-04-16,22.623325,120.275575,0.0036773228
C0O860,大內,2026-04-16,23.11885,120.36083,5.499941e-05
C0Z200,萬榮,2026-04-16,23.709219,121.420106,1.4912591e-05
C0T9D0,和中,2026-04-16,24.26676,121.74103,0.0056293574
C2S9A0,北份子寮,2026-04-16,22.78561,121.07813,0.06847483
C1O921,楠西,2026-04-16,23.183511,120.484083,0.10514977
C0AJ30,淡水觀海,2026-04-16,25.184591,121.408616,3.3524006e-07
C0V810,左營,2026-04-16,22.67491,120.28491,0.0027150358
C0UA70,桃源谷,2026-04-16,24.962606,121.888875,7.2462023e-09
C0X130,官田,2026-04-16,23.193217,120.315422,1.7174367e-05
C1H000,翠峰,2026-04-16,24.109397,121.205211,4.218506e-09
C0UA90,石城,2026-04-16,24.980444,121.951214,0.0013188677
C1E681,南勢山,2026-04-16,24.421669,120.923831,7.682709e-09
C0A9F0,內湖,2026-04-16,25.079422,121.57545,3.0111252e-08
C0K291,宜梧,2026-04-16,23.536281,120.169329,1.4399824e-07
C1K540,口湖,2026-04-16,23.585344,120.180517,1.932953e-06
C0R780,滿州,2026-04-16,22.024403,120.839892,0.00087439147
C0V870,文安,2026-04-16,22.8025,120.2164,0.005117918
C0U650,玉蘭,2026-04-16,24.675286,121.587061,1.976295e-07
C0R640,東港,2026-04-16,22.46247,120.44074,0.008470561
C0AJ80,板橋,2026-04-16,25.0107,121.4489,3.1034453e-08
C0S660,下馬,2026-04-16,23.150427,121.070312,5.4247846e-09
C2N190,烏樹,2026-04-16,23.32393,120.36989,0.00019830803
C1H9B1,阿眉,2026-04-16,24.1263,120.994672,2.788863e-09
C0UA20,多加屯,2026-04-16,24.368614,121.373189,8.826852e-09
C0E730,頭份,2026-04-16,24.688247,120.912206,7.4015194e-09
72V140,高改旗南分場,2026-04-16,22.857861,120.516667,0.003158399
C2R490,九如,2026-04-16,22.74049,120.490555,0.09010257
C0K480,莿桐,2026-04-16,23.761192,120.502372,5.9446218e-05
C0U980,坪林石牌,2026-04-16,24.86478,121.77396,5.375602e-09
C0T900,西林,2026-04-16,23.8119,121.441458,1.6561737e-05
C1I150,青雲,2026-04-16,23.793361,120.949378,1.1895029e-07
C2E980,和興,2026-04-16,24.505319,120.923016,2.2075935e-06
467350,澎湖,2026-04-16,23.565503,119.563094,0.00024942175
C0G800,埔鹽,2026-04-16,24.000394,120.431683,5.0837485e-07
C0H960,草屯,2026-04-16,23.973672,120.68085,7.791538e-05
C1V780,多納林道,2026-04-16,22.888028,120.737917,5.169213e-09
C0E920,通霄漁港,2026-04-16,24.498589,120.673876,7.722319e-08
C0Z330,安通山,2026-04-16,23.290728,121.348528,3.4522852e-08
C0AH10,永和,2026-04-16,25.01125,121.508111,3.5204156e-08
C0AK10,太平里,2026-04-16,25.134937,121.364899,1.8276639e-08
C2G640,鹿港,2026-04-16,24.0753,120.430481,3.176919e-06
C1E890,國三N149K,2026-04-16,24.463414,120.680019,5.6195272e-08
C1R110,口社,2026-04-16,22.770111,120.645222,0.0064585158
C1M870,國三N285K,2026-04-16,23.550319,120.505833,5.193052e-05
C1E480,鳳美,2026-04-16,24.554803,121.034747,5.1408153e-07
C0T9M0,靜浦,2026-04-16,23.455167,121.495028,0.69177103
C2H9M0,發祥,2026-04-16,24.154094,121.164517,2.846761e-09
C2G9C0,埔南,2026-04-16,23.99124,120.46969,1.7736252e-06
C0AI40,石牌,2026-04-16,25.115597,121.513139,3.0111252e-08
C1F871,上谷關,2026-04-16,24.203483,121.018644,5.6142665e-07
C2H9G0,百勝,2026-04-16,24.051142,120.909361,0.00041045804
C0G880,二水,2026-04-16,23.810742,120.6173,4.180827e-06
C0R940,加祿堂,2026-04-16,22.3363,120.6217,0.030863158
C0W220,北竿,2026-04-16,26.220358,119.974881,9.584348e-08
C0O960,崎頂,2026-04-16,22.959547,120.369317,1.1588309e-05
C0TA40,秀林,2026-04-16,24.302864,121.731144,1.4438554e-08
C0S750,向陽,2026-04-16,23.248397,120.986133,3.8112113e-09
C0T9F0,水璉,2026-04-16,23.797131,121.542514,2.8743732e-06
C1M600,頭凍,2026-04-16,23.406364,120.603339,1.15135e-09
467660,臺東,2026-04-16,22.752211,121.154586,0.47693372
C1D380,新埔,2026-04-16,24.84745,121.03834,6.422854e-09
C2G980,田頭村,2026-04-16,23.8263,120.444175,0.02546799
C0V750,路竹,2026-04-16,22.854997,120.259439,0.0030640212
C0N050,蚵寮,2026-04-16,23.301,120.1104,6.364671e-06
C2X060,下營,2026-04-16,23.226806,120.256291,0.00046073983
72M700,南改鹿草分場,2026-04-16,23.416869,120.283061,3.7271866e-06
C1SA50,利嘉林道,2026-04-16,22.82325,121.009389,2.3625024e-09
C0UB70,太平山中間站,2026-04-16,24.542003,121.513453,3.5980323e-09
C0A940,金山,2026-04-16,25.223628,121.643967,1.891155e-06
C1V340,大津,2026-04-16,22.888322,120.645986,0.042606745
C0W180,七美,2026-04-16,23.219333,119.444892,0.0006081855
C1F9C1,白冷,2026-04-16,24.182844,120.929889,2.822251e-07
K2E710,苗改生物防治研究中心,2026-04-16,24.422861,120.871833,7.826876e-08
C0N040,蘆竹溝,2026-04-16,23.2344,120.0961,6.7133838e-06
C0TB40,崇德,2026-04-16,24.166144,121.657414,0.0098680835
C0D760,大坪苗圃,2026-04-16,24.5362,121.1108,2.076753e-09
C2D430,峨眉,2026-04-16,24.6905,121.017189,2.3571024e-08
C2W230,畜試所澎湖,2026-04-16,23.628342,119.513206,0.00014989084
C0R880,後壁湖,2026-04-16,21.9457,120.7457,0.0011325394
C1I280,埔中,2026-04-16,23.820778,120.642594,0.0011688542
467790,墾丁雷達站,2026-04-16,21.948235,120.808028,0.00031499154
C0W190,望安,2026-04-16,23.380564,119.494075,0.00023672418
C0Z170,卓溪,2026-04-16,23.3443,121.3029,0.0002827373
C0F850,東勢,2026-04-16,24.246428,120.833047,8.942017e-08
466900,淡水,2026-04-16,25.164889,121.448906,4.1862103e-07
C0I370,魚池,2026-04-16,23.895703,120.94135,1.555948e-08
C0C630,大溪,2026-04-16,24.882853,121.265547,5.168109e-09
C0A520,山佳,2026-04-16,24.974944,121.402008,2.1950589e-08
C0I110,竹山,2026-04-16,23.761225,120.688156,0.3280617
82H840,茶改南部分場,2026-04-16,23.762528,120.7405,0.008056328
C2SD80,再來山,2026-04-16,23.34371,121.44122,0.99941885
C0G660,溪湖,2026-04-16,23.94835,120.479122,1.8546534e-07
C1T800,洛韶,2026-04-16,24.204558,121.453956,5.0833773e-09
C1T810,慈恩,2026-04-16,24.192044,121.388386,3.1841736e-09
C1E451,象鼻,2026-04-16,24.368617,120.940228,7.682709e-09
C0AC60,三峽,2026-04-16,24.939025,121.369728,4.4449116e-08
C0I490,萬大林道,2026-04-16,23.928228,121.091411,2.9546294e-09
C1I290,豐丘,2026-04-16,23.668178,120.887417,1.4232068e-08
C1I320,奧萬大,2026-04-16,23.952956,121.178556,7.0460833e-09
C2M910,嘉義大學,2026-04-16,23.471325,120.485903,0.00087365566
C0U770,南澳,2026-04-16,24.44935,121.81022,9.080898e-05
C2TB30,吉安,2026-04-16,23.94538,121.54803,0.06584939
C0A980,社子,2026-04-16,25.109508,121.469681,2.4824836e-08
C0V800,六龜,2026-04-16,22.997889,120.633583,1.24375165e-05
C1G9D0,國一S218K,2026-04-16,23.890641,120.493253,9.62328e-07
C0E570,白沙屯,2026-04-16,24.549447,120.696803,6.457644e-08
C2F9A0,中竹林,2026-04-16,24.103556,120.751061,1.9534993e-05
C0FA40,臺中電廠,2026-04-16,24.2146,120.4907,8.6569935e-07
C2G9A0,畜試所彰化,2026-04-16,23.86045,120.557964,0.008370105
C0H9C0,合歡山,2026-04-16,24.143442,121.272547,2.3903155e-08
G2M350,農試溪口農場,2026-04-16,23.58565,120.408111,0.0034053705
C0U860,頭城,2026-04-16,24.85323,121.8308,2.9546e-06
C0R580,南州,2026-04-16,22.48591,120.50274,0.054226324
C0G780,秀水,2026-04-16,24.03405,120.503869,3.1375765e-07
72N100,臺南農改場,2026-04-16,23.0605,120.342194,0.0008660483
C0S900,蘭嶼高中,2026-04-16,22.04909,121.51214,2.8674542e-08
C2TA60,六十石,2026-04-16,23.22477,121.31861,3.6271028e-09
C1F9W0,德基,2026-04-16,24.254783,121.190261,4.887946e-09
C2M980,安和,2026-04-16,23.51377,120.31593,3.1781767e-06
C1Z120,壽豐,2026-04-16,23.870853,121.508081,0.21548934
C0W160,烏坵,2026-04-16,24.9944,119.44956,4.63278e-08
C1I550,國六W023K,2026-04-16,23.979067,120.867742,8.549378e-05
C0R870,興海,2026-04-16,21.9752,120.8439,0.0006149245
C0R140,瑪家,2026-04-16,22.682903,120.686639,0.014771391
C0A530,坪林,2026-04-16,24.938183,121.70975,5.96606e-08
C0X260,後壁,2026-04-16,23.366358,120.362326,8.6478285e-06
C0Z230,和平,2026-04-16,24.30717,121.77007,0.004329321
C0G770,福興,2026-04-16,24.041289,120.437669,5.0837485e-07
C0H9A0,神木村,2026-04-16,23.532742,120.843667,3.0084883e-09
C0I460,南投,2026-04-16,23.911469,120.687331,9.035955e-05
C0I480,梅峰,2026-04-16,24.085272,121.173572,3.4154486e-09
C2D770,巨埔,2026-04-16,24.84435,121.11442,2.801612e-08
C2A560,福山,2026-04-16,24.776203,121.502811,1.0619552e-06
C0AH30,五分山,2026-04-16,25.07125,121.780794,6.8938975e-09
C0FA10,松柏,2026-04-16,24.429115,120.617482,3.4187295e-07
72S200,東改班鳩分場,2026-04-16,22.829528,121.077694,0.00025815752
72HA00,中改埔里分場,2026-04-16,23.903208,120.963364,1.8526133e-07
C2H9W0,大坪頂農水,2026-04-16,24.043122,120.932781,1.4584454e-07
C0C650,平鎮,2026-04-16,24.897503,121.214636,4.9634337e-09
C0S930,延平,2026-04-16,22.902581,121.084058,0.0001048018
C0UA60,樟樹山,2026-04-16,24.41393,121.78325,7.03712e-06
C2UC10,出水溪,2026-04-16,24.615822,121.652253,9.7533506e-05
C1S670,摩天,2026-04-16,23.199503,121.027,2.6640935e-08
C2C590,觀音,2026-04-16,25.027072,121.153317,2.260228e-08
C0V630,茄萣,2026-04-16,22.906642,120.182608,0.00024350599
466940,基隆,2026-04-16,25.133314,121.740475,0.00073978654
C0X050,東河,2026-04-16,23.296598,120.385608,0.03718075
C0R770,保力,2026-04-16,22.071122,120.764111,0.0003584563
G2L020,農試嘉義分所,2026-04-16,23.485028,120.473806,0.0007070757
C0X240,關子嶺,2026-04-16,23.331169,120.508025,1.05027034e-07
C0I380,集集,2026-04-16,23.828206,120.801467,1.9428016e-05
466990,花蓮,2026-04-16,23.975128,121.613275,0.00027781553
C1V220,小關山,2026-04-16,23.154217,120.813603,3.1075127e-09
C1F9G1,慶福山,2026-04-16,24.180853,120.848378,2.7922695e-09
C0FB20,雪山橋,2026-04-16,24.23192,120.9786,4.0672177e-09
C0Z250,瑞穗林道,2026-04-16,23.49284,121.30688,8.223248e-09
C0D590,新豐,2026-04-16,24.87068,120.97721,4.1637005e-09
C2N200,口宵里,2026-04-16,23.15987,120.45988,0.0005220671
C0A870,五指山,2026-04-16,25.132153,121.608692,5.129612e-09
C0UA50,西帽山,2026-04-16,24.555361,121.802628,1.6460156e-08
C2R980,竹田國中,2026-04-16,22.61532,120.52412,0.010927815
C0X160,仁德,2026-04-16,22.968258,120.257689,0.00028941242
C1H971,六分寮,2026-04-16,23.92507,120.6378,7.633937e-07
C2D790,石鹿,2026-04-16,24.56551,121.15841,4.196397e-09
C0W120,西嶼,2026-04-16,23.5626,119.468436,0.00030425863
C0G650,員林,2026-04-16,23.946503,120.585597,2.3029685e-07
C0AD50,鶯歌,2026-04-16,24.951533,121.346294,3.2581816e-08
C2H9Q0,北東眼山,2026-04-16,24.120939,121.189303,2.8659546e-09
C2H9T0,名間竹圍,2026-04-16,23.859914,120.637572,0.08964255
C0S990,山豬窟,2026-04-16,22.318619,120.857372,0.0006807285
C0X190,安平,2026-04-16,22.993161,120.152181,3.7303667e-05
C0K400,斗六,2026-04-16,23.720583,120.541127,5.0368926e-05
12J990,口湖工作站,2026-04-16,23.589978,120.180394,1.932953e-06
C0O830,北寮,2026-04-16,23.079561,120.495008,0.00015303733
C1D410,白蘭,2026-04-16,24.579364,121.079947,2.0403914e-09
C0S970,加津林,2026-04-16,22.416211,120.926942,3.404316e-08
C0D700,關西,2026-04-16,24.7977,121.1732,3.7198326e-06
C0U750,龜山島,2026-04-16,24.841667,121.953133,2.9198864e-07
C0R810,內獅,2026-04-16,22.305064,120.642986,0.99818563
C2EA10,拉庫斯,2026-04-16,24.53637,121.02137,3.1656373e-09
C1M390,龍美,2026-04-16,23.406728,120.654417,1.3229613e-08
C2K290,崙內,2026-04-16,23.69525,120.35601,2.298168e-07
C2FB60,頭櫃山,2026-04-16,24.129842,120.858925,2.0827986e-09
C1H840,國三N238K,2026-04-16,23.841008,120.707711,0.18247814
CAQ030,崎峰國小,2026-04-16,22.42565,120.49521,0.011099852
C2E520,大湖,2026-04-16,24.414939,120.870872,6.105304e-08
467530,阿里山,2026-04-16,23.508208,120.813242,5.72493e-09
C1E691,南湖,2026-04-16,24.40135,120.837533,1.2651644e-09
C0FA30,梧棲,2026-04-16,24.256003,120.523381,6.223228e-07
C1V231,高中,2026-04-16,23.134911,120.716711,6.363861e-08
C0AK30,硬漢嶺,2026-04-16,25.136097,121.426372,3.5247e-09
C0F9V0,新社,2026-04-16,24.200172,120.815806,1.6830326e-08
C0H890,埔里,2026-04-16,23.972169,120.952425,3.796126e-05
C0R690,墾丁,2026-04-16,21.966756,120.810269,1.9311528e-06
C0SD20,富山,2026-04-16,22.822383,121.190825,0.024850262
C0F0D0,審馬陣,2026-04-16,24.381675,121.4203,9.72661e-09
C2W030,金門農試所,2026-04-16,24.448431,118.451786,7.173309e-08
C0R820,白鷺,2026-04-16,22.454275,120.666219,0.008889222
C0FB00,大雪山,2026-04-16,24.254668,121.007374,5.1518994e-09
C2O880,南化,2026-04-16,23.17332,120.59413,0.00016637603
C1V190,南天池,2026-04-16,23.27403,120.91176,3.950912e-09
C0E940,雪見,2026-04-16,24.42595,121.01347,4.0207837e-09
K2E360,苗栗農改場,2026-04-16,24.495722,120.829111,4.368409e-06
CAJ050,海口故事園區,2026-04-16,23.57543,120.14121,1.932953e-06
C2K280,四湖,2026-04-16,23.6304,120.22717,1.6192968e-07
C2H9D0,三隻寮,2026-04-16,24.093078,120.861578,3.027981e-09
C0O990,媽廟,2026-04-16,22.99175,120.293525,0.00010598164
C0Z220,和平林道,2026-04-16,24.343922,121.656317,9.359581e-06
C0TA10,花蓮漁港,2026-04-16,23.995322,121.638331,0.8174367
72C440,桃園農改場,2026-04-16,24.950944,121.030583,3.6135567e-08
C1E711,馬拉邦山,2026-04-16,24.367306,120.901656,5.7673444e-09
C0SB20,富岡,2026-04-16,22.792467,121.192669,0.018483201
C0D560,竹東,2026-04-16,24.767147,121.057881,9.776997e-09
C0F9U0,南屯,2026-04-16,24.137006,120.637969,0.00022375875
C2SD60,明峰,2026-04-16,22.8671,121.11825,8.1195736e-05
C0M720,番路,2026-04-16,23.464657,120.554156,9.329101e-08
C0F0A0,雪山圈谷,2026-04-16,24.388594,121.236339,2.0556582e-08
C1A9N0,四十份,2026-04-16,24.934158,121.593283,3.4352576e-09
C0U760,東澳,2026-04-16,24.52196,121.83318,6.30559e-05
C0X230,鹽水,2026-04-16,23.272621,120.247641,6.3619163e-06
C2H9H0,苗改南投蜂場,2026-04-16,23.852589,120.693481,0.9772793
C2TB70,達谷寮,2026-04-16,23.38,121.35968,0.9997859
C0R950,萬隆國小,2026-04-16,22.507667,120.587817,0.04959337
467540,大武,2026-04-16,22.35572,120.90374,0.9990553
C0V370,古亭坑,2026-04-16,22.893178,120.401947,0.0047240024
C1I340,新興橋,2026-04-16,23.563333,120.868728,2.687105e-07
C2C480,桃園,2026-04-16,24.992425,121.323172,2.2579227e-08
C0SA80,土坂,2026-04-16,22.453108,120.887572,0.9992632
C0R160,鹽埔,2026-04-16,22.739558,120.530778,0.17402413
C0AC40,大屯山,2026-04-16,25.175675,121.522408,4.169009e-09
466850,五分山雷達站,2026-04-16,25.071182,121.781205,6.807164e-09
C2H9L0,馬烈霸,2026-04-16,24.1512,121.201772,4.533356e-09
C1AI50,國三N016K,2026-04-16,25.034164,121.619664,1.8300637e-08
C2V920,匏子寮,2026-04-16,23.04905,120.55319,0.00061089586
C1V600,藤枝,2026-04-16,23.071961,120.757042,1.8775574e-09
C1E601,南勢,2026-04-16,24.572486,120.734842,3.423871e-08
C0O980,新市,2026-04-16,23.061614,120.298197,0.00010718888
C0K420,西螺,2026-04-16,23.800407,120.467394,1.7269196e-05
C0Z050,佳心,2026-04-16,23.34567,121.21316,2.7480882e-09
C0AD30,蘆洲,2026-04-16,25.086594,121.472331,2.4785662e-08
C0V610,梓官,2026-04-16,22.760558,120.267211,0.003914348
K2F750,種苗改良場,2026-04-16,24.225972,120.800917,8.019365e-08
C0UA80,大溪漁港,2026-04-16,24.941801,121.902955,1.336712e-07
C1AI60,國一39K邊坡,2026-04-16,25.064361,121.383836,4.7380837e-09
C0W150,金寧,2026-04-16,24.457703,118.328989,7.195056e-08
C0R960,內埔,2026-04-16,22.608483,120.570714,0.3483774
C2H9S0,龍南,2026-04-16,23.953536,120.833183,1.0719385e-09
C0AH40,平等,2026-04-16,25.129142,121.577086,8.002737e-09
C0R540,佳冬,2026-04-16,22.419456,120.552375,0.030957365
466950,彭佳嶼,2026-04-16,25.627975,122.079744,2.4427948e-07
C0A890,雙溪,2026-04-16,25.036003,121.864242,7.372885e-07
C0AH50,林口,2026-04-16,25.072181,121.38084,3.672575e-09
A2K360,水試臺西試驗場,2026-04-16,23.717231,120.190522,2.7575703e-07
C2M960,外寮,2026-04-16,23.562643,120.665688,2.2034273e-08
C0F9S0,烏日,2026-04-16,24.107058,120.624103,2.8963046e-07
C2N180,鹿陶洋,2026-04-16,23.14325,120.48352,0.10514977
C0C490,八德,2026-04-16,24.928708,121.283289,8.3287715e-09
C0R190,赤山,2026-04-16,22.592333,120.614306,0.2126737
C0T820,天祥,2026-04-16,24.179597,121.495639,2.9280447e-08
C1F9E1,龍安,2026-04-16,24.1605,120.831961,1.2848679e-08
C2SD50,順那,2026-04-16,23.04166,121.29332,0.0089859
C0V820,小林,2026-04-16,23.148408,120.63325,4.184929e-08
C2G870,芳苑,2026-04-16,23.922303,120.320025,7.501951e-08
C0E850,大河,2026-04-16,24.618069,120.948578,7.809039e-09
C1U670,寒溪,2026-04-16,24.634,121.71691,6.6908015e-08
C0N020,城西,2026-04-16,23.0568,120.0956,4.0076688e-05
C1Z110,三棧,2026-04-16,24.11557,121.60501,6.719535e-09
C0R280,檳榔,2026-04-16,22.076078,120.836777,3.712971e-06
C2H9J0,中台,2026-04-16,23.9996,120.938739,4.2141626e-05
C0F9L0,后里,2026-04-16,24.310436,120.729725,4.3674115e-07
467441,高雄,2026-04-16,22.730432,120.312516,0.0025474255
C2N210,岩坑,2026-04-16,23.24614,120.47458,0.022422614
C0Z180,新城,2026-04-16,24.040486,121.604878,0.00020258673
C0D540,橫山,2026-04-16,24.71116,121.11693,5.6711764e-09
C1D420,太閣南,2026-04-16,24.632808,121.160575,1.5762321e-09
C1E770,公館,2026-04-16,24.526914,120.830806,5.0004758e-08
CAN130,水試所海水繁養殖中心,2026-04-16,23.120802,120.07968,0.0015120893
C1I430,翠華,2026-04-16,24.191961,121.224339,7.1845614e-09
C1M400,菜瓜坪,2026-04-16,23.251928,120.576103,5.080889e-07
C0G730,二林,2026-04-16,23.903325,120.376081,3.0422964e-07
72M360,南改義竹分場,2026-04-16,23.360694,120.279361,0.00012298918
V2K620,麥寮合作社,2026-04-16,23.753836,120.294783,2.4783e-07
C0Z070,舞鶴,2026-04-16,23.46811,121.37407,0.008042769
C0B040,大武崙,2026-04-16,25.166676,121.706993,2.806397e-07
C1Z030,紅葉,2026-04-16,23.493119,121.338806,0.99893785
C1I050,丹大,2026-04-16,23.753747,121.141147,1.0633294e-08
467290,古坑,2026-04-16,23.380729,120.336861,4.1429124e-07
C0I080,信義,2026-04-16,23.689694,120.851036,5.2381452e-08
C2TB80,庄子底,2026-04-16,23.71794,121.49438,0.015895355
C0D750,樂山林道6k,2026-04-16,24.49999,121.08773,4.1798933e-09
C2M920,朴子農改,2026-04-16,23.469889,120.259383,4.827737e-06
C2A880,福隆,2026-04-16,25.017842,121.942083,0.013830565
C0Z160,鳳林,2026-04-16,23.746114,121.453411,5.2479336e-05
C0UB80,翠峰林道6K,2026-04-16,24.49773,121.568625,3.570543e-09
C0V210,復興,2026-04-16,23.222403,120.806089,4.9998174e-08
C0H990,昆陽,2026-04-16,24.121322,121.273642,1.0936692e-08
C0R741,獅子,2026-04-16,22.202308,120.705236,0.99819833
C0S710,鹿野,2026-04-16,22.917711,121.122994,1.4346655e-06
C0I530,小奇萊,2026-04-16,24.131764,121.295717,1.808322e-08
C0FA70,大雪山埡口,2026-04-16,24.26867,121.03062,1.040355e-08
C2K630,荷苞,2026-04-16,23.657717,120.595144,0.00017661256
C0Z080,富源,2026-04-16,23.587642,121.378225,0.00033692617
C2M9E0,旺來山,2026-04-16,23.555153,120.486463,3.25066e-05
C0SB10,美和,2026-04-16,22.682078,121.060236,0.09109051
C2K620,馬光農場,2026-04-16,23.721453,120.378864,0.08698111
C1I140,卡奈托灣,2026-04-16,23.754364,121.087872,3.566289e-09
C0I520,玉山風口,2026-04-16,23.470489,120.955994,2.54573e-08
C1G691,下水埔,2026-04-16,23.816114,120.5676,0.009291599
C0X110,臺南市南區,2026-04-16,22.961189,120.188378,0.00029607708
C0V680,仁武,2026-04-16,22.701083,120.347722,0.0025474255
C2G840,北斗,2026-04-16,23.877586,120.514222,7.1353463e-07
C2TB90,長橋,2026-04-16,23.6874,121.46186,0.0064902464
C0R900,竹坑,2026-04-16,22.1385,120.7022,0.9970216
C0G860,社頭,2026-04-16,23.897647,120.5862,2.902573e-07
C0X150,安定,2026-04-16,23.102614,120.227839,6.645922e-05
C0R590,里港,2026-04-16,22.77919,120.49459,0.0017319666
C0E610,馬都安,2026-04-16,24.451272,120.930192,2.5504345e-08
C0E550,明德,2026-04-16,24.583486,120.885411,8.553406e-08
C0R150,三地門,2026-04-16,22.709889,120.639944,0.0020960616
C0G910,花壇,2026-04-16,24.032076,120.549461,2.9570901e-07
C1D400,鳥嘴山,2026-04-16,24.71909,121.28387,1.8156895e-09
C0K500,元長,2026-04-16,23.64981,120.315024,3.3627785e-07
C0F0B0,石岡,2026-04-16,24.276061,120.777644,1.7717358e-07
C2V250,甲仙,2026-04-16,23.080106,120.591758,2.6608352e-05
C0SA20,金崙山,2026-04-16,22.567419,120.959667,3.5185608e-09
C0V350,溪埔,2026-04-16,22.738578,120.446797,0.0068067033
C0M660,溪口,2026-04-16,23.604131,120.403569,8.7301894e-05
C1S880,壽卡,2026-04-16,22.238911,120.858903,8.5393924e-07
72D680,桃改新埔分場,2026-04-16,24.834444,121.066111,2.7086235e-08
