站號,站名,日期,lat,lon,BLBTSLS
C0R710,龍磐,2026-07-31,21.931672,120.838942,0.08151764
C1F9D1,白毛台,2026-07-31,24.158325,120.886933,0.96852326
C0G940,竹塘,2026-07-31,23.848253,120.386764,0.07685202
467590,恆春,2026-07-31,22.003897,120.746339,0.08804854
C0U710,太平山,2026-07-31,24.505486,121.525656,1.7733392e-08
C0E820,獅潭,2026-07-31,24.539133,120.920042,0.09072497
C2SD70,二層坪,2026-07-31,22.94105,121.16838,0.89302933
C0V880,興達,2026-07-31,22.8778,120.2127,0.080654465
C0SB30,新蘭,2026-07-31,22.869214,121.223228,0.75186306
C2R970,屏科大,2026-07-31,22.648275,120.619247,0.14239745
C1Z130,銅門,2026-07-31,23.965694,121.492842,0.15609585
C0AD40,土城,2026-07-31,24.973208,121.445169,0.22165689
CAN140,六官養殖協會,2026-07-31,23.22881,120.29962,0.07740976
C0X180,山上,2026-07-31,23.0757,120.363253,0.08607729
C0F9Z0,雪山東峰,2026-07-31,24.388792,121.268675,1.3509083e-08
C1M480,獨立山,2026-07-31,23.537022,120.607797,0.006507226
C0X220,學甲,2026-07-31,23.230367,120.182187,0.038099363
467650,日月潭,2026-07-31,23.881325,120.90805,0.03896586
A2K570,古坑(花卉中心),2026-07-31,23.633531,120.552392,0.11761125
C0K600,箔子寮,2026-07-31,23.6197,120.14,0.03910267
C0G830,埤頭,2026-07-31,23.866003,120.452806,0.10149514
C0S950,七塊厝,2026-07-31,22.954453,121.229922,0.99072444
C0SE00,樟原南溪,2026-07-31,23.4023,121.42318,0.99985456
467110,金門,2026-07-31,24.407306,118.289281,0.03385942
C0AH80,深坑,2026-07-31,25.002703,121.628328,0.26466104
C0A970,三貂角,2026-07-31,25.007606,122.002058,0.5157041
C2D730,寶山農場,2026-07-31,24.732444,120.976153,0.056819472
C0K430,褒忠,2026-07-31,23.690938,120.303634,0.03594643
467480,嘉義,2026-07-31,23.495925,120.432906,0.09803683
C0V400,阿公店,2026-07-31,22.804194,120.355528,0.061378215
C2S800,華源,2026-07-31,22.65783,121.0232,0.13421953
C0V960,西阿里關山,2026-07-31,23.183025,120.64143,0.31816444
C2SA40,瑞和,2026-07-31,22.974361,121.156697,0.8926355
C0E960,觀霧分站,2026-07-31,24.505781,121.113921,2.3853502e-06
467550,玉山,2026-07-31,23.48718,120.95943,2.6704477e-08
C0R440,大漢山,2026-07-31,22.405264,120.753181,0.09909416
C0SD30,東清國小,2026-07-31,22.057128,121.564922,0.07621068
C1F9B1,桐林,2026-07-31,24.066172,120.735194,0.14133604
C2I210,蘆竹湳,2026-07-31,23.93398,120.81209,0.96939975
C2H9U0,鳳鵬,2026-07-31,23.763919,120.788061,0.18868297
C0K390,土庫,2026-07-31,23.679029,120.395574,0.0821932
C1I450,望鄉山,2026-07-31,23.594153,120.944286,2.352216e-08
C0E910,海埔,2026-07-31,24.648767,120.772435,0.032225497
B2E890,畜試北區分所,2026-07-31,24.527806,120.770972,0.03746406
C0R750,四林格山,2026-07-31,22.076989,120.802439,0.12276286
C0F0C0,中坑,2026-07-31,24.248517,120.903319,0.9130131
C1I121,大鞍,2026-07-31,23.678381,120.760017,0.003365976
C2G9E0,移民庄,2026-07-31,23.9784,120.40283,0.033316538
72U480,花改蘭陽分場,2026-07-31,24.686306,121.716583,0.12812667
C0A770,科教館,2026-07-31,25.096356,121.516507,0.3530984
C0AJ60,六塊厝,2026-07-31,25.24,121.4481,0.07550073
C0R620,墾雷,2026-07-31,21.900836,120.855269,0.09041338
467290,古坑,2026-07-31,23.633536,120.551906,0.11761125
467420,永康,2026-07-31,23.038386,120.2367,0.117822945
C2M530,奮起湖,2026-07-31,23.493903,120.699253,0.15057327
C0V930,天池,2026-07-31,23.27778,120.91569,3.6517378e-07
C0I410,名間,2026-07-31,23.837053,120.701447,0.15383634
A2C560,農工中心,2026-07-31,24.985917,121.239833,0.027299589
C0V740,旗山,2026-07-31,22.888614,120.483597,0.17284057
C0Z061,玉里,2026-07-31,23.3215,121.339656,0.10564515
C0S840,南田,2026-07-31,22.279725,120.889208,0.7474029
C1I470,杉林溪,2026-07-31,23.639517,120.786444,7.4222216e-06
C1X040,東原,2026-07-31,23.291597,120.463822,0.2176452
C0R660,枋寮,2026-07-31,22.367722,120.590647,0.049882725
C0K450,大埤,2026-07-31,23.646074,120.431537,0.09808154
C0UA00,土場,2026-07-31,24.576533,121.495333,0.73552734
467080,宜蘭,2026-07-31,24.763975,121.756528,0.12778175
C0N030,四草,2026-07-31,23.0235,120.1116,0.03901399
467410,臺南,2026-07-31,22.99328,120.20492,0.088242225
C0V650,彌陀,2026-07-31,22.783806,120.246361,0.04699108
C0D660,新竹市東區,2026-07-31,24.798681,120.986942,0.04356207
82S580,茶改東部分場,2026-07-31,22.907694,121.130139,0.7143327
C0SB40,興隆,2026-07-31,22.913661,121.257469,0.9697125
467050,新屋,2026-07-31,25.006725,121.047492,0.021883093
C0C710,大溪永福,2026-07-31,24.892936,121.324975,0.024682894
C0FA20,溫寮,2026-07-31,24.372177,120.583125,0.023802316
C0V640,湖內,2026-07-31,22.887139,120.2445,0.08017078
C0R910,下寮,2026-07-31,22.3929,120.5548,0.06119012
C0Z020,明里,2026-07-31,23.208717,121.262342,0.14222723
C0M770,嘉義梅山,2026-07-31,23.585398,120.555587,0.62417835
C0C660,楊梅,2026-07-31,24.912375,121.143047,0.027969928
C0SD40,牛頭山,2026-07-31,22.676661,121.506944,0.08604711
C1E511,新開,2026-07-31,24.347703,120.827019,0.5112975
G2F820,農試所(霧峰),2026-07-31,24.031261,120.688133,0.14084142
C2M990,大巃頂,2026-07-31,23.5547,120.61439,1.3819496e-06
C1I070,和社,2026-07-31,23.591131,120.888861,0.9957915
C2E990,新坪頂,2026-07-31,24.30201,120.8574,0.94987166
C0TA80,立霧山,2026-07-31,24.183258,121.641899,0.25132048
C2F000,大肚,2026-07-31,24.15295,120.572117,0.3239835
C1S850,豐南,2026-07-31,23.122139,121.262389,0.9981191
C2M9B0,西興,2026-07-31,23.2428,120.57617,0.9459894
C2A920,富貴角,2026-07-31,25.263783,121.565258,0.05949961
C0T960,光復,2026-07-31,23.660694,121.424964,0.5621242
C0F9M0,豐原,2026-07-31,24.254322,120.720692,0.11799649
C0R720,旭海,2026-07-31,22.205403,120.887614,0.19046581
C0V710,苓雅,2026-07-31,22.622742,120.330669,0.074618295
C0C740,觀音工業區,2026-07-31,25.064764,121.114856,0.022575751
CAC040,拉拉山,2026-07-31,24.699317,121.427133,1.2435345e-07
C0V790,萬山,2026-07-31,22.905944,120.688056,0.27610198
U2HA30,臺大和社,2026-07-31,23.590856,120.888864,0.9957915
C2H9K0,屯原,2026-07-31,24.067969,121.209389,1.1998782e-06
C0AJ90,澳底,2026-07-31,25.0552,121.9253,0.27955338
C0Z100,東華,2026-07-31,23.89525,121.549833,0.6477177
C0G970,三豐,2026-07-31,23.882,120.2895,0.01701284
C0V900,汕尾,2026-07-31,22.4782,120.4151,0.08472812
C1R630,龍泉,2026-07-31,22.66701,120.59091,0.1259153
C1AC50,關渡,2026-07-31,25.133486,121.469331,0.05406253
C0C800,四稜,2026-07-31,24.64733,121.4293,0.957502
C0F9I0,神岡,2026-07-31,24.272481,120.658314,0.07579713
C0K460,斗南,2026-07-31,23.678734,120.478359,0.09865195
C2O810,曾文,2026-07-31,23.219681,120.497328,0.08430809
467280,後龍,2026-07-31,24.648563,120.831834,0.031422615
C1F9J1,清水林,2026-07-31,24.071242,120.820419,0.94308555
C2A650,火燒寮,2026-07-31,25.002719,121.742892,0.21648993
466930,竹子湖,2026-07-31,25.162078,121.544547,0.8714982
C1I220,樟湖,2026-07-31,23.905333,120.846983,0.00021973957
C0I390,仁愛,2026-07-31,24.022122,121.132206,2.999346e-05
C0Z300,東里,2026-07-31,23.26853,121.30547,0.106590115
C1V590,新發,2026-07-31,23.057019,120.646064,0.9882692
C0K510,水林,2026-07-31,23.572924,120.24597,0.048406165
72S590,東改賓朗果園,2026-07-31,22.813889,121.071278,0.58521825
82A750,茶改北部分場,2026-07-31,24.955778,121.631222,0.09928088
C1A750,石碇服務區,2026-07-31,25.00872,121.646242,0.2581767
C0X300,鹿寮,2026-07-31,23.386047,120.477331,0.15154526
C0K590,雲林東勢,2026-07-31,23.674192,120.255721,0.03134493
C2K310,港尾布雞,2026-07-31,23.74834,120.38439,0.10216753
C0A570,桶後,2026-07-31,24.848222,121.597992,0.5297381
C0G720,溪州,2026-07-31,23.851589,120.499093,0.10214036
C1V160,達卡努瓦,2026-07-31,23.279811,120.705319,0.018782448
C2M410,馬頭山,2026-07-31,23.324361,120.582017,0.66098064
C0V850,蚵仔寮,2026-07-31,22.7256,120.2527,0.047340114
C0S740,池上,2026-07-31,23.119628,121.209469,0.95090336
C1V390,尖山,2026-07-31,22.813153,120.367789,0.056787755
C0AH70,松山,2026-07-31,25.04871,121.55042,0.38775364
C0N010,鯤鯓國小,2026-07-31,23.1879,120.0889,0.034150265
C0SA60,知本（水試所）,2026-07-31,22.702394,121.082761,0.100446686
C0T9I0,豐濱,2026-07-31,23.583897,121.514806,0.7355524
C0V950,五指寮林道3.5K,2026-07-31,23.136775,120.64028,0.9939728
C0UB00,淡江大學蘭陽校園,2026-07-31,24.823239,121.730383,0.97494507
C0W240,九宮,2026-07-31,24.423753,118.240186,0.03263854
C0T9N0,富里,2026-07-31,23.171639,121.249378,0.15538268
U2HA50,臺大竹山,2026-07-31,23.756972,120.681556,0.13685858
C0V840,鳳鼻頭,2026-07-31,22.5083,120.3591,0.07874306
C0X140,西港,2026-07-31,23.125608,120.203108,0.07175546
72D080,桃改五峰分場,2026-07-31,24.612194,121.157167,0.9893117
C2H9P0,伊拿谷,2026-07-31,23.963211,121.088264,0.26274255
C2K250,崙背,2026-07-31,23.75553,120.31893,0.03569676
C2H9F0,柑林,2026-07-31,24.018658,120.847072,0.23810914
C0TA20,加灣,2026-07-31,24.082025,121.608944,0.09304529
C0V530,阿蓮,2026-07-31,22.883208,120.327508,0.10864732
C0FB30,八仙山苗圃,2026-07-31,24.192719,121.001366,0.9131676
C0E791,卓蘭,2026-07-31,24.3126,120.8244,0.5559971
C2R260,春日,2026-07-31,22.370361,120.628306,0.77910006
C1I030,武界,2026-07-31,23.913225,121.052483,0.5162486
C0R520,崁頂,2026-07-31,22.514781,120.506914,0.090643466
C0R341,牡丹,2026-07-31,22.130036,120.792639,0.085458525
C0R930,萬丹,2026-07-31,22.5885,120.4851,0.07764413
C0S760,紅石,2026-07-31,23.069131,121.126219,8.825457e-06
C2C410,中央大學,2026-07-31,24.967652,121.185165,0.027260758
C1M610,石磐龍,2026-07-31,23.496606,120.663506,0.95265806
C2C830,中德,2026-07-31,24.981862,121.291344,0.028063029
C0C790,東眼山,2026-07-31,24.8284,121.40888,0.9777701
C0UA10,鴛鴦湖,2026-07-31,24.590269,121.412228,5.418118e-08
C0R800,丹路,2026-07-31,22.204481,120.750989,0.1245843
C2R240,萬巒,2026-07-31,22.527306,120.625111,0.051379267
C0G920,永靖,2026-07-31,23.924703,120.547533,0.05556335
C2M950,太和,2026-07-31,23.538372,120.702961,0.16833872
C1A630,下盆,2026-07-31,24.771003,121.538622,0.8751362
B2N890,畜產試驗所,2026-07-31,23.058972,120.336406,0.10830442
C0UA30,白嶺,2026-07-31,24.527819,121.519031,0.0010574971
467571,新竹,2026-07-31,24.828575,121.01455,0.03834888
C1V580,溪南(特生中心),2026-07-31,23.084972,120.788475,3.6448068e-07
C1T970,大農,2026-07-31,23.615233,121.413331,0.3906568
C0R650,竹田,2026-07-31,22.58486,120.54344,0.10271964
C1H900,清流,2026-07-31,24.080775,120.962997,0.36143726
C1C510,水尾,2026-07-31,24.940081,121.087161,0.02447358
C2N170,茅港尾,2026-07-31,23.2061,120.2624,0.07740976
C0F9X0,大雅(中科園區),2026-07-31,24.21528,120.62445,0.04923853
C0SB60,白守蓮,2026-07-31,23.126769,121.401914,0.8325759
C0O970,虎頭埤,2026-07-31,23.021375,120.347878,0.10233193
C0C730,中大臨海站,2026-07-31,24.966126,121.008581,0.02749214
C0X250,新營,2026-07-31,23.310689,120.316681,0.07253019
C0V700,三民,2026-07-31,22.645017,120.311233,0.051929634
C0U870,大礁溪,2026-07-31,24.791042,121.675047,0.9977596
C0E870,高鐵苗栗,2026-07-31,24.60725,120.826094,0.031348594
C2S890,關山,2026-07-31,23.0395,121.175017,0.91818255
C0TA30,鹽寮,2026-07-31,23.845606,121.592664,0.64505357
C0M860,新美,2026-07-31,23.338017,120.683169,0.98851025
C1E701,八卦,2026-07-31,24.491756,120.927619,0.85003245
C2TA90,加納納,2026-07-31,23.466421,121.359867,0.7850098
C0I420,國姓,2026-07-31,24.037803,120.855072,0.31568778
C2D720,關西工作站,2026-07-31,24.757275,121.184792,0.084073685
C2AK30,信賢,2026-07-31,24.84108,121.53492,0.6640818
C0S960,香蘭,2026-07-31,22.587569,120.993375,0.5838508
467620,蘭嶼,2026-07-31,22.0369,121.55843,0.12724689
C2UC40,中城,2026-07-31,24.62865,121.74745,0.19111979
72G600,臺中農改場,2026-07-31,24.003028,120.534389,0.06661153
C0V940,美瓏山,2026-07-31,23.1197,120.74731,0.00028836745
C0Z210,瑞穗,2026-07-31,23.5239,121.39021,0.679867
C0M820,達邦,2026-07-31,23.453994,120.749517,0.9855487
C0V860,南寮,2026-07-31,22.7616,120.2339,0.047284316
C0G740,大城,2026-07-31,23.852487,120.320935,0.016552541
C0R920,塭仔,2026-07-31,22.4169,120.5197,0.06581363
C0R470,高樹,2026-07-31,22.826389,120.600806,0.14670256
C0R680,佳樂水,2026-07-31,21.993578,120.861633,0.094591156
C1O870,大棟山,2026-07-31,23.31157,120.52226,0.00010267142
C0D360,梅花,2026-07-31,24.678347,121.208558,0.9295246
C0Z190,富世,2026-07-31,24.14743,121.6297,0.70098186
C0AI10,屈尺,2026-07-31,24.92184,121.54475,0.23786104
B2U990,畜試東區分所,2026-07-31,24.669039,121.832561,0.1472492
C0SB80,長濱漁港,2026-07-31,23.313644,121.459994,0.80277896
C0TA50,和仁,2026-07-31,24.241394,121.712472,0.65523446
C2AK40,漁光,2026-07-31,24.96875,121.72132,0.6361359
C0V910,大樹,2026-07-31,22.684645,120.432803,0.19767788
C1R610,西大武山,2026-07-31,22.617719,120.7322,0.04763191
C0K500,元長,2026-07-31,23.642858,120.31966,0.03134493
C0G900,線西,2026-07-31,24.143358,120.443536,0.029615236
C0M700,竹崎,2026-07-31,23.526178,120.555508,0.54517484
C2E880,三義,2026-07-31,24.405478,120.749819,0.6077416
C0C720,竹圍,2026-07-31,25.112692,121.239824,0.027391788
C0F9P0,清水,2026-07-31,24.312297,120.562242,0.03310675
C0Z150,吉安光華,2026-07-31,23.930925,121.595153,0.6595799
C0FA80,小雪山天池,2026-07-31,24.28025,121.02627,1.7193956e-08
467300,東吉島,2026-07-31,23.25727,119.66762,0.34639415
C1D640,外坪(五指山),2026-07-31,24.644447,121.090961,0.98577607
C2R9A0,高士國小,2026-07-31,22.12553,120.84653,0.11721944
C0F9O0,潭子,2026-07-31,24.213106,120.703933,0.07317299
C2H9R0,卓社,2026-07-31,23.887894,121.000086,8.0355926e-07
72T250,花蓮農改場,2026-07-31,23.975222,121.563889,0.65894264
C0E780,銅鑼,2026-07-31,24.489681,120.790853,0.0498188
C1T950,太安,2026-07-31,23.666719,121.370128,0.9723439
C0E830,苑裡,2026-07-31,24.439714,120.653053,0.02270272
467270,田中,2026-07-31,23.873803,120.581286,0.11280769
C0SA10,檳榔四格山,2026-07-31,22.810031,121.109308,0.9159213
C1T830,布洛灣,2026-07-31,24.17184,121.57127,0.19774622
C0F970,大坑,2026-07-31,24.173142,120.722289,0.054395773
C1U920,思源,2026-07-31,24.393125,121.347214,0.00024438163
C2H9Y0,松茗,2026-07-31,23.8167,120.650765,0.38769305
C0A931,三和,2026-07-31,25.233153,121.595236,0.07338941
C0I010,廬山,2026-07-31,24.033311,121.181808,0.3019167
C2M940,日野賀,2026-07-31,23.434056,120.727169,0.893566
C0R860,鼻頭,2026-07-31,22.1043,120.8979,0.11892432
C2I260,北坑,2026-07-31,23.92463,121.00683,0.99701095
C0V970,花菓,2026-07-31,23.034775,120.68415,0.2844668
C0UB20,壯圍,2026-07-31,24.7359,121.8163,0.1201538
C0R790,九棚,2026-07-31,22.14195,120.889281,0.092881545
C0W110,東莒,2026-07-31,25.9652,119.98069,0.00038556466
C1U930,粉鳥林,2026-07-31,24.497088,121.842479,0.6089996
C0S830,長濱,2026-07-31,23.286817,121.411975,0.72527325
C1F9F1,伯公龍,2026-07-31,24.272392,120.849047,0.8914506
C0UB90,太平山莊,2026-07-31,24.494171,121.536209,1.698392e-08
C0E810,西湖,2026-07-31,24.562947,120.7485,0.021180132
C1I440,新高口,2026-07-31,23.478744,120.878939,7.258794e-08
C0O840,王爺宮,2026-07-31,23.222064,120.40085,0.082200415
C0T9G0,鳳林山,2026-07-31,23.735269,121.420131,0.99924076
C0X080,佳里,2026-07-31,23.173039,120.145086,0.034216944
C0FB70,大甲溪埔,2026-07-31,24.370625,120.620067,0.023338279
C0Z310,清水斷崖,2026-07-31,24.218294,121.689142,0.82025594
C0M680,太保,2026-07-31,23.455062,120.331455,0.069285244
C1S820,金峰,2026-07-31,22.590969,120.933236,0.36505318
C0AD10,八里,2026-07-31,25.150211,121.403947,0.074604765
C2K240,草嶺,2026-07-31,23.59555,120.693461,0.9652095
C1SA70,都蘭,2026-07-31,22.87794,121.226881,0.7391876
C0K440,二崙,2026-07-31,23.772797,120.408944,0.110597946
C1A760,坪林交控,2026-07-31,24.94284,121.713442,0.14822325
C0F9N0,大里,2026-07-31,24.092464,120.701378,0.14146654
C0SA90,達仁林場,2026-07-31,22.264347,120.823972,0.069900304
C1R290,石門山,2026-07-31,22.112611,120.756597,0.08373459
42HA10,萬大發電廠,2026-07-31,23.978875,121.139639,0.0075487597
C0R890,山海,2026-07-31,21.9878,120.7091,0.092838004
C0T9A0,月眉山,2026-07-31,23.809928,121.539828,0.9370286
C0AC70,信義,2026-07-31,25.037822,121.564597,0.39132205
C0K560,棋山,2026-07-31,23.68645,120.603417,0.1295874
C2FB50,出雲,2026-07-31,24.206469,120.902794,0.9364765
C1Z240,中平林道,2026-07-31,23.42115,121.26763,0.04107242
U2H480,溪頭,2026-07-31,23.670306,120.798194,0.06524788
C0M880,好美里,2026-07-31,23.3364,120.138,0.042647064
C0T9E0,大坑,2026-07-31,23.880628,121.581981,0.49998116
C0K530,臺西,2026-07-31,23.701547,120.197559,0.022552503
C1E900,國一N128K,2026-07-31,24.560997,120.844186,0.031522702
C0AJ50,水湳洞,2026-07-31,25.123695,121.862238,0.27582645
C0AI20,白沙灣,2026-07-31,25.283128,121.519058,0.06874773
C2V310,美濃,2026-07-31,22.898792,120.51907,0.16849883
C0A860,大坪,2026-07-31,25.165914,121.632969,0.19240613
C1U850,觀音海岸,2026-07-31,24.38319,121.77856,0.31361166
C2K610,草嶺石壁,2026-07-31,23.602469,120.707731,0.9159661
C0U950,鶯子嶺,2026-07-31,24.89754,121.79244,0.99774414
C0O900,善化,2026-07-31,23.112883,120.297219,0.10846394
C0K550,蔦松,2026-07-31,23.514319,120.229736,0.047785927
E2P980,林試六龜中心,2026-07-31,22.991703,120.645722,0.9271075
C0E590,通霄,2026-07-31,24.471892,120.704622,0.01877015
C1I310,西巒,2026-07-31,23.754486,120.883956,0.99791676
C0A550,泰平,2026-07-31,24.971197,121.823711,0.13331196
C2UC30,金洋,2026-07-31,24.42465,121.74573,0.39218295
C0I360,水里,2026-07-31,23.812553,120.849792,0.15393746
C0R830,高士,2026-07-31,22.121825,120.836781,0.09088911
C1I101,溪頭,2026-07-31,23.661789,120.807647,7.2730677e-07
C0AJ20,野柳,2026-07-31,25.20703,121.690021,0.11797894
C0B060,暖暖,2026-07-31,25.0957,121.7403,0.37492383
C1H920,長豐,2026-07-31,24.102039,120.879897,0.9240205
C2S9B0,利吉,2026-07-31,22.86246,121.15486,0.6990021
C0V360,內門,2026-07-31,22.975481,120.466769,0.13825345
C0R850,林邊,2026-07-31,22.4634,120.5339,0.063167706
C0E930,龍鳳,2026-07-31,24.700034,120.859125,0.026903195
C0U910,冬山,2026-07-31,24.63373,121.7937,0.1472492
C1E721,泰安,2026-07-31,24.489017,120.968036,0.057542834
82H320,茶改中部分場,2026-07-31,23.875611,120.913583,0.8673887
C0M750,布袋,2026-07-31,23.380878,120.167789,0.04451875
C1S860,利嘉,2026-07-31,22.809417,121.050528,0.9616697
E2S980,林試太麻里1,2026-07-31,22.598922,120.980044,0.23357967
C0X170,關廟,2026-07-31,22.963017,120.327797,0.10880785
C0V720,林園,2026-07-31,22.507747,120.394511,0.07815922
C2M9G0,沄水,2026-07-31,23.38293,120.52666,0.55322856
C1I510,線浸林道,2026-07-31,23.761508,120.832956,0.0037623206
C0D690,外湖,2026-07-31,24.917735,120.968711,0.029632062
C0C750,新興坑尾,2026-07-31,25.0061,121.0971,0.022334117
B2Q810,畜試南區分所,2026-07-31,21.945583,120.802167,0.094591156
C0S790,金崙,2026-07-31,22.538122,120.966875,0.8702639
C0AH90,福山植物園,2026-07-31,24.760717,121.58135,0.8531534
C0I540,奇萊稜線,2026-07-31,24.109231,121.326456,1.6017271e-08
C0M850,表湖,2026-07-31,23.24186,120.64166,0.992326
C0S770,大溪山,2026-07-31,22.478475,120.943325,0.20369244
C0AG80,中和,2026-07-31,24.991622,121.491792,0.22165683
C0T790,大禹嶺,2026-07-31,24.186117,121.316086,1.7492926e-08
C0T9B0,水源,2026-07-31,23.991861,121.537169,0.9801381
C0R840,牡丹池山,2026-07-31,22.168389,120.841225,0.080724634
C1I131,桶頭,2026-07-31,23.641944,120.654117,0.16669352
CAL110,布袋國中,2026-07-31,23.35893,120.18026,0.042647064
C2M9D0,何竹子腳,2026-07-31,23.53641,120.38203,0.08507789
C0Z290,赤柯山,2026-07-31,23.36893,121.38293,0.97968316
C0X280,將軍,2026-07-31,23.214999,120.13577,0.03809937
C0S690,太麻里,2026-07-31,22.60902,120.98533,0.9789664
C0U880,北關,2026-07-31,24.9072,121.8734,0.3437542
CAW010,東引,2026-07-31,26.3588,120.4836,0.62204874
C0G810,埔心,2026-07-31,23.947633,120.525456,0.05650025
C0U970,大福,2026-07-31,24.80064,121.81389,0.12593243
C2H9N0,仁愛東眼,2026-07-31,24.026875,121.1205,8.7782176e-08
C1E670,南礦,2026-07-31,24.538278,121.002836,0.6124595
C0M520,東後寮,2026-07-31,23.369908,120.248065,0.04783503
C1E461,松安,2026-07-31,24.397972,120.986022,0.25847605
C2N160,西拉雅風管處,2026-07-31,23.189481,120.335297,0.06295687
C2O850,環湖,2026-07-31,23.148665,120.4186,0.06686271
C2M970,碧湖,2026-07-31,23.568632,120.624165,1.506338e-06
C0A640,石碇,2026-07-31,24.993969,121.662917,0.14822325
E2S960,林試太麻里2,2026-07-31,22.598,120.99775,0.56194717
C0F9Y0,桃山,2026-07-31,24.432739,121.303808,1.5225915e-08
C1I020,萬大,2026-07-31,23.979817,121.132261,1.8463568e-05
C2UC20,長嶺,2026-07-31,24.70894,121.61162,0.9464949
C0U940,羅東,2026-07-31,24.68184,121.74934,0.12637478
C0M650,朴子,2026-07-31,23.43463,120.23902,0.05324714
C1I500,大尖山,2026-07-31,23.858572,120.994889,4.561164e-08
C0FB40,中橫21.6k,2026-07-31,24.2499,121.1455,0.6494024
C0G820,田尾,2026-07-31,23.901669,120.509389,0.05650025
E2K600,四湖植物園,2026-07-31,23.676986,120.163433,0.022319961
C0S730,綠島,2026-07-31,22.6672,121.47533,0.06895135
12Q970,東港工作站,2026-07-31,22.479997,120.466058,0.064105
C1TA00,太魯閣,2026-07-31,24.15773,121.6236,0.11710191
466920,臺北,2026-07-31,25.037658,121.514853,0.38775364
C0R600,舊泰武,2026-07-31,22.588194,120.664944,0.13040483
466910,鞍部,2026-07-31,25.182586,121.529731,0.9756323
C1I230,九份二山,2026-07-31,23.961944,120.845,0.9061045
C2M810,里佳,2026-07-31,23.389125,120.716647,0.11278247
C2A660,瑞芳,2026-07-31,25.113169,121.801147,0.35101178
C0R270,琉球嶼,2026-07-31,22.332244,120.362236,0.040413044
C2V580,瑞山,2026-07-31,22.90304,120.43424,0.16999553
C1T990,高寮,2026-07-31,23.394239,121.356808,0.77787817
C0G620,芬園,2026-07-31,24.015678,120.6213,0.072163925
C1Z140,荖溪,2026-07-31,23.890575,121.45964,0.9784403
C1I201,中心崙,2026-07-31,23.728722,120.712097,0.99094737
C1I400,凌霄,2026-07-31,24.018778,121.004456,1.0292355e-07
C1M640,十字,2026-07-31,23.492153,120.753683,0.00015056081
G2P820,農試鳳山分所,2026-07-31,22.646611,120.356083,0.07142465
C0Z270,蕃薯寮,2026-07-31,23.73835,121.540108,0.49302724
C2E420,竹南,2026-07-31,24.70898,120.88897,0.029155003
C2D480,打鐵坑,2026-07-31,24.849664,121.150789,0.11927001
C0FB10,出雲山苗圃,2026-07-31,24.23105,120.90475,0.9130131
C0F9Q0,外埔,2026-07-31,24.347817,120.705686,0.08485012
C0K580,高鐵雲林,2026-07-31,23.737456,120.417944,0.10216753
C2I090,鳳凰,2026-07-31,23.728081,120.787347,0.99289817
C0U990,員山,2026-07-31,24.74435,121.72247,0.12220497
C0V770,大社,2026-07-31,22.730306,120.346639,0.05353011
C0X120,麻豆,2026-07-31,23.183289,120.248611,0.069880456
C0C670,龍潭,2026-07-31,24.870056,121.221389,0.08131714
C0D680,香山濕地,2026-07-31,24.783581,120.914988,0.029632062
C0S980,勝林山,2026-07-31,22.430439,120.8938,0.7365758
C0V730,大寮,2026-07-31,22.605614,120.395717,0.07261219
C0R570,麟洛,2026-07-31,22.65078,120.52719,0.17979006
C2M930,石卓,2026-07-31,23.478744,120.702264,0.00021377724
C0G9B0,和美,2026-07-31,24.105169,120.492131,0.03705591
C2I240,外大坪,2026-07-31,23.9587,120.91788,0.9782032
CAG100,王功漁港,2026-07-31,23.96824,120.32586,0.016397202
C0X290,北門,2026-07-31,23.267772,120.125481,0.03809937
C2F930,大甲,2026-07-31,24.347667,120.640403,0.034247212
C0D650,湖口,2026-07-31,24.904794,121.043628,0.049560007
C0U780,五結,2026-07-31,24.68637,121.79794,0.1472492
C1I250,鯉潭,2026-07-31,23.961922,120.991131,0.9927411
C0R130,阿禮,2026-07-31,22.742908,120.743678,0.9960614
C0X100,臺南市北區,2026-07-31,23.010394,120.194228,0.0901458
C0S920,金峰嘉蘭,2026-07-31,22.594789,120.960825,0.7691523
C0V490,新興,2026-07-31,22.627422,120.298803,0.053013254
C0F9K0,大安,2026-07-31,24.345061,120.588025,0.032153923
C2E970,八甲,2026-07-31,24.535811,120.795983,0.046326995
C0V440,鳳山,2026-07-31,22.646653,120.356122,0.07142465
C1T940,大觀,2026-07-31,23.714206,121.373133,0.86667
C0E740,造橋,2026-07-31,24.637056,120.864778,0.03223595
C0R100,尾寮山,2026-07-31,22.833111,120.683889,0.9959452
A2K630,臺大雲林校區,2026-07-31,23.730628,120.423903,0.09974505
467990,馬祖,2026-07-31,26.169467,119.923158,0.007970666
C0D580,寶山,2026-07-31,24.735006,121.025192,0.05228299
E2P990,林試扇平站,2026-07-31,22.9677,120.6857,0.99270326
C0AI30,三重,2026-07-31,25.057328,121.500629,0.3530984
C0AH00,汐止,2026-07-31,25.066881,121.658778,0.31451315
C1Z040,立山,2026-07-31,23.443356,121.327375,0.9748009
466881,新北,2026-07-31,24.959207,121.525196,0.23066011
C0W130,花嶼,2026-07-31,23.40007,119.32276,0.99036133
C0A950,鼻頭角,2026-07-31,25.129036,121.923372,0.7194773
C0K470,林內,2026-07-31,23.748675,120.609642,0.12664732
C2F990,摩天嶺,2026-07-31,24.322458,120.936819,0.9203147
C2E430,南庄,2026-07-31,24.601775,121.000214,0.16423737
82C160,茶改場,2026-07-31,24.908472,121.185333,0.02748321
C0H9Z0,鹿林山,2026-07-31,23.468688,120.873288,3.0268218e-08
C2TB60,南安,2026-07-31,23.29818,121.26157,0.1114274
C0Z320,清水林道,2026-07-31,23.27125,121.188272,0.98674476
C0R760,南仁湖,2026-07-31,22.084681,120.863353,0.08438541
C0M670,大林,2026-07-31,23.600616,120.45841,0.09749728
C0M800,茶山,2026-07-31,23.299075,120.664767,0.95057845
C0A9C0,天母,2026-07-31,25.117494,121.537169,0.38708213
72K220,南改斗南分場,2026-07-31,23.634556,120.477333,0.09632305
72AI40,桃改樹林分場,2026-07-31,24.944503,121.386972,0.2808252
C0S910,蘭嶼燈塔,2026-07-31,22.081197,121.503117,0.0844431
C0B050,八斗子,2026-07-31,25.144754,121.79167,0.44598743
C0U900,內城,2026-07-31,24.71813,121.68766,0.13182013
C0X320,柳營,2026-07-31,23.253328,120.375253,0.06810959
C0M790,新港,2026-07-31,23.553269,120.345728,0.058767576
C0F9T0,西屯,2026-07-31,24.179494,120.641275,0.04442938
C0E950,松安,2026-07-31,24.39792,120.98599,0.25847605
C0SA30,都歷,2026-07-31,23.020333,121.323642,0.9593156
C0C620,蘆竹,2026-07-31,25.084275,121.265767,0.027404701
C0R730,大坪頂,2026-07-31,22.024633,120.69355,0.0696104
C0AJ40,石門,2026-07-31,25.273672,121.601198,0.056672316
C0E750,苗栗,2026-07-31,24.564569,120.824575,0.030740201
C0T870,鯉魚潭,2026-07-31,23.935639,121.508944,0.68398535
C1V170,排雲,2026-07-31,23.463619,120.954147,2.4699252e-08
C2H950,中寮,2026-07-31,23.884447,120.766406,0.16107647
C0R350,貓鼻頭,2026-07-31,21.921774,120.7358,0.08651702
C0V660,岡山,2026-07-31,22.797078,120.294958,0.045046713
C1H941,雙冬,2026-07-31,23.967378,120.802189,0.988682
C0AJ70,田寮,2026-07-31,25.2698,121.4886,0.068209834
C0AI00,五股,2026-07-31,25.07445,121.42728,0.66019267
C0Z280,德武,2026-07-31,23.47426,121.41071,0.76671195
C2RA10,大新,2026-07-31,22.67558,120.57788,0.1259153
C0C460,復興,2026-07-31,24.820208,121.352281,0.60691595
C2AA10,中八仙,2026-07-31,25.11576,121.49199,0.35367024
C0M9H0,水社寮,2026-07-31,23.50418,120.66035,0.77252203
E2H360,蓮華池,2026-07-31,23.918333,120.885278,0.9906945
C0M640,中埔,2026-07-31,23.42538,120.5229,0.44965824
C2C810,八德蔬果,2026-07-31,24.97858,121.28187,0.028063029
C2M9F0,安溪寮,2026-07-31,23.350334,120.208039,0.042647064
C0W140,金沙,2026-07-31,24.488292,118.408778,0.026837407
C2A540,四堵,2026-07-31,24.8926,121.745736,0.14331138
C0ACA0,新莊,2026-07-31,25.051478,121.446756,0.29038897
C0R220,潮州,2026-07-31,22.534361,120.54,0.082737446
U2HA40,臺大內茅埔,2026-07-31,23.689722,120.851117,0.5361992
467490,臺中,2026-07-31,24.145736,120.684075,0.05008965
C0UB60,明池,2026-07-31,24.650688,121.475277,0.96969616
C0U960,翠峰湖,2026-07-31,24.510856,121.608044,2.0457819e-08
E2HA20,林試畢祿溪站,2026-07-31,24.226944,121.308522,1.5295706e-07
C2M9A0,大華,2026-07-31,23.4824,120.67491,0.983144
C0V890,前鎮,2026-07-31,22.5718,120.3117,0.078522615
C1F941,雪嶺,2026-07-31,24.280586,121.026642,1.7193956e-08
C2H9E0,國姓南港,2026-07-31,23.911108,120.846556,4.195469e-05
C0AC80,文山,2026-07-31,25.00235,121.575728,0.344202
C0F9R0,龍井,2026-07-31,24.184536,120.528972,0.024386888
C0M760,民雄,2026-07-31,23.551754,120.428457,0.09749728
C0UA40,西德山,2026-07-31,24.560647,121.752608,0.99964136
C2TA70,赤科坪,2026-07-31,23.39885,121.39168,0.99965507
C1T920,中興,2026-07-31,23.769503,121.498653,0.6264489
C0D550,雪霸,2026-07-31,24.526972,121.11605,4.8520842e-08
C0SD90,龍泉苗圃,2026-07-31,23.16664,121.18011,0.7573631
C2F860,梨山,2026-07-31,24.247522,121.243669,1.2680887e-07
C0R320,車城,2026-07-31,22.0744,120.716247,0.08152649
C1S870,南美山,2026-07-31,23.15025,121.382333,0.72392136
C0B020,基隆嶼,2026-07-31,25.19141,121.78391,0.42424566
C1U501,牛鬥,2026-07-31,24.637836,121.573656,0.33173254
C0M730,嘉義市東區,2026-07-31,23.457673,120.460531,0.104471214
C2R990,泰武,2026-07-31,22.60686,120.69765,0.76066077
C0S700,知本,2026-07-31,22.684866,121.005642,0.99124664
C1N001,沙崙,2026-07-31,22.935472,120.309406,0.10963842
C0V760,橋頭,2026-07-31,22.757806,120.30575,0.05356452
C2V570,吉東,2026-07-31,22.85418,120.54539,0.13739242
C0G960,福寶,2026-07-31,24.0443,120.3814,0.04635844
C0X210,白河,2026-07-31,23.347466,120.414427,0.07464421
C0S810,東河,2026-07-31,22.972672,121.303986,0.9723146
C2R170,屏東,2026-07-31,22.66027,120.49403,0.17979006
C0R670,楓港,2026-07-31,22.190131,120.692156,0.32401437
C0FA50,霧峰,2026-07-31,24.0419,120.6995,0.1413865
C0UB10,蘇澳,2026-07-31,24.5969,121.8571,0.69101614
C0G950,防潮門,2026-07-31,24.1835,120.4871,0.029615236
C0M740,六腳,2026-07-31,23.492871,120.290625,0.06471706
C1R250,力里,2026-07-31,22.428117,120.629228,0.03874933
C0K330,虎尾,2026-07-31,23.719183,120.442036,0.100314766
C2FA00,烏石坑,2026-07-31,24.273503,120.947617,0.91872805
C0V620,永安,2026-07-31,22.82315,120.236856,0.04699106
C1I330,楓樹林,2026-07-31,23.986803,121.076117,1.160592e-06
C0W200,湖西,2026-07-31,23.596314,119.67275,0.08734183
72Q010,高雄農改場,2026-07-31,22.709333,120.525889,0.13503878
C2K301,鹿南,2026-07-31,23.643341,120.3683,0.041453935
C0C680,龜山,2026-07-31,25.02846,121.38656,0.9116783
C2V260,月眉,2026-07-31,22.971003,120.539853,0.18422203
C0V450,鳳森,2026-07-31,22.545064,120.392592,0.06618384
C0FA90,小雪山林道,2026-07-31,24.29515,121.03651,2.0974023e-08
C0U720,南山,2026-07-31,24.43742,121.38167,0.9058527
A2N290,臺南蘭花園區,2026-07-31,23.340258,120.379661,0.06475274
C0R560,新園,2026-07-31,22.5434,120.461558,0.07815922
C0U890,三星,2026-07-31,24.66812,121.65302,0.16596498
C1V300,御油山,2026-07-31,23.001983,120.715364,4.5968193e-07
C0U600,礁溪,2026-07-31,24.817539,121.765608,0.13240503
C1T980,龍澗,2026-07-31,24.023289,121.411328,3.7339225e-05
C0R700,枋山,2026-07-31,22.247814,120.660794,0.44219014
C0D670,海天一線,2026-07-31,24.831986,120.914438,0.031666376
C0SA00,歷坵,2026-07-31,22.520969,120.89185,0.15005828
C0M710,東石,2026-07-31,23.458927,120.15385,0.0449425
C0M780,鹿草,2026-07-31,23.41134,120.30835,0.05262278
C0U520,雙連埤,2026-07-31,24.753033,121.641303,0.9976417
C0B010,七堵,2026-07-31,25.094819,121.71713,0.41339773
C0R480,長治,2026-07-31,22.693128,120.542622,0.122674845
C1V830,國三S383K,2026-07-31,22.781967,120.426475,0.21730162
12Q980,恆春工作站,2026-07-31,22.079678,120.714425,0.08152649
C1O940,東山服務區,2026-07-31,23.286016,120.398472,0.0644935
C1U840,東澳嶺,2026-07-31,24.5378,121.8485,0.93266433
C1D630,飛鳳山,2026-07-31,24.766464,121.119178,0.763311
C0S940,石寧山,2026-07-31,23.223772,121.406639,0.5849806
C0K410,北港,2026-07-31,23.573957,120.292802,0.047069386
C2M620,瑞里,2026-07-31,23.545133,120.675197,0.5922234
C0SB70,小港漁港,2026-07-31,23.158558,121.400431,0.8134405
C2O950,安南,2026-07-31,23.076694,120.144861,0.03893941
C0F0E0,南湖圈谷,2026-07-31,24.363714,121.444667,1.7600021e-08
467610,成功,2026-07-31,23.097486,121.373428,0.9167516
C0G890,伸港,2026-07-31,24.148933,120.484403,0.029212788
C2E540,龍溪,2026-07-31,24.606489,120.783933,0.030340135
C1V200,梅山,2026-07-31,23.268447,120.823556,0.8068142
C0T9H0,加路蘭山,2026-07-31,23.682947,121.5274,0.9996717
C2O930,玉井,2026-07-31,23.126042,120.46055,0.06686271
C1F911,新伯公,2026-07-31,24.221361,120.841069,0.6799037
C0X200,左鎮,2026-07-31,23.056758,120.408522,0.095940605
C2TB50,麻汝,2026-07-31,23.42554,121.39358,0.78422534
C0FA60,鞍馬山工作站,2026-07-31,24.267064,121.000793,3.2651805e-08
C0SB50,叭嗡嗡,2026-07-31,23.047062,121.343223,0.94590026
C2R550,新埤,2026-07-31,22.467947,120.582894,0.047459103
C1F891,稍來,2026-07-31,24.265689,121.001142,3.6289247e-08
C2M9C0,紫雲,2026-07-31,23.494914,120.540253,0.3784644
72N240,七股研究中心,2026-07-31,23.081672,120.062894,0.03901399
C0C700,中壢,2026-07-31,24.977661,121.256375,0.027318507
C0M690,水上,2026-07-31,23.419734,120.388909,0.1095279
C0V690,鼓山,2026-07-31,22.623325,120.275575,0.053013254
C0O860,大內,2026-07-31,23.11885,120.36083,0.10711521
C0Z200,萬榮,2026-07-31,23.709219,121.420106,0.5034627
C0T9D0,和中,2026-07-31,24.26676,121.74103,0.65041333
C2S9A0,北份子寮,2026-07-31,22.78561,121.07813,0.1264173
C1O921,楠西,2026-07-31,23.183511,120.484083,0.069424614
C0AJ30,淡水觀海,2026-07-31,25.184591,121.408616,0.07623594
C0V810,左營,2026-07-31,22.67491,120.28491,0.051929634
C0UA70,桃源谷,2026-07-31,24.962606,121.888875,0.13581255
C0X130,官田,2026-07-31,23.193217,120.315422,0.06395762
C1H000,翠峰,2026-07-31,24.109397,121.205211,2.6084027e-08
C0UA90,石城,2026-07-31,24.980444,121.951214,0.44216368
C1E681,南勢山,2026-07-31,24.421669,120.923831,0.97979534
C0A9F0,內湖,2026-07-31,25.079422,121.57545,0.39132205
C0K291,宜梧,2026-07-31,23.536281,120.169329,0.039058656
C1K540,口湖,2026-07-31,23.585344,120.180517,0.03910268
C0R780,滿州,2026-07-31,22.024403,120.839892,0.114795305
C0V870,文安,2026-07-31,22.8025,120.2164,0.047340114
C0U650,玉蘭,2026-07-31,24.675286,121.587061,0.9493785
C0R640,東港,2026-07-31,22.46247,120.44074,0.07874306
C0AJ80,板橋,2026-07-31,25.0107,121.4489,0.22165689
C0S660,下馬,2026-07-31,23.150427,121.070312,0.99979556
C2N190,烏樹,2026-07-31,23.32393,120.36989,0.046596948
C1H9B1,阿眉,2026-07-31,24.1263,120.994672,0.00025311776
C0UA20,多加屯,2026-07-31,24.368614,121.373189,1.8539543e-08
C0E730,頭份,2026-07-31,24.688247,120.912206,0.028631728
72V140,高改旗南分場,2026-07-31,22.857861,120.516667,0.15794891
C2R490,九如,2026-07-31,22.74049,120.490555,0.13503878
C0K480,莿桐,2026-07-31,23.761192,120.502372,0.11775592
C0U980,坪林石牌,2026-07-31,24.86478,121.77396,0.9976284
C0T900,西林,2026-07-31,23.8119,121.441458,0.6578175
C1I150,青雲,2026-07-31,23.793361,120.949378,0.30785605
C2E980,和興,2026-07-31,24.505319,120.923016,0.66781443
467350,澎湖,2026-07-31,23.565503,119.563094,0.31891468
C0G800,埔鹽,2026-07-31,24.000394,120.431683,0.045469895
C0H960,草屯,2026-07-31,23.973672,120.68085,0.16966844
C1V780,多納林道,2026-07-31,22.888028,120.737917,0.30960023
C0E920,通霄漁港,2026-07-31,24.498589,120.673876,0.018436357
C0Z330,安通山,2026-07-31,23.290728,121.348528,0.7767989
C0AH10,永和,2026-07-31,25.01125,121.508111,0.21586898
C0AK10,太平里,2026-07-31,25.134937,121.364899,0.24343777
C2G640,鹿港,2026-07-31,24.0753,120.430481,0.037763387
C1E890,國三N149K,2026-07-31,24.463414,120.680019,0.019158777
C1M870,國三N285K,2026-07-31,23.550319,120.505833,0.44800478
C1E480,鳳美,2026-07-31,24.554803,121.034747,0.5423473
C0T9M0,靜浦,2026-07-31,23.455167,121.495028,0.6905339
C2H9M0,發祥,2026-07-31,24.154094,121.164517,0.7981828
C2G9C0,埔南,2026-07-31,23.99124,120.46969,0.045469895
C0AI40,石牌,2026-07-31,25.115597,121.513139,0.39132205
C1F871,上谷關,2026-07-31,24.203483,121.018644,0.91872805
C0TC30,虎頭山,2026-07-31,23.52849,121.33992,0.12693118
C2H9G0,百勝,2026-07-31,24.051142,120.909361,0.993713
C0G880,二水,2026-07-31,23.810742,120.6173,0.107600264
C0R940,加祿堂,2026-07-31,22.3363,120.6217,0.049954098
C0W220,北竿,2026-07-31,26.220358,119.974881,0.008385571
C0O960,崎頂,2026-07-31,22.959547,120.369317,0.105034046
C0TA40,秀林,2026-07-31,24.302864,121.731144,0.99823415
C0S750,向陽,2026-07-31,23.248397,120.986133,2.8069377e-07
C0T9F0,水璉,2026-07-31,23.797131,121.542514,0.702204
C1M600,頭凍,2026-07-31,23.406364,120.603339,5.619786e-06
467660,臺東,2026-07-31,22.752211,121.154586,0.99315095
C1D380,新埔,2026-07-31,24.84745,121.03834,0.049465388
C2G980,田頭村,2026-07-31,23.8263,120.444175,0.110597946
C0R120,上德文,2026-07-31,22.76336,120.70458,0.96320367
C0V750,路竹,2026-07-31,22.854997,120.259439,0.043366816
C0N050,蚵寮,2026-07-31,23.301,120.1104,0.03809937
C2X060,下營,2026-07-31,23.226806,120.256291,0.07740976
72M700,南改鹿草分場,2026-07-31,23.416869,120.283061,0.052235674
C1SA50,利嘉林道,2026-07-31,22.82325,121.009389,2.692107e-07
C0UB70,太平山中間站,2026-07-31,24.542003,121.513453,0.9976829
C0A940,金山,2026-07-31,25.223628,121.643967,0.104261346
C1V340,大津,2026-07-31,22.888322,120.645986,0.19137564
C0W180,七美,2026-07-31,23.219333,119.444892,0.6865027
C1F9C1,白冷,2026-07-31,24.182844,120.929889,0.97160405
K2E710,苗改生物防治研究中心,2026-07-31,24.422861,120.871833,0.1538766
C0N040,蘆竹溝,2026-07-31,23.2344,120.0961,0.03861504
C0M9J0,交力坪,2026-07-31,23.53168,120.64356,0.98924404
C0TB40,崇德,2026-07-31,24.166144,121.657414,0.71015424
C0D760,大坪苗圃,2026-07-31,24.5362,121.1108,0.0457008
C2D430,峨眉,2026-07-31,24.6905,121.017189,0.06273973
C2W230,畜試所澎湖,2026-07-31,23.628342,119.513206,0.12621155
C0R880,後壁湖,2026-07-31,21.9457,120.7457,0.092838004
C1I280,埔中,2026-07-31,23.820778,120.642594,0.46458936
467790,墾丁雷達站,2026-07-31,21.948235,120.808028,0.08884698
C0W190,望安,2026-07-31,23.380564,119.494075,0.8506965
C0Z170,卓溪,2026-07-31,23.3443,121.3029,0.12038072
C0F850,東勢,2026-07-31,24.246428,120.833047,0.53811574
466900,淡水,2026-07-31,25.164889,121.448906,0.06862697
C0I370,魚池,2026-07-31,23.895703,120.94135,0.9899517
C0C630,大溪,2026-07-31,24.882853,121.265547,0.026396
C0A520,山佳,2026-07-31,24.974944,121.402008,0.2809813
C0I110,竹山,2026-07-31,23.761225,120.688156,0.13674709
82H840,茶改南部分場,2026-07-31,23.762528,120.7405,0.22173925
C2SD80,再來山,2026-07-31,23.34371,121.44122,0.80251473
C0TC00,磐石,2026-07-31,24.015008,121.395456,0.0050397413
C0G660,溪湖,2026-07-31,23.94835,120.479122,0.057473075
C1T800,洛韶,2026-07-31,24.204558,121.453956,0.9081754
C1T810,慈恩,2026-07-31,24.192044,121.388386,1.6849501e-08
C1E451,象鼻,2026-07-31,24.368617,120.940228,0.97979534
C0AC60,三峽,2026-07-31,24.939025,121.369728,0.025374655
C0I490,萬大林道,2026-07-31,23.928228,121.091411,3.92203e-08
C1I290,豐丘,2026-07-31,23.668178,120.887417,0.54577285
C1I320,奧萬大,2026-07-31,23.952956,121.178556,0.9932808
C2M910,嘉義大學,2026-07-31,23.471325,120.485903,0.15063064
C0U770,南澳,2026-07-31,24.44935,121.81022,0.6089996
C0TC10,西林林道12.5K,2026-07-31,23.829641,121.41233,0.9976388
C2TB30,吉安,2026-07-31,23.94538,121.54803,0.66796935
C0A980,社子,2026-07-31,25.109508,121.469681,0.54925036
C0V800,六龜,2026-07-31,22.997889,120.633583,0.86063886
C1G9D0,國一S218K,2026-07-31,23.890641,120.493253,0.048081677
C0E570,白沙屯,2026-07-31,24.549447,120.696803,0.020455662
C2F9A0,中竹林,2026-07-31,24.103556,120.751061,0.93860847
C0FA40,臺中電廠,2026-07-31,24.2146,120.4907,0.024453038
C2G9A0,畜試所彰化,2026-07-31,23.86045,120.557964,0.11280769
C0H9C0,合歡山,2026-07-31,24.143442,121.272547,2.0822633e-08
G2M350,農試溪口農場,2026-07-31,23.58565,120.408111,0.08711147
C0U860,頭城,2026-07-31,24.85323,121.8308,0.12192377
C0R580,南州,2026-07-31,22.48591,120.50274,0.064105
C0G780,秀水,2026-07-31,24.03405,120.503869,0.06661153
72N100,臺南農改場,2026-07-31,23.0605,120.342194,0.10728765
C0S900,蘭嶼高中,2026-07-31,22.04909,121.51214,0.07311834
C2TA60,六十石,2026-07-31,23.22477,121.31861,0.9998083
C1F9W0,德基,2026-07-31,24.254783,121.190261,0.00014123887
C2M980,安和,2026-07-31,23.51377,120.31593,0.06471706
C1Z120,壽豐,2026-07-31,23.870853,121.508081,0.6477177
C0W160,烏坵,2026-07-31,24.9944,119.44956,4.7333666e-05
C1I550,國六W023K,2026-07-31,23.979067,120.867742,0.9076449
C0R870,興海,2026-07-31,21.9752,120.8439,0.09459116
C0R140,瑪家,2026-07-31,22.682903,120.686639,0.2986588
C0A530,坪林,2026-07-31,24.938183,121.70975,0.123678066
C0X260,後壁,2026-07-31,23.366358,120.362326,0.06692818
C0Z230,和平,2026-07-31,24.30717,121.77007,0.6618676
C0G770,福興,2026-07-31,24.041289,120.437669,0.045469895
C0H9A0,神木村,2026-07-31,23.532742,120.843667,9.9716526e-05
C0I460,南投,2026-07-31,23.911469,120.687331,0.1678744
C0I480,梅峰,2026-07-31,24.085272,121.173572,1.926244e-07
C2D770,巨埔,2026-07-31,24.84435,121.11442,0.051618837
C2A560,福山,2026-07-31,24.776203,121.502811,0.9292623
C0AH30,五分山,2026-07-31,25.07125,121.780794,0.4817549
C0FA10,松柏,2026-07-31,24.429115,120.617482,0.023339482
72S200,東改班鳩分場,2026-07-31,22.829528,121.077694,0.32178375
72HA00,中改埔里分場,2026-07-31,23.903208,120.963364,0.9924475
C2H9W0,大坪頂農水,2026-07-31,24.043122,120.932781,0.9715217
C0C650,平鎮,2026-07-31,24.897503,121.214636,0.025525648
C0S930,延平,2026-07-31,22.902581,121.084058,0.75361496
C0UA60,樟樹山,2026-07-31,24.41393,121.78325,0.22209217
C2UC10,出水溪,2026-07-31,24.615822,121.652253,0.23158512
C1S670,摩天,2026-07-31,23.199503,121.027,0.9692265
C2C590,觀音,2026-07-31,25.027072,121.153317,0.021804003
C0V630,茄萣,2026-07-31,22.906642,120.182608,0.080654465
466940,基隆,2026-07-31,25.133314,121.740475,0.44078755
C0X050,東河,2026-07-31,23.296598,120.385608,0.06475274
C0R770,保力,2026-07-31,22.071122,120.764111,0.07507633
G2L020,農試嘉義分所,2026-07-31,23.485028,120.473806,0.17756541
C0X240,關子嶺,2026-07-31,23.331169,120.508025,0.77873266
C0I380,集集,2026-07-31,23.828206,120.801467,0.15227689
466990,花蓮,2026-07-31,23.975128,121.613275,0.09360166
C1V220,小關山,2026-07-31,23.154217,120.813603,4.1653944e-08
C1F9G1,慶福山,2026-07-31,24.180853,120.848378,0.8786326
C0FB20,雪山橋,2026-07-31,24.23192,120.9786,6.793833e-08
C0Z250,瑞穗林道,2026-07-31,23.49284,121.30688,0.13577144
C0D590,新豐,2026-07-31,24.87068,120.97721,0.06109284
C2N200,口宵里,2026-07-31,23.15987,120.45988,0.3380622
C0A870,五指山,2026-07-31,25.132153,121.608692,0.9683267
C0UA50,西帽山,2026-07-31,24.555361,121.802628,0.9243909
C2R980,竹田國中,2026-07-31,22.61532,120.52412,0.09546537
C0X160,仁德,2026-07-31,22.968258,120.257689,0.112165354
C1H971,六分寮,2026-07-31,23.92507,120.6378,0.9683974
C2D790,石鹿,2026-07-31,24.56551,121.15841,3.0387845e-08
C0W120,西嶼,2026-07-31,23.5626,119.468436,0.5303992
C0G650,員林,2026-07-31,23.946503,120.585597,0.06748764
C0AD50,鶯歌,2026-07-31,24.951533,121.346294,0.025527466
C2H9Q0,北東眼山,2026-07-31,24.120939,121.189303,6.379644e-06
C2H9T0,名間竹圍,2026-07-31,23.859914,120.637572,0.1649557
C0S990,山豬窟,2026-07-31,22.318619,120.857372,0.06810243
C0X190,安平,2026-07-31,22.993161,120.152181,0.09157346
C0K400,斗六,2026-07-31,23.720583,120.541127,0.11884945
12J990,口湖工作站,2026-07-31,23.589978,120.180394,0.03910268
C0O830,北寮,2026-07-31,23.079561,120.495008,0.15026413
C1D410,白蘭,2026-07-31,24.579364,121.079947,0.27168882
C0S970,加津林,2026-07-31,22.416211,120.926942,0.8683321
C0D700,關西,2026-07-31,24.7977,121.1732,0.08404178
C0U750,龜山島,2026-07-31,24.841667,121.953133,0.13480707
C0R810,內獅,2026-07-31,22.305064,120.642986,0.44219014
C2EA10,拉庫斯,2026-07-31,24.53637,121.02137,0.95830786
C1M390,龍美,2026-07-31,23.406728,120.654417,0.91506994
C2K290,崙內,2026-07-31,23.69525,120.35601,0.041453935
C0TC20,光復林道16K,2026-07-31,23.66701,121.36949,0.96318746
C0HA10,奧萬大,2026-07-31,23.95294,121.17847,0.9932808
C2FB60,頭櫃山,2026-07-31,24.129842,120.858925,3.041776e-05
C1H840,國三N238K,2026-07-31,23.841008,120.707711,0.15425636
CAQ030,崎峰國小,2026-07-31,22.42565,120.49521,0.064105
C2E520,大湖,2026-07-31,24.414939,120.870872,0.18270592
467530,阿里山,2026-07-31,23.508208,120.813242,1.2736372e-07
C1E691,南湖,2026-07-31,24.40135,120.837533,0.98212045
C0FA30,梧棲,2026-07-31,24.256003,120.523381,0.024386888
C1V231,高中,2026-07-31,23.134911,120.716711,0.9915362
C0AK30,硬漢嶺,2026-07-31,25.136097,121.426372,0.6708413
C0F9V0,新社,2026-07-31,24.200172,120.815806,0.9372825
C0H890,埔里,2026-07-31,23.972169,120.952425,0.9935013
C0R690,墾丁,2026-07-31,21.966756,120.810269,0.078398615
C0SD20,富山,2026-07-31,22.822383,121.190825,0.80091566
C0F0D0,審馬陣,2026-07-31,24.381675,121.4203,1.2867612e-08
C2W030,金門農試所,2026-07-31,24.448431,118.451786,0.0125726955
C0R820,白鷺,2026-07-31,22.454275,120.666219,0.08504836
C0FB00,大雪山,2026-07-31,24.254668,121.007374,3.1226417e-08
C2O880,南化,2026-07-31,23.17332,120.59413,0.66418236
C1V190,南天池,2026-07-31,23.27403,120.91176,7.887977e-08
C0E940,雪見,2026-07-31,24.42595,121.01347,3.9813013e-08
K2E360,苗栗農改場,2026-07-31,24.495722,120.829111,0.038818054
CAJ050,海口故事園區,2026-07-31,23.57543,120.14121,0.03910268
C2K280,四湖,2026-07-31,23.6304,120.22717,0.022319961
C2H9D0,三隻寮,2026-07-31,24.093078,120.861578,0.9130979
C0O990,媽廟,2026-07-31,22.99175,120.293525,0.11770374
C0Z220,和平林道,2026-07-31,24.343922,121.656317,0.2040538
C0TA10,花蓮漁港,2026-07-31,23.995322,121.638331,0.54238236
72C440,桃園農改場,2026-07-31,24.950944,121.030583,0.039711427
C1E711,馬拉邦山,2026-07-31,24.367306,120.901656,0.98258895
C0SB20,富岡,2026-07-31,22.792467,121.192669,0.75446993
C0D560,竹東,2026-07-31,24.767147,121.057881,0.05753072
C0F9U0,南屯,2026-07-31,24.137006,120.637969,0.045027297
C2SD60,明峰,2026-07-31,22.8671,121.11825,0.7237956
C0M720,番路,2026-07-31,23.464657,120.554156,0.71301574
C0F0A0,雪山圈谷,2026-07-31,24.388594,121.236339,1.7512956e-08
C1A9N0,四十份,2026-07-31,24.934158,121.593283,0.9746796
C0U760,東澳,2026-07-31,24.52196,121.83318,0.5362547
C0X230,鹽水,2026-07-31,23.272621,120.247641,0.042647064
C2H9H0,苗改南投蜂場,2026-07-31,23.852589,120.693481,0.15425779
C2TB70,達谷寮,2026-07-31,23.38,121.35968,0.78447187
C0R950,萬隆國小,2026-07-31,22.507667,120.587817,0.04443197
C0M9K0,二萬平,2026-07-31,23.50839,120.79011,8.599061e-08
467540,大武,2026-07-31,22.35572,120.90374,0.84512776
C0V370,古亭坑,2026-07-31,22.893178,120.401947,0.16238505
C1I340,新興橋,2026-07-31,23.563333,120.868728,0.9973989
C2C480,桃園,2026-07-31,24.992425,121.323172,0.028063029
C0SA80,土坂,2026-07-31,22.453108,120.887572,0.798713
C0R160,鹽埔,2026-07-31,22.739558,120.530778,0.13503878
C0AC40,大屯山,2026-07-31,25.175675,121.522408,0.44445688
466850,五分山雷達站,2026-07-31,25.071182,121.781205,0.57337874
C2H9L0,馬烈霸,2026-07-31,24.1512,121.201772,2.7379447e-05
C0TC50,綠水,2026-07-31,24.178416,121.50795,0.30249915
C0TC40,新白楊,2026-07-31,24.198205,121.43296,6.0477073e-06
C1AI50,國三N016K,2026-07-31,25.034164,121.619664,0.64409924
C2V920,匏子寮,2026-07-31,23.04905,120.55319,0.28284281
C1V600,藤枝,2026-07-31,23.071961,120.757042,2.177015e-06
C1E601,南勢,2026-07-31,24.572486,120.734842,0.02502494
C0O980,新市,2026-07-31,23.061614,120.298197,0.10881516
C0K420,西螺,2026-07-31,23.800407,120.467394,0.10940818
C0Z050,佳心,2026-07-31,23.34567,121.21316,0.99963653
C0AD30,蘆洲,2026-07-31,25.086594,121.472331,0.29050764
C0V610,梓官,2026-07-31,22.760558,120.267211,0.045046713
K2F750,種苗改良場,2026-07-31,24.225972,120.800917,0.8644786
C0UA80,大溪漁港,2026-07-31,24.941801,121.902955,0.13889134
C1AI60,國一39K邊坡,2026-07-31,25.064361,121.383836,0.785287
C0W150,金寧,2026-07-31,24.457703,118.328989,0.016166564
C0R960,內埔,2026-07-31,22.608483,120.570714,0.09429274
C2H9S0,龍南,2026-07-31,23.953536,120.833183,0.019325467
C0AH40,平等,2026-07-31,25.129142,121.577086,0.1488351
C0R540,佳冬,2026-07-31,22.419456,120.552375,0.06335721
466950,彭佳嶼,2026-07-31,25.627975,122.079744,0.85345346
C0A890,雙溪,2026-07-31,25.036003,121.864242,0.25459066
C0AH50,林口,2026-07-31,25.072181,121.38084,0.9475352
A2K360,水試臺西試驗場,2026-07-31,23.717231,120.190522,0.023276221
C0HA20,杉林溪大飯店,2026-07-31,23.63427,120.79128,3.6363042e-06
C2M960,外寮,2026-07-31,23.562643,120.665688,0.984791
C0F9S0,烏日,2026-07-31,24.107058,120.624103,0.03745433
C2N180,鹿陶洋,2026-07-31,23.14325,120.48352,0.069424614
C0C490,八德,2026-07-31,24.928708,121.283289,0.026283221
C0R190,赤山,2026-07-31,22.592333,120.614306,0.092945136
C0T820,天祥,2026-07-31,24.179597,121.495639,0.4690946
C1F9E1,龍安,2026-07-31,24.1605,120.831961,0.95667815
C2SD50,順那,2026-07-31,23.04166,121.29332,0.9122409
C0V820,小林,2026-07-31,23.148408,120.63325,0.96772635
C2G870,芳苑,2026-07-31,23.922303,120.320025,0.014954678
C0E850,大河,2026-07-31,24.618069,120.948578,0.05682235
C1U670,寒溪,2026-07-31,24.634,121.71691,0.158608
C0N020,城西,2026-07-31,23.0568,120.0956,0.038891047
C1Z110,三棧,2026-07-31,24.11557,121.60501,0.97893554
C0R280,檳榔,2026-07-31,22.076078,120.836777,0.07911677
C2H9J0,中台,2026-07-31,23.9996,120.938739,0.9947962
C0F9L0,后里,2026-07-31,24.310436,120.729725,0.28516564
467441,高雄,2026-07-31,22.730432,120.312516,0.05353011
C2N210,岩坑,2026-07-31,23.24614,120.47458,0.08990303
C0Z180,新城,2026-07-31,24.040486,121.604878,0.09464787
C0D540,橫山,2026-07-31,24.71116,121.11693,0.09168891
C1D420,太閣南,2026-07-31,24.632808,121.160575,0.00017622902
C1E770,公館,2026-07-31,24.526914,120.830806,0.031732578
CAN130,水試所海水繁養殖中心,2026-07-31,23.120802,120.07968,0.03901399
C1I430,翠華,2026-07-31,24.191961,121.224339,3.907358e-08
C1M400,菜瓜坪,2026-07-31,23.251928,120.576103,0.9354262
C0G730,二林,2026-07-31,23.903325,120.376081,0.035665557
72M360,南改義竹分場,2026-07-31,23.360694,120.279361,0.04777776
V2K620,麥寮合作社,2026-07-31,23.753836,120.294783,0.03594643
C0Z070,舞鶴,2026-07-31,23.46811,121.37407,0.7956033
C0B040,大武崙,2026-07-31,25.166676,121.706993,0.10903947
C1Z030,紅葉,2026-07-31,23.493119,121.338806,0.7714055
C1I050,丹大,2026-07-31,23.753747,121.141147,1.4022542e-08
C0I080,信義,2026-07-31,23.689694,120.851036,0.5361992
C2TB80,庄子底,2026-07-31,23.71794,121.49438,0.5258543
C0D750,樂山林道6k,2026-07-31,24.49999,121.08773,1.7715871e-07
C2M920,朴子農改,2026-07-31,23.469889,120.259383,0.05324714
C2A880,福隆,2026-07-31,25.017842,121.942083,0.43776813
C0Z160,鳳林,2026-07-31,23.746114,121.453411,0.5217804
C0UB80,翠峰林道6K,2026-07-31,24.49773,121.568625,1.4430213e-08
C0V210,復興,2026-07-31,23.222403,120.806089,0.9932273
C0H990,昆陽,2026-07-31,24.121322,121.273642,1.427475e-08
C0R741,獅子,2026-07-31,22.202308,120.705236,0.2939474
C0S710,鹿野,2026-07-31,22.917711,121.122994,0.9552513
C0I530,小奇萊,2026-07-31,24.131764,121.295717,1.9049299e-08
C0FA70,大雪山埡口,2026-07-31,24.26867,121.03062,2.7155087e-08
C2K630,荷苞,2026-07-31,23.657717,120.595144,0.13068031
C0Z080,富源,2026-07-31,23.587642,121.378225,0.69018054
C2M9E0,旺來山,2026-07-31,23.555153,120.486463,0.4682552
C0SB10,美和,2026-07-31,22.682078,121.060236,0.101783454
C2K620,馬光農場,2026-07-31,23.721453,120.378864,0.10216753
C1I140,卡奈托灣,2026-07-31,23.754364,121.087872,1.5394164e-07
C0I520,玉山風口,2026-07-31,23.470489,120.955994,2.689032e-08
C1G691,下水埔,2026-07-31,23.816114,120.5676,0.11879006
C0X110,臺南市南區,2026-07-31,22.961189,120.188378,0.111482404
C0V680,仁武,2026-07-31,22.701083,120.347722,0.05353011
C2G840,北斗,2026-07-31,23.877586,120.514222,0.047400903
C2TB90,長橋,2026-07-31,23.6874,121.46186,0.5223581
C0R900,竹坑,2026-07-31,22.1385,120.7022,0.32401437
C0G860,社頭,2026-07-31,23.897647,120.5862,0.05790883
C0X150,安定,2026-07-31,23.102614,120.227839,0.12216801
C0R590,里港,2026-07-31,22.77919,120.49459,0.1695793
C0E610,馬都安,2026-07-31,24.451272,120.930192,0.93070096
C0E550,明德,2026-07-31,24.583486,120.885411,0.038155
C0R150,三地門,2026-07-31,22.709889,120.639944,0.14268681
C0G910,花壇,2026-07-31,24.032076,120.549461,0.06555819
C1D400,鳥嘴山,2026-07-31,24.71909,121.28387,0.99494696
C0F0B0,石岡,2026-07-31,24.276061,120.777644,0.40300456
C2V250,甲仙,2026-07-31,23.080106,120.591758,0.5600473
C0SA20,金崙山,2026-07-31,22.567419,120.959667,0.008338143
C0V350,溪埔,2026-07-31,22.738578,120.446797,0.1723774
C0M660,溪口,2026-07-31,23.604131,120.403569,0.08711147
C1S880,壽卡,2026-07-31,22.238911,120.858903,0.09359668
72D680,桃改新埔分場,2026-07-31,24.834444,121.066111,0.04732242
