站號,站名,日期,lat,lon,BLBTSLS
C0R710,龍磐,2026-06-01,21.931672,120.838942,0.9998642
C1F9D1,白毛台,2026-06-01,24.158325,120.886933,0.9998452
C0G940,竹塘,2026-06-01,23.848253,120.386764,0.9771784
467590,恆春,2026-06-01,22.003897,120.746339,0.9999088
C0U710,太平山,2026-06-01,24.505486,121.525656,3.0275535e-09
C0E820,獅潭,2026-06-01,24.539133,120.920042,0.9998779
C2SD70,二層坪,2026-06-01,22.94105,121.16838,0.98972756
C0V880,興達,2026-06-01,22.8778,120.2127,0.787592
C0SB30,新蘭,2026-06-01,22.869214,121.223228,0.8841152
C2R970,屏科大,2026-06-01,22.648275,120.619247,0.98971426
C1Z130,銅門,2026-06-01,23.965694,121.492842,0.75330836
C0AD40,土城,2026-06-01,24.973208,121.445169,0.9949634
CAN140,六官養殖協會,2026-06-01,23.22881,120.29962,0.8420139
C0X180,山上,2026-06-01,23.0757,120.363253,0.6676482
C0F9Z0,雪山東峰,2026-06-01,24.388792,121.268675,2.4049907e-08
C1M480,獨立山,2026-06-01,23.537022,120.607797,0.99980927
C0X220,學甲,2026-06-01,23.230367,120.182187,0.769029
467650,日月潭,2026-06-01,23.881325,120.90805,0.9993947
A2K570,古坑(花卉中心),2026-06-01,23.633531,120.552392,0.9732525
C0K600,箔子寮,2026-06-01,23.6197,120.14,0.95063734
C0G830,埤頭,2026-06-01,23.866003,120.452806,0.9941387
C0S950,七塊厝,2026-06-01,22.954453,121.229922,0.99951553
467110,金門,2026-06-01,24.407306,118.289281,1.2157483e-06
C0AH80,深坑,2026-06-01,25.002703,121.628328,0.40844482
C0A970,三貂角,2026-06-01,25.007606,122.002058,0.8447356
C2D730,寶山農場,2026-06-01,24.732444,120.976153,0.9997382
C0K430,褒忠,2026-06-01,23.690938,120.303634,0.9440027
467480,嘉義,2026-06-01,23.495925,120.432906,0.92702574
C0V400,阿公店,2026-06-01,22.804194,120.355528,0.9925502
C2S800,華源,2026-06-01,22.65783,121.0232,0.75282127
C2SA40,瑞和,2026-06-01,22.974361,121.156697,0.9889147
C0E960,觀霧分站,2026-06-01,24.505781,121.113921,2.589705e-07
467550,玉山,2026-06-01,23.48718,120.95943,9.697973e-08
C0R440,大漢山,2026-06-01,22.405264,120.753181,4.7037985e-05
C0SD30,東清國小,2026-06-01,22.057128,121.564922,5.028428e-07
C1F9B1,桐林,2026-06-01,24.066172,120.735194,0.98666185
C2I210,蘆竹湳,2026-06-01,23.93398,120.81209,0.9999373
C2H9U0,鳳鵬,2026-06-01,23.763919,120.788061,0.99981445
C0K390,土庫,2026-06-01,23.679029,120.395574,0.9780418
C1I450,望鄉山,2026-06-01,23.594153,120.944286,6.1510927e-06
C0E910,海埔,2026-06-01,24.648767,120.772435,0.9996127
B2E890,畜試北區分所,2026-06-01,24.527806,120.770972,0.9997398
C0R750,四林格山,2026-06-01,22.076989,120.802439,1.3156749e-05
C0F0C0,中坑,2026-06-01,24.248517,120.903319,0.99094737
C1I121,大鞍,2026-06-01,23.678381,120.760017,0.008399805
C2G9E0,移民庄,2026-06-01,23.9784,120.40283,0.97740316
72U480,花改蘭陽分場,2026-06-01,24.686306,121.716583,0.8933868
C0A770,科教館,2026-06-01,25.096356,121.516507,0.9986504
C0AJ60,六塊厝,2026-06-01,25.24,121.4481,0.99593747
C0R620,墾雷,2026-06-01,21.900836,120.855269,0.9999016
467290,古坑,2026-06-01,23.633536,120.551906,0.9732525
467420,永康,2026-06-01,23.038386,120.2367,0.75925595
C2M530,奮起湖,2026-06-01,23.493903,120.699253,0.25679433
C0I410,名間,2026-06-01,23.837053,120.701447,0.98130983
A2C560,農工中心,2026-06-01,24.985917,121.239833,0.9985282
C0V740,旗山,2026-06-01,22.888614,120.483597,0.95820785
C0Z061,玉里,2026-06-01,23.3215,121.339656,0.98534137
C0S840,南田,2026-06-01,22.279725,120.889208,0.9998639
C1I470,杉林溪,2026-06-01,23.639517,120.786444,0.04562024
C1X040,東原,2026-06-01,23.291597,120.463822,0.99262846
C0R660,枋寮,2026-06-01,22.367722,120.590647,0.96968275
C0K450,大埤,2026-06-01,23.646074,120.431537,0.9570025
C0UA00,土場,2026-06-01,24.576533,121.495333,0.9991089
467080,宜蘭,2026-06-01,24.763975,121.756528,0.85896236
C0N030,四草,2026-06-01,23.0235,120.1116,0.7713227
467410,臺南,2026-06-01,22.99328,120.20492,0.9218138
C0V650,彌陀,2026-06-01,22.783806,120.246361,0.7069254
C0D660,新竹市東區,2026-06-01,24.798681,120.986942,0.99960107
82S580,茶改東部分場,2026-06-01,22.907694,121.130139,0.9834927
C0SB40,興隆,2026-06-01,22.913661,121.257469,0.779336
467050,新屋,2026-06-01,25.006725,121.047492,0.9955116
C0C710,大溪永福,2026-06-01,24.892936,121.324975,0.99949604
C0FA20,溫寮,2026-06-01,24.372177,120.583125,0.99815094
C0V640,湖內,2026-06-01,22.887139,120.2445,0.789538
C0R910,下寮,2026-06-01,22.3929,120.5548,0.9759828
C0Z020,明里,2026-06-01,23.208717,121.262342,0.9961578
C0M770,嘉義梅山,2026-06-01,23.585398,120.555587,0.9493394
C0C660,楊梅,2026-06-01,24.912375,121.143047,0.9981261
C0SD40,牛頭山,2026-06-01,22.676661,121.506944,0.006624377
C1E511,新開,2026-06-01,24.347703,120.827019,0.9999055
G2F820,農試所(霧峰),2026-06-01,24.031261,120.688133,0.9705956
C2M990,大巃頂,2026-06-01,23.5547,120.61439,0.039768633
C1I070,和社,2026-06-01,23.591131,120.888861,0.6256419
C2E990,新坪頂,2026-06-01,24.30201,120.8574,0.99974966
C0TA80,立霧山,2026-06-01,24.183258,121.641899,0.00013892037
C2F000,大肚,2026-06-01,24.15295,120.572117,0.99955744
C1S850,豐南,2026-06-01,23.122139,121.262389,0.99970233
C2M9B0,西興,2026-06-01,23.2428,120.57617,0.99978715
C2A920,富貴角,2026-06-01,25.263783,121.565258,0.08230362
C0T960,光復,2026-06-01,23.660694,121.424964,0.99609554
C0F9M0,豐原,2026-06-01,24.254322,120.720692,0.99916524
C0R720,旭海,2026-06-01,22.205403,120.887614,0.99992746
C0V710,苓雅,2026-06-01,22.622742,120.330669,0.93569314
C0C740,觀音工業區,2026-06-01,25.064764,121.114856,0.99296033
CAC040,拉拉山,2026-06-01,24.699317,121.427133,3.245979e-09
C0V790,萬山,2026-06-01,22.905944,120.688056,0.9977023
U2HA30,臺大和社,2026-06-01,23.590856,120.888864,0.6256419
C2H9K0,屯原,2026-06-01,24.067969,121.209389,2.1302897e-07
C0AJ90,澳底,2026-06-01,25.0552,121.9253,0.14973988
C0Z100,東華,2026-06-01,23.89525,121.549833,0.76213723
C0G970,三豐,2026-06-01,23.882,120.2895,0.9731071
C0V900,汕尾,2026-06-01,22.4782,120.4151,0.99887425
C1R630,龍泉,2026-06-01,22.66701,120.59091,0.99091876
C1AC50,關渡,2026-06-01,25.133486,121.469331,0.99204236
C0C800,四稜,2026-06-01,24.64733,121.4293,9.88048e-07
C0F9I0,神岡,2026-06-01,24.272481,120.658314,0.99965423
C0K460,斗南,2026-06-01,23.678734,120.478359,0.9583597
C2O810,曾文,2026-06-01,23.219681,120.497328,0.9003295
467280,後龍,2026-06-01,24.648563,120.831834,0.99961245
C1F9J1,清水林,2026-06-01,24.071242,120.820419,0.9998492
C2A650,火燒寮,2026-06-01,25.002719,121.742892,0.9979272
466930,竹子湖,2026-06-01,25.162078,121.544547,3.9763837e-08
C1I220,樟湖,2026-06-01,23.905333,120.846983,0.9369846
C0I390,仁愛,2026-06-01,24.022122,121.132206,0.9342164
C0Z300,東里,2026-06-01,23.26853,121.30547,0.98912203
C1V590,新發,2026-06-01,23.057019,120.646064,0.9999287
C0K510,水林,2026-06-01,23.572924,120.24597,0.9414931
72S590,東改賓朗果園,2026-06-01,22.813889,121.071278,0.9992662
82A750,茶改北部分場,2026-06-01,24.955778,121.631222,0.9966778
C1A750,石碇服務區,2026-06-01,25.00872,121.646242,0.8431823
C0X300,鹿寮,2026-06-01,23.386047,120.477331,0.938186
C0K590,雲林東勢,2026-06-01,23.674192,120.255721,0.98105973
C2K310,港尾布雞,2026-06-01,23.74834,120.38439,0.96245635
C0A570,桶後,2026-06-01,24.848222,121.597992,0.99794227
C0G720,溪州,2026-06-01,23.851589,120.499093,0.9943169
C1V160,達卡努瓦,2026-06-01,23.279811,120.705319,0.99800533
C2M410,馬頭山,2026-06-01,23.324361,120.582017,0.9841753
C0V850,蚵仔寮,2026-06-01,22.7256,120.2527,0.7009307
C0S740,池上,2026-06-01,23.119628,121.209469,0.9978713
C1V390,尖山,2026-06-01,22.813153,120.367789,0.9942199
C0AH70,松山,2026-06-01,25.04871,121.55042,0.99874073
C0N010,鯤鯓國小,2026-06-01,23.1879,120.0889,0.69251955
C0SA60,知本（水試所）,2026-06-01,22.702394,121.082761,0.70660824
C0T9I0,豐濱,2026-06-01,23.583897,121.514806,0.95919895
C0UB00,淡江大學蘭陽校園,2026-06-01,24.823239,121.730383,0.903229
C0W240,九宮,2026-06-01,24.423753,118.240186,6.2677435e-07
C0T9N0,富里,2026-06-01,23.171639,121.249378,0.99774104
U2HA50,臺大竹山,2026-06-01,23.756972,120.681556,0.94758075
C0V840,鳳鼻頭,2026-06-01,22.5083,120.3591,0.99896413
C0X140,西港,2026-06-01,23.125608,120.203108,0.80241376
72D080,桃改五峰分場,2026-06-01,24.612194,121.157167,0.9982359
C2H9P0,伊拿谷,2026-06-01,23.963211,121.088264,0.99979085
C2K250,崙背,2026-06-01,23.75553,120.31893,0.9455978
C2H9F0,柑林,2026-06-01,24.018658,120.847072,0.9998948
C0TA20,加灣,2026-06-01,24.082025,121.608944,0.646849
C0V530,阿蓮,2026-06-01,22.883208,120.327508,0.7590064
C0FB30,八仙山苗圃,2026-06-01,24.192719,121.001366,0.994585
C0E791,卓蘭,2026-06-01,24.3126,120.8244,0.99991304
C2R260,春日,2026-06-01,22.370361,120.628306,0.9728612
C1I030,武界,2026-06-01,23.913225,121.052483,0.9999214
C0R520,崁頂,2026-06-01,22.514781,120.506914,0.9968635
C0R341,牡丹,2026-06-01,22.130036,120.792639,0.9999359
C0R930,萬丹,2026-06-01,22.5885,120.4851,0.99906254
C0S760,紅石,2026-06-01,23.069131,121.126219,3.06552e-07
C2C410,中央大學,2026-06-01,24.967652,121.185165,0.9984514
C1M610,石磐龍,2026-06-01,23.496606,120.663506,0.8776066
C2C830,中德,2026-06-01,24.981862,121.291344,0.99945337
C0C790,東眼山,2026-06-01,24.8284,121.40888,0.010506552
C0UA10,鴛鴦湖,2026-06-01,24.590269,121.412228,2.772242e-09
C0R800,丹路,2026-06-01,22.204481,120.750989,0.9999445
C2R240,萬巒,2026-06-01,22.527306,120.625111,0.97703385
C0G920,永靖,2026-06-01,23.924703,120.547533,0.99481237
C2M950,太和,2026-06-01,23.538372,120.702961,0.2695532
C1A630,下盆,2026-06-01,24.771003,121.538622,0.83006835
B2N890,畜產試驗所,2026-06-01,23.058972,120.336406,0.65719897
C0UA30,白嶺,2026-06-01,24.527819,121.519031,1.177092e-07
467571,新竹,2026-06-01,24.828575,121.01455,0.9986413
C1V580,溪南(特生中心),2026-06-01,23.084972,120.788475,6.719123e-05
C1T970,大農,2026-06-01,23.615233,121.413331,0.9652209
C0R650,竹田,2026-06-01,22.58486,120.54344,0.99655414
C1H900,清流,2026-06-01,24.080775,120.962997,0.9985628
C1C510,水尾,2026-06-01,24.940081,121.087161,0.98446137
C2N170,茅港尾,2026-06-01,23.2061,120.2624,0.8420139
C0F9X0,大雅(中科園區),2026-06-01,24.21528,120.62445,0.99808735
C0SB60,白守蓮,2026-06-01,23.126769,121.401914,0.9922291
C0O970,虎頭埤,2026-06-01,23.021375,120.347878,0.64661616
C0C730,中大臨海站,2026-06-01,24.966126,121.008581,0.99871206
C0X250,新營,2026-06-01,23.310689,120.316681,0.8655934
C0V700,三民,2026-06-01,22.645017,120.311233,0.6648432
C0U870,大礁溪,2026-06-01,24.791042,121.675047,0.9923888
C0E870,高鐵苗栗,2026-06-01,24.60725,120.826094,0.99961174
C2S890,關山,2026-06-01,23.0395,121.175017,0.99254817
C0TA30,鹽寮,2026-06-01,23.845606,121.592664,0.7466277
C0M860,新美,2026-06-01,23.338017,120.683169,0.9998891
C1E701,八卦,2026-06-01,24.491756,120.927619,0.9998017
C2TA90,加納納,2026-06-01,23.466421,121.359867,0.9710175
C0I420,國姓,2026-06-01,24.037803,120.855072,0.9999155
C2D720,關西工作站,2026-06-01,24.757275,121.184792,0.9997815
C2AK30,信賢,2026-06-01,24.84108,121.53492,0.9998402
C0S960,香蘭,2026-06-01,22.587569,120.993375,0.9993137
467620,蘭嶼,2026-06-01,22.0369,121.55843,4.684652e-09
C2UC40,中城,2026-06-01,24.62865,121.74745,0.93744665
72G600,臺中農改場,2026-06-01,24.003028,120.534389,0.9775575
C0Z210,瑞穗,2026-06-01,23.5239,121.39021,0.95469767
C0M820,達邦,2026-06-01,23.453994,120.749517,0.9997334
C0V860,南寮,2026-06-01,22.7616,120.2339,0.7009307
C0G740,大城,2026-06-01,23.852487,120.320935,0.9735724
C0R920,塭仔,2026-06-01,22.4169,120.5197,0.97533834
C0R470,高樹,2026-06-01,22.826389,120.600806,0.72878253
C0R680,佳樂水,2026-06-01,21.993578,120.861633,0.9999052
C1O870,大棟山,2026-06-01,23.31157,120.52226,0.97980505
C0D360,梅花,2026-06-01,24.678347,121.208558,0.99984455
C0Z190,富世,2026-06-01,24.14743,121.6297,0.9658817
C0AI10,屈尺,2026-06-01,24.92184,121.54475,0.996819
B2U990,畜試東區分所,2026-06-01,24.669039,121.832561,0.93826276
C0SB80,長濱漁港,2026-06-01,23.313644,121.459994,0.96221316
C0TA50,和仁,2026-06-01,24.241394,121.712472,0.9119417
C2AK40,漁光,2026-06-01,24.96875,121.72132,0.99292773
C0V910,大樹,2026-06-01,22.684645,120.432803,0.91629326
C1R610,西大武山,2026-06-01,22.617719,120.7322,3.911403e-06
C0G900,線西,2026-06-01,24.143358,120.443536,0.9688628
C0M700,竹崎,2026-06-01,23.526178,120.555508,0.94389683
C2E880,三義,2026-06-01,24.405478,120.749819,0.99843955
C0C720,竹圍,2026-06-01,25.112692,121.239824,0.998905
C0F9P0,清水,2026-06-01,24.312297,120.562242,0.99540186
C0Z150,吉安光華,2026-06-01,23.930925,121.595153,0.6305465
C0FA80,小雪山天池,2026-06-01,24.28025,121.02627,1.4969373e-08
467300,東吉島,2026-06-01,23.25727,119.66762,0.9732237
C1D640,外坪(五指山),2026-06-01,24.644447,121.090961,0.99660313
C2R9A0,高士國小,2026-06-01,22.12553,120.84653,0.99993783
C0F9O0,潭子,2026-06-01,24.213106,120.703933,0.9989868
C2H9R0,卓社,2026-06-01,23.887894,121.000086,0.4960845
72T250,花蓮農改場,2026-06-01,23.975222,121.563889,0.6309215
C0E780,銅鑼,2026-06-01,24.489681,120.790853,0.9997327
C1T950,太安,2026-06-01,23.666719,121.370128,0.09051446
C0E830,苑裡,2026-06-01,24.439714,120.653053,0.99873286
467270,田中,2026-06-01,23.873803,120.581286,0.98743063
C0SA10,檳榔四格山,2026-06-01,22.810031,121.109308,0.9998529
C1T830,布洛灣,2026-06-01,24.17184,121.57127,0.99802077
C0F970,大坑,2026-06-01,24.173142,120.722289,0.9944567
C1U920,思源,2026-06-01,24.393125,121.347214,2.504131e-08
C2H9Y0,松茗,2026-06-01,23.8167,120.650765,0.99989986
C0A931,三和,2026-06-01,25.233153,121.595236,0.992067
C0I010,廬山,2026-06-01,24.033311,121.181808,0.004009154
C2M940,日野賀,2026-06-01,23.434056,120.727169,0.94069463
C0R860,鼻頭,2026-06-01,22.1043,120.8979,0.9998929
C2I260,北坑,2026-06-01,23.92463,121.00683,0.9999386
C0UB20,壯圍,2026-06-01,24.7359,121.8163,0.8548039
C0R790,九棚,2026-06-01,22.14195,120.889281,0.9993268
C0W110,東莒,2026-06-01,25.9652,119.98069,2.199313e-07
C1U930,粉鳥林,2026-06-01,24.497088,121.842479,0.8234848
C0S830,長濱,2026-06-01,23.286817,121.411975,0.9881079
C1F9F1,伯公龍,2026-06-01,24.272392,120.849047,0.99972343
C0UB90,太平山莊,2026-06-01,24.494171,121.536209,2.9712217e-09
C0E810,西湖,2026-06-01,24.562947,120.7485,0.9989276
C1I440,新高口,2026-06-01,23.478744,120.878939,1.2792721e-05
C0O840,王爺宮,2026-06-01,23.222064,120.40085,0.74952346
C0T9G0,鳳林山,2026-06-01,23.735269,121.420131,0.99919033
C0X080,佳里,2026-06-01,23.173039,120.145086,0.70967823
C0FB70,大甲溪埔,2026-06-01,24.370625,120.620067,0.99826187
C0Z310,清水斷崖,2026-06-01,24.218294,121.689142,0.9583375
C0M680,太保,2026-06-01,23.455062,120.331455,0.9214743
C1S820,金峰,2026-06-01,22.590969,120.933236,0.9997014
C0AD10,八里,2026-06-01,25.150211,121.403947,0.99103063
C2K240,草嶺,2026-06-01,23.59555,120.693461,0.17863286
C1SA70,都蘭,2026-06-01,22.87794,121.226881,0.90064067
C0K440,二崙,2026-06-01,23.772797,120.408944,0.99252445
C1A760,坪林交控,2026-06-01,24.94284,121.713442,0.976212
C0F9N0,大里,2026-06-01,24.092464,120.701378,0.9842958
C0SA90,達仁林場,2026-06-01,22.264347,120.823972,0.9999087
C1R290,石門山,2026-06-01,22.112611,120.756597,0.68477917
42HA10,萬大發電廠,2026-06-01,23.978875,121.139639,0.9958019
C0R890,山海,2026-06-01,21.9878,120.7091,0.9999116
C0T9A0,月眉山,2026-06-01,23.809928,121.539828,0.99985707
C0AC70,信義,2026-06-01,25.037822,121.564597,0.99800503
C0K560,棋山,2026-06-01,23.68645,120.603417,0.9406521
C2FB50,出雲,2026-06-01,24.206469,120.902794,0.93464386
C1Z240,中平林道,2026-06-01,23.42115,121.26763,0.092348404
U2H480,溪頭,2026-06-01,23.670306,120.798194,0.00022008574
C0M880,好美里,2026-06-01,23.3364,120.138,0.87518144
C0T9E0,大坑,2026-06-01,23.880628,121.581981,0.99906236
C0K530,臺西,2026-06-01,23.701547,120.197559,0.9829265
C1E900,國一N128K,2026-06-01,24.560997,120.844186,0.9997227
C0AJ50,水湳洞,2026-06-01,25.123695,121.862238,0.14645779
C0AI20,白沙灣,2026-06-01,25.283128,121.519058,0.97065574
C2V310,美濃,2026-06-01,22.898792,120.51907,0.9561652
C0A860,大坪,2026-06-01,25.165914,121.632969,0.9984133
C1U850,觀音海岸,2026-06-01,24.38319,121.77856,0.99846023
C2K610,草嶺石壁,2026-06-01,23.602469,120.707731,0.12591231
C0U950,鶯子嶺,2026-06-01,24.89754,121.79244,0.025448097
C0O900,善化,2026-06-01,23.112883,120.297219,0.6372496
C0K550,蔦松,2026-06-01,23.514319,120.229736,0.8605639
E2P980,林試六龜中心,2026-06-01,22.991703,120.645722,0.9960634
C0E590,通霄,2026-06-01,24.471892,120.704622,0.9975144
C1I310,西巒,2026-06-01,23.754486,120.883956,0.6738473
C0A550,泰平,2026-06-01,24.971197,121.823711,0.99849516
C2UC30,金洋,2026-06-01,24.42465,121.74573,0.8748763
C0I360,水里,2026-06-01,23.812553,120.849792,0.99968594
C0R830,高士,2026-06-01,22.121825,120.836781,0.031978566
C1I101,溪頭,2026-06-01,23.661789,120.807647,0.010834754
C0AJ20,野柳,2026-06-01,25.20703,121.690021,0.9946688
C0B060,暖暖,2026-06-01,25.0957,121.7403,0.97560865
C1H920,長豐,2026-06-01,24.102039,120.879897,0.99960464
C2S9B0,利吉,2026-06-01,22.86246,121.15486,0.9809833
C0V360,內門,2026-06-01,22.975481,120.466769,0.8710917
C0R850,林邊,2026-06-01,22.4634,120.5339,0.9702998
C0E930,龍鳳,2026-06-01,24.700034,120.859125,0.9995153
C0U910,冬山,2026-06-01,24.63373,121.7937,0.93826276
C1E721,泰安,2026-06-01,24.489017,120.968036,0.497848
82H320,茶改中部分場,2026-06-01,23.875611,120.913583,0.99995226
C0M750,布袋,2026-06-01,23.380878,120.167789,0.7573149
C1S860,利嘉,2026-06-01,22.809417,121.050528,0.9999258
E2S980,林試太麻里1,2026-06-01,22.598922,120.980044,0.99959844
C0X170,關廟,2026-06-01,22.963017,120.327797,0.74793434
C0V720,林園,2026-06-01,22.507747,120.394511,0.99875724
C2M9G0,沄水,2026-06-01,23.38293,120.52666,0.962066
C1I510,線浸林道,2026-06-01,23.761508,120.832956,0.029929351
C0D690,外湖,2026-06-01,24.917735,120.968711,0.8386191
C0C750,新興坑尾,2026-06-01,25.0061,121.0971,0.9901538
B2Q810,畜試南區分所,2026-06-01,21.945583,120.802167,0.9999052
C0S790,金崙,2026-06-01,22.538122,120.966875,0.9995516
C0AH90,福山植物園,2026-06-01,24.760717,121.58135,0.3138038
C0I540,奇萊稜線,2026-06-01,24.109231,121.326456,6.8882485e-08
C0M850,表湖,2026-06-01,23.24186,120.64166,0.99996
C0S770,大溪山,2026-06-01,22.478475,120.943325,0.99433744
C0AG80,中和,2026-06-01,24.991622,121.491792,0.9949634
C0T790,大禹嶺,2026-06-01,24.186117,121.316086,4.2497213e-08
C0T9B0,水源,2026-06-01,23.991861,121.537169,0.99983203
C0R840,牡丹池山,2026-06-01,22.168389,120.841225,0.9995685
C1I131,桶頭,2026-06-01,23.641944,120.654117,0.9985472
CAL110,布袋國中,2026-06-01,23.35893,120.18026,0.87518144
C2M9D0,何竹子腳,2026-06-01,23.53641,120.38203,0.92157274
C0Z290,赤柯山,2026-06-01,23.36893,121.38293,0.9996598
C0X280,將軍,2026-06-01,23.214999,120.13577,0.76623654
C0S690,太麻里,2026-06-01,22.60902,120.98533,0.9992289
C0U880,北關,2026-06-01,24.9072,121.8734,0.43706506
CAW010,東引,2026-06-01,26.3588,120.4836,1.1280288e-08
C0G810,埔心,2026-06-01,23.947633,120.525456,0.9946181
C0U970,大福,2026-06-01,24.80064,121.81389,0.869093
C2H9N0,仁愛東眼,2026-06-01,24.026875,121.1205,0.037319675
C1E670,南礦,2026-06-01,24.538278,121.002836,0.98388135
C0M520,東後寮,2026-06-01,23.369908,120.248065,0.90634793
C1E461,松安,2026-06-01,24.397972,120.986022,0.26169676
C2N160,西拉雅風管處,2026-06-01,23.189481,120.335297,0.660666
C2O850,環湖,2026-06-01,23.148665,120.4186,0.7186349
C2M970,碧湖,2026-06-01,23.568632,120.624165,0.056713887
C0A640,石碇,2026-06-01,24.993969,121.662917,0.976212
E2S960,林試太麻里2,2026-06-01,22.598,120.99775,0.999296
C0F9Y0,桃山,2026-06-01,24.432739,121.303808,4.9263697e-08
C1I020,萬大,2026-06-01,23.979817,121.132261,0.9194981
C2UC20,長嶺,2026-06-01,24.70894,121.61162,0.9939986
C0U940,羅東,2026-06-01,24.68184,121.74934,0.89841604
C0M650,朴子,2026-06-01,23.43463,120.23902,0.9727273
C1I500,大尖山,2026-06-01,23.858572,120.994889,1.894961e-07
C0FB40,中橫21.6k,2026-06-01,24.2499,121.1455,0.06579337
C0G820,田尾,2026-06-01,23.901669,120.509389,0.9946181
E2K600,四湖植物園,2026-06-01,23.676986,120.163433,0.983986
C0S730,綠島,2026-06-01,22.6672,121.47533,0.0071098036
12Q970,東港工作站,2026-06-01,22.479997,120.466058,0.9697261
C1TA00,太魯閣,2026-06-01,24.15773,121.6236,0.9972675
466920,臺北,2026-06-01,25.037658,121.514853,0.99874073
C0R600,舊泰武,2026-06-01,22.588194,120.664944,0.9998764
466910,鞍部,2026-06-01,25.182586,121.529731,8.2170504e-10
C1I230,九份二山,2026-06-01,23.961944,120.845,0.9997267
C2M810,里佳,2026-06-01,23.389125,120.716647,0.27624518
C2A660,瑞芳,2026-06-01,25.113169,121.801147,0.97627914
C0R270,琉球嶼,2026-06-01,22.332244,120.362236,0.9980827
C2V580,瑞山,2026-06-01,22.90304,120.43424,0.90066546
C1T990,高寮,2026-06-01,23.394239,121.356808,0.9752586
C0G620,芬園,2026-06-01,24.015678,120.6213,0.9985316
C1Z140,荖溪,2026-06-01,23.890575,121.45964,0.00012855485
C1I201,中心崙,2026-06-01,23.728722,120.712097,0.99990904
C1I400,凌霄,2026-06-01,24.018778,121.004456,0.029249676
C1M640,十字,2026-06-01,23.492153,120.753683,0.04496505
G2P820,農試鳳山分所,2026-06-01,22.646611,120.356083,0.9411026
C0Z270,蕃薯寮,2026-06-01,23.73835,121.540108,0.9972296
C2E420,竹南,2026-06-01,24.70898,120.88897,0.9995023
C2D480,打鐵坑,2026-06-01,24.849664,121.150789,0.99987787
C0FB10,出雲山苗圃,2026-06-01,24.23105,120.90475,0.9909533
C0F9Q0,外埔,2026-06-01,24.347817,120.705686,0.9998359
C0K580,高鐵雲林,2026-06-01,23.737456,120.417944,0.96265584
C2I090,鳳凰,2026-06-01,23.728081,120.787347,0.42287526
C0U990,員山,2026-06-01,24.74435,121.72247,0.8967625
C0V770,大社,2026-06-01,22.730306,120.346639,0.93702924
C0X120,麻豆,2026-06-01,23.183289,120.248611,0.769613
C0C670,龍潭,2026-06-01,24.870056,121.221389,0.99988234
C0D680,香山濕地,2026-06-01,24.783581,120.914988,0.8386191
C0S980,勝林山,2026-06-01,22.430439,120.8938,0.9997917
C0V730,大寮,2026-06-01,22.605614,120.395717,0.9982631
C0R570,麟洛,2026-06-01,22.65078,120.52719,0.4352855
C2M930,石卓,2026-06-01,23.478744,120.702264,0.053478755
C0G9B0,和美,2026-06-01,24.105169,120.492131,0.9321067
C2I240,外大坪,2026-06-01,23.9587,120.91788,0.9999491
CAG100,王功漁港,2026-06-01,23.96824,120.32586,0.92564344
C0X290,北門,2026-06-01,23.267772,120.125481,0.76623654
C2F930,大甲,2026-06-01,24.347667,120.640403,0.9973334
C0D650,湖口,2026-06-01,24.904794,121.043628,0.99693406
C0U780,五結,2026-06-01,24.68637,121.79794,0.93826276
C1I250,鯉潭,2026-06-01,23.961922,120.991131,0.9999628
C0R130,阿禮,2026-06-01,22.742908,120.743678,0.99975884
C0X100,臺南市北區,2026-06-01,23.010394,120.194228,0.9186818
C0S920,金峰嘉蘭,2026-06-01,22.594789,120.960825,0.99933314
C0V490,新興,2026-06-01,22.627422,120.298803,0.6254634
C0F9K0,大安,2026-06-01,24.345061,120.588025,0.9968896
C2E970,八甲,2026-06-01,24.535811,120.795983,0.9997184
C0V440,鳳山,2026-06-01,22.646653,120.356122,0.9411026
C1T940,大觀,2026-06-01,23.714206,121.373133,0.9994999
C0E740,造橋,2026-06-01,24.637056,120.864778,0.99962825
C0R100,尾寮山,2026-06-01,22.833111,120.683889,0.9993363
A2K630,臺大雲林校區,2026-06-01,23.730628,120.423903,0.96321267
467990,馬祖,2026-06-01,26.169467,119.923158,9.607117e-08
C0D580,寶山,2026-06-01,24.735006,121.025192,0.9998548
E2P990,林試扇平站,2026-06-01,22.9677,120.6857,0.99955827
C0AI30,三重,2026-06-01,25.057328,121.500629,0.9986504
C0AH00,汐止,2026-06-01,25.066881,121.658778,0.4859922
C1Z040,立山,2026-06-01,23.443356,121.327375,0.9978985
466881,新北,2026-06-01,24.959207,121.525196,0.99520725
C0W130,花嶼,2026-06-01,23.40007,119.32276,0.80655104
C0A950,鼻頭角,2026-06-01,25.129036,121.923372,0.52630144
C0K470,林內,2026-06-01,23.748675,120.609642,0.9374598
C2F990,摩天嶺,2026-06-01,24.322458,120.936819,0.98523927
C2E430,南庄,2026-06-01,24.601775,121.000214,0.99967307
82C160,茶改場,2026-06-01,24.908472,121.185333,0.9975985
C2TB60,南安,2026-06-01,23.29818,121.26157,0.9945476
C0Z320,清水林道,2026-06-01,23.27125,121.188272,0.9999674
C0R760,南仁湖,2026-06-01,22.084681,120.863353,0.6185805
C0M670,大林,2026-06-01,23.600616,120.45841,0.9495749
C0M800,茶山,2026-06-01,23.299075,120.664767,0.9997543
C0A9C0,天母,2026-06-01,25.117494,121.537169,0.9981857
72K220,南改斗南分場,2026-06-01,23.634556,120.477333,0.95904756
72AI40,桃改樹林分場,2026-06-01,24.944503,121.386972,0.9989509
C0S910,蘭嶼燈塔,2026-06-01,22.081197,121.503117,5.058368e-08
C0B050,八斗子,2026-06-01,25.144754,121.79167,0.94474137
C0U900,內城,2026-06-01,24.71813,121.68766,0.87290555
C0X320,柳營,2026-06-01,23.253328,120.375253,0.6883785
C0M790,新港,2026-06-01,23.553269,120.345728,0.98962575
C0F9T0,西屯,2026-06-01,24.179494,120.641275,0.99728125
C0E950,松安,2026-06-01,24.39792,120.98599,0.26169676
C0SA30,都歷,2026-06-01,23.020333,121.323642,0.79657114
C0C620,蘆竹,2026-06-01,25.084275,121.265767,0.9986076
C0R730,大坪頂,2026-06-01,22.024633,120.69355,0.9998734
C0AJ40,石門,2026-06-01,25.273672,121.601198,0.37928388
C0E750,苗栗,2026-06-01,24.564569,120.824575,0.9997238
C0T870,鯉魚潭,2026-06-01,23.935639,121.508944,0.70305634
C1V170,排雲,2026-06-01,23.463619,120.954147,1.4185989e-07
C2H950,中寮,2026-06-01,23.884447,120.766406,0.9990219
C0R350,貓鼻頭,2026-06-01,21.921774,120.7358,0.99990714
C0V660,岡山,2026-06-01,22.797078,120.294958,0.71163374
C1H941,雙冬,2026-06-01,23.967378,120.802189,0.9999468
C0AJ70,田寮,2026-06-01,25.2698,121.4886,0.9744123
C0AI00,五股,2026-06-01,25.07445,121.42728,0.99948484
C0Z280,德武,2026-06-01,23.47426,121.41071,0.9643326
C2RA10,大新,2026-06-01,22.67558,120.57788,0.99091876
C0C460,復興,2026-06-01,24.820208,121.352281,0.9849663
C2AA10,中八仙,2026-06-01,25.11576,121.49199,0.9974865
C2K300,鹿南,2026-06-01,23.63855,120.3636,0.99351096
E2H360,蓮華池,2026-06-01,23.918333,120.885278,0.9999582
C0M640,中埔,2026-06-01,23.42538,120.5229,0.95880735
C2C810,八德蔬果,2026-06-01,24.97858,121.28187,0.99945337
C2M9F0,安溪寮,2026-06-01,23.350334,120.208039,0.87972516
C0W140,金沙,2026-06-01,24.488292,118.408778,3.287341e-06
C2A540,四堵,2026-06-01,24.8926,121.745736,0.9634563
C0ACA0,新莊,2026-06-01,25.051478,121.446756,0.998597
C0R220,潮州,2026-06-01,22.534361,120.54,0.99679416
U2HA40,臺大內茅埔,2026-06-01,23.689722,120.851117,0.9999402
467490,臺中,2026-06-01,24.145736,120.684075,0.9928626
C0UB60,明池,2026-06-01,24.650688,121.475277,2.9438277e-06
C0U960,翠峰湖,2026-06-01,24.510856,121.608044,3.171536e-09
E2HA20,林試畢祿溪站,2026-06-01,24.226944,121.308522,2.3396723e-07
C2M9A0,大華,2026-06-01,23.4824,120.67491,0.9988553
C0V890,前鎮,2026-06-01,22.5718,120.3117,0.8533355
C1F941,雪嶺,2026-06-01,24.280586,121.026642,1.4969373e-08
C2H9E0,國姓南港,2026-06-01,23.911108,120.846556,0.8705179
C0AC80,文山,2026-06-01,25.00235,121.575728,0.9977934
C0F9R0,龍井,2026-06-01,24.184536,120.528972,0.9925254
C0M760,民雄,2026-06-01,23.551754,120.428457,0.9495749
C0UA40,西德山,2026-06-01,24.560647,121.752608,0.000463752
C2TA70,赤科坪,2026-06-01,23.39885,121.39168,0.9994721
C1T920,中興,2026-06-01,23.769503,121.498653,0.9281745
C0D550,雪霸,2026-06-01,24.526972,121.11605,0.00016493707
C2F860,梨山,2026-06-01,24.247522,121.243669,1.2037609e-07
C0R320,車城,2026-06-01,22.0744,120.716247,0.9999351
C1S870,南美山,2026-06-01,23.15025,121.382333,0.9948196
C0B020,基隆嶼,2026-06-01,25.19141,121.78391,0.95983803
C1U501,牛鬥,2026-06-01,24.637836,121.573656,0.9960303
C0M730,嘉義市東區,2026-06-01,23.457673,120.460531,0.89500403
C2R990,泰武,2026-06-01,22.60686,120.69765,0.99935293
C0S700,知本,2026-06-01,22.684866,121.005642,0.9995616
C1N001,沙崙,2026-06-01,22.935472,120.309406,0.7336497
C0V760,橋頭,2026-06-01,22.757806,120.30575,0.9346714
C2V570,吉東,2026-06-01,22.85418,120.54539,0.6880764
C0G960,福寶,2026-06-01,24.0443,120.3814,0.95655084
C0X210,白河,2026-06-01,23.347466,120.414427,0.8231732
C0S810,東河,2026-06-01,22.972672,121.303986,0.825458
C2R170,屏東,2026-06-01,22.66027,120.49403,0.4352855
C0R670,楓港,2026-06-01,22.190131,120.692156,0.99983317
C0FA50,霧峰,2026-06-01,24.0419,120.6995,0.9849953
C0UB10,蘇澳,2026-06-01,24.5969,121.8571,0.8635645
C0G950,防潮門,2026-06-01,24.1835,120.4871,0.9709723
C0M740,六腳,2026-06-01,23.492871,120.290625,0.9869186
C1R250,力里,2026-06-01,22.428117,120.629228,0.96041507
C0K330,虎尾,2026-06-01,23.719183,120.442036,0.9646318
C2FA00,烏石坑,2026-06-01,24.273503,120.947617,0.9864817
C0V620,永安,2026-06-01,22.82315,120.236856,0.70751846
C1I330,楓樹林,2026-06-01,23.986803,121.076117,0.31513348
C0W200,湖西,2026-06-01,23.596314,119.67275,0.9032376
72Q010,高雄農改場,2026-06-01,22.709333,120.525889,0.49600926
C0C680,龜山,2026-06-01,25.02846,121.38656,0.9995605
C2V260,月眉,2026-06-01,22.971003,120.539853,0.98499644
C0V450,鳳森,2026-06-01,22.545064,120.392592,0.9990809
C0FA90,小雪山林道,2026-06-01,24.29515,121.03651,3.136436e-08
C0U720,南山,2026-06-01,24.43742,121.38167,0.00020000052
A2N290,臺南蘭花園區,2026-06-01,23.340258,120.379661,0.768476
C0R560,新園,2026-06-01,22.5434,120.461558,0.99875724
C0U890,三星,2026-06-01,24.66812,121.65302,0.8962904
C1V300,御油山,2026-06-01,23.001983,120.715364,8.744769e-05
C0U600,礁溪,2026-06-01,24.817539,121.765608,0.86067235
C1T980,龍澗,2026-06-01,24.023289,121.411328,0.00077731267
C0R700,枋山,2026-06-01,22.247814,120.660794,0.9981185
C0D670,海天一線,2026-06-01,24.831986,120.914438,0.6960246
C0SA00,歷坵,2026-06-01,22.520969,120.89185,0.99951196
C0M710,東石,2026-06-01,23.458927,120.15385,0.77985936
C0M780,鹿草,2026-06-01,23.41134,120.30835,0.9748304
C0U520,雙連埤,2026-06-01,24.753033,121.641303,0.9898119
C0B010,七堵,2026-06-01,25.094819,121.71713,0.9607272
C0R480,長治,2026-06-01,22.693128,120.542622,0.9946944
C1V830,國三S383K,2026-06-01,22.781967,120.426475,0.9888903
12Q980,恆春工作站,2026-06-01,22.079678,120.714425,0.9999351
C1O940,東山服務區,2026-06-01,23.286016,120.398472,0.7711194
C1U840,東澳嶺,2026-06-01,24.5378,121.8485,0.00042309894
C1D630,飛鳳山,2026-06-01,24.766464,121.119178,0.9993369
C0S940,石寧山,2026-06-01,23.223772,121.406639,0.9314309
C0K410,北港,2026-06-01,23.573957,120.292802,0.94267327
C2M620,瑞里,2026-06-01,23.545133,120.675197,0.86283714
C0SB70,小港漁港,2026-06-01,23.158558,121.400431,0.993015
C2O950,安南,2026-06-01,23.076694,120.144861,0.80147916
C0F0E0,南湖圈谷,2026-06-01,24.363714,121.444667,7.666566e-08
467610,成功,2026-06-01,23.097486,121.373428,0.9569946
C0G890,伸港,2026-06-01,24.148933,120.484403,0.97173464
C2E540,龍溪,2026-06-01,24.606489,120.783933,0.99972177
C1V200,梅山,2026-06-01,23.268447,120.823556,0.9999532
C0T9H0,加路蘭山,2026-06-01,23.682947,121.5274,0.9998994
C2O930,玉井,2026-06-01,23.126042,120.46055,0.7186349
C1F911,新伯公,2026-06-01,24.221361,120.841069,0.99910426
C0X200,左鎮,2026-06-01,23.056758,120.408522,0.6419031
C2TB50,麻汝,2026-06-01,23.42554,121.39358,0.9676513
C0FA60,鞍馬山工作站,2026-06-01,24.267064,121.000793,5.9021794e-08
C0SB50,叭嗡嗡,2026-06-01,23.047062,121.343223,0.92633665
C2R550,新埤,2026-06-01,22.467947,120.582894,0.9655895
C1F891,稍來,2026-06-01,24.265689,121.001142,7.758475e-08
C2M9C0,紫雲,2026-06-01,23.494914,120.540253,0.91131413
72N240,七股研究中心,2026-06-01,23.081672,120.062894,0.7713227
C0C700,中壢,2026-06-01,24.977661,121.256375,0.9993937
C0M690,水上,2026-06-01,23.419734,120.388909,0.9210294
C0V690,鼓山,2026-06-01,22.623325,120.275575,0.6254634
C0O860,大內,2026-06-01,23.11885,120.36083,0.5987246
C0Z200,萬榮,2026-06-01,23.709219,121.420106,0.98927104
C0T9D0,和中,2026-06-01,24.26676,121.74103,0.9078638
C2S9A0,北份子寮,2026-06-01,22.78561,121.07813,0.76038027
C1O921,楠西,2026-06-01,23.183511,120.484083,0.7299966
C0AJ30,淡水觀海,2026-06-01,25.184591,121.408616,0.9918342
C0V810,左營,2026-06-01,22.67491,120.28491,0.6648432
C0UA70,桃源谷,2026-06-01,24.962606,121.888875,0.7977789
C0X130,官田,2026-06-01,23.193217,120.315422,0.65240747
C1H000,翠峰,2026-06-01,24.109397,121.205211,1.991945e-08
C0UA90,石城,2026-06-01,24.980444,121.951214,0.68005663
C1E681,南勢山,2026-06-01,24.421669,120.923831,0.9995539
C0A9F0,內湖,2026-06-01,25.079422,121.57545,0.99800503
C0K291,宜梧,2026-06-01,23.536281,120.169329,0.95018065
C1K540,口湖,2026-06-01,23.585344,120.180517,0.95063734
C0R780,滿州,2026-06-01,22.024403,120.839892,0.99986374
C0V870,文安,2026-06-01,22.8025,120.2164,0.7009307
C0U650,玉蘭,2026-06-01,24.675286,121.587061,0.99413085
C0R640,東港,2026-06-01,22.46247,120.44074,0.99896413
C0AJ80,板橋,2026-06-01,25.0107,121.4489,0.9949634
C0S660,下馬,2026-06-01,23.150427,121.070312,0.99939257
C2N190,烏樹,2026-06-01,23.32393,120.36989,0.8381319
C1H9B1,阿眉,2026-06-01,24.1263,120.994672,0.0003407349
C0UA20,多加屯,2026-06-01,24.368614,121.373189,3.3868008e-07
C0E730,頭份,2026-06-01,24.688247,120.912206,0.9995076
72V140,高改旗南分場,2026-06-01,22.857861,120.516667,0.98687845
C2R490,九如,2026-06-01,22.74049,120.490555,0.49600926
C0K480,莿桐,2026-06-01,23.761192,120.502372,0.94055897
C0U980,坪林石牌,2026-06-01,24.86478,121.77396,0.9868877
C0T900,西林,2026-06-01,23.8119,121.441458,0.9647706
C1I150,青雲,2026-06-01,23.793361,120.949378,0.9999179
C2E980,和興,2026-06-01,24.505319,120.923016,0.9998853
467350,澎湖,2026-06-01,23.565503,119.563094,0.7638957
C0G800,埔鹽,2026-06-01,24.000394,120.431683,0.9612025
C0H960,草屯,2026-06-01,23.973672,120.68085,0.99917173
C1V780,多納林道,2026-06-01,22.888028,120.737917,0.9996085
C0E920,通霄漁港,2026-06-01,24.498589,120.673876,0.99745846
C0Z330,安通山,2026-06-01,23.290728,121.348528,0.99985665
C0AH10,永和,2026-06-01,25.01125,121.508111,0.99470884
C0AK10,太平里,2026-06-01,25.134937,121.364899,0.9962398
C2G640,鹿港,2026-06-01,24.0753,120.430481,0.93052614
C1E890,國三N149K,2026-06-01,24.463414,120.680019,0.9975313
C1R110,口社,2026-06-01,22.770111,120.645222,0.9901066
C1M870,國三N285K,2026-06-01,23.550319,120.505833,0.9149688
C1E480,鳳美,2026-06-01,24.554803,121.034747,0.999898
C0T9M0,靜浦,2026-06-01,23.455167,121.495028,0.9454811
C2H9M0,發祥,2026-06-01,24.154094,121.164517,0.9926131
C2G9C0,埔南,2026-06-01,23.99124,120.46969,0.9612025
C0AI40,石牌,2026-06-01,25.115597,121.513139,0.99800503
C1F871,上谷關,2026-06-01,24.203483,121.018644,0.9864817
C2H9G0,百勝,2026-06-01,24.051142,120.909361,0.99996173
C0G880,二水,2026-06-01,23.810742,120.6173,0.9389599
C0R940,加祿堂,2026-06-01,22.3363,120.6217,0.99546087
C0W220,北竿,2026-06-01,26.220358,119.974881,1.340924e-07
C0O960,崎頂,2026-06-01,22.959547,120.369317,0.80359054
C0TA40,秀林,2026-06-01,24.302864,121.731144,0.0013724307
C0S750,向陽,2026-06-01,23.248397,120.986133,0.08137824
C0T9F0,水璉,2026-06-01,23.797131,121.542514,0.9869267
C1M600,頭凍,2026-06-01,23.406364,120.603339,0.8581114
467660,臺東,2026-06-01,22.752211,121.154586,0.33321902
C1D380,新埔,2026-06-01,24.84745,121.03834,0.99854136
C2G980,田頭村,2026-06-01,23.8263,120.444175,0.99248904
C0V750,路竹,2026-06-01,22.854997,120.259439,0.71776664
C0N050,蚵寮,2026-06-01,23.301,120.1104,0.76623654
C2X060,下營,2026-06-01,23.226806,120.256291,0.8420139
72M700,南改鹿草分場,2026-06-01,23.416869,120.283061,0.97341496
C1SA50,利嘉林道,2026-06-01,22.82325,121.009389,0.1451417
C0UB70,太平山中間站,2026-06-01,24.542003,121.513453,0.8501671
C0A940,金山,2026-06-01,25.223628,121.643967,0.9997635
C1V340,大津,2026-06-01,22.888322,120.645986,0.9361743
C0W180,七美,2026-06-01,23.219333,119.444892,0.87884057
C1F9C1,白冷,2026-06-01,24.182844,120.929889,0.9998764
K2E710,苗改生物防治研究中心,2026-06-01,24.422861,120.871833,0.99987483
C0N040,蘆竹溝,2026-06-01,23.2344,120.0961,0.76597184
C0TB40,崇德,2026-06-01,24.166144,121.657414,0.9316424
C0D760,大坪苗圃,2026-06-01,24.5362,121.1108,0.8350323
C2D430,峨眉,2026-06-01,24.6905,121.017189,0.99971503
C2W230,畜試所澎湖,2026-06-01,23.628342,119.513206,0.7798187
C0R880,後壁湖,2026-06-01,21.9457,120.7457,0.9999116
C1I280,埔中,2026-06-01,23.820778,120.642594,0.9999043
467790,墾丁雷達站,2026-06-01,21.948235,120.808028,0.9998944
C0W190,望安,2026-06-01,23.380564,119.494075,0.89703065
C0Z170,卓溪,2026-06-01,23.3443,121.3029,0.98932004
C0F850,東勢,2026-06-01,24.246428,120.833047,0.9987293
466900,淡水,2026-06-01,25.164889,121.448906,0.9985863
C0I370,魚池,2026-06-01,23.895703,120.94135,0.999958
C0C630,大溪,2026-06-01,24.882853,121.265547,0.99857867
C0A520,山佳,2026-06-01,24.974944,121.402008,0.9988727
C0I110,竹山,2026-06-01,23.761225,120.688156,0.94447446
82H840,茶改南部分場,2026-06-01,23.762528,120.7405,0.9998175
C2SD80,再來山,2026-06-01,23.34371,121.44122,0.9872626
C0G660,溪湖,2026-06-01,23.94835,120.479122,0.9944026
C1T800,洛韶,2026-06-01,24.204558,121.453956,0.00052462536
C1T810,慈恩,2026-06-01,24.192044,121.388386,0.051439192
C1E451,象鼻,2026-06-01,24.368617,120.940228,0.99955374
C0AC60,三峽,2026-06-01,24.939025,121.369728,0.9998258
C0I490,萬大林道,2026-06-01,23.928228,121.091411,0.0007821689
C1I290,豐丘,2026-06-01,23.668178,120.887417,0.007813438
C1I320,奧萬大,2026-06-01,23.952956,121.178556,0.6934798
C2M910,嘉義大學,2026-06-01,23.471325,120.485903,0.9045135
C0U770,南澳,2026-06-01,24.44935,121.81022,0.8234848
C2TB30,吉安,2026-06-01,23.94538,121.54803,0.6405782
C0A980,社子,2026-06-01,25.109508,121.469681,0.99884516
C0V800,六龜,2026-06-01,22.997889,120.633583,0.99373513
C1G9D0,國一S218K,2026-06-01,23.890641,120.493253,0.9917259
C0E570,白沙屯,2026-06-01,24.549447,120.696803,0.998911
C2F9A0,中竹林,2026-06-01,24.103556,120.751061,0.9999171
C0FA40,臺中電廠,2026-06-01,24.2146,120.4907,0.98756236
C2G9A0,畜試所彰化,2026-06-01,23.86045,120.557964,0.98743063
C0H9C0,合歡山,2026-06-01,24.143442,121.272547,4.2395687e-08
G2M350,農試溪口農場,2026-06-01,23.58565,120.408111,0.94606483
C0U860,頭城,2026-06-01,24.85323,121.8308,0.3195588
C0R580,南州,2026-06-01,22.48591,120.50274,0.9697261
C0G780,秀水,2026-06-01,24.03405,120.503869,0.9775575
72N100,臺南農改場,2026-06-01,23.0605,120.342194,0.6625388
C0S900,蘭嶼高中,2026-06-01,22.04909,121.51214,4.800745e-07
C2TA60,六十石,2026-06-01,23.22477,121.31861,0.99962646
C1F9W0,德基,2026-06-01,24.254783,121.190261,1.3814819e-06
C2M980,安和,2026-06-01,23.51377,120.31593,0.9869186
C1Z120,壽豐,2026-06-01,23.870853,121.508081,0.76213723
C0W160,烏坵,2026-06-01,24.9944,119.44956,3.1963841e-06
C1I550,國六W023K,2026-06-01,23.979067,120.867742,0.99994165
C0R870,興海,2026-06-01,21.9752,120.8439,0.9999052
C0R140,瑪家,2026-06-01,22.682903,120.686639,0.9996842
C0A530,坪林,2026-06-01,24.938183,121.70975,0.99464697
C0X260,後壁,2026-06-01,23.366358,120.362326,0.8989666
C0Z230,和平,2026-06-01,24.30717,121.77007,0.93238246
C0G770,福興,2026-06-01,24.041289,120.437669,0.9612025
C0H9A0,神木村,2026-06-01,23.532742,120.843667,0.14876941
C0I460,南投,2026-06-01,23.911469,120.687331,0.99914765
C0I480,梅峰,2026-06-01,24.085272,121.173572,1.5409528e-07
C2D770,巨埔,2026-06-01,24.84435,121.11442,0.99968624
C2A560,福山,2026-06-01,24.776203,121.502811,0.98924804
C0AH30,五分山,2026-06-01,25.07125,121.780794,0.98361593
C0FA10,松柏,2026-06-01,24.429115,120.617482,0.99869287
72S200,東改班鳩分場,2026-06-01,22.829528,121.077694,0.9974135
72HA00,中改埔里分場,2026-06-01,23.903208,120.963364,0.99995834
C2H9W0,大坪頂農水,2026-06-01,24.043122,120.932781,0.9999719
C0C650,平鎮,2026-06-01,24.897503,121.214636,0.9975528
C0S930,延平,2026-06-01,22.902581,121.084058,0.99272096
C0UA60,樟樹山,2026-06-01,24.41393,121.78325,0.9979248
C2UC10,出水溪,2026-06-01,24.615822,121.652253,0.94169235
C1S670,摩天,2026-06-01,23.199503,121.027,1.2798937e-06
C2C590,觀音,2026-06-01,25.027072,121.153317,0.9915003
C0V630,茄萣,2026-06-01,22.906642,120.182608,0.787592
466940,基隆,2026-06-01,25.133314,121.740475,0.9525076
C0X050,東河,2026-06-01,23.296598,120.385608,0.768476
C0R770,保力,2026-06-01,22.071122,120.764111,0.99991965
G2L020,農試嘉義分所,2026-06-01,23.485028,120.473806,0.9082839
C0X240,關子嶺,2026-06-01,23.331169,120.508025,0.99835604
C0I380,集集,2026-06-01,23.828206,120.801467,0.9995873
466990,花蓮,2026-06-01,23.975128,121.613275,0.646468
C1V220,小關山,2026-06-01,23.154217,120.813603,0.0008015064
C1F9G1,慶福山,2026-06-01,24.180853,120.848378,0.9990482
C0FB20,雪山橋,2026-06-01,24.23192,120.9786,3.2375257e-07
C0Z250,瑞穗林道,2026-06-01,23.49284,121.30688,0.17405006
C0D590,新豐,2026-06-01,24.87068,120.97721,0.6340965
C2N200,口宵里,2026-06-01,23.15987,120.45988,0.9490085
C0A870,五指山,2026-06-01,25.132153,121.608692,9.676223e-09
C0UA50,西帽山,2026-06-01,24.555361,121.802628,0.00047596524
C2R980,竹田國中,2026-06-01,22.61532,120.52412,0.9964567
C0X160,仁德,2026-06-01,22.968258,120.257689,0.66765344
C1H971,六分寮,2026-06-01,23.92507,120.6378,0.99995184
C2D790,石鹿,2026-06-01,24.56551,121.15841,2.1522287e-06
C0W120,西嶼,2026-06-01,23.5626,119.468436,0.8250366
C0G650,員林,2026-06-01,23.946503,120.585597,0.9980206
C0AD50,鶯歌,2026-06-01,24.951533,121.346294,0.99967724
C2H9Q0,北東眼山,2026-06-01,24.120939,121.189303,2.1308139e-07
C2H9T0,名間竹圍,2026-06-01,23.859914,120.637572,0.999408
C0S990,山豬窟,2026-06-01,22.318619,120.857372,0.9999379
C0X190,安平,2026-06-01,22.993161,120.152181,0.89488095
C0K400,斗六,2026-06-01,23.720583,120.541127,0.9424747
12J990,口湖工作站,2026-06-01,23.589978,120.180394,0.95063734
C0O830,北寮,2026-06-01,23.079561,120.495008,0.9777402
C1D410,白蘭,2026-06-01,24.579364,121.079947,0.9789243
C0S970,加津林,2026-06-01,22.416211,120.926942,0.9993597
C0D700,關西,2026-06-01,24.7977,121.1732,0.9997363
C0U750,龜山島,2026-06-01,24.841667,121.953133,0.16303243
C0R810,內獅,2026-06-01,22.305064,120.642986,0.9981185
C2EA10,拉庫斯,2026-06-01,24.53637,121.02137,0.99544847
C1M390,龍美,2026-06-01,23.406728,120.654417,0.9479244
C2K290,崙內,2026-06-01,23.69525,120.35601,0.99351096
C2FB60,頭櫃山,2026-06-01,24.129842,120.858925,0.6612129
C1H840,國三N238K,2026-06-01,23.841008,120.707711,0.9988183
CAQ030,崎峰國小,2026-06-01,22.42565,120.49521,0.9697261
C2E520,大湖,2026-06-01,24.414939,120.870872,0.9998705
467530,阿里山,2026-06-01,23.508208,120.813242,3.0300476e-05
C1E691,南湖,2026-06-01,24.40135,120.837533,0.99775904
C0FA30,梧棲,2026-06-01,24.256003,120.523381,0.9925254
C1V231,高中,2026-06-01,23.134911,120.716711,0.99995005
C0AK30,硬漢嶺,2026-06-01,25.136097,121.426372,2.2619227e-08
C0F9V0,新社,2026-06-01,24.200172,120.815806,0.9997048
C0H890,埔里,2026-06-01,23.972169,120.952425,0.9999415
C0R690,墾丁,2026-06-01,21.966756,120.810269,0.9990808
C0SD20,富山,2026-06-01,22.822383,121.190825,0.66303486
C0F0D0,審馬陣,2026-06-01,24.381675,121.4203,5.155696e-08
C2W030,金門農試所,2026-06-01,24.448431,118.451786,0.00069269846
C0R820,白鷺,2026-06-01,22.454275,120.666219,0.99993634
C0FB00,大雪山,2026-06-01,24.254668,121.007374,5.317002e-08
C2O880,南化,2026-06-01,23.17332,120.59413,0.99690074
C1V190,南天池,2026-06-01,23.27403,120.91176,0.01744291
C0E940,雪見,2026-06-01,24.42595,121.01347,2.4121055e-05
K2E360,苗栗農改場,2026-06-01,24.495722,120.829111,0.9997566
CAJ050,海口故事園區,2026-06-01,23.57543,120.14121,0.95063734
C2K280,四湖,2026-06-01,23.6304,120.22717,0.983986
C2H9D0,三隻寮,2026-06-01,24.093078,120.861578,0.9996393
C0O990,媽廟,2026-06-01,22.99175,120.293525,0.7632021
C0Z220,和平林道,2026-06-01,24.343922,121.656317,0.99871874
C0TA10,花蓮漁港,2026-06-01,23.995322,121.638331,0.20769066
72C440,桃園農改場,2026-06-01,24.950944,121.030583,0.9970383
C1E711,馬拉邦山,2026-06-01,24.367306,120.901656,0.99927795
C0SB20,富岡,2026-06-01,22.792467,121.192669,0.6769396
C0D560,竹東,2026-06-01,24.767147,121.057881,0.99984187
C0F9U0,南屯,2026-06-01,24.137006,120.637969,0.98810923
C2SD60,明峰,2026-06-01,22.8671,121.11825,0.9990333
C0M720,番路,2026-06-01,23.464657,120.554156,0.96551305
C0F0A0,雪山圈谷,2026-06-01,24.388594,121.236339,2.5950886e-08
C1A9N0,四十份,2026-06-01,24.934158,121.593283,0.99914265
C0U760,東澳,2026-06-01,24.52196,121.83318,0.87166196
C0X230,鹽水,2026-06-01,23.272621,120.247641,0.87972516
C2H9H0,苗改南投蜂場,2026-06-01,23.852589,120.693481,0.9807345
C2TB70,達谷寮,2026-06-01,23.38,121.35968,0.9854594
C0R950,萬隆國小,2026-06-01,22.507667,120.587817,0.96307784
467540,大武,2026-06-01,22.35572,120.90374,0.99985695
C0V370,古亭坑,2026-06-01,22.893178,120.401947,0.8828634
C1I340,新興橋,2026-06-01,23.563333,120.868728,0.95331943
C2C480,桃園,2026-06-01,24.992425,121.323172,0.99945337
C0SA80,土坂,2026-06-01,22.453108,120.887572,0.9974207
C0R160,鹽埔,2026-06-01,22.739558,120.530778,0.49600926
C0AC40,大屯山,2026-06-01,25.175675,121.522408,4.817563e-10
466850,五分山雷達站,2026-06-01,25.071182,121.781205,0.9752352
C2H9L0,馬烈霸,2026-06-01,24.1512,121.201772,7.153695e-07
C1AI50,國三N016K,2026-06-01,25.034164,121.619664,0.9987377
C2V920,匏子寮,2026-06-01,23.04905,120.55319,0.9976385
C1V600,藤枝,2026-06-01,23.071961,120.757042,0.0005324282
C1E601,南勢,2026-06-01,24.572486,120.734842,0.99895775
C0O980,新市,2026-06-01,23.061614,120.298197,0.64451927
C0K420,西螺,2026-06-01,23.800407,120.467394,0.99285156
C0Z050,佳心,2026-06-01,23.34567,121.21316,0.9999064
C0AD30,蘆洲,2026-06-01,25.086594,121.472331,0.99816275
C0V610,梓官,2026-06-01,22.760558,120.267211,0.71110827
K2F750,種苗改良場,2026-06-01,24.225972,120.800917,0.99966645
C0UA80,大溪漁港,2026-06-01,24.941801,121.902955,0.47143176
C1AI60,國一39K邊坡,2026-06-01,25.064361,121.383836,0.9995285
C0W150,金寧,2026-06-01,24.457703,118.328989,2.1991376e-05
C0R960,內埔,2026-06-01,22.608483,120.570714,0.99641204
C2H9S0,龍南,2026-06-01,23.953536,120.833183,0.6702547
C0AH40,平等,2026-06-01,25.129142,121.577086,0.000121694735
C0R540,佳冬,2026-06-01,22.419456,120.552375,0.9765896
466950,彭佳嶼,2026-06-01,25.627975,122.079744,7.0336896e-09
C0A890,雙溪,2026-06-01,25.036003,121.864242,0.12172684
C0AH50,林口,2026-06-01,25.072181,121.38084,0.9995292
A2K360,水試臺西試驗場,2026-06-01,23.717231,120.190522,0.9822581
C2M960,外寮,2026-06-01,23.562643,120.665688,0.9839314
C0F9S0,烏日,2026-06-01,24.107058,120.624103,0.98818374
C2N180,鹿陶洋,2026-06-01,23.14325,120.48352,0.7299966
C0C490,八德,2026-06-01,24.928708,121.283289,0.998857
C0R190,赤山,2026-06-01,22.592333,120.614306,0.99613404
C0T820,天祥,2026-06-01,24.179597,121.495639,0.9983024
C1F9E1,龍安,2026-06-01,24.1605,120.831961,0.9997365
C2SD50,順那,2026-06-01,23.04166,121.29332,0.87390697
C0V820,小林,2026-06-01,23.148408,120.63325,0.99976385
C2G870,芳苑,2026-06-01,23.922303,120.320025,0.8208832
C0E850,大河,2026-06-01,24.618069,120.948578,0.9997797
C1U670,寒溪,2026-06-01,24.634,121.71691,0.8914046
C0N020,城西,2026-06-01,23.0568,120.0956,0.7865276
C1Z110,三棧,2026-06-01,24.11557,121.60501,0.99502987
C0R280,檳榔,2026-06-01,22.076078,120.836777,0.9974861
C2H9J0,中台,2026-06-01,23.9996,120.938739,0.9999723
C0F9L0,后里,2026-06-01,24.310436,120.729725,0.9997832
467441,高雄,2026-06-01,22.730432,120.312516,0.93702924
C2N210,岩坑,2026-06-01,23.24614,120.47458,0.906243
C0Z180,新城,2026-06-01,24.040486,121.604878,0.65347344
C0D540,橫山,2026-06-01,24.71116,121.11693,0.9998276
C1D420,太閣南,2026-06-01,24.632808,121.160575,8.732195e-05
C1E770,公館,2026-06-01,24.526914,120.830806,0.99972534
CAN130,水試所海水繁養殖中心,2026-06-01,23.120802,120.07968,0.7713227
C1I430,翠華,2026-06-01,24.191961,121.224339,5.5726805e-08
C1M400,菜瓜坪,2026-06-01,23.251928,120.576103,0.9997697
C0G730,二林,2026-06-01,23.903325,120.376081,0.97154146
72M360,南改義竹分場,2026-06-01,23.360694,120.279361,0.90972275
V2K620,麥寮合作社,2026-06-01,23.753836,120.294783,0.9440027
C0Z070,舞鶴,2026-06-01,23.46811,121.37407,0.9737726
C0B040,大武崙,2026-06-01,25.166676,121.706993,0.9947729
C1Z030,紅葉,2026-06-01,23.493119,121.338806,0.9659466
C1I050,丹大,2026-06-01,23.753747,121.141147,8.2035804e-05
C0I080,信義,2026-06-01,23.689694,120.851036,0.9999402
C2TB80,庄子底,2026-06-01,23.71794,121.49438,0.9682104
C0D750,樂山林道6k,2026-06-01,24.49999,121.08773,1.010958e-08
C2M920,朴子農改,2026-06-01,23.469889,120.259383,0.9727273
C2A880,福隆,2026-06-01,25.017842,121.942083,0.64605224
C0Z160,鳳林,2026-06-01,23.746114,121.453411,0.97119135
C0UB80,翠峰林道6K,2026-06-01,24.49773,121.568625,2.8022786e-09
C0V210,復興,2026-06-01,23.222403,120.806089,0.9999611
C0H990,昆陽,2026-06-01,24.121322,121.273642,2.23901e-08
C0R741,獅子,2026-06-01,22.202308,120.705236,0.99937445
C0S710,鹿野,2026-06-01,22.917711,121.122994,0.9988786
C0I530,小奇萊,2026-06-01,24.131764,121.295717,3.8981945e-08
C0FA70,大雪山埡口,2026-06-01,24.26867,121.03062,3.0340356e-08
C2K630,荷苞,2026-06-01,23.657717,120.595144,0.9769944
C0Z080,富源,2026-06-01,23.587642,121.378225,0.98893666
C2M9E0,旺來山,2026-06-01,23.555153,120.486463,0.9157901
C0SB10,美和,2026-06-01,22.682078,121.060236,0.71069944
C2K620,馬光農場,2026-06-01,23.721453,120.378864,0.96245635
C1I140,卡奈托灣,2026-06-01,23.754364,121.087872,0.00013572641
C0I520,玉山風口,2026-06-01,23.470489,120.955994,9.497491e-08
C1G691,下水埔,2026-06-01,23.816114,120.5676,0.97397673
C0X110,臺南市南區,2026-06-01,22.961189,120.188378,0.672117
C0V680,仁武,2026-06-01,22.701083,120.347722,0.93702924
C2G840,北斗,2026-06-01,23.877586,120.514222,0.9920632
C2TB90,長橋,2026-06-01,23.6874,121.46186,0.9725699
C0R900,竹坑,2026-06-01,22.1385,120.7022,0.99983317
C0G860,社頭,2026-06-01,23.897647,120.5862,0.9862266
C0X150,安定,2026-06-01,23.102614,120.227839,0.72408175
C0R590,里港,2026-06-01,22.77919,120.49459,0.9906963
C0E610,馬都安,2026-06-01,24.451272,120.930192,0.9997868
C0E550,明德,2026-06-01,24.583486,120.885411,0.9998519
C0R150,三地門,2026-06-01,22.709889,120.639944,0.98678863
C0G910,花壇,2026-06-01,24.032076,120.549461,0.9784908
C1D400,鳥嘴山,2026-06-01,24.71909,121.28387,0.1072708
C0K500,元長,2026-06-01,23.64981,120.315024,0.98027784
C0F0B0,石岡,2026-06-01,24.276061,120.777644,0.99981886
C2V250,甲仙,2026-06-01,23.080106,120.591758,0.99866873
C0SA20,金崙山,2026-06-01,22.567419,120.959667,0.192917
C0V350,溪埔,2026-06-01,22.738578,120.446797,0.98245955
C0M660,溪口,2026-06-01,23.604131,120.403569,0.94606483
C1S880,壽卡,2026-06-01,22.238911,120.858903,0.9998754
72D680,桃改新埔分場,2026-06-01,24.834444,121.066111,0.99855775
