站號,站名,日期,lat,lon,BLBTSLS
C0R710,龍磐,2026-04-27,21.931672,120.838942,0.032776896
C1F9D1,白毛台,2026-04-27,24.158325,120.886933,1.1555614e-08
C0G940,竹塘,2026-04-27,23.848253,120.386764,0.80461025
467590,恆春,2026-04-27,22.003897,120.746339,0.08841494
C0U710,太平山,2026-04-27,24.505486,121.525656,1.271702e-08
C0E820,獅潭,2026-04-27,24.539133,120.920042,5.1499717e-07
C2SD70,二層坪,2026-04-27,22.94105,121.16838,7.1844797e-06
C0V880,興達,2026-04-27,22.8778,120.2127,0.9996306
C0SB30,新蘭,2026-04-27,22.869214,121.223228,0.043144666
C2R970,屏科大,2026-04-27,22.648275,120.619247,0.999691
C1Z130,銅門,2026-04-27,23.965694,121.492842,0.00034941896
C0AD40,土城,2026-04-27,24.973208,121.445169,0.15310459
CAN140,六官養殖協會,2026-04-27,23.22881,120.29962,0.996973
C0X180,山上,2026-04-27,23.0757,120.363253,0.9998417
C0F9Z0,雪山東峰,2026-04-27,24.388792,121.268675,8.384894e-09
C1M480,獨立山,2026-04-27,23.537022,120.607797,1.410658e-09
C0X220,學甲,2026-04-27,23.230367,120.182187,0.97069275
467650,日月潭,2026-04-27,23.881325,120.90805,2.6351195e-09
A2K570,古坑(花卉中心),2026-04-27,23.633531,120.552392,0.999829
C0K600,箔子寮,2026-04-27,23.6197,120.14,0.345057
C0G830,埤頭,2026-04-27,23.866003,120.452806,0.33115152
C0S950,七塊厝,2026-04-27,22.954453,121.229922,1.37484895e-08
467110,金門,2026-04-27,24.407306,118.289281,0.25995305
C0AH80,深坑,2026-04-27,25.002703,121.628328,0.9900625
C0A970,三貂角,2026-04-27,25.007606,122.002058,0.9912364
C2D730,寶山農場,2026-04-27,24.732444,120.976153,0.051304635
C0K430,褒忠,2026-04-27,23.690938,120.303634,0.031700358
467480,嘉義,2026-04-27,23.495925,120.432906,0.9984825
C0V400,阿公店,2026-04-27,22.804194,120.355528,0.9993092
C2S800,華源,2026-04-27,22.65783,121.0232,2.1220444e-06
C2SA40,瑞和,2026-04-27,22.974361,121.156697,1.2271744e-05
C0E960,觀霧分站,2026-04-27,24.505781,121.113921,2.9903986e-09
467550,玉山,2026-04-27,23.48718,120.95943,1.5090809e-08
C0R440,大漢山,2026-04-27,22.405264,120.753181,9.069656e-09
C0SD30,東清國小,2026-04-27,22.057128,121.564922,0.0059471917
C1F9B1,桐林,2026-04-27,24.066172,120.735194,0.99973667
C2I210,蘆竹湳,2026-04-27,23.93398,120.81209,1.3229345e-06
C2H9U0,鳳鵬,2026-04-27,23.763919,120.788061,0.002898736
C0K390,土庫,2026-04-27,23.679029,120.395574,0.9737621
C1I450,望鄉山,2026-04-27,23.594153,120.944286,5.234707e-09
C0E910,海埔,2026-04-27,24.648767,120.772435,0.00024447675
B2E890,畜試北區分所,2026-04-27,24.527806,120.770972,1.839322e-07
C0R750,四林格山,2026-04-27,22.076989,120.802439,0.427513
C0F0C0,中坑,2026-04-27,24.248517,120.903319,2.2048514e-09
C1I121,大鞍,2026-04-27,23.678381,120.760017,2.2946076e-09
C2G9E0,移民庄,2026-04-27,23.9784,120.40283,0.12387602
72U480,花改蘭陽分場,2026-04-27,24.686306,121.716583,0.00012734177
C0A770,科教館,2026-04-27,25.096356,121.516507,0.3335121
C0AJ60,六塊厝,2026-04-27,25.24,121.4481,0.9938338
C0R620,墾雷,2026-04-27,21.900836,120.855269,0.03286596
467420,永康,2026-04-27,23.038386,120.2367,0.9998744
C2M530,奮起湖,2026-04-27,23.493903,120.699253,1.6346794e-09
C0I410,名間,2026-04-27,23.837053,120.701447,0.99813515
A2C560,農工中心,2026-04-27,24.985917,121.239833,0.006210014
C0V740,旗山,2026-04-27,22.888614,120.483597,0.9996629
C0Z061,玉里,2026-04-27,23.3215,121.339656,1.0047221e-05
C0S840,南田,2026-04-27,22.279725,120.889208,0.33281443
C1I470,杉林溪,2026-04-27,23.639517,120.786444,1.7896891e-09
C1X040,東原,2026-04-27,23.291597,120.463822,0.9576381
C0R660,枋寮,2026-04-27,22.367722,120.590647,0.9972127
C0K450,大埤,2026-04-27,23.646074,120.431537,0.99971265
C0UA00,土場,2026-04-27,24.576533,121.495333,0.0022848046
467080,宜蘭,2026-04-27,24.763975,121.756528,0.06639739
C0N030,四草,2026-04-27,23.0235,120.1116,0.9975302
467410,臺南,2026-04-27,22.99328,120.20492,0.9996423
C0V650,彌陀,2026-04-27,22.783806,120.246361,0.99942255
C0D660,新竹市東區,2026-04-27,24.798681,120.986942,0.020479156
82S580,茶改東部分場,2026-04-27,22.907694,121.130139,8.3968014e-05
C0SB40,興隆,2026-04-27,22.913661,121.257469,0.97509235
467050,新屋,2026-04-27,25.006725,121.047492,0.11801369
C0C710,大溪永福,2026-04-27,24.892936,121.324975,0.048027474
C0FA20,溫寮,2026-04-27,24.372177,120.583125,8.642833e-05
C0V640,湖內,2026-04-27,22.887139,120.2445,0.9996296
C0R910,下寮,2026-04-27,22.3929,120.5548,0.99833983
C0Z020,明里,2026-04-27,23.208717,121.262342,2.2855772e-06
C0M770,嘉義梅山,2026-04-27,23.585398,120.555587,0.99926907
C0C660,楊梅,2026-04-27,24.912375,121.143047,0.001307007
C0SD40,牛頭山,2026-04-27,22.676661,121.506944,0.105773434
C1E511,新開,2026-04-27,24.347703,120.827019,2.1310204e-06
G2F820,農試所(霧峰),2026-04-27,24.031261,120.688133,0.99976885
C2M990,大巃頂,2026-04-27,23.5547,120.61439,1.0725439e-09
C1I070,和社,2026-04-27,23.591131,120.888861,1.4433839e-09
C2E990,新坪頂,2026-04-27,24.30201,120.8574,2.517688e-09
C0TA80,立霧山,2026-04-27,24.183258,121.641899,1.567658e-08
C2F000,大肚,2026-04-27,24.15295,120.572117,0.86982745
C1S850,豐南,2026-04-27,23.122139,121.262389,1.3269036e-08
C2M9B0,西興,2026-04-27,23.2428,120.57617,1.1590931e-06
C2A920,富貴角,2026-04-27,25.263783,121.565258,0.8926564
C0T960,光復,2026-04-27,23.660694,121.424964,0.00021295049
C0F9M0,豐原,2026-04-27,24.254322,120.720692,0.99975353
C0R720,旭海,2026-04-27,22.205403,120.887614,0.5388894
C0V710,苓雅,2026-04-27,22.622742,120.330669,0.9995548
C0C740,觀音工業區,2026-04-27,25.064764,121.114856,0.0016806489
CAC040,拉拉山,2026-04-27,24.699317,121.427133,7.615422e-09
C0V790,萬山,2026-04-27,22.905944,120.688056,0.99384636
U2HA30,臺大和社,2026-04-27,23.590856,120.888864,1.4433839e-09
C2H9K0,屯原,2026-04-27,24.067969,121.209389,1.6313746e-09
C0AJ90,澳底,2026-04-27,25.0552,121.9253,0.787945
C0Z100,東華,2026-04-27,23.89525,121.549833,0.0090614315
C0G970,三豐,2026-04-27,23.882,120.2895,0.027192399
C0V900,汕尾,2026-04-27,22.4782,120.4151,0.9961461
C1R630,龍泉,2026-04-27,22.66701,120.59091,0.9996486
C1AC50,關渡,2026-04-27,25.133486,121.469331,0.84055024
C0C800,四稜,2026-04-27,24.64733,121.4293,1.1449341e-08
C0F9I0,神岡,2026-04-27,24.272481,120.658314,0.98683786
C0K460,斗南,2026-04-27,23.678734,120.478359,0.9997108
C2O810,曾文,2026-04-27,23.219681,120.497328,0.99775517
467280,後龍,2026-04-27,24.648563,120.831834,5.3907097e-05
C1F9J1,清水林,2026-04-27,24.071242,120.820419,2.7968815e-08
C2A650,火燒寮,2026-04-27,25.002719,121.742892,0.067609854
466930,竹子湖,2026-04-27,25.162078,121.544547,2.0682098e-06
C1I220,樟湖,2026-04-27,23.905333,120.846983,2.894604e-09
C0I390,仁愛,2026-04-27,24.022122,121.132206,1.4188045e-09
C0Z300,東里,2026-04-27,23.26853,121.30547,4.7441904e-06
C1V590,新發,2026-04-27,23.057019,120.646064,2.2587777e-05
C0K510,水林,2026-04-27,23.572924,120.24597,0.07320905
72S590,東改賓朗果園,2026-04-27,22.813889,121.071278,1.3500892e-08
82A750,茶改北部分場,2026-04-27,24.955778,121.631222,0.0017338308
C1A750,石碇服務區,2026-04-27,25.00872,121.646242,0.9605809
C0X300,鹿寮,2026-04-27,23.386047,120.477331,0.9984807
C0K590,雲林東勢,2026-04-27,23.674192,120.255721,0.014893311
C2K310,港尾布雞,2026-04-27,23.74834,120.38439,0.9751817
C0A570,桶後,2026-04-27,24.848222,121.597992,0.33680245
C0G720,溪州,2026-04-27,23.851589,120.499093,0.31832063
C1V160,達卡努瓦,2026-04-27,23.279811,120.705319,1.8043693e-09
C2M410,馬頭山,2026-04-27,23.324361,120.582017,0.016715368
C0V850,蚵仔寮,2026-04-27,22.7256,120.2527,0.9993869
C0S740,池上,2026-04-27,23.119628,121.209469,2.7554881e-06
C1V390,尖山,2026-04-27,22.813153,120.367789,0.9993101
C0AH70,松山,2026-04-27,25.04871,121.55042,0.24305384
C0N010,鯤鯓國小,2026-04-27,23.1879,120.0889,0.97598386
C0SA60,知本（水試所）,2026-04-27,22.702394,121.082761,0.00026095632
C0T9I0,豐濱,2026-04-27,23.583897,121.514806,0.0011872042
C0UB00,淡江大學蘭陽校園,2026-04-27,24.823239,121.730383,8.9397325e-08
C0W240,九宮,2026-04-27,24.423753,118.240186,0.14127891
C0T9N0,富里,2026-04-27,23.171639,121.249378,6.740853e-07
U2HA50,臺大竹山,2026-04-27,23.756972,120.681556,0.9995729
C0V840,鳳鼻頭,2026-04-27,22.5083,120.3591,0.9963428
C0X140,西港,2026-04-27,23.125608,120.203108,0.99773383
72D080,桃改五峰分場,2026-04-27,24.612194,121.157167,8.7622504e-10
C2H9P0,伊拿谷,2026-04-27,23.963211,121.088264,3.46228e-09
C2K250,崙背,2026-04-27,23.75553,120.31893,0.03107932
C2H9F0,柑林,2026-04-27,24.018658,120.847072,0.2410723
C0TA20,加灣,2026-04-27,24.082025,121.608944,0.023824206
C0V530,阿蓮,2026-04-27,22.883208,120.327508,0.99979776
C0FB30,八仙山苗圃,2026-04-27,24.192719,121.001366,2.5480753e-09
C0E791,卓蘭,2026-04-27,24.3126,120.8244,6.021885e-07
C2R260,春日,2026-04-27,22.370361,120.628306,0.68902516
C1I030,武界,2026-04-27,23.913225,121.052483,5.0930047e-09
C0R520,崁頂,2026-04-27,22.514781,120.506914,0.9970521
C0R341,牡丹,2026-04-27,22.130036,120.792639,0.70802826
C0R930,萬丹,2026-04-27,22.5885,120.4851,0.9946549
C0S760,紅石,2026-04-27,23.069131,121.126219,5.200959e-09
C2C410,中央大學,2026-04-27,24.967652,121.185165,0.004992537
C1M610,石磐龍,2026-04-27,23.496606,120.663506,1.8061563e-09
C2C830,中德,2026-04-27,24.981862,121.291344,0.007398685
C0C790,東眼山,2026-04-27,24.8284,121.40888,6.156171e-08
C0UA10,鴛鴦湖,2026-04-27,24.590269,121.412228,8.870007e-09
C0R800,丹路,2026-04-27,22.204481,120.750989,0.80406666
C2R240,萬巒,2026-04-27,22.527306,120.625111,0.99696827
C0G920,永靖,2026-04-27,23.924703,120.547533,0.14490873
C2M950,太和,2026-04-27,23.538372,120.702961,1.6350349e-09
C1A630,下盆,2026-04-27,24.771003,121.538622,3.8602302e-08
B2N890,畜產試驗所,2026-04-27,23.058972,120.336406,0.99985725
C0UA30,白嶺,2026-04-27,24.527819,121.519031,9.527915e-09
467571,新竹,2026-04-27,24.828575,121.01455,2.9720466e-05
C1V580,溪南(特生中心),2026-04-27,23.084972,120.788475,1.3460054e-09
C1T970,大農,2026-04-27,23.615233,121.413331,1.6295788e-05
C0R650,竹田,2026-04-27,22.58486,120.54344,0.9951884
C1H900,清流,2026-04-27,24.080775,120.962997,4.164312e-09
C1C510,水尾,2026-04-27,24.940081,121.087161,0.00015724408
C2N170,茅港尾,2026-04-27,23.2061,120.2624,0.996973
C0F9X0,大雅(中科園區),2026-04-27,24.21528,120.62445,0.99933
C0SB60,白守蓮,2026-04-27,23.126769,121.401914,0.78682756
C0O970,虎頭埤,2026-04-27,23.021375,120.347878,0.99982566
C0C730,中大臨海站,2026-04-27,24.966126,121.008581,0.00020185884
C0X250,新營,2026-04-27,23.310689,120.316681,0.9956899
C0V700,三民,2026-04-27,22.645017,120.311233,0.9996959
C0U870,大礁溪,2026-04-27,24.791042,121.675047,6.544391e-08
C0E870,高鐵苗栗,2026-04-27,24.60725,120.826094,5.792946e-05
C2S890,關山,2026-04-27,23.0395,121.175017,1.3388044e-05
C0TA30,鹽寮,2026-04-27,23.845606,121.592664,0.030368583
C0M860,新美,2026-04-27,23.338017,120.683169,2.7241913e-07
C1E701,八卦,2026-04-27,24.491756,120.927619,1.1679319e-09
C2TA90,加納納,2026-04-27,23.466421,121.359867,8.049181e-05
C0I420,國姓,2026-04-27,24.037803,120.855072,0.06209789
C2D720,關西工作站,2026-04-27,24.757275,121.184792,0.95233864
C2AK30,信賢,2026-04-27,24.84108,121.53492,0.018062577
C0S960,香蘭,2026-04-27,22.587569,120.993375,4.808292e-06
467620,蘭嶼,2026-04-27,22.0369,121.55843,0.03687365
C2UC40,中城,2026-04-27,24.62865,121.74745,0.010753916
72G600,臺中農改場,2026-04-27,24.003028,120.534389,0.99170005
C0Z210,瑞穗,2026-04-27,23.5239,121.39021,0.00060435385
C0M820,達邦,2026-04-27,23.453994,120.749517,3.1530432e-09
C0V860,南寮,2026-04-27,22.7616,120.2339,0.9993869
C0G740,大城,2026-04-27,23.852487,120.320935,0.028492998
C0R920,塭仔,2026-04-27,22.4169,120.5197,0.9983227
C0R470,高樹,2026-04-27,22.826389,120.600806,0.9997106
C0R680,佳樂水,2026-04-27,21.993578,120.861633,0.033629175
C1O870,大棟山,2026-04-27,23.31157,120.52226,1.8979838e-09
C0D360,梅花,2026-04-27,24.678347,121.208558,6.693698e-07
C0Z190,富世,2026-04-27,24.14743,121.6297,0.33129588
C0AI10,屈尺,2026-04-27,24.92184,121.54475,0.02685177
B2U990,畜試東區分所,2026-04-27,24.669039,121.832561,0.04443742
C0SB80,長濱漁港,2026-04-27,23.313644,121.459994,0.6206763
C0TA50,和仁,2026-04-27,24.241394,121.712472,0.99122316
C2AK40,漁光,2026-04-27,24.96875,121.72132,4.8204907e-08
C0V910,大樹,2026-04-27,22.684645,120.432803,0.99966437
C1R610,西大武山,2026-04-27,22.617719,120.7322,6.6571793e-09
C0G900,線西,2026-04-27,24.143358,120.443536,0.9637964
C0M700,竹崎,2026-04-27,23.526178,120.555508,0.9989941
C2E880,三義,2026-04-27,24.405478,120.749819,1.2628264e-08
C0C720,竹圍,2026-04-27,25.112692,121.239824,0.022599094
C0F9P0,清水,2026-04-27,24.312297,120.562242,0.035588887
C0Z150,吉安光華,2026-04-27,23.930925,121.595153,0.53487945
C0FA80,小雪山天池,2026-04-27,24.28025,121.02627,7.396693e-09
467300,東吉島,2026-04-27,23.25727,119.66762,0.95026875
C1D640,外坪(五指山),2026-04-27,24.644447,121.090961,1.796423e-09
C2R9A0,高士國小,2026-04-27,22.12553,120.84653,0.73502564
C0F9O0,潭子,2026-04-27,24.213106,120.703933,0.9997849
C2H9R0,卓社,2026-04-27,23.887894,121.000086,1.3167577e-09
72T250,花蓮農改場,2026-04-27,23.975222,121.563889,0.2645713
C0E780,銅鑼,2026-04-27,24.489681,120.790853,1.9075681e-07
C1T950,太安,2026-04-27,23.666719,121.370128,4.9909925e-09
C0E830,苑裡,2026-04-27,24.439714,120.653053,4.7273984e-06
467270,田中,2026-04-27,23.873803,120.581286,0.9991412
C0SA10,檳榔四格山,2026-04-27,22.810031,121.109308,6.074034e-09
C1T830,布洛灣,2026-04-27,24.17184,121.57127,1.5859608e-06
C0F970,大坑,2026-04-27,24.173142,120.722289,0.99973154
C1U920,思源,2026-04-27,24.393125,121.347214,3.540872e-09
C2H9Y0,松茗,2026-04-27,23.8167,120.650765,0.00047601925
C0A931,三和,2026-04-27,25.233153,121.595236,0.00050467206
C0I010,廬山,2026-04-27,24.033311,121.181808,2.0212527e-09
C2M940,日野賀,2026-04-27,23.434056,120.727169,4.138712e-09
C0R860,鼻頭,2026-04-27,22.1043,120.8979,0.022195179
C2I260,北坑,2026-04-27,23.92463,121.00683,0.00026623358
C0UB20,壯圍,2026-04-27,24.7359,121.8163,0.46992937
C0R790,九棚,2026-04-27,22.14195,120.889281,0.46681026
C0W110,東莒,2026-04-27,25.9652,119.98069,3.6422676e-05
C1U930,粉鳥林,2026-04-27,24.497088,121.842479,0.77441126
C0S830,長濱,2026-04-27,23.286817,121.411975,3.0293542e-05
C1F9F1,伯公龍,2026-04-27,24.272392,120.849047,1.6470487e-08
C0UB90,太平山莊,2026-04-27,24.494171,121.536209,1.2816492e-08
C0E810,西湖,2026-04-27,24.562947,120.7485,1.7997503e-05
C1I440,新高口,2026-04-27,23.478744,120.878939,2.8728449e-09
C0O840,王爺宮,2026-04-27,23.222064,120.40085,0.9985186
C0T9G0,鳳林山,2026-04-27,23.735269,121.420131,4.27084e-08
C0X080,佳里,2026-04-27,23.173039,120.145086,0.97734946
C0FB70,大甲溪埔,2026-04-27,24.370625,120.620067,8.745186e-05
C0Z310,清水斷崖,2026-04-27,24.218294,121.689142,0.833731
C0M680,太保,2026-04-27,23.455062,120.331455,0.98919946
C1S820,金峰,2026-04-27,22.590969,120.933236,6.277799e-05
C0AD10,八里,2026-04-27,25.150211,121.403947,0.8286044
C2K240,草嶺,2026-04-27,23.59555,120.693461,1.6044964e-09
C1SA70,都蘭,2026-04-27,22.87794,121.226881,0.027972013
C0K440,二崙,2026-04-27,23.772797,120.408944,0.22421418
C1A760,坪林交控,2026-04-27,24.94284,121.713442,0.8203853
C0F9N0,大里,2026-04-27,24.092464,120.701378,0.9997483
C0SA90,達仁林場,2026-04-27,22.264347,120.823972,0.6026335
C1R290,石門山,2026-04-27,22.112611,120.756597,0.92645943
42HA10,萬大發電廠,2026-04-27,23.978875,121.139639,1.7841438e-09
C0R890,山海,2026-04-27,21.9878,120.7091,0.089338906
C0T9A0,月眉山,2026-04-27,23.809928,121.539828,1.8784252e-08
C0AC70,信義,2026-04-27,25.037822,121.564597,0.47019282
C0K560,棋山,2026-04-27,23.68645,120.603417,0.99977136
C2FB50,出雲,2026-04-27,24.206469,120.902794,1.5492516e-09
C1Z240,中平林道,2026-04-27,23.42115,121.26763,9.984618e-09
U2H480,溪頭,2026-04-27,23.670306,120.798194,1.0151969e-09
C0M880,好美里,2026-04-27,23.3364,120.138,0.883046
C0T9E0,大坑,2026-04-27,23.880628,121.581981,1.1901644e-07
C0K530,臺西,2026-04-27,23.701547,120.197559,0.67071706
C1E900,國一N128K,2026-04-27,24.560997,120.844186,1.656632e-06
C0AJ50,水湳洞,2026-04-27,25.123695,121.862238,0.68705183
C0AI20,白沙灣,2026-04-27,25.283128,121.519058,0.99806833
C2V310,美濃,2026-04-27,22.898792,120.51907,0.9996639
C0A860,大坪,2026-04-27,25.165914,121.632969,5.9498e-05
C1U850,觀音海岸,2026-04-27,24.38319,121.77856,1.4425306e-07
C2K610,草嶺石壁,2026-04-27,23.602469,120.707731,1.5633067e-09
C0U950,鶯子嶺,2026-04-27,24.89754,121.79244,1.749473e-08
C0O900,善化,2026-04-27,23.112883,120.297219,0.99985945
C0K550,蔦松,2026-04-27,23.514319,120.229736,0.24214752
E2P980,林試六龜中心,2026-04-27,22.991703,120.645722,0.9999101
C0E590,通霄,2026-04-27,24.471892,120.704622,1.7996895e-07
C1I310,西巒,2026-04-27,23.754486,120.883956,4.105134e-09
C0A550,泰平,2026-04-27,24.971197,121.823711,4.4617573e-06
C2UC30,金洋,2026-04-27,24.42465,121.74573,0.017778307
C0I360,水里,2026-04-27,23.812553,120.849792,0.019881122
C0R830,高士,2026-04-27,22.121825,120.836781,0.9017847
C1I101,溪頭,2026-04-27,23.661789,120.807647,1.9697248e-09
C0AJ20,野柳,2026-04-27,25.20703,121.690021,0.9906829
C0B060,暖暖,2026-04-27,25.0957,121.7403,0.0360292
C1H920,長豐,2026-04-27,24.102039,120.879897,5.037031e-09
C2S9B0,利吉,2026-04-27,22.86246,121.15486,0.00019458405
C0V360,內門,2026-04-27,22.975481,120.466769,0.99972636
C0R850,林邊,2026-04-27,22.4634,120.5339,0.9976437
C0E930,龍鳳,2026-04-27,24.700034,120.859125,0.0050838725
C0U910,冬山,2026-04-27,24.63373,121.7937,0.04443742
C1E721,泰安,2026-04-27,24.489017,120.968036,1.1626975e-09
82H320,茶改中部分場,2026-04-27,23.875611,120.913583,5.5298908e-09
C0M750,布袋,2026-04-27,23.380878,120.167789,0.19501804
C1S860,利嘉,2026-04-27,22.809417,121.050528,8.1817735e-09
E2S980,林試太麻里1,2026-04-27,22.598922,120.980044,0.0038749548
C0X170,關廟,2026-04-27,22.963017,120.327797,0.9998468
C0V720,林園,2026-04-27,22.507747,120.394511,0.99585074
C2M9G0,沄水,2026-04-27,23.38293,120.52666,0.45912713
C1I510,線浸林道,2026-04-27,23.761508,120.832956,2.8194238e-09
C0D690,外湖,2026-04-27,24.917735,120.968711,1.4981576e-06
C0C750,新興坑尾,2026-04-27,25.0061,121.0971,0.0012964649
B2Q810,畜試南區分所,2026-04-27,21.945583,120.802167,0.033629227
C0S790,金崙,2026-04-27,22.538122,120.966875,2.0022822e-05
C0AH90,福山植物園,2026-04-27,24.760717,121.58135,1.8516607e-08
C0I540,奇萊稜線,2026-04-27,24.109231,121.326456,8.818691e-09
C0M850,表湖,2026-04-27,23.24186,120.64166,1.5495392e-08
C0S770,大溪山,2026-04-27,22.478475,120.943325,0.0008750403
C0AG80,中和,2026-04-27,24.991622,121.491792,0.15310459
C0T790,大禹嶺,2026-04-27,24.186117,121.316086,5.9208936e-09
C0T9B0,水源,2026-04-27,23.991861,121.537169,2.9647584e-08
C0R840,牡丹池山,2026-04-27,22.168389,120.841225,0.29607964
C1I131,桶頭,2026-04-27,23.641944,120.654117,0.25513753
CAL110,布袋國中,2026-04-27,23.35893,120.18026,0.883046
C2M9D0,何竹子腳,2026-04-27,23.53641,120.38203,0.99852216
C0Z290,赤柯山,2026-04-27,23.36893,121.38293,4.932714e-09
C0X280,將軍,2026-04-27,23.214999,120.13577,0.9709774
C0S690,太麻里,2026-04-27,22.60902,120.98533,1.4222299e-08
C0U880,北關,2026-04-27,24.9072,121.8734,0.83374214
CAW010,東引,2026-04-27,26.3588,120.4836,0.0032755532
C0G810,埔心,2026-04-27,23.947633,120.525456,0.14152531
C0U970,大福,2026-04-27,24.80064,121.81389,0.06783496
C2H9N0,仁愛東眼,2026-04-27,24.026875,121.1205,1.370536e-09
C1E670,南礦,2026-04-27,24.538278,121.002836,1.0481561e-09
C0M520,東後寮,2026-04-27,23.369908,120.248065,0.7087432
C1E461,松安,2026-04-27,24.397972,120.986022,1.1257929e-09
C2N160,西拉雅風管處,2026-04-27,23.189481,120.335297,0.99830204
C2O850,環湖,2026-04-27,23.148665,120.4186,0.99897736
C2M970,碧湖,2026-04-27,23.568632,120.624165,1.076446e-09
C0A640,石碇,2026-04-27,24.993969,121.662917,0.8203853
E2S960,林試太麻里2,2026-04-27,22.598,120.99775,9.424537e-06
C0F9Y0,桃山,2026-04-27,24.432739,121.303808,9.225741e-09
C1I020,萬大,2026-04-27,23.979817,121.132261,1.4217979e-09
C2UC20,長嶺,2026-04-27,24.70894,121.61162,3.8406696e-07
C0U940,羅東,2026-04-27,24.68184,121.74934,0.00012715842
C0M650,朴子,2026-04-27,23.43463,120.23902,0.38753113
C1I500,大尖山,2026-04-27,23.858572,120.994889,2.1178022e-09
C0FB40,中橫21.6k,2026-04-27,24.2499,121.1455,4.4890434e-09
C0G820,田尾,2026-04-27,23.901669,120.509389,0.14152531
E2K600,四湖植物園,2026-04-27,23.676986,120.163433,0.36445698
C0S730,綠島,2026-04-27,22.6672,121.47533,0.31503537
12Q970,東港工作站,2026-04-27,22.479997,120.466058,0.9975963
C1TA00,太魯閣,2026-04-27,24.15773,121.6236,0.024864329
466920,臺北,2026-04-27,25.037658,121.514853,0.24305384
C0R600,舊泰武,2026-04-27,22.588194,120.664944,0.00039374654
466910,鞍部,2026-04-27,25.182586,121.529731,7.584651e-08
C1I230,九份二山,2026-04-27,23.961944,120.845,1.6780097e-08
C2M810,里佳,2026-04-27,23.389125,120.716647,2.2161002e-09
C2A660,瑞芳,2026-04-27,25.113169,121.801147,0.26495963
C0R270,琉球嶼,2026-04-27,22.332244,120.362236,0.9995434
C2V580,瑞山,2026-04-27,22.90304,120.43424,0.99972194
C1T990,高寮,2026-04-27,23.394239,121.356808,0.01435096
C0G620,芬園,2026-04-27,24.015678,120.6213,0.9836561
C1Z140,荖溪,2026-04-27,23.890575,121.45964,3.26373e-08
C1I201,中心崙,2026-04-27,23.728722,120.712097,1.0693072e-07
C1I400,凌霄,2026-04-27,24.018778,121.004456,1.4205727e-09
C1M640,十字,2026-04-27,23.492153,120.753683,1.8424893e-09
G2P820,農試鳳山分所,2026-04-27,22.646611,120.356083,0.99955887
C0Z270,蕃薯寮,2026-04-27,23.73835,121.540108,2.900047e-07
C2E420,竹南,2026-04-27,24.70898,120.88897,0.004319605
C2D480,打鐵坑,2026-04-27,24.849664,121.150789,0.013529954
C0FB10,出雲山苗圃,2026-04-27,24.23105,120.90475,2.2048514e-09
C0F9Q0,外埔,2026-04-27,24.347817,120.705686,0.017086936
C0K580,高鐵雲林,2026-04-27,23.737456,120.417944,0.97415924
C2I090,鳳凰,2026-04-27,23.728081,120.787347,2.0738002e-09
C0U990,員山,2026-04-27,24.74435,121.72247,0.00013850625
C0V770,大社,2026-04-27,22.730306,120.346639,0.9991604
C0X120,麻豆,2026-04-27,23.183289,120.248611,0.9980145
C0C670,龍潭,2026-04-27,24.870056,121.221389,0.30236167
C0D680,香山濕地,2026-04-27,24.783581,120.914988,1.4981576e-06
C0S980,勝林山,2026-04-27,22.430439,120.8938,1.2667873e-06
C0V730,大寮,2026-04-27,22.605614,120.395717,0.9989723
C0R570,麟洛,2026-04-27,22.65078,120.52719,0.9989718
C2M930,石卓,2026-04-27,23.478744,120.702264,1.8370082e-09
C0G9B0,和美,2026-04-27,24.105169,120.492131,0.9963799
C2I240,外大坪,2026-04-27,23.9587,120.91788,9.398968e-09
CAG100,王功漁港,2026-04-27,23.96824,120.32586,0.18487912
C0X290,北門,2026-04-27,23.267772,120.125481,0.9709775
C2F930,大甲,2026-04-27,24.347667,120.640403,0.0005710595
C0D650,湖口,2026-04-27,24.904794,121.043628,9.164244e-07
C0U780,五結,2026-04-27,24.68637,121.79794,0.04443742
C1I250,鯉潭,2026-04-27,23.961922,120.991131,4.3961572e-07
C0R130,阿禮,2026-04-27,22.742908,120.743678,2.2303996e-06
C0X100,臺南市北區,2026-04-27,23.010394,120.194228,0.9996442
C0S920,金峰嘉蘭,2026-04-27,22.594789,120.960825,3.675531e-07
C0V490,新興,2026-04-27,22.627422,120.298803,0.99956316
C0F9K0,大安,2026-04-27,24.345061,120.588025,0.00061749277
C2E970,八甲,2026-04-27,24.535811,120.795983,1.5781831e-06
C0V440,鳳山,2026-04-27,22.646653,120.356122,0.99955887
C1T940,大觀,2026-04-27,23.714206,121.373133,2.3102645e-08
C0E740,造橋,2026-04-27,24.637056,120.864778,0.0015413016
C0R100,尾寮山,2026-04-27,22.833111,120.683889,1.084096e-06
A2K630,臺大雲林校區,2026-04-27,23.730628,120.423903,0.9744578
467990,馬祖,2026-04-27,26.169467,119.923158,3.5333253e-06
C0D580,寶山,2026-04-27,24.735006,121.025192,0.00039089556
E2P990,林試扇平站,2026-04-27,22.9677,120.6857,0.0012529937
C0AI30,三重,2026-04-27,25.057328,121.500629,0.3335121
C0AH00,汐止,2026-04-27,25.066881,121.658778,0.96872324
C1Z040,立山,2026-04-27,23.443356,121.327375,2.8192801e-08
466881,新北,2026-04-27,24.959207,121.525196,0.093781024
C0W130,花嶼,2026-04-27,23.40007,119.32276,0.9963687
C0A950,鼻頭角,2026-04-27,25.129036,121.923372,0.9996861
C0K470,林內,2026-04-27,23.748675,120.609642,0.99977374
C2F990,摩天嶺,2026-04-27,24.322458,120.936819,1.9755493e-09
C2E430,南庄,2026-04-27,24.601775,121.000214,1.7330718e-05
82C160,茶改場,2026-04-27,24.908472,121.185333,0.0006153749
C2TB60,南安,2026-04-27,23.29818,121.26157,7.961654e-07
C0Z320,清水林道,2026-04-27,23.27125,121.188272,1.021929e-08
C0R760,南仁湖,2026-04-27,22.084681,120.863353,0.9280208
C0M670,大林,2026-04-27,23.600616,120.45841,0.9991011
C0M800,茶山,2026-04-27,23.299075,120.664767,1.7290961e-06
C0A9C0,天母,2026-04-27,25.117494,121.537169,0.42239335
72K220,南改斗南分場,2026-04-27,23.634556,120.477333,0.999708
72AI40,桃改樹林分場,2026-04-27,24.944503,121.386972,0.019663278
C0S910,蘭嶼燈塔,2026-04-27,22.081197,121.503117,0.04491915
C0B050,八斗子,2026-04-27,25.144754,121.79167,0.9725549
C0U900,內城,2026-04-27,24.71813,121.68766,0.00043612835
C0X320,柳營,2026-04-27,23.253328,120.375253,0.998413
C0M790,新港,2026-04-27,23.553269,120.345728,0.2824607
C0F9T0,西屯,2026-04-27,24.179494,120.641275,0.9994501
C0E950,松安,2026-04-27,24.39792,120.98599,1.1257929e-09
C0SA30,都歷,2026-04-27,23.020333,121.323642,0.9359167
C0C620,蘆竹,2026-04-27,25.084275,121.265767,0.00043402644
C0R730,大坪頂,2026-04-27,22.024633,120.69355,0.20206274
C0AJ40,石門,2026-04-27,25.273672,121.601198,0.97493845
C0E750,苗栗,2026-04-27,24.564569,120.824575,1.7382059e-06
C0T870,鯉魚潭,2026-04-27,23.935639,121.508944,0.0039000637
C1V170,排雲,2026-04-27,23.463619,120.954147,1.211866e-08
C2H950,中寮,2026-04-27,23.884447,120.766406,0.3817215
C0R350,貓鼻頭,2026-04-27,21.921774,120.7358,0.08488051
C0V660,岡山,2026-04-27,22.797078,120.294958,0.9994213
C1H941,雙冬,2026-04-27,23.967378,120.802189,2.9198718e-06
C0AJ70,田寮,2026-04-27,25.2698,121.4886,0.9981267
C0AI00,五股,2026-04-27,25.07445,121.42728,6.18129e-05
C0Z280,德武,2026-04-27,23.47426,121.41071,0.00022092799
C2RA10,大新,2026-04-27,22.67558,120.57788,0.9996486
C0R700,枋山,2026-04-27,22.246844,120.661086,0.29445934
C0C460,復興,2026-04-27,24.820208,121.352281,0.00017075014
C2AA10,中八仙,2026-04-27,25.11576,121.49199,0.6422022
C2K300,鹿南,2026-04-27,23.63855,120.3636,0.032647986
E2H360,蓮華池,2026-04-27,23.918333,120.885278,3.284682e-08
C0M640,中埔,2026-04-27,23.42538,120.5229,0.99712366
C2C810,八德蔬果,2026-04-27,24.97858,121.28187,0.0073986887
C2M9F0,安溪寮,2026-04-27,23.350334,120.208039,0.845092
C0W140,金沙,2026-04-27,24.488292,118.408778,0.005296454
C2A540,四堵,2026-04-27,24.8926,121.745736,0.00015047312
C0ACA0,新莊,2026-04-27,25.051478,121.446756,0.037858985
C0R220,潮州,2026-04-27,22.534361,120.54,0.9971393
U2HA40,臺大內茅埔,2026-04-27,23.689722,120.851117,6.016776e-08
467490,臺中,2026-04-27,24.145736,120.684075,0.9997521
C0UB60,明池,2026-04-27,24.650688,121.475277,1.41145815e-08
C0U960,翠峰湖,2026-04-27,24.510856,121.608044,1.2501106e-08
E2HA20,林試畢祿溪站,2026-04-27,24.226944,121.308522,2.5760565e-09
C2M9A0,大華,2026-04-27,23.4824,120.67491,2.2896063e-09
C0V890,前鎮,2026-04-27,22.5718,120.3117,0.999354
C1F941,雪嶺,2026-04-27,24.280586,121.026642,7.396693e-09
C2H9E0,國姓南港,2026-04-27,23.911108,120.846556,2.5468654e-09
C0AC80,文山,2026-04-27,25.00235,121.575728,0.03160469
C0F9R0,龍井,2026-04-27,24.184536,120.528972,0.09416855
C0M760,民雄,2026-04-27,23.551754,120.428457,0.9991011
C0UA40,西德山,2026-04-27,24.560647,121.752608,2.5834286e-08
C2TA70,赤科坪,2026-04-27,23.39885,121.39168,8.1991764e-09
C1T920,中興,2026-04-27,23.769503,121.498653,0.0006422471
C0D550,雪霸,2026-04-27,24.526972,121.11605,2.5884335e-09
C2F860,梨山,2026-04-27,24.247522,121.243669,4.2379096e-09
C0R320,車城,2026-04-27,22.0744,120.716247,0.024907788
C1S870,南美山,2026-04-27,23.15025,121.382333,1.03711445e-05
C0B020,基隆嶼,2026-04-27,25.19141,121.78391,0.9464319
C1U501,牛鬥,2026-04-27,24.637836,121.573656,0.07259363
C0M730,嘉義市東區,2026-04-27,23.457673,120.460531,0.9990876
C2R990,泰武,2026-04-27,22.60686,120.69765,1.7512541e-06
C0S700,知本,2026-04-27,22.684866,121.005642,1.1139155e-08
C1N001,沙崙,2026-04-27,22.935472,120.309406,0.9998479
C0V760,橋頭,2026-04-27,22.757806,120.30575,0.99914366
C2V570,吉東,2026-04-27,22.85418,120.54539,0.9996952
C0G960,福寶,2026-04-27,24.0443,120.3814,0.043602798
C0X210,白河,2026-04-27,23.347466,120.414427,0.99780506
C0S810,東河,2026-04-27,22.972672,121.303986,0.9159063
C2R170,屏東,2026-04-27,22.66027,120.49403,0.9989718
C0R670,楓港,2026-04-27,22.190131,120.692156,0.40953463
C0FA50,霧峰,2026-04-27,24.0419,120.6995,0.999744
C0UB10,蘇澳,2026-04-27,24.5969,121.8571,0.011817391
C0G950,防潮門,2026-04-27,24.1835,120.4871,0.9619589
C0M740,六腳,2026-04-27,23.492871,120.290625,0.5281368
C1R250,力里,2026-04-27,22.428117,120.629228,0.998102
C0K330,虎尾,2026-04-27,23.719183,120.442036,0.9730898
C2FA00,烏石坑,2026-04-27,24.273503,120.947617,1.979034e-09
C0V620,永安,2026-04-27,22.82315,120.236856,0.9994348
C1I330,楓樹林,2026-04-27,23.986803,121.076117,1.3257797e-09
C0W200,湖西,2026-04-27,23.596314,119.67275,0.9385372
72Q010,高雄農改場,2026-04-27,22.709333,120.525889,0.9995672
C0C680,龜山,2026-04-27,25.02846,121.38656,4.137549e-06
C2V260,月眉,2026-04-27,22.971003,120.539853,0.9996607
C0V450,鳳森,2026-04-27,22.545064,120.392592,0.9959879
C0FA90,小雪山林道,2026-04-27,24.29515,121.03651,1.0450425e-08
C0U720,南山,2026-04-27,24.43742,121.38167,1.533202e-08
A2N290,臺南蘭花園區,2026-04-27,23.340258,120.379661,0.99819225
C0R560,新園,2026-04-27,22.5434,120.461558,0.99585074
C0U890,三星,2026-04-27,24.66812,121.65302,4.271186e-05
C1V300,御油山,2026-04-27,23.001983,120.715364,1.3126503e-09
C0U600,礁溪,2026-04-27,24.817539,121.765608,0.05780996
C1T980,龍澗,2026-04-27,24.023289,121.411328,6.3607635e-09
C0D670,海天一線,2026-04-27,24.831986,120.914438,4.1696754e-07
C0SA00,歷坵,2026-04-27,22.520969,120.89185,7.3803654e-05
C0M710,東石,2026-04-27,23.458927,120.15385,0.20200308
C0M780,鹿草,2026-04-27,23.41134,120.30835,0.3776004
C0U520,雙連埤,2026-04-27,24.753033,121.641303,7.756286e-08
C0B010,七堵,2026-04-27,25.094819,121.71713,0.9297571
C0R480,長治,2026-04-27,22.693128,120.542622,0.99950475
C1V830,國三S383K,2026-04-27,22.781967,120.426475,0.99973124
12Q980,恆春工作站,2026-04-27,22.079678,120.714425,0.024907788
C1O940,東山服務區,2026-04-27,23.286016,120.398472,0.99818635
C1U840,東澳嶺,2026-04-27,24.5378,121.8485,7.392832e-08
C1D630,飛鳳山,2026-04-27,24.766464,121.119178,3.3713484e-08
C0S940,石寧山,2026-04-27,23.223772,121.406639,0.015316212
C0K410,北港,2026-04-27,23.573957,120.292802,0.073296025
C2M620,瑞里,2026-04-27,23.545133,120.675197,1.8196904e-09
C0SB70,小港漁港,2026-04-27,23.158558,121.400431,0.71600527
C2O950,安南,2026-04-27,23.076694,120.144861,0.99810886
C0F0E0,南湖圈谷,2026-04-27,24.363714,121.444667,1.5121321e-08
467610,成功,2026-04-27,23.097486,121.373428,0.9806638
C0G890,伸港,2026-04-27,24.148933,120.484403,0.95930254
C2E540,龍溪,2026-04-27,24.606489,120.783933,1.6296966e-06
C1V200,梅山,2026-04-27,23.268447,120.823556,3.2979195e-09
C0T9H0,加路蘭山,2026-04-27,23.682947,121.5274,7.840111e-09
C2O930,玉井,2026-04-27,23.126042,120.46055,0.99897736
C1F911,新伯公,2026-04-27,24.221361,120.841069,0.00050414685
C0X200,左鎮,2026-04-27,23.056758,120.408522,0.9998477
C2TB50,麻汝,2026-04-27,23.42554,121.39358,0.00018762954
C0FA60,鞍馬山工作站,2026-04-27,24.267064,121.000793,4.997613e-09
C0SB50,叭嗡嗡,2026-04-27,23.047062,121.343223,0.9866923
C2R550,新埤,2026-04-27,22.467947,120.582894,0.99754816
C1F891,稍來,2026-04-27,24.265689,121.001142,4.768237e-09
C2M9C0,紫雲,2026-04-27,23.494914,120.540253,0.99937695
72N240,七股研究中心,2026-04-27,23.081672,120.062894,0.9975302
C0C700,中壢,2026-04-27,24.977661,121.256375,0.0051100557
C0M690,水上,2026-04-27,23.419734,120.388909,0.99840707
C0V690,鼓山,2026-04-27,22.623325,120.275575,0.99956316
C0O860,大內,2026-04-27,23.11885,120.36083,0.99985313
C0Z200,萬榮,2026-04-27,23.709219,121.420106,6.633874e-06
C0T9D0,和中,2026-04-27,24.26676,121.74103,0.9915773
C2S9A0,北份子寮,2026-04-27,22.78561,121.07813,4.282626e-06
C1O921,楠西,2026-04-27,23.183511,120.484083,0.99894994
C0AJ30,淡水觀海,2026-04-27,25.184591,121.408616,0.827575
C0V810,左營,2026-04-27,22.67491,120.28491,0.9996959
C0UA70,桃源谷,2026-04-27,24.962606,121.888875,1.8537987e-08
C0X130,官田,2026-04-27,23.193217,120.315422,0.99832827
C1H000,翠峰,2026-04-27,24.109397,121.205211,3.4185315e-09
C0UA90,石城,2026-04-27,24.980444,121.951214,0.9988605
C1E681,南勢山,2026-04-27,24.421669,120.923831,8.02433e-10
C0A9F0,內湖,2026-04-27,25.079422,121.57545,0.47019282
C0K291,宜梧,2026-04-27,23.536281,120.169329,0.33465266
C1K540,口湖,2026-04-27,23.585344,120.180517,0.345057
C0R780,滿州,2026-04-27,22.024403,120.839892,0.025065575
C0V870,文安,2026-04-27,22.8025,120.2164,0.9993869
C0U650,玉蘭,2026-04-27,24.675286,121.587061,3.7687232e-07
C0R640,東港,2026-04-27,22.46247,120.44074,0.9963452
C0AJ80,板橋,2026-04-27,25.0107,121.4489,0.15310459
C0S660,下馬,2026-04-27,23.150427,121.070312,5.5740275e-09
C2N190,烏樹,2026-04-27,23.32393,120.36989,0.9730979
C1H9B1,阿眉,2026-04-27,24.1263,120.994672,3.417847e-09
C0UA20,多加屯,2026-04-27,24.368614,121.373189,4.8230175e-09
C0E730,頭份,2026-04-27,24.688247,120.912206,0.004267558
72V140,高改旗南分場,2026-04-27,22.857861,120.516667,0.9997767
C2R490,九如,2026-04-27,22.74049,120.490555,0.9995672
C0K480,莿桐,2026-04-27,23.761192,120.502372,0.9996646
C0U980,坪林石牌,2026-04-27,24.86478,121.77396,1.8492782e-08
C0T900,西林,2026-04-27,23.8119,121.441458,2.919866e-05
C1I150,青雲,2026-04-27,23.793361,120.949378,0.0007748611
C2E980,和興,2026-04-27,24.505319,120.923016,3.486614e-09
467350,澎湖,2026-04-27,23.565503,119.563094,0.99020886
C0G800,埔鹽,2026-04-27,24.000394,120.431683,0.026771389
C0H960,草屯,2026-04-27,23.973672,120.68085,0.9907149
C1V780,多納林道,2026-04-27,22.888028,120.737917,2.1758748e-09
C0E920,通霄漁港,2026-04-27,24.498589,120.673876,1.7822563e-07
C0Z330,安通山,2026-04-27,23.290728,121.348528,7.3245037e-09
C0AH10,永和,2026-04-27,25.01125,121.508111,0.20162769
C0AK10,太平里,2026-04-27,25.134937,121.364899,0.00012696492
C2G640,鹿港,2026-04-27,24.0753,120.430481,0.99653697
C1E890,國三N149K,2026-04-27,24.463414,120.680019,1.8062732e-07
C1R110,口社,2026-04-27,22.770111,120.645222,0.99982953
C1M870,國三N285K,2026-04-27,23.550319,120.505833,0.9993222
C1E480,鳳美,2026-04-27,24.554803,121.034747,1.4028902e-09
C0T9M0,靜浦,2026-04-27,23.455167,121.495028,0.006729772
C2H9M0,發祥,2026-04-27,24.154094,121.164517,1.36153995e-08
C2G9C0,埔南,2026-04-27,23.99124,120.46969,0.026771389
C0AI40,石牌,2026-04-27,25.115597,121.513139,0.47019282
C1F871,上谷關,2026-04-27,24.203483,121.018644,1.979034e-09
C2H9G0,百勝,2026-04-27,24.051142,120.909361,3.53864e-06
C0G880,二水,2026-04-27,23.810742,120.6173,0.9996738
C0R940,加祿堂,2026-04-27,22.3363,120.6217,0.9992001
C0W220,北竿,2026-04-27,26.220358,119.974881,5.9715534e-05
C0O960,崎頂,2026-04-27,22.959547,120.369317,0.99984163
C0TA40,秀林,2026-04-27,24.302864,121.731144,2.4064086e-08
C0S750,向陽,2026-04-27,23.248397,120.986133,2.408483e-09
C0T9F0,水璉,2026-04-27,23.797131,121.542514,3.069849e-06
C1M600,頭凍,2026-04-27,23.406364,120.603339,9.753152e-10
467660,臺東,2026-04-27,22.752211,121.154586,0.9329674
C1D380,新埔,2026-04-27,24.84745,121.03834,2.3930379e-05
C2G980,田頭村,2026-04-27,23.8263,120.444175,0.23029913
C0V750,路竹,2026-04-27,22.854997,120.259439,0.999418
C0N050,蚵寮,2026-04-27,23.301,120.1104,0.9709774
C2X060,下營,2026-04-27,23.226806,120.256291,0.996973
72M700,南改鹿草分場,2026-04-27,23.416869,120.283061,0.3886467
C1SA50,利嘉林道,2026-04-27,22.82325,121.009389,2.6028006e-09
C0UB70,太平山中間站,2026-04-27,24.542003,121.513453,3.8840636e-08
C0A940,金山,2026-04-27,25.223628,121.643967,0.9940292
C1V340,大津,2026-04-27,22.888322,120.645986,0.99990916
C0W180,七美,2026-04-27,23.219333,119.444892,0.9831708
C1F9C1,白冷,2026-04-27,24.182844,120.929889,1.45472745e-08
K2E710,苗改生物防治研究中心,2026-04-27,24.422861,120.871833,1.1373612e-07
C0N040,蘆竹溝,2026-04-27,23.2344,120.0961,0.9705272
C0TB40,崇德,2026-04-27,24.166144,121.657414,0.9887613
C0D760,大坪苗圃,2026-04-27,24.5362,121.1108,1.2648724e-09
C2D430,峨眉,2026-04-27,24.6905,121.017189,0.0023800817
C2W230,畜試所澎湖,2026-04-27,23.628342,119.513206,0.99027747
C0R880,後壁湖,2026-04-27,21.9457,120.7457,0.08933893
C1I280,埔中,2026-04-27,23.820778,120.642594,0.0003994758
467790,墾丁雷達站,2026-04-27,21.948235,120.808028,0.032247342
C0W190,望安,2026-04-27,23.380564,119.494075,0.9885516
C0Z170,卓溪,2026-04-27,23.3443,121.3029,2.10914e-06
C0F850,東勢,2026-04-27,24.246428,120.833047,0.0035798603
466900,淡水,2026-04-27,25.164889,121.448906,0.976106
C0I370,魚池,2026-04-27,23.895703,120.94135,3.2177116e-08
C0C630,大溪,2026-04-27,24.882853,121.265547,0.0014127553
C0A520,山佳,2026-04-27,24.974944,121.402008,0.024987824
C0I110,竹山,2026-04-27,23.761225,120.688156,0.99959916
82H840,茶改南部分場,2026-04-27,23.762528,120.7405,0.0025549266
C2SD80,再來山,2026-04-27,23.34371,121.44122,0.00011474852
C0G660,溪湖,2026-04-27,23.94835,120.479122,0.1535751
C1T800,洛韶,2026-04-27,24.204558,121.453956,8.357829e-09
C1T810,慈恩,2026-04-27,24.192044,121.388386,2.92629e-09
C1E451,象鼻,2026-04-27,24.368617,120.940228,8.02433e-10
C0AC60,三峽,2026-04-27,24.939025,121.369728,0.33764675
C0I490,萬大林道,2026-04-27,23.928228,121.091411,1.6518866e-09
C1I290,豐丘,2026-04-27,23.668178,120.887417,2.9395089e-09
C1I320,奧萬大,2026-04-27,23.952956,121.178556,3.4903935e-09
C2M910,嘉義大學,2026-04-27,23.471325,120.485903,0.99899524
C0U770,南澳,2026-04-27,24.44935,121.81022,0.77441126
C2TB30,吉安,2026-04-27,23.94538,121.54803,0.055252183
C0A980,社子,2026-04-27,25.109508,121.469681,0.41099173
C0V800,六龜,2026-04-27,22.997889,120.633583,0.999917
C1G9D0,國一S218K,2026-04-27,23.890641,120.493253,0.10486182
C0E570,白沙屯,2026-04-27,24.549447,120.696803,1.7097691e-05
C2F9A0,中竹林,2026-04-27,24.103556,120.751061,0.085186854
C0FA40,臺中電廠,2026-04-27,24.2146,120.4907,0.5505889
C2G9A0,畜試所彰化,2026-04-27,23.86045,120.557964,0.9991412
C0H9C0,合歡山,2026-04-27,24.143442,121.272547,1.1424647e-08
G2M350,農試溪口農場,2026-04-27,23.58565,120.408111,0.9991137
C0U860,頭城,2026-04-27,24.85323,121.8308,0.82678664
C0R580,南州,2026-04-27,22.48591,120.50274,0.9975963
C0G780,秀水,2026-04-27,24.03405,120.503869,0.99170005
72N100,臺南農改場,2026-04-27,23.0605,120.342194,0.99985707
C0S900,蘭嶼高中,2026-04-27,22.04909,121.51214,0.014486503
C2TA60,六十石,2026-04-27,23.22477,121.31861,6.03354e-09
C1F9W0,德基,2026-04-27,24.254783,121.190261,4.0132138e-09
C2M980,安和,2026-04-27,23.51377,120.31593,0.5281368
C1Z120,壽豐,2026-04-27,23.870853,121.508081,0.0090614315
C0W160,烏坵,2026-04-27,24.9944,119.44956,0.22595042
C1I550,國六W023K,2026-04-27,23.979067,120.867742,0.0011688995
C0R870,興海,2026-04-27,21.9752,120.8439,0.033629175
C0R140,瑪家,2026-04-27,22.682903,120.686639,0.0066004344
C0A530,坪林,2026-04-27,24.938183,121.70975,0.3208011
C0X260,後壁,2026-04-27,23.366358,120.362326,0.9784393
C0Z230,和平,2026-04-27,24.30717,121.77007,0.99664855
C0G770,福興,2026-04-27,24.041289,120.437669,0.026771389
C0H9A0,神木村,2026-04-27,23.532742,120.843667,1.7138646e-09
C0I460,南投,2026-04-27,23.911469,120.687331,0.99106544
C0I480,梅峰,2026-04-27,24.085272,121.173572,2.1553994e-09
C2D770,巨埔,2026-04-27,24.84435,121.11442,0.0006557773
C2A560,福山,2026-04-27,24.776203,121.502811,7.0541745e-07
C0AH30,五分山,2026-04-27,25.07125,121.780794,4.2029033e-08
C0FA10,松柏,2026-04-27,24.429115,120.617482,4.577284e-06
72S200,東改班鳩分場,2026-04-27,22.829528,121.077694,4.2229274e-08
72HA00,中改埔里分場,2026-04-27,23.903208,120.963364,5.028576e-08
C2H9W0,大坪頂農水,2026-04-27,24.043122,120.932781,1.4983227e-08
C0C650,平鎮,2026-04-27,24.897503,121.214636,0.0012718423
C0S930,延平,2026-04-27,22.902581,121.084058,1.448149e-05
C0UA60,樟樹山,2026-04-27,24.41393,121.78325,1.0914051e-06
C2UC10,出水溪,2026-04-27,24.615822,121.652253,9.0598445e-07
C1S670,摩天,2026-04-27,23.199503,121.027,4.0651624e-09
C2C590,觀音,2026-04-27,25.027072,121.153317,0.0016243515
C0V630,茄萣,2026-04-27,22.906642,120.182608,0.9996306
466940,基隆,2026-04-27,25.133314,121.740475,0.9648198
C0X050,東河,2026-04-27,23.296598,120.385608,0.99819225
C0R770,保力,2026-04-27,22.071122,120.764111,0.1178739
G2L020,農試嘉義分所,2026-04-27,23.485028,120.473806,0.99899554
C0X240,關子嶺,2026-04-27,23.331169,120.508025,0.0035243193
C0I380,集集,2026-04-27,23.828206,120.801467,0.03534833
466990,花蓮,2026-04-27,23.975128,121.613275,0.023780022
C1V220,小關山,2026-04-27,23.154217,120.813603,2.1984474e-09
C1F9G1,慶福山,2026-04-27,24.180853,120.848378,3.620875e-09
C0FB20,雪山橋,2026-04-27,24.23192,120.9786,4.0665737e-09
C0Z250,瑞穗林道,2026-04-27,23.49284,121.30688,1.2826764e-08
C0D590,新豐,2026-04-27,24.87068,120.97721,4.386822e-07
C2N200,口宵里,2026-04-27,23.15987,120.45988,0.98571545
C0A870,五指山,2026-04-27,25.132153,121.608692,1.1489094e-07
C0UA50,西帽山,2026-04-27,24.555361,121.802628,8.00439e-08
C2R980,竹田國中,2026-04-27,22.61532,120.52412,0.9952578
C0X160,仁德,2026-04-27,22.968258,120.257689,0.99985874
C1H971,六分寮,2026-04-27,23.92507,120.6378,1.2080373e-05
C2D790,石鹿,2026-04-27,24.56551,121.15841,2.0847897e-09
C0W120,西嶼,2026-04-27,23.5626,119.468436,0.99266714
C0G650,員林,2026-04-27,23.946503,120.585597,0.98003185
C0AD50,鶯歌,2026-04-27,24.951533,121.346294,0.8877027
C2H9Q0,北東眼山,2026-04-27,24.120939,121.189303,2.8734752e-09
C2H9T0,名間竹圍,2026-04-27,23.859914,120.637572,0.024511874
C0S990,山豬窟,2026-04-27,22.318619,120.857372,0.9822885
C0X190,安平,2026-04-27,22.993161,120.152181,0.9996505
C0K400,斗六,2026-04-27,23.720583,120.541127,0.9996628
12J990,口湖工作站,2026-04-27,23.589978,120.180394,0.345057
C0O830,北寮,2026-04-27,23.079561,120.495008,0.9993778
C1D410,白蘭,2026-04-27,24.579364,121.079947,1.1327911e-09
C0S970,加津林,2026-04-27,22.416211,120.926942,1.3784141e-06
C0D700,關西,2026-04-27,24.7977,121.1732,0.97160184
C0U750,龜山島,2026-04-27,24.841667,121.953133,2.1031183e-06
C0R810,內獅,2026-04-27,22.305064,120.642986,0.29445934
C2EA10,拉庫斯,2026-04-27,24.53637,121.02137,9.400146e-10
C1M390,龍美,2026-04-27,23.406728,120.654417,4.21119e-09
C2K290,崙內,2026-04-27,23.69525,120.35601,0.032647986
C2FB60,頭櫃山,2026-04-27,24.129842,120.858925,1.5246829e-09
C1H840,國三N238K,2026-04-27,23.841008,120.707711,0.048979566
CAQ030,崎峰國小,2026-04-27,22.42565,120.49521,0.9975963
C2E520,大湖,2026-04-27,24.414939,120.870872,1.0843269e-07
467530,阿里山,2026-04-27,23.508208,120.813242,3.5938896e-09
C1E691,南湖,2026-04-27,24.40135,120.837533,1.5230263e-09
C0FA30,梧棲,2026-04-27,24.256003,120.523381,0.09416855
C1V231,高中,2026-04-27,23.134911,120.716711,1.3869216e-07
C0AK30,硬漢嶺,2026-04-27,25.136097,121.426372,3.923111e-06
C0F9V0,新社,2026-04-27,24.200172,120.815806,1.8256468e-06
C0H890,埔里,2026-04-27,23.972169,120.952425,3.251196e-05
C0R690,墾丁,2026-04-27,21.966756,120.810269,0.17236197
C0SD20,富山,2026-04-27,22.822383,121.190825,0.2019519
C0F0D0,審馬陣,2026-04-27,24.381675,121.4203,7.3247555e-09
C2W030,金門農試所,2026-04-27,24.448431,118.451786,0.5984923
C0R820,白鷺,2026-04-27,22.454275,120.666219,0.0018098312
C0FB00,大雪山,2026-04-27,24.254668,121.007374,5.0611257e-09
C2O880,南化,2026-04-27,23.17332,120.59413,0.14742462
C1V190,南天池,2026-04-27,23.27403,120.91176,2.622249e-09
C0E940,雪見,2026-04-27,24.42595,121.01347,3.056757e-09
K2E360,苗栗農改場,2026-04-27,24.495722,120.829111,4.3321305e-07
CAJ050,海口故事園區,2026-04-27,23.57543,120.14121,0.345057
C2K280,四湖,2026-04-27,23.6304,120.22717,0.36445698
C2H9D0,三隻寮,2026-04-27,24.093078,120.861578,1.4384788e-08
C0O990,媽廟,2026-04-27,22.99175,120.293525,0.9998745
C0Z220,和平林道,2026-04-27,24.343922,121.656317,2.9260107e-07
C0TA10,花蓮漁港,2026-04-27,23.995322,121.638331,0.74999094
72C440,桃園農改場,2026-04-27,24.950944,121.030583,9.0097325e-07
C1E711,馬拉邦山,2026-04-27,24.367306,120.901656,1.1065436e-09
C0SB20,富岡,2026-04-27,22.792467,121.192669,0.10206994
C0D560,竹東,2026-04-27,24.767147,121.057881,0.002657321
C0F9U0,南屯,2026-04-27,24.137006,120.637969,0.9994608
C2SD60,明峰,2026-04-27,22.8671,121.11825,1.4768105e-08
C0M720,番路,2026-04-27,23.464657,120.554156,0.1057457
C0F0A0,雪山圈谷,2026-04-27,24.388594,121.236339,1.37225005e-08
C1A9N0,四十份,2026-04-27,24.934158,121.593283,4.4646754e-08
C0U760,東澳,2026-04-27,24.52196,121.83318,0.5231788
C0X230,鹽水,2026-04-27,23.272621,120.247641,0.845092
C2H9H0,苗改南投蜂場,2026-04-27,23.852589,120.693481,0.99821806
C2TB70,達谷寮,2026-04-27,23.38,121.35968,0.00014748689
C0R950,萬隆國小,2026-04-27,22.507667,120.587817,0.99772966
467540,大武,2026-04-27,22.35572,120.90374,0.3471355
C0V370,古亭坑,2026-04-27,22.893178,120.401947,0.9997246
C1I340,新興橋,2026-04-27,23.563333,120.868728,3.7131382e-09
C2C480,桃園,2026-04-27,24.992425,121.323172,0.0073986887
C0SA80,土坂,2026-04-27,22.453108,120.887572,0.87217593
C0R160,鹽埔,2026-04-27,22.739558,120.530778,0.9995672
C0AC40,大屯山,2026-04-27,25.175675,121.522408,2.3108594e-08
466850,五分山雷達站,2026-04-27,25.071182,121.781205,3.8314028e-08
C2H9L0,馬烈霸,2026-04-27,24.1512,121.201772,3.2287328e-09
C1AI50,國三N016K,2026-04-27,25.034164,121.619664,0.144676
C2V920,匏子寮,2026-04-27,23.04905,120.55319,0.99947155
C1V600,藤枝,2026-04-27,23.071961,120.757042,1.1990816e-09
C1E601,南勢,2026-04-27,24.572486,120.734842,1.8358085e-05
C0O980,新市,2026-04-27,23.061614,120.298197,0.9998585
C0K420,西螺,2026-04-27,23.800407,120.467394,0.21636182
C0Z050,佳心,2026-04-27,23.34567,121.21316,6.598963e-09
C0AD30,蘆洲,2026-04-27,25.086594,121.472331,0.07352401
C0V610,梓官,2026-04-27,22.760558,120.267211,0.99940884
K2F750,種苗改良場,2026-04-27,24.225972,120.800917,2.8342854e-06
C0UA80,大溪漁港,2026-04-27,24.941801,121.902955,0.001990189
C1AI60,國一39K邊坡,2026-04-27,25.064361,121.383836,2.3098335e-05
C0W150,金寧,2026-04-27,24.457703,118.328989,0.8504981
C0R960,內埔,2026-04-27,22.608483,120.570714,0.9953264
C2H9S0,龍南,2026-04-27,23.953536,120.833183,2.5456803e-09
C0AH40,平等,2026-04-27,25.129142,121.577086,0.0006854198
C0R540,佳冬,2026-04-27,22.419456,120.552375,0.9983653
466950,彭佳嶼,2026-04-27,25.627975,122.079744,0.9999704
C0A890,雙溪,2026-04-27,25.036003,121.864242,0.24893296
C0AH50,林口,2026-04-27,25.072181,121.38084,3.0581227e-06
A2K360,水試臺西試驗場,2026-04-27,23.717231,120.190522,0.66990143
C2M960,外寮,2026-04-27,23.562643,120.665688,2.2652764e-09
C0F9S0,烏日,2026-04-27,24.107058,120.624103,0.9993554
C2N180,鹿陶洋,2026-04-27,23.14325,120.48352,0.99894994
C0C490,八德,2026-04-27,24.928708,121.283289,0.0035158477
C0R190,赤山,2026-04-27,22.592333,120.614306,0.99615043
C0T820,天祥,2026-04-27,24.179597,121.495639,1.4852375e-07
C1F9E1,龍安,2026-04-27,24.1605,120.831961,8.411758e-07
C2SD50,順那,2026-04-27,23.04166,121.29332,0.119957395
C0V820,小林,2026-04-27,23.148408,120.63325,0.00011284827
C2G870,芳苑,2026-04-27,23.922303,120.320025,0.06858124
C0E850,大河,2026-04-27,24.618069,120.948578,0.0003737297
C1U670,寒溪,2026-04-27,24.634,121.71691,6.54159e-05
C0N020,城西,2026-04-27,23.0568,120.0956,0.9979063
C1Z110,三棧,2026-04-27,24.11557,121.60501,3.9387924e-08
C0R280,檳榔,2026-04-27,22.076078,120.836777,0.8382706
C2H9J0,中台,2026-04-27,23.9996,120.938739,2.0529865e-07
C0F9L0,后里,2026-04-27,24.310436,120.729725,0.9858032
467441,高雄,2026-04-27,22.730432,120.312516,0.9991604
C2N210,岩坑,2026-04-27,23.24614,120.47458,0.99753636
C0Z180,新城,2026-04-27,24.040486,121.604878,0.01999555
C0D540,橫山,2026-04-27,24.71116,121.11693,9.532125e-05
C1D420,太閣南,2026-04-27,24.632808,121.160575,3.577073e-09
C1E770,公館,2026-04-27,24.526914,120.830806,3.6919125e-06
CAN130,水試所海水繁養殖中心,2026-04-27,23.120802,120.07968,0.9975302
C1I430,翠華,2026-04-27,24.191961,121.224339,5.4120317e-09
C1M400,菜瓜坪,2026-04-27,23.251928,120.576103,2.7203848e-06
C0G730,二林,2026-04-27,23.903325,120.376081,0.38773257
72M360,南改義竹分場,2026-04-27,23.360694,120.279361,0.7048046
V2K620,麥寮合作社,2026-04-27,23.753836,120.294783,0.031700358
C0Z070,舞鶴,2026-04-27,23.46811,121.37407,5.2060284e-05
C0B040,大武崙,2026-04-27,25.166676,121.706993,0.9820087
C1Z030,紅葉,2026-04-27,23.493119,121.338806,0.00014869592
C1I050,丹大,2026-04-27,23.753747,121.141147,3.1901006e-09
467290,古坑,2026-04-27,23.380729,120.336861,0.8179051
C0I080,信義,2026-04-27,23.689694,120.851036,6.016776e-08
C2TB80,庄子底,2026-04-27,23.71794,121.49438,0.00014313684
C0D750,樂山林道6k,2026-04-27,24.49999,121.08773,4.114588e-09
C2M920,朴子農改,2026-04-27,23.469889,120.259383,0.38753113
C2A880,福隆,2026-04-27,25.017842,121.942083,0.99915373
C0Z160,鳳林,2026-04-27,23.746114,121.453411,9.86493e-05
C0UB80,翠峰林道6K,2026-04-27,24.49773,121.568625,1.3259927e-08
C0V210,復興,2026-04-27,23.222403,120.806089,7.289887e-08
C0H990,昆陽,2026-04-27,24.121322,121.273642,7.764571e-09
C0R741,獅子,2026-04-27,22.202308,120.705236,0.46202114
C0S710,鹿野,2026-04-27,22.917711,121.122994,6.835557e-08
C0I530,小奇萊,2026-04-27,24.131764,121.295717,8.995866e-09
C0FA70,大雪山埡口,2026-04-27,24.26867,121.03062,7.263125e-09
C2K630,荷苞,2026-04-27,23.657717,120.595144,0.9998167
C0Z080,富源,2026-04-27,23.587642,121.378225,5.0328747e-08
C2M9E0,旺來山,2026-04-27,23.555153,120.486463,0.9992595
C0SB10,美和,2026-04-27,22.682078,121.060236,0.00016287799
C2K620,馬光農場,2026-04-27,23.721453,120.378864,0.9751817
C1I140,卡奈托灣,2026-04-27,23.754364,121.087872,1.3025271e-09
C0I520,玉山風口,2026-04-27,23.470489,120.955994,1.5273091e-08
C1G691,下水埔,2026-04-27,23.816114,120.5676,0.99951565
C0X110,臺南市南區,2026-04-27,22.961189,120.188378,0.9998593
C0V680,仁武,2026-04-27,22.701083,120.347722,0.9991604
C2G840,北斗,2026-04-27,23.877586,120.514222,0.10721616
C2TB90,長橋,2026-04-27,23.6874,121.46186,8.649923e-05
C0R900,竹坑,2026-04-27,22.1385,120.7022,0.40953463
C0G860,社頭,2026-04-27,23.897647,120.5862,0.99687123
C0X150,安定,2026-04-27,23.102614,120.227839,0.99973816
C0R590,里港,2026-04-27,22.77919,120.49459,0.99973583
C0E610,馬都安,2026-04-27,24.451272,120.930192,8.536708e-10
C0E550,明德,2026-04-27,24.583486,120.885411,0.012538206
C0R150,三地門,2026-04-27,22.709889,120.639944,0.99971443
C0G910,花壇,2026-04-27,24.032076,120.549461,0.9909561
C1D400,鳥嘴山,2026-04-27,24.71909,121.28387,4.4616426e-09
C0K500,元長,2026-04-27,23.64981,120.315024,0.015283251
C0F0B0,石岡,2026-04-27,24.276061,120.777644,0.9754174
C2V250,甲仙,2026-04-27,23.080106,120.591758,0.9976668
C0SA20,金崙山,2026-04-27,22.567419,120.959667,5.353062e-09
C0V350,溪埔,2026-04-27,22.738578,120.446797,0.99971056
C0M660,溪口,2026-04-27,23.604131,120.403569,0.9991137
C1S880,壽卡,2026-04-27,22.238911,120.858903,0.027946774
72D680,桃改新埔分場,2026-04-27,24.834444,121.066111,2.5651381e-05
