站號,站名,日期,lat,lon,BLBTSLS
C0R710,龍磐,2026-07-19,21.931672,120.838942,0.46158406
C1F9D1,白毛台,2026-07-19,24.158325,120.886933,4.4476574e-09
C0G940,竹塘,2026-07-19,23.848253,120.386764,0.10214642
467590,恆春,2026-07-19,22.003897,120.746339,0.099080265
C0U710,太平山,2026-07-19,24.505486,121.525656,8.932706e-09
C0E820,獅潭,2026-07-19,24.539133,120.920042,0.06633063
C2SD70,二層坪,2026-07-19,22.94105,121.16838,0.9756901
C0V880,興達,2026-07-19,22.8778,120.2127,0.14162588
C0SB30,新蘭,2026-07-19,22.869214,121.223228,0.51013476
C2R970,屏科大,2026-07-19,22.648275,120.619247,0.27692747
C1Z130,銅門,2026-07-19,23.965694,121.492842,0.07274228
C0AD40,土城,2026-07-19,24.973208,121.445169,0.7100566
CAN140,六官養殖協會,2026-07-19,23.22881,120.29962,0.28728998
C0X180,山上,2026-07-19,23.0757,120.363253,0.7230563
C0F9Z0,雪山東峰,2026-07-19,24.388792,121.268675,1.5373045e-08
C1M480,獨立山,2026-07-19,23.537022,120.607797,0.00072214997
C0X220,學甲,2026-07-19,23.230367,120.182187,0.15842302
467650,日月潭,2026-07-19,23.881325,120.90805,4.87229e-09
A2K570,古坑(花卉中心),2026-07-19,23.633531,120.552392,0.15898609
C0K600,箔子寮,2026-07-19,23.6197,120.14,0.06316081
C0G830,埤頭,2026-07-19,23.866003,120.452806,0.2772206
C0S950,七塊厝,2026-07-19,22.954453,121.229922,0.9986141
467110,金門,2026-07-19,24.407306,118.289281,0.16278253
C0AH80,深坑,2026-07-19,25.002703,121.628328,0.17336938
C0A970,三貂角,2026-07-19,25.007606,122.002058,0.9984269
C2D730,寶山農場,2026-07-19,24.732444,120.976153,0.027724499
C0K430,褒忠,2026-07-19,23.690938,120.303634,0.206626
467480,嘉義,2026-07-19,23.495925,120.432906,0.14946118
C0V400,阿公店,2026-07-19,22.804194,120.355528,0.88167757
C2S800,華源,2026-07-19,22.65783,121.0232,0.5644549
C2SA40,瑞和,2026-07-19,22.974361,121.156697,0.9731589
C0E960,觀霧分站,2026-07-19,24.505781,121.113921,4.1398117e-08
467550,玉山,2026-07-19,23.48718,120.95943,1.8069395e-08
C0R440,大漢山,2026-07-19,22.405264,120.753181,1.6566709e-08
C0SD30,東清國小,2026-07-19,22.057128,121.564922,0.14145602
C1F9B1,桐林,2026-07-19,24.066172,120.735194,0.07308538
C2I210,蘆竹湳,2026-07-19,23.93398,120.81209,2.5488336e-09
C2H9U0,鳳鵬,2026-07-19,23.763919,120.788061,0.939727
C0K390,土庫,2026-07-19,23.679029,120.395574,0.17548083
C1I450,望鄉山,2026-07-19,23.594153,120.944286,8.9560785e-09
C0E910,海埔,2026-07-19,24.648767,120.772435,0.021328013
B2E890,畜試北區分所,2026-07-19,24.527806,120.770972,0.2627915
C0R750,四林格山,2026-07-19,22.076989,120.802439,0.16755746
C0F0C0,中坑,2026-07-19,24.248517,120.903319,6.5710677e-09
C1I121,大鞍,2026-07-19,23.678381,120.760017,5.9463807e-09
C2G9E0,移民庄,2026-07-19,23.9784,120.40283,0.07908074
72U480,花改蘭陽分場,2026-07-19,24.686306,121.716583,0.7930916
C0A770,科教館,2026-07-19,25.096356,121.516507,0.8166831
C0AJ60,六塊厝,2026-07-19,25.24,121.4481,0.024724338
C0R620,墾雷,2026-07-19,21.900836,120.855269,0.22200307
467290,古坑,2026-07-19,23.633536,120.551906,0.15898609
467420,永康,2026-07-19,23.038386,120.2367,0.43137005
C2M530,奮起湖,2026-07-19,23.493903,120.699253,3.2053853e-09
C0I410,名間,2026-07-19,23.837053,120.701447,0.22107585
A2C560,農工中心,2026-07-19,24.985917,121.239833,0.028770478
C0V740,旗山,2026-07-19,22.888614,120.483597,0.20013848
C0Z061,玉里,2026-07-19,23.3215,121.339656,0.28273886
C0S840,南田,2026-07-19,22.279725,120.889208,0.09324855
C1I470,杉林溪,2026-07-19,23.639517,120.786444,6.025501e-09
C1X040,東原,2026-07-19,23.291597,120.463822,0.8724946
C0R660,枋寮,2026-07-19,22.367722,120.590647,0.73747396
C0K450,大埤,2026-07-19,23.646074,120.431537,0.27899116
C0UA00,土場,2026-07-19,24.576533,121.495333,1.1638612e-05
467080,宜蘭,2026-07-19,24.763975,121.756528,0.566623
C0N030,四草,2026-07-19,23.0235,120.1116,0.08236775
467410,臺南,2026-07-19,22.99328,120.20492,0.22640258
C0V650,彌陀,2026-07-19,22.783806,120.246361,0.5804692
C0D660,新竹市東區,2026-07-19,24.798681,120.986942,0.034405716
82S580,茶改東部分場,2026-07-19,22.907694,121.130139,0.79074126
C0SB40,興隆,2026-07-19,22.913661,121.257469,0.68224335
467050,新屋,2026-07-19,25.006725,121.047492,0.019299118
C0C710,大溪永福,2026-07-19,24.892936,121.324975,0.043553688
C0FA20,溫寮,2026-07-19,24.372177,120.583125,0.014392932
C0V640,湖內,2026-07-19,22.887139,120.2445,0.14503321
C0R910,下寮,2026-07-19,22.3929,120.5548,0.35200644
C0Z020,明里,2026-07-19,23.208717,121.262342,0.55153924
C0M770,嘉義梅山,2026-07-19,23.585398,120.555587,0.14869502
C0C660,楊梅,2026-07-19,24.912375,121.143047,0.027622482
C0SD40,牛頭山,2026-07-19,22.676661,121.506944,0.5753701
C1E511,新開,2026-07-19,24.347703,120.827019,0.0019542787
G2F820,農試所(霧峰),2026-07-19,24.031261,120.688133,0.06604659
C2M990,大巃頂,2026-07-19,23.5547,120.61439,3.1488483e-09
C1I070,和社,2026-07-19,23.591131,120.888861,4.805406e-09
C2E990,新坪頂,2026-07-19,24.30201,120.8574,3.777789e-09
C0TA80,立霧山,2026-07-19,24.183258,121.641899,4.4202857e-06
C2F000,大肚,2026-07-19,24.15295,120.572117,0.9568755
C1S850,豐南,2026-07-19,23.122139,121.262389,0.999527
C2M9B0,西興,2026-07-19,23.2428,120.57617,4.4982848e-08
C2A920,富貴角,2026-07-19,25.263783,121.565258,0.014734505
C0T960,光復,2026-07-19,23.660694,121.424964,0.22720465
C0F9M0,豐原,2026-07-19,24.254322,120.720692,0.028668195
C0R720,旭海,2026-07-19,22.205403,120.887614,0.14297633
C0V710,苓雅,2026-07-19,22.622742,120.330669,0.6744121
C0C740,觀音工業區,2026-07-19,25.064764,121.114856,0.0164419
CAC040,拉拉山,2026-07-19,24.699317,121.427133,2.9039066e-08
C0V790,萬山,2026-07-19,22.905944,120.688056,2.7812077e-06
U2HA30,臺大和社,2026-07-19,23.590856,120.888864,4.805406e-09
C2H9K0,屯原,2026-07-19,24.067969,121.209389,4.5717705e-09
C0AJ90,澳底,2026-07-19,25.0552,121.9253,0.34576562
C0Z100,東華,2026-07-19,23.89525,121.549833,0.09606873
C0G970,三豐,2026-07-19,23.882,120.2895,0.15412016
C0V900,汕尾,2026-07-19,22.4782,120.4151,0.5916984
C1R630,龍泉,2026-07-19,22.66701,120.59091,0.15763974
C1AC50,關渡,2026-07-19,25.133486,121.469331,0.04704306
C0C800,四稜,2026-07-19,24.64733,121.4293,3.034348e-08
C0F9I0,神岡,2026-07-19,24.272481,120.658314,0.5957476
C0K460,斗南,2026-07-19,23.678734,120.478359,0.283705
C2O810,曾文,2026-07-19,23.219681,120.497328,0.45497498
467280,後龍,2026-07-19,24.648563,120.831834,0.019600391
C1F9J1,清水林,2026-07-19,24.071242,120.820419,1.5219257e-09
C2A650,火燒寮,2026-07-19,25.002719,121.742892,0.8420661
466930,竹子湖,2026-07-19,25.162078,121.544547,1.163778e-05
C1I220,樟湖,2026-07-19,23.905333,120.846983,2.533039e-09
C0I390,仁愛,2026-07-19,24.022122,121.132206,3.828479e-09
C0Z300,東里,2026-07-19,23.26853,121.30547,0.2887172
C1V590,新發,2026-07-19,23.057019,120.646064,2.3260892e-08
C0K510,水林,2026-07-19,23.572924,120.24597,0.12940471
72S590,東改賓朗果園,2026-07-19,22.813889,121.071278,0.59976643
82A750,茶改北部分場,2026-07-19,24.955778,121.631222,3.289039e-08
C1A750,石碇服務區,2026-07-19,25.00872,121.646242,0.15400238
C0X300,鹿寮,2026-07-19,23.386047,120.477331,0.12608105
C0K590,雲林東勢,2026-07-19,23.674192,120.255721,0.18465984
C2K310,港尾布雞,2026-07-19,23.74834,120.38439,0.21230757
C0A570,桶後,2026-07-19,24.848222,121.597992,6.1401174e-08
C0G720,溪州,2026-07-19,23.851589,120.499093,0.2854175
C1V160,達卡努瓦,2026-07-19,23.279811,120.705319,3.1582013e-09
C2M410,馬頭山,2026-07-19,23.324361,120.582017,0.642596
C0V850,蚵仔寮,2026-07-19,22.7256,120.2527,0.57066625
C0S740,池上,2026-07-19,23.119628,121.209469,0.9955759
C1V390,尖山,2026-07-19,22.813153,120.367789,0.9173477
C0AH70,松山,2026-07-19,25.04871,121.55042,0.8380084
C0N010,鯤鯓國小,2026-07-19,23.1879,120.0889,0.113537826
C0SA60,知本（水試所）,2026-07-19,22.702394,121.082761,0.15512405
C0T9I0,豐濱,2026-07-19,23.583897,121.514806,0.3893767
C0UB00,淡江大學蘭陽校園,2026-07-19,24.823239,121.730383,1.2948432e-07
C0W240,九宮,2026-07-19,24.423753,118.240186,0.16305448
C0T9N0,富里,2026-07-19,23.171639,121.249378,0.66615766
U2HA50,臺大竹山,2026-07-19,23.756972,120.681556,0.26370448
C0V840,鳳鼻頭,2026-07-19,22.5083,120.3591,0.61517096
C0X140,西港,2026-07-19,23.125608,120.203108,0.26200223
72D080,桃改五峰分場,2026-07-19,24.612194,121.157167,3.4601957e-08
C2H9P0,伊拿谷,2026-07-19,23.963211,121.088264,3.5857348e-09
C2K250,崙背,2026-07-19,23.75553,120.31893,0.21163818
C2H9F0,柑林,2026-07-19,24.018658,120.847072,1.4247033e-08
C0TA20,加灣,2026-07-19,24.082025,121.608944,0.0641733
C0V530,阿蓮,2026-07-19,22.883208,120.327508,0.46160066
C0FB30,八仙山苗圃,2026-07-19,24.192719,121.001366,6.8195747e-09
C0E791,卓蘭,2026-07-19,24.3126,120.8244,0.00028898724
C2R260,春日,2026-07-19,22.370361,120.628306,0.06091199
C1I030,武界,2026-07-19,23.913225,121.052483,3.9910084e-09
C0R520,崁頂,2026-07-19,22.514781,120.506914,0.5705651
C0R341,牡丹,2026-07-19,22.130036,120.792639,0.9548854
C0R930,萬丹,2026-07-19,22.5885,120.4851,0.6672219
C0S760,紅石,2026-07-19,23.069131,121.126219,6.5931665e-08
C2C410,中央大學,2026-07-19,24.967652,121.185165,0.02835787
C1M610,石磐龍,2026-07-19,23.496606,120.663506,2.8989633e-09
C2C830,中德,2026-07-19,24.981862,121.291344,0.025647586
C0C790,東眼山,2026-07-19,24.8284,121.40888,1.3749197e-08
C0UA10,鴛鴦湖,2026-07-19,24.590269,121.412228,1.5544382e-08
C0R800,丹路,2026-07-19,22.204481,120.750989,0.22575334
C2R240,萬巒,2026-07-19,22.527306,120.625111,0.8527739
C0G920,永靖,2026-07-19,23.924703,120.547533,0.20637953
C2M950,太和,2026-07-19,23.538372,120.702961,3.1874245e-09
C1A630,下盆,2026-07-19,24.771003,121.538622,3.6624826e-08
B2N890,畜產試驗所,2026-07-19,23.058972,120.336406,0.40276545
C0UA30,白嶺,2026-07-19,24.527819,121.519031,1.0568671e-08
467571,新竹,2026-07-19,24.828575,121.01455,0.0412208
C1V580,溪南(特生中心),2026-07-19,23.084972,120.788475,8.665095e-09
C1T970,大農,2026-07-19,23.615233,121.413331,0.60828996
C0R650,竹田,2026-07-19,22.58486,120.54344,0.54900265
C1H900,清流,2026-07-19,24.080775,120.962997,2.8544218e-09
C1C510,水尾,2026-07-19,24.940081,121.087161,0.024181835
C2N170,茅港尾,2026-07-19,23.2061,120.2624,0.28728998
C0F9X0,大雅(中科園區),2026-07-19,24.21528,120.62445,0.37031168
C0SB60,白守蓮,2026-07-19,23.126769,121.401914,0.47149652
C0O970,虎頭埤,2026-07-19,23.021375,120.347878,0.58832604
C0C730,中大臨海站,2026-07-19,24.966126,121.008581,0.034834668
C0X250,新營,2026-07-19,23.310689,120.316681,0.24028526
C0V700,三民,2026-07-19,22.645017,120.311233,0.47428855
C0U870,大礁溪,2026-07-19,24.791042,121.675047,2.4387298e-08
C0E870,高鐵苗栗,2026-07-19,24.60725,120.826094,0.02025366
C2S890,關山,2026-07-19,23.0395,121.175017,0.9923739
C0TA30,鹽寮,2026-07-19,23.845606,121.592664,0.091619484
C0M860,新美,2026-07-19,23.338017,120.683169,1.7207014e-08
C1E701,八卦,2026-07-19,24.491756,120.927619,1.4476609e-08
C2TA90,加納納,2026-07-19,23.466421,121.359867,0.8947855
C0I420,國姓,2026-07-19,24.037803,120.855072,1.0466184e-08
C2D720,關西工作站,2026-07-19,24.757275,121.184792,0.08243059
C2AK30,信賢,2026-07-19,24.84108,121.53492,0.015719438
C0S960,香蘭,2026-07-19,22.587569,120.993375,0.024485705
467620,蘭嶼,2026-07-19,22.0369,121.55843,0.09020425
C2UC40,中城,2026-07-19,24.62865,121.74745,0.93666923
72G600,臺中農改場,2026-07-19,24.003028,120.534389,0.20306416
C0Z210,瑞穗,2026-07-19,23.5239,121.39021,0.23113833
C0M820,達邦,2026-07-19,23.453994,120.749517,2.323401e-09
C0V860,南寮,2026-07-19,22.7616,120.2339,0.57066625
C0G740,大城,2026-07-19,23.852487,120.320935,0.15745145
C0R920,塭仔,2026-07-19,22.4169,120.5197,0.3449394
C0R470,高樹,2026-07-19,22.826389,120.600806,0.20816132
C0R680,佳樂水,2026-07-19,21.993578,120.861633,0.19444771
C1O870,大棟山,2026-07-19,23.31157,120.52226,2.2053057e-09
C0D360,梅花,2026-07-19,24.678347,121.208558,9.164244e-05
C0Z190,富世,2026-07-19,24.14743,121.6297,0.99012
C0AI10,屈尺,2026-07-19,24.92184,121.54475,0.81445986
B2U990,畜試東區分所,2026-07-19,24.669039,121.832561,0.92064345
C0SB80,長濱漁港,2026-07-19,23.313644,121.459994,0.2851907
C0TA50,和仁,2026-07-19,24.241394,121.712472,0.9409352
C2AK40,漁光,2026-07-19,24.96875,121.72132,6.488371e-09
C0V910,大樹,2026-07-19,22.684645,120.432803,0.15837952
C1R610,西大武山,2026-07-19,22.617719,120.7322,2.2845471e-08
C0K500,元長,2026-07-19,23.642858,120.31966,0.18465984
C0G900,線西,2026-07-19,24.143358,120.443536,0.04870143
C0M700,竹崎,2026-07-19,23.526178,120.555508,0.15130052
C2E880,三義,2026-07-19,24.405478,120.749819,3.9580077e-06
C0C720,竹圍,2026-07-19,25.112692,121.239824,0.019574728
C0F9P0,清水,2026-07-19,24.312297,120.562242,0.032398257
C0Z150,吉安光華,2026-07-19,23.930925,121.595153,0.08246113
C0FA80,小雪山天池,2026-07-19,24.28025,121.02627,9.2027e-09
467300,東吉島,2026-07-19,23.25727,119.66762,0.7694149
C1D640,外坪(五指山),2026-07-19,24.644447,121.090961,1.8261574e-07
C2R9A0,高士國小,2026-07-19,22.12553,120.84653,0.92362297
C0F9O0,潭子,2026-07-19,24.213106,120.703933,0.016235102
C2H9R0,卓社,2026-07-19,23.887894,121.000086,6.622984e-09
72T250,花蓮農改場,2026-07-19,23.975222,121.563889,0.07702612
C0E780,銅鑼,2026-07-19,24.489681,120.790853,0.5162918
C1T950,太安,2026-07-19,23.666719,121.370128,0.00040358948
C0E830,苑裡,2026-07-19,24.439714,120.653053,0.014731085
467270,田中,2026-07-19,23.873803,120.581286,0.27568752
C0SA10,檳榔四格山,2026-07-19,22.810031,121.109308,0.22832385
C1T830,布洛灣,2026-07-19,24.17184,121.57127,0.69257253
C0F970,大坑,2026-07-19,24.173142,120.722289,0.099508464
C1U920,思源,2026-07-19,24.393125,121.347214,6.6373627e-09
C2H9Y0,松茗,2026-07-19,23.8167,120.650765,0.97974825
C0A931,三和,2026-07-19,25.233153,121.595236,0.009252221
C0I010,廬山,2026-07-19,24.033311,121.181808,2.8080571e-09
C2M940,日野賀,2026-07-19,23.434056,120.727169,2.5938949e-09
C0R860,鼻頭,2026-07-19,22.1043,120.8979,0.55708456
C2I260,北坑,2026-07-19,23.92463,121.00683,1.4098868e-08
C0UB20,壯圍,2026-07-19,24.7359,121.8163,0.72358245
C0R790,九棚,2026-07-19,22.14195,120.889281,0.9769144
C0W110,東莒,2026-07-19,25.9652,119.98069,0.12746571
C1U930,粉鳥林,2026-07-19,24.497088,121.842479,0.021143546
C0S830,長濱,2026-07-19,23.286817,121.411975,0.98456943
C1F9F1,伯公龍,2026-07-19,24.272392,120.849047,6.5740386e-09
C0UB90,太平山莊,2026-07-19,24.494171,121.536209,8.928601e-09
C0E810,西湖,2026-07-19,24.562947,120.7485,0.01454924
C1I440,新高口,2026-07-19,23.478744,120.878939,6.1484817e-09
C0O840,王爺宮,2026-07-19,23.222064,120.40085,0.06335988
C0T9G0,鳳林山,2026-07-19,23.735269,121.420131,0.784636
C0X080,佳里,2026-07-19,23.173039,120.145086,0.1188875
C0FB70,大甲溪埔,2026-07-19,24.370625,120.620067,0.014191707
C0Z310,清水斷崖,2026-07-19,24.218294,121.689142,0.9592275
C0M680,太保,2026-07-19,23.455062,120.331455,0.25224775
C1S820,金峰,2026-07-19,22.590969,120.933236,0.12636201
C0AD10,八里,2026-07-19,25.150211,121.403947,0.020871297
C2K240,草嶺,2026-07-19,23.59555,120.693461,4.0720844e-09
C1SA70,都蘭,2026-07-19,22.87794,121.226881,0.52328867
C0K440,二崙,2026-07-19,23.772797,120.408944,0.25582948
C1A760,坪林交控,2026-07-19,24.94284,121.713442,0.032030754
C0F9N0,大里,2026-07-19,24.092464,120.701378,0.053589292
C0SA90,達仁林場,2026-07-19,22.264347,120.823972,7.898341e-05
C1R290,石門山,2026-07-19,22.112611,120.756597,0.9614425
42HA10,萬大發電廠,2026-07-19,23.978875,121.139639,4.032927e-09
C0R890,山海,2026-07-19,21.9878,120.7091,0.08664311
C0T9A0,月眉山,2026-07-19,23.809928,121.539828,0.9885228
C0AC70,信義,2026-07-19,25.037822,121.564597,0.75430804
C0K560,棋山,2026-07-19,23.68645,120.603417,0.29566514
C2FB50,出雲,2026-07-19,24.206469,120.902794,5.7972214e-09
C1Z240,中平林道,2026-07-19,23.42115,121.26763,0.00068866817
U2H480,溪頭,2026-07-19,23.670306,120.798194,3.6980343e-09
C0M880,好美里,2026-07-19,23.3364,120.138,0.12440653
C0T9E0,大坑,2026-07-19,23.880628,121.581981,0.26400068
C0K530,臺西,2026-07-19,23.701547,120.197559,0.10315379
C1E900,國一N128K,2026-07-19,24.560997,120.844186,0.028131777
C0AJ50,水湳洞,2026-07-19,25.123695,121.862238,0.35170758
C0AI20,白沙灣,2026-07-19,25.283128,121.519058,0.01573869
C2V310,美濃,2026-07-19,22.898792,120.51907,0.19878572
C0A860,大坪,2026-07-19,25.165914,121.632969,0.897674
C1U850,觀音海岸,2026-07-19,24.38319,121.77856,0.004812351
C2K610,草嶺石壁,2026-07-19,23.602469,120.707731,4.05082e-09
C0U950,鶯子嶺,2026-07-19,24.89754,121.79244,4.8445825e-09
C0O900,善化,2026-07-19,23.112883,120.297219,0.37225685
C0K550,蔦松,2026-07-19,23.514319,120.229736,0.08509687
E2P980,林試六龜中心,2026-07-19,22.991703,120.645722,1.6259584e-06
C0E590,通霄,2026-07-19,24.471892,120.704622,0.01534937
C1I310,西巒,2026-07-19,23.754486,120.883956,8.580887e-09
C0A550,泰平,2026-07-19,24.971197,121.823711,4.133551e-07
C2UC30,金洋,2026-07-19,24.42465,121.74573,0.063591324
C0I360,水里,2026-07-19,23.812553,120.849792,0.7810909
C0R830,高士,2026-07-19,22.121825,120.836781,0.8720403
C1I101,溪頭,2026-07-19,23.661789,120.807647,6.4720433e-09
C0AJ20,野柳,2026-07-19,25.20703,121.690021,0.0625312
C0B060,暖暖,2026-07-19,25.0957,121.7403,0.48440462
C1H920,長豐,2026-07-19,24.102039,120.879897,4.079213e-09
C2S9B0,利吉,2026-07-19,22.86246,121.15486,0.7728636
C0V360,內門,2026-07-19,22.975481,120.466769,0.18692105
C0R850,林邊,2026-07-19,22.4634,120.5339,0.33913305
C0E930,龍鳳,2026-07-19,24.700034,120.859125,0.023402441
C0U910,冬山,2026-07-19,24.63373,121.7937,0.92064345
C1E721,泰安,2026-07-19,24.489017,120.968036,2.7467586e-08
82H320,茶改中部分場,2026-07-19,23.875611,120.913583,6.189145e-09
C0M750,布袋,2026-07-19,23.380878,120.167789,0.062421586
C1S860,利嘉,2026-07-19,22.809417,121.050528,0.0008927006
E2S980,林試太麻里1,2026-07-19,22.598922,120.980044,0.116478406
C0X170,關廟,2026-07-19,22.963017,120.327797,0.58266306
C0V720,林園,2026-07-19,22.507747,120.394511,0.60020775
C2M9G0,沄水,2026-07-19,23.38293,120.52666,0.92082506
C1I510,線浸林道,2026-07-19,23.761508,120.832956,3.4906864e-09
C0D690,外湖,2026-07-19,24.917735,120.968711,0.011725798
C0C750,新興坑尾,2026-07-19,25.0061,121.0971,0.019842196
B2Q810,畜試南區分所,2026-07-19,21.945583,120.802167,0.19444771
C0S790,金崙,2026-07-19,22.538122,120.966875,0.15069652
C0AH90,福山植物園,2026-07-19,24.760717,121.58135,2.3385718e-08
C0I540,奇萊稜線,2026-07-19,24.109231,121.326456,1.03257e-08
C0M850,表湖,2026-07-19,23.24186,120.64166,7.4302617e-09
C0S770,大溪山,2026-07-19,22.478475,120.943325,0.7356498
C0AG80,中和,2026-07-19,24.991622,121.491792,0.7100566
C0T790,大禹嶺,2026-07-19,24.186117,121.316086,7.396058e-09
C0T9B0,水源,2026-07-19,23.991861,121.537169,0.29564774
C0R840,牡丹池山,2026-07-19,22.168389,120.841225,0.6701925
C1I131,桶頭,2026-07-19,23.641944,120.654117,0.76324946
CAL110,布袋國中,2026-07-19,23.35893,120.18026,0.12440653
C2M9D0,何竹子腳,2026-07-19,23.53641,120.38203,0.14587508
C0Z290,赤柯山,2026-07-19,23.36893,121.38293,0.63682795
C0X280,將軍,2026-07-19,23.214999,120.13577,0.15842302
C0S690,太麻里,2026-07-19,22.60902,120.98533,9.294186e-05
C0U880,北關,2026-07-19,24.9072,121.8734,0.00048115186
CAW010,東引,2026-07-19,26.3588,120.4836,0.49091676
C0G810,埔心,2026-07-19,23.947633,120.525456,0.20334952
C0U970,大福,2026-07-19,24.80064,121.81389,0.56182736
C2H9N0,仁愛東眼,2026-07-19,24.026875,121.1205,4.2323194e-09
C1E670,南礦,2026-07-19,24.538278,121.002836,4.6030266e-08
C0M520,東後寮,2026-07-19,23.369908,120.248065,0.13682933
C1E461,松安,2026-07-19,24.397972,120.986022,9.515384e-09
C2N160,西拉雅風管處,2026-07-19,23.189481,120.335297,0.3260086
C2O850,環湖,2026-07-19,23.148665,120.4186,0.08808215
C2M970,碧湖,2026-07-19,23.568632,120.624165,3.1701932e-09
C0A640,石碇,2026-07-19,24.993969,121.662917,0.032155205
E2S960,林試太麻里2,2026-07-19,22.598,120.99775,0.02825826
C0F9Y0,桃山,2026-07-19,24.432739,121.303808,2.0575097e-08
C1I020,萬大,2026-07-19,23.979817,121.132261,3.807179e-09
C2UC20,長嶺,2026-07-19,24.70894,121.61162,1.5302943e-07
C0U940,羅東,2026-07-19,24.68184,121.74934,0.784791
C0M650,朴子,2026-07-19,23.43463,120.23902,0.16424388
C1I500,大尖山,2026-07-19,23.858572,120.994889,1.294918e-08
C0FB40,中橫21.6k,2026-07-19,24.2499,121.1455,3.754415e-09
C0G820,田尾,2026-07-19,23.901669,120.509389,0.20334952
E2K600,四湖植物園,2026-07-19,23.676986,120.163433,0.08900014
C0S730,綠島,2026-07-19,22.6672,121.47533,0.594035
12Q970,東港工作站,2026-07-19,22.479997,120.466058,0.329231
C1TA00,太魯閣,2026-07-19,24.15773,121.6236,0.7305931
466920,臺北,2026-07-19,25.037658,121.514853,0.8380085
C0R600,舊泰武,2026-07-19,22.588194,120.664944,0.01837283
466910,鞍部,2026-07-19,25.182586,121.529731,2.304351e-05
C1I230,九份二山,2026-07-19,23.961944,120.845,1.5677948e-09
C2M810,里佳,2026-07-19,23.389125,120.716647,2.5809008e-09
C2A660,瑞芳,2026-07-19,25.113169,121.801147,0.42883995
C0R270,琉球嶼,2026-07-19,22.332244,120.362236,0.470391
C2V580,瑞山,2026-07-19,22.90304,120.43424,0.12926692
C1T990,高寮,2026-07-19,23.394239,121.356808,0.5288254
C0G620,芬園,2026-07-19,24.015678,120.6213,0.3374577
C1Z140,荖溪,2026-07-19,23.890575,121.45964,0.017953057
C1I201,中心崙,2026-07-19,23.728722,120.712097,0.99607784
C1I400,凌霄,2026-07-19,24.018778,121.004456,4.1362895e-09
C1M640,十字,2026-07-19,23.492153,120.753683,3.323792e-09
G2P820,農試鳳山分所,2026-07-19,22.646611,120.356083,0.70320356
C0Z270,蕃薯寮,2026-07-19,23.73835,121.540108,0.8185898
C2E420,竹南,2026-07-19,24.70898,120.88897,0.021154452
C2D480,打鐵坑,2026-07-19,24.849664,121.150789,0.15234543
C0FB10,出雲山苗圃,2026-07-19,24.23105,120.90475,6.5710677e-09
C0F9Q0,外埔,2026-07-19,24.347817,120.705686,0.5183841
C0K580,高鐵雲林,2026-07-19,23.737456,120.417944,0.21230757
C2I090,鳳凰,2026-07-19,23.728081,120.787347,3.753835e-09
C0U990,員山,2026-07-19,24.74435,121.72247,0.76945764
C0V770,大社,2026-07-19,22.730306,120.346639,0.7161456
C0X120,麻豆,2026-07-19,23.183289,120.248611,0.42018786
C0C670,龍潭,2026-07-19,24.870056,121.221389,0.1719899
C0D680,香山濕地,2026-07-19,24.783581,120.914988,0.011725798
C0S980,勝林山,2026-07-19,22.430439,120.8938,0.41636977
C0V730,大寮,2026-07-19,22.605614,120.395717,0.70779705
C0R570,麟洛,2026-07-19,22.65078,120.52719,0.1268665
C2M930,石卓,2026-07-19,23.478744,120.702264,3.3019478e-09
C0G9B0,和美,2026-07-19,24.105169,120.492131,0.06186716
C2I240,外大坪,2026-07-19,23.9587,120.91788,3.5631953e-09
CAG100,王功漁港,2026-07-19,23.96824,120.32586,0.030239405
C0X290,北門,2026-07-19,23.267772,120.125481,0.15842302
C2F930,大甲,2026-07-19,24.347667,120.640403,0.035556354
C0D650,湖口,2026-07-19,24.904794,121.043628,0.03881078
C0U780,五結,2026-07-19,24.68637,121.79794,0.92064345
C1I250,鯉潭,2026-07-19,23.961922,120.991131,7.1307724e-09
C0R130,阿禮,2026-07-19,22.742908,120.743678,7.1601014e-09
C0X100,臺南市北區,2026-07-19,23.010394,120.194228,0.20999947
C0S920,金峰嘉蘭,2026-07-19,22.594789,120.960825,0.002357253
C0V490,新興,2026-07-19,22.627422,120.298803,0.41112873
C0F9K0,大安,2026-07-19,24.345061,120.588025,0.027983328
C2E970,八甲,2026-07-19,24.535811,120.795983,0.0380373
C0V440,鳳山,2026-07-19,22.646653,120.356122,0.70320356
C1T940,大觀,2026-07-19,23.714206,121.373133,0.9795355
C0E740,造橋,2026-07-19,24.637056,120.864778,0.02577758
C0R100,尾寮山,2026-07-19,22.833111,120.683889,6.4098566e-09
A2K630,臺大雲林校區,2026-07-19,23.730628,120.423903,0.21676333
467990,馬祖,2026-07-19,26.169467,119.923158,0.09305754
C0D580,寶山,2026-07-19,24.735006,121.025192,0.07125151
E2P990,林試扇平站,2026-07-19,22.9677,120.6857,1.1794321e-08
C0AI30,三重,2026-07-19,25.057328,121.500629,0.8166831
C0AH00,汐止,2026-07-19,25.066881,121.658778,0.12261731
C1Z040,立山,2026-07-19,23.443356,121.327375,0.9929326
466881,新北,2026-07-19,24.959207,121.525196,0.7372044
C0W130,花嶼,2026-07-19,23.40007,119.32276,0.94254065
C0A950,鼻頭角,2026-07-19,25.129036,121.923372,0.9983689
C0K470,林內,2026-07-19,23.748675,120.609642,0.2753968
C2F990,摩天嶺,2026-07-19,24.322458,120.936819,6.355694e-09
C2E430,南庄,2026-07-19,24.601775,121.000214,0.26369044
82C160,茶改場,2026-07-19,24.908472,121.185333,0.025532834
C2TB60,南安,2026-07-19,23.29818,121.26157,0.34599894
C0Z320,清水林道,2026-07-19,23.27125,121.188272,0.9989892
C0R760,南仁湖,2026-07-19,22.084681,120.863353,0.9608574
C0M670,大林,2026-07-19,23.600616,120.45841,0.113925464
C0M800,茶山,2026-07-19,23.299075,120.664767,2.874858e-08
C0A9C0,天母,2026-07-19,25.117494,121.537169,0.7597158
72K220,南改斗南分場,2026-07-19,23.634556,120.477333,0.28936908
72AI40,桃改樹林分場,2026-07-19,24.944503,121.386972,0.73577774
C0S910,蘭嶼燈塔,2026-07-19,22.081197,121.503117,0.18786427
C0B050,八斗子,2026-07-19,25.144754,121.79167,0.16963173
C0U900,內城,2026-07-19,24.71813,121.68766,0.7872882
C0X320,柳營,2026-07-19,23.253328,120.375253,0.06501008
C0M790,新港,2026-07-19,23.553269,120.345728,0.20843215
C0F9T0,西屯,2026-07-19,24.179494,120.641275,0.15244024
C0E950,松安,2026-07-19,24.39792,120.98599,9.515384e-09
C0SA30,都歷,2026-07-19,23.020333,121.323642,0.71484697
C0C620,蘆竹,2026-07-19,25.084275,121.265767,0.02054667
C0R730,大坪頂,2026-07-19,22.024633,120.69355,0.9368993
C0AJ40,石門,2026-07-19,25.273672,121.601198,0.014650674
C0E750,苗栗,2026-07-19,24.564569,120.824575,0.028469928
C0T870,鯉魚潭,2026-07-19,23.935639,121.508944,0.057955056
C1V170,排雲,2026-07-19,23.463619,120.954147,1.5316967e-08
C2H950,中寮,2026-07-19,23.884447,120.766406,0.46740332
C0R350,貓鼻頭,2026-07-19,21.921774,120.7358,0.103649214
C0V660,岡山,2026-07-19,22.797078,120.294958,0.5946716
C1H941,雙冬,2026-07-19,23.967378,120.802189,2.4392637e-09
C0AJ70,田寮,2026-07-19,25.2698,121.4886,0.015907692
C0AI00,五股,2026-07-19,25.07445,121.42728,0.9553993
C0Z280,德武,2026-07-19,23.47426,121.41071,0.7683722
C2RA10,大新,2026-07-19,22.67558,120.57788,0.15763974
C0C460,復興,2026-07-19,24.820208,121.352281,0.82969177
C2AA10,中八仙,2026-07-19,25.11576,121.49199,0.7008633
E2H360,蓮華池,2026-07-19,23.918333,120.885278,5.746701e-09
C0M640,中埔,2026-07-19,23.42538,120.5229,0.30063385
C2C810,八德蔬果,2026-07-19,24.97858,121.28187,0.025647586
C2M9F0,安溪寮,2026-07-19,23.350334,120.208039,0.12440653
C0W140,金沙,2026-07-19,24.488292,118.408778,0.62376267
C2A540,四堵,2026-07-19,24.8926,121.745736,6.974898e-08
C0ACA0,新莊,2026-07-19,25.051478,121.446756,0.6200371
C0R220,潮州,2026-07-19,22.534361,120.54,0.5959973
U2HA40,臺大內茅埔,2026-07-19,23.689722,120.851117,4.0744094e-08
467490,臺中,2026-07-19,24.145736,120.684075,0.05034689
C0UB60,明池,2026-07-19,24.650688,121.475277,5.885486e-08
C0U960,翠峰湖,2026-07-19,24.510856,121.608044,8.91509e-09
E2HA20,林試畢祿溪站,2026-07-19,24.226944,121.308522,3.9757673e-09
C2M9A0,大華,2026-07-19,23.4824,120.67491,2.1381488e-09
C0V890,前鎮,2026-07-19,22.5718,120.3117,0.5579609
C1F941,雪嶺,2026-07-19,24.280586,121.026642,9.2027e-09
C2H9E0,國姓南港,2026-07-19,23.911108,120.846556,2.5410427e-09
C0AC80,文山,2026-07-19,25.00235,121.575728,0.82956845
C0F9R0,龍井,2026-07-19,24.184536,120.528972,0.043419167
C0M760,民雄,2026-07-19,23.551754,120.428457,0.113925464
C0UA40,西德山,2026-07-19,24.560647,121.752608,2.185092e-08
C2TA70,赤科坪,2026-07-19,23.39885,121.39168,0.001063568
C1T920,中興,2026-07-19,23.769503,121.498653,0.1459648
C0D550,雪霸,2026-07-19,24.526972,121.11605,2.6625848e-08
C2F860,梨山,2026-07-19,24.247522,121.243669,4.6836695e-09
C0R320,車城,2026-07-19,22.0744,120.716247,0.1709269
C1S870,南美山,2026-07-19,23.15025,121.382333,0.80172414
C0B020,基隆嶼,2026-07-19,25.19141,121.78391,0.21274835
C1U501,牛鬥,2026-07-19,24.637836,121.573656,0.00022527712
C0M730,嘉義市東區,2026-07-19,23.457673,120.460531,0.11894395
C2R990,泰武,2026-07-19,22.60686,120.69765,7.4780786e-08
C0S700,知本,2026-07-19,22.684866,121.005642,0.00027173097
C1N001,沙崙,2026-07-19,22.935472,120.309406,0.5539536
C0V760,橋頭,2026-07-19,22.757806,120.30575,0.7054098
C2V570,吉東,2026-07-19,22.85418,120.54539,0.1821931
C0G960,福寶,2026-07-19,24.0443,120.3814,0.070336066
C0X210,白河,2026-07-19,23.347466,120.414427,0.077960595
C0S810,東河,2026-07-19,22.972672,121.303986,0.7768236
C2R170,屏東,2026-07-19,22.66027,120.49403,0.1268665
C0R670,楓港,2026-07-19,22.190131,120.692156,0.05219215
C0FA50,霧峰,2026-07-19,24.0419,120.6995,0.058334995
C0UB10,蘇澳,2026-07-19,24.5969,121.8571,0.0069004945
C0G950,防潮門,2026-07-19,24.1835,120.4871,0.04870143
C0M740,六腳,2026-07-19,23.492871,120.290625,0.20238492
C1R250,力里,2026-07-19,22.428117,120.629228,0.92165333
C0K330,虎尾,2026-07-19,23.719183,120.442036,0.22253202
C2FA00,烏石坑,2026-07-19,24.273503,120.947617,6.3774914e-09
C0V620,永安,2026-07-19,22.82315,120.236856,0.5804692
C1I330,楓樹林,2026-07-19,23.986803,121.076117,4.366743e-09
C0W200,湖西,2026-07-19,23.596314,119.67275,0.8626484
72Q010,高雄農改場,2026-07-19,22.709333,120.525889,0.100448765
C2K301,鹿南,2026-07-19,23.643341,120.3683,0.24943107
C0C680,龜山,2026-07-19,25.02846,121.38656,0.92661566
C2V260,月眉,2026-07-19,22.971003,120.539853,0.6343472
C0V450,鳳森,2026-07-19,22.545064,120.392592,0.683344
C0FA90,小雪山林道,2026-07-19,24.29515,121.03651,1.2321152e-08
C0U720,南山,2026-07-19,24.43742,121.38167,2.3818595e-08
A2N290,臺南蘭花園區,2026-07-19,23.340258,120.379661,0.06946025
C0R560,新園,2026-07-19,22.5434,120.461558,0.60020775
C0U890,三星,2026-07-19,24.66812,121.65302,0.8387308
C1V300,御油山,2026-07-19,23.001983,120.715364,8.594925e-09
C0U600,礁溪,2026-07-19,24.817539,121.765608,0.5763383
C1T980,龍澗,2026-07-19,24.023289,121.411328,5.6336823e-08
C0R700,枋山,2026-07-19,22.247814,120.660794,0.05654932
C0D670,海天一線,2026-07-19,24.831986,120.914438,0.011625332
C0SA00,歷坵,2026-07-19,22.520969,120.89185,0.5046225
C0M710,東石,2026-07-19,23.458927,120.15385,0.06356893
C0M780,鹿草,2026-07-19,23.41134,120.30835,0.17408569
C0U520,雙連埤,2026-07-19,24.753033,121.641303,4.2654182e-08
C0B010,七堵,2026-07-19,25.094819,121.71713,0.22423509
C0R480,長治,2026-07-19,22.693128,120.542622,0.20914882
C1V830,國三S383K,2026-07-19,22.781967,120.426475,0.19962254
12Q980,恆春工作站,2026-07-19,22.079678,120.714425,0.1709269
C1O940,東山服務區,2026-07-19,23.286016,120.398472,0.0690946
C1U840,東澳嶺,2026-07-19,24.5378,121.8485,1.7587176e-07
C1D630,飛鳳山,2026-07-19,24.766464,121.119178,2.1461727e-05
C0S940,石寧山,2026-07-19,23.223772,121.406639,0.36677536
C0K410,北港,2026-07-19,23.573957,120.292802,0.13183127
C2M620,瑞里,2026-07-19,23.545133,120.675197,3.166954e-09
C0SB70,小港漁港,2026-07-19,23.158558,121.400431,0.47962964
C2O950,安南,2026-07-19,23.076694,120.144861,0.08777007
C0F0E0,南湖圈谷,2026-07-19,24.363714,121.444667,1.9357293e-08
467610,成功,2026-07-19,23.097486,121.373428,0.5744036
C0G890,伸港,2026-07-19,24.148933,120.484403,0.049085356
C2E540,龍溪,2026-07-19,24.606489,120.783933,0.028655073
C1V200,梅山,2026-07-19,23.268447,120.823556,4.5677173e-09
C0T9H0,加路蘭山,2026-07-19,23.682947,121.5274,0.9620393
C2O930,玉井,2026-07-19,23.126042,120.46055,0.08808215
C1F911,新伯公,2026-07-19,24.221361,120.841069,1.28948585e-08
C0X200,左鎮,2026-07-19,23.056758,120.408522,0.060181335
C2TB50,麻汝,2026-07-19,23.42554,121.39358,0.89114434
C0FA60,鞍馬山工作站,2026-07-19,24.267064,121.000793,1.0722417e-08
C0SB50,叭嗡嗡,2026-07-19,23.047062,121.343223,0.54043955
C2R550,新埤,2026-07-19,22.467947,120.582894,0.7956067
C1F891,稍來,2026-07-19,24.265689,121.001142,1.04730535e-08
C2M9C0,紫雲,2026-07-19,23.494914,120.540253,0.11496915
72N240,七股研究中心,2026-07-19,23.081672,120.062894,0.082357906
C0C700,中壢,2026-07-19,24.977661,121.256375,0.024709499
C0M690,水上,2026-07-19,23.419734,120.388909,0.15483427
C0V690,鼓山,2026-07-19,22.623325,120.275575,0.41112873
C0O860,大內,2026-07-19,23.11885,120.36083,0.41699708
C0Z200,萬榮,2026-07-19,23.709219,121.420106,0.34480983
C0T9D0,和中,2026-07-19,24.26676,121.74103,0.9378864
C2S9A0,北份子寮,2026-07-19,22.78561,121.07813,0.5334194
C1O921,楠西,2026-07-19,23.183511,120.484083,0.08973761
C0AJ30,淡水觀海,2026-07-19,25.184591,121.408616,0.021818357
C0V810,左營,2026-07-19,22.67491,120.28491,0.47428855
C0UA70,桃源谷,2026-07-19,24.962606,121.888875,0.050798003
C0X130,官田,2026-07-19,23.193217,120.315422,0.31548238
C1H000,翠峰,2026-07-19,24.109397,121.205211,4.2216772e-09
C0UA90,石城,2026-07-19,24.980444,121.951214,0.9977839
C1E681,南勢山,2026-07-19,24.421669,120.923831,4.5977684e-09
C0A9F0,內湖,2026-07-19,25.079422,121.57545,0.75430804
C0K291,宜梧,2026-07-19,23.536281,120.169329,0.062616214
C1K540,口湖,2026-07-19,23.585344,120.180517,0.06316081
C0R780,滿州,2026-07-19,22.024403,120.839892,0.76948756
C0V870,文安,2026-07-19,22.8025,120.2164,0.57066625
C0U650,玉蘭,2026-07-19,24.675286,121.587061,1.4153935e-07
C0R640,東港,2026-07-19,22.46247,120.44074,0.61517096
C0AJ80,板橋,2026-07-19,25.0107,121.4489,0.7100566
C0S660,下馬,2026-07-19,23.150427,121.070312,0.99427813
C2N190,烏樹,2026-07-19,23.32393,120.36989,0.33205947
C1H9B1,阿眉,2026-07-19,24.1263,120.994672,7.742167e-09
C0UA20,多加屯,2026-07-19,24.368614,121.373189,8.993979e-09
C0E730,頭份,2026-07-19,24.688247,120.912206,0.021255387
72V140,高改旗南分場,2026-07-19,22.857861,120.516667,0.5330589
C2R490,九如,2026-07-19,22.74049,120.490555,0.100448765
C0K480,莿桐,2026-07-19,23.761192,120.502372,0.28940055
C0U980,坪林石牌,2026-07-19,24.86478,121.77396,1.2004324e-08
C0T900,西林,2026-07-19,23.8119,121.441458,0.25171822
C1I150,青雲,2026-07-19,23.793361,120.949378,1.2768522e-08
C2E980,和興,2026-07-19,24.505319,120.923016,4.3646462e-08
467350,澎湖,2026-07-19,23.565503,119.563094,0.9312753
C0G800,埔鹽,2026-07-19,24.000394,120.431683,0.07245382
C0H960,草屯,2026-07-19,23.973672,120.68085,0.50918615
C1V780,多納林道,2026-07-19,22.888028,120.737917,6.7509704e-09
C0E920,通霄漁港,2026-07-19,24.498589,120.673876,0.016838873
C0Z330,安通山,2026-07-19,23.290728,121.348528,0.99084216
C0AH10,永和,2026-07-19,25.01125,121.508111,0.7057042
C0AK10,太平里,2026-07-19,25.134937,121.364899,0.27503327
C2G640,鹿港,2026-07-19,24.0753,120.430481,0.06138232
C1E890,國三N149K,2026-07-19,24.463414,120.680019,0.014771183
C1M870,國三N285K,2026-07-19,23.550319,120.505833,0.12042234
C1E480,鳳美,2026-07-19,24.554803,121.034747,8.58821e-08
C0T9M0,靜浦,2026-07-19,23.455167,121.495028,0.15104222
C2H9M0,發祥,2026-07-19,24.154094,121.164517,2.6161693e-09
C2G9C0,埔南,2026-07-19,23.99124,120.46969,0.07245378
C0AI40,石牌,2026-07-19,25.115597,121.513139,0.75430804
C1F871,上谷關,2026-07-19,24.203483,121.018644,6.3727006e-09
C2H9G0,百勝,2026-07-19,24.051142,120.909361,4.0046575e-09
C0G880,二水,2026-07-19,23.810742,120.6173,0.26768327
C0R940,加祿堂,2026-07-19,22.3363,120.6217,0.87987727
C0W220,北竿,2026-07-19,26.220358,119.974881,0.2618956
C0O960,崎頂,2026-07-19,22.959547,120.369317,0.70512396
C0TA40,秀林,2026-07-19,24.302864,121.731144,6.525659e-05
C0S750,向陽,2026-07-19,23.248397,120.986133,3.591265e-09
C0T9F0,水璉,2026-07-19,23.797131,121.542514,0.6701599
C1M600,頭凍,2026-07-19,23.406364,120.603339,1.9658628e-09
467660,臺東,2026-07-19,22.752211,121.154586,0.8920287
C1D380,新埔,2026-07-19,24.84745,121.03834,0.035167046
C2G980,田頭村,2026-07-19,23.8263,120.444175,0.25582948
C0V750,路竹,2026-07-19,22.854997,120.259439,0.6197121
C0N050,蚵寮,2026-07-19,23.301,120.1104,0.158423
C2X060,下營,2026-07-19,23.226806,120.256291,0.28728998
72M700,南改鹿草分場,2026-07-19,23.416869,120.283061,0.1677529
C1SA50,利嘉林道,2026-07-19,22.82325,121.009389,1.41133425e-08
C0UB70,太平山中間站,2026-07-19,24.542003,121.513453,3.407317e-08
C0A940,金山,2026-07-19,25.223628,121.643967,0.0047767884
C1V340,大津,2026-07-19,22.888322,120.645986,0.038741853
C0W180,七美,2026-07-19,23.219333,119.444892,0.70277846
C1F9C1,白冷,2026-07-19,24.182844,120.929889,4.5504303e-09
K2E710,苗改生物防治研究中心,2026-07-19,24.422861,120.871833,5.8022297e-06
C0N040,蘆竹溝,2026-07-19,23.2344,120.0961,0.15093029
C0TB40,崇德,2026-07-19,24.166144,121.657414,0.99017954
C0D760,大坪苗圃,2026-07-19,24.5362,121.1108,3.1572153e-08
C2D430,峨眉,2026-07-19,24.6905,121.017189,0.028658064
C2W230,畜試所澎湖,2026-07-19,23.628342,119.513206,0.98026013
C0R880,後壁湖,2026-07-19,21.9457,120.7457,0.08664311
C1I280,埔中,2026-07-19,23.820778,120.642594,0.98128957
467790,墾丁雷達站,2026-07-19,21.948235,120.808028,0.2553692
C0W190,望安,2026-07-19,23.380564,119.494075,0.9520633
C0Z170,卓溪,2026-07-19,23.3443,121.3029,0.32273558
C0F850,東勢,2026-07-19,24.246428,120.833047,1.8563322e-08
466900,淡水,2026-07-19,25.164889,121.448906,0.043384876
C0I370,魚池,2026-07-19,23.895703,120.94135,4.4165653e-09
C0C630,大溪,2026-07-19,24.882853,121.265547,0.027522191
C0A520,山佳,2026-07-19,24.974944,121.402008,0.7077475
C0I110,竹山,2026-07-19,23.761225,120.688156,0.25804934
82H840,茶改南部分場,2026-07-19,23.762528,120.7405,0.95268226
C2SD80,再來山,2026-07-19,23.34371,121.44122,0.96163446
C0G660,溪湖,2026-07-19,23.94835,120.479122,0.19992454
C1T800,洛韶,2026-07-19,24.204558,121.453956,2.3574437e-05
C1T810,慈恩,2026-07-19,24.192044,121.388386,3.9091526e-09
C1E451,象鼻,2026-07-19,24.368617,120.940228,4.5977684e-09
C0AC60,三峽,2026-07-19,24.939025,121.369728,0.04369615
C0I490,萬大林道,2026-07-19,23.928228,121.091411,5.136926e-09
C1I290,豐丘,2026-07-19,23.668178,120.887417,1.154352e-08
C1I320,奧萬大,2026-07-19,23.952956,121.178556,3.3229868e-09
C2M910,嘉義大學,2026-07-19,23.471325,120.485903,0.12786324
C0U770,南澳,2026-07-19,24.44935,121.81022,0.021143546
C2TB30,吉安,2026-07-19,23.94538,121.54803,0.06905714
C0A980,社子,2026-07-19,25.109508,121.469681,0.46987268
C0V800,六龜,2026-07-19,22.997889,120.633583,2.2515467e-06
C1G9D0,國一S218K,2026-07-19,23.890641,120.493253,0.21574284
C0E570,白沙屯,2026-07-19,24.549447,120.696803,0.015744578
C2F9A0,中竹林,2026-07-19,24.103556,120.751061,1.2726605e-08
C0FA40,臺中電廠,2026-07-19,24.2146,120.4907,0.040923055
C2G9A0,畜試所彰化,2026-07-19,23.86045,120.557964,0.27568752
C0H9C0,合歡山,2026-07-19,24.143442,121.272547,1.2828256e-08
G2M350,農試溪口農場,2026-07-19,23.58565,120.408111,0.11094524
C0U860,頭城,2026-07-19,24.85323,121.8308,0.24493636
C0R580,南州,2026-07-19,22.48591,120.50274,0.329231
C0G780,秀水,2026-07-19,24.03405,120.503869,0.20306416
72N100,臺南農改場,2026-07-19,23.0605,120.342194,0.41204005
C0S900,蘭嶼高中,2026-07-19,22.04909,121.51214,0.14451635
C2TA60,六十石,2026-07-19,23.22477,121.31861,0.41169223
C1F9W0,德基,2026-07-19,24.254783,121.190261,5.8099405e-09
C2M980,安和,2026-07-19,23.51377,120.31593,0.20238492
C1Z120,壽豐,2026-07-19,23.870853,121.508081,0.09606873
C0W160,烏坵,2026-07-19,24.9944,119.44956,0.23141849
C1I550,國六W023K,2026-07-19,23.979067,120.867742,5.700805e-09
C0R870,興海,2026-07-19,21.9752,120.8439,0.19444771
C0R140,瑪家,2026-07-19,22.682903,120.686639,2.394783e-08
C0A530,坪林,2026-07-19,24.938183,121.70975,0.007317038
C0X260,後壁,2026-07-19,23.366358,120.362326,0.39145255
C0Z230,和平,2026-07-19,24.30717,121.77007,0.9175316
C0G770,福興,2026-07-19,24.041289,120.437669,0.07245382
C0H9A0,神木村,2026-07-19,23.532742,120.843667,5.877574e-09
C0I460,南投,2026-07-19,23.911469,120.687331,0.4899832
C0I480,梅峰,2026-07-19,24.085272,121.173572,3.821475e-09
C2D770,巨埔,2026-07-19,24.84435,121.11442,0.049213085
C2A560,福山,2026-07-19,24.776203,121.502811,2.0791246e-07
C0AH30,五分山,2026-07-19,25.07125,121.780794,1.6307316e-08
C0FA10,松柏,2026-07-19,24.429115,120.617482,0.01536131
72S200,東改班鳩分場,2026-07-19,22.829528,121.077694,0.7122864
72HA00,中改埔里分場,2026-07-19,23.903208,120.963364,4.696632e-09
C2H9W0,大坪頂農水,2026-07-19,24.043122,120.932781,4.7107265e-09
C0C650,平鎮,2026-07-19,24.897503,121.214636,0.043640353
C0S930,延平,2026-07-19,22.902581,121.084058,0.88502276
C0UA60,樟樹山,2026-07-19,24.41393,121.78325,0.22163449
C2UC10,出水溪,2026-07-19,24.615822,121.652253,6.6491873e-07
C1S670,摩天,2026-07-19,23.199503,121.027,0.002164969
C2C590,觀音,2026-07-19,25.027072,121.153317,0.014358138
C0V630,茄萣,2026-07-19,22.906642,120.182608,0.14162588
466940,基隆,2026-07-19,25.133314,121.740475,0.18517473
C0X050,東河,2026-07-19,23.296598,120.385608,0.06946025
C0R770,保力,2026-07-19,22.071122,120.764111,0.73129267
G2L020,農試嘉義分所,2026-07-19,23.485028,120.473806,0.13283664
C0X240,關子嶺,2026-07-19,23.331169,120.508025,0.988131
C0I380,集集,2026-07-19,23.828206,120.801467,0.6912741
466990,花蓮,2026-07-19,23.975128,121.613275,0.064173274
C1V220,小關山,2026-07-19,23.154217,120.813603,6.9779946e-09
C1F9G1,慶福山,2026-07-19,24.180853,120.848378,4.27634e-09
C0FB20,雪山橋,2026-07-19,24.23192,120.9786,9.682556e-09
C0Z250,瑞穗林道,2026-07-19,23.49284,121.30688,0.0008076264
C0D590,新豐,2026-07-19,24.87068,120.97721,0.011205851
C2N200,口宵里,2026-07-19,23.15987,120.45988,0.8036641
C0A870,五指山,2026-07-19,25.132153,121.608692,0.0346453
C0UA50,西帽山,2026-07-19,24.555361,121.802628,2.0510628e-07
C2R980,竹田國中,2026-07-19,22.61532,120.52412,0.5620149
C0X160,仁德,2026-07-19,22.968258,120.257689,0.34582236
C1H971,六分寮,2026-07-19,23.92507,120.6378,0.9887325
C2D790,石鹿,2026-07-19,24.56551,121.15841,9.463008e-08
C0W120,西嶼,2026-07-19,23.5626,119.468436,0.9345908
C0G650,員林,2026-07-19,23.946503,120.585597,0.24758172
C0AD50,鶯歌,2026-07-19,24.951533,121.346294,0.04517785
C2H9Q0,北東眼山,2026-07-19,24.120939,121.189303,3.635962e-09
C2H9T0,名間竹圍,2026-07-19,23.859914,120.637572,0.9268664
C0S990,山豬窟,2026-07-19,22.318619,120.857372,0.00018128841
C0X190,安平,2026-07-19,22.993161,120.152181,0.19828378
C0K400,斗六,2026-07-19,23.720583,120.541127,0.29469144
12J990,口湖工作站,2026-07-19,23.589978,120.180394,0.06316081
C0O830,北寮,2026-07-19,23.079561,120.495008,0.18459
C1D410,白蘭,2026-07-19,24.579364,121.079947,4.5349058e-08
C0S970,加津林,2026-07-19,22.416211,120.926942,0.13244219
C0D700,關西,2026-07-19,24.7977,121.1732,0.082463376
C0U750,龜山島,2026-07-19,24.841667,121.953133,1.5107142e-06
C0R810,內獅,2026-07-19,22.305064,120.642986,0.05654932
C2EA10,拉庫斯,2026-07-19,24.53637,121.02137,6.39839e-08
C1M390,龍美,2026-07-19,23.406728,120.654417,2.5826932e-09
C2K290,崙內,2026-07-19,23.69525,120.35601,0.24943101
C2FB60,頭櫃山,2026-07-19,24.129842,120.858925,7.464794e-09
C1H840,國三N238K,2026-07-19,23.841008,120.707711,0.37220788
CAQ030,崎峰國小,2026-07-19,22.42565,120.49521,0.329231
C2E520,大湖,2026-07-19,24.414939,120.870872,7.210213e-06
467530,阿里山,2026-07-19,23.508208,120.813242,8.067811e-09
C1E691,南湖,2026-07-19,24.40135,120.837533,4.366726e-09
C0FA30,梧棲,2026-07-19,24.256003,120.523381,0.043419167
C1V231,高中,2026-07-19,23.134911,120.716711,7.666592e-09
C0AK30,硬漢嶺,2026-07-19,25.136097,121.426372,0.019685134
C0F9V0,新社,2026-07-19,24.200172,120.815806,5.4207097e-09
C0H890,埔里,2026-07-19,23.972169,120.952425,1.527519e-08
C0R690,墾丁,2026-07-19,21.966756,120.810269,0.8896457
C0SD20,富山,2026-07-19,22.822383,121.190825,0.3264432
C0F0D0,審馬陣,2026-07-19,24.381675,121.4203,1.368964e-08
C2W030,金門農試所,2026-07-19,24.448431,118.451786,0.5060936
C0R820,白鷺,2026-07-19,22.454275,120.666219,1.05691915e-05
C0FB00,大雪山,2026-07-19,24.254668,121.007374,1.0792033e-08
C2O880,南化,2026-07-19,23.17332,120.59413,2.0608617e-05
C1V190,南天池,2026-07-19,23.27403,120.91176,4.2677275e-09
C0E940,雪見,2026-07-19,24.42595,121.01347,1.3066408e-08
K2E360,苗栗農改場,2026-07-19,24.495722,120.829111,0.25343525
CAJ050,海口故事園區,2026-07-19,23.57543,120.14121,0.06316081
C2K280,四湖,2026-07-19,23.6304,120.22717,0.08900014
C2H9D0,三隻寮,2026-07-19,24.093078,120.861578,1.4734897e-09
C0O990,媽廟,2026-07-19,22.99175,120.293525,0.43535343
C0Z220,和平林道,2026-07-19,24.343922,121.656317,0.97428364
C0TA10,花蓮漁港,2026-07-19,23.995322,121.638331,0.4061749
72C440,桃園農改場,2026-07-19,24.950944,121.030583,0.040365025
C1E711,馬拉邦山,2026-07-19,24.367306,120.901656,3.0152325e-09
C0SB20,富岡,2026-07-19,22.792467,121.192669,0.33800974
C0D560,竹東,2026-07-19,24.767147,121.057881,0.059513073
C0F9U0,南屯,2026-07-19,24.137006,120.637969,0.1367293
C2SD60,明峰,2026-07-19,22.8671,121.11825,0.8446065
C0M720,番路,2026-07-19,23.464657,120.554156,0.96733963
C0F0A0,雪山圈谷,2026-07-19,24.388594,121.236339,3.046875e-08
C1A9N0,四十份,2026-07-19,24.934158,121.593283,6.528036e-05
C0U760,東澳,2026-07-19,24.52196,121.83318,0.029383177
C0X230,鹽水,2026-07-19,23.272621,120.247641,0.12440653
C2H9H0,苗改南投蜂場,2026-07-19,23.852589,120.693481,0.21659628
C2TB70,達谷寮,2026-07-19,23.38,121.35968,0.85100585
C0R950,萬隆國小,2026-07-19,22.507667,120.587817,0.84971195
467540,大武,2026-07-19,22.35572,120.90374,0.09074158
C0V370,古亭坑,2026-07-19,22.893178,120.401947,0.120062895
C1I340,新興橋,2026-07-19,23.563333,120.868728,4.2214277e-09
C2C480,桃園,2026-07-19,24.992425,121.323172,0.025647586
C0SA80,土坂,2026-07-19,22.453108,120.887572,0.118542545
C0R160,鹽埔,2026-07-19,22.739558,120.530778,0.100448765
C0AC40,大屯山,2026-07-19,25.175675,121.522408,1.8610706e-07
466850,五分山雷達站,2026-07-19,25.071182,121.781205,1.5170546e-08
C2H9L0,馬烈霸,2026-07-19,24.1512,121.201772,4.18215e-09
C1AI50,國三N016K,2026-07-19,25.034164,121.619664,0.7063324
C2V920,匏子寮,2026-07-19,23.04905,120.55319,0.0011807587
C1V600,藤枝,2026-07-19,23.071961,120.757042,8.681489e-09
C1E601,南勢,2026-07-19,24.572486,120.734842,0.011890441
C0O980,新市,2026-07-19,23.061614,120.298197,0.38342676
C0K420,西螺,2026-07-19,23.800407,120.467394,0.27057225
C0Z050,佳心,2026-07-19,23.34567,121.21316,0.9959525
C0AD30,蘆洲,2026-07-19,25.086594,121.472331,0.56241596
C0V610,梓官,2026-07-19,22.760558,120.267211,0.5946716
K2F750,種苗改良場,2026-07-19,24.225972,120.800917,5.471943e-09
C0UA80,大溪漁港,2026-07-19,24.941801,121.902955,0.9133092
C1AI60,國一39K邊坡,2026-07-19,25.064361,121.383836,0.95884293
C0W150,金寧,2026-07-19,24.457703,118.328989,0.52842927
C0R960,內埔,2026-07-19,22.608483,120.570714,0.58670133
C2H9S0,龍南,2026-07-19,23.953536,120.833183,1.4507283e-09
C0AH40,平等,2026-07-19,25.129142,121.577086,0.00030018447
C0R540,佳冬,2026-07-19,22.419456,120.552375,0.3563382
466950,彭佳嶼,2026-07-19,25.627975,122.079744,0.99510294
C0A890,雙溪,2026-07-19,25.036003,121.864242,0.3993314
C0AH50,林口,2026-07-19,25.072181,121.38084,0.9398859
A2K360,水試臺西試驗場,2026-07-19,23.717231,120.190522,0.09863121
C2M960,外寮,2026-07-19,23.562643,120.665688,3.0444973e-09
C0F9S0,烏日,2026-07-19,24.107058,120.624103,0.10321475
C2N180,鹿陶洋,2026-07-19,23.14325,120.48352,0.08973764
C0C490,八德,2026-07-19,24.928708,121.283289,0.029179461
C0R190,赤山,2026-07-19,22.592333,120.614306,0.61758095
C0T820,天祥,2026-07-19,24.179597,121.495639,0.74823254
C1F9E1,龍安,2026-07-19,24.1605,120.831961,4.911375e-09
C2SD50,順那,2026-07-19,23.04166,121.29332,0.82898444
C0V820,小林,2026-07-19,23.148408,120.63325,4.7512987e-08
C2G870,芳苑,2026-07-19,23.922303,120.320025,0.066330135
C0E850,大河,2026-07-19,24.618069,120.948578,0.03599257
C1U670,寒溪,2026-07-19,24.634,121.71691,0.8462578
C0N020,城西,2026-07-19,23.0568,120.0956,0.08664384
C1Z110,三棧,2026-07-19,24.11557,121.60501,0.756789
C0R280,檳榔,2026-07-19,22.076078,120.836777,0.9837043
C2H9J0,中台,2026-07-19,23.9996,120.938739,4.697304e-09
C0F9L0,后里,2026-07-19,24.310436,120.729725,0.63875914
467441,高雄,2026-07-19,22.730432,120.312516,0.7161456
C2N210,岩坑,2026-07-19,23.24614,120.47458,0.4892953
C0Z180,新城,2026-07-19,24.040486,121.604878,0.06227178
C0D540,橫山,2026-07-19,24.71116,121.11693,0.16823873
C1D420,太閣南,2026-07-19,24.632808,121.160575,8.1633516e-08
C1E770,公館,2026-07-19,24.526914,120.830806,0.02651329
CAN130,水試所海水繁養殖中心,2026-07-19,23.120802,120.07968,0.08236775
C1I430,翠華,2026-07-19,24.191961,121.224339,5.7445857e-09
C1M400,菜瓜坪,2026-07-19,23.251928,120.576103,4.267876e-08
C0G730,二林,2026-07-19,23.903325,120.376081,0.0849209
72M360,南改義竹分場,2026-07-19,23.360694,120.279361,0.1400663
V2K620,麥寮合作社,2026-07-19,23.753836,120.294783,0.206626
C0Z070,舞鶴,2026-07-19,23.46811,121.37407,0.9275141
C0B040,大武崙,2026-07-19,25.166676,121.706993,0.06985024
C1Z030,紅葉,2026-07-19,23.493119,121.338806,0.8280624
C1I050,丹大,2026-07-19,23.753747,121.141147,6.9260557e-09
C0I080,信義,2026-07-19,23.689694,120.851036,4.0744094e-08
C2TB80,庄子底,2026-07-19,23.71794,121.49438,0.21601382
C0D750,樂山林道6k,2026-07-19,24.49999,121.08773,2.1512399e-08
C2M920,朴子農改,2026-07-19,23.469889,120.259383,0.16424388
C2A880,福隆,2026-07-19,25.017842,121.942083,0.99768025
C0Z160,鳳林,2026-07-19,23.746114,121.453411,0.22088972
C0UB80,翠峰林道6K,2026-07-19,24.49773,121.568625,9.091687e-09
C0V210,復興,2026-07-19,23.222403,120.806089,2.924969e-08
C0H990,昆陽,2026-07-19,24.121322,121.273642,8.2525675e-09
C0R741,獅子,2026-07-19,22.202308,120.705236,0.06529076
C0S710,鹿野,2026-07-19,22.917711,121.122994,0.9850203
C0I530,小奇萊,2026-07-19,24.131764,121.295717,1.0130272e-08
C0FA70,大雪山埡口,2026-07-19,24.26867,121.03062,9.246669e-09
C2K630,荷苞,2026-07-19,23.657717,120.595144,0.19041887
C0Z080,富源,2026-07-19,23.587642,121.378225,0.9478159
C2M9E0,旺來山,2026-07-19,23.555153,120.486463,0.121989526
C0SB10,美和,2026-07-19,22.682078,121.060236,0.17267033
C2K620,馬光農場,2026-07-19,23.721453,120.378864,0.21230757
C1I140,卡奈托灣,2026-07-19,23.754364,121.087872,1.0576052e-08
C0I520,玉山風口,2026-07-19,23.470489,120.955994,1.8251695e-08
C1G691,下水埔,2026-07-19,23.816114,120.5676,0.31373262
C0X110,臺南市南區,2026-07-19,22.961189,120.188378,0.35028148
C0V680,仁武,2026-07-19,22.701083,120.347722,0.7161456
C2G840,北斗,2026-07-19,23.877586,120.514222,0.21872596
C2TB90,長橋,2026-07-19,23.6874,121.46186,0.22044429
C0R900,竹坑,2026-07-19,22.1385,120.7022,0.05219215
C0G860,社頭,2026-07-19,23.897647,120.5862,0.2114862
C0X150,安定,2026-07-19,23.102614,120.227839,0.33146164
C0R590,里港,2026-07-19,22.77919,120.49459,0.2833397
C0E610,馬都安,2026-07-19,24.451272,120.930192,5.973413e-09
C0E550,明德,2026-07-19,24.583486,120.885411,0.097353876
C0R150,三地門,2026-07-19,22.709889,120.639944,0.22478254
C0G910,花壇,2026-07-19,24.032076,120.549461,0.20836806
C1D400,鳥嘴山,2026-07-19,24.71909,121.28387,5.9868405e-08
C0F0B0,石岡,2026-07-19,24.276061,120.777644,0.7376649
C2V250,甲仙,2026-07-19,23.080106,120.591758,5.0949684e-06
C0SA20,金崙山,2026-07-19,22.567419,120.959667,4.8898134e-08
C0V350,溪埔,2026-07-19,22.738578,120.446797,0.15253045
C0M660,溪口,2026-07-19,23.604131,120.403569,0.11094524
C1S880,壽卡,2026-07-19,22.238911,120.858903,0.3841333
72D680,桃改新埔分場,2026-07-19,24.834444,121.066111,0.036624458
