站號,站名,日期,lat,lon,BLBTSLS
C1R120,上德文,2026-04-15,22.763272,120.704442,0.9970594
467290,古坑,2026-04-15,23.633639,120.551889,0.98508704
C0R700,枋山,2026-04-15,22.246844,120.661086,0.00013589957
C2K300,鹿南,2026-04-15,23.63855,120.3636,5.842715e-08
C1R110,口社,2026-04-15,22.770111,120.645222,0.9986674
467290,古坑,2026-04-15,23.380729,120.336861,9.122398e-07
C0K500,元長,2026-04-15,23.64981,120.315024,2.958635e-08
