站號,站名,日期,lat,lon,BLBTSLS
C0R710,龍磐,2026-06-12,21.931672,120.838942,1.8583609e-09
C1F9D1,白毛台,2026-06-12,24.158325,120.886933,3.0783048e-07
C0G940,竹塘,2026-06-12,23.848253,120.386764,0.32448894
467590,恆春,2026-06-12,22.003897,120.746339,2.3635842e-09
C0U710,太平山,2026-06-12,24.505486,121.525656,1.0367716e-08
C0E820,獅潭,2026-06-12,24.539133,120.920042,0.75760174
C2SD70,二層坪,2026-06-12,22.94105,121.16838,1.971406e-05
C0V880,興達,2026-06-12,22.8778,120.2127,0.057012677
C0SB30,新蘭,2026-06-12,22.869214,121.223228,0.06820576
C2R970,屏科大,2026-06-12,22.648275,120.619247,0.04246268
C1Z130,銅門,2026-06-12,23.965694,121.492842,0.98122466
C0AD40,土城,2026-06-12,24.973208,121.445169,0.32539737
CAN140,六官養殖協會,2026-06-12,23.22881,120.29962,0.1537191
C0X180,山上,2026-06-12,23.0757,120.363253,0.38694954
C0F9Z0,雪山東峰,2026-06-12,24.388792,121.268675,6.8060606e-09
C1M480,獨立山,2026-06-12,23.537022,120.607797,8.963393e-09
C0X220,學甲,2026-06-12,23.230367,120.182187,0.29989493
467650,日月潭,2026-06-12,23.881325,120.90805,4.120415e-09
A2K570,古坑(花卉中心),2026-06-12,23.633531,120.552392,0.02134832
C0K600,箔子寮,2026-06-12,23.6197,120.14,0.09127452
C0G830,埤頭,2026-06-12,23.866003,120.452806,0.70713955
C0S950,七塊厝,2026-06-12,22.954453,121.229922,1.6126315e-07
467110,金門,2026-06-12,24.407306,118.289281,0.0026695468
C0AH80,深坑,2026-06-12,25.002703,121.628328,0.00086352386
C0A970,三貂角,2026-06-12,25.007606,122.002058,0.019818526
C2D730,寶山農場,2026-06-12,24.732444,120.976153,0.053913623
C0K430,褒忠,2026-06-12,23.690938,120.303634,0.3509646
467480,嘉義,2026-06-12,23.495925,120.432906,0.11085388
C0V400,阿公店,2026-06-12,22.804194,120.355528,0.07666333
C2S800,華源,2026-06-12,22.65783,121.0232,0.010140663
C2SA40,瑞和,2026-06-12,22.974361,121.156697,1.9389925e-05
C0E960,觀霧分站,2026-06-12,24.505781,121.113921,3.842957e-09
467550,玉山,2026-06-12,23.48718,120.95943,1.4824831e-08
C0R440,大漢山,2026-06-12,22.405264,120.753181,3.3344723e-09
C0SD30,東清國小,2026-06-12,22.057128,121.564922,2.1267049e-07
C1F9B1,桐林,2026-06-12,24.066172,120.735194,0.4345172
C2I210,蘆竹湳,2026-06-12,23.93398,120.81209,0.012296449
C2H9U0,鳳鵬,2026-06-12,23.763919,120.788061,0.0037400865
C0K390,土庫,2026-06-12,23.679029,120.395574,0.49052104
C1I450,望鄉山,2026-06-12,23.594153,120.944286,6.717075e-09
C0E910,海埔,2026-06-12,24.648767,120.772435,0.12943533
B2E890,畜試北區分所,2026-06-12,24.527806,120.770972,0.9417891
C0R750,四林格山,2026-06-12,22.076989,120.802439,1.4933632e-09
C0F0C0,中坑,2026-06-12,24.248517,120.903319,1.5278715e-08
C1I121,大鞍,2026-06-12,23.678381,120.760017,4.1954684e-09
C2G9E0,移民庄,2026-06-12,23.9784,120.40283,0.16012219
72U480,花改蘭陽分場,2026-06-12,24.686306,121.716583,0.87186325
C0A770,科教館,2026-06-12,25.096356,121.516507,0.7523428
C0AJ60,六塊厝,2026-06-12,25.24,121.4481,0.00913562
C0R620,墾雷,2026-06-12,21.900836,120.855269,1.9595174e-09
467290,古坑,2026-06-12,23.633536,120.551906,0.021348331
467420,永康,2026-06-12,23.038386,120.2367,0.28824598
C2M530,奮起湖,2026-06-12,23.493903,120.699253,1.6672099e-09
C0I410,名間,2026-06-12,23.837053,120.701447,0.48255834
A2C560,農工中心,2026-06-12,24.985917,121.239833,0.040800247
C0V740,旗山,2026-06-12,22.888614,120.483597,3.0266483e-05
C0Z061,玉里,2026-06-12,23.3215,121.339656,0.33060625
C0S840,南田,2026-06-12,22.279725,120.889208,5.0365117e-09
C1I470,杉林溪,2026-06-12,23.639517,120.786444,2.8916958e-09
C1X040,東原,2026-06-12,23.291597,120.463822,0.34497222
C0R660,枋寮,2026-06-12,22.367722,120.590647,0.00041554173
C0K450,大埤,2026-06-12,23.646074,120.431537,0.2917722
C0UA00,土場,2026-06-12,24.576533,121.495333,4.769061e-05
467080,宜蘭,2026-06-12,24.763975,121.756528,0.95452446
C0N030,四草,2026-06-12,23.0235,120.1116,0.26111537
467410,臺南,2026-06-12,22.99328,120.20492,0.24800965
C0V650,彌陀,2026-06-12,22.783806,120.246361,0.06959517
C0D660,新竹市東區,2026-06-12,24.798681,120.986942,0.07152163
82S580,茶改東部分場,2026-06-12,22.907694,121.130139,0.005050937
C0SB40,興隆,2026-06-12,22.913661,121.257469,0.0012123523
467050,新屋,2026-06-12,25.006725,121.047492,0.002033814
C0C710,大溪永福,2026-06-12,24.892936,121.324975,0.012470477
C0FA20,溫寮,2026-06-12,24.372177,120.583125,0.18774047
C0V640,湖內,2026-06-12,22.887139,120.2445,0.059554834
C0R910,下寮,2026-06-12,22.3929,120.5548,0.00014019763
C0Z020,明里,2026-06-12,23.208717,121.262342,0.0008775594
C0M770,嘉義梅山,2026-06-12,23.585398,120.555587,0.30641586
C0C660,楊梅,2026-06-12,24.912375,121.143047,0.05919752
C0SD40,牛頭山,2026-06-12,22.676661,121.506944,2.2218706e-05
C1E511,新開,2026-06-12,24.347703,120.827019,0.9874785
G2F820,農試所(霧峰),2026-06-12,24.031261,120.688133,0.38107947
C2M990,大巃頂,2026-06-12,23.5547,120.61439,2.259076e-09
C1I070,和社,2026-06-12,23.591131,120.888861,4.6642885e-09
C2E990,新坪頂,2026-06-12,24.30201,120.8574,8.852956e-06
C0TA80,立霧山,2026-06-12,24.183258,121.641899,8.453488e-07
C2F000,大肚,2026-06-12,24.15295,120.572117,0.7648514
C1S850,豐南,2026-06-12,23.122139,121.262389,6.272055e-07
C2M9B0,西興,2026-06-12,23.2428,120.57617,0.00056829414
C2A920,富貴角,2026-06-12,25.263783,121.565258,1.2511874e-06
C0T960,光復,2026-06-12,23.660694,121.424964,0.9807331
C0F9M0,豐原,2026-06-12,24.254322,120.720692,0.8430218
C0R720,旭海,2026-06-12,22.205403,120.887614,1.7280283e-09
C0V710,苓雅,2026-06-12,22.622742,120.330669,0.13693368
C0C740,觀音工業區,2026-06-12,25.064764,121.114856,0.0015478963
CAC040,拉拉山,2026-06-12,24.699317,121.427133,5.1462323e-09
C0V790,萬山,2026-06-12,22.905944,120.688056,3.129552e-08
U2HA30,臺大和社,2026-06-12,23.590856,120.888864,4.6642885e-09
C2H9K0,屯原,2026-06-12,24.067969,121.209389,5.4915055e-09
C0AJ90,澳底,2026-06-12,25.0552,121.9253,0.0048797037
C0Z100,東華,2026-06-12,23.89525,121.549833,0.9328808
C0G970,三豐,2026-06-12,23.882,120.2895,0.018425597
C0V900,汕尾,2026-06-12,22.4782,120.4151,0.00097681
C1R630,龍泉,2026-06-12,22.66701,120.59091,0.022797404
C1AC50,關渡,2026-06-12,25.133486,121.469331,0.008821931
C0C800,四稜,2026-06-12,24.64733,121.4293,6.4210406e-09
C0F9I0,神岡,2026-06-12,24.272481,120.658314,0.7812727
C0K460,斗南,2026-06-12,23.678734,120.478359,0.2930939
C2O810,曾文,2026-06-12,23.219681,120.497328,0.10570812
467280,後龍,2026-06-12,24.648563,120.831834,0.14209674
C1F9J1,清水林,2026-06-12,24.071242,120.820419,1.5024284e-07
C2A650,火燒寮,2026-06-12,25.002719,121.742892,1.1415334e-06
466930,竹子湖,2026-06-12,25.162078,121.544547,9.633225e-09
C1I220,樟湖,2026-06-12,23.905333,120.846983,2.080579e-09
C0I390,仁愛,2026-06-12,24.022122,121.132206,5.4685416e-09
C0Z300,東里,2026-06-12,23.26853,121.30547,0.33369538
C1V590,新發,2026-06-12,23.057019,120.646064,8.80926e-09
C0K510,水林,2026-06-12,23.572924,120.24597,0.31653783
72S590,東改賓朗果園,2026-06-12,22.813889,121.071278,7.017391e-07
82A750,茶改北部分場,2026-06-12,24.955778,121.631222,2.8820722e-08
C1A750,石碇服務區,2026-06-12,25.00872,121.646242,0.005981523
C0X300,鹿寮,2026-06-12,23.386047,120.477331,0.05559181
C0K590,雲林東勢,2026-06-12,23.674192,120.255721,0.36786026
C2K310,港尾布雞,2026-06-12,23.74834,120.38439,0.7048493
C0A570,桶後,2026-06-12,24.848222,121.597992,5.153863e-07
C0G720,溪州,2026-06-12,23.851589,120.499093,0.7103547
C1V160,達卡努瓦,2026-06-12,23.279811,120.705319,4.1736157e-09
C2M410,馬頭山,2026-06-12,23.324361,120.582017,0.00066709827
C0V850,蚵仔寮,2026-06-12,22.7256,120.2527,0.067838274
C0S740,池上,2026-06-12,23.119628,121.209469,1.7365857e-05
C1V390,尖山,2026-06-12,22.813153,120.367789,0.12058213
C0AH70,松山,2026-06-12,25.04871,121.55042,0.75475895
C0N010,鯤鯓國小,2026-06-12,23.1879,120.0889,0.32400706
C0SA60,知本（水試所）,2026-06-12,22.702394,121.082761,0.007772578
C0T9I0,豐濱,2026-06-12,23.583897,121.514806,0.9627315
C0UB00,淡江大學蘭陽校園,2026-06-12,24.823239,121.730383,1.7878024e-07
C0W240,九宮,2026-06-12,24.423753,118.240186,0.0032945338
C0T9N0,富里,2026-06-12,23.171639,121.249378,0.00030648257
U2HA50,臺大竹山,2026-06-12,23.756972,120.681556,0.32494608
C0V840,鳳鼻頭,2026-06-12,22.5083,120.3591,0.0008537743
C0X140,西港,2026-06-12,23.125608,120.203108,0.34591103
72D080,桃改五峰分場,2026-06-12,24.612194,121.157167,2.923785e-09
C2H9P0,伊拿谷,2026-06-12,23.963211,121.088264,5.2929376e-09
C2K250,崙背,2026-06-12,23.75553,120.31893,0.35466117
C2H9F0,柑林,2026-06-12,24.018658,120.847072,0.9888652
C0TA20,加灣,2026-06-12,24.082025,121.608944,0.25046128
C0V530,阿蓮,2026-06-12,22.883208,120.327508,0.21877322
C0FB30,八仙山苗圃,2026-06-12,24.192719,121.001366,2.1301592e-08
C0E791,卓蘭,2026-06-12,24.3126,120.8244,0.9858733
C2R260,春日,2026-06-12,22.370361,120.628306,4.5794236e-06
C1I030,武界,2026-06-12,23.913225,121.052483,4.3152926e-09
C0R520,崁頂,2026-06-12,22.514781,120.506914,0.0030984622
C0R341,牡丹,2026-06-12,22.130036,120.792639,2.2518747e-09
C0R930,萬丹,2026-06-12,22.5885,120.4851,0.003771056
C0S760,紅石,2026-06-12,23.069131,121.126219,8.17987e-09
C2C410,中央大學,2026-06-12,24.967652,121.185165,0.042323187
C1M610,石磐龍,2026-06-12,23.496606,120.663506,1.779885e-09
C2C830,中德,2026-06-12,24.981862,121.291344,0.012989098
C0C790,東眼山,2026-06-12,24.8284,121.40888,2.5726548e-08
C0UA10,鴛鴦湖,2026-06-12,24.590269,121.412228,4.4194386e-09
C0R800,丹路,2026-06-12,22.204481,120.750989,3.2178387e-09
C2R240,萬巒,2026-06-12,22.527306,120.625111,0.0016827439
C0G920,永靖,2026-06-12,23.924703,120.547533,0.4661421
C2M950,太和,2026-06-12,23.538372,120.702961,1.674856e-09
C1A630,下盆,2026-06-12,24.771003,121.538622,3.379299e-08
B2N890,畜產試驗所,2026-06-12,23.058972,120.336406,0.2802787
C0UA30,白嶺,2026-06-12,24.527819,121.519031,2.6994174e-08
467571,新竹,2026-06-12,24.828575,121.01455,0.04795975
C1V580,溪南(特生中心),2026-06-12,23.084972,120.788475,3.842613e-09
C1T970,大農,2026-06-12,23.615233,121.413331,0.98341304
C0R650,竹田,2026-06-12,22.58486,120.54344,0.0030846423
C1H900,清流,2026-06-12,24.080775,120.962997,5.7925353e-09
C1C510,水尾,2026-06-12,24.940081,121.087161,0.0072013657
C2N170,茅港尾,2026-06-12,23.2061,120.2624,0.1537191
C0F9X0,大雅(中科園區),2026-06-12,24.21528,120.62445,0.5483433
C0SB60,白守蓮,2026-06-12,23.126769,121.401914,0.009008301
C0O970,虎頭埤,2026-06-12,23.021375,120.347878,0.244203
C0C730,中大臨海站,2026-06-12,24.966126,121.008581,0.002089504
C0X250,新營,2026-06-12,23.310689,120.316681,0.15589635
C0V700,三民,2026-06-12,22.645017,120.311233,0.35984385
C0U870,大礁溪,2026-06-12,24.791042,121.675047,4.8524267e-08
C0E870,高鐵苗栗,2026-06-12,24.60725,120.826094,0.1405593
C2S890,關山,2026-06-12,23.0395,121.175017,0.0021899107
C0TA30,鹽寮,2026-06-12,23.845606,121.592664,0.919216
C0M860,新美,2026-06-12,23.338017,120.683169,4.7058163e-07
C1E701,八卦,2026-06-12,24.491756,120.927619,3.0757544e-08
C2TA90,加納納,2026-06-12,23.466421,121.359867,0.953798
C0I420,國姓,2026-06-12,24.037803,120.855072,0.9864234
C2D720,關西工作站,2026-06-12,24.757275,121.184792,0.5866722
C2AK30,信賢,2026-06-12,24.84108,121.53492,1.9891434e-07
C0S960,香蘭,2026-06-12,22.587569,120.993375,0.97353184
467620,蘭嶼,2026-06-12,22.0369,121.55843,8.9053005e-09
C2UC40,中城,2026-06-12,24.62865,121.74745,0.9906553
72G600,臺中農改場,2026-06-12,24.003028,120.534389,0.34787557
C0Z210,瑞穗,2026-06-12,23.5239,121.39021,0.9139383
C0M820,達邦,2026-06-12,23.453994,120.749517,2.1790145e-09
C0V860,南寮,2026-06-12,22.7616,120.2339,0.067838274
C0G740,大城,2026-06-12,23.852487,120.320935,0.019658864
C0R920,塭仔,2026-06-12,22.4169,120.5197,0.0001387054
C0R470,高樹,2026-06-12,22.826389,120.600806,0.0018467095
C0R680,佳樂水,2026-06-12,21.993578,120.861633,1.8494255e-09
C1O870,大棟山,2026-06-12,23.31157,120.52226,2.9187592e-09
C0D360,梅花,2026-06-12,24.678347,121.208558,2.5500296e-06
C0Z190,富世,2026-06-12,24.14743,121.6297,0.885339
C0AI10,屈尺,2026-06-12,24.92184,121.54475,0.37341386
B2U990,畜試東區分所,2026-06-12,24.669039,121.832561,0.9866886
C0SB80,長濱漁港,2026-06-12,23.313644,121.459994,0.027371632
C0TA50,和仁,2026-06-12,24.241394,121.712472,0.77287686
C2AK40,漁光,2026-06-12,24.96875,121.72132,6.25982e-09
C0V910,大樹,2026-06-12,22.684645,120.432803,0.019682981
C1R610,西大武山,2026-06-12,22.617719,120.7322,4.6373927e-09
C0G900,線西,2026-06-12,24.143358,120.443536,0.1347578
C0M700,竹崎,2026-06-12,23.526178,120.555508,0.010488304
C2E880,三義,2026-06-12,24.405478,120.749819,0.0022603923
C0C720,竹圍,2026-06-12,25.112692,121.239824,0.0022671798
C0F9P0,清水,2026-06-12,24.312297,120.562242,0.22683282
C0Z150,吉安光華,2026-06-12,23.930925,121.595153,0.8743869
C0FA80,小雪山天池,2026-06-12,24.28025,121.02627,7.413246e-09
467300,東吉島,2026-06-12,23.25727,119.66762,0.79256344
C1D640,外坪(五指山),2026-06-12,24.644447,121.090961,4.594869e-08
C2R9A0,高士國小,2026-06-12,22.12553,120.84653,2.2557565e-09
C0F9O0,潭子,2026-06-12,24.213106,120.703933,0.8286867
C2H9R0,卓社,2026-06-12,23.887894,121.000086,3.90183e-09
72T250,花蓮農改場,2026-06-12,23.975222,121.563889,0.9199843
C0E780,銅鑼,2026-06-12,24.489681,120.790853,0.94499993
C1T950,太安,2026-06-12,23.666719,121.370128,1.7758396e-07
C0E830,苑裡,2026-06-12,24.439714,120.653053,0.0823507
467270,田中,2026-06-12,23.873803,120.581286,0.41100386
C0SA10,檳榔四格山,2026-06-12,22.810031,121.109308,6.3870864e-08
C1T830,布洛灣,2026-06-12,24.17184,121.57127,0.8375057
C0F970,大坑,2026-06-12,24.173142,120.722289,0.33578682
C1U920,思源,2026-06-12,24.393125,121.347214,2.5791145e-09
C2H9Y0,松茗,2026-06-12,23.8167,120.650765,0.0003211973
C0A931,三和,2026-06-12,25.233153,121.595236,2.1639484e-07
C0I010,廬山,2026-06-12,24.033311,121.181808,6.658995e-09
C2M940,日野賀,2026-06-12,23.434056,120.727169,3.2626077e-09
C0R860,鼻頭,2026-06-12,22.1043,120.8979,2.1151016e-09
C2I260,北坑,2026-06-12,23.92463,121.00683,2.539807e-06
C0UB20,壯圍,2026-06-12,24.7359,121.8163,0.83733964
C0R790,九棚,2026-06-12,22.14195,120.889281,2.4934825e-09
C0W110,東莒,2026-06-12,25.9652,119.98069,0.0027316643
C1U930,粉鳥林,2026-06-12,24.497088,121.842479,0.49353138
C0S830,長濱,2026-06-12,23.286817,121.411975,0.08886627
C1F9F1,伯公龍,2026-06-12,24.272392,120.849047,0.010410692
C0UB90,太平山莊,2026-06-12,24.494171,121.536209,1.0127819e-08
C0E810,西湖,2026-06-12,24.562947,120.7485,0.008765465
C1I440,新高口,2026-06-12,23.478744,120.878939,4.775291e-09
C0O840,王爺宮,2026-06-12,23.222064,120.40085,0.12835294
C0T9G0,鳳林山,2026-06-12,23.735269,121.420131,0.62521213
C0X080,佳里,2026-06-12,23.173039,120.145086,0.3539752
C0FB70,大甲溪埔,2026-06-12,24.370625,120.620067,0.18480407
C0Z310,清水斷崖,2026-06-12,24.218294,121.689142,0.9504564
C0M680,太保,2026-06-12,23.455062,120.331455,0.09423048
C1S820,金峰,2026-06-12,22.590969,120.933236,0.96330756
C0AD10,八里,2026-06-12,25.150211,121.403947,0.0024329086
C2K240,草嶺,2026-06-12,23.59555,120.693461,2.3428033e-09
C1SA70,都蘭,2026-06-12,22.87794,121.226881,0.060724087
C0K440,二崙,2026-06-12,23.772797,120.408944,0.73653406
C1A760,坪林交控,2026-06-12,24.94284,121.713442,1.0520072e-06
C0F9N0,大里,2026-06-12,24.092464,120.701378,0.4261689
C0SA90,達仁林場,2026-06-12,22.264347,120.823972,1.8785427e-09
C1R290,石門山,2026-06-12,22.112611,120.756597,1.768508e-09
42HA10,萬大發電廠,2026-06-12,23.978875,121.139639,7.919587e-09
C0R890,山海,2026-06-12,21.9878,120.7091,2.3700533e-09
C0T9A0,月眉山,2026-06-12,23.809928,121.539828,0.0319816
C0AC70,信義,2026-06-12,25.037822,121.564597,0.79278
C0K560,棋山,2026-06-12,23.68645,120.603417,0.05114933
C2FB50,出雲,2026-06-12,24.206469,120.902794,5.692439e-09
C1Z240,中平林道,2026-06-12,23.42115,121.26763,1.7030169e-07
U2H480,溪頭,2026-06-12,23.670306,120.798194,1.9149982e-09
C0M880,好美里,2026-06-12,23.3364,120.138,0.09246396
C0T9E0,大坑,2026-06-12,23.880628,121.581981,0.68434304
C0K530,臺西,2026-06-12,23.701547,120.197559,0.11455156
C1E900,國一N128K,2026-06-12,24.560997,120.844186,0.50925833
C0AJ50,水湳洞,2026-06-12,25.123695,121.862238,0.0053344164
C0AI20,白沙灣,2026-06-12,25.283128,121.519058,5.935032e-05
C2V310,美濃,2026-06-12,22.898792,120.51907,3.0090843e-05
C0A860,大坪,2026-06-12,25.165914,121.632969,3.9388148e-08
C1U850,觀音海岸,2026-06-12,24.38319,121.77856,0.036005635
C2K610,草嶺石壁,2026-06-12,23.602469,120.707731,2.218168e-09
C0U950,鶯子嶺,2026-06-12,24.89754,121.79244,3.8960444e-09
C0O900,善化,2026-06-12,23.112883,120.297219,0.2768072
C0K550,蔦松,2026-06-12,23.514319,120.229736,0.14348015
E2P980,林試六龜中心,2026-06-12,22.991703,120.645722,7.489469e-07
C0E590,通霄,2026-06-12,24.471892,120.704622,0.0026207864
C1I310,西巒,2026-06-12,23.754486,120.883956,7.916989e-09
C0A550,泰平,2026-06-12,24.971197,121.823711,2.2023558e-08
C2UC30,金洋,2026-06-12,24.42465,121.74573,0.93538254
C0I360,水里,2026-06-12,23.812553,120.849792,0.8627543
C0R830,高士,2026-06-12,22.121825,120.836781,1.6501515e-09
C1I101,溪頭,2026-06-12,23.661789,120.807647,3.1590206e-09
C0AJ20,野柳,2026-06-12,25.20703,121.690021,9.623751e-05
C0B060,暖暖,2026-06-12,25.0957,121.7403,4.654285e-06
C1H920,長豐,2026-06-12,24.102039,120.879897,4.565864e-08
C2S9B0,利吉,2026-06-12,22.86246,121.15486,0.0042522564
C0V360,內門,2026-06-12,22.975481,120.466769,0.0020465038
C0R850,林邊,2026-06-12,22.4634,120.5339,0.00021863132
C0E930,龍鳳,2026-06-12,24.700034,120.859125,0.02289551
C0U910,冬山,2026-06-12,24.63373,121.7937,0.9866886
C1E721,泰安,2026-06-12,24.489017,120.968036,1.6695042e-09
82H320,茶改中部分場,2026-06-12,23.875611,120.913583,8.924703e-09
C0M750,布袋,2026-06-12,23.380878,120.167789,0.019907748
C1S860,利嘉,2026-06-12,22.809417,121.050528,1.9263689e-07
E2S980,林試太麻里1,2026-06-12,22.598922,120.980044,0.94221276
C0X170,關廟,2026-06-12,22.963017,120.327797,0.22254425
C0V720,林園,2026-06-12,22.507747,120.394511,0.0012710613
C2M9G0,沄水,2026-06-12,23.38293,120.52666,0.008204885
C1I510,線浸林道,2026-06-12,23.761508,120.832956,3.1187708e-09
C0D690,外湖,2026-06-12,24.917735,120.968711,0.0014760098
C0C750,新興坑尾,2026-06-12,25.0061,121.0971,0.0049953735
B2Q810,畜試南區分所,2026-06-12,21.945583,120.802167,1.8494289e-09
C0S790,金崙,2026-06-12,22.538122,120.966875,0.0027562815
C0AH90,福山植物園,2026-06-12,24.760717,121.58135,1.7460327e-08
C0I540,奇萊稜線,2026-06-12,24.109231,121.326456,8.707509e-09
C0M850,表湖,2026-06-12,23.24186,120.64166,1.829275e-08
C0S770,大溪山,2026-06-12,22.478475,120.943325,1.0771242e-06
C0AG80,中和,2026-06-12,24.991622,121.491792,0.32539737
C0T790,大禹嶺,2026-06-12,24.186117,121.316086,5.8304885e-09
C0T9B0,水源,2026-06-12,23.991861,121.537169,0.23812434
C0R840,牡丹池山,2026-06-12,22.168389,120.841225,1.147428e-09
C1I131,桶頭,2026-06-12,23.641944,120.654117,0.0022231755
CAL110,布袋國中,2026-06-12,23.35893,120.18026,0.09246396
C2M9D0,何竹子腳,2026-06-12,23.53641,120.38203,0.10822507
C0Z290,赤柯山,2026-06-12,23.36893,121.38293,2.5419164e-08
C0X280,將軍,2026-06-12,23.214999,120.13577,0.2928729
C0S690,太麻里,2026-06-12,22.60902,120.98533,9.275514e-06
C0U880,北關,2026-06-12,24.9072,121.8734,0.009431375
CAW010,東引,2026-06-12,26.3588,120.4836,0.060020756
C0G810,埔心,2026-06-12,23.947633,120.525456,0.46721193
C0U970,大福,2026-06-12,24.80064,121.81389,0.9531984
C2H9N0,仁愛東眼,2026-06-12,24.026875,121.1205,4.29054e-09
C1E670,南礦,2026-06-12,24.538278,121.002836,2.3808773e-09
C0M520,東後寮,2026-06-12,23.369908,120.248065,0.15482247
C1E461,松安,2026-06-12,24.397972,120.986022,2.7819351e-09
C2N160,西拉雅風管處,2026-06-12,23.189481,120.335297,0.28389564
C2O850,環湖,2026-06-12,23.148665,120.4186,0.07004953
C2M970,碧湖,2026-06-12,23.568632,120.624165,2.2737132e-09
C0A640,石碇,2026-06-12,24.993969,121.662917,1.0520072e-06
E2S960,林試太麻里2,2026-06-12,22.598,120.99775,0.9712647
C0F9Y0,桃山,2026-06-12,24.432739,121.303808,8.580675e-09
C1I020,萬大,2026-06-12,23.979817,121.132261,5.379705e-09
C2UC20,長嶺,2026-06-12,24.70894,121.61162,1.2494162e-07
C0U940,羅東,2026-06-12,24.68184,121.74934,0.86558044
C0M650,朴子,2026-06-12,23.43463,120.23902,0.28981394
C1I500,大尖山,2026-06-12,23.858572,120.994889,4.8220885e-09
C0FB40,中橫21.6k,2026-06-12,24.2499,121.1455,9.238807e-09
C0G820,田尾,2026-06-12,23.901669,120.509389,0.46721193
E2K600,四湖植物園,2026-06-12,23.676986,120.163433,0.07199107
C0S730,綠島,2026-06-12,22.6672,121.47533,0.00013661754
12Q970,東港工作站,2026-06-12,22.479997,120.466058,0.00020862435
C1TA00,太魯閣,2026-06-12,24.15773,121.6236,0.9015908
466920,臺北,2026-06-12,25.037658,121.514853,0.75475895
C0R600,舊泰武,2026-06-12,22.588194,120.664944,4.022126e-09
466910,鞍部,2026-06-12,25.182586,121.529731,5.895257e-09
C1I230,九份二山,2026-06-12,23.961944,120.845,4.0231793e-08
C2M810,里佳,2026-06-12,23.389125,120.716647,2.6536098e-09
C2A660,瑞芳,2026-06-12,25.113169,121.801147,1.4938881e-05
C0R270,琉球嶼,2026-06-12,22.332244,120.362236,5.1072442e-05
C2V580,瑞山,2026-06-12,22.90304,120.43424,0.0010710394
C1T990,高寮,2026-06-12,23.394239,121.356808,0.010798016
C0G620,芬園,2026-06-12,24.015678,120.6213,0.66206557
C1Z140,荖溪,2026-06-12,23.890575,121.45964,7.575645e-05
C1I201,中心崙,2026-06-12,23.728722,120.712097,3.4051666e-08
C1I400,凌霄,2026-06-12,24.018778,121.004456,4.210837e-09
C1M640,十字,2026-06-12,23.492153,120.753683,2.9596041e-09
G2P820,農試鳳山分所,2026-06-12,22.646611,120.356083,0.15381368
C0Z270,蕃薯寮,2026-06-12,23.73835,121.540108,0.9922044
C2E420,竹南,2026-06-12,24.70898,120.88897,0.021279862
C2D480,打鐵坑,2026-06-12,24.849664,121.150789,0.85240173
C0FB10,出雲山苗圃,2026-06-12,24.23105,120.90475,1.5278715e-08
C0F9Q0,外埔,2026-06-12,24.347817,120.705686,0.96789175
C0K580,高鐵雲林,2026-06-12,23.737456,120.417944,0.7048493
C2I090,鳳凰,2026-06-12,23.728081,120.787347,2.3305025e-09
C0U990,員山,2026-06-12,24.74435,121.72247,0.8603818
C0V770,大社,2026-06-12,22.730306,120.346639,0.16988294
C0X120,麻豆,2026-06-12,23.183289,120.248611,0.26658937
C0C670,龍潭,2026-06-12,24.870056,121.221389,0.45421436
C0D680,香山濕地,2026-06-12,24.783581,120.914988,0.0014760098
C0S980,勝林山,2026-06-12,22.430439,120.8938,2.4156417e-09
C0V730,大寮,2026-06-12,22.605614,120.395717,0.0076288236
C0R570,麟洛,2026-06-12,22.65078,120.52719,0.006784766
C2M930,石卓,2026-06-12,23.478744,120.702264,2.9449299e-09
C0G9B0,和美,2026-06-12,24.105169,120.492131,0.12816706
C2I240,外大坪,2026-06-12,23.9587,120.91788,5.613169e-07
CAG100,王功漁港,2026-06-12,23.96824,120.32586,0.015197625
C0X290,北門,2026-06-12,23.267772,120.125481,0.2927386
C2F930,大甲,2026-06-12,24.347667,120.640403,0.21971828
C0D650,湖口,2026-06-12,24.904794,121.043628,0.005859333
C0U780,五結,2026-06-12,24.68637,121.79794,0.9866886
C1I250,鯉潭,2026-06-12,23.961922,120.991131,3.6075793e-08
C0R130,阿禮,2026-06-12,22.742908,120.743678,2.777259e-09
C0X100,臺南市北區,2026-06-12,23.010394,120.194228,0.24271508
C0S920,金峰嘉蘭,2026-06-12,22.594789,120.960825,0.98393774
C0V490,新興,2026-06-12,22.627422,120.298803,0.21523485
C0F9K0,大安,2026-06-12,24.345061,120.588025,0.22598846
C2E970,八甲,2026-06-12,24.535811,120.795983,0.57203525
C0V440,鳳山,2026-06-12,22.646653,120.356122,0.15381368
C1T940,大觀,2026-06-12,23.714206,121.373133,0.0048451107
C0E740,造橋,2026-06-12,24.637056,120.864778,0.031905923
C0R100,尾寮山,2026-06-12,22.833111,120.683889,2.508949e-09
A2K630,臺大雲林校區,2026-06-12,23.730628,120.423903,0.7040413
467990,馬祖,2026-06-12,26.169467,119.923158,0.004630098
C0D580,寶山,2026-06-12,24.735006,121.025192,0.120003305
E2P990,林試扇平站,2026-06-12,22.9677,120.6857,2.985509e-09
C0AI30,三重,2026-06-12,25.057328,121.500629,0.7523428
C0AH00,汐止,2026-06-12,25.066881,121.658778,0.007932795
C1Z040,立山,2026-06-12,23.443356,121.327375,0.0070240838
466881,新北,2026-06-12,24.959207,121.525196,0.34492067
C0W130,花嶼,2026-06-12,23.40007,119.32276,0.95873344
C0A950,鼻頭角,2026-06-12,25.129036,121.923372,0.006598952
C0K470,林內,2026-06-12,23.748675,120.609642,0.049756013
C2F990,摩天嶺,2026-06-12,24.322458,120.936819,1.1485102e-08
C2E430,南庄,2026-06-12,24.601775,121.000214,0.049461365
82C160,茶改場,2026-06-12,24.908472,121.185333,0.056694064
C2TB60,南安,2026-06-12,23.29818,121.26157,0.22933498
C0Z320,清水林道,2026-06-12,23.27125,121.188272,3.7763648e-06
C0R760,南仁湖,2026-06-12,22.084681,120.863353,1.776856e-09
C0M670,大林,2026-06-12,23.600616,120.45841,0.23168102
C0M800,茶山,2026-06-12,23.299075,120.664767,0.00012442868
C0A9C0,天母,2026-06-12,25.117494,121.537169,0.7944426
72K220,南改斗南分場,2026-06-12,23.634556,120.477333,0.29402554
72AI40,桃改樹林分場,2026-06-12,24.944503,121.386972,0.5217341
C0S910,蘭嶼燈塔,2026-06-12,22.081197,121.503117,3.2851457e-08
C0B050,八斗子,2026-06-12,25.144754,121.79167,0.00014275545
C0U900,內城,2026-06-12,24.71813,121.68766,0.8672946
C0X320,柳營,2026-06-12,23.253328,120.375253,0.09007867
C0M790,新港,2026-06-12,23.553269,120.345728,0.45248917
C0F9T0,西屯,2026-06-12,24.179494,120.641275,0.5265991
C0E950,松安,2026-06-12,24.39792,120.98599,2.7819405e-09
C0SA30,都歷,2026-06-12,23.020333,121.323642,0.0011471556
C0C620,蘆竹,2026-06-12,25.084275,121.265767,0.0017552685
C0R730,大坪頂,2026-06-12,22.024633,120.69355,1.5906595e-09
C0AJ40,石門,2026-06-12,25.273672,121.601198,3.086329e-06
C0E750,苗栗,2026-06-12,24.564569,120.824575,0.5050678
C0T870,鯉魚潭,2026-06-12,23.935639,121.508944,0.97271365
C1V170,排雲,2026-06-12,23.463619,120.954147,1.2371451e-08
C2H950,中寮,2026-06-12,23.884447,120.766406,0.46902993
C0R350,貓鼻頭,2026-06-12,21.921774,120.7358,2.4680922e-09
C0V660,岡山,2026-06-12,22.797078,120.294958,0.06979469
C1H941,雙冬,2026-06-12,23.967378,120.802189,9.2855225e-05
C0AJ70,田寮,2026-06-12,25.2698,121.4886,7.878926e-05
C0AI00,五股,2026-06-12,25.07445,121.42728,0.043415014
C0Z280,德武,2026-06-12,23.47426,121.41071,0.9390236
C2RA10,大新,2026-06-12,22.67558,120.57788,0.022797404
C0C460,復興,2026-06-12,24.820208,121.352281,4.736943e-07
C2AA10,中八仙,2026-06-12,25.11576,121.49199,0.79613847
C2K300,鹿南,2026-06-12,23.63855,120.3636,0.3514843
E2H360,蓮華池,2026-06-12,23.918333,120.885278,0.00015410969
C0M640,中埔,2026-06-12,23.42538,120.5229,0.004729168
C2C810,八德蔬果,2026-06-12,24.97858,121.28187,0.012989098
C2M9F0,安溪寮,2026-06-12,23.350334,120.208039,0.09280982
C0W140,金沙,2026-06-12,24.488292,118.408778,0.0042617423
C2A540,四堵,2026-06-12,24.8926,121.745736,1.2737478e-07
C0ACA0,新莊,2026-06-12,25.051478,121.446756,0.42152545
C0R220,潮州,2026-06-12,22.534361,120.54,0.0035715986
U2HA40,臺大內茅埔,2026-06-12,23.689722,120.851117,5.691584e-08
467490,臺中,2026-06-12,24.145736,120.684075,0.33198738
C0UB60,明池,2026-06-12,24.650688,121.475277,6.5070727e-09
C0U960,翠峰湖,2026-06-12,24.510856,121.608044,1.07116644e-08
E2HA20,林試畢祿溪站,2026-06-12,24.226944,121.308522,3.1084197e-09
C2M9A0,大華,2026-06-12,23.4824,120.67491,1.8644357e-09
C0V890,前鎮,2026-06-12,22.5718,120.3117,0.10246115
C1F941,雪嶺,2026-06-12,24.280586,121.026642,7.413246e-09
C2H9E0,國姓南港,2026-06-12,23.911108,120.846556,1.9871247e-09
C0AC80,文山,2026-06-12,25.00235,121.575728,0.00714075
C0F9R0,龍井,2026-06-12,24.184536,120.528972,0.16791561
C0M760,民雄,2026-06-12,23.551754,120.428457,0.23168102
C0UA40,西德山,2026-06-12,24.560647,121.752608,8.401642e-08
C2TA70,赤科坪,2026-06-12,23.39885,121.39168,3.3887613e-08
C1T920,中興,2026-06-12,23.769503,121.498653,0.96563876
C0D550,雪霸,2026-06-12,24.526972,121.11605,2.564076e-09
C2F860,梨山,2026-06-12,24.247522,121.243669,5.453355e-09
C0R320,車城,2026-06-12,22.0744,120.716247,2.868607e-09
C1S870,南美山,2026-06-12,23.15025,121.382333,0.008987353
C0B020,基隆嶼,2026-06-12,25.19141,121.78391,8.884205e-05
C1U501,牛鬥,2026-06-12,24.637836,121.573656,0.0005799399
C0M730,嘉義市東區,2026-06-12,23.457673,120.460531,0.0062255776
C2R990,泰武,2026-06-12,22.60686,120.69765,2.7304858e-09
C0S700,知本,2026-06-12,22.684866,121.005642,1.4968037e-06
C1N001,沙崙,2026-06-12,22.935472,120.309406,0.19314866
C0V760,橋頭,2026-06-12,22.757806,120.30575,0.14999738
C2V570,吉東,2026-06-12,22.85418,120.54539,0.0014849331
C0G960,福寶,2026-06-12,24.0443,120.3814,0.13287771
C0X210,白河,2026-06-12,23.347466,120.414427,0.014143382
C0S810,東河,2026-06-12,22.972672,121.303986,0.00040553496
C2R170,屏東,2026-06-12,22.66027,120.49403,0.006784766
C0R670,楓港,2026-06-12,22.190131,120.692156,3.0750136e-09
C0FA50,霧峰,2026-06-12,24.0419,120.6995,0.4294241
C0UB10,蘇澳,2026-06-12,24.5969,121.8571,0.76170623
C0G950,防潮門,2026-06-12,24.1835,120.4871,0.13789813
C0M740,六腳,2026-06-12,23.492871,120.290625,0.34164622
C1R250,力里,2026-06-12,22.428117,120.629228,0.0004282458
C0K330,虎尾,2026-06-12,23.719183,120.442036,0.70761275
C2FA00,烏石坑,2026-06-12,24.273503,120.947617,1.2276722e-08
C0V620,永安,2026-06-12,22.82315,120.236856,0.06898105
C1I330,楓樹林,2026-06-12,23.986803,121.076117,3.75133e-09
C0W200,湖西,2026-06-12,23.596314,119.67275,0.9553856
72Q010,高雄農改場,2026-06-12,22.709333,120.525889,0.010258895
C0C680,龜山,2026-06-12,25.02846,121.38656,0.0032170122
C2V260,月眉,2026-06-12,22.971003,120.539853,7.594096e-05
C0V450,鳳森,2026-06-12,22.545064,120.392592,0.0015896171
C0FA90,小雪山林道,2026-06-12,24.29515,121.03651,1.1567853e-08
C0U720,南山,2026-06-12,24.43742,121.38167,7.788173e-08
A2N290,臺南蘭花園區,2026-06-12,23.340258,120.379661,0.06229603
C0R560,新園,2026-06-12,22.5434,120.461558,0.0012710613
C0U890,三星,2026-06-12,24.66812,121.65302,0.8976086
C1V300,御油山,2026-06-12,23.001983,120.715364,3.7876307e-09
C0U600,礁溪,2026-06-12,24.817539,121.765608,0.95664483
C1T980,龍澗,2026-06-12,24.023289,121.411328,1.1228067e-07
C0R700,枋山,2026-06-12,22.247814,120.660794,1.8238508e-08
C0D670,海天一線,2026-06-12,24.831986,120.914438,0.0014051991
C0SA00,歷坵,2026-06-12,22.520969,120.89185,1.2991344e-06
C0M710,東石,2026-06-12,23.458927,120.15385,0.020978456
C0M780,鹿草,2026-06-12,23.41134,120.30835,0.29833406
C0U520,雙連埤,2026-06-12,24.753033,121.641303,3.0363456e-08
C0B010,七堵,2026-06-12,25.094819,121.71713,8.12185e-05
C0R480,長治,2026-06-12,22.693128,120.542622,0.029390473
C1V830,國三S383K,2026-06-12,22.781967,120.426475,0.035340484
12Q980,恆春工作站,2026-06-12,22.079678,120.714425,2.868607e-09
C1O940,東山服務區,2026-06-12,23.286016,120.398472,0.0651628
C1U840,東澳嶺,2026-06-12,24.5378,121.8485,0.00020982088
C1D630,飛鳳山,2026-06-12,24.766464,121.119178,1.5134743e-06
C0S940,石寧山,2026-06-12,23.223772,121.406639,0.016224839
C0K410,北港,2026-06-12,23.573957,120.292802,0.32042328
C2M620,瑞里,2026-06-12,23.545133,120.675197,1.817103e-09
C0SB70,小港漁港,2026-06-12,23.158558,121.400431,0.0115904445
C2O950,安南,2026-06-12,23.076694,120.144861,0.29551172
C0F0E0,南湖圈谷,2026-06-12,24.363714,121.444667,1.2998349e-08
467610,成功,2026-06-12,23.097486,121.373428,0.0025918188
C0G890,伸港,2026-06-12,24.148933,120.484403,0.13818051
C2E540,龍溪,2026-06-12,24.606489,120.783933,0.4885417
C1V200,梅山,2026-06-12,23.268447,120.823556,1.2348773e-08
C0T9H0,加路蘭山,2026-06-12,23.682947,121.5274,7.444712e-07
C2O930,玉井,2026-06-12,23.126042,120.46055,0.07004953
C1F911,新伯公,2026-06-12,24.221361,120.841069,0.9140125
C0X200,左鎮,2026-06-12,23.056758,120.408522,0.15686433
C2TB50,麻汝,2026-06-12,23.42554,121.39358,0.94258285
C0FA60,鞍馬山工作站,2026-06-12,24.267064,121.000793,7.0551742e-09
C0SB50,叭嗡嗡,2026-06-12,23.047062,121.343223,0.0018383573
C2R550,新埤,2026-06-12,22.467947,120.582894,0.00042644519
C1F891,稍來,2026-06-12,24.265689,121.001142,6.8638126e-09
C2M9C0,紫雲,2026-06-12,23.494914,120.540253,0.012818619
72N240,七股研究中心,2026-06-12,23.081672,120.062894,0.2611154
C0C700,中壢,2026-06-12,24.977661,121.256375,0.015088374
C0M690,水上,2026-06-12,23.419734,120.388909,0.06292976
C0V690,鼓山,2026-06-12,22.623325,120.275575,0.21523485
C0O860,大內,2026-06-12,23.11885,120.36083,0.29851088
C0Z200,萬榮,2026-06-12,23.709219,121.420106,0.99311596
C0T9D0,和中,2026-06-12,24.26676,121.74103,0.7551738
C2S9A0,北份子寮,2026-06-12,22.78561,121.07813,0.0127508
C1O921,楠西,2026-06-12,23.183511,120.484083,0.07937772
C0AJ30,淡水觀海,2026-06-12,25.184591,121.408616,0.002386039
C0V810,左營,2026-06-12,22.67491,120.28491,0.3598436
C0UA70,桃源谷,2026-06-12,24.962606,121.888875,2.3348905e-08
C0X130,官田,2026-06-12,23.193217,120.315422,0.2803736
C1H000,翠峰,2026-06-12,24.109397,121.205211,4.461847e-09
C0UA90,石城,2026-06-12,24.980444,121.951214,0.013816641
C1E681,南勢山,2026-06-12,24.421669,120.923831,6.0200445e-09
C0A9F0,內湖,2026-06-12,25.079422,121.57545,0.79278
C0K291,宜梧,2026-06-12,23.536281,120.169329,0.09035427
C1K540,口湖,2026-06-12,23.585344,120.180517,0.09127452
C0R780,滿州,2026-06-12,22.024403,120.839892,1.6355214e-09
C0V870,文安,2026-06-12,22.8025,120.2164,0.067838274
C0U650,玉蘭,2026-06-12,24.675286,121.587061,1.2471234e-07
C0R640,東港,2026-06-12,22.46247,120.44074,0.0008537743
C0AJ80,板橋,2026-06-12,25.0107,121.4489,0.32539737
C0S660,下馬,2026-06-12,23.150427,121.070312,4.15565e-07
C2N190,烏樹,2026-06-12,23.32393,120.36989,0.3414786
C1H9B1,阿眉,2026-06-12,24.1263,120.994672,4.430064e-09
C0UA20,多加屯,2026-06-12,24.368614,121.373189,4.6881206e-09
C0E730,頭份,2026-06-12,24.688247,120.912206,0.021357022
72V140,高改旗南分場,2026-06-12,22.857861,120.516667,9.813562e-05
C2R490,九如,2026-06-12,22.74049,120.490555,0.010258895
C0K480,莿桐,2026-06-12,23.761192,120.502372,0.3536412
C0U980,坪林石牌,2026-06-12,24.86478,121.77396,1.5970688e-08
C0T900,西林,2026-06-12,23.8119,121.441458,0.98452866
C1I150,青雲,2026-06-12,23.793361,120.949378,0.0007056201
C2E980,和興,2026-06-12,24.505319,120.923016,3.0145698e-06
467350,澎湖,2026-06-12,23.565503,119.563094,0.98247445
C0G800,埔鹽,2026-06-12,24.000394,120.431683,0.13689333
C0H960,草屯,2026-06-12,23.973672,120.68085,0.92409515
C1V780,多納林道,2026-06-12,22.888028,120.737917,1.7800038e-09
C0E920,通霄漁港,2026-06-12,24.498589,120.673876,0.0022906663
C0Z330,安通山,2026-06-12,23.290728,121.348528,2.681558e-05
C0AH10,永和,2026-06-12,25.01125,121.508111,0.31407028
C0AK10,太平里,2026-06-12,25.134937,121.364899,0.002708395
C2G640,鹿港,2026-06-12,24.0753,120.430481,0.12791951
C1E890,國三N149K,2026-06-12,24.463414,120.680019,0.0027550193
C1R110,口社,2026-06-12,22.770111,120.645222,0.18517676
C1M870,國三N285K,2026-06-12,23.550319,120.505833,0.014206177
C1E480,鳳美,2026-06-12,24.554803,121.034747,9.120223e-06
C0T9M0,靜浦,2026-06-12,23.455167,121.495028,0.809789
C2H9M0,發祥,2026-06-12,24.154094,121.164517,3.0909728e-09
C2G9C0,埔南,2026-06-12,23.99124,120.46969,0.13689333
C0AI40,石牌,2026-06-12,25.115597,121.513139,0.79278
C1F871,上谷關,2026-06-12,24.203483,121.018644,1.2276722e-08
C2H9G0,百勝,2026-06-12,24.051142,120.909361,0.006288868
C0G880,二水,2026-06-12,23.810742,120.6173,0.18222934
C0R940,加祿堂,2026-06-12,22.3363,120.6217,5.8562147e-08
C0W220,北竿,2026-06-12,26.220358,119.974881,0.027966937
C0O960,崎頂,2026-06-12,22.959547,120.369317,0.3676934
C0TA40,秀林,2026-06-12,24.302864,121.731144,0.0009987872
C0S750,向陽,2026-06-12,23.248397,120.986133,5.0061515e-09
C0T9F0,水璉,2026-06-12,23.797131,121.542514,0.9750806
C1M600,頭凍,2026-06-12,23.406364,120.603339,2.1480817e-09
467660,臺東,2026-06-12,22.752211,121.154586,0.0027994716
C1D380,新埔,2026-06-12,24.84745,121.03834,0.061158895
C2G980,田頭村,2026-06-12,23.8263,120.444175,0.73653406
C0V750,路竹,2026-06-12,22.854997,120.259439,0.07354178
C0N050,蚵寮,2026-06-12,23.301,120.1104,0.2927386
C2X060,下營,2026-06-12,23.226806,120.256291,0.1537191
72M700,南改鹿草分場,2026-06-12,23.416869,120.283061,0.29425076
C1SA50,利嘉林道,2026-06-12,22.82325,121.009389,2.115517e-09
C0UB70,太平山中間站,2026-06-12,24.542003,121.513453,4.18631e-08
C0A940,金山,2026-06-12,25.223628,121.643967,0.00015878331
C1V340,大津,2026-06-12,22.888322,120.645986,1.8480478e-06
C0W180,七美,2026-06-12,23.219333,119.444892,0.43009722
C1F9C1,白冷,2026-06-12,24.182844,120.929889,5.8004264e-07
K2E710,苗改生物防治研究中心,2026-06-12,24.422861,120.871833,0.97991306
C0N040,蘆竹溝,2026-06-12,23.2344,120.0961,0.28171593
C0TB40,崇德,2026-06-12,24.166144,121.657414,0.9080989
C0D760,大坪苗圃,2026-06-12,24.5362,121.1108,2.1216593e-09
C2D430,峨眉,2026-06-12,24.6905,121.017189,0.06936254
C2W230,畜試所澎湖,2026-06-12,23.628342,119.513206,0.9975841
C0R880,後壁湖,2026-06-12,21.9457,120.7457,2.3700533e-09
C1I280,埔中,2026-06-12,23.820778,120.642594,0.0002065408
467790,墾丁雷達站,2026-06-12,21.948235,120.808028,1.8521294e-09
C0W190,望安,2026-06-12,23.380564,119.494075,0.97318774
C0Z170,卓溪,2026-06-12,23.3443,121.3029,0.0017527705
C0F850,東勢,2026-06-12,24.246428,120.833047,0.9450054
466900,淡水,2026-06-12,25.164889,121.448906,0.077354446
C0I370,魚池,2026-06-12,23.895703,120.94135,1.1657529e-05
C0C630,大溪,2026-06-12,24.882853,121.265547,0.06560815
C0A520,山佳,2026-06-12,24.974944,121.402008,0.51350737
C0I110,竹山,2026-06-12,23.761225,120.688156,0.31902155
82H840,茶改南部分場,2026-06-12,23.762528,120.7405,0.006532989
C2SD80,再來山,2026-06-12,23.34371,121.44122,0.00028169143
C0G660,溪湖,2026-06-12,23.94835,120.479122,0.46648142
C1T800,洛韶,2026-06-12,24.204558,121.453956,9.544598e-08
C1T810,慈恩,2026-06-12,24.192044,121.388386,3.8723815e-09
C1E451,象鼻,2026-06-12,24.368617,120.940228,5.933782e-09
C0AC60,三峽,2026-06-12,24.939025,121.369728,0.023846708
C0I490,萬大林道,2026-06-12,23.928228,121.091411,3.207538e-09
C1I290,豐丘,2026-06-12,23.668178,120.887417,6.69136e-09
C1I320,奧萬大,2026-06-12,23.952956,121.178556,6.727961e-09
C2M910,嘉義大學,2026-06-12,23.471325,120.485903,0.007467172
C0U770,南澳,2026-06-12,24.44935,121.81022,0.49353138
C2TB30,吉安,2026-06-12,23.94538,121.54803,0.94842654
C0A980,社子,2026-06-12,25.109508,121.469681,0.73372
C0V800,六龜,2026-06-12,22.997889,120.633583,1.1271351e-06
C1G9D0,國一S218K,2026-06-12,23.890641,120.493253,0.5386726
C0E570,白沙屯,2026-06-12,24.549447,120.696803,0.0090210335
C2F9A0,中竹林,2026-06-12,24.103556,120.751061,0.9917254
C0FA40,臺中電廠,2026-06-12,24.2146,120.4907,0.14359026
C2G9A0,畜試所彰化,2026-06-12,23.86045,120.557964,0.41100386
C0H9C0,合歡山,2026-06-12,24.143442,121.272547,1.2795731e-08
G2M350,農試溪口農場,2026-06-12,23.58565,120.408111,0.2250301
C0U860,頭城,2026-06-12,24.85323,121.8308,0.87502456
C0R580,南州,2026-06-12,22.48591,120.50274,0.00020862435
C0G780,秀水,2026-06-12,24.03405,120.503869,0.34787557
72N100,臺南農改場,2026-06-12,23.0605,120.342194,0.2812384
C0S900,蘭嶼高中,2026-06-12,22.04909,121.51214,1.1420872e-07
C2TA60,六十石,2026-06-12,23.22477,121.31861,5.5976507e-08
C1F9W0,德基,2026-06-12,24.254783,121.190261,9.110869e-09
C2M980,安和,2026-06-12,23.51377,120.31593,0.3416463
C1Z120,壽豐,2026-06-12,23.870853,121.508081,0.9328808
C0W160,烏坵,2026-06-12,24.9944,119.44956,0.0006685918
C1I550,國六W023K,2026-06-12,23.979067,120.867742,0.9709726
C0R870,興海,2026-06-12,21.9752,120.8439,1.8494289e-09
C0R140,瑪家,2026-06-12,22.682903,120.686639,8.253764e-09
C0A530,坪林,2026-06-12,24.938183,121.70975,2.0006172e-07
C0X260,後壁,2026-06-12,23.366358,120.362326,0.19624402
C0Z230,和平,2026-06-12,24.30717,121.77007,0.826241
C0G770,福興,2026-06-12,24.041289,120.437669,0.13689333
C0H9A0,神木村,2026-06-12,23.532742,120.843667,2.7962026e-09
C0I460,南投,2026-06-12,23.911469,120.687331,0.9233553
C0I480,梅峰,2026-06-12,24.085272,121.173572,4.6687836e-09
C2D770,巨埔,2026-06-12,24.84435,121.11442,0.25981146
C2A560,福山,2026-06-12,24.776203,121.502811,2.1030088e-07
C0AH30,五分山,2026-06-12,25.07125,121.780794,4.689024e-09
C0FA10,松柏,2026-06-12,24.429115,120.617482,0.08748376
72S200,東改班鳩分場,2026-06-12,22.829528,121.077694,3.392197e-06
72HA00,中改埔里分場,2026-06-12,23.903208,120.963364,5.2585237e-05
C2H9W0,大坪頂農水,2026-06-12,24.043122,120.932781,1.087983e-06
C0C650,平鎮,2026-06-12,24.897503,121.214636,0.13247105
C0S930,延平,2026-06-12,22.902581,121.084058,0.0013844563
C0UA60,樟樹山,2026-06-12,24.41393,121.78325,0.14081444
C2UC10,出水溪,2026-06-12,24.615822,121.652253,3.141247e-07
C1S670,摩天,2026-06-12,23.199503,121.027,1.6590837e-08
C2C590,觀音,2026-06-12,25.027072,121.153317,0.0023316182
C0V630,茄萣,2026-06-12,22.906642,120.182608,0.057012677
466940,基隆,2026-06-12,25.133314,121.740475,0.0001178085
C0X050,東河,2026-06-12,23.296598,120.385608,0.06229603
C0R770,保力,2026-06-12,22.071122,120.764111,1.6385158e-09
G2L020,農試嘉義分所,2026-06-12,23.485028,120.473806,0.007625016
C0X240,關子嶺,2026-06-12,23.331169,120.508025,0.6332996
C0I380,集集,2026-06-12,23.828206,120.801467,0.8604368
466990,花蓮,2026-06-12,23.975128,121.613275,0.25046128
C1V220,小關山,2026-06-12,23.154217,120.813603,5.1997193e-09
C1F9G1,慶福山,2026-06-12,24.180853,120.848378,1.976583e-08
C0FB20,雪山橋,2026-06-12,24.23192,120.9786,6.312431e-09
C0Z250,瑞穗林道,2026-06-12,23.49284,121.30688,3.5673395e-07
C0D590,新豐,2026-06-12,24.87068,120.97721,0.0024734633
C2N200,口宵里,2026-06-12,23.15987,120.45988,0.33224165
C0A870,五指山,2026-06-12,25.132153,121.608692,3.7044303e-09
C0UA50,西帽山,2026-06-12,24.555361,121.802628,0.00024400216
C2R980,竹田國中,2026-06-12,22.61532,120.52412,0.0031854622
C0X160,仁德,2026-06-12,22.968258,120.257689,0.21700472
C1H971,六分寮,2026-06-12,23.92507,120.6378,0.9907009
C2D790,石鹿,2026-06-12,24.56551,121.15841,5.551354e-09
C0W120,西嶼,2026-06-12,23.5626,119.468436,0.9903234
C0G650,員林,2026-06-12,23.946503,120.585597,0.537878
C0AD50,鶯歌,2026-06-12,24.951533,121.346294,0.046266697
C2H9Q0,北東眼山,2026-06-12,24.120939,121.189303,6.5929244e-09
C2H9T0,名間竹圍,2026-06-12,23.859914,120.637572,0.9043198
C0S990,山豬窟,2026-06-12,22.318619,120.857372,2.475598e-09
C0X190,安平,2026-06-12,22.993161,120.152181,0.23778751
C0K400,斗六,2026-06-12,23.720583,120.541127,0.35669312
12J990,口湖工作站,2026-06-12,23.589978,120.180394,0.09127452
C0O830,北寮,2026-06-12,23.079561,120.495008,0.004849983
C1D410,白蘭,2026-06-12,24.579364,121.079947,2.4498057e-09
C0S970,加津林,2026-06-12,22.416211,120.926942,6.2952924e-05
C0D700,關西,2026-06-12,24.7977,121.1732,0.57696664
C0U750,龜山島,2026-06-12,24.841667,121.953133,5.3162825e-07
C0R810,內獅,2026-06-12,22.305064,120.642986,1.8238508e-08
C2EA10,拉庫斯,2026-06-12,24.53637,121.02137,2.8911222e-09
C1M390,龍美,2026-06-12,23.406728,120.654417,3.3534406e-09
C2K290,崙內,2026-06-12,23.69525,120.35601,0.3514843
C2FB60,頭櫃山,2026-06-12,24.129842,120.858925,3.4605239e-09
C1H840,國三N238K,2026-06-12,23.841008,120.707711,0.0070498628
CAQ030,崎峰國小,2026-06-12,22.42565,120.49521,0.00020862435
C2E520,大湖,2026-06-12,24.414939,120.870872,0.97962755
467530,阿里山,2026-06-12,23.508208,120.813242,5.664301e-09
C1E691,南湖,2026-06-12,24.40135,120.837533,6.222041e-08
C0FA30,梧棲,2026-06-12,24.256003,120.523381,0.16791561
C1V231,高中,2026-06-12,23.134911,120.716711,1.4299439e-08
C0AK30,硬漢嶺,2026-06-12,25.136097,121.426372,2.2471088e-08
C0F9V0,新社,2026-06-12,24.200172,120.815806,0.016245386
C0H890,埔里,2026-06-12,23.972169,120.952425,0.01882
C0R690,墾丁,2026-06-12,21.966756,120.810269,1.3756666e-09
C0SD20,富山,2026-06-12,22.822383,121.190825,0.015428723
C0F0D0,審馬陣,2026-06-12,24.381675,121.4203,7.073243e-09
C2W030,金門農試所,2026-06-12,24.448431,118.451786,0.016908593
C0R820,白鷺,2026-06-12,22.454275,120.666219,6.5874564e-09
C0FB00,大雪山,2026-06-12,24.254668,121.007374,7.1064683e-09
C2O880,南化,2026-06-12,23.17332,120.59413,0.06788004
C1V190,南天池,2026-06-12,23.27403,120.91176,5.3725993e-09
C0E940,雪見,2026-06-12,24.42595,121.01347,3.5954528e-09
K2E360,苗栗農改場,2026-06-12,24.495722,120.829111,0.90497404
CAJ050,海口故事園區,2026-06-12,23.57543,120.14121,0.09127452
C2K280,四湖,2026-06-12,23.6304,120.22717,0.07199107
C2H9D0,三隻寮,2026-06-12,24.093078,120.861578,5.1834423e-08
C0O990,媽廟,2026-06-12,22.99175,120.293525,0.2891611
C0Z220,和平林道,2026-06-12,24.343922,121.656317,0.07966277
C0TA10,花蓮漁港,2026-06-12,23.995322,121.638331,0.09305344
72C440,桃園農改場,2026-06-12,24.950944,121.030583,0.0049000946
C1E711,馬拉邦山,2026-06-12,24.367306,120.901656,4.3035304e-09
C0SB20,富岡,2026-06-12,22.792467,121.192669,0.020707076
C0D560,竹東,2026-06-12,24.767147,121.057881,0.37656698
C0F9U0,南屯,2026-06-12,24.137006,120.637969,0.344291
C2SD60,明峰,2026-06-12,22.8671,121.11825,1.51072045e-05
C0M720,番路,2026-06-12,23.464657,120.554156,3.3068359e-06
C0F0A0,雪山圈谷,2026-06-12,24.388594,121.236339,1.1885103e-08
C1A9N0,四十份,2026-06-12,24.934158,121.593283,4.746788e-08
C0U760,東澳,2026-06-12,24.52196,121.83318,0.5616295
C0X230,鹽水,2026-06-12,23.272621,120.247641,0.09280982
C2H9H0,苗改南投蜂場,2026-06-12,23.852589,120.693481,0.48230955
C2TB70,達谷寮,2026-06-12,23.38,121.35968,0.00024018994
C0R950,萬隆國小,2026-06-12,22.507667,120.587817,0.00048791154
467540,大武,2026-06-12,22.35572,120.90374,3.2566695e-07
C0V370,古亭坑,2026-06-12,22.893178,120.401947,0.0008780726
C1I340,新興橋,2026-06-12,23.563333,120.868728,3.9344057e-09
C2C480,桃園,2026-06-12,24.992425,121.323172,0.012989098
C0SA80,土坂,2026-06-12,22.453108,120.887572,2.3722378e-06
C0R160,鹽埔,2026-06-12,22.739558,120.530778,0.010258895
C0AC40,大屯山,2026-06-12,25.175675,121.522408,4.266222e-09
466850,五分山雷達站,2026-06-12,25.071182,121.781205,4.5854724e-09
C2H9L0,馬烈霸,2026-06-12,24.1512,121.201772,7.80542e-09
C1AI50,國三N016K,2026-06-12,25.034164,121.619664,0.1940337
C2V920,匏子寮,2026-06-12,23.04905,120.55319,3.841567e-06
C1V600,藤枝,2026-06-12,23.071961,120.757042,3.6647307e-09
C1E601,南勢,2026-06-12,24.572486,120.734842,0.008630986
C0O980,新市,2026-06-12,23.061614,120.298197,0.277995
C0K420,西螺,2026-06-12,23.800407,120.467394,0.7377363
C0Z050,佳心,2026-06-12,23.34567,121.21316,1.0135532e-07
C0AD30,蘆洲,2026-06-12,25.086594,121.472331,0.44302106
C0V610,梓官,2026-06-12,22.760558,120.267211,0.070412435
K2F750,種苗改良場,2026-06-12,24.225972,120.800917,0.030037645
C0UA80,大溪漁港,2026-06-12,24.941801,121.902955,0.33913472
C1AI60,國一39K邊坡,2026-06-12,25.064361,121.383836,0.008179724
C0W150,金寧,2026-06-12,24.457703,118.328989,0.0031763178
C0R960,內埔,2026-06-12,22.608483,120.570714,0.0036479502
C2H9S0,龍南,2026-06-12,23.953536,120.833183,5.2337885e-09
C0AH40,平等,2026-06-12,25.129142,121.577086,9.203511e-08
C0R540,佳冬,2026-06-12,22.419456,120.552375,0.00012940395
466950,彭佳嶼,2026-06-12,25.627975,122.079744,0.1393121
C0A890,雙溪,2026-06-12,25.036003,121.864242,0.007112671
C0AH50,林口,2026-06-12,25.072181,121.38084,0.00023122586
A2K360,水試臺西試驗場,2026-06-12,23.717231,120.190522,0.11390564
C2M960,外寮,2026-06-12,23.562643,120.665688,2.1143836e-09
C0F9S0,烏日,2026-06-12,24.107058,120.624103,0.2846433
C2N180,鹿陶洋,2026-06-12,23.14325,120.48352,0.07937772
C0C490,八德,2026-06-12,24.928708,121.283289,0.055681
C0R190,赤山,2026-06-12,22.592333,120.614306,0.0035015794
C0T820,天祥,2026-06-12,24.179597,121.495639,0.25758785
C1F9E1,龍安,2026-06-12,24.1605,120.831961,0.0041136434
C2SD50,順那,2026-06-12,23.04166,121.29332,0.0006147171
C0V820,小林,2026-06-12,23.148408,120.63325,0.4719615
C2G870,芳苑,2026-06-12,23.922303,120.320025,0.02264682
C0E850,大河,2026-06-12,24.618069,120.948578,0.068408825
C1U670,寒溪,2026-06-12,24.634,121.71691,0.89594257
C0N020,城西,2026-06-12,23.0568,120.0956,0.27574596
C1Z110,三棧,2026-06-12,24.11557,121.60501,0.06366926
C0R280,檳榔,2026-06-12,22.076078,120.836777,2.1850826e-09
C2H9J0,中台,2026-06-12,23.9996,120.938739,1.3452163e-05
C0F9L0,后里,2026-06-12,24.310436,120.729725,0.9767813
467441,高雄,2026-06-12,22.730432,120.312516,0.16988294
C2N210,岩坑,2026-06-12,23.24614,120.47458,0.12288502
C0Z180,新城,2026-06-12,24.040486,121.604878,0.25891715
C0D540,橫山,2026-06-12,24.71116,121.11693,0.13459523
C1D420,太閣南,2026-06-12,24.632808,121.160575,6.6770296e-09
C1E770,公館,2026-06-12,24.526914,120.830806,0.4465483
CAN130,水試所海水繁養殖中心,2026-06-12,23.120802,120.07968,0.2611154
C1I430,翠華,2026-06-12,24.191961,121.224339,6.577099e-09
C1M400,菜瓜坪,2026-06-12,23.251928,120.576103,0.0005580266
C0G730,二林,2026-06-12,23.903325,120.376081,0.22898418
72M360,南改義竹分場,2026-06-12,23.360694,120.279361,0.15714987
V2K620,麥寮合作社,2026-06-12,23.753836,120.294783,0.3509646
C0Z070,舞鶴,2026-06-12,23.46811,121.37407,0.96146595
C0B040,大武崙,2026-06-12,25.166676,121.706993,4.9226735e-05
C1Z030,紅葉,2026-06-12,23.493119,121.338806,0.9424536
C1I050,丹大,2026-06-12,23.753747,121.141147,5.278581e-09
C0I080,信義,2026-06-12,23.689694,120.851036,5.691584e-08
C2TB80,庄子底,2026-06-12,23.71794,121.49438,0.9870023
C0D750,樂山林道6k,2026-06-12,24.49999,121.08773,5.0923634e-09
C2M920,朴子農改,2026-06-12,23.469889,120.259383,0.28981405
C2A880,福隆,2026-06-12,25.017842,121.942083,0.012450651
C0Z160,鳳林,2026-06-12,23.746114,121.453411,0.9884864
C0UB80,翠峰林道6K,2026-06-12,24.49773,121.568625,9.812792e-09
C0V210,復興,2026-06-12,23.222403,120.806089,4.5729237e-08
C0H990,昆陽,2026-06-12,24.121322,121.273642,8.769311e-09
C0R741,獅子,2026-06-12,22.202308,120.705236,1.18113626e-08
C0S710,鹿野,2026-06-12,22.917711,121.122994,2.1596205e-05
C0I530,小奇萊,2026-06-12,24.131764,121.295717,1.034644e-08
C0FA70,大雪山埡口,2026-06-12,24.26867,121.03062,8.523534e-09
C2K630,荷苞,2026-06-12,23.657717,120.595144,0.03232041
C0Z080,富源,2026-06-12,23.587642,121.378225,0.77589
C2M9E0,旺來山,2026-06-12,23.555153,120.486463,0.015429658
C0SB10,美和,2026-06-12,22.682078,121.060236,0.008359758
C2K620,馬光農場,2026-06-12,23.721453,120.378864,0.7048493
C1I140,卡奈托灣,2026-06-12,23.754364,121.087872,3.79204e-09
C0I520,玉山風口,2026-06-12,23.470489,120.955994,1.4931818e-08
C1G691,下水埔,2026-06-12,23.816114,120.5676,0.49749318
C0X110,臺南市南區,2026-06-12,22.961189,120.188378,0.21309224
C0V680,仁武,2026-06-12,22.701083,120.347722,0.16988294
C2G840,北斗,2026-06-12,23.877586,120.514222,0.53852993
C2TB90,長橋,2026-06-12,23.6874,121.46186,0.9893943
C0R900,竹坑,2026-06-12,22.1385,120.7022,3.0750136e-09
C0G860,社頭,2026-06-12,23.897647,120.5862,0.30482882
C0X150,安定,2026-06-12,23.102614,120.227839,0.3522669
C0R590,里港,2026-06-12,22.77919,120.49459,0.0003905901
C0E610,馬都安,2026-06-12,24.451272,120.930192,7.292529e-08
C0E550,明德,2026-06-12,24.583486,120.885411,0.27772537
C0R150,三地門,2026-06-12,22.709889,120.639944,0.032481544
C0G910,花壇,2026-06-12,24.032076,120.549461,0.34848422
C1D400,鳥嘴山,2026-06-12,24.71909,121.28387,8.735472e-09
C0K500,元長,2026-06-12,23.64981,120.315024,0.3660159
C0F0B0,石岡,2026-06-12,24.276061,120.777644,0.9778187
C2V250,甲仙,2026-06-12,23.080106,120.591758,3.109044e-05
C0SA20,金崙山,2026-06-12,22.567419,120.959667,3.134869e-08
C0V350,溪埔,2026-06-12,22.738578,120.446797,0.0144081535
C0M660,溪口,2026-06-12,23.604131,120.403569,0.2250301
C1S880,壽卡,2026-06-12,22.238911,120.858903,1.0141712e-09
72D680,桃改新埔分場,2026-06-12,24.834444,121.066111,0.058021218
