站號,站名,日期,lat,lon,BLBTSLS
C0R710,龍磐,2026-03-10,21.931672,120.838942,0.26744166
C1F9D1,白毛台,2026-03-10,24.158325,120.886933,8.644213e-09
C0G940,竹塘,2026-03-10,23.848253,120.386764,1.47796015e-08
467590,恆春,2026-03-10,22.003897,120.746339,0.08796735
C1O850,環湖,2026-03-10,23.148617,120.418633,9.298013e-08
C0U710,太平山,2026-03-10,24.505486,121.525656,3.815279e-08
C0E820,獅潭,2026-03-10,24.539133,120.920042,6.620077e-06
C2SD70,二層坪,2026-03-10,22.94105,121.16838,1.1485503e-05
C0V880,興達,2026-03-10,22.8778,120.2127,6.9127354e-06
C0S890,關山,2026-03-10,23.0395,121.175017,7.839986e-06
C0SB30,新蘭,2026-03-10,22.869214,121.223228,0.0017633346
C2R970,屏科大,2026-03-10,22.648275,120.619247,4.02568e-09
C1Z130,銅門,2026-03-10,23.965694,121.492842,1.9102986e-06
C0AD40,土城,2026-03-10,24.973208,121.445169,1.7394485e-07
CAN140,六官養殖協會,2026-03-10,23.22881,120.29962,3.8720693e-05
C0X180,山上,2026-03-10,23.0757,120.363253,1.3064e-06
C0F9Z0,雪山東峰,2026-03-10,24.388792,121.268675,4.1321435e-08
C1M480,獨立山,2026-03-10,23.537022,120.607797,4.1602792e-09
C0X220,學甲,2026-03-10,23.230367,120.182187,3.2393615e-05
467650,日月潭,2026-03-10,23.881325,120.90805,9.725293e-09
A2K570,古坑(花卉中心),2026-03-10,23.633531,120.552392,7.905702e-09
C0K600,箔子寮,2026-03-10,23.6197,120.14,6.2913736e-05
C0G830,埤頭,2026-03-10,23.866003,120.452806,1.244439e-08
C0S950,七塊厝,2026-03-10,22.954453,121.229922,6.6405875e-07
467110,金門,2026-03-10,24.407306,118.289281,1.08579215e-07
C0AH80,深坑,2026-03-10,25.002703,121.628328,3.4231507e-06
C0A970,三貂角,2026-03-10,25.007606,122.002058,2.0001371e-05
C2D730,寶山農場,2026-03-10,24.732444,120.976153,0.00022176563
C0K430,褒忠,2026-03-10,23.690938,120.303634,0.00076732354
467480,嘉義,2026-03-10,23.495925,120.432906,1.0345295e-08
C0V400,阿公店,2026-03-10,22.804194,120.355528,7.7440265e-05
C0E960,觀霧分站,2026-03-10,24.505781,121.113921,2.6656794e-08
467550,玉山,2026-03-10,23.48718,120.95943,4.2704656e-08
C0R440,大漢山,2026-03-10,22.405264,120.753181,1.6207036e-08
C0SD30,東清國小,2026-03-10,22.057128,121.564922,0.24188156
C1F9B1,桐林,2026-03-10,24.066172,120.735194,1.870021e-08
C2H9U0,鳳鵬,2026-03-10,23.763919,120.788061,7.02787e-09
C0K390,土庫,2026-03-10,23.679029,120.395574,2.4011818e-08
C1I450,望鄉山,2026-03-10,23.594153,120.944286,2.7786488e-08
C0E910,海埔,2026-03-10,24.648767,120.772435,0.00044961346
B2E890,畜試北區分所,2026-03-10,24.527806,120.770972,9.0231166e-05
C0R750,四林格山,2026-03-10,22.076989,120.802439,0.98708963
C0F0C0,中坑,2026-03-10,24.248517,120.903319,1.8025094e-08
C1I121,大鞍,2026-03-10,23.678381,120.760017,9.9475885e-09
C2G9E0,移民庄,2026-03-10,23.9784,120.40283,3.5808196e-05
72U480,花改蘭陽分場,2026-03-10,24.686306,121.716583,5.4066177e-08
C0A770,科教館,2026-03-10,25.096356,121.516507,1.9730955e-07
C0AJ60,六塊厝,2026-03-10,25.24,121.4481,0.0047998712
C0R620,墾雷,2026-03-10,21.900836,120.855269,0.12302206
467420,永康,2026-03-10,23.038386,120.2367,6.475599e-06
C2M530,奮起湖,2026-03-10,23.493903,120.699253,9.061028e-09
C0I410,名間,2026-03-10,23.837053,120.701447,2.8681432e-08
A2C560,農工中心,2026-03-10,24.985917,121.239833,0.005809658
C0V740,旗山,2026-03-10,22.888614,120.483597,2.2549402e-08
C0Z061,玉里,2026-03-10,23.3215,121.339656,8.463237e-06
C0S840,南田,2026-03-10,22.279725,120.889208,0.7507036
C1I470,杉林溪,2026-03-10,23.639517,120.786444,1.1088069e-08
C1X040,東原,2026-03-10,23.291597,120.463822,9.701726e-09
C0R660,枋寮,2026-03-10,22.367722,120.590647,9.2895107e-07
C1R120,上德文,2026-03-10,22.763272,120.704442,4.8482082e-08
C0K450,大埤,2026-03-10,23.646074,120.431537,2.5940295e-08
C0UA00,土場,2026-03-10,24.576533,121.495333,1.8894121e-07
467080,宜蘭,2026-03-10,24.763975,121.756528,6.230722e-08
C0N030,四草,2026-03-10,23.0235,120.1116,1.0902268e-05
467410,臺南,2026-03-10,22.99328,120.20492,4.394059e-06
C0V650,彌陀,2026-03-10,22.783806,120.246361,0.00025705743
C0D660,新竹市東區,2026-03-10,24.798681,120.986942,0.0005226763
82S580,茶改東部分場,2026-03-10,22.907694,121.130139,2.5886064e-05
C0SB40,興隆,2026-03-10,22.913661,121.257469,0.005489207
467050,新屋,2026-03-10,25.006725,121.047492,0.09492
C0C710,大溪永福,2026-03-10,24.892936,121.324975,0.0026046156
C0FA20,溫寮,2026-03-10,24.372177,120.583125,0.0012064226
C0V640,湖內,2026-03-10,22.887139,120.2445,5.3038175e-06
C0R910,下寮,2026-03-10,22.3929,120.5548,1.1491104e-06
C0Z020,明里,2026-03-10,23.208717,121.262342,2.5788927e-06
C0M770,嘉義梅山,2026-03-10,23.585398,120.555587,5.0185607e-09
C0C660,楊梅,2026-03-10,24.912375,121.143047,0.0015916214
C0SD40,牛頭山,2026-03-10,22.676661,121.506944,0.99778205
C1E511,新開,2026-03-10,24.347703,120.827019,4.8073332e-08
G2F820,農試所(霧峰),2026-03-10,24.031261,120.688133,2.9279496e-08
C2M990,大巃頂,2026-03-10,23.5547,120.61439,5.7707226e-09
C1I070,和社,2026-03-10,23.591131,120.888861,6.3455796e-09
C2E990,新坪頂,2026-03-10,24.30201,120.8574,2.3011742e-08
C0TA80,立霧山,2026-03-10,24.183258,121.641899,5.8644527e-08
C2F000,大肚,2026-03-10,24.15295,120.572117,4.6756476e-08
C1S850,豐南,2026-03-10,23.122139,121.262389,4.6183197e-07
C2M9B0,西興,2026-03-10,23.2428,120.57617,3.9384824e-09
C2A920,富貴角,2026-03-10,25.263783,121.565258,6.9644935e-05
C0T960,光復,2026-03-10,23.660694,121.424964,5.882276e-07
C0F9M0,豐原,2026-03-10,24.254322,120.720692,7.412472e-08
C0R720,旭海,2026-03-10,22.205403,120.887614,0.9985861
C0V710,苓雅,2026-03-10,22.622742,120.330669,8.905418e-05
C0C740,觀音工業區,2026-03-10,25.064764,121.114856,0.117527865
CAC040,拉拉山,2026-03-10,24.699317,121.427133,4.6469395e-08
C0V790,萬山,2026-03-10,22.905944,120.688056,1.3036492e-07
U2HA30,臺大和社,2026-03-10,23.590856,120.888864,6.3455796e-09
C2H9K0,屯原,2026-03-10,24.067969,121.209389,2.061021e-08
C0AJ90,澳底,2026-03-10,25.0552,121.9253,1.2475874e-05
C0Z100,東華,2026-03-10,23.89525,121.549833,1.1513054e-06
C0G970,三豐,2026-03-10,23.882,120.2895,0.058368582
C0V900,汕尾,2026-03-10,22.4782,120.4151,1.4549476e-06
C1R630,龍泉,2026-03-10,22.66701,120.59091,5.9603362e-09
C1AC50,關渡,2026-03-10,25.133486,121.469331,0.0003167877
C0C800,四稜,2026-03-10,24.64733,121.4293,6.1462686e-08
C0F9I0,神岡,2026-03-10,24.272481,120.658314,8.4206214e-08
C0K460,斗南,2026-03-10,23.678734,120.478359,2.4245562e-08
C2O810,曾文,2026-03-10,23.219681,120.497328,1.9928759e-08
467280,後龍,2026-03-10,24.648563,120.831834,0.00017379336
C1F9J1,清水林,2026-03-10,24.071242,120.820419,4.7060293e-09
C2A650,火燒寮,2026-03-10,25.002719,121.742892,3.93041e-07
466930,竹子湖,2026-03-10,25.162078,121.544547,6.2697586e-07
C1I220,樟湖,2026-03-10,23.905333,120.846983,7.0355144e-09
C0I390,仁愛,2026-03-10,24.022122,121.132206,1.0855391e-08
C0Z300,東里,2026-03-10,23.26853,121.30547,6.1125975e-06
C1V590,新發,2026-03-10,23.057019,120.646064,1.9433795e-08
C0K510,水林,2026-03-10,23.572924,120.24597,2.7410668e-05
72S590,東改賓朗果園,2026-03-10,22.813889,121.071278,5.916888e-06
82A750,茶改北部分場,2026-03-10,24.955778,121.631222,1.8050817e-07
C1A750,石碇服務區,2026-03-10,25.00872,121.646242,2.7896763e-06
C0X300,鹿寮,2026-03-10,23.386047,120.477331,7.875482e-09
C0K590,雲林東勢,2026-03-10,23.674192,120.255721,0.00063217577
C2K310,港尾布雞,2026-03-10,23.74834,120.38439,1.847868e-08
C0A570,桶後,2026-03-10,24.848222,121.597992,7.190507e-07
C1S800,華源,2026-03-10,22.657883,121.02325,0.0011720848
C0G720,溪州,2026-03-10,23.851589,120.499093,1.195855e-08
C1V160,達卡努瓦,2026-03-10,23.279811,120.705319,8.229163e-09
C2M410,馬頭山,2026-03-10,23.324361,120.582017,5.9598584e-09
C0V850,蚵仔寮,2026-03-10,22.7256,120.2527,0.0002633357
C0S740,池上,2026-03-10,23.119628,121.209469,3.4452348e-06
C1V390,尖山,2026-03-10,22.813153,120.367789,2.5663468e-05
C0AH70,松山,2026-03-10,25.04871,121.55042,1.8465808e-07
C0N010,鯤鯓國小,2026-03-10,23.1879,120.0889,4.3380885e-05
C0R550,新埤,2026-03-10,22.467947,120.582894,5.7452405e-07
C0SA60,知本（水試所）,2026-03-10,22.702394,121.082761,0.6265512
C0T9I0,豐濱,2026-03-10,23.583897,121.514806,0.0075839316
C0UB00,淡江大學蘭陽校園,2026-03-10,24.823239,121.730383,3.03762e-08
C0W240,九宮,2026-03-10,24.423753,118.240186,1.0671984e-07
C0T9N0,富里,2026-03-10,23.171639,121.249378,1.9036513e-06
U2HA50,臺大竹山,2026-03-10,23.756972,120.681556,2.8602166e-08
C0V840,鳳鼻頭,2026-03-10,22.5083,120.3591,1.2523406e-06
C0X140,西港,2026-03-10,23.125608,120.203108,2.4668292e-05
72D080,桃改五峰分場,2026-03-10,24.612194,121.157167,3.4354038e-08
C2H9P0,伊拿谷,2026-03-10,23.963211,121.088264,9.817416e-09
C2K250,崙背,2026-03-10,23.75553,120.31893,0.0005590232
C2H9F0,柑林,2026-03-10,24.018658,120.847072,7.492882e-09
C0TA20,加灣,2026-03-10,24.082025,121.608944,2.857116e-05
C0V530,阿蓮,2026-03-10,22.883208,120.327508,4.656607e-06
C0FB30,八仙山苗圃,2026-03-10,24.192719,121.001366,1.9672104e-08
C1O880,關山,2026-03-10,23.173397,120.594092,6.5439387e-09
C0E791,卓蘭,2026-03-10,24.3126,120.8244,4.455556e-08
C1I030,武界,2026-03-10,23.913225,121.052483,9.928197e-09
C0R520,崁頂,2026-03-10,22.514781,120.506914,2.1949454e-06
C0R341,牡丹,2026-03-10,22.130036,120.792639,0.9978333
C0R930,萬丹,2026-03-10,22.5885,120.4851,1.2112869e-06
C0S760,紅石,2026-03-10,23.069131,121.126219,2.9378903e-08
C2C410,中央大學,2026-03-10,24.967652,121.185165,0.0036164895
C1M610,石磐龍,2026-03-10,23.496606,120.663506,9.004381e-09
C0C790,東眼山,2026-03-10,24.8284,121.40888,6.489661e-08
C0UA10,鴛鴦湖,2026-03-10,24.590269,121.412228,3.948232e-08
C0R800,丹路,2026-03-10,22.204481,120.750989,0.9785244
C0G920,永靖,2026-03-10,23.924703,120.547533,2.0325719e-05
C2M950,太和,2026-03-10,23.538372,120.702961,9.016342e-09
C1A630,下盆,2026-03-10,24.771003,121.538622,1.4221342e-07
B2N890,畜產試驗所,2026-03-10,23.058972,120.336406,3.7740715e-06
C0UA30,白嶺,2026-03-10,24.527819,121.519031,4.764239e-08
467571,新竹,2026-03-10,24.828575,121.01455,0.00074532296
C1V580,溪南(特生中心),2026-03-10,23.084972,120.788475,9.187337e-09
C1T970,大農,2026-03-10,23.615233,121.413331,0.00049874664
C0R650,竹田,2026-03-10,22.58486,120.54344,1.7145787e-06
C1H900,清流,2026-03-10,24.080775,120.962997,9.937879e-09
C1C510,水尾,2026-03-10,24.940081,121.087161,0.012155395
C2N170,茅港尾,2026-03-10,23.2061,120.2624,3.8720693e-05
C0F9X0,大雅(中科園區),2026-03-10,24.21528,120.62445,1.2613874e-07
C0SB60,白守蓮,2026-03-10,23.126769,121.401914,0.8082841
C0O970,虎頭埤,2026-03-10,23.021375,120.347878,1.5256953e-06
C0C730,中大臨海站,2026-03-10,24.966126,121.008581,0.0018462437
C0X250,新營,2026-03-10,23.310689,120.316681,2.1547734e-05
C0V700,三民,2026-03-10,22.645017,120.311233,0.000108870125
C0U870,大礁溪,2026-03-10,24.791042,121.675047,2.5347994e-08
C0E870,高鐵苗栗,2026-03-10,24.60725,120.826094,0.00022520688
C0TA30,鹽寮,2026-03-10,23.845606,121.592664,1.4504311e-06
C0M860,新美,2026-03-10,23.338017,120.683169,1.12697505e-08
C1E701,八卦,2026-03-10,24.491756,120.927619,6.736118e-08
C2TA90,加納納,2026-03-10,23.466421,121.359867,0.00033592273
C0I420,國姓,2026-03-10,24.037803,120.855072,6.7639623e-09
C2D720,關西工作站,2026-03-10,24.757275,121.184792,2.4423364e-06
C0S960,香蘭,2026-03-10,22.587569,120.993375,3.66781e-05
467620,蘭嶼,2026-03-10,22.0369,121.55843,0.9207629
C0R260,春日,2026-03-10,22.370361,120.628306,0.34555516
72G600,臺中農改場,2026-03-10,24.003028,120.534389,1.674927e-05
C0Z210,瑞穗,2026-03-10,23.5239,121.39021,0.014459427
C0M820,達邦,2026-03-10,23.453994,120.749517,8.796432e-09
C0V860,南寮,2026-03-10,22.7616,120.2339,0.00026333545
C0G740,大城,2026-03-10,23.852487,120.320935,0.03560751
C0R920,塭仔,2026-03-10,22.4169,120.5197,1.3270741e-06
C0R470,高樹,2026-03-10,22.826389,120.600806,3.702403e-09
C0R680,佳樂水,2026-03-10,21.993578,120.861633,0.11161868
C1O870,大棟山,2026-03-10,23.31157,120.52226,8.67381e-09
C0D360,梅花,2026-03-10,24.678347,121.208558,1.3576779e-07
C0Z190,富世,2026-03-10,24.14743,121.6297,2.0473062e-05
C0AI10,屈尺,2026-03-10,24.92184,121.54475,1.5072231e-07
B2U990,畜試東區分所,2026-03-10,24.669039,121.832561,5.3616482e-08
C0SB80,長濱漁港,2026-03-10,23.313644,121.459994,0.6476501
C0TA50,和仁,2026-03-10,24.241394,121.712472,1.4662842e-05
C0V910,大樹,2026-03-10,22.684645,120.432803,1.0676174e-08
C1R610,西大武山,2026-03-10,22.617719,120.7322,1.4237444e-08
C0G900,線西,2026-03-10,24.143358,120.443536,6.180094e-05
C0M700,竹崎,2026-03-10,23.526178,120.555508,5.096911e-09
C2E880,三義,2026-03-10,24.405478,120.749819,3.1546125e-07
C0C720,竹圍,2026-03-10,25.112692,121.239824,0.115252934
C0F9P0,清水,2026-03-10,24.312297,120.562242,6.033451e-07
C0Z150,吉安光華,2026-03-10,23.930925,121.595153,1.2466436e-06
C0FA80,小雪山天池,2026-03-10,24.28025,121.02627,3.052098e-08
467300,東吉島,2026-03-10,23.25727,119.66762,0.9991968
C1D640,外坪(五指山),2026-03-10,24.644447,121.090961,2.6019364e-07
C2R9A0,高士國小,2026-03-10,22.12553,120.84653,0.99565315
C0F9O0,潭子,2026-03-10,24.213106,120.703933,9.783622e-08
C2H9R0,卓社,2026-03-10,23.887894,121.000086,1.0954689e-08
72T250,花蓮農改場,2026-03-10,23.975222,121.563889,9.758805e-07
C0E780,銅鑼,2026-03-10,24.489681,120.790853,1.5262427e-05
C1T950,太安,2026-03-10,23.666719,121.370128,3.1849467e-08
C0E830,苑裡,2026-03-10,24.439714,120.653053,0.0004121792
467270,田中,2026-03-10,23.873803,120.581286,1.3585878e-08
C0SA10,檳榔四格山,2026-03-10,22.810031,121.109308,1.7367412e-06
C1T830,布洛灣,2026-03-10,24.17184,121.57127,6.558749e-07
C0F970,大坑,2026-03-10,24.173142,120.722289,1.5089216e-07
C1U920,思源,2026-03-10,24.393125,121.347214,2.4785237e-08
C2H9Y0,松茗,2026-03-10,23.8167,120.650765,5.7332783e-09
C0A931,三和,2026-03-10,25.233153,121.595236,3.727899e-05
C0I010,廬山,2026-03-10,24.033311,121.181808,2.0819297e-08
C2M940,日野賀,2026-03-10,23.434056,120.727169,7.771031e-09
C0R860,鼻頭,2026-03-10,22.1043,120.8979,0.15953843
C0UB20,壯圍,2026-03-10,24.7359,121.8163,6.4421805e-08
C0R790,九棚,2026-03-10,22.14195,120.889281,0.9653293
C0W110,東莒,2026-03-10,25.9652,119.98069,1.0210015e-05
C1U930,粉鳥林,2026-03-10,24.497088,121.842479,0.23946199
C1I211,蘆竹湳,2026-03-10,23.934019,120.811994,4.474443e-09
C0S830,長濱,2026-03-10,23.286817,121.411975,0.00022614979
C1F9F1,伯公龍,2026-03-10,24.272392,120.849047,2.6768731e-08
C0UB90,太平山莊,2026-03-10,24.494171,121.536209,3.825962e-08
C0E810,西湖,2026-03-10,24.562947,120.7485,0.00015510138
C1I440,新高口,2026-03-10,23.478744,120.878939,2.1481524e-08
C0O840,王爺宮,2026-03-10,23.222064,120.40085,4.8835776e-08
C0T9G0,鳳林山,2026-03-10,23.735269,121.420131,7.912961e-08
C0X080,佳里,2026-03-10,23.173039,120.145086,4.2733864e-05
C0FB70,大甲溪埔,2026-03-10,24.370625,120.620067,0.00044574583
C0Z310,清水斷崖,2026-03-10,24.218294,121.689142,3.960741e-06
C0M680,太保,2026-03-10,23.455062,120.331455,3.3571236e-05
C1S820,金峰,2026-03-10,22.590969,120.933236,0.00014076277
C0AD10,八里,2026-03-10,25.150211,121.403947,0.0030328743
C2K240,草嶺,2026-03-10,23.59555,120.693461,1.0016758e-08
C1SA70,都蘭,2026-03-10,22.87794,121.226881,0.0013091717
C0K440,二崙,2026-03-10,23.772797,120.408944,1.4008721e-08
C1A760,坪林交控,2026-03-10,24.94284,121.713442,5.821657e-07
C0F9N0,大里,2026-03-10,24.092464,120.701378,3.026516e-08
C0SA90,達仁林場,2026-03-10,22.264347,120.823972,0.35472816
C1R290,石門山,2026-03-10,22.112611,120.756597,0.99508584
42HA10,萬大發電廠,2026-03-10,23.978875,121.139639,1.0410894e-08
C0R890,山海,2026-03-10,21.9878,120.7091,0.07906658
C0T9A0,月眉山,2026-03-10,23.809928,121.539828,9.14116e-08
C0AC70,信義,2026-03-10,25.037822,121.564597,1.8649082e-07
C0K560,棋山,2026-03-10,23.68645,120.603417,6.773219e-09
C2FB50,出雲,2026-03-10,24.206469,120.902794,1.5176045e-08
C1Z240,中平林道,2026-03-10,23.42115,121.26763,4.766239e-08
U2H480,溪頭,2026-03-10,23.670306,120.798194,7.457523e-09
C0M880,好美里,2026-03-10,23.3364,120.138,2.4143652e-05
C0T9E0,大坑,2026-03-10,23.880628,121.581981,3.0096527e-07
C0K530,臺西,2026-03-10,23.701547,120.197559,0.0019750898
C1E900,國一N128K,2026-03-10,24.560997,120.844186,8.829155e-05
C0AJ50,水湳洞,2026-03-10,25.123695,121.862238,1.1231959e-05
C0AI20,白沙灣,2026-03-10,25.283128,121.519058,0.002676294
C2V310,美濃,2026-03-10,22.898792,120.51907,2.370398e-08
C0A860,大坪,2026-03-10,25.165914,121.632969,2.1398209e-07
C1U850,觀音海岸,2026-03-10,24.38319,121.77856,1.0413083e-07
C2K610,草嶺石壁,2026-03-10,23.602469,120.707731,9.9154045e-09
C0U950,鶯子嶺,2026-03-10,24.89754,121.79244,5.022863e-08
C0O900,善化,2026-03-10,23.112883,120.297219,7.3346805e-06
C0K550,蔦松,2026-03-10,23.514319,120.229736,3.93022e-05
E2P980,林試六龜中心,2026-03-10,22.991703,120.645722,3.4578451e-09
C0E590,通霄,2026-03-10,24.471892,120.704622,0.00033046008
C1I310,西巒,2026-03-10,23.754486,120.883956,1.1018455e-08
C0A550,泰平,2026-03-10,24.971197,121.823711,1.6628162e-07
C0I360,水里,2026-03-10,23.812553,120.849792,1.0767135e-08
C0R830,高士,2026-03-10,22.121825,120.836781,0.99574226
C1I101,溪頭,2026-03-10,23.661789,120.807647,1.1937082e-08
C0AJ20,野柳,2026-03-10,25.20703,121.690021,0.002778716
C0B060,暖暖,2026-03-10,25.0957,121.7403,2.9340517e-06
C1H920,長豐,2026-03-10,24.102039,120.879897,8.336495e-09
C2S9B0,利吉,2026-03-10,22.86246,121.15486,5.366679e-05
C0V360,內門,2026-03-10,22.975481,120.466769,1.5815996e-08
C0R850,林邊,2026-03-10,22.4634,120.5339,1.027954e-06
C0E930,龍鳳,2026-03-10,24.700034,120.859125,0.0022210842
C0U910,冬山,2026-03-10,24.63373,121.7937,5.3616482e-08
C1E721,泰安,2026-03-10,24.489017,120.968036,3.2474052e-08
82H320,茶改中部分場,2026-03-10,23.875611,120.913583,9.437788e-09
C0M750,布袋,2026-03-10,23.380878,120.167789,9.763112e-05
C1S860,利嘉,2026-03-10,22.809417,121.050528,3.6254383e-07
E2S980,林試太麻里1,2026-03-10,22.598922,120.980044,0.0075440886
C0X170,關廟,2026-03-10,22.963017,120.327797,3.073417e-06
C0V720,林園,2026-03-10,22.507747,120.394511,9.825969e-07
C1I510,線浸林道,2026-03-10,23.761508,120.832956,6.9456085e-09
C0D690,外湖,2026-03-10,24.917735,120.968711,0.0044477186
C0C750,新興坑尾,2026-03-10,25.0061,121.0971,0.029796246
B2Q810,畜試南區分所,2026-03-10,21.945583,120.802167,0.11161868
C0S790,金崙,2026-03-10,22.538122,120.966875,5.098003e-05
C0AH90,福山植物園,2026-03-10,24.760717,121.58135,1.026577e-07
C0I540,奇萊稜線,2026-03-10,24.109231,121.326456,3.66611e-08
C0M850,表湖,2026-03-10,23.24186,120.64166,8.484185e-09
C0S770,大溪山,2026-03-10,22.478475,120.943325,0.9998859
C0AG80,中和,2026-03-10,24.991622,121.491792,1.7394485e-07
C0T790,大禹嶺,2026-03-10,24.186117,121.316086,3.5067043e-08
C0T9B0,水源,2026-03-10,23.991861,121.537169,1.474499e-07
C0R840,牡丹池山,2026-03-10,22.168389,120.841225,0.40952134
C1I131,桶頭,2026-03-10,23.641944,120.654117,1.0127104e-08
CAL110,布袋國中,2026-03-10,23.35893,120.18026,2.4143697e-05
C2M9D0,何竹子腳,2026-03-10,23.53641,120.38203,1.129913e-08
C0Z290,赤柯山,2026-03-10,23.36893,121.38293,7.603843e-08
C0X280,將軍,2026-03-10,23.214999,120.13577,3.2523963e-05
C0S690,太麻里,2026-03-10,22.60902,120.98533,3.6506094e-07
C0U880,北關,2026-03-10,24.9072,121.8734,1.3106006e-05
CAW010,東引,2026-03-10,26.3588,120.4836,9.01358e-05
C0G810,埔心,2026-03-10,23.947633,120.525456,2.39714e-05
C0U970,大福,2026-03-10,24.80064,121.81389,6.351189e-08
C2H9N0,仁愛東眼,2026-03-10,24.026875,121.1205,1.2718621e-08
C1E670,南礦,2026-03-10,24.538278,121.002836,3.3600884e-08
C0M520,東後寮,2026-03-10,23.369908,120.248065,2.0795303e-05
C1E461,松安,2026-03-10,24.397972,120.986022,3.5854015e-08
C2N160,西拉雅風管處,2026-03-10,23.189481,120.335297,2.2634375e-05
C2M970,碧湖,2026-03-10,23.568632,120.624165,5.7366805e-09
C0A640,石碇,2026-03-10,24.993969,121.662917,5.821657e-07
E2S960,林試太麻里2,2026-03-10,22.598,120.99775,4.8956193e-05
C0F9Y0,桃山,2026-03-10,24.432739,121.303808,4.0217138e-08
C1I020,萬大,2026-03-10,23.979817,121.132261,1.0963447e-08
C2UC20,長嶺,2026-03-10,24.70894,121.61162,2.9895565e-07
C0U940,羅東,2026-03-10,24.68184,121.74934,5.4990757e-08
C0M650,朴子,2026-03-10,23.43463,120.23902,3.7290687e-05
C1I500,大尖山,2026-03-10,23.858572,120.994889,1.768961e-08
C0FB40,中橫21.6k,2026-03-10,24.2499,121.1455,1.6957571e-08
C0G820,田尾,2026-03-10,23.901669,120.509389,2.39714e-05
E2K600,四湖植物園,2026-03-10,23.676986,120.163433,0.0026701512
C0S730,綠島,2026-03-10,22.6672,121.47533,0.9991668
12Q970,東港工作站,2026-03-10,22.479997,120.466058,1.3819787e-06
C1TA00,太魯閣,2026-03-10,24.15773,121.6236,1.254072e-05
466920,臺北,2026-03-10,25.037658,121.514853,1.8465808e-07
C0R600,舊泰武,2026-03-10,22.588194,120.664944,6.7778024e-07
C1I260,北坑,2026-03-10,23.9246,121.006903,1.1061686e-08
466910,鞍部,2026-03-10,25.182586,121.529731,2.7985982e-07
C1I230,九份二山,2026-03-10,23.961944,120.845,5.166197e-09
C2M810,里佳,2026-03-10,23.389125,120.716647,8.081797e-09
C2A660,瑞芳,2026-03-10,25.113169,121.801147,2.2219244e-06
C0R270,琉球嶼,2026-03-10,22.332244,120.362236,1.3878348e-06
C2V580,瑞山,2026-03-10,22.90304,120.43424,1.6875005e-08
C1T990,高寮,2026-03-10,23.394239,121.356808,0.062936194
C0G620,芬園,2026-03-10,24.015678,120.6213,1.8045685e-06
C1Z140,荖溪,2026-03-10,23.890575,121.45964,7.0769296e-08
C1I201,中心崙,2026-03-10,23.728722,120.712097,4.614857e-09
C1I400,凌霄,2026-03-10,24.018778,121.004456,1.2647018e-08
C1M640,十字,2026-03-10,23.492153,120.753683,9.598872e-09
G2P820,農試鳳山分所,2026-03-10,22.646611,120.356083,4.9737773e-05
C0Z270,蕃薯寮,2026-03-10,23.73835,121.540108,1.6705681e-07
C2E420,竹南,2026-03-10,24.70898,120.88897,0.0009477712
C0FB10,出雲山苗圃,2026-03-10,24.23105,120.90475,1.8025094e-08
C0F9Q0,外埔,2026-03-10,24.347817,120.705686,1.2057325e-07
C0K580,高鐵雲林,2026-03-10,23.737456,120.417944,1.7401113e-08
C2I090,鳳凰,2026-03-10,23.728081,120.787347,5.4581735e-09
C0U990,員山,2026-03-10,24.74435,121.72247,5.5894144e-08
C0V770,大社,2026-03-10,22.730306,120.346639,0.00010944773
C0X120,麻豆,2026-03-10,23.183289,120.248611,2.4428313e-05
C0C670,龍潭,2026-03-10,24.870056,121.221389,9.100909e-07
C0D680,香山濕地,2026-03-10,24.783581,120.914988,0.0044477186
C0S980,勝林山,2026-03-10,22.430439,120.8938,3.2118473e-07
C0V730,大寮,2026-03-10,22.605614,120.395717,9.642729e-07
C0R570,麟洛,2026-03-10,22.65078,120.52719,1.0380221e-08
C2M930,石卓,2026-03-10,23.478744,120.702264,9.5527355e-09
C0G9B0,和美,2026-03-10,24.105169,120.492131,2.8651979e-05
CAG100,王功漁港,2026-03-10,23.96824,120.32586,0.002129886
C0X290,北門,2026-03-10,23.267772,120.125481,3.2523963e-05
C2F930,大甲,2026-03-10,24.347667,120.640403,1.839857e-07
C0D650,湖口,2026-03-10,24.904794,121.043628,0.000245982
C0U780,五結,2026-03-10,24.68637,121.79794,5.3616482e-08
C1I250,鯉潭,2026-03-10,23.961922,120.991131,1.003749e-08
C0R130,阿禮,2026-03-10,22.742908,120.743678,1.6235438e-08
C0X100,臺南市北區,2026-03-10,23.010394,120.194228,6.533698e-06
C0S920,金峰嘉蘭,2026-03-10,22.594789,120.960825,6.9718512e-06
C0V490,新興,2026-03-10,22.627422,120.298803,0.00020560299
C0F9K0,大安,2026-03-10,24.345061,120.588025,4.3118473e-07
467290,古坑,2026-03-10,23.633639,120.551889,7.905702e-09
C2E970,八甲,2026-03-10,24.535811,120.795983,1.0093453e-05
C0V440,鳳山,2026-03-10,22.646653,120.356122,4.9737773e-05
C1T940,大觀,2026-03-10,23.714206,121.373133,9.0094865e-08
C0E740,造橋,2026-03-10,24.637056,120.864778,0.0011175966
C0R100,尾寮山,2026-03-10,22.833111,120.683889,1.6016843e-08
A2K630,臺大雲林校區,2026-03-10,23.730628,120.423903,1.677565e-08
467990,馬祖,2026-03-10,26.169467,119.923158,2.094861e-06
C0D580,寶山,2026-03-10,24.735006,121.025192,6.847862e-05
E2P990,林試扇平站,2026-03-10,22.9677,120.6857,1.6700083e-08
C0AI30,三重,2026-03-10,25.057328,121.500629,1.9730955e-07
C0AH00,汐止,2026-03-10,25.066881,121.658778,7.2342427e-06
C1Z040,立山,2026-03-10,23.443356,121.327375,1.9246406e-06
466881,新北,2026-03-10,24.959207,121.525196,1.635063e-07
C0W130,花嶼,2026-03-10,23.40007,119.32276,0.9962835
C0A950,鼻頭角,2026-03-10,25.129036,121.923372,0.20749034
C0K470,林內,2026-03-10,23.748675,120.609642,7.3674062e-09
C2F990,摩天嶺,2026-03-10,24.322458,120.936819,1.6855157e-08
C2E430,南庄,2026-03-10,24.601775,121.000214,1.5383333e-05
82C160,茶改場,2026-03-10,24.908472,121.185333,0.00044979647
C2TB60,南安,2026-03-10,23.29818,121.26157,3.723971e-06
C0Z320,清水林道,2026-03-10,23.27125,121.188272,1.5218619e-07
C0R760,南仁湖,2026-03-10,22.084681,120.863353,0.9954767
C0M670,大林,2026-03-10,23.600616,120.45841,9.7859525e-09
C0M800,茶山,2026-03-10,23.299075,120.664767,4.096264e-09
C0A9C0,天母,2026-03-10,25.117494,121.537169,1.86261e-07
72K220,南改斗南分場,2026-03-10,23.634556,120.477333,2.1736026e-08
72AI40,桃改樹林分場,2026-03-10,24.944503,121.386972,1.6469757e-07
C0S910,蘭嶼燈塔,2026-03-10,22.081197,121.503117,0.5785319
C0B050,八斗子,2026-03-10,25.144754,121.79167,9.9890185e-06
C0U900,內城,2026-03-10,24.71813,121.68766,5.270787e-08
C0X320,柳營,2026-03-10,23.253328,120.375253,3.2889923e-07
C0M790,新港,2026-03-10,23.553269,120.345728,2.6321295e-05
C0F9T0,西屯,2026-03-10,24.179494,120.641275,2.380652e-07
C0E950,松安,2026-03-10,24.39792,120.98599,3.5854015e-08
C0SA30,都歷,2026-03-10,23.020333,121.323642,0.0024004471
C0C620,蘆竹,2026-03-10,25.084275,121.265767,0.07741743
C0R730,大坪頂,2026-03-10,22.024633,120.69355,0.8208411
C0AJ40,石門,2026-03-10,25.273672,121.601198,0.0001686156
C0E750,苗栗,2026-03-10,24.564569,120.824575,0.000111771216
C0T870,鯉魚潭,2026-03-10,23.935639,121.508944,3.7477025e-07
C1V170,排雲,2026-03-10,23.463619,120.954147,3.8467284e-08
C2H950,中寮,2026-03-10,23.884447,120.766406,1.0942451e-08
C0R350,貓鼻頭,2026-03-10,21.921774,120.7358,0.0904512
C0V660,岡山,2026-03-10,22.797078,120.294958,0.00022373293
C1H941,雙冬,2026-03-10,23.967378,120.802189,4.9605564e-09
C0AJ70,田寮,2026-03-10,25.2698,121.4886,0.0026970545
C0AI00,五股,2026-03-10,25.07445,121.42728,1.1692e-07
C0Z280,德武,2026-03-10,23.47426,121.41071,0.0011845124
C2RA10,大新,2026-03-10,22.67558,120.57788,5.9603362e-09
C0R700,枋山,2026-03-10,22.246844,120.661086,0.14835227
C0C460,復興,2026-03-10,24.820208,121.352281,1.9251254e-07
C2K300,鹿南,2026-03-10,23.63855,120.3636,0.00070856046
E2H360,蓮華池,2026-03-10,23.918333,120.885278,8.480464e-09
C0M640,中埔,2026-03-10,23.42538,120.5229,5.3725273e-09
C0W140,金沙,2026-03-10,24.488292,118.408778,1.4883003e-07
C2A540,四堵,2026-03-10,24.8926,121.745736,2.6534144e-07
C0ACA0,新莊,2026-03-10,25.051478,121.446756,2.1113686e-07
C0R220,潮州,2026-03-10,22.534361,120.54,1.3799728e-06
U2HA40,臺大內茅埔,2026-03-10,23.689722,120.851117,6.0826597e-09
467490,臺中,2026-03-10,24.145736,120.684075,2.467073e-07
C0UB60,明池,2026-03-10,24.650688,121.475277,5.429363e-08
C0U960,翠峰湖,2026-03-10,24.510856,121.608044,3.7852274e-08
E2HA20,林試畢祿溪站,2026-03-10,24.226944,121.308522,2.7580034e-08
C2M9A0,大華,2026-03-10,23.4824,120.67491,8.3173095e-09
C0V890,前鎮,2026-03-10,22.5718,120.3117,0.00020065585
C1F941,雪嶺,2026-03-10,24.280586,121.026642,3.052098e-08
C2H9E0,國姓南港,2026-03-10,23.911108,120.846556,7.2224275e-09
C0AC80,文山,2026-03-10,25.00235,121.575728,1.564048e-07
C0F9R0,龍井,2026-03-10,24.184536,120.528972,4.445675e-05
C0M760,民雄,2026-03-10,23.551754,120.428457,9.7859525e-09
C0UA40,西德山,2026-03-10,24.560647,121.752608,5.1195563e-08
C2TA70,赤科坪,2026-03-10,23.39885,121.39168,1.373915e-07
C1T920,中興,2026-03-10,23.769503,121.498653,9.028173e-07
C0D550,雪霸,2026-03-10,24.526972,121.11605,3.5169926e-08
C2F860,梨山,2026-03-10,24.247522,121.243669,3.3124145e-08
C0R320,車城,2026-03-10,22.0744,120.716247,0.08550044
C1S870,南美山,2026-03-10,23.15025,121.382333,2.238372e-05
C0B020,基隆嶼,2026-03-10,25.19141,121.78391,6.978682e-06
C1U501,牛鬥,2026-03-10,24.637836,121.573656,1.8633133e-06
C0M730,嘉義市東區,2026-03-10,23.457673,120.460531,7.728476e-09
C2R990,泰武,2026-03-10,22.60686,120.69765,4.9395798e-08
C0S700,知本,2026-03-10,22.684866,121.005642,3.359041e-07
C1N001,沙崙,2026-03-10,22.935472,120.309406,4.4422354e-06
C0V760,橋頭,2026-03-10,22.757806,120.30575,0.00017681626
C0G960,福寶,2026-03-10,24.0443,120.3814,3.3753768e-05
C0X210,白河,2026-03-10,23.347466,120.414427,1.2284012e-07
C0S810,東河,2026-03-10,22.972672,121.303986,0.007479395
C2R170,屏東,2026-03-10,22.66027,120.49403,1.0380221e-08
C0R670,楓港,2026-03-10,22.190131,120.692156,0.20768808
C0FA50,霧峰,2026-03-10,24.0419,120.6995,2.5973664e-08
C0UB10,蘇澳,2026-03-10,24.5969,121.8571,0.0006131346
C0G950,防潮門,2026-03-10,24.1835,120.4871,5.9826452e-05
C0M740,六腳,2026-03-10,23.492871,120.290625,2.9237504e-05
C1R250,力里,2026-03-10,22.428117,120.629228,1.5422215e-07
C0K330,虎尾,2026-03-10,23.719183,120.442036,1.5954825e-08
C2FA00,烏石坑,2026-03-10,24.273503,120.947617,1.7048897e-08
C0V620,永安,2026-03-10,22.82315,120.236856,0.000256432
C1I330,楓樹林,2026-03-10,23.986803,121.076117,1.09133955e-08
C0W200,湖西,2026-03-10,23.596314,119.67275,0.9988609
72Q010,高雄農改場,2026-03-10,22.709333,120.525889,7.547099e-09
C0SA40,瑞和,2026-03-10,22.974361,121.156697,1.5616553e-05
C0C680,龜山,2026-03-10,25.02846,121.38656,8.8711445e-08
C2V260,月眉,2026-03-10,22.971003,120.539853,7.612184e-09
C0V450,鳳森,2026-03-10,22.545064,120.392592,4.0051603e-07
C0FA90,小雪山林道,2026-03-10,24.29515,121.03651,4.335987e-08
C0U720,南山,2026-03-10,24.43742,121.38167,4.43141e-08
A2N290,臺南蘭花園區,2026-03-10,23.340258,120.379661,2.5448423e-07
C0R560,新園,2026-03-10,22.5434,120.461558,9.825969e-07
C0U890,三星,2026-03-10,24.66812,121.65302,4.723e-08
C1V300,御油山,2026-03-10,23.001983,120.715364,9.010858e-09
C0U600,礁溪,2026-03-10,24.817539,121.765608,6.12247e-08
C1T980,龍澗,2026-03-10,24.023289,121.411328,4.1843062e-08
C0D670,海天一線,2026-03-10,24.831986,120.914438,0.004203076
C0SA00,歷坵,2026-03-10,22.520969,120.89185,0.33640495
C0M710,東石,2026-03-10,23.458927,120.15385,6.796979e-05
C0M780,鹿草,2026-03-10,23.41134,120.30835,2.35871e-05
C0U520,雙連埤,2026-03-10,24.753033,121.641303,3.044714e-08
C0B010,七堵,2026-03-10,25.094819,121.71713,5.9720596e-06
C0R480,長治,2026-03-10,22.693128,120.542622,6.779565e-09
C1V830,國三S383K,2026-03-10,22.781967,120.426475,5.606121e-09
12Q980,恆春工作站,2026-03-10,22.079678,120.714425,0.08550044
C1O940,東山服務區,2026-03-10,23.286016,120.398472,2.442273e-07
C1U840,東澳嶺,2026-03-10,24.5378,121.8485,7.821668e-08
C1D630,飛鳳山,2026-03-10,24.766464,121.119178,8.585038e-07
C0S940,石寧山,2026-03-10,23.223772,121.406639,0.40753904
C0K410,北港,2026-03-10,23.573957,120.292802,2.3590834e-05
C2M620,瑞里,2026-03-10,23.545133,120.675197,8.842018e-09
C0SB70,小港漁港,2026-03-10,23.158558,121.400431,0.723434
C2O950,安南,2026-03-10,23.076694,120.144861,1.0004405e-05
C0F0E0,南湖圈谷,2026-03-10,24.363714,121.444667,5.8020586e-08
467610,成功,2026-03-10,23.097486,121.373428,0.13982798
C0G890,伸港,2026-03-10,24.148933,120.484403,4.619087e-05
C2E540,龍溪,2026-03-10,24.606489,120.783933,0.0003119498
C1V200,梅山,2026-03-10,23.268447,120.823556,8.111632e-09
C0T9H0,加路蘭山,2026-03-10,23.682947,121.5274,5.8237674e-08
C2O930,玉井,2026-03-10,23.126042,120.46055,9.298013e-08
C1F911,新伯公,2026-03-10,24.221361,120.841069,2.9761692e-08
C0R490,九如,2026-03-10,22.7405,120.490503,7.547099e-09
C0X200,左鎮,2026-03-10,23.056758,120.408522,2.2045748e-08
C2TB50,麻汝,2026-03-10,23.42554,121.39358,0.00026128846
C0FA60,鞍馬山工作站,2026-03-10,24.267064,121.000793,2.2226667e-08
C0SB50,叭嗡嗡,2026-03-10,23.047062,121.343223,0.50701094
C1F891,稍來,2026-03-10,24.265689,121.001142,2.186693e-08
C2M9C0,紫雲,2026-03-10,23.494914,120.540253,5.7076814e-09
72N240,七股研究中心,2026-03-10,23.081672,120.062894,1.0902268e-05
C0C700,中壢,2026-03-10,24.977661,121.256375,0.0030881315
C0M690,水上,2026-03-10,23.419734,120.388909,1.1185909e-08
C0V690,鼓山,2026-03-10,22.623325,120.275575,0.00020560299
C0O860,大內,2026-03-10,23.11885,120.36083,3.6688211e-06
C0Z200,萬榮,2026-03-10,23.709219,121.420106,4.617888e-07
C0T9D0,和中,2026-03-10,24.26676,121.74103,1.6466927e-05
C2S9A0,北份子寮,2026-03-10,22.78561,121.07813,0.0027124444
C1O921,楠西,2026-03-10,23.183511,120.484083,6.914338e-08
C0AJ30,淡水觀海,2026-03-10,25.184591,121.408616,0.0037495205
C0V810,左營,2026-03-10,22.67491,120.28491,0.000108870125
C0UA70,桃源谷,2026-03-10,24.962606,121.888875,1.0632487e-07
C0X130,官田,2026-03-10,23.193217,120.315422,3.2766293e-05
C1H000,翠峰,2026-03-10,24.109397,121.205211,2.5996513e-08
C0UA90,石城,2026-03-10,24.980444,121.951214,6.1482686e-05
C1E681,南勢山,2026-03-10,24.421669,120.923831,4.6759506e-08
C0A9F0,內湖,2026-03-10,25.079422,121.57545,1.8649082e-07
C0K291,宜梧,2026-03-10,23.536281,120.169329,8.902182e-05
C1K540,口湖,2026-03-10,23.585344,120.180517,6.2913736e-05
C0R780,滿州,2026-03-10,22.024403,120.839892,0.21380922
C0V870,文安,2026-03-10,22.8025,120.2164,0.00026333545
C0U650,玉蘭,2026-03-10,24.675286,121.587061,2.796693e-07
C0R640,東港,2026-03-10,22.46247,120.44074,1.2523406e-06
C0AJ80,板橋,2026-03-10,25.0107,121.4489,1.7394485e-07
C0S660,下馬,2026-03-10,23.150427,121.070312,9.983192e-08
C2N190,烏樹,2026-03-10,23.32393,120.36989,2.1033746e-05
C1H9B1,阿眉,2026-03-10,24.1263,120.994672,1.6582327e-08
C0UA20,多加屯,2026-03-10,24.368614,121.373189,3.05582e-08
C0E730,頭份,2026-03-10,24.688247,120.912206,0.0011136926
72V140,高改旗南分場,2026-03-10,22.857861,120.516667,7.784323e-09
C0K480,莿桐,2026-03-10,23.761192,120.502372,1.4277201e-08
C0U980,坪林石牌,2026-03-10,24.86478,121.77396,2.772476e-08
C0T900,西林,2026-03-10,23.8119,121.441458,3.6012617e-07
C1I150,青雲,2026-03-10,23.793361,120.949378,7.036575e-09
C2E980,和興,2026-03-10,24.505319,120.923016,1.3048171e-07
467350,澎湖,2026-03-10,23.565503,119.563094,0.9980014
C0G800,埔鹽,2026-03-10,24.000394,120.431683,2.5343908e-05
C0H960,草屯,2026-03-10,23.973672,120.68085,2.0018973e-08
C1V780,多納林道,2026-03-10,22.888028,120.737917,9.194524e-09
C0E920,通霄漁港,2026-03-10,24.498589,120.673876,0.0014717481
C0Z330,安通山,2026-03-10,23.290728,121.348528,2.7767265e-07
C0AH10,永和,2026-03-10,25.01125,121.508111,1.8129278e-07
C0AK10,太平里,2026-03-10,25.134937,121.364899,2.2419934e-07
C2G640,鹿港,2026-03-10,24.0753,120.430481,3.638532e-05
C1E890,國三N149K,2026-03-10,24.463414,120.680019,0.0002119654
C1R110,口社,2026-03-10,22.770111,120.645222,3.2689549e-09
C1M870,國三N285K,2026-03-10,23.550319,120.505833,5.480027e-09
C1E480,鳳美,2026-03-10,24.554803,121.034747,1.4786714e-07
C0T9M0,靜浦,2026-03-10,23.455167,121.495028,0.12778626
C2H9M0,發祥,2026-03-10,24.154094,121.164517,1.542621e-08
C2G9C0,埔南,2026-03-10,23.99124,120.46969,2.5343908e-05
C0AI40,石牌,2026-03-10,25.115597,121.513139,1.8649082e-07
C1F871,上谷關,2026-03-10,24.203483,121.018644,1.7048897e-08
C2H9G0,百勝,2026-03-10,24.051142,120.909361,9.65644e-09
C0G880,二水,2026-03-10,23.810742,120.6173,8.023661e-09
C0R940,加祿堂,2026-03-10,22.3363,120.6217,2.0624393e-07
C0W220,北竿,2026-03-10,26.220358,119.974881,2.7379222e-06
C0O960,崎頂,2026-03-10,22.959547,120.369317,8.5915167e-07
C0TA40,秀林,2026-03-10,24.302864,121.731144,6.509211e-08
C0S750,向陽,2026-03-10,23.248397,120.986133,2.1636424e-08
C0T9F0,水璉,2026-03-10,23.797131,121.542514,2.0894149e-07
C1M600,頭凍,2026-03-10,23.406364,120.603339,5.098311e-09
467660,臺東,2026-03-10,22.752211,121.154586,0.9998324
C1D380,新埔,2026-03-10,24.84745,121.03834,0.00018473135
C2G980,田頭村,2026-03-10,23.8263,120.444175,1.4775768e-08
C0V750,路竹,2026-03-10,22.854997,120.259439,0.00012135359
C0N050,蚵寮,2026-03-10,23.301,120.1104,3.2523963e-05
C2X060,下營,2026-03-10,23.226806,120.256291,3.8720693e-05
72M700,南改鹿草分場,2026-03-10,23.416869,120.283061,3.2037886e-05
C1SA50,利嘉林道,2026-03-10,22.82325,121.009389,3.1650114e-08
C0UB70,太平山中間站,2026-03-10,24.542003,121.513453,5.196668e-08
C0A940,金山,2026-03-10,25.223628,121.643967,0.0024531425
C1V340,大津,2026-03-10,22.888322,120.645986,4.7341633e-09
C0W180,七美,2026-03-10,23.219333,119.444892,0.99919355
C1F9C1,白冷,2026-03-10,24.182844,120.929889,8.75205e-09
K2E710,苗改生物防治研究中心,2026-03-10,24.422861,120.871833,3.2015673e-06
C0N040,蘆竹溝,2026-03-10,23.2344,120.0961,3.5031906e-05
C0TB40,崇德,2026-03-10,24.166144,121.657414,5.6447687e-05
C0D760,大坪苗圃,2026-03-10,24.5362,121.1108,3.2091677e-08
C2W230,畜試所澎湖,2026-03-10,23.628342,119.513206,0.99572706
C0R880,後壁湖,2026-03-10,21.9457,120.7457,0.07906658
C1I280,埔中,2026-03-10,23.820778,120.642594,5.644866e-09
467790,墾丁雷達站,2026-03-10,21.948235,120.808028,0.13069735
C0W190,望安,2026-03-10,23.380564,119.494075,0.99775994
C0Z170,卓溪,2026-03-10,23.3443,121.3029,4.5535035e-06
C0F850,東勢,2026-03-10,24.246428,120.833047,3.3274155e-08
466900,淡水,2026-03-10,25.164889,121.448906,0.0030425137
C0I370,魚池,2026-03-10,23.895703,120.94135,8.498534e-09
C0C630,大溪,2026-03-10,24.882853,121.265547,0.0005015272
C0A520,山佳,2026-03-10,24.974944,121.402008,1.643726e-07
C0I110,竹山,2026-03-10,23.761225,120.688156,2.89178e-08
82H840,茶改南部分場,2026-03-10,23.762528,120.7405,6.304009e-09
C2SD80,再來山,2026-03-10,23.34371,121.44122,0.00037968217
C0G660,溪湖,2026-03-10,23.94835,120.479122,2.9803768e-05
C1T800,洛韶,2026-03-10,24.204558,121.453956,4.4549186e-08
C1T810,慈恩,2026-03-10,24.192044,121.388386,3.3761616e-08
C1E451,象鼻,2026-03-10,24.368617,120.940228,4.6759506e-08
C0AC60,三峽,2026-03-10,24.939025,121.369728,0.029131195
C0I490,萬大林道,2026-03-10,23.928228,121.091411,1.3526177e-08
C1I290,豐丘,2026-03-10,23.668178,120.887417,1.0667381e-08
C1I320,奧萬大,2026-03-10,23.952956,121.178556,2.101166e-08
C2M910,嘉義大學,2026-03-10,23.471325,120.485903,6.856812e-09
C0U770,南澳,2026-03-10,24.44935,121.81022,0.2394619
C2TB30,吉安,2026-03-10,23.94538,121.54803,6.2640925e-07
C0A980,社子,2026-03-10,25.109508,121.469681,2.3294663e-07
C0V800,六龜,2026-03-10,22.997889,120.633583,3.6466645e-09
C1G9D0,國一S218K,2026-03-10,23.890641,120.493253,2.606449e-05
C0E570,白沙屯,2026-03-10,24.549447,120.696803,0.00044010987
C2F9A0,中竹林,2026-03-10,24.103556,120.751061,5.33785e-09
C0FA40,臺中電廠,2026-03-10,24.2146,120.4907,5.1402887e-05
C2G9A0,畜試所彰化,2026-03-10,23.86045,120.557964,1.3585878e-08
C0H9C0,合歡山,2026-03-10,24.143442,121.272547,4.4493223e-08
G2M350,農試溪口農場,2026-03-10,23.58565,120.408111,1.0633578e-08
C0U860,頭城,2026-03-10,24.85323,121.8308,5.3332833e-08
C0R580,南州,2026-03-10,22.48591,120.50274,1.3819787e-06
C0D430,峨眉,2026-03-10,24.6905,121.017189,0.00018652467
C0G780,秀水,2026-03-10,24.03405,120.503869,1.674927e-05
72N100,臺南農改場,2026-03-10,23.0605,120.342194,3.3617857e-06
C0S900,蘭嶼高中,2026-03-10,22.04909,121.51214,0.23470116
C2TA60,六十石,2026-03-10,23.22477,121.31861,7.554274e-08
C1F9W0,德基,2026-03-10,24.254783,121.190261,3.1491624e-08
C2M980,安和,2026-03-10,23.51377,120.31593,2.9237504e-05
C1Z120,壽豐,2026-03-10,23.870853,121.508081,1.1513054e-06
C0W160,烏坵,2026-03-10,24.9944,119.44956,0.09698734
C1I240,外大坪,2026-03-10,23.958697,120.917931,8.258111e-09
C1I550,國六W023K,2026-03-10,23.979067,120.867742,5.6161595e-09
C0R870,興海,2026-03-10,21.9752,120.8439,0.11161868
C0R140,瑪家,2026-03-10,22.682903,120.686639,6.9866405e-07
C0A530,坪林,2026-03-10,24.938183,121.70975,3.2515828e-07
C0X260,後壁,2026-03-10,23.366358,120.362326,1.817788e-05
C0Z230,和平,2026-03-10,24.30717,121.77007,3.1429623e-05
C0G770,福興,2026-03-10,24.041289,120.437669,2.5343908e-05
C0H9A0,神木村,2026-03-10,23.532742,120.843667,1.04840066e-08
C0I460,南投,2026-03-10,23.911469,120.687331,2.1357002e-08
C0I480,梅峰,2026-03-10,24.085272,121.173572,2.1345679e-08
C1V570,吉東,2026-03-10,22.85422,120.5454,4.5610142e-09
C2A560,福山,2026-03-10,24.776203,121.502811,3.3659612e-07
C0AH30,五分山,2026-03-10,25.07125,121.780794,6.397987e-08
C0FA10,松柏,2026-03-10,24.429115,120.617482,0.0008134457
72S200,東改班鳩分場,2026-03-10,22.829528,121.077694,1.5043258e-05
72HA00,中改埔里分場,2026-03-10,23.903208,120.963364,8.558103e-09
C2H9W0,大坪頂農水,2026-03-10,24.043122,120.932781,9.0432275e-09
C0C650,平鎮,2026-03-10,24.897503,121.214636,0.0004286158
C0S930,延平,2026-03-10,22.902581,121.084058,9.080519e-06
C0UA60,樟樹山,2026-03-10,24.41393,121.78325,1.681918e-07
C2UC10,出水溪,2026-03-10,24.615822,121.652253,1.6575851e-07
C1S670,摩天,2026-03-10,23.199503,121.027,4.17014e-08
C2C590,觀音,2026-03-10,25.027072,121.153317,0.016989673
C0V630,茄萣,2026-03-10,22.906642,120.182608,6.9127354e-06
466940,基隆,2026-03-10,25.133314,121.740475,9.065714e-06
C0X050,東河,2026-03-10,23.296598,120.385608,2.54484e-07
C0R770,保力,2026-03-10,22.071122,120.764111,0.22668242
G2L020,農試嘉義分所,2026-03-10,23.485028,120.473806,6.7400214e-09
C0X240,關子嶺,2026-03-10,23.331169,120.508025,5.1711657e-09
C0I380,集集,2026-03-10,23.828206,120.801467,1.1706622e-08
466990,花蓮,2026-03-10,23.975128,121.613275,3.3553344e-05
C1V220,小關山,2026-03-10,23.154217,120.813603,1.28495605e-08
C1F9G1,慶福山,2026-03-10,24.180853,120.848378,1.5929222e-08
C0FB20,雪山橋,2026-03-10,24.23192,120.9786,2.0526727e-08
C0Z250,瑞穗林道,2026-03-10,23.49284,121.30688,5.2831872e-08
C0D590,新豐,2026-03-10,24.87068,120.97721,0.00014200942
C0A870,五指山,2026-03-10,25.132153,121.608692,4.426101e-07
C0UA50,西帽山,2026-03-10,24.555361,121.802628,7.9668744e-08
C2R980,竹田國中,2026-03-10,22.61532,120.52412,1.4811415e-06
C0X160,仁德,2026-03-10,22.968258,120.257689,5.973586e-06
C1H971,六分寮,2026-03-10,23.92507,120.6378,4.963632e-09
C0W120,西嶼,2026-03-10,23.5626,119.468436,0.9977852
C0G650,員林,2026-03-10,23.946503,120.585597,2.0749383e-05
C0AD50,鶯歌,2026-03-10,24.951533,121.346294,0.017502636
C2H9Q0,北東眼山,2026-03-10,24.120939,121.189303,2.5170122e-08
C2H9T0,名間竹圍,2026-03-10,23.859914,120.637572,1.0148722e-08
C0S990,山豬窟,2026-03-10,22.318619,120.857372,0.9715261
C0X190,安平,2026-03-10,22.993161,120.152181,6.6042817e-06
C0K400,斗六,2026-03-10,23.720583,120.541127,1.3681522e-08
12J990,口湖工作站,2026-03-10,23.589978,120.180394,6.2913736e-05
C0O830,北寮,2026-03-10,23.079561,120.495008,6.047527e-09
C1D410,白蘭,2026-03-10,24.579364,121.079947,3.236226e-08
C0S970,加津林,2026-03-10,22.416211,120.926942,3.9334147e-05
C0D700,關西,2026-03-10,24.7977,121.1732,3.0707831e-06
C0U750,龜山島,2026-03-10,24.841667,121.953133,2.6170522e-07
C0R810,內獅,2026-03-10,22.305064,120.642986,0.14835227
C1M390,龍美,2026-03-10,23.406728,120.654417,7.795437e-09
C2K290,崙內,2026-03-10,23.69525,120.35601,0.00070856046
C2FB60,頭櫃山,2026-03-10,24.129842,120.858925,1.7371368e-08
C1H840,國三N238K,2026-03-10,23.841008,120.707711,1.0604452e-08
CAQ030,崎峰國小,2026-03-10,22.42565,120.49521,1.3819787e-06
C2E520,大湖,2026-03-10,24.414939,120.870872,2.401103e-06
467530,阿里山,2026-03-10,23.508208,120.813242,2.2060009e-08
C1E691,南湖,2026-03-10,24.40135,120.837533,1.1770605e-07
C0FA30,梧棲,2026-03-10,24.256003,120.523381,4.445675e-05
C1V231,高中,2026-03-10,23.134911,120.716711,1.5505917e-08
C0AK30,硬漢嶺,2026-03-10,25.136097,121.426372,7.782565e-07
C0F9V0,新社,2026-03-10,24.200172,120.815806,2.1945942e-08
C0H890,埔里,2026-03-10,23.972169,120.952425,1.227719e-08
C0R690,墾丁,2026-03-10,21.966756,120.810269,0.9798625
C0SD20,富山,2026-03-10,22.822383,121.190825,0.072999686
C0F0D0,審馬陣,2026-03-10,24.381675,121.4203,3.529115e-08
C2W030,金門農試所,2026-03-10,24.448431,118.451786,0.011654451
C0R820,白鷺,2026-03-10,22.454275,120.666219,4.954203e-05
C0FB00,大雪山,2026-03-10,24.254668,121.007374,2.2415396e-08
C1V190,南天池,2026-03-10,23.27403,120.91176,2.3352824e-08
C0E940,雪見,2026-03-10,24.42595,121.01347,3.579655e-08
K2E360,苗栗農改場,2026-03-10,24.495722,120.829111,4.752653e-05
CAJ050,海口故事園區,2026-03-10,23.57543,120.14121,6.2913736e-05
C2K280,四湖,2026-03-10,23.6304,120.22717,0.0026701512
C2H9D0,三隻寮,2026-03-10,24.093078,120.861578,4.747863e-09
C0O990,媽廟,2026-03-10,22.99175,120.293525,5.71808e-06
C0D480,打鐵坑,2026-03-10,24.849664,121.150789,9.819796e-07
C0Z220,和平林道,2026-03-10,24.343922,121.656317,1.3431229e-07
C0TA10,花蓮漁港,2026-03-10,23.995322,121.638331,0.99933743
72C440,桃園農改場,2026-03-10,24.950944,121.030583,0.0006104157
C1E711,馬拉邦山,2026-03-10,24.367306,120.901656,4.1808043e-08
C0SB20,富岡,2026-03-10,22.792467,121.192669,0.02934949
C0D560,竹東,2026-03-10,24.767147,121.057881,7.722295e-05
C0F9U0,南屯,2026-03-10,24.137006,120.637969,3.6530474e-07
C2SD60,明峰,2026-03-10,22.8671,121.11825,5.1623465e-06
C0M720,番路,2026-03-10,23.464657,120.554156,3.6744876e-09
C0F0A0,雪山圈谷,2026-03-10,24.388594,121.236339,4.758663e-08
C1A9N0,四十份,2026-03-10,24.934158,121.593283,6.8886955e-08
C0U760,東澳,2026-03-10,24.52196,121.83318,0.0522122
C0X230,鹽水,2026-03-10,23.272621,120.247641,2.4035908e-05
C2H9H0,苗改南投蜂場,2026-03-10,23.852589,120.693481,3.3164227e-08
C2TB70,達谷寮,2026-03-10,23.38,121.35968,0.005513236
C0R950,萬隆國小,2026-03-10,22.507667,120.587817,3.244137e-07
467540,大武,2026-03-10,22.35572,120.90374,0.7023468
C0V370,古亭坑,2026-03-10,22.893178,120.401947,2.3553092e-08
C1I340,新興橋,2026-03-10,23.563333,120.868728,1.2077102e-08
C0SA80,土坂,2026-03-10,22.453108,120.887572,0.9939757
C0R160,鹽埔,2026-03-10,22.739558,120.530778,7.547099e-09
C0AC40,大屯山,2026-03-10,25.175675,121.522408,1.6094833e-07
466850,五分山雷達站,2026-03-10,25.071182,121.781205,6.200278e-08
C2H9L0,馬烈霸,2026-03-10,24.1512,121.201772,2.7974364e-08
C1AI50,國三N016K,2026-03-10,25.034164,121.619664,1.7201805e-07
C2V920,匏子寮,2026-03-10,23.04905,120.55319,3.2874252e-09
C1V600,藤枝,2026-03-10,23.071961,120.757042,8.532936e-09
C1E601,南勢,2026-03-10,24.572486,120.734842,3.0378998e-05
C0O980,新市,2026-03-10,23.061614,120.298197,5.5475957e-06
C0K420,西螺,2026-03-10,23.800407,120.467394,1.2998894e-08
C0Z050,佳心,2026-03-10,23.34567,121.21316,9.2866344e-08
C0AD30,蘆洲,2026-03-10,25.086594,121.472331,2.1322633e-07
C0V610,梓官,2026-03-10,22.760558,120.267211,0.00022427819
K2F750,種苗改良場,2026-03-10,24.225972,120.800917,2.4541936e-08
C0UA80,大溪漁港,2026-03-10,24.941801,121.902955,4.5670316e-08
C1AI60,國一39K邊坡,2026-03-10,25.064361,121.383836,1.1035264e-07
C0W150,金寧,2026-03-10,24.457703,118.328989,4.501346e-06
C0R960,內埔,2026-03-10,22.608483,120.570714,1.1136998e-06
C2H9S0,龍南,2026-03-10,23.953536,120.833183,5.8628506e-09
C0AH40,平等,2026-03-10,25.129142,121.577086,2.5773288e-06
C0R540,佳冬,2026-03-10,22.419456,120.552375,1.1250496e-06
466950,彭佳嶼,2026-03-10,25.627975,122.079744,0.44719052
C0A890,雙溪,2026-03-10,25.036003,121.864242,7.103664e-06
C0C480,桃園,2026-03-10,24.992425,121.323172,0.00585125
C0AH50,林口,2026-03-10,25.072181,121.38084,9.624063e-08
A2K360,水試臺西試驗場,2026-03-10,23.717231,120.190522,0.0023400835
C2M960,外寮,2026-03-10,23.562643,120.665688,9.0693275e-09
C0F9S0,烏日,2026-03-10,24.107058,120.624103,2.1716382e-05
C2N180,鹿陶洋,2026-03-10,23.14325,120.48352,6.914325e-08
C0C490,八德,2026-03-10,24.928708,121.283289,0.0013561577
C0R190,赤山,2026-03-10,22.592333,120.614306,9.872276e-07
C0T820,天祥,2026-03-10,24.179597,121.495639,2.4023805e-07
C1F9E1,龍安,2026-03-10,24.1605,120.831961,2.0704812e-08
C2SD50,順那,2026-03-10,23.04166,121.29332,0.00018804254
C0V820,小林,2026-03-10,23.148408,120.63325,3.8487524e-09
C2G870,芳苑,2026-03-10,23.922303,120.320025,0.03358084
C0E850,大河,2026-03-10,24.618069,120.948578,0.00024691955
C1U670,寒溪,2026-03-10,24.634,121.71691,4.7913044e-08
C0N020,城西,2026-03-10,23.0568,120.0956,9.285161e-06
C1Z110,三棧,2026-03-10,24.11557,121.60501,1.1701771e-07
C0R280,檳榔,2026-03-10,22.076078,120.836777,0.9803837
C2H9J0,中台,2026-03-10,23.9996,120.938739,1.018887e-08
C0F9L0,后里,2026-03-10,24.310436,120.729725,6.329638e-08
467441,高雄,2026-03-10,22.730432,120.312516,0.00010944773
C0Z180,新城,2026-03-10,24.040486,121.604878,2.5135201e-05
C0D540,橫山,2026-03-10,24.71116,121.11693,1.527906e-05
C1D420,太閣南,2026-03-10,24.632808,121.160575,5.5997543e-08
C1E770,公館,2026-03-10,24.526914,120.830806,6.479029e-05
CAN130,水試所海水繁養殖中心,2026-03-10,23.120802,120.07968,1.0902268e-05
C1I430,翠華,2026-03-10,24.191961,121.224339,3.517033e-08
C1M400,菜瓜坪,2026-03-10,23.251928,120.576103,4.085816e-09
C0G730,二林,2026-03-10,23.903325,120.376081,3.7523918e-05
72M360,南改義竹分場,2026-03-10,23.360694,120.279361,1.4598619e-05
V2K620,麥寮合作社,2026-03-10,23.753836,120.294783,0.00076732354
C0Z070,舞鶴,2026-03-10,23.46811,121.37407,0.00020012907
C0B040,大武崙,2026-03-10,25.166676,121.706993,0.0018581729
C1Z030,紅葉,2026-03-10,23.493119,121.338806,0.00075700367
C1I050,丹大,2026-03-10,23.753747,121.141147,2.5791058e-08
C0I080,信義,2026-03-10,23.689694,120.851036,6.0826597e-09
C2TB80,庄子底,2026-03-10,23.71794,121.49438,7.749489e-07
C0D750,樂山林道6k,2026-03-10,24.49999,121.08773,3.0370288e-08
C2M920,朴子農改,2026-03-10,23.469889,120.259383,3.7290687e-05
C2A880,福隆,2026-03-10,25.017842,121.942083,7.100708e-05
C0Z160,鳳林,2026-03-10,23.746114,121.453411,6.693207e-07
C0UB80,翠峰林道6K,2026-03-10,24.49773,121.568625,3.881923e-08
C0V210,復興,2026-03-10,23.222403,120.806089,1.25047785e-08
C0H990,昆陽,2026-03-10,24.121322,121.273642,3.528644e-08
C0R741,獅子,2026-03-10,22.202308,120.705236,0.40630707
C0S710,鹿野,2026-03-10,22.917711,121.122994,1.0951878e-06
C0I530,小奇萊,2026-03-10,24.131764,121.295717,3.989549e-08
C0FA70,大雪山埡口,2026-03-10,24.26867,121.03062,3.8138822e-08
C2K630,荷苞,2026-03-10,23.657717,120.595144,6.031814e-09
C0Z080,富源,2026-03-10,23.587642,121.378225,2.542525e-05
C2M9E0,旺來山,2026-03-10,23.555153,120.486463,5.3361706e-09
C0SB10,美和,2026-03-10,22.682078,121.060236,0.50522995
C2K620,馬光農場,2026-03-10,23.721453,120.378864,1.847868e-08
C1I140,卡奈托灣,2026-03-10,23.754364,121.087872,1.346476e-08
C0I520,玉山風口,2026-03-10,23.470489,120.955994,4.2969052e-08
C1G691,下水埔,2026-03-10,23.816114,120.5676,1.2053077e-08
C0X110,臺南市南區,2026-03-10,22.961189,120.188378,7.856198e-06
C0V680,仁武,2026-03-10,22.701083,120.347722,0.00010944773
C2G840,北斗,2026-03-10,23.877586,120.514222,2.2118158e-05
C2TB90,長橋,2026-03-10,23.6874,121.46186,6.1427824e-07
C0R900,竹坑,2026-03-10,22.1385,120.7022,0.20768808
C0G860,社頭,2026-03-10,23.897647,120.5862,2.5251848e-05
C0X150,安定,2026-03-10,23.102614,120.227839,5.1247966e-06
C0R590,里港,2026-03-10,22.77919,120.49459,1.0766313e-08
C0E610,馬都安,2026-03-10,24.451272,120.930192,6.1163306e-08
C0E550,明德,2026-03-10,24.583486,120.885411,0.00011940008
C0R150,三地門,2026-03-10,22.709889,120.639944,4.094702e-09
C0G910,花壇,2026-03-10,24.032076,120.549461,1.3501813e-05
C1D400,鳥嘴山,2026-03-10,24.71909,121.28387,6.9192986e-08
C0K500,元長,2026-03-10,23.64981,120.315024,0.00086691964
C0F0B0,石岡,2026-03-10,24.276061,120.777644,4.945896e-08
C2V250,甲仙,2026-03-10,23.080106,120.591758,2.5000304e-09
C0SA20,金崙山,2026-03-10,22.567419,120.959667,8.0406394e-08
C0V350,溪埔,2026-03-10,22.738578,120.446797,1.1286573e-08
C0M660,溪口,2026-03-10,23.604131,120.403569,1.0633578e-08
C1S880,壽卡,2026-03-10,22.238911,120.858903,0.8231397
72D680,桃改新埔分場,2026-03-10,24.834444,121.066111,0.00023207266
