站號,站名,日期,lat,lon,BLBTSLS
C1R120,上德文,2026-04-16,22.763272,120.704442,0.99958223
467290,古坑,2026-04-16,23.633639,120.551889,0.9991064
C0R700,枋山,2026-04-16,22.246844,120.661086,0.0018678834
C2K300,鹿南,2026-04-16,23.63855,120.3636,1.00880285e-07
C1R110,口社,2026-04-16,22.770111,120.645222,0.9997976
467290,古坑,2026-04-16,23.380729,120.336861,6.600611e-06
C0K500,元長,2026-04-16,23.64981,120.315024,3.744973e-07
