站號,站名,日期,lat,lon,BLBTSLS
C1O850,環湖,2026-02-19,23.148617,120.418633,5.320984e-10
C0S890,關山,2026-02-19,23.0395,121.175017,2.9455085e-09
C1R120,上德文,2026-02-19,22.763272,120.704442,4.4343731e-10
CAH030,茶改場竹圍站,2026-02-19,23.860083,120.637528,5.6017493e-09
V2K610,大庄合作社,2026-02-19,23.8068,120.367939,7.159918e-06
G2AI50,關渡,2026-02-19,25.11575,121.492,2.052195e-08
C1S800,華源,2026-02-19,22.657883,121.02325,3.6065472e-08
C0R550,新埤,2026-02-19,22.467947,120.582894,4.3091422e-08
C1O880,關山,2026-02-19,23.173397,120.594092,2.8424083e-10
V2C260,八德蔬果,2026-02-19,24.978508,121.281819,2.5577233e-07
C0R260,春日,2026-02-19,22.370361,120.628306,2.6622903e-08
C1I211,蘆竹湳,2026-02-19,23.934019,120.811994,5.2626653e-10
C1I260,北坑,2026-02-19,23.9246,121.006903,3.867065e-10
467290,古坑,2026-02-19,23.633639,120.551889,3.94206e-09
C0R700,枋山,2026-02-19,22.246844,120.661086,0.89033335
C0SA40,瑞和,2026-02-19,22.974361,121.156697,4.4448587e-09
C0R490,九如,2026-02-19,22.7405,120.490503,9.395587e-06
C0D430,峨眉,2026-02-19,24.6905,121.017189,3.8728223e-10
C1I240,外大坪,2026-02-19,23.958697,120.917931,5.3875787e-10
C1V570,吉東,2026-02-19,22.85422,120.5454,7.0794536e-06
C0D480,打鐵坑,2026-02-19,24.849664,121.150789,6.8349243e-10
V2C250,八德合作社,2026-02-19,24.93775,121.266389,1.9364995e-07
C0C480,桃園,2026-02-19,24.992425,121.323172,8.367459e-10
467290,古坑,2026-02-19,23.380729,120.336861,4.169293e-10
