站號,站名,日期,lat,lon,BLBTSLS
C1O850,環湖,2026-02-05,23.148617,120.418633,1.7778594e-09
C0S890,關山,2026-02-05,23.0395,121.175017,3.1549983e-09
C1R120,上德文,2026-02-05,22.763272,120.704442,8.7196533e-10
CAH030,茶改場竹圍站,2026-02-05,23.860083,120.637528,6.82992e-10
V2K610,大庄合作社,2026-02-05,23.8068,120.367939,9.442339e-10
G2AI50,關渡,2026-02-05,25.11575,121.492,3.6204812e-09
C1S800,華源,2026-02-05,22.657883,121.02325,4.853461e-09
C0R550,新埤,2026-02-05,22.467947,120.582894,6.724532e-10
C1O880,關山,2026-02-05,23.173397,120.594092,3.9398176e-10
V2C260,八德蔬果,2026-02-05,24.978508,121.281819,5.198073e-09
C0R260,春日,2026-02-05,22.370361,120.628306,5.7420196e-10
C1I211,蘆竹湳,2026-02-05,23.934019,120.811994,4.5499332e-10
C1I260,北坑,2026-02-05,23.9246,121.006903,6.300388e-10
467290,古坑,2026-02-05,23.633639,120.551889,8.9201707e-10
C0SA40,瑞和,2026-02-05,22.974361,121.156697,2.9704001e-09
C0R490,九如,2026-02-05,22.7405,120.490503,8.72596e-06
C0D430,峨眉,2026-02-05,24.6905,121.017189,2.1018784e-09
C1I240,外大坪,2026-02-05,23.958697,120.917931,6.4525535e-10
C1V570,吉東,2026-02-05,22.85422,120.5454,2.0279928e-07
C0D480,打鐵坑,2026-02-05,24.849664,121.150789,3.5296583e-09
V2C250,八德合作社,2026-02-05,24.93775,121.266389,3.3425975e-09
C0C480,桃園,2026-02-05,24.992425,121.323172,5.198073e-09
