站號,站名,日期,lat,lon,BLBTSLS
C0R710,龍磐,2026-03-24,21.931672,120.838942,0.99604875
C1F9D1,白毛台,2026-03-24,24.158325,120.886933,1.8108658e-08
C0G940,竹塘,2026-03-24,23.848253,120.386764,0.071731165
467590,恆春,2026-03-24,22.003897,120.746339,0.9984661
C1O850,環湖,2026-03-24,23.148617,120.418633,0.047614653
C0U710,太平山,2026-03-24,24.505486,121.525656,1.0806328e-08
C0E820,獅潭,2026-03-24,24.539133,120.920042,5.238123e-09
C2SD70,二層坪,2026-03-24,22.94105,121.16838,2.2041346e-05
C0V880,興達,2026-03-24,22.8778,120.2127,0.997559
C0S890,關山,2026-03-24,23.0395,121.175017,3.8340895e-06
C0SB30,新蘭,2026-03-24,22.869214,121.223228,0.029336868
C2R970,屏科大,2026-03-24,22.648275,120.619247,0.9763954
C1Z130,銅門,2026-03-24,23.965694,121.492842,1.2292226e-07
C0AD40,土城,2026-03-24,24.973208,121.445169,4.0227017e-09
CAN140,六官養殖協會,2026-03-24,23.22881,120.29962,0.82229656
C0X180,山上,2026-03-24,23.0757,120.363253,0.9736468
C0F9Z0,雪山東峰,2026-03-24,24.388792,121.268675,4.860699e-08
C1M480,獨立山,2026-03-24,23.537022,120.607797,4.475911e-09
C0X220,學甲,2026-03-24,23.230367,120.182187,0.09099001
467650,日月潭,2026-03-24,23.881325,120.90805,6.048069e-09
A2K570,古坑(花卉中心),2026-03-24,23.633531,120.552392,0.6240056
C0K600,箔子寮,2026-03-24,23.6197,120.14,1.1495914e-05
C0G830,埤頭,2026-03-24,23.866003,120.452806,0.10901179
C0S950,七塊厝,2026-03-24,22.954453,121.229922,5.1898333e-08
467110,金門,2026-03-24,24.407306,118.289281,3.0391887e-09
C0AH80,深坑,2026-03-24,25.002703,121.628328,9.3433184e-05
C0A970,三貂角,2026-03-24,25.007606,122.002058,0.7442752
C2D730,寶山農場,2026-03-24,24.732444,120.976153,1.0260618e-08
C0K430,褒忠,2026-03-24,23.690938,120.303634,7.8033064e-09
467480,嘉義,2026-03-24,23.495925,120.432906,0.021358216
C0V400,阿公店,2026-03-24,22.804194,120.355528,0.96575487
C0E960,觀霧分站,2026-03-24,24.505781,121.113921,2.3580377e-08
467550,玉山,2026-03-24,23.48718,120.95943,2.7624152e-08
C0R440,大漢山,2026-03-24,22.405264,120.753181,9.51219e-09
C0SD30,東清國小,2026-03-24,22.057128,121.564922,0.999976
C1F9B1,桐林,2026-03-24,24.066172,120.735194,0.9718285
C2H9U0,鳳鵬,2026-03-24,23.763919,120.788061,0.004893366
C0K390,土庫,2026-03-24,23.679029,120.395574,0.15760371
C1I450,望鄉山,2026-03-24,23.594153,120.944286,1.6746078e-08
C0E910,海埔,2026-03-24,24.648767,120.772435,3.8098324e-08
B2E890,畜試北區分所,2026-03-24,24.527806,120.770972,1.026937e-08
C0R750,四林格山,2026-03-24,22.076989,120.802439,0.9998941
C0F0C0,中坑,2026-03-24,24.248517,120.903319,2.1017192e-08
C1I121,大鞍,2026-03-24,23.678381,120.760017,4.606564e-09
C2G9E0,移民庄,2026-03-24,23.9784,120.40283,0.0074902917
72U480,花改蘭陽分場,2026-03-24,24.686306,121.716583,9.29645e-09
C0A770,科教館,2026-03-24,25.096356,121.516507,2.293715e-09
C0AJ60,六塊厝,2026-03-24,25.24,121.4481,1.0328632e-05
C0R620,墾雷,2026-03-24,21.900836,120.855269,0.9970856
467420,永康,2026-03-24,23.038386,120.2367,0.99513805
C2M530,奮起湖,2026-03-24,23.493903,120.699253,3.488224e-09
C0I410,名間,2026-03-24,23.837053,120.701447,0.03710953
A2C560,農工中心,2026-03-24,24.985917,121.239833,1.846103e-08
C0V740,旗山,2026-03-24,22.888614,120.483597,0.8788069
C0Z061,玉里,2026-03-24,23.3215,121.339656,2.8951806e-07
C0S840,南田,2026-03-24,22.279725,120.889208,0.8847808
C1I470,杉林溪,2026-03-24,23.639517,120.786444,5.321981e-09
C1X040,東原,2026-03-24,23.291597,120.463822,0.00029504433
C0R660,枋寮,2026-03-24,22.367722,120.590647,0.88988924
C1R120,上德文,2026-03-24,22.763272,120.704442,2.5349735e-08
C0K450,大埤,2026-03-24,23.646074,120.431537,0.791538
C0UA00,土場,2026-03-24,24.576533,121.495333,1.6876486e-08
467080,宜蘭,2026-03-24,24.763975,121.756528,1.2254403e-08
C0N030,四草,2026-03-24,23.0235,120.1116,0.8712455
467410,臺南,2026-03-24,22.99328,120.20492,0.9916999
C0V650,彌陀,2026-03-24,22.783806,120.246361,0.9983838
C0D660,新竹市東區,2026-03-24,24.798681,120.986942,1.4660223e-08
82S580,茶改東部分場,2026-03-24,22.907694,121.130139,0.00020039621
C0SB40,興隆,2026-03-24,22.913661,121.257469,0.41637325
467050,新屋,2026-03-24,25.006725,121.047492,2.0004225e-07
C0C710,大溪永福,2026-03-24,24.892936,121.324975,1.4562626e-08
C0FA20,溫寮,2026-03-24,24.372177,120.583125,2.593782e-08
C0V640,湖內,2026-03-24,22.887139,120.2445,0.99752307
C0R910,下寮,2026-03-24,22.3929,120.5548,0.9959641
C0Z020,明里,2026-03-24,23.208717,121.262342,1.1078286e-07
C0M770,嘉義梅山,2026-03-24,23.585398,120.555587,0.0052870037
C0C660,楊梅,2026-03-24,24.912375,121.143047,9.765628e-09
C0SD40,牛頭山,2026-03-24,22.676661,121.506944,0.9999354
C1E511,新開,2026-03-24,24.347703,120.827019,1.2006843e-08
G2F820,農試所(霧峰),2026-03-24,24.031261,120.688133,0.98625416
C2M990,大巃頂,2026-03-24,23.5547,120.61439,2.200801e-09
C1I070,和社,2026-03-24,23.591131,120.888861,7.670687e-09
C2E990,新坪頂,2026-03-24,24.30201,120.8574,4.6500936e-09
C0TA80,立霧山,2026-03-24,24.183258,121.641899,1.2172613e-08
C2F000,大肚,2026-03-24,24.15295,120.572117,7.01103e-08
C1S850,豐南,2026-03-24,23.122139,121.262389,2.4269019e-08
C2M9B0,西興,2026-03-24,23.2428,120.57617,4.414731e-08
C2A920,富貴角,2026-03-24,25.263783,121.565258,1.5786642e-05
C0T960,光復,2026-03-24,23.660694,121.424964,2.3500994e-05
C0F9M0,豐原,2026-03-24,24.254322,120.720692,5.7665225e-08
C0R720,旭海,2026-03-24,22.205403,120.887614,0.9999005
C0V710,苓雅,2026-03-24,22.622742,120.330669,0.9971394
C0C740,觀音工業區,2026-03-24,25.064764,121.114856,2.463408e-06
CAC040,拉拉山,2026-03-24,24.699317,121.427133,1.0957029e-08
C0V790,萬山,2026-03-24,22.905944,120.688056,4.5609937e-05
U2HA30,臺大和社,2026-03-24,23.590856,120.888864,7.670687e-09
C2H9K0,屯原,2026-03-24,24.067969,121.209389,5.626721e-09
C0AJ90,澳底,2026-03-24,25.0552,121.9253,0.36219388
C0Z100,東華,2026-03-24,23.89525,121.549833,0.005872308
C0G970,三豐,2026-03-24,23.882,120.2895,1.0369787e-09
C0V900,汕尾,2026-03-24,22.4782,120.4151,0.9885139
C1R630,龍泉,2026-03-24,22.66701,120.59091,0.9842826
C1AC50,關渡,2026-03-24,25.133486,121.469331,7.619319e-08
C0C800,四稜,2026-03-24,24.64733,121.4293,4.9321307e-09
C0F9I0,神岡,2026-03-24,24.272481,120.658314,1.07916875e-07
C0K460,斗南,2026-03-24,23.678734,120.478359,0.7655684
C2O810,曾文,2026-03-24,23.219681,120.497328,0.0026661342
467280,後龍,2026-03-24,24.648563,120.831834,2.6263097e-08
C1F9J1,清水林,2026-03-24,24.071242,120.820419,8.5502904e-08
C2A650,火燒寮,2026-03-24,25.002719,121.742892,2.3788161e-07
466930,竹子湖,2026-03-24,25.162078,121.544547,1.3489952e-08
C1I220,樟湖,2026-03-24,23.905333,120.846983,8.347076e-09
C0I390,仁愛,2026-03-24,24.022122,121.132206,6.1396577e-09
C0Z300,東里,2026-03-24,23.26853,121.30547,2.1439736e-07
C1V590,新發,2026-03-24,23.057019,120.646064,3.2641638e-09
C0K510,水林,2026-03-24,23.572924,120.24597,0.026783468
72S590,東改賓朗果園,2026-03-24,22.813889,121.071278,2.7619832e-08
82A750,茶改北部分場,2026-03-24,24.955778,121.631222,1.0440723e-08
C1A750,石碇服務區,2026-03-24,25.00872,121.646242,0.00010663071
C0X300,鹿寮,2026-03-24,23.386047,120.477331,0.003045609
C0K590,雲林東勢,2026-03-24,23.674192,120.255721,7.540077e-09
C2K310,港尾布雞,2026-03-24,23.74834,120.38439,0.1079172
C0A570,桶後,2026-03-24,24.848222,121.597992,1.14400205e-08
C1S800,華源,2026-03-24,22.657883,121.02325,1.5912892e-06
C0G720,溪州,2026-03-24,23.851589,120.499093,0.09704167
C1V160,達卡努瓦,2026-03-24,23.279811,120.705319,3.5000736e-09
C2M410,馬頭山,2026-03-24,23.324361,120.582017,4.449628e-05
C0V850,蚵仔寮,2026-03-24,22.7256,120.2527,0.9984023
C0S740,池上,2026-03-24,23.119628,121.209469,2.9488473e-07
C1V390,尖山,2026-03-24,22.813153,120.367789,0.9533499
C0AH70,松山,2026-03-24,25.04871,121.55042,2.2721913e-09
C0N010,鯤鯓國小,2026-03-24,23.1879,120.0889,0.16855824
C0R550,新埤,2026-03-24,22.467947,120.582894,0.8562393
C0SA60,知本（水試所）,2026-03-24,22.702394,121.082761,0.0022866977
C0T9I0,豐濱,2026-03-24,23.583897,121.514806,0.06695386
C0UB00,淡江大學蘭陽校園,2026-03-24,24.823239,121.730383,7.3502266e-09
C0W240,九宮,2026-03-24,24.423753,118.240186,3.0669653e-09
C0T9N0,富里,2026-03-24,23.171639,121.249378,8.116078e-08
U2HA50,臺大竹山,2026-03-24,23.756972,120.681556,0.23532736
C0V840,鳳鼻頭,2026-03-24,22.5083,120.3591,0.987891
C0X140,西港,2026-03-24,23.125608,120.203108,0.707624
72D080,桃改五峰分場,2026-03-24,24.612194,121.157167,7.604913e-09
C2H9P0,伊拿谷,2026-03-24,23.963211,121.088264,7.780805e-09
C2K250,崙背,2026-03-24,23.75553,120.31893,7.1938446e-09
C2H9F0,柑林,2026-03-24,24.018658,120.847072,0.0017835592
C0TA20,加灣,2026-03-24,24.082025,121.608944,5.6631757e-06
C0V530,阿蓮,2026-03-24,22.883208,120.327508,0.9928257
C0FB30,八仙山苗圃,2026-03-24,24.192719,121.001366,2.820824e-08
C1O880,關山,2026-03-24,23.173397,120.594092,4.3707227e-05
C0E791,卓蘭,2026-03-24,24.3126,120.8244,1.0497392e-08
C1I030,武界,2026-03-24,23.913225,121.052483,9.667663e-09
C0R520,崁頂,2026-03-24,22.514781,120.506914,0.99481946
C0R341,牡丹,2026-03-24,22.130036,120.792639,0.99975973
C0R930,萬丹,2026-03-24,22.5885,120.4851,0.99651724
C0S760,紅石,2026-03-24,23.069131,121.126219,8.370847e-09
C2C410,中央大學,2026-03-24,24.967652,121.185165,1.7297868e-08
C1M610,石磐龍,2026-03-24,23.496606,120.663506,3.2202763e-09
C0C790,東眼山,2026-03-24,24.8284,121.40888,6.171887e-09
C0UA10,鴛鴦湖,2026-03-24,24.590269,121.412228,1.0622996e-08
C0R800,丹路,2026-03-24,22.204481,120.750989,0.99890876
C0G920,永靖,2026-03-24,23.924703,120.547533,0.0033485435
C2M950,太和,2026-03-24,23.538372,120.702961,3.4757912e-09
C1A630,下盆,2026-03-24,24.771003,121.538622,4.735852e-09
B2N890,畜產試驗所,2026-03-24,23.058972,120.336406,0.99049354
C0UA30,白嶺,2026-03-24,24.527819,121.519031,7.0809367e-09
467571,新竹,2026-03-24,24.828575,121.01455,1.9904295e-08
C1V580,溪南(特生中心),2026-03-24,23.084972,120.788475,3.864059e-09
C1T970,大農,2026-03-24,23.615233,121.413331,0.0085412655
C0R650,竹田,2026-03-24,22.58486,120.54344,0.99313724
C1H900,清流,2026-03-24,24.080775,120.962997,8.880909e-09
C1C510,水尾,2026-03-24,24.940081,121.087161,3.51423e-08
C2N170,茅港尾,2026-03-24,23.2061,120.2624,0.82229656
C0F9X0,大雅(中科園區),2026-03-24,24.21528,120.62445,8.04586e-07
C0SB60,白守蓮,2026-03-24,23.126769,121.401914,0.012281319
C0O970,虎頭埤,2026-03-24,23.021375,120.347878,0.9769649
C0C730,中大臨海站,2026-03-24,24.966126,121.008581,4.8499192e-08
C0X250,新營,2026-03-24,23.310689,120.316681,0.85714805
C0V700,三民,2026-03-24,22.645017,120.311233,0.99853224
C0U870,大礁溪,2026-03-24,24.791042,121.675047,7.3684605e-09
C0E870,高鐵苗栗,2026-03-24,24.60725,120.826094,2.8845635e-08
C0TA30,鹽寮,2026-03-24,23.845606,121.592664,0.011591456
C0M860,新美,2026-03-24,23.338017,120.683169,6.5906236e-09
C1E701,八卦,2026-03-24,24.491756,120.927619,7.4042164e-09
C2TA90,加納納,2026-03-24,23.466421,121.359867,0.0021763803
C0I420,國姓,2026-03-24,24.037803,120.855072,0.0010837726
C2D720,關西工作站,2026-03-24,24.757275,121.184792,1.1666856e-08
C0S960,香蘭,2026-03-24,22.587569,120.993375,2.1305452e-08
467620,蘭嶼,2026-03-24,22.0369,121.55843,0.9999657
C0R260,春日,2026-03-24,22.370361,120.628306,0.9926261
72G600,臺中農改場,2026-03-24,24.003028,120.534389,0.0076294374
C0Z210,瑞穗,2026-03-24,23.5239,121.39021,0.046414822
C0M820,達邦,2026-03-24,23.453994,120.749517,7.453171e-09
C0V860,南寮,2026-03-24,22.7616,120.2339,0.99843967
C0G740,大城,2026-03-24,23.852487,120.320935,1.0401064e-09
C0R920,塭仔,2026-03-24,22.4169,120.5197,0.99604595
C0R470,高樹,2026-03-24,22.826389,120.600806,0.9908117
C0R680,佳樂水,2026-03-24,21.993578,120.861633,0.99656147
C1O870,大棟山,2026-03-24,23.31157,120.52226,3.6136167e-09
C0D360,梅花,2026-03-24,24.678347,121.208558,2.8508527e-09
C0Z190,富世,2026-03-24,24.14743,121.6297,0.006151902
C0AI10,屈尺,2026-03-24,24.92184,121.54475,3.923622e-09
B2U990,畜試東區分所,2026-03-24,24.669039,121.832561,1.0248414e-08
C0SB80,長濱漁港,2026-03-24,23.313644,121.459994,0.073600315
C0TA50,和仁,2026-03-24,24.241394,121.712472,0.08896884
C0V910,大樹,2026-03-24,22.684645,120.432803,0.99290377
C1R610,西大武山,2026-03-24,22.617719,120.7322,7.881342e-09
C0G900,線西,2026-03-24,24.143358,120.443536,0.016674224
C0M700,竹崎,2026-03-24,23.526178,120.555508,0.0012193798
C2E880,三義,2026-03-24,24.405478,120.749819,3.7313845e-09
C0C720,竹圍,2026-03-24,25.112692,121.239824,1.4970564e-07
C0F9P0,清水,2026-03-24,24.312297,120.562242,0.000987959
C0Z150,吉安光華,2026-03-24,23.930925,121.595153,0.010257298
C0FA80,小雪山天池,2026-03-24,24.28025,121.02627,2.532615e-08
467300,東吉島,2026-03-24,23.25727,119.66762,0.9963839
C1D640,外坪(五指山),2026-03-24,24.644447,121.090961,4.5157162e-09
C2R9A0,高士國小,2026-03-24,22.12553,120.84653,0.99969345
C0F9O0,潭子,2026-03-24,24.213106,120.703933,1.5084181e-07
C2H9R0,卓社,2026-03-24,23.887894,121.000086,6.6722303e-09
72T250,花蓮農改場,2026-03-24,23.975222,121.563889,0.004978021
C0E780,銅鑼,2026-03-24,24.489681,120.790853,6.279288e-09
C1T950,太安,2026-03-24,23.666719,121.370128,6.9006196e-09
C0E830,苑裡,2026-03-24,24.439714,120.653053,2.2115998e-08
467270,田中,2026-03-24,23.873803,120.581286,0.04654172
C0SA10,檳榔四格山,2026-03-24,22.810031,121.109308,1.7573086e-08
C1T830,布洛灣,2026-03-24,24.17184,121.57127,2.9228497e-08
C0F970,大坑,2026-03-24,24.173142,120.722289,6.8259483e-06
C1U920,思源,2026-03-24,24.393125,121.347214,1.1066919e-08
C2H9Y0,松茗,2026-03-24,23.8167,120.650765,0.0012993377
C0A931,三和,2026-03-24,25.233153,121.595236,2.3221511e-07
C0I010,廬山,2026-03-24,24.033311,121.181808,3.4369945e-09
C2M940,日野賀,2026-03-24,23.434056,120.727169,4.188744e-09
C0R860,鼻頭,2026-03-24,22.1043,120.8979,0.8592855
C0UB20,壯圍,2026-03-24,24.7359,121.8163,1.167242e-08
C0R790,九棚,2026-03-24,22.14195,120.889281,0.9970555
C0W110,東莒,2026-03-24,25.9652,119.98069,1.3325892e-07
C1U930,粉鳥林,2026-03-24,24.497088,121.842479,0.90480536
C1I211,蘆竹湳,2026-03-24,23.934019,120.811994,2.4401945e-06
C0S830,長濱,2026-03-24,23.286817,121.411975,0.00028312844
C1F9F1,伯公龍,2026-03-24,24.272392,120.849047,5.1356133e-09
C0UB90,太平山莊,2026-03-24,24.494171,121.536209,1.0987731e-08
C0E810,西湖,2026-03-24,24.562947,120.7485,3.334792e-08
C1I440,新高口,2026-03-24,23.478744,120.878939,9.66357e-09
C0O840,王爺宮,2026-03-24,23.222064,120.40085,0.0051652216
C0T9G0,鳳林山,2026-03-24,23.735269,121.420131,2.0753207e-08
C0X080,佳里,2026-03-24,23.173039,120.145086,0.15949564
C0FB70,大甲溪埔,2026-03-24,24.370625,120.620067,1.8211914e-08
C0Z310,清水斷崖,2026-03-24,24.218294,121.689142,0.005632922
C0M680,太保,2026-03-24,23.455062,120.331455,0.15633546
C1S820,金峰,2026-03-24,22.590969,120.933236,2.6866685e-08
C0AD10,八里,2026-03-24,25.150211,121.403947,1.8011771e-05
C2K240,草嶺,2026-03-24,23.59555,120.693461,2.5820726e-09
C1SA70,都蘭,2026-03-24,22.87794,121.226881,0.02182962
C0K440,二崙,2026-03-24,23.772797,120.408944,0.0816632
C1A760,坪林交控,2026-03-24,24.94284,121.713442,1.8738363e-07
C0F9N0,大里,2026-03-24,24.092464,120.701378,0.984761
C0SA90,達仁林場,2026-03-24,22.264347,120.823972,0.5982669
C1R290,石門山,2026-03-24,22.112611,120.756597,0.99971485
42HA10,萬大發電廠,2026-03-24,23.978875,121.139639,5.9925385e-09
C0R890,山海,2026-03-24,21.9878,120.7091,0.99844885
C0T9A0,月眉山,2026-03-24,23.809928,121.539828,3.4888647e-08
C0AC70,信義,2026-03-24,25.037822,121.564597,2.2075277e-09
C0K560,棋山,2026-03-24,23.68645,120.603417,0.5594332
C2FB50,出雲,2026-03-24,24.206469,120.902794,1.1258385e-08
C1Z240,中平林道,2026-03-24,23.42115,121.26763,9.281851e-09
U2H480,溪頭,2026-03-24,23.670306,120.798194,4.204184e-09
C0M880,好美里,2026-03-24,23.3364,120.138,0.2726386
C0T9E0,大坑,2026-03-24,23.880628,121.581981,2.3455675e-08
C0K530,臺西,2026-03-24,23.701547,120.197559,7.638363e-09
C1E900,國一N128K,2026-03-24,24.560997,120.844186,1.1993155e-08
C0AJ50,水湳洞,2026-03-24,25.123695,121.862238,0.32645294
C0AI20,白沙灣,2026-03-24,25.283128,121.519058,0.00029915053
C2V310,美濃,2026-03-24,22.898792,120.51907,0.8973726
C0A860,大坪,2026-03-24,25.165914,121.632969,5.2075234e-07
C1U850,觀音海岸,2026-03-24,24.38319,121.77856,2.0316146e-07
C2K610,草嶺石壁,2026-03-24,23.602469,120.707731,2.6387106e-09
C0U950,鶯子嶺,2026-03-24,24.89754,121.79244,8.641411e-09
C0O900,善化,2026-03-24,23.112883,120.297219,0.9921193
C0K550,蔦松,2026-03-24,23.514319,120.229736,0.024623474
E2P980,林試六龜中心,2026-03-24,22.991703,120.645722,0.005596863
C0E590,通霄,2026-03-24,24.471892,120.704622,2.9262413e-08
C1I310,西巒,2026-03-24,23.754486,120.883956,4.3905866e-09
C0A550,泰平,2026-03-24,24.971197,121.823711,1.3668715e-08
C0I360,水里,2026-03-24,23.812553,120.849792,0.003188172
C0R830,高士,2026-03-24,22.121825,120.836781,0.99980813
C1I101,溪頭,2026-03-24,23.661789,120.807647,6.0945977e-09
C0AJ20,野柳,2026-03-24,25.20703,121.690021,3.705811e-06
C0B060,暖暖,2026-03-24,25.0957,121.7403,0.0034809802
C1H920,長豐,2026-03-24,24.102039,120.879897,1.16531345e-08
C2S9B0,利吉,2026-03-24,22.86246,121.15486,0.0009854519
C0V360,內門,2026-03-24,22.975481,120.466769,0.35704303
C0R850,林邊,2026-03-24,22.4634,120.5339,0.9962212
C0E930,龍鳳,2026-03-24,24.700034,120.859125,1.2697945e-08
C0U910,冬山,2026-03-24,24.63373,121.7937,1.0248414e-08
C1E721,泰安,2026-03-24,24.489017,120.968036,8.746676e-09
82H320,茶改中部分場,2026-03-24,23.875611,120.913583,7.0681314e-09
C0M750,布袋,2026-03-24,23.380878,120.167789,0.0008049611
C1S860,利嘉,2026-03-24,22.809417,121.050528,8.865694e-09
E2S980,林試太麻里1,2026-03-24,22.598922,120.980044,1.437137e-07
C0X170,關廟,2026-03-24,22.963017,120.327797,0.99113715
C0V720,林園,2026-03-24,22.507747,120.394511,0.98757637
C1I510,線浸林道,2026-03-24,23.761508,120.832956,6.155804e-09
C0D690,外湖,2026-03-24,24.917735,120.968711,7.323445e-08
C0C750,新興坑尾,2026-03-24,25.0061,121.0971,1.4785628e-07
B2Q810,畜試南區分所,2026-03-24,21.945583,120.802167,0.99656147
C0S790,金崙,2026-03-24,22.538122,120.966875,2.8532094e-08
C0AH90,福山植物園,2026-03-24,24.760717,121.58135,4.5351807e-09
C0I540,奇萊稜線,2026-03-24,24.109231,121.326456,2.0185992e-08
C0M850,表湖,2026-03-24,23.24186,120.64166,4.96671e-09
C0S770,大溪山,2026-03-24,22.478475,120.943325,0.0751731
C0AG80,中和,2026-03-24,24.991622,121.491792,4.0227017e-09
C0T790,大禹嶺,2026-03-24,24.186117,121.316086,2.641013e-08
C0T9B0,水源,2026-03-24,23.991861,121.537169,1.7716454e-08
C0R840,牡丹池山,2026-03-24,22.168389,120.841225,0.9992956
C1I131,桶頭,2026-03-24,23.641944,120.654117,0.002625125
CAL110,布袋國中,2026-03-24,23.35893,120.18026,0.2726386
C2M9D0,何竹子腳,2026-03-24,23.53641,120.38203,0.029982185
C0Z290,赤柯山,2026-03-24,23.36893,121.38293,1.2870066e-08
C0X280,將軍,2026-03-24,23.214999,120.13577,0.09366855
C0S690,太麻里,2026-03-24,22.60902,120.98533,6.6701435e-09
C0U880,北關,2026-03-24,24.9072,121.8734,0.0007235635
CAW010,東引,2026-03-24,26.3588,120.4836,2.800638e-07
C0G810,埔心,2026-03-24,23.947633,120.525456,0.0035431262
C0U970,大福,2026-03-24,24.80064,121.81389,1.2172265e-08
C2H9N0,仁愛東眼,2026-03-24,24.026875,121.1205,7.456925e-09
C1E670,南礦,2026-03-24,24.538278,121.002836,8.095928e-09
C0M520,東後寮,2026-03-24,23.369908,120.248065,0.6164101
C1E461,松安,2026-03-24,24.397972,120.986022,6.33164e-09
C2N160,西拉雅風管處,2026-03-24,23.189481,120.335297,0.6918385
C2M970,碧湖,2026-03-24,23.568632,120.624165,2.192125e-09
C0A640,石碇,2026-03-24,24.993969,121.662917,1.8738363e-07
E2S960,林試太麻里2,2026-03-24,22.598,120.99775,2.2054328e-08
C0F9Y0,桃山,2026-03-24,24.432739,121.303808,4.117455e-08
C1I020,萬大,2026-03-24,23.979817,121.132261,6.2005476e-09
C2UC20,長嶺,2026-03-24,24.70894,121.61162,4.861661e-09
C0U940,羅東,2026-03-24,24.68184,121.74934,9.195103e-09
C0M650,朴子,2026-03-24,23.43463,120.23902,0.073385164
C1I500,大尖山,2026-03-24,23.858572,120.994889,9.20565e-09
C0FB40,中橫21.6k,2026-03-24,24.2499,121.1455,8.210397e-09
C0G820,田尾,2026-03-24,23.901669,120.509389,0.0035431262
E2K600,四湖植物園,2026-03-24,23.676986,120.163433,7.648393e-09
C0S730,綠島,2026-03-24,22.6672,121.47533,0.99989474
12Q970,東港工作站,2026-03-24,22.479997,120.466058,0.9964204
C1TA00,太魯閣,2026-03-24,24.15773,121.6236,3.3524165e-07
466920,臺北,2026-03-24,25.037658,121.514853,2.2721958e-09
C0R600,舊泰武,2026-03-24,22.588194,120.664944,2.5077263e-05
C1I260,北坑,2026-03-24,23.9246,121.006903,3.8747032e-08
466910,鞍部,2026-03-24,25.182586,121.529731,5.3794103e-08
C1I230,九份二山,2026-03-24,23.961944,120.845,2.7963427e-08
C2M810,里佳,2026-03-24,23.389125,120.716647,4.20117e-09
C2A660,瑞芳,2026-03-24,25.113169,121.801147,0.0010481707
C0R270,琉球嶼,2026-03-24,22.332244,120.362236,0.941382
C2V580,瑞山,2026-03-24,22.90304,120.43424,0.31215426
C1T990,高寮,2026-03-24,23.394239,121.356808,0.029760368
C0G620,芬園,2026-03-24,24.015678,120.6213,0.00029646998
C1Z140,荖溪,2026-03-24,23.890575,121.45964,1.3561749e-08
C1I201,中心崙,2026-03-24,23.728722,120.712097,9.677645e-07
C1I400,凌霄,2026-03-24,24.018778,121.004456,7.519425e-09
C1M640,十字,2026-03-24,23.492153,120.753683,4.5996806e-09
G2P820,農試鳳山分所,2026-03-24,22.646611,120.356083,0.9969709
C0Z270,蕃薯寮,2026-03-24,23.73835,121.540108,1.0215065e-07
C2E420,竹南,2026-03-24,24.70898,120.88897,1.0750738e-08
C0FB10,出雲山苗圃,2026-03-24,24.23105,120.90475,2.1017192e-08
C0F9Q0,外埔,2026-03-24,24.347817,120.705686,3.9742497e-07
C0K580,高鐵雲林,2026-03-24,23.737456,120.417944,0.098304145
C2I090,鳳凰,2026-03-24,23.728081,120.787347,1.5806497e-08
C0U990,員山,2026-03-24,24.74435,121.72247,9.809761e-09
C0V770,大社,2026-03-24,22.730306,120.346639,0.99739903
C0X120,麻豆,2026-03-24,23.183289,120.248611,0.71460927
C0C670,龍潭,2026-03-24,24.870056,121.221389,8.71251e-09
C0D680,香山濕地,2026-03-24,24.783581,120.914988,7.323445e-08
C0S980,勝林山,2026-03-24,22.430439,120.8938,2.9893665e-09
C0V730,大寮,2026-03-24,22.605614,120.395717,0.9976401
C0R570,麟洛,2026-03-24,22.65078,120.52719,0.9969841
C2M930,石卓,2026-03-24,23.478744,120.702264,4.5359503e-09
C0G9B0,和美,2026-03-24,24.105169,120.492131,0.018911522
CAG100,王功漁港,2026-03-24,23.96824,120.32586,1.1545656e-08
C0X290,北門,2026-03-24,23.267772,120.125481,0.09333816
C2F930,大甲,2026-03-24,24.347667,120.640403,1.779e-05
C0D650,湖口,2026-03-24,24.904794,121.043628,3.3449847e-08
C0U780,五結,2026-03-24,24.68637,121.79794,1.0248414e-08
C1I250,鯉潭,2026-03-24,23.961922,120.991131,1.7141467e-08
C0R130,阿禮,2026-03-24,22.742908,120.743678,2.4356652e-09
C0X100,臺南市北區,2026-03-24,23.010394,120.194228,0.9925143
C0S920,金峰嘉蘭,2026-03-24,22.594789,120.960825,1.3113722e-08
C0V490,新興,2026-03-24,22.627422,120.298803,0.9986483
C0F9K0,大安,2026-03-24,24.345061,120.588025,0.00078477483
467290,古坑,2026-03-24,23.633639,120.551889,0.6240056
C2E970,八甲,2026-03-24,24.535811,120.795983,6.1943064e-09
C0V440,鳳山,2026-03-24,22.646653,120.356122,0.9969709
C1T940,大觀,2026-03-24,23.714206,121.373133,2.7932137e-08
C0E740,造橋,2026-03-24,24.637056,120.864778,1.0326527e-08
C0R100,尾寮山,2026-03-24,22.833111,120.683889,2.3782858e-09
A2K630,臺大雲林校區,2026-03-24,23.730628,120.423903,0.094262145
467990,馬祖,2026-03-24,26.169467,119.923158,1.2271191e-07
C0D580,寶山,2026-03-24,24.735006,121.025192,4.702037e-09
E2P990,林試扇平站,2026-03-24,22.9677,120.6857,5.911787e-09
C0AI30,三重,2026-03-24,25.057328,121.500629,2.293715e-09
C0AH00,汐止,2026-03-24,25.066881,121.658778,0.0020142116
C1Z040,立山,2026-03-24,23.443356,121.327375,6.0721663e-07
466881,新北,2026-03-24,24.959207,121.525196,3.9327626e-09
C0W130,花嶼,2026-03-24,23.40007,119.32276,0.99720144
C0A950,鼻頭角,2026-03-24,25.129036,121.923372,0.9911766
C0K470,林內,2026-03-24,23.748675,120.609642,0.6565818
C2F990,摩天嶺,2026-03-24,24.322458,120.936819,1.6486108e-08
C2E430,南庄,2026-03-24,24.601775,121.000214,4.0037182e-09
82C160,茶改場,2026-03-24,24.908472,121.185333,8.655218e-09
C2TB60,南安,2026-03-24,23.29818,121.26157,1.2899773e-07
C0Z320,清水林道,2026-03-24,23.27125,121.188272,1.589138e-08
C0R760,南仁湖,2026-03-24,22.084681,120.863353,0.9997251
C0M670,大林,2026-03-24,23.600616,120.45841,0.02798043
C0M800,茶山,2026-03-24,23.299075,120.664767,8.3398064e-08
C0A9C0,天母,2026-03-24,25.117494,121.537169,2.1932332e-09
72K220,南改斗南分場,2026-03-24,23.634556,120.477333,0.7305224
72AI40,桃改樹林分場,2026-03-24,24.944503,121.386972,3.8252086e-09
C0S910,蘭嶼燈塔,2026-03-24,22.081197,121.503117,0.9999694
C0B050,八斗子,2026-03-24,25.144754,121.79167,0.16321266
C0U900,內城,2026-03-24,24.71813,121.68766,8.640257e-09
C0X320,柳營,2026-03-24,23.253328,120.375253,0.036436323
C0M790,新港,2026-03-24,23.553269,120.345728,0.14510055
C0F9T0,西屯,2026-03-24,24.179494,120.641275,3.5992693e-05
C0E950,松安,2026-03-24,24.39792,120.98599,6.331628e-09
C0SA30,都歷,2026-03-24,23.020333,121.323642,0.3025823
C0C620,蘆竹,2026-03-24,25.084275,121.265767,1.2876357e-07
C0R730,大坪頂,2026-03-24,22.024633,120.69355,0.99526364
C0AJ40,石門,2026-03-24,25.273672,121.601198,3.036388e-05
C0E750,苗栗,2026-03-24,24.564569,120.824575,1.2923987e-08
C0T870,鯉魚潭,2026-03-24,23.935639,121.508944,6.400847e-05
C1V170,排雲,2026-03-24,23.463619,120.954147,2.3886793e-08
C2H950,中寮,2026-03-24,23.884447,120.766406,0.015668672
C0R350,貓鼻頭,2026-03-24,21.921774,120.7358,0.99851274
C0V660,岡山,2026-03-24,22.797078,120.294958,0.9983301
C1H941,雙冬,2026-03-24,23.967378,120.802189,4.380806e-07
C0AJ70,田寮,2026-03-24,25.2698,121.4886,0.00027762592
C0AI00,五股,2026-03-24,25.07445,121.42728,2.9175737e-09
C0Z280,德武,2026-03-24,23.47426,121.41071,0.005191515
C2RA10,大新,2026-03-24,22.67558,120.57788,0.9842826
C0R700,枋山,2026-03-24,22.246844,120.661086,0.9861949
C0C460,復興,2026-03-24,24.820208,121.352281,6.261038e-09
C2K300,鹿南,2026-03-24,23.63855,120.3636,1.4241518e-08
E2H360,蓮華池,2026-03-24,23.918333,120.885278,1.377479e-08
C0M640,中埔,2026-03-24,23.42538,120.5229,0.00062230026
C0W140,金沙,2026-03-24,24.488292,118.408778,3.826216e-09
C2A540,四堵,2026-03-24,24.8926,121.745736,1.1921769e-08
C0ACA0,新莊,2026-03-24,25.051478,121.446756,3.1320107e-09
C0R220,潮州,2026-03-24,22.534361,120.54,0.99417007
U2HA40,臺大內茅埔,2026-03-24,23.689722,120.851117,2.1141921e-05
467490,臺中,2026-03-24,24.145736,120.684075,0.00010530529
C0UB60,明池,2026-03-24,24.650688,121.475277,6.2739964e-09
C0U960,翠峰湖,2026-03-24,24.510856,121.608044,1.03704645e-08
E2HA20,林試畢祿溪站,2026-03-24,24.226944,121.308522,1.6619436e-08
C2M9A0,大華,2026-03-24,23.4824,120.67491,5.512494e-09
C0V890,前鎮,2026-03-24,22.5718,120.3117,0.9976916
C1F941,雪嶺,2026-03-24,24.280586,121.026642,2.532615e-08
C2H9E0,國姓南港,2026-03-24,23.911108,120.846556,8.154229e-09
C0AC80,文山,2026-03-24,25.00235,121.575728,6.2666654e-09
C0F9R0,龍井,2026-03-24,24.184536,120.528972,0.011725351
C0M760,民雄,2026-03-24,23.551754,120.428457,0.02798043
C0UA40,西德山,2026-03-24,24.560647,121.752608,2.279685e-08
C2TA70,赤科坪,2026-03-24,23.39885,121.39168,3.7076628e-08
C1T920,中興,2026-03-24,23.769503,121.498653,0.0015237863
C0D550,雪霸,2026-03-24,24.526972,121.11605,3.405946e-08
C2F860,梨山,2026-03-24,24.247522,121.243669,1.3880656e-08
C0R320,車城,2026-03-24,22.0744,120.716247,0.9822785
C1S870,南美山,2026-03-24,23.15025,121.382333,8.5958027e-07
C0B020,基隆嶼,2026-03-24,25.19141,121.78391,0.043604385
C1U501,牛鬥,2026-03-24,24.637836,121.573656,8.045791e-09
C0M730,嘉義市東區,2026-03-24,23.457673,120.460531,0.00874963
C2R990,泰武,2026-03-24,22.60686,120.69765,2.2818819e-08
C0S700,知本,2026-03-24,22.684866,121.005642,7.648452e-09
C1N001,沙崙,2026-03-24,22.935472,120.309406,0.9917976
C0V760,橋頭,2026-03-24,22.757806,120.30575,0.9974496
C0G960,福寶,2026-03-24,24.0443,120.3814,0.012552916
C0X210,白河,2026-03-24,23.347466,120.414427,0.07302028
C0S810,東河,2026-03-24,22.972672,121.303986,0.51039606
C2R170,屏東,2026-03-24,22.66027,120.49403,0.9969841
C0R670,楓港,2026-03-24,22.190131,120.692156,0.9746823
C0FA50,霧峰,2026-03-24,24.0419,120.6995,0.98185325
C0UB10,蘇澳,2026-03-24,24.5969,121.8571,0.7269061
C0G950,防潮門,2026-03-24,24.1835,120.4871,0.016395327
C0M740,六腳,2026-03-24,23.492871,120.290625,0.13894536
C1R250,力里,2026-03-24,22.428117,120.629228,0.6405636
C0K330,虎尾,2026-03-24,23.719183,120.442036,0.083948635
C2FA00,烏石坑,2026-03-24,24.273503,120.947617,1.73425e-08
C0V620,永安,2026-03-24,22.82315,120.236856,0.9983697
C1I330,楓樹林,2026-03-24,23.986803,121.076117,6.4711796e-09
C0W200,湖西,2026-03-24,23.596314,119.67275,0.9818875
72Q010,高雄農改場,2026-03-24,22.709333,120.525889,0.9954774
C0SA40,瑞和,2026-03-24,22.974361,121.156697,6.194868e-05
C0C680,龜山,2026-03-24,25.02846,121.38656,4.004474e-09
C2V260,月眉,2026-03-24,22.971003,120.539853,0.293454
C0V450,鳳森,2026-03-24,22.545064,120.392592,0.9830335
C0FA90,小雪山林道,2026-03-24,24.29515,121.03651,2.7378196e-08
C0U720,南山,2026-03-24,24.43742,121.38167,6.72442e-09
A2N290,臺南蘭花園區,2026-03-24,23.340258,120.379661,0.05936649
C0R560,新園,2026-03-24,22.5434,120.461558,0.98757637
C0U890,三星,2026-03-24,24.66812,121.65302,7.4986e-09
C1V300,御油山,2026-03-24,23.001983,120.715364,3.7561483e-09
C0U600,礁溪,2026-03-24,24.817539,121.765608,1.1350842e-08
C1T980,龍澗,2026-03-24,24.023289,121.411328,1.3141289e-08
C0D670,海天一線,2026-03-24,24.831986,120.914438,7.203006e-08
C0SA00,歷坵,2026-03-24,22.520969,120.89185,3.504973e-07
C0M710,東石,2026-03-24,23.458927,120.15385,0.0006947738
C0M780,鹿草,2026-03-24,23.41134,120.30835,0.056514118
C0U520,雙連埤,2026-03-24,24.753033,121.641303,7.2206094e-09
C0B010,七堵,2026-03-24,25.094819,121.71713,0.023947414
C0R480,長治,2026-03-24,22.693128,120.542622,0.98729753
C1V830,國三S383K,2026-03-24,22.781967,120.426475,0.9827125
12Q980,恆春工作站,2026-03-24,22.079678,120.714425,0.9822785
C1O940,東山服務區,2026-03-24,23.286016,120.398472,0.05263366
C1U840,東澳嶺,2026-03-24,24.5378,121.8485,5.997184e-08
C1D630,飛鳳山,2026-03-24,24.766464,121.119178,3.3828504e-09
C0S940,石寧山,2026-03-24,23.223772,121.406639,0.01892885
C0K410,北港,2026-03-24,23.573957,120.292802,0.024487073
C2M620,瑞里,2026-03-24,23.545133,120.675197,3.3324759e-09
C0SB70,小港漁港,2026-03-24,23.158558,121.400431,0.009600788
C2O950,安南,2026-03-24,23.076694,120.144861,0.8313899
C0F0E0,南湖圈谷,2026-03-24,24.363714,121.444667,4.9367635e-08
467610,成功,2026-03-24,23.097486,121.373428,0.011845706
C0G890,伸港,2026-03-24,24.148933,120.484403,0.012309468
C2E540,龍溪,2026-03-24,24.606489,120.783933,1.8913642e-08
C1V200,梅山,2026-03-24,23.268447,120.823556,3.2868235e-09
C0T9H0,加路蘭山,2026-03-24,23.682947,121.5274,1.6183682e-08
C2O930,玉井,2026-03-24,23.126042,120.46055,0.047614593
C1F911,新伯公,2026-03-24,24.221361,120.841069,7.1672615e-09
C0R490,九如,2026-03-24,22.7405,120.490503,0.9954774
C0X200,左鎮,2026-03-24,23.056758,120.408522,0.5062568
C2TB50,麻汝,2026-03-24,23.42554,121.39358,0.0013105988
C0FA60,鞍馬山工作站,2026-03-24,24.267064,121.000793,1.32013565e-08
C0SB50,叭嗡嗡,2026-03-24,23.047062,121.343223,0.020534217
C1F891,稍來,2026-03-24,24.265689,121.001142,1.2823021e-08
C2M9C0,紫雲,2026-03-24,23.494914,120.540253,0.003192726
72N240,七股研究中心,2026-03-24,23.081672,120.062894,0.8712455
C0C700,中壢,2026-03-24,24.977661,121.256375,1.1847102e-08
C0M690,水上,2026-03-24,23.419734,120.388909,0.014005661
C0V690,鼓山,2026-03-24,22.623325,120.275575,0.9986483
C0O860,大內,2026-03-24,23.11885,120.36083,0.9849754
C0Z200,萬榮,2026-03-24,23.709219,121.420106,9.108037e-06
C0T9D0,和中,2026-03-24,24.26676,121.74103,0.10634472
C2S9A0,北份子寮,2026-03-24,22.78561,121.07813,4.562754e-06
C1O921,楠西,2026-03-24,23.183511,120.484083,0.03271544
C0AJ30,淡水觀海,2026-03-24,25.184591,121.408616,2.3478256e-05
C0V810,左營,2026-03-24,22.67491,120.28491,0.99853224
C0UA70,桃源谷,2026-03-24,24.962606,121.888875,4.4364672e-08
C0X130,官田,2026-03-24,23.193217,120.315422,0.72496164
C1H000,翠峰,2026-03-24,24.109397,121.205211,9.771479e-09
C0UA90,石城,2026-03-24,24.980444,121.951214,0.9466299
C1E681,南勢山,2026-03-24,24.421669,120.923831,6.327161e-09
C0A9F0,內湖,2026-03-24,25.079422,121.57545,2.2075277e-09
C0K291,宜梧,2026-03-24,23.536281,120.169329,4.924768e-05
C1K540,口湖,2026-03-24,23.585344,120.180517,1.1495914e-05
C0R780,滿州,2026-03-24,22.024403,120.839892,0.8888842
C0V870,文安,2026-03-24,22.8025,120.2164,0.9984023
C0U650,玉蘭,2026-03-24,24.675286,121.587061,4.8476325e-09
C0R640,東港,2026-03-24,22.46247,120.44074,0.987891
C0AJ80,板橋,2026-03-24,25.0107,121.4489,4.0227017e-09
C0S660,下馬,2026-03-24,23.150427,121.070312,1.2853507e-08
C2N190,烏樹,2026-03-24,23.32393,120.36989,0.6303072
C1H9B1,阿眉,2026-03-24,24.1263,120.994672,8.031623e-09
C0UA20,多加屯,2026-03-24,24.368614,121.373189,2.6896371e-08
C0E730,頭份,2026-03-24,24.688247,120.912206,1.0882756e-08
72V140,高改旗南分場,2026-03-24,22.857861,120.516667,0.9874378
C0K480,莿桐,2026-03-24,23.761192,120.502372,0.62561846
C0U980,坪林石牌,2026-03-24,24.86478,121.77396,9.749511e-09
C0T900,西林,2026-03-24,23.8119,121.441458,3.9111155e-06
C1I150,青雲,2026-03-24,23.793361,120.949378,8.335149e-05
C2E980,和興,2026-03-24,24.505319,120.923016,1.1321738e-08
467350,澎湖,2026-03-24,23.565503,119.563094,0.9951926
C0G800,埔鹽,2026-03-24,24.000394,120.431683,0.009147754
C0H960,草屯,2026-03-24,23.973672,120.68085,0.056344617
C1V780,多納林道,2026-03-24,22.888028,120.737917,1.8015116e-09
C0E920,通霄漁港,2026-03-24,24.498589,120.673876,4.8265996e-08
C0Z330,安通山,2026-03-24,23.290728,121.348528,1.7090768e-08
C0AH10,永和,2026-03-24,25.01125,121.508111,4.093882e-09
C0AK10,太平里,2026-03-24,25.134937,121.364899,6.496237e-08
C2G640,鹿港,2026-03-24,24.0753,120.430481,0.02522144
C1E890,國三N149K,2026-03-24,24.463414,120.680019,2.548718e-08
C1R110,口社,2026-03-24,22.770111,120.645222,0.9224776
C1M870,國三N285K,2026-03-24,23.550319,120.505833,0.0021304039
C1E480,鳳美,2026-03-24,24.554803,121.034747,2.2050543e-08
C0T9M0,靜浦,2026-03-24,23.455167,121.495028,0.099336535
C2H9M0,發祥,2026-03-24,24.154094,121.164517,1.3949636e-08
C2G9C0,埔南,2026-03-24,23.99124,120.46969,0.009147754
C0AI40,石牌,2026-03-24,25.115597,121.513139,2.2075277e-09
C1F871,上谷關,2026-03-24,24.203483,121.018644,1.73425e-08
C2H9G0,百勝,2026-03-24,24.051142,120.909361,9.782092e-08
C0G880,二水,2026-03-24,23.810742,120.6173,0.05175224
C0R940,加祿堂,2026-03-24,22.3363,120.6217,0.9976068
C0W220,北竿,2026-03-24,26.220358,119.974881,1.4609803e-07
C0O960,崎頂,2026-03-24,22.959547,120.369317,0.987427
C0TA40,秀林,2026-03-24,24.302864,121.731144,2.7524644e-08
C0S750,向陽,2026-03-24,23.248397,120.986133,9.887322e-09
C0T9F0,水璉,2026-03-24,23.797131,121.542514,3.3786102e-07
C1M600,頭凍,2026-03-24,23.406364,120.603339,2.536249e-09
467660,臺東,2026-03-24,22.752211,121.154586,0.9952113
C1D380,新埔,2026-03-24,24.84745,121.03834,1.5127725e-08
C2G980,田頭村,2026-03-24,23.8263,120.444175,0.08941811
C0V750,路竹,2026-03-24,22.854997,120.259439,0.9982575
C0N050,蚵寮,2026-03-24,23.301,120.1104,0.09333816
C2X060,下營,2026-03-24,23.226806,120.256291,0.82229656
72M700,南改鹿草分場,2026-03-24,23.416869,120.283061,0.06696236
C1SA50,利嘉林道,2026-03-24,22.82325,121.009389,1.2153474e-08
C0UB70,太平山中間站,2026-03-24,24.542003,121.513453,6.2431984e-09
C0A940,金山,2026-03-24,25.223628,121.643967,2.3590399e-06
C1V340,大津,2026-03-24,22.888322,120.645986,0.28966805
C0W180,七美,2026-03-24,23.219333,119.444892,0.9985255
C1F9C1,白冷,2026-03-24,24.182844,120.929889,2.0205523e-08
K2E710,苗改生物防治研究中心,2026-03-24,24.422861,120.871833,3.358382e-09
C0N040,蘆竹溝,2026-03-24,23.2344,120.0961,0.09715006
C0TB40,崇德,2026-03-24,24.166144,121.657414,0.017568676
C0D760,大坪苗圃,2026-03-24,24.5362,121.1108,9.0346415e-09
C2W230,畜試所澎湖,2026-03-24,23.628342,119.513206,0.9887456
C0R880,後壁湖,2026-03-24,21.9457,120.7457,0.99844885
C1I280,埔中,2026-03-24,23.820778,120.642594,0.0010831925
467790,墾丁雷達站,2026-03-24,21.948235,120.808028,0.996359
C0W190,望安,2026-03-24,23.380564,119.494075,0.99511147
C0Z170,卓溪,2026-03-24,23.3443,121.3029,1.7488765e-07
C0F850,東勢,2026-03-24,24.246428,120.833047,8.556552e-09
466900,淡水,2026-03-24,25.164889,121.448906,2.3827235e-07
C0I370,魚池,2026-03-24,23.895703,120.94135,1.5777731e-08
C0C630,大溪,2026-03-24,24.882853,121.265547,8.024319e-09
C0A520,山佳,2026-03-24,24.974944,121.402008,3.8196095e-09
C0I110,竹山,2026-03-24,23.761225,120.688156,0.2395686
82H840,茶改南部分場,2026-03-24,23.762528,120.7405,0.0026811897
C2SD80,再來山,2026-03-24,23.34371,121.44122,0.0017824577
C0G660,溪湖,2026-03-24,23.94835,120.479122,0.0047802674
C1T800,洛韶,2026-03-24,24.204558,121.453956,6.9594264e-09
C1T810,慈恩,2026-03-24,24.192044,121.388386,1.0767011e-08
C1E451,象鼻,2026-03-24,24.368617,120.940228,6.327161e-09
C0AC60,三峽,2026-03-24,24.939025,121.369728,2.0818264e-08
C0I490,萬大林道,2026-03-24,23.928228,121.091411,8.6908996e-09
C1I290,豐丘,2026-03-24,23.668178,120.887417,3.8033687e-09
C1I320,奧萬大,2026-03-24,23.952956,121.178556,2.8940352e-09
C2M910,嘉義大學,2026-03-24,23.471325,120.485903,0.0043947105
C0U770,南澳,2026-03-24,24.44935,121.81022,0.90480536
C2TB30,吉安,2026-03-24,23.94538,121.54803,0.0017155911
C0A980,社子,2026-03-24,25.109508,121.469681,4.289525e-09
C0V800,六龜,2026-03-24,22.997889,120.633583,0.008221571
C1G9D0,國一S218K,2026-03-24,23.890641,120.493253,0.004190643
C0E570,白沙屯,2026-03-24,24.549447,120.696803,5.3328765e-08
C2F9A0,中竹林,2026-03-24,24.103556,120.751061,0.0006635664
C0FA40,臺中電廠,2026-03-24,24.2146,120.4907,0.013834089
C2G9A0,畜試所彰化,2026-03-24,23.86045,120.557964,0.04654172
C0H9C0,合歡山,2026-03-24,24.143442,121.272547,2.6892216e-08
G2M350,農試溪口農場,2026-03-24,23.58565,120.408111,0.039389886
C0U860,頭城,2026-03-24,24.85323,121.8308,1.5350485e-08
C0R580,南州,2026-03-24,22.48591,120.50274,0.9964204
C0D430,峨眉,2026-03-24,24.6905,121.017189,1.0225978e-08
C0G780,秀水,2026-03-24,24.03405,120.503869,0.007629441
72N100,臺南農改場,2026-03-24,23.0605,120.342194,0.989471
C0S900,蘭嶼高中,2026-03-24,22.04909,121.51214,0.9999749
C2TA60,六十石,2026-03-24,23.22477,121.31861,1.2726459e-08
C1F9W0,德基,2026-03-24,24.254783,121.190261,9.715689e-09
C2M980,安和,2026-03-24,23.51377,120.31593,0.13894536
C1Z120,壽豐,2026-03-24,23.870853,121.508081,0.005872308
C0W160,烏坵,2026-03-24,24.9944,119.44956,0.0007462164
C1I240,外大坪,2026-03-24,23.958697,120.917931,1.13935945e-08
C1I550,國六W023K,2026-03-24,23.979067,120.867742,0.00029052485
C0R870,興海,2026-03-24,21.9752,120.8439,0.99656147
C0R140,瑪家,2026-03-24,22.682903,120.686639,1.4210798e-05
C0A530,坪林,2026-03-24,24.938183,121.70975,7.388236e-08
C0X260,後壁,2026-03-24,23.366358,120.362326,0.8481268
C0Z230,和平,2026-03-24,24.30717,121.77007,0.06998638
C0G770,福興,2026-03-24,24.041289,120.437669,0.009147754
C0H9A0,神木村,2026-03-24,23.532742,120.843667,4.8452753e-09
C0I460,南投,2026-03-24,23.911469,120.687331,0.06166569
C0I480,梅峰,2026-03-24,24.085272,121.173572,6.484981e-09
C1V570,吉東,2026-03-24,22.85422,120.5454,0.99249166
C2A560,福山,2026-03-24,24.776203,121.502811,5.1578577e-09
C0AH30,五分山,2026-03-24,25.07125,121.780794,8.971141e-09
C0FA10,松柏,2026-03-24,24.429115,120.617482,2.8788417e-08
72S200,東改班鳩分場,2026-03-24,22.829528,121.077694,4.520915e-08
72HA00,中改埔里分場,2026-03-24,23.903208,120.963364,1.8497158e-08
C2H9W0,大坪頂農水,2026-03-24,24.043122,120.932781,1.2411442e-08
C0C650,平鎮,2026-03-24,24.897503,121.214636,6.6547163e-09
C0S930,延平,2026-03-24,22.902581,121.084058,8.453282e-06
C0UA60,樟樹山,2026-03-24,24.41393,121.78325,7.882575e-07
C2UC10,出水溪,2026-03-24,24.615822,121.652253,3.343365e-07
C1S670,摩天,2026-03-24,23.199503,121.027,8.897372e-09
C2C590,觀音,2026-03-24,25.027072,121.153317,8.771227e-07
C0V630,茄萣,2026-03-24,22.906642,120.182608,0.997559
466940,基隆,2026-03-24,25.133314,121.740475,0.144405
C0X050,東河,2026-03-24,23.296598,120.385608,0.05936649
C0R770,保力,2026-03-24,22.071122,120.764111,0.9866469
G2L020,農試嘉義分所,2026-03-24,23.485028,120.473806,0.0037229198
C0X240,關子嶺,2026-03-24,23.331169,120.508025,8.810849e-07
C0I380,集集,2026-03-24,23.828206,120.801467,0.003895933
466990,花蓮,2026-03-24,23.975128,121.613275,5.9002155e-06
C1V220,小關山,2026-03-24,23.154217,120.813603,7.3554296e-09
C1F9G1,慶福山,2026-03-24,24.180853,120.848378,3.3988383e-09
C0FB20,雪山橋,2026-03-24,24.23192,120.9786,1.1503079e-08
C0Z250,瑞穗林道,2026-03-24,23.49284,121.30688,8.938092e-09
C0D590,新豐,2026-03-24,24.87068,120.97721,3.3873977e-08
C0A870,五指山,2026-03-24,25.132153,121.608692,4.419584e-08
C0UA50,西帽山,2026-03-24,24.555361,121.802628,6.14369e-08
C2R980,竹田國中,2026-03-24,22.61532,120.52412,0.99291587
C0X160,仁德,2026-03-24,22.968258,120.257689,0.9968274
C1H971,六分寮,2026-03-24,23.92507,120.6378,0.00026396793
C0W120,西嶼,2026-03-24,23.5626,119.468436,0.9972434
C0G650,員林,2026-03-24,23.946503,120.585597,0.0026977104
C0AD50,鶯歌,2026-03-24,24.951533,121.346294,1.9579568e-08
C2H9Q0,北東眼山,2026-03-24,24.120939,121.189303,6.28027e-09
C2H9T0,名間竹圍,2026-03-24,23.859914,120.637572,0.0037005893
C0S990,山豬窟,2026-03-24,22.318619,120.857372,0.9568359
C0X190,安平,2026-03-24,22.993161,120.152181,0.9929656
C0K400,斗六,2026-03-24,23.720583,120.541127,0.5894368
12J990,口湖工作站,2026-03-24,23.589978,120.180394,1.1495914e-05
C0O830,北寮,2026-03-24,23.079561,120.495008,0.032471556
C1D410,白蘭,2026-03-24,24.579364,121.079947,8.186206e-09
C0S970,加津林,2026-03-24,22.416211,120.926942,3.6926796e-08
C0D700,關西,2026-03-24,24.7977,121.1732,1.3556369e-08
C0U750,龜山島,2026-03-24,24.841667,121.953133,5.8205135e-08
C0R810,內獅,2026-03-24,22.305064,120.642986,0.9861949
C1M390,龍美,2026-03-24,23.406728,120.654417,4.2528896e-09
C2K290,崙內,2026-03-24,23.69525,120.35601,1.4241518e-08
C2FB60,頭櫃山,2026-03-24,24.129842,120.858925,4.809633e-09
C1H840,國三N238K,2026-03-24,23.841008,120.707711,0.026494011
CAQ030,崎峰國小,2026-03-24,22.42565,120.49521,0.9964204
C2E520,大湖,2026-03-24,24.414939,120.870872,3.1960325e-09
467530,阿里山,2026-03-24,23.508208,120.813242,9.975271e-09
C1E691,南湖,2026-03-24,24.40135,120.837533,4.2812207e-09
C0FA30,梧棲,2026-03-24,24.256003,120.523381,0.011725351
C1V231,高中,2026-03-24,23.134911,120.716711,4.0309045e-09
C0AK30,硬漢嶺,2026-03-24,25.136097,121.426372,1.2878636e-08
C0F9V0,新社,2026-03-24,24.200172,120.815806,4.6493223e-09
C0H890,埔里,2026-03-24,23.972169,120.952425,2.5559845e-07
C0R690,墾丁,2026-03-24,21.966756,120.810269,0.98774904
C0SD20,富山,2026-03-24,22.822383,121.190825,0.08781582
C0F0D0,審馬陣,2026-03-24,24.381675,121.4203,2.9032032e-08
C2W030,金門農試所,2026-03-24,24.448431,118.451786,3.0738015e-08
C0R820,白鷺,2026-03-24,22.454275,120.666219,0.0047050198
C0FB00,大雪山,2026-03-24,24.254668,121.007374,1.333808e-08
C1V190,南天池,2026-03-24,23.27403,120.91176,1.0934398e-08
C0E940,雪見,2026-03-24,24.42595,121.01347,1.3513902e-08
K2E360,苗栗農改場,2026-03-24,24.495722,120.829111,8.1290565e-09
CAJ050,海口故事園區,2026-03-24,23.57543,120.14121,1.1495914e-05
C2K280,四湖,2026-03-24,23.6304,120.22717,7.648393e-09
C2H9D0,三隻寮,2026-03-24,24.093078,120.861578,5.407216e-08
C0O990,媽廟,2026-03-24,22.99175,120.293525,0.99477726
C0D480,打鐵坑,2026-03-24,24.849664,121.150789,1.0791683e-08
C0Z220,和平林道,2026-03-24,24.343922,121.656317,1.173475e-05
C0TA10,花蓮漁港,2026-03-24,23.995322,121.638331,0.91193175
72C440,桃園農改場,2026-03-24,24.950944,121.030583,4.0123894e-08
C1E711,馬拉邦山,2026-03-24,24.367306,120.901656,6.580587e-09
C0SB20,富岡,2026-03-24,22.792467,121.192669,0.06432124
C0D560,竹東,2026-03-24,24.767147,121.057881,6.802764e-09
C0F9U0,南屯,2026-03-24,24.137006,120.637969,0.0015559176
C2SD60,明峰,2026-03-24,22.8671,121.11825,2.4218984e-08
C0M720,番路,2026-03-24,23.464657,120.554156,1.3176613e-05
C0F0A0,雪山圈谷,2026-03-24,24.388594,121.236339,1.0256865e-07
C1A9N0,四十份,2026-03-24,24.934158,121.593283,4.4290247e-09
C0U760,東澳,2026-03-24,24.52196,121.83318,0.8658639
C0X230,鹽水,2026-03-24,23.272621,120.247641,0.26191983
C2H9H0,苗改南投蜂場,2026-03-24,23.852589,120.693481,0.045856006
C2TB70,達谷寮,2026-03-24,23.38,121.35968,0.012875021
C0R950,萬隆國小,2026-03-24,22.507667,120.587817,0.7948518
467540,大武,2026-03-24,22.35572,120.90374,0.86933446
C0V370,古亭坑,2026-03-24,22.893178,120.401947,0.39336148
C1I340,新興橋,2026-03-24,23.563333,120.868728,2.9998877e-09
C0SA80,土坂,2026-03-24,22.453108,120.887572,0.84871477
C0R160,鹽埔,2026-03-24,22.739558,120.530778,0.9954774
C0AC40,大屯山,2026-03-24,25.175675,121.522408,4.838093e-08
466850,五分山雷達站,2026-03-24,25.071182,121.781205,8.9250936e-09
C2H9L0,馬烈霸,2026-03-24,24.1512,121.201772,9.618408e-09
C1AI50,國三N016K,2026-03-24,25.034164,121.619664,7.597954e-09
C2V920,匏子寮,2026-03-24,23.04905,120.55319,0.016972896
C1V600,藤枝,2026-03-24,23.071961,120.757042,3.2195147e-09
C1E601,南勢,2026-03-24,24.572486,120.734842,1.789499e-08
C0O980,新市,2026-03-24,23.061614,120.298197,0.99175954
C0K420,西螺,2026-03-24,23.800407,120.467394,0.06994384
C0Z050,佳心,2026-03-24,23.34567,121.21316,1.3277086e-08
C0AD30,蘆洲,2026-03-24,25.086594,121.472331,3.13589e-09
C0V610,梓官,2026-03-24,22.760558,120.267211,0.99834657
K2F750,種苗改良場,2026-03-24,24.225972,120.800917,5.5659006e-09
C0UA80,大溪漁港,2026-03-24,24.941801,121.902955,1.723006e-07
C1AI60,國一39K邊坡,2026-03-24,25.064361,121.383836,2.953435e-09
C0W150,金寧,2026-03-24,24.457703,118.328989,5.7156777e-09
C0R960,內埔,2026-03-24,22.608483,120.570714,0.99219704
C2H9S0,龍南,2026-03-24,23.953536,120.833183,1.2980982e-08
C0AH40,平等,2026-03-24,25.129142,121.577086,1.6464865e-08
C0R540,佳冬,2026-03-24,22.419456,120.552375,0.9959088
466950,彭佳嶼,2026-03-24,25.627975,122.079744,0.9997927
C0A890,雙溪,2026-03-24,25.036003,121.864242,0.1386456
C0C480,桃園,2026-03-24,24.992425,121.323172,1.3156035e-08
C0AH50,林口,2026-03-24,25.072181,121.38084,2.9839091e-09
A2K360,水試臺西試驗場,2026-03-24,23.717231,120.190522,8.840669e-09
C2M960,外寮,2026-03-24,23.562643,120.665688,3.391443e-09
C0F9S0,烏日,2026-03-24,24.107058,120.624103,0.027490636
C2N180,鹿陶洋,2026-03-24,23.14325,120.48352,0.03271544
C0C490,八德,2026-03-24,24.928708,121.283289,8.902159e-09
C0R190,赤山,2026-03-24,22.592333,120.614306,0.99155813
C0T820,天祥,2026-03-24,24.179597,121.495639,1.6228102e-08
C1F9E1,龍安,2026-03-24,24.1605,120.831961,4.295559e-09
C2SD50,順那,2026-03-24,23.04166,121.29332,0.06385664
C0V820,小林,2026-03-24,23.148408,120.63325,2.1644334e-07
C2G870,芳苑,2026-03-24,23.922303,120.320025,3.0025094e-09
C0E850,大河,2026-03-24,24.618069,120.948578,5.2166462e-09
C1U670,寒溪,2026-03-24,24.634,121.71691,7.861179e-09
C0N020,城西,2026-03-24,23.0568,120.0956,0.856647
C1Z110,三棧,2026-03-24,24.11557,121.60501,1.2027953e-08
C0R280,檳榔,2026-03-24,22.076078,120.836777,0.9993948
C2H9J0,中台,2026-03-24,23.9996,120.938739,4.7238288e-08
C0F9L0,后里,2026-03-24,24.310436,120.729725,3.2582005e-08
467441,高雄,2026-03-24,22.730432,120.312516,0.99739903
C0Z180,新城,2026-03-24,24.040486,121.604878,4.2249967e-06
C0D540,橫山,2026-03-24,24.71116,121.11693,3.9932013e-09
C1D420,太閣南,2026-03-24,24.632808,121.160575,9.236798e-09
C1E770,公館,2026-03-24,24.526914,120.830806,1.0504883e-08
CAN130,水試所海水繁養殖中心,2026-03-24,23.120802,120.07968,0.8712455
C1I430,翠華,2026-03-24,24.191961,121.224339,1.6110015e-08
C1M400,菜瓜坪,2026-03-24,23.251928,120.576103,8.965004e-08
C0G730,二林,2026-03-24,23.903325,120.376081,0.0058694826
72M360,南改義竹分場,2026-03-24,23.360694,120.279361,0.58330667
V2K620,麥寮合作社,2026-03-24,23.753836,120.294783,7.8033064e-09
C0Z070,舞鶴,2026-03-24,23.46811,121.37407,0.0012729841
C0B040,大武崙,2026-03-24,25.166676,121.706993,2.773188e-06
C1Z030,紅葉,2026-03-24,23.493119,121.338806,0.0048748096
C1I050,丹大,2026-03-24,23.753747,121.141147,1.4811773e-08
C0I080,信義,2026-03-24,23.689694,120.851036,2.1141921e-05
C2TB80,庄子底,2026-03-24,23.71794,121.49438,0.00023204036
C0D750,樂山林道6k,2026-03-24,24.49999,121.08773,1.9727901e-08
C2M920,朴子農改,2026-03-24,23.469889,120.259383,0.07338515
C2A880,福隆,2026-03-24,25.017842,121.942083,0.9531914
C0Z160,鳳林,2026-03-24,23.746114,121.453411,8.496598e-05
C0UB80,翠峰林道6K,2026-03-24,24.49773,121.568625,1.1698877e-08
C0V210,復興,2026-03-24,23.222403,120.806089,3.8097436e-09
C0H990,昆陽,2026-03-24,24.121322,121.273642,1.7659405e-08
C0R741,獅子,2026-03-24,22.202308,120.705236,0.9907226
C0S710,鹿野,2026-03-24,22.917711,121.122994,1.2829754e-07
C0I530,小奇萊,2026-03-24,24.131764,121.295717,2.2829571e-08
C0FA70,大雪山埡口,2026-03-24,24.26867,121.03062,2.0879424e-08
C2K630,荷苞,2026-03-24,23.657717,120.595144,0.31933975
C0Z080,富源,2026-03-24,23.587642,121.378225,2.6512658e-05
C2M9E0,旺來山,2026-03-24,23.555153,120.486463,0.0016993039
C0SB10,美和,2026-03-24,22.682078,121.060236,0.0013377902
C2K620,馬光農場,2026-03-24,23.721453,120.378864,0.1079172
C1I140,卡奈托灣,2026-03-24,23.754364,121.087872,8.432157e-09
C0I520,玉山風口,2026-03-24,23.470489,120.955994,2.7862166e-08
C1G691,下水埔,2026-03-24,23.816114,120.5676,0.2153587
C0X110,臺南市南區,2026-03-24,22.961189,120.188378,0.9968328
C0V680,仁武,2026-03-24,22.701083,120.347722,0.99739903
C2G840,北斗,2026-03-24,23.877586,120.514222,0.003970715
C2TB90,長橋,2026-03-24,23.6874,121.46186,6.765002e-05
C0R900,竹坑,2026-03-24,22.1385,120.7022,0.9746823
C0G860,社頭,2026-03-24,23.897647,120.5862,0.0020014485
C0X150,安定,2026-03-24,23.102614,120.227839,0.98642796
C0R590,里港,2026-03-24,22.77919,120.49459,0.9876223
C0E610,馬都安,2026-03-24,24.451272,120.930192,6.516301e-09
C0E550,明德,2026-03-24,24.583486,120.885411,9.965801e-09
C0R150,三地門,2026-03-24,22.709889,120.639944,0.9756934
C0G910,花壇,2026-03-24,24.032076,120.549461,0.005530552
C1D400,鳥嘴山,2026-03-24,24.71909,121.28387,3.747904e-09
C0K500,元長,2026-03-24,23.64981,120.315024,8.18374e-09
C0F0B0,石岡,2026-03-24,24.276061,120.777644,1.7085194e-08
C2V250,甲仙,2026-03-24,23.080106,120.591758,0.0018782128
C0SA20,金崙山,2026-03-24,22.567419,120.959667,7.0467823e-09
C0V350,溪埔,2026-03-24,22.738578,120.446797,0.9895351
C0M660,溪口,2026-03-24,23.604131,120.403569,0.039389886
C1S880,壽卡,2026-03-24,22.238911,120.858903,0.9999067
72D680,桃改新埔分場,2026-03-24,24.834444,121.066111,1.5992574e-08
