站號,站名,日期,lat,lon,BLBTSLS
C0R710,龍磐,2026-02-22,21.931672,120.838942,0.9938666
C1F9D1,白毛台,2026-02-22,24.158325,120.886933,6.6954193e-09
C0G940,竹塘,2026-02-22,23.848253,120.386764,8.2665685e-10
467590,恆春,2026-02-22,22.003897,120.746339,0.39198002
C1O850,環湖,2026-02-22,23.148617,120.418633,6.7774804e-06
C0U710,太平山,2026-02-22,24.505486,121.525656,1.348828e-08
C0E820,獅潭,2026-02-22,24.539133,120.920042,1.7704656e-09
C2SD70,二層坪,2026-02-22,22.94105,121.16838,1.2947081e-08
C0V880,興達,2026-02-22,22.8778,120.2127,0.9801793
C0S890,關山,2026-02-22,23.0395,121.175017,9.55813e-09
C0SB30,新蘭,2026-02-22,22.869214,121.223228,2.7910248e-08
C2R970,屏科大,2026-02-22,22.648275,120.619247,0.9973526
C1Z130,銅門,2026-02-22,23.965694,121.492842,3.0471523e-09
C0AD40,土城,2026-02-22,24.973208,121.445169,3.2482332e-09
CAN140,六官養殖協會,2026-02-22,23.22881,120.29962,0.0010196699
C0X180,山上,2026-02-22,23.0757,120.363253,0.34871292
C0F9Z0,雪山東峰,2026-02-22,24.388792,121.268675,1.9426606e-08
C1M480,獨立山,2026-02-22,23.537022,120.607797,1.2150363e-09
C0X220,學甲,2026-02-22,23.230367,120.182187,0.00039470976
467650,日月潭,2026-02-22,23.881325,120.90805,2.1804447e-09
A2K570,古坑(花卉中心),2026-02-22,23.633531,120.552392,2.090894e-07
C0K600,箔子寮,2026-02-22,23.6197,120.14,4.5051454e-08
C0G830,埤頭,2026-02-22,23.866003,120.452806,3.8817802e-09
C0S950,七塊厝,2026-02-22,22.954453,121.229922,8.2842035e-09
467110,金門,2026-02-22,24.407306,118.289281,1.7271337e-07
C0AH80,深坑,2026-02-22,25.002703,121.628328,2.084245e-09
C0A970,三貂角,2026-02-22,25.007606,122.002058,4.7575357e-09
C2D730,寶山農場,2026-02-22,24.732444,120.976153,4.6035162e-09
C0K430,褒忠,2026-02-22,23.690938,120.303634,9.1358405e-09
467480,嘉義,2026-02-22,23.495925,120.432906,3.633188e-07
C0V400,阿公店,2026-02-22,22.804194,120.355528,0.0021120803
C0E960,觀霧分站,2026-02-22,24.505781,121.113921,1.0271368e-08
467550,玉山,2026-02-22,23.48718,120.95943,3.731287e-08
C0R440,大漢山,2026-02-22,22.405264,120.753181,1.2619548e-08
C0SD30,東清國小,2026-02-22,22.057128,121.564922,0.9814088
C1F9B1,桐林,2026-02-22,24.066172,120.735194,9.464051e-05
C2H9U0,鳳鵬,2026-02-22,23.763919,120.788061,5.0667084e-09
C0K390,土庫,2026-02-22,23.679029,120.395574,8.216491e-09
C1I450,望鄉山,2026-02-22,23.594153,120.944286,1.6665528e-08
C0E910,海埔,2026-02-22,24.648767,120.772435,2.800371e-09
B2E890,畜試北區分所,2026-02-22,24.527806,120.770972,2.5378555e-09
C0R750,四林格山,2026-02-22,22.076989,120.802439,0.2317548
C0F0C0,中坑,2026-02-22,24.248517,120.903319,2.4644324e-09
C1I121,大鞍,2026-02-22,23.678381,120.760017,3.0118013e-09
C2G9E0,移民庄,2026-02-22,23.9784,120.40283,8.4306615e-09
72U480,花改蘭陽分場,2026-02-22,24.686306,121.716583,1.4529492e-09
C0A770,科教館,2026-02-22,25.096356,121.516507,3.9938413e-09
C0AJ60,六塊厝,2026-02-22,25.24,121.4481,1.3654826e-08
C0R620,墾雷,2026-02-22,21.900836,120.855269,0.98253787
467420,永康,2026-02-22,23.038386,120.2367,0.9255264
C2M530,奮起湖,2026-02-22,23.493903,120.699253,1.8403223e-09
C0I410,名間,2026-02-22,23.837053,120.701447,4.3841496e-07
A2C560,農工中心,2026-02-22,24.985917,121.239833,1.4888305e-08
C0V740,旗山,2026-02-22,22.888614,120.483597,0.014617696
C0Z061,玉里,2026-02-22,23.3215,121.339656,8.841579e-09
C0S840,南田,2026-02-22,22.279725,120.889208,0.97953814
C1I470,杉林溪,2026-02-22,23.639517,120.786444,3.6226364e-09
C1X040,東原,2026-02-22,23.291597,120.463822,6.253209e-09
C0R660,枋寮,2026-02-22,22.367722,120.590647,0.12116722
C1R120,上德文,2026-02-22,22.763272,120.704442,6.754445e-10
C0K450,大埤,2026-02-22,23.646074,120.431537,8.7197245e-09
C0UA00,土場,2026-02-22,24.576533,121.495333,3.1789489e-09
467080,宜蘭,2026-02-22,24.763975,121.756528,1.1211301e-09
C0N030,四草,2026-02-22,23.0235,120.1116,0.046490982
467410,臺南,2026-02-22,22.99328,120.20492,0.7032865
C0V650,彌陀,2026-02-22,22.783806,120.246361,0.93029296
C0D660,新竹市東區,2026-02-22,24.798681,120.986942,7.578372e-09
82S580,茶改東部分場,2026-02-22,22.907694,121.130139,1.3968992e-08
C0SB40,興隆,2026-02-22,22.913661,121.257469,1.3128737e-08
467050,新屋,2026-02-22,25.006725,121.047492,2.7034778e-08
C0C710,大溪永福,2026-02-22,24.892936,121.324975,5.7408616e-09
C0FA20,溫寮,2026-02-22,24.372177,120.583125,9.060959e-09
C0V640,湖內,2026-02-22,22.887139,120.2445,0.97795963
C0R910,下寮,2026-02-22,22.3929,120.5548,0.94346553
C0Z020,明里,2026-02-22,23.208717,121.262342,1.2641446e-08
C0M770,嘉義梅山,2026-02-22,23.585398,120.555587,2.117912e-06
C0C660,楊梅,2026-02-22,24.912375,121.143047,8.439542e-09
C0SD40,牛頭山,2026-02-22,22.676661,121.506944,0.9998645
C1E511,新開,2026-02-22,24.347703,120.827019,1.5765126e-08
G2F820,農試所(霧峰),2026-02-22,24.031261,120.688133,0.0003141818
C2M990,大巃頂,2026-02-22,23.5547,120.61439,6.659792e-10
C1I070,和社,2026-02-22,23.591131,120.888861,7.7835616e-10
C2E990,新坪頂,2026-02-22,24.30201,120.8574,6.432024e-09
C0TA80,立霧山,2026-02-22,24.183258,121.641899,1.0794812e-08
C2F000,大肚,2026-02-22,24.15295,120.572117,2.3131868e-09
C1S850,豐南,2026-02-22,23.122139,121.262389,6.5991896e-09
C2M9B0,西興,2026-02-22,23.2428,120.57617,1.0430885e-09
C2A920,富貴角,2026-02-22,25.263783,121.565258,1.4733386e-08
C0T960,光復,2026-02-22,23.660694,121.424964,4.6646713e-09
C0F9M0,豐原,2026-02-22,24.254322,120.720692,1.2097183e-05
C0R720,旭海,2026-02-22,22.205403,120.887614,0.0019633155
C0V710,苓雅,2026-02-22,22.622742,120.330669,0.9756098
C0C740,觀音工業區,2026-02-22,25.064764,121.114856,4.2029193e-08
CAC040,拉拉山,2026-02-22,24.699317,121.427133,1.1768681e-08
C0V790,萬山,2026-02-22,22.905944,120.688056,1.7838644e-06
U2HA30,臺大和社,2026-02-22,23.590856,120.888864,7.7835616e-10
C2H9K0,屯原,2026-02-22,24.067969,121.209389,5.268965e-09
C0AJ90,澳底,2026-02-22,25.0552,121.9253,4.7831303e-09
C0Z100,東華,2026-02-22,23.89525,121.549833,3.3879128e-09
C0G970,三豐,2026-02-22,23.882,120.2895,1.8860435e-08
C0V900,汕尾,2026-02-22,22.4782,120.4151,0.06545175
C1R630,龍泉,2026-02-22,22.66701,120.59091,0.99855196
C1AC50,關渡,2026-02-22,25.133486,121.469331,7.549575e-09
C0C800,四稜,2026-02-22,24.64733,121.4293,7.535894e-09
C0F9I0,神岡,2026-02-22,24.272481,120.658314,1.0064774e-07
C0K460,斗南,2026-02-22,23.678734,120.478359,7.497313e-09
C2O810,曾文,2026-02-22,23.219681,120.497328,3.62009e-08
467280,後龍,2026-02-22,24.648563,120.831834,2.5929499e-09
C1F9J1,清水林,2026-02-22,24.071242,120.820419,2.5195568e-09
C2A650,火燒寮,2026-02-22,25.002719,121.742892,3.6676326e-09
466930,竹子湖,2026-02-22,25.162078,121.544547,7.062633e-09
C1I220,樟湖,2026-02-22,23.905333,120.846983,2.2430784e-09
C0I390,仁愛,2026-02-22,24.022122,121.132206,2.151321e-09
C0Z300,東里,2026-02-22,23.26853,121.30547,8.484913e-09
C1V590,新發,2026-02-22,23.057019,120.646064,3.792691e-09
C0K510,水林,2026-02-22,23.572924,120.24597,2.5124683e-07
72S590,東改賓朗果園,2026-02-22,22.813889,121.071278,3.051679e-08
82A750,茶改北部分場,2026-02-22,24.955778,121.631222,3.1840703e-09
C1A750,石碇服務區,2026-02-22,25.00872,121.646242,2.7999065e-09
C0X300,鹿寮,2026-02-22,23.386047,120.477331,1.6791903e-07
C0K590,雲林東勢,2026-02-22,23.674192,120.255721,1.108124e-08
C2K310,港尾布雞,2026-02-22,23.74834,120.38439,4.362555e-09
C0A570,桶後,2026-02-22,24.848222,121.597992,3.1964715e-09
C1S800,華源,2026-02-22,22.657883,121.02325,1.7671975e-06
C0G720,溪州,2026-02-22,23.851589,120.499093,3.3691223e-09
C1V160,達卡努瓦,2026-02-22,23.279811,120.705319,1.7789584e-09
C2M410,馬頭山,2026-02-22,23.324361,120.582017,3.9277697e-09
C0V850,蚵仔寮,2026-02-22,22.7256,120.2527,0.95113385
C0S740,池上,2026-02-22,23.119628,121.209469,8.800241e-09
C1V390,尖山,2026-02-22,22.813153,120.367789,0.00063427264
C0AH70,松山,2026-02-22,25.04871,121.55042,3.95481e-09
C0N010,鯤鯓國小,2026-02-22,23.1879,120.0889,0.00097110047
C0R550,新埤,2026-02-22,22.467947,120.582894,0.07237133
C0SA60,知本（水試所）,2026-02-22,22.702394,121.082761,0.00060292764
C0T9I0,豐濱,2026-02-22,23.583897,121.514806,2.7983795e-09
C0UB00,淡江大學蘭陽校園,2026-02-22,24.823239,121.730383,2.3687652e-09
C0W240,九宮,2026-02-22,24.423753,118.240186,5.468482e-08
C0T9N0,富里,2026-02-22,23.171639,121.249378,1.2093675e-08
U2HA50,臺大竹山,2026-02-22,23.756972,120.681556,1.3423972e-06
C0V840,鳳鼻頭,2026-02-22,22.5083,120.3591,0.059485074
C0X140,西港,2026-02-22,23.125608,120.203108,0.00075948716
72D080,桃改五峰分場,2026-02-22,24.612194,121.157167,2.4352194e-09
C2H9P0,伊拿谷,2026-02-22,23.963211,121.088264,2.7109377e-09
C2K250,崙背,2026-02-22,23.75553,120.31893,9.1358405e-09
C2H9F0,柑林,2026-02-22,24.018658,120.847072,2.6046393e-08
C0TA20,加灣,2026-02-22,24.082025,121.608944,6.3691523e-09
C0V530,阿蓮,2026-02-22,22.883208,120.327508,0.88361824
C0FB30,八仙山苗圃,2026-02-22,24.192719,121.001366,2.4635114e-09
C1O880,關山,2026-02-22,23.173397,120.594092,2.8383735e-09
C0E791,卓蘭,2026-02-22,24.3126,120.8244,1.4303885e-08
C1I030,武界,2026-02-22,23.913225,121.052483,2.7755647e-09
C0R520,崁頂,2026-02-22,22.514781,120.506914,0.87489593
C0R341,牡丹,2026-02-22,22.130036,120.792639,0.0054566576
C0R930,萬丹,2026-02-22,22.5885,120.4851,0.28223178
C0S760,紅石,2026-02-22,23.069131,121.126219,1.1237189e-08
C2C410,中央大學,2026-02-22,24.967652,121.185165,1.4229218e-08
C1M610,石磐龍,2026-02-22,23.496606,120.663506,1.4102733e-09
C0C790,東眼山,2026-02-22,24.8284,121.40888,3.6263488e-09
C0UA10,鴛鴦湖,2026-02-22,24.590269,121.412228,1.2756546e-08
C0R800,丹路,2026-02-22,22.204481,120.750989,0.2594037
C0G920,永靖,2026-02-22,23.924703,120.547533,6.7798753e-09
C2M950,太和,2026-02-22,23.538372,120.702961,1.8172694e-09
C1A630,下盆,2026-02-22,24.771003,121.538622,4.5720583e-09
B2N890,畜產試驗所,2026-02-22,23.058972,120.336406,0.6407785
C0UA30,白嶺,2026-02-22,24.527819,121.519031,7.517317e-09
467571,新竹,2026-02-22,24.828575,121.01455,1.0617689e-08
C1V580,溪南(特生中心),2026-02-22,23.084972,120.788475,2.4557238e-09
C1T970,大農,2026-02-22,23.615233,121.413331,4.527644e-09
C0R650,竹田,2026-02-22,22.58486,120.54344,0.9542951
C1H900,清流,2026-02-22,24.080775,120.962997,2.5612752e-09
C1C510,水尾,2026-02-22,24.940081,121.087161,1.6486581e-08
C2N170,茅港尾,2026-02-22,23.2061,120.2624,0.0010196699
C0F9X0,大雅(中科園區),2026-02-22,24.21528,120.62445,6.272764e-09
C0SB60,白守蓮,2026-02-22,23.126769,121.401914,2.1564021e-07
C0O970,虎頭埤,2026-02-22,23.021375,120.347878,0.39822778
C0C730,中大臨海站,2026-02-22,24.966126,121.008581,1.5665343e-08
C0X250,新營,2026-02-22,23.310689,120.316681,0.0010674965
C0V700,三民,2026-02-22,22.645017,120.311233,0.9485699
C0U870,大礁溪,2026-02-22,24.791042,121.675047,2.9846776e-09
C0E870,高鐵苗栗,2026-02-22,24.60725,120.826094,2.6195996e-09
C0TA30,鹽寮,2026-02-22,23.845606,121.592664,3.5184267e-09
C0M860,新美,2026-02-22,23.338017,120.683169,3.8751597e-09
C1E701,八卦,2026-02-22,24.491756,120.927619,1.9967217e-09
C2TA90,加納納,2026-02-22,23.466421,121.359867,2.5730953e-09
C0I420,國姓,2026-02-22,24.037803,120.855072,1.7860277e-08
C2D720,關西工作站,2026-02-22,24.757275,121.184792,2.5556293e-09
C0S960,香蘭,2026-02-22,22.587569,120.993375,2.1706877e-05
467620,蘭嶼,2026-02-22,22.0369,121.55843,0.99991494
C0R260,春日,2026-02-22,22.370361,120.628306,0.027170863
72G600,臺中農改場,2026-02-22,24.003028,120.534389,1.030803e-08
C0Z210,瑞穗,2026-02-22,23.5239,121.39021,2.6497708e-09
C0M820,達邦,2026-02-22,23.453994,120.749517,1.4143842e-09
C0V860,南寮,2026-02-22,22.7616,120.2339,0.96444416
C0G740,大城,2026-02-22,23.852487,120.320935,1.8831642e-08
C0R920,塭仔,2026-02-22,22.4169,120.5197,0.9496686
C0R470,高樹,2026-02-22,22.826389,120.600806,0.9982151
C0R680,佳樂水,2026-02-22,21.993578,120.861633,0.98291814
C1O870,大棟山,2026-02-22,23.31157,120.52226,1.3317965e-09
C0D360,梅花,2026-02-22,24.678347,121.208558,2.3649505e-09
C0Z190,富世,2026-02-22,24.14743,121.6297,5.0939373e-09
C0AI10,屈尺,2026-02-22,24.92184,121.54475,3.1260186e-09
B2U990,畜試東區分所,2026-02-22,24.669039,121.832561,1.4213072e-09
C0SB80,長濱漁港,2026-02-22,23.313644,121.459994,1.2265387e-07
C0TA50,和仁,2026-02-22,24.241394,121.712472,2.6737286e-09
C0V910,大樹,2026-02-22,22.684645,120.432803,0.98919624
C1R610,西大武山,2026-02-22,22.617719,120.7322,6.0546594e-09
C0G900,線西,2026-02-22,24.143358,120.443536,1.9405311e-08
C0M700,竹崎,2026-02-22,23.526178,120.555508,3.3754122e-07
C2E880,三義,2026-02-22,24.405478,120.749819,2.5597515e-09
C0C720,竹圍,2026-02-22,25.112692,121.239824,2.6941093e-08
C0F9P0,清水,2026-02-22,24.312297,120.562242,1.3867689e-08
C0Z150,吉安光華,2026-02-22,23.930925,121.595153,3.4687115e-09
C0FA80,小雪山天池,2026-02-22,24.28025,121.02627,1.7299518e-08
467300,東吉島,2026-02-22,23.25727,119.66762,0.9967313
C1D640,外坪(五指山),2026-02-22,24.644447,121.090961,3.351663e-09
C2R9A0,高士國小,2026-02-22,22.12553,120.84653,0.014377443
C0F9O0,潭子,2026-02-22,24.213106,120.703933,0.00017961736
C2H9R0,卓社,2026-02-22,23.887894,121.000086,2.5154177e-09
72T250,花蓮農改場,2026-02-22,23.975222,121.563889,3.3478933e-09
C0E780,銅鑼,2026-02-22,24.489681,120.790853,2.2031783e-09
C1T950,太安,2026-02-22,23.666719,121.370128,2.5539335e-09
C0E830,苑裡,2026-02-22,24.439714,120.653053,4.4735384e-09
467270,田中,2026-02-22,23.873803,120.581286,4.224714e-09
C0SA10,檳榔四格山,2026-02-22,22.810031,121.109308,1.6442113e-08
C1T830,布洛灣,2026-02-22,24.17184,121.57127,6.2551058e-09
C0F970,大坑,2026-02-22,24.173142,120.722289,0.00040627518
C1U920,思源,2026-02-22,24.393125,121.347214,1.0561176e-08
C2H9Y0,松茗,2026-02-22,23.8167,120.650765,3.1193836e-09
C0A931,三和,2026-02-22,25.233153,121.595236,9.831977e-09
C0I010,廬山,2026-02-22,24.033311,121.181808,3.5625158e-09
C2M940,日野賀,2026-02-22,23.434056,120.727169,1.915316e-09
C0R860,鼻頭,2026-02-22,22.1043,120.8979,0.9816581
C0UB20,壯圍,2026-02-22,24.7359,121.8163,1.0707207e-09
C0R790,九棚,2026-02-22,22.14195,120.889281,0.42653507
C0W110,東莒,2026-02-22,25.9652,119.98069,1.1127331e-07
C1U930,粉鳥林,2026-02-22,24.497088,121.842479,2.0908306e-09
C1I211,蘆竹湳,2026-02-22,23.934019,120.811994,2.2432152e-09
C0S830,長濱,2026-02-22,23.286817,121.411975,7.220114e-09
C1F9F1,伯公龍,2026-02-22,24.272392,120.849047,9.928046e-09
C0UB90,太平山莊,2026-02-22,24.494171,121.536209,1.3678442e-08
C0E810,西湖,2026-02-22,24.562947,120.7485,1.32387505e-08
C1I440,新高口,2026-02-22,23.478744,120.878939,1.1413997e-08
C0O840,王爺宮,2026-02-22,23.222064,120.40085,3.2548002e-07
C0T9G0,鳳林山,2026-02-22,23.735269,121.420131,9.375012e-09
C0X080,佳里,2026-02-22,23.173039,120.145086,0.0007451721
C0FB70,大甲溪埔,2026-02-22,24.370625,120.620067,7.784249e-09
C0Z310,清水斷崖,2026-02-22,24.218294,121.689142,2.4932065e-09
C0M680,太保,2026-02-22,23.455062,120.331455,6.2849404e-07
C1S820,金峰,2026-02-22,22.590969,120.933236,6.7718713e-07
C0AD10,八里,2026-02-22,25.150211,121.403947,1.709181e-08
C2K240,草嶺,2026-02-22,23.59555,120.693461,1.214735e-09
C1SA70,都蘭,2026-02-22,22.87794,121.226881,2.6790492e-08
C0K440,二崙,2026-02-22,23.772797,120.408944,3.6825423e-09
C1A760,坪林交控,2026-02-22,24.94284,121.713442,3.1992407e-09
C0F9N0,大里,2026-02-22,24.092464,120.701378,0.000320513
C0SA90,達仁林場,2026-02-22,22.264347,120.823972,6.3092296e-09
C1R290,石門山,2026-02-22,22.112611,120.756597,0.71514875
42HA10,萬大發電廠,2026-02-22,23.978875,121.139639,1.9837392e-09
C0R890,山海,2026-02-22,21.9878,120.7091,0.3274455
C0T9A0,月眉山,2026-02-22,23.809928,121.539828,3.847409e-09
C0AC70,信義,2026-02-22,25.037822,121.564597,3.8764014e-09
C0K560,棋山,2026-02-22,23.68645,120.603417,3.6732004e-08
C2FB50,出雲,2026-02-22,24.206469,120.902794,2.6623093e-09
C1Z240,中平林道,2026-02-22,23.42115,121.26763,1.0569922e-08
U2H480,溪頭,2026-02-22,23.670306,120.798194,1.1366024e-09
C0M880,好美里,2026-02-22,23.3364,120.138,0.00089302944
C0T9E0,大坑,2026-02-22,23.880628,121.581981,3.576814e-09
C0K530,臺西,2026-02-22,23.701547,120.197559,3.7134235e-08
C1E900,國一N128K,2026-02-22,24.560997,120.844186,2.3238353e-09
C0AJ50,水湳洞,2026-02-22,25.123695,121.862238,4.7864614e-09
C0AI20,白沙灣,2026-02-22,25.283128,121.519058,1.9935031e-08
C2V310,美濃,2026-02-22,22.898792,120.51907,0.01665675
C0A860,大坪,2026-02-22,25.165914,121.632969,5.94941e-09
C1U850,觀音海岸,2026-02-22,24.38319,121.77856,3.2697032e-09
C2K610,草嶺石壁,2026-02-22,23.602469,120.707731,1.2706249e-09
C0U950,鶯子嶺,2026-02-22,24.89754,121.79244,6.77548e-09
C0O900,善化,2026-02-22,23.112883,120.297219,0.73655146
C0K550,蔦松,2026-02-22,23.514319,120.229736,4.3223542e-07
E2P980,林試六龜中心,2026-02-22,22.991703,120.645722,0.0026037325
C0E590,通霄,2026-02-22,24.471892,120.704622,3.1934203e-08
C1I310,西巒,2026-02-22,23.754486,120.883956,3.2866478e-09
C0A550,泰平,2026-02-22,24.971197,121.823711,4.8069184e-09
C0I360,水里,2026-02-22,23.812553,120.849792,3.746275e-09
C0R830,高士,2026-02-22,22.121825,120.836781,0.6681759
C1I101,溪頭,2026-02-22,23.661789,120.807647,4.3146997e-09
C0AJ20,野柳,2026-02-22,25.20703,121.690021,1.4048911e-08
C0B060,暖暖,2026-02-22,25.0957,121.7403,4.40299e-09
C1H920,長豐,2026-02-22,24.102039,120.879897,3.430118e-09
C2S9B0,利吉,2026-02-22,22.86246,121.15486,1.6274317e-08
C0V360,內門,2026-02-22,22.975481,120.466769,0.00047199454
C0R850,林邊,2026-02-22,22.4634,120.5339,0.97179526
C0E930,龍鳳,2026-02-22,24.700034,120.859125,8.449577e-09
C0U910,冬山,2026-02-22,24.63373,121.7937,1.4213072e-09
C1E721,泰安,2026-02-22,24.489017,120.968036,4.806469e-09
82H320,茶改中部分場,2026-02-22,23.875611,120.913583,2.3860827e-09
C0M750,布袋,2026-02-22,23.380878,120.167789,3.3645875e-07
C1S860,利嘉,2026-02-22,22.809417,121.050528,1.6847572e-08
E2S980,林試太麻里1,2026-02-22,22.598922,120.980044,3.852515e-06
C0X170,關廟,2026-02-22,22.963017,120.327797,0.6639239
C0V720,林園,2026-02-22,22.507747,120.394511,0.06102433
C1I510,線浸林道,2026-02-22,23.761508,120.832956,1.9309492e-09
C0D690,外湖,2026-02-22,24.917735,120.968711,2.2644616e-07
C0C750,新興坑尾,2026-02-22,25.0061,121.0971,2.4636252e-08
B2Q810,畜試南區分所,2026-02-22,21.945583,120.802167,0.98291814
C0S790,金崙,2026-02-22,22.538122,120.966875,2.1328958e-07
C0AH90,福山植物園,2026-02-22,24.760717,121.58135,4.936055e-09
C0I540,奇萊稜線,2026-02-22,24.109231,121.326456,2.2986562e-08
C0M850,表湖,2026-02-22,23.24186,120.64166,3.043847e-09
C0S770,大溪山,2026-02-22,22.478475,120.943325,6.539824e-08
C0AG80,中和,2026-02-22,24.991622,121.491792,3.2482332e-09
C0T790,大禹嶺,2026-02-22,24.186117,121.316086,1.4651837e-08
C0T9B0,水源,2026-02-22,23.991861,121.537169,4.369092e-09
C0R840,牡丹池山,2026-02-22,22.168389,120.841225,1.6866672e-08
C1I131,桶頭,2026-02-22,23.641944,120.654117,2.1159322e-07
CAL110,布袋國中,2026-02-22,23.35893,120.18026,0.0010812083
C2M9D0,何竹子腳,2026-02-22,23.53641,120.38203,4.4634197e-07
C0Z290,赤柯山,2026-02-22,23.36893,121.38293,1.0450286e-08
C0X280,將軍,2026-02-22,23.214999,120.13577,0.00046034937
C0S690,太麻里,2026-02-22,22.60902,120.98533,4.174987e-08
C0U880,北關,2026-02-22,24.9072,121.8734,4.6196216e-09
CAW010,東引,2026-02-22,26.3588,120.4836,1.3633739e-07
C0G810,埔心,2026-02-22,23.947633,120.525456,7.760677e-09
C0U970,大福,2026-02-22,24.80064,121.81389,1.1226066e-09
C2H9N0,仁愛東眼,2026-02-22,24.026875,121.1205,2.820984e-09
C1E670,南礦,2026-02-22,24.538278,121.002836,3.965581e-09
C0M520,東後寮,2026-02-22,23.369908,120.248065,0.00029572728
C1E461,松安,2026-02-22,24.397972,120.986022,4.3457216e-09
C2N160,西拉雅風管處,2026-02-22,23.189481,120.335297,0.002695724
C2M970,碧湖,2026-02-22,23.568632,120.624165,6.5506794e-10
C0A640,石碇,2026-02-22,24.993969,121.662917,3.1974838e-09
E2S960,林試太麻里2,2026-02-22,22.598,120.99775,2.7295735e-05
C0F9Y0,桃山,2026-02-22,24.432739,121.303808,2.2126462e-08
C1I020,萬大,2026-02-22,23.979817,121.132261,2.1682063e-09
C2UC20,長嶺,2026-02-22,24.70894,121.61162,5.1463602e-09
C0U940,羅東,2026-02-22,24.68184,121.74934,1.4541858e-09
C0M650,朴子,2026-02-22,23.43463,120.23902,7.2426263e-07
C1I500,大尖山,2026-02-22,23.858572,120.994889,4.912827e-09
C0FB40,中橫21.6k,2026-02-22,24.2499,121.1455,4.2797104e-09
C0G820,田尾,2026-02-22,23.901669,120.509389,6.7798753e-09
E2K600,四湖植物園,2026-02-22,23.676986,120.163433,2.9370051e-08
C0S730,綠島,2026-02-22,22.6672,121.47533,0.99994487
12Q970,東港工作站,2026-02-22,22.479997,120.466058,0.97179526
C1TA00,太魯閣,2026-02-22,24.15773,121.6236,3.012709e-09
466920,臺北,2026-02-22,25.037658,121.514853,3.95481e-09
C0R600,舊泰武,2026-02-22,22.588194,120.664944,9.979434e-10
C1I260,北坑,2026-02-22,23.9246,121.006903,1.0366253e-08
466910,鞍部,2026-02-22,25.182586,121.529731,1.09564855e-08
C1I230,九份二山,2026-02-22,23.961944,120.845,1.5448579e-09
C2M810,里佳,2026-02-22,23.389125,120.716647,2.4369153e-09
C2A660,瑞芳,2026-02-22,25.113169,121.801147,4.2691197e-09
C0R270,琉球嶼,2026-02-22,22.332244,120.362236,2.9191337e-08
C2V580,瑞山,2026-02-22,22.90304,120.43424,0.0008335893
C1T990,高寮,2026-02-22,23.394239,121.356808,7.9949265e-09
C0G620,芬園,2026-02-22,24.015678,120.6213,5.2485234e-09
C1Z140,荖溪,2026-02-22,23.890575,121.45964,1.2372112e-08
C1I201,中心崙,2026-02-22,23.728722,120.712097,2.0264486e-09
C1I400,凌霄,2026-02-22,24.018778,121.004456,2.89636e-09
C1M640,十字,2026-02-22,23.492153,120.753683,3.2242404e-09
G2P820,農試鳳山分所,2026-02-22,22.646611,120.356083,0.96683127
C0Z270,蕃薯寮,2026-02-22,23.73835,121.540108,4.312289e-09
C2E420,竹南,2026-02-22,24.70898,120.88897,7.587093e-09
C0FB10,出雲山苗圃,2026-02-22,24.23105,120.90475,2.466497e-09
C0F9Q0,外埔,2026-02-22,24.347817,120.705686,6.0214596e-08
C0K580,高鐵雲林,2026-02-22,23.737456,120.417944,4.362555e-09
C2I090,鳳凰,2026-02-22,23.728081,120.787347,9.192573e-10
C0U990,員山,2026-02-22,24.74435,121.72247,1.4579516e-09
C0V770,大社,2026-02-22,22.730306,120.346639,0.55882186
C0X120,麻豆,2026-02-22,23.183289,120.248611,0.0004496921
C0C670,龍潭,2026-02-22,24.870056,121.221389,2.8411575e-09
C0D680,香山濕地,2026-02-22,24.783581,120.914988,2.2644616e-07
C0S980,勝林山,2026-02-22,22.430439,120.8938,2.301104e-08
C0V730,大寮,2026-02-22,22.605614,120.395717,0.9202181
C0R570,麟洛,2026-02-22,22.65078,120.52719,0.999589
C2M930,石卓,2026-02-22,23.478744,120.702264,3.1465128e-09
C0G9B0,和美,2026-02-22,24.105169,120.492131,1.1852684e-08
CAG100,王功漁港,2026-02-22,23.96824,120.32586,1.3197757e-08
C0X290,北門,2026-02-22,23.267772,120.125481,0.0005820797
C2F930,大甲,2026-02-22,24.347667,120.640403,1.8204852e-07
C0D650,湖口,2026-02-22,24.904794,121.043628,1.2273023e-08
C0U780,五結,2026-02-22,24.68637,121.79794,1.4213072e-09
C1I250,鯉潭,2026-02-22,23.961922,120.991131,4.6226623e-09
C0R130,阿禮,2026-02-22,22.742908,120.743678,7.477287e-10
C0X100,臺南市北區,2026-02-22,23.010394,120.194228,0.7602605
C0S920,金峰嘉蘭,2026-02-22,22.594789,120.960825,3.307331e-06
C0V490,新興,2026-02-22,22.627422,120.298803,0.98092747
C0F9K0,大安,2026-02-22,24.345061,120.588025,7.784249e-09
467290,古坑,2026-02-22,23.633639,120.551889,2.090894e-07
C2E970,八甲,2026-02-22,24.535811,120.795983,1.9356396e-09
C0V440,鳳山,2026-02-22,22.646653,120.356122,0.96683127
C1T940,大觀,2026-02-22,23.714206,121.373133,4.8183004e-09
C0E740,造橋,2026-02-22,24.637056,120.864778,2.695943e-09
C0R100,尾寮山,2026-02-22,22.833111,120.683889,7.905532e-10
A2K630,臺大雲林校區,2026-02-22,23.730628,120.423903,4.1461865e-09
467990,馬祖,2026-02-22,26.169467,119.923158,1.3347514e-07
C0D580,寶山,2026-02-22,24.735006,121.025192,3.906618e-09
E2P990,林試扇平站,2026-02-22,22.9677,120.6857,1.3271314e-08
C0AI30,三重,2026-02-22,25.057328,121.500629,3.9938413e-09
C0AH00,汐止,2026-02-22,25.066881,121.658778,2.8292875e-09
C1Z040,立山,2026-02-22,23.443356,121.327375,9.561467e-09
466881,新北,2026-02-22,24.959207,121.525196,3.1749556e-09
C0W130,花嶼,2026-02-22,23.40007,119.32276,0.9993717
C0A950,鼻頭角,2026-02-22,25.129036,121.923372,4.7831303e-09
C0K470,林內,2026-02-22,23.748675,120.609642,5.0621225e-08
C2F990,摩天嶺,2026-02-22,24.322458,120.936819,2.4837092e-09
C2E430,南庄,2026-02-22,24.601775,121.000214,2.8942009e-09
82C160,茶改場,2026-02-22,24.908472,121.185333,7.644397e-09
C2TB60,南安,2026-02-22,23.29818,121.26157,7.91717e-09
C0Z320,清水林道,2026-02-22,23.27125,121.188272,9.199015e-09
C0R760,南仁湖,2026-02-22,22.084681,120.863353,0.71514875
C0M670,大林,2026-02-22,23.600616,120.45841,3.104695e-07
C0M800,茶山,2026-02-22,23.299075,120.664767,1.1525563e-09
C0A9C0,天母,2026-02-22,25.117494,121.537169,3.8704466e-09
72K220,南改斗南分場,2026-02-22,23.634556,120.477333,7.497313e-09
72AI40,桃改樹林分場,2026-02-22,24.944503,121.386972,3.4188248e-09
C0S910,蘭嶼燈塔,2026-02-22,22.081197,121.503117,0.99937516
C0B050,八斗子,2026-02-22,25.144754,121.79167,4.3393107e-09
C0U900,內城,2026-02-22,24.71813,121.68766,1.4082896e-09
C0X320,柳營,2026-02-22,23.253328,120.375253,4.193013e-05
C0M790,新港,2026-02-22,23.553269,120.345728,6.0971126e-07
C0F9T0,西屯,2026-02-22,24.179494,120.641275,2.88099e-06
C0E950,松安,2026-02-22,24.39792,120.98599,4.3457216e-09
C0SA30,都歷,2026-02-22,23.020333,121.323642,1.2070262e-08
C0C620,蘆竹,2026-02-22,25.084275,121.265767,2.5676645e-08
C0R730,大坪頂,2026-02-22,22.024633,120.69355,0.96648675
C0AJ40,石門,2026-02-22,25.273672,121.601198,1.5442755e-08
C0E750,苗栗,2026-02-22,24.564569,120.824575,2.341347e-09
C0T870,鯉魚潭,2026-02-22,23.935639,121.508944,3.076398e-09
C1V170,排雲,2026-02-22,23.463619,120.954147,3.2131364e-08
C2H950,中寮,2026-02-22,23.884447,120.766406,1.1747795e-07
C0R350,貓鼻頭,2026-02-22,21.921774,120.7358,0.39552993
C0V660,岡山,2026-02-22,22.797078,120.294958,0.9115665
C1H941,雙冬,2026-02-22,23.967378,120.802189,1.9785735e-09
C0AJ70,田寮,2026-02-22,25.2698,121.4886,1.9934577e-08
C0AI00,五股,2026-02-22,25.07445,121.42728,4.1155843e-09
C0Z280,德武,2026-02-22,23.47426,121.41071,2.5927125e-09
C2RA10,大新,2026-02-22,22.67558,120.57788,0.99866396
C0R700,枋山,2026-02-22,22.246844,120.661086,0.8969644
C0C460,復興,2026-02-22,24.820208,121.352281,2.4417866e-09
C2K300,鹿南,2026-02-22,23.63855,120.3636,1.069823e-08
E2H360,蓮華池,2026-02-22,23.918333,120.885278,2.9093603e-09
C0M640,中埔,2026-02-22,23.42538,120.5229,4.9117986e-08
C0W140,金沙,2026-02-22,24.488292,118.408778,1.9192191e-07
C2A540,四堵,2026-02-22,24.8926,121.745736,3.758535e-09
C0ACA0,新莊,2026-02-22,25.051478,121.446756,4.4327773e-09
C0R220,潮州,2026-02-22,22.534361,120.54,0.8644528
U2HA40,臺大內茅埔,2026-02-22,23.689722,120.851117,1.1955397e-09
467490,臺中,2026-02-22,24.145736,120.684075,0.0025451742
C0UB60,明池,2026-02-22,24.650688,121.475277,7.0052124e-09
C0U960,翠峰湖,2026-02-22,24.510856,121.608044,1.301939e-08
E2HA20,林試畢祿溪站,2026-02-22,24.226944,121.308522,7.541286e-09
C2M9A0,大華,2026-02-22,23.4824,120.67491,1.4689073e-09
C0V890,前鎮,2026-02-22,22.5718,120.3117,0.99270344
C1F941,雪嶺,2026-02-22,24.280586,121.026642,1.7299518e-08
C2H9E0,國姓南港,2026-02-22,23.911108,120.846556,2.2885978e-09
C0AC80,文山,2026-02-22,25.00235,121.575728,3.332355e-09
C0F9R0,龍井,2026-02-22,24.184536,120.528972,2.4488585e-08
C0M760,民雄,2026-02-22,23.551754,120.428457,3.104695e-07
C0UA40,西德山,2026-02-22,24.560647,121.752608,6.863066e-09
C2TA70,赤科坪,2026-02-22,23.39885,121.39168,1.008968e-08
C1T920,中興,2026-02-22,23.769503,121.498653,3.6960388e-09
C0D550,雪霸,2026-02-22,24.526972,121.11605,8.177062e-09
C2F860,梨山,2026-02-22,24.247522,121.243669,1.0503881e-08
C0R320,車城,2026-02-22,22.0744,120.716247,0.48886412
C1S870,南美山,2026-02-22,23.15025,121.382333,1.831761e-08
C0B020,基隆嶼,2026-02-22,25.19141,121.78391,4.3381854e-09
C1U501,牛鬥,2026-02-22,24.637836,121.573656,4.427986e-09
C0M730,嘉義市東區,2026-02-22,23.457673,120.460531,1.4885502e-06
C2R990,泰武,2026-02-22,22.60686,120.69765,3.0198197e-09
C0S700,知本,2026-02-22,22.684866,121.005642,1.2042851e-08
C1N001,沙崙,2026-02-22,22.935472,120.309406,0.7196432
C0V760,橋頭,2026-02-22,22.757806,120.30575,0.6537458
C0G960,福寶,2026-02-22,24.0443,120.3814,1.08766764e-08
C0X210,白河,2026-02-22,23.347466,120.414427,8.916792e-06
C0S810,東河,2026-02-22,22.972672,121.303986,1.4746263e-08
C2R170,屏東,2026-02-22,22.66027,120.49403,0.99960613
C0R670,楓港,2026-02-22,22.190131,120.692156,0.9556315
C0FA50,霧峰,2026-02-22,24.0419,120.6995,0.00019422558
C0UB10,蘇澳,2026-02-22,24.5969,121.8571,1.3992212e-09
C0G950,防潮門,2026-02-22,24.1835,120.4871,1.8618424e-08
C0M740,六腳,2026-02-22,23.492871,120.290625,7.186024e-07
C1R250,力里,2026-02-22,22.428117,120.629228,1.8001786e-07
C0K330,虎尾,2026-02-22,23.719183,120.442036,4.1461865e-09
C2FA00,烏石坑,2026-02-22,24.273503,120.947617,2.4811335e-09
C0V620,永安,2026-02-22,22.82315,120.236856,0.9224631
C1I330,楓樹林,2026-02-22,23.986803,121.076117,2.1863542e-09
C0W200,湖西,2026-02-22,23.596314,119.67275,0.9978223
72Q010,高雄農改場,2026-02-22,22.709333,120.525889,0.9994826
C0SA40,瑞和,2026-02-22,22.974361,121.156697,1.3858699e-08
C0C680,龜山,2026-02-22,25.02846,121.38656,3.3757606e-09
C2V260,月眉,2026-02-22,22.971003,120.539853,0.00014093456
C0V450,鳳森,2026-02-22,22.545064,120.392592,0.0224315
C0FA90,小雪山林道,2026-02-22,24.29515,121.03651,2.2501583e-08
C0U720,南山,2026-02-22,24.43742,121.38167,6.248166e-09
A2N290,臺南蘭花園區,2026-02-22,23.340258,120.379661,1.2825346e-05
C0R560,新園,2026-02-22,22.5434,120.461558,0.06102433
C0U890,三星,2026-02-22,24.66812,121.65302,1.4720065e-09
C1V300,御油山,2026-02-22,23.001983,120.715364,2.3435898e-09
C0U600,礁溪,2026-02-22,24.817539,121.765608,1.1173984e-09
C1T980,龍澗,2026-02-22,24.023289,121.411328,1.4521022e-08
C0D670,海天一線,2026-02-22,24.831986,120.914438,2.0209632e-07
C0SA00,歷坵,2026-02-22,22.520969,120.89185,5.0160367e-08
C0M710,東石,2026-02-22,23.458927,120.15385,3.237989e-07
C0M780,鹿草,2026-02-22,23.41134,120.30835,6.6266887e-07
C0U520,雙連埤,2026-02-22,24.753033,121.641303,3.999871e-09
C0B010,七堵,2026-02-22,25.094819,121.71713,4.325527e-09
C0R480,長治,2026-02-22,22.693128,120.542622,0.9993373
C1V830,國三S383K,2026-02-22,22.781967,120.426475,0.36045763
12Q980,恆春工作站,2026-02-22,22.079678,120.714425,0.50857365
C1O940,東山服務區,2026-02-22,23.286016,120.398472,1.1296671e-05
C1U840,東澳嶺,2026-02-22,24.5378,121.8485,6.4338885e-09
C1D630,飛鳳山,2026-02-22,24.766464,121.119178,3.0775307e-09
C0S940,石寧山,2026-02-22,23.223772,121.406639,5.324918e-08
C0K410,北港,2026-02-22,23.573957,120.292802,2.3186239e-07
C2M620,瑞里,2026-02-22,23.545133,120.675197,1.4473509e-09
C0SB70,小港漁港,2026-02-22,23.158558,121.400431,2.0075895e-07
C2O950,安南,2026-02-22,23.076694,120.144861,0.023010386
C0F0E0,南湖圈谷,2026-02-22,24.363714,121.444667,2.5634659e-08
467610,成功,2026-02-22,23.097486,121.373428,3.3634997e-08
C0G890,伸港,2026-02-22,24.148933,120.484403,1.8618424e-08
C2E540,龍溪,2026-02-22,24.606489,120.783933,2.5734832e-09
C1V200,梅山,2026-02-22,23.268447,120.823556,1.9415891e-09
C0T9H0,加路蘭山,2026-02-22,23.682947,121.5274,5.758529e-09
C2O930,玉井,2026-02-22,23.126042,120.46055,6.7774804e-06
C1F911,新伯公,2026-02-22,24.221361,120.841069,4.605907e-08
C0R490,九如,2026-02-22,22.7405,120.490503,0.9995254
C0X200,左鎮,2026-02-22,23.056758,120.408522,0.008843702
C2TB50,麻汝,2026-02-22,23.42554,121.39358,2.4406737e-09
C0FA60,鞍馬山工作站,2026-02-22,24.267064,121.000793,1.14456515e-08
C0SB50,叭嗡嗡,2026-02-22,23.047062,121.343223,4.1157513e-08
C1F891,稍來,2026-02-22,24.265689,121.001142,1.0987479e-08
C2M9C0,紫雲,2026-02-22,23.494914,120.540253,1.016384e-06
72N240,七股研究中心,2026-02-22,23.081672,120.062894,0.052688994
C0C700,中壢,2026-02-22,24.977661,121.256375,1.09715e-08
C0M690,水上,2026-02-22,23.419734,120.388909,1.7138042e-07
C0V690,鼓山,2026-02-22,22.623325,120.275575,0.98239356
C0O860,大內,2026-02-22,23.11885,120.36083,0.41597506
C0Z200,萬榮,2026-02-22,23.709219,121.420106,4.829802e-09
C0T9D0,和中,2026-02-22,24.26676,121.74103,2.6853915e-09
C2S9A0,北份子寮,2026-02-22,22.78561,121.07813,8.020925e-06
C1O921,楠西,2026-02-22,23.183511,120.484083,3.7657662e-06
C0AJ30,淡水觀海,2026-02-22,25.184591,121.408616,1.7447276e-08
C0V810,左營,2026-02-22,22.67491,120.28491,0.9485699
C0UA70,桃源谷,2026-02-22,24.962606,121.888875,6.0266965e-09
C0X130,官田,2026-02-22,23.193217,120.315422,0.0049420265
C1H000,翠峰,2026-02-22,24.109397,121.205211,9.950947e-09
C0UA90,石城,2026-02-22,24.980444,121.951214,4.7664366e-09
C1E681,南勢山,2026-02-22,24.421669,120.923831,2.338941e-09
C0A9F0,內湖,2026-02-22,25.079422,121.57545,3.8764014e-09
C0K291,宜梧,2026-02-22,23.536281,120.169329,4.0821725e-08
C1K540,口湖,2026-02-22,23.585344,120.180517,4.665127e-08
C0R780,滿州,2026-02-22,22.024403,120.839892,0.9967936
C0V870,文安,2026-02-22,22.8025,120.2164,0.95113385
C0U650,玉蘭,2026-02-22,24.675286,121.587061,5.172448e-09
C0R640,東港,2026-02-22,22.46247,120.44074,0.047013327
C0AJ80,板橋,2026-02-22,25.0107,121.4489,3.274996e-09
C0S660,下馬,2026-02-22,23.150427,121.070312,1.2560068e-08
C2N190,烏樹,2026-02-22,23.32393,120.36989,0.0013246356
C1H9B1,阿眉,2026-02-22,24.1263,120.994672,6.498366e-09
C0UA20,多加屯,2026-02-22,24.368614,121.373189,1.1651867e-08
C0E730,頭份,2026-02-22,24.688247,120.912206,7.892113e-09
72V140,高改旗南分場,2026-02-22,22.857861,120.516667,0.44188341
C0K480,莿桐,2026-02-22,23.761192,120.502372,4.283426e-09
C0U980,坪林石牌,2026-02-22,24.86478,121.77396,3.687378e-09
C0T900,西林,2026-02-22,23.8119,121.441458,3.4732133e-09
C1I150,青雲,2026-02-22,23.793361,120.949378,1.2023773e-09
C2E980,和興,2026-02-22,24.505319,120.923016,1.5333153e-09
467350,澎湖,2026-02-22,23.565503,119.563094,0.9993435
C0G800,埔鹽,2026-02-22,24.000394,120.431683,9.926209e-09
C0H960,草屯,2026-02-22,23.973672,120.68085,7.806852e-06
C1V780,多納林道,2026-02-22,22.888028,120.737917,1.7775611e-09
C0E920,通霄漁港,2026-02-22,24.498589,120.673876,3.5697415e-08
C0Z330,安通山,2026-02-22,23.290728,121.348528,5.9988743e-09
C0AH10,永和,2026-02-22,25.01125,121.508111,3.274996e-09
C0AK10,太平里,2026-02-22,25.134937,121.364899,1.696194e-08
C2G640,鹿港,2026-02-22,24.0753,120.430481,1.2496767e-08
C1E890,國三N149K,2026-02-22,24.463414,120.680019,3.0808977e-08
C1R110,口社,2026-02-22,22.770111,120.645222,0.99693036
C1M870,國三N285K,2026-02-22,23.550319,120.505833,6.7494284e-07
C1E480,鳳美,2026-02-22,24.554803,121.034747,1.3197649e-09
C0T9M0,靜浦,2026-02-22,23.455167,121.495028,2.749488e-09
C2H9M0,發祥,2026-02-22,24.154094,121.164517,4.3680175e-09
C2G9C0,埔南,2026-02-22,23.99124,120.46969,9.926209e-09
C0AI40,石牌,2026-02-22,25.115597,121.513139,3.8764014e-09
C1F871,上谷關,2026-02-22,24.203483,121.018644,2.4588827e-09
C2H9G0,百勝,2026-02-22,24.051142,120.909361,2.3498124e-08
C0G880,二水,2026-02-22,23.810742,120.6173,1.2366073e-08
C0R940,加祿堂,2026-02-22,22.3363,120.6217,0.97173077
C0W220,北竿,2026-02-22,26.220358,119.974881,1.223191e-07
C0O960,崎頂,2026-02-22,22.959547,120.369317,0.2131801
C0TA40,秀林,2026-02-22,24.302864,121.731144,7.926614e-09
C0S750,向陽,2026-02-22,23.248397,120.986133,8.572528e-09
C0T9F0,水璉,2026-02-22,23.797131,121.542514,3.460669e-09
C1M600,頭凍,2026-02-22,23.406364,120.603339,6.7159056e-10
467660,臺東,2026-02-22,22.752211,121.154586,1.1011554e-06
C1D380,新埔,2026-02-22,24.84745,121.03834,8.755372e-09
C2G980,田頭村,2026-02-22,23.8263,120.444175,3.6825423e-09
C0V750,路竹,2026-02-22,22.854997,120.259439,0.8812765
C0N050,蚵寮,2026-02-22,23.301,120.1104,0.00058207917
C2X060,下營,2026-02-22,23.226806,120.256291,0.0010196699
72M700,南改鹿草分場,2026-02-22,23.416869,120.283061,7.2426263e-07
C1SA50,利嘉林道,2026-02-22,22.82325,121.009389,1.1686432e-08
C0UB70,太平山中間站,2026-02-22,24.542003,121.513453,4.4416213e-09
C0A940,金山,2026-02-22,25.223628,121.643967,1.2826152e-08
C1V340,大津,2026-02-22,22.888322,120.645986,0.9639881
C0W180,七美,2026-02-22,23.219333,119.444892,0.9996239
C1F9C1,白冷,2026-02-22,24.182844,120.929889,7.276062e-09
K2E710,苗改生物防治研究中心,2026-02-22,24.422861,120.871833,1.5879313e-09
C0N040,蘆竹溝,2026-02-22,23.2344,120.0961,0.0005820797
C0TB40,崇德,2026-02-22,24.166144,121.657414,6.1235768e-09
C0D760,大坪苗圃,2026-02-22,24.5362,121.1108,4.954287e-09
C2W230,畜試所澎湖,2026-02-22,23.628342,119.513206,0.99902815
C0R880,後壁湖,2026-02-22,21.9457,120.7457,0.31221935
C1I280,埔中,2026-02-22,23.820778,120.642594,2.8871325e-09
467790,墾丁雷達站,2026-02-22,21.948235,120.808028,0.9866842
C0W190,望安,2026-02-22,23.380564,119.494075,0.99948466
C0Z170,卓溪,2026-02-22,23.3443,121.3029,6.347335e-09
C0F850,東勢,2026-02-22,24.246428,120.833047,8.347621e-08
466900,淡水,2026-02-22,25.164889,121.448906,8.64705e-09
C0I370,魚池,2026-02-22,23.895703,120.94135,3.256521e-09
C0C630,大溪,2026-02-22,24.882853,121.265547,5.9892935e-09
C0A520,山佳,2026-02-22,24.974944,121.402008,3.3969134e-09
C0I110,竹山,2026-02-22,23.761225,120.688156,1.43256e-06
82H840,茶改南部分場,2026-02-22,23.762528,120.7405,3.6781058e-09
C2SD80,再來山,2026-02-22,23.34371,121.44122,1.3842373e-08
C0G660,溪湖,2026-02-22,23.94835,120.479122,8.141718e-09
C1T800,洛韶,2026-02-22,24.204558,121.453956,7.77852e-09
C1T810,慈恩,2026-02-22,24.192044,121.388386,7.1714457e-09
C1E451,象鼻,2026-02-22,24.368617,120.940228,3.6785268e-09
C0AC60,三峽,2026-02-22,24.939025,121.369728,9.989971e-09
C0I490,萬大林道,2026-02-22,23.928228,121.091411,3.4401098e-09
C1I290,豐丘,2026-02-22,23.668178,120.887417,2.86093e-09
C1I320,奧萬大,2026-02-22,23.952956,121.178556,2.0862219e-09
C2M910,嘉義大學,2026-02-22,23.471325,120.485903,6.1385657e-07
C0U770,南澳,2026-02-22,24.44935,121.81022,2.0736302e-09
C2TB30,吉安,2026-02-22,23.94538,121.54803,3.1855465e-09
C0A980,社子,2026-02-22,25.109508,121.469681,4.9550057e-09
C0V800,六龜,2026-02-22,22.997889,120.633583,0.004119719
C1G9D0,國一S218K,2026-02-22,23.890641,120.493253,1.19714665e-08
C0E570,白沙屯,2026-02-22,24.549447,120.696803,1.482896e-08
C2F9A0,中竹林,2026-02-22,24.103556,120.751061,3.8009194e-08
C0FA40,臺中電廠,2026-02-22,24.2146,120.4907,3.2301454e-08
C2G9A0,畜試所彰化,2026-02-22,23.86045,120.557964,4.224714e-09
C0H9C0,合歡山,2026-02-22,24.143442,121.272547,2.4584056e-08
G2M350,農試溪口農場,2026-02-22,23.58565,120.408111,6.146961e-07
C0U860,頭城,2026-02-22,24.85323,121.8308,1.8208917e-09
C0R580,南州,2026-02-22,22.48591,120.50274,0.97179526
C0D430,峨眉,2026-02-22,24.6905,121.017189,4.631064e-09
C0G780,秀水,2026-02-22,24.03405,120.503869,1.030803e-08
72N100,臺南農改場,2026-02-22,23.0605,120.342194,0.6407785
C0S900,蘭嶼高中,2026-02-22,22.04909,121.51214,0.98618865
C2TA60,六十石,2026-02-22,23.22477,121.31861,1.1650112e-08
C1F9W0,德基,2026-02-22,24.254783,121.190261,9.936325e-09
C2M980,安和,2026-02-22,23.51377,120.31593,6.5734326e-07
C1Z120,壽豐,2026-02-22,23.870853,121.508081,3.3879128e-09
C0W160,烏坵,2026-02-22,24.9944,119.44956,6.292737e-07
C1I240,外大坪,2026-02-22,23.958697,120.917931,2.6809135e-09
C1I550,國六W023K,2026-02-22,23.979067,120.867742,8.730359e-09
C0R870,興海,2026-02-22,21.9752,120.8439,0.98291814
C0R140,瑪家,2026-02-22,22.682903,120.686639,7.240382e-10
C0A530,坪林,2026-02-22,24.938183,121.70975,3.3018155e-09
C0X260,後壁,2026-02-22,23.366358,120.362326,0.000112562186
C0Z230,和平,2026-02-22,24.30717,121.77007,1.7548123e-09
C0G770,福興,2026-02-22,24.041289,120.437669,9.926209e-09
C0H9A0,神木村,2026-02-22,23.532742,120.843667,3.148632e-09
C0I460,南投,2026-02-22,23.911469,120.687331,8.836431e-06
C0I480,梅峰,2026-02-22,24.085272,121.173572,6.5951253e-09
C1V570,吉東,2026-02-22,22.85422,120.5454,0.9987596
C2A560,福山,2026-02-22,24.776203,121.502811,5.0743973e-09
C0AH30,五分山,2026-02-22,25.07125,121.780794,6.226609e-09
C0FA10,松柏,2026-02-22,24.429115,120.617482,4.8039577e-09
72S200,東改班鳩分場,2026-02-22,22.829528,121.077694,5.465729e-08
72HA00,中改埔里分場,2026-02-22,23.903208,120.963364,3.4518617e-09
C2H9W0,大坪頂農水,2026-02-22,24.043122,120.932781,3.2148328e-09
C0C650,平鎮,2026-02-22,24.897503,121.214636,5.6854184e-09
C0S930,延平,2026-02-22,22.902581,121.084058,1.1847102e-08
C0UA60,樟樹山,2026-02-22,24.41393,121.78325,2.8352947e-09
C2UC10,出水溪,2026-02-22,24.615822,121.652253,3.968797e-09
C1S670,摩天,2026-02-22,23.199503,121.027,9.476588e-09
C2C590,觀音,2026-02-22,25.027072,121.153317,3.2190684e-08
C0V630,茄萣,2026-02-22,22.906642,120.182608,0.9801793
466940,基隆,2026-02-22,25.133314,121.740475,4.3662265e-09
C0X050,東河,2026-02-22,23.296598,120.385608,1.2825346e-05
C0R770,保力,2026-02-22,22.071122,120.764111,0.964893
G2L020,農試嘉義分所,2026-02-22,23.485028,120.473806,5.261095e-07
C0X240,關子嶺,2026-02-22,23.331169,120.508025,1.2705474e-09
C0I380,集集,2026-02-22,23.828206,120.801467,4.3205386e-09
466990,花蓮,2026-02-22,23.975128,121.613275,6.3691523e-09
C1V220,小關山,2026-02-22,23.154217,120.813603,3.6647028e-09
C1F9G1,慶福山,2026-02-22,24.180853,120.848378,2.2061977e-09
C0FB20,雪山橋,2026-02-22,24.23192,120.9786,1.0701495e-08
C0Z250,瑞穗林道,2026-02-22,23.49284,121.30688,9.620316e-09
C0D590,新豐,2026-02-22,24.87068,120.97721,1.2752683e-07
C0A870,五指山,2026-02-22,25.132153,121.608692,9.303971e-09
C0UA50,西帽山,2026-02-22,24.555361,121.802628,6.3846235e-09
C2R980,竹田國中,2026-02-22,22.61532,120.52412,0.94192374
C0X160,仁德,2026-02-22,22.968258,120.257689,0.9906906
C1H971,六分寮,2026-02-22,23.92507,120.6378,7.569386e-09
C0W120,西嶼,2026-02-22,23.5626,119.468436,0.99917454
C0G650,員林,2026-02-22,23.946503,120.585597,8.040192e-09
C0AD50,鶯歌,2026-02-22,24.951533,121.346294,6.3944094e-09
C2H9Q0,北東眼山,2026-02-22,24.120939,121.189303,7.2918582e-09
C2H9T0,名間竹圍,2026-02-22,23.859914,120.637572,8.335303e-09
C0S990,山豬窟,2026-02-22,22.318619,120.857372,6.962586e-09
C0X190,安平,2026-02-22,22.993161,120.152181,0.78871554
C0K400,斗六,2026-02-22,23.720583,120.541127,3.7932986e-09
12J990,口湖工作站,2026-02-22,23.589978,120.180394,4.5051454e-08
C0O830,北寮,2026-02-22,23.079561,120.495008,2.6120726e-05
C1D410,白蘭,2026-02-22,24.579364,121.079947,4.0246126e-09
C0S970,加津林,2026-02-22,22.416211,120.926942,2.0417749e-05
C0D700,關西,2026-02-22,24.7977,121.1732,2.5863658e-09
C0U750,龜山島,2026-02-22,24.841667,121.953133,3.8810772e-09
C0R810,內獅,2026-02-22,22.305064,120.642986,0.97173077
C1M390,龍美,2026-02-22,23.406728,120.654417,1.8918178e-09
C2K290,崙內,2026-02-22,23.69525,120.35601,1.069823e-08
C2FB60,頭櫃山,2026-02-22,24.129842,120.858925,1.7021985e-09
C1H840,國三N238K,2026-02-22,23.841008,120.707711,1.3704348e-08
CAQ030,崎峰國小,2026-02-22,22.42565,120.49521,0.97179526
C2E520,大湖,2026-02-22,24.414939,120.870872,1.5629161e-09
467530,阿里山,2026-02-22,23.508208,120.813242,1.2854414e-08
C1E691,南湖,2026-02-22,24.40135,120.837533,1.8411754e-09
C0FA30,梧棲,2026-02-22,24.256003,120.523381,2.212123e-08
C1V231,高中,2026-02-22,23.134911,120.716711,1.1925704e-08
C0AK30,硬漢嶺,2026-02-22,25.136097,121.426372,7.0357427e-09
C0F9V0,新社,2026-02-22,24.200172,120.815806,1.2799026e-08
C0H890,埔里,2026-02-22,23.972169,120.952425,2.3804606e-08
C0R690,墾丁,2026-02-22,21.966756,120.810269,0.9995637
C0SD20,富山,2026-02-22,22.822383,121.190825,4.036669e-08
C0F0D0,審馬陣,2026-02-22,24.381675,121.4203,1.9083192e-08
C2W030,金門農試所,2026-02-22,24.448431,118.451786,1.3367378e-06
C0R820,白鷺,2026-02-22,22.454275,120.666219,1.686531e-09
C0FB00,大雪山,2026-02-22,24.254668,121.007374,1.15206005e-08
C1V190,南天池,2026-02-22,23.27403,120.91176,9.880931e-09
C0E940,雪見,2026-02-22,24.42595,121.01347,7.963149e-09
K2E360,苗栗農改場,2026-02-22,24.495722,120.829111,2.3441085e-09
CAJ050,海口故事園區,2026-02-22,23.57543,120.14121,4.665127e-08
C2K280,四湖,2026-02-22,23.6304,120.22717,2.9370051e-08
C2H9D0,三隻寮,2026-02-22,24.093078,120.861578,2.4182785e-09
C0O990,媽廟,2026-02-22,22.99175,120.293525,0.90152854
C0D480,打鐵坑,2026-02-22,24.849664,121.150789,3.8834465e-09
C0Z220,和平林道,2026-02-22,24.343922,121.656317,2.331743e-09
C0TA10,花蓮漁港,2026-02-22,23.995322,121.638331,3.2051247e-07
72C440,桃園農改場,2026-02-22,24.950944,121.030583,1.4208986e-08
C1E711,馬拉邦山,2026-02-22,24.367306,120.901656,4.221814e-09
C0SB20,富岡,2026-02-22,22.792467,121.192669,3.7948746e-07
C0D560,竹東,2026-02-22,24.767147,121.057881,5.183302e-09
C0F9U0,南屯,2026-02-22,24.137006,120.637969,9.777923e-06
C2SD60,明峰,2026-02-22,22.8671,121.11825,9.313843e-09
C0M720,番路,2026-02-22,23.464657,120.554156,8.014148e-09
C0F0A0,雪山圈谷,2026-02-22,24.388594,121.236339,2.9662008e-08
C1A9N0,四十份,2026-02-22,24.934158,121.593283,2.8294602e-09
C0U760,東澳,2026-02-22,24.52196,121.83318,2.099875e-09
C0X230,鹽水,2026-02-22,23.272621,120.247641,0.0007308714
C2H9H0,苗改南投蜂場,2026-02-22,23.852589,120.693481,4.576532e-07
C2TB70,達谷寮,2026-02-22,23.38,121.35968,7.477405e-09
C0R950,萬隆國小,2026-02-22,22.507667,120.587817,0.043335803
467540,大武,2026-02-22,22.35572,120.90374,0.9883036
C0V370,古亭坑,2026-02-22,22.893178,120.401947,0.0016009796
C1I340,新興橋,2026-02-22,23.563333,120.868728,1.0510971e-09
C0SA80,土坂,2026-02-22,22.453108,120.887572,1.5639853e-06
C0R160,鹽埔,2026-02-22,22.739558,120.530778,0.9994826
C0AC40,大屯山,2026-02-22,25.175675,121.522408,1.3016162e-08
466850,五分山雷達站,2026-02-22,25.071182,121.781205,6.258519e-09
C2H9L0,馬烈霸,2026-02-22,24.1512,121.201772,8.4242e-09
C1AI50,國三N016K,2026-02-22,25.034164,121.619664,4.661256e-09
C2V920,匏子寮,2026-02-22,23.04905,120.55319,7.953975e-06
C1V600,藤枝,2026-02-22,23.071961,120.757042,1.9788113e-09
C1E601,南勢,2026-02-22,24.572486,120.734842,1.1002012e-08
C0O980,新市,2026-02-22,23.061614,120.298197,0.73655146
C0K420,西螺,2026-02-22,23.800407,120.467394,3.2092515e-09
C0Z050,佳心,2026-02-22,23.34567,121.21316,9.725199e-09
C0AD30,蘆洲,2026-02-22,25.086594,121.472331,4.3699173e-09
C0V610,梓官,2026-02-22,22.760558,120.267211,0.93029296
K2F750,種苗改良場,2026-02-22,24.225972,120.800917,1.973539e-08
C0UA80,大溪漁港,2026-02-22,24.941801,121.902955,4.6695403e-09
C1AI60,國一39K邊坡,2026-02-22,25.064361,121.383836,4.110681e-09
C0W150,金寧,2026-02-22,24.457703,118.328989,1.9926236e-07
C0R960,內埔,2026-02-22,22.608483,120.570714,0.94192374
C2H9S0,龍南,2026-02-22,23.953536,120.833183,2.0326112e-09
C0AH40,平等,2026-02-22,25.129142,121.577086,6.6342998e-09
C0R540,佳冬,2026-02-22,22.419456,120.552375,0.9387337
466950,彭佳嶼,2026-02-22,25.627975,122.079744,5.271416e-07
C0A890,雙溪,2026-02-22,25.036003,121.864242,4.767473e-09
C0C480,桃園,2026-02-22,24.992425,121.323172,1.1835358e-08
C0AH50,林口,2026-02-22,25.072181,121.38084,4.1604853e-09
A2K360,水試臺西試驗場,2026-02-22,23.717231,120.190522,3.7134235e-08
C2M960,外寮,2026-02-22,23.562643,120.665688,1.2733082e-09
C0F9S0,烏日,2026-02-22,24.107058,120.624103,3.993234e-08
C2N180,鹿陶洋,2026-02-22,23.14325,120.48352,3.7657662e-06
C0C490,八德,2026-02-22,24.928708,121.283289,6.5581833e-09
C0R190,赤山,2026-02-22,22.592333,120.614306,0.9198449
C0T820,天祥,2026-02-22,24.179597,121.495639,6.594056e-09
C1F9E1,龍安,2026-02-22,24.1605,120.831961,1.0400157e-08
C2SD50,順那,2026-02-22,23.04166,121.29332,9.173399e-09
C0V820,小林,2026-02-22,23.148408,120.63325,1.4880008e-09
C2G870,芳苑,2026-02-22,23.922303,120.320025,3.0736313e-08
C0E850,大河,2026-02-22,24.618069,120.948578,3.750171e-09
C1U670,寒溪,2026-02-22,24.634,121.71691,1.4583493e-09
C0N020,城西,2026-02-22,23.0568,120.0956,0.039263714
C1Z110,三棧,2026-02-22,24.11557,121.60501,7.39015e-09
C0R280,檳榔,2026-02-22,22.076078,120.836777,0.7826129
C2H9J0,中台,2026-02-22,23.9996,120.938739,9.291823e-09
C0F9L0,后里,2026-02-22,24.310436,120.729725,2.2092205e-07
467441,高雄,2026-02-22,22.730432,120.312516,0.6537458
C0Z180,新城,2026-02-22,24.040486,121.604878,6.263176e-09
C0D540,橫山,2026-02-22,24.71116,121.11693,3.351356e-09
C1D420,太閣南,2026-02-22,24.632808,121.160575,6.361212e-09
C1E770,公館,2026-02-22,24.526914,120.830806,2.205167e-09
CAN130,水試所海水繁養殖中心,2026-02-22,23.120802,120.07968,0.046490982
C1I430,翠華,2026-02-22,24.191961,121.224339,1.2957679e-08
C1M400,菜瓜坪,2026-02-22,23.251928,120.576103,1.1598602e-09
C0G730,二林,2026-02-22,23.903325,120.376081,6.6135293e-09
72M360,南改義竹分場,2026-02-22,23.360694,120.279361,0.00019347497
V2K620,麥寮合作社,2026-02-22,23.753836,120.294783,9.1358405e-09
C0Z070,舞鶴,2026-02-22,23.46811,121.37407,2.5986933e-09
C0B040,大武崙,2026-02-22,25.166676,121.706993,4.3176387e-09
C1Z030,紅葉,2026-02-22,23.493119,121.338806,2.6009743e-09
C1I050,丹大,2026-02-22,23.753747,121.141147,9.373242e-09
C0I080,信義,2026-02-22,23.689694,120.851036,1.1955397e-09
C2TB80,庄子底,2026-02-22,23.71794,121.49438,4.743392e-09
C0D750,樂山林道6k,2026-02-22,24.49999,121.08773,1.3117499e-08
C2M920,朴子農改,2026-02-22,23.469889,120.259383,7.2426263e-07
C2A880,福隆,2026-02-22,25.017842,121.942083,4.733405e-09
C0Z160,鳳林,2026-02-22,23.746114,121.453411,4.676689e-09
C0UB80,翠峰林道6K,2026-02-22,24.49773,121.568625,1.4594074e-08
C0V210,復興,2026-02-22,23.222403,120.806089,3.4250776e-09
C0H990,昆陽,2026-02-22,24.121322,121.273642,1.889828e-08
C0R741,獅子,2026-02-22,22.202308,120.705236,0.80589265
C0S710,鹿野,2026-02-22,22.917711,121.122994,8.667988e-09
C0I530,小奇萊,2026-02-22,24.131764,121.295717,2.0363723e-08
C0FA70,大雪山埡口,2026-02-22,24.26867,121.03062,1.7054816e-08
C2K630,荷苞,2026-02-22,23.657717,120.595144,3.5028737e-08
C0Z080,富源,2026-02-22,23.587642,121.378225,4.7496567e-09
C2M9E0,旺來山,2026-02-22,23.555153,120.486463,5.1075943e-07
C0SB10,美和,2026-02-22,22.682078,121.060236,0.0005737421
C2K620,馬光農場,2026-02-22,23.721453,120.378864,4.362555e-09
C1I140,卡奈托灣,2026-02-22,23.754364,121.087872,3.69594e-09
C0I520,玉山風口,2026-02-22,23.470489,120.955994,3.7611255e-08
C1G691,下水埔,2026-02-22,23.816114,120.5676,3.6640808e-09
C0X110,臺南市南區,2026-02-22,22.961189,120.188378,0.99029285
C0V680,仁武,2026-02-22,22.701083,120.347722,0.55882186
C2G840,北斗,2026-02-22,23.877586,120.514222,1.05443485e-08
C2TB90,長橋,2026-02-22,23.6874,121.46186,4.6665845e-09
C0R900,竹坑,2026-02-22,22.1385,120.7022,0.9556315
C0G860,社頭,2026-02-22,23.897647,120.5862,1.02575655e-08
C0X150,安定,2026-02-22,23.102614,120.227839,0.22076352
C0R590,里港,2026-02-22,22.77919,120.49459,0.48791343
C0E610,馬都安,2026-02-22,24.451272,120.930192,1.7407379e-09
C0E550,明德,2026-02-22,24.583486,120.885411,1.99958e-09
C0R150,三地門,2026-02-22,22.709889,120.639944,0.9968751
C0G910,花壇,2026-02-22,24.032076,120.549461,9.815057e-09
C1D400,鳥嘴山,2026-02-22,24.71909,121.28387,3.7708783e-09
C0K500,元長,2026-02-22,23.64981,120.315024,1.108124e-08
C0F0B0,石岡,2026-02-22,24.276061,120.777644,5.80404e-08
C2V250,甲仙,2026-02-22,23.080106,120.591758,8.235956e-07
C0SA20,金崙山,2026-02-22,22.567419,120.959667,2.1021561e-08
C0V350,溪埔,2026-02-22,22.738578,120.446797,0.7495985
C0M660,溪口,2026-02-22,23.604131,120.403569,6.146961e-07
C1S880,壽卡,2026-02-22,22.238911,120.858903,8.621951e-09
72D680,桃改新埔分場,2026-02-22,24.834444,121.066111,9.15894e-09
