站號,站名,日期,lat,lon,BLBTSLS
C0R710,龍磐,2026-04-16,21.931672,120.838942,2.545e-07
C1F9D1,白毛台,2026-04-16,24.158325,120.886933,2.2954857e-06
C0G940,竹塘,2026-04-16,23.848253,120.386764,2.8229965e-07
467590,恆春,2026-04-16,22.003897,120.746339,0.0034544787
C0U710,太平山,2026-04-16,24.505486,121.525656,3.4346157e-09
C0E820,獅潭,2026-04-16,24.539133,120.920042,8.068082e-07
C2SD70,二層坪,2026-04-16,22.94105,121.16838,0.037343625
C0V880,興達,2026-04-16,22.8778,120.2127,8.168949e-07
C0SB30,新蘭,2026-04-16,22.869214,121.223228,0.004178288
C2R970,屏科大,2026-04-16,22.648275,120.619247,0.99385476
C1Z130,銅門,2026-04-16,23.965694,121.492842,2.3957138e-05
C0AD40,土城,2026-04-16,24.973208,121.445169,2.6645374e-05
CAN140,六官養殖協會,2026-04-16,23.22881,120.29962,0.09142988
C0X180,山上,2026-04-16,23.0757,120.363253,0.24931341
C0F9Z0,雪山東峰,2026-04-16,24.388792,121.268675,1.2978778e-08
C1M480,獨立山,2026-04-16,23.537022,120.607797,1.8880446e-08
C0X220,學甲,2026-04-16,23.230367,120.182187,0.00025820648
467650,日月潭,2026-04-16,23.881325,120.90805,1.5525321e-09
A2K570,古坑(花卉中心),2026-04-16,23.633531,120.552392,0.0021166347
C0K600,箔子寮,2026-04-16,23.6197,120.14,3.6422804e-08
C0G830,埤頭,2026-04-16,23.866003,120.452806,3.884585e-06
C0S950,七塊厝,2026-04-16,22.954453,121.229922,0.0032467244
467110,金門,2026-04-16,24.407306,118.289281,9.685918e-09
C0AH80,深坑,2026-04-16,25.002703,121.628328,5.2711493e-07
C0A970,三貂角,2026-04-16,25.007606,122.002058,7.874363e-07
C2D730,寶山農場,2026-04-16,24.732444,120.976153,8.723684e-09
C0K430,褒忠,2026-04-16,23.690938,120.303634,8.1582975e-06
467480,嘉義,2026-04-16,23.495925,120.432906,0.9767841
C0V400,阿公店,2026-04-16,22.804194,120.355528,0.013342669
C2S800,華源,2026-04-16,22.65783,121.0232,0.014491385
C2SA40,瑞和,2026-04-16,22.974361,121.156697,0.035594195
C0E960,觀霧分站,2026-04-16,24.505781,121.113921,7.992944e-09
467550,玉山,2026-04-16,23.48718,120.95943,2.7479427e-08
C0R440,大漢山,2026-04-16,22.405264,120.753181,9.901641e-10
C0SD30,東清國小,2026-04-16,22.057128,121.564922,9.390617e-09
C1F9B1,桐林,2026-04-16,24.066172,120.735194,6.600627e-07
C2I210,蘆竹湳,2026-04-16,23.93398,120.81209,4.333653e-09
C2H9U0,鳳鵬,2026-04-16,23.763919,120.788061,6.692397e-08
C0K390,土庫,2026-04-16,23.679029,120.395574,3.2555376e-06
C1I450,望鄉山,2026-04-16,23.594153,120.944286,9.4941734e-09
C0E910,海埔,2026-04-16,24.648767,120.772435,5.106693e-08
B2E890,畜試北區分所,2026-04-16,24.527806,120.770972,5.3074977e-08
C0R750,四林格山,2026-04-16,22.076989,120.802439,1.361373e-09
C0F0C0,中坑,2026-04-16,24.248517,120.903319,1.8596774e-08
C1I121,大鞍,2026-04-16,23.678381,120.760017,7.557038e-09
C2G9E0,移民庄,2026-04-16,23.9784,120.40283,9.301171e-08
72U480,花改蘭陽分場,2026-04-16,24.686306,121.716583,0.000644522
C0A770,科教館,2026-04-16,25.096356,121.516507,6.930704e-06
C0AJ60,六塊厝,2026-04-16,25.24,121.4481,4.0486364e-07
C0R620,墾雷,2026-04-16,21.900836,120.855269,5.730914e-07
467420,永康,2026-04-16,23.038386,120.2367,0.00030285242
C2M530,奮起湖,2026-04-16,23.493903,120.699253,1.3323256e-08
C0I410,名間,2026-04-16,23.837053,120.701447,1.0714535e-06
A2C560,農工中心,2026-04-16,24.985917,121.239833,4.4138284e-09
C0V740,旗山,2026-04-16,22.888614,120.483597,0.99592143
C0Z061,玉里,2026-04-16,23.3215,121.339656,3.9793468e-07
C0S840,南田,2026-04-16,22.279725,120.889208,0.00043452423
C1I470,杉林溪,2026-04-16,23.639517,120.786444,3.3142329e-09
C1X040,東原,2026-04-16,23.291597,120.463822,0.28306836
C0R660,枋寮,2026-04-16,22.367722,120.590647,0.040054757
C1R120,上德文,2026-04-16,22.763272,120.704442,0.99958223
C0K450,大埤,2026-04-16,23.646074,120.431537,0.00049204956
C0UA00,土場,2026-04-16,24.576533,121.495333,1.5891501e-08
467080,宜蘭,2026-04-16,24.763975,121.756528,1.5743479e-05
C0N030,四草,2026-04-16,23.0235,120.1116,9.575562e-06
467410,臺南,2026-04-16,22.99328,120.20492,1.7006084e-07
C0V650,彌陀,2026-04-16,22.783806,120.246361,0.00010057244
C0D660,新竹市東區,2026-04-16,24.798681,120.986942,3.7819348e-09
82S580,茶改東部分場,2026-04-16,22.907694,121.130139,0.00060773466
C0SB40,興隆,2026-04-16,22.913661,121.257469,0.95463395
467050,新屋,2026-04-16,25.006725,121.047492,3.7416688e-09
C0C710,大溪永福,2026-04-16,24.892936,121.324975,3.5022524e-08
C0FA20,溫寮,2026-04-16,24.372177,120.583125,3.8577276e-08
C0V640,湖內,2026-04-16,22.887139,120.2445,8.286678e-07
C0R910,下寮,2026-04-16,22.3929,120.5548,0.0077401698
C0Z020,明里,2026-04-16,23.208717,121.262342,1.7197585e-06
C0M770,嘉義梅山,2026-04-16,23.585398,120.555587,0.5341765
C0C660,楊梅,2026-04-16,24.912375,121.143047,5.4662475e-09
C0SD40,牛頭山,2026-04-16,22.676661,121.506944,2.0780813e-06
C1E511,新開,2026-04-16,24.347703,120.827019,0.00023426287
G2F820,農試所(霧峰),2026-04-16,24.031261,120.688133,2.711806e-06
C2M990,大巃頂,2026-04-16,23.5547,120.61439,2.8429572e-09
C1I070,和社,2026-04-16,23.591131,120.888861,6.491648e-07
C2E990,新坪頂,2026-04-16,24.30201,120.8574,1.8040411e-05
C0TA80,立霧山,2026-04-16,24.183258,121.641899,1.8352921e-09
C2F000,大肚,2026-04-16,24.15295,120.572117,1.0264693e-07
C1S850,豐南,2026-04-16,23.122139,121.262389,0.0010196228
C2M9B0,西興,2026-04-16,23.2428,120.57617,0.0035353536
C2A920,富貴角,2026-04-16,25.263783,121.565258,7.726091e-08
C0T960,光復,2026-04-16,23.660694,121.424964,7.401573e-05
C0F9M0,豐原,2026-04-16,24.254322,120.720692,4.106497e-05
C0R720,旭海,2026-04-16,22.205403,120.887614,6.160793e-07
C0V710,苓雅,2026-04-16,22.622742,120.330669,5.543625e-05
C0C740,觀音工業區,2026-04-16,25.064764,121.114856,7.908009e-09
CAC040,拉拉山,2026-04-16,24.699317,121.427133,4.0291286e-09
C0V790,萬山,2026-04-16,22.905944,120.688056,0.9992371
U2HA30,臺大和社,2026-04-16,23.590856,120.888864,6.491648e-07
C2H9K0,屯原,2026-04-16,24.067969,121.209389,2.9834653e-09
C0AJ90,澳底,2026-04-16,25.0552,121.9253,4.675594e-08
C0Z100,東華,2026-04-16,23.89525,121.549833,0.001822378
C0G970,三豐,2026-04-16,23.882,120.2895,3.8225195e-08
C0V900,汕尾,2026-04-16,22.4782,120.4151,0.0013078233
C1R630,龍泉,2026-04-16,22.66701,120.59091,0.99527574
C1AC50,關渡,2026-04-16,25.133486,121.469331,2.3893247e-07
C0C800,四稜,2026-04-16,24.64733,121.4293,2.1705855e-09
C0F9I0,神岡,2026-04-16,24.272481,120.658314,1.6657907e-07
C0K460,斗南,2026-04-16,23.678734,120.478359,0.00047720023
C2O810,曾文,2026-04-16,23.219681,120.497328,0.7143251
467280,後龍,2026-04-16,24.648563,120.831834,4.0112873e-08
C1F9J1,清水林,2026-04-16,24.071242,120.820419,6.7205224e-09
C2A650,火燒寮,2026-04-16,25.002719,121.742892,2.1836321e-07
466930,竹子湖,2026-04-16,25.162078,121.544547,3.447907e-09
C1I220,樟湖,2026-04-16,23.905333,120.846983,7.7348716e-10
C0I390,仁愛,2026-04-16,24.022122,121.132206,1.6767643e-09
C0Z300,東里,2026-04-16,23.26853,121.30547,2.908345e-07
C1V590,新發,2026-04-16,23.057019,120.646064,0.00035068073
C0K510,水林,2026-04-16,23.572924,120.24597,5.9950906e-07
72S590,東改賓朗果園,2026-04-16,22.813889,121.071278,2.7977226e-06
82A750,茶改北部分場,2026-04-16,24.955778,121.631222,8.029801e-09
C1A750,石碇服務區,2026-04-16,25.00872,121.646242,0.0031917002
C0X300,鹿寮,2026-04-16,23.386047,120.477331,0.8992833
C0K590,雲林東勢,2026-04-16,23.674192,120.255721,1.1656651e-05
C2K310,港尾布雞,2026-04-16,23.74834,120.38439,8.814011e-06
C0A570,桶後,2026-04-16,24.848222,121.597992,3.1665977e-09
C0G720,溪州,2026-04-16,23.851589,120.499093,3.82268e-06
C1V160,達卡努瓦,2026-04-16,23.279811,120.705319,6.8718946e-09
C2M410,馬頭山,2026-04-16,23.324361,120.582017,0.19294176
C0V850,蚵仔寮,2026-04-16,22.7256,120.2527,0.00013455724
C0S740,池上,2026-04-16,23.119628,121.209469,0.007825998
C1V390,尖山,2026-04-16,22.813153,120.367789,0.010750903
C0AH70,松山,2026-04-16,25.04871,121.55042,5.3736753e-06
C0N010,鯤鯓國小,2026-04-16,23.1879,120.0889,4.4384735e-05
C0SA60,知本（水試所）,2026-04-16,22.702394,121.082761,0.39238203
C0T9I0,豐濱,2026-04-16,23.583897,121.514806,0.006094107
C0UB00,淡江大學蘭陽校園,2026-04-16,24.823239,121.730383,3.1941454e-08
C0W240,九宮,2026-04-16,24.423753,118.240186,2.1475625e-08
C0T9N0,富里,2026-04-16,23.171639,121.249378,8.3912784e-07
U2HA50,臺大竹山,2026-04-16,23.756972,120.681556,0.41616
C0V840,鳳鼻頭,2026-04-16,22.5083,120.3591,0.00085541105
C0X140,西港,2026-04-16,23.125608,120.203108,0.011418232
72D080,桃改五峰分場,2026-04-16,24.612194,121.157167,1.9414668e-09
C2H9P0,伊拿谷,2026-04-16,23.963211,121.088264,7.2281057e-09
C2K250,崙背,2026-04-16,23.75553,120.31893,6.85414e-07
C2H9F0,柑林,2026-04-16,24.018658,120.847072,6.2561926e-06
C0TA20,加灣,2026-04-16,24.082025,121.608944,0.00015129405
C0V530,阿蓮,2026-04-16,22.883208,120.327508,0.0020586564
C0FB30,八仙山苗圃,2026-04-16,24.192719,121.001366,2.1914904e-08
C0E791,卓蘭,2026-04-16,24.3126,120.8244,8.329333e-05
C2R260,春日,2026-04-16,22.370361,120.628306,0.0012376934
C1I030,武界,2026-04-16,23.913225,121.052483,2.8689517e-09
C0R520,崁頂,2026-04-16,22.514781,120.506914,0.3790532
C0R341,牡丹,2026-04-16,22.130036,120.792639,2.4114436e-06
C0R930,萬丹,2026-04-16,22.5885,120.4851,0.3277009
C0S760,紅石,2026-04-16,23.069131,121.126219,2.0424706e-09
C2C410,中央大學,2026-04-16,24.967652,121.185165,4.1675063e-09
C1M610,石磐龍,2026-04-16,23.496606,120.663506,6.841139e-08
C2C830,中德,2026-04-16,24.981862,121.291344,1.8433692e-08
C0C790,東眼山,2026-04-16,24.8284,121.40888,2.4495488e-09
C0UA10,鴛鴦湖,2026-04-16,24.590269,121.412228,2.908567e-09
C0R800,丹路,2026-04-16,22.204481,120.750989,4.4683162e-05
C2R240,萬巒,2026-04-16,22.527306,120.625111,0.0074322694
C0G920,永靖,2026-04-16,23.924703,120.547533,1.9357572e-06
C2M950,太和,2026-04-16,23.538372,120.702961,1.4818103e-08
C1A630,下盆,2026-04-16,24.771003,121.538622,4.5603614e-09
B2N890,畜產試驗所,2026-04-16,23.058972,120.336406,0.92502856
C0UA30,白嶺,2026-04-16,24.527819,121.519031,2.4179925e-09
467571,新竹,2026-04-16,24.828575,121.01455,2.8265907e-09
C1V580,溪南(特生中心),2026-04-16,23.084972,120.788475,3.6489258e-09
C1T970,大農,2026-04-16,23.615233,121.413331,9.138099e-05
C0R650,竹田,2026-04-16,22.58486,120.54344,0.40981007
C1H900,清流,2026-04-16,24.080775,120.962997,7.511269e-09
C1C510,水尾,2026-04-16,24.940081,121.087161,5.300707e-09
C2N170,茅港尾,2026-04-16,23.2061,120.2624,0.09142988
C0F9X0,大雅(中科園區),2026-04-16,24.21528,120.62445,3.2594068e-07
C0SB60,白守蓮,2026-04-16,23.126769,121.401914,4.141293e-05
C0O970,虎頭埤,2026-04-16,23.021375,120.347878,0.18627019
C0C730,中大臨海站,2026-04-16,24.966126,121.008581,4.5473154e-09
C0X250,新營,2026-04-16,23.310689,120.316681,0.013910591
C0V700,三民,2026-04-16,22.645017,120.311233,6.29782e-05
C0U870,大礁溪,2026-04-16,24.791042,121.675047,2.5238e-08
C0E870,高鐵苗栗,2026-04-16,24.60725,120.826094,3.9609642e-08
C2S890,關山,2026-04-16,23.0395,121.175017,0.06110617
C0TA30,鹽寮,2026-04-16,23.845606,121.592664,0.0034828663
C0M860,新美,2026-04-16,23.338017,120.683169,0.030432113
C1E701,八卦,2026-04-16,24.491756,120.927619,6.179753e-07
C2TA90,加納納,2026-04-16,23.466421,121.359867,0.035238218
C0I420,國姓,2026-04-16,24.037803,120.855072,6.5193e-08
C2D720,關西工作站,2026-04-16,24.757275,121.184792,6.2236354e-06
C2AK30,信賢,2026-04-16,24.84108,121.53492,6.8610246e-09
C0S960,香蘭,2026-04-16,22.587569,120.993375,3.0282112e-07
467620,蘭嶼,2026-04-16,22.0369,121.55843,2.7398817e-09
C2UC40,中城,2026-04-16,24.62865,121.74745,4.79473e-05
72G600,臺中農改場,2026-04-16,24.003028,120.534389,4.7193396e-07
C0Z210,瑞穗,2026-04-16,23.5239,121.39021,0.03732394
C0M820,達邦,2026-04-16,23.453994,120.749517,7.001134e-07
C0V860,南寮,2026-04-16,22.7616,120.2339,0.00013455724
C0G740,大城,2026-04-16,23.852487,120.320935,3.8202963e-08
C0R920,塭仔,2026-04-16,22.4169,120.5197,0.008355008
C0R470,高樹,2026-04-16,22.826389,120.600806,0.9962455
C0R680,佳樂水,2026-04-16,21.993578,120.861633,7.233632e-07
C1O870,大棟山,2026-04-16,23.31157,120.52226,1.06894426e-07
C0D360,梅花,2026-04-16,24.678347,121.208558,3.1235154e-09
C0Z190,富世,2026-04-16,24.14743,121.6297,2.8638486e-05
C0AI10,屈尺,2026-04-16,24.92184,121.54475,7.182267e-06
B2U990,畜試東區分所,2026-04-16,24.669039,121.832561,0.000102544516
C0SB80,長濱漁港,2026-04-16,23.313644,121.459994,0.8966637
C0TA50,和仁,2026-04-16,24.241394,121.712472,0.027201384
C2AK40,漁光,2026-04-16,24.96875,121.72132,6.2550463e-09
C0V910,大樹,2026-04-16,22.684645,120.432803,0.9883652
C1R610,西大武山,2026-04-16,22.617719,120.7322,1.1822063e-09
C0G900,線西,2026-04-16,24.143358,120.443536,7.7203885e-07
C0M700,竹崎,2026-04-16,23.526178,120.555508,0.7830277
C2E880,三義,2026-04-16,24.405478,120.749819,3.2934377e-09
C0C720,竹圍,2026-04-16,25.112692,121.239824,1.9137941e-08
C0F9P0,清水,2026-04-16,24.312297,120.562242,2.9011395e-07
C0Z150,吉安光華,2026-04-16,23.930925,121.595153,0.1197714
C0FA80,小雪山天池,2026-04-16,24.28025,121.02627,8.176516e-09
467300,東吉島,2026-04-16,23.25727,119.66762,5.1694756e-06
C1D640,外坪(五指山),2026-04-16,24.644447,121.090961,1.2344575e-09
C2R9A0,高士國小,2026-04-16,22.12553,120.84653,5.900784e-06
C0F9O0,潭子,2026-04-16,24.213106,120.703933,3.741058e-05
C2H9R0,卓社,2026-04-16,23.887894,121.000086,1.8854167e-09
72T250,花蓮農改場,2026-04-16,23.975222,121.563889,0.059617955
C0E780,銅鑼,2026-04-16,24.489681,120.790853,9.418064e-08
C1T950,太安,2026-04-16,23.666719,121.370128,1.2686156e-08
C0E830,苑裡,2026-04-16,24.439714,120.653053,2.348419e-08
467270,田中,2026-04-16,23.873803,120.581286,3.79706e-05
C0SA10,檳榔四格山,2026-04-16,22.810031,121.109308,5.5466097e-07
C1T830,布洛灣,2026-04-16,24.17184,121.57127,2.1544139e-08
C0F970,大坑,2026-04-16,24.173142,120.722289,2.6940126e-07
C1U920,思源,2026-04-16,24.393125,121.347214,2.3638231e-09
C2H9Y0,松茗,2026-04-16,23.8167,120.650765,2.6194959e-08
C0A931,三和,2026-04-16,25.233153,121.595236,5.685378e-08
C0I010,廬山,2026-04-16,24.033311,121.181808,3.582959e-09
C2M940,日野賀,2026-04-16,23.434056,120.727169,3.2221932e-09
C0R860,鼻頭,2026-04-16,22.1043,120.8979,6.4832585e-07
C2I260,北坑,2026-04-16,23.92463,121.00683,3.0443072e-08
C0UB20,壯圍,2026-04-16,24.7359,121.8163,0.0004597917
C0R790,九棚,2026-04-16,22.14195,120.889281,5.0263225e-08
C0W110,東莒,2026-04-16,25.9652,119.98069,3.8172224e-08
C1U930,粉鳥林,2026-04-16,24.497088,121.842479,2.4670755e-06
C0S830,長濱,2026-04-16,23.286817,121.411975,5.6241897e-05
C1F9F1,伯公龍,2026-04-16,24.272392,120.849047,0.0010726098
C0UB90,太平山莊,2026-04-16,24.494171,121.536209,3.5163872e-09
C0E810,西湖,2026-04-16,24.562947,120.7485,9.845695e-09
C1I440,新高口,2026-04-16,23.478744,120.878939,4.8883564e-09
C0O840,王爺宮,2026-04-16,23.222064,120.40085,0.9817995
C0T9G0,鳳林山,2026-04-16,23.735269,121.420131,1.4495397e-08
C0X080,佳里,2026-04-16,23.173039,120.145086,3.2908934e-05
C0FB70,大甲溪埔,2026-04-16,24.370625,120.620067,3.9001204e-08
C0Z310,清水斷崖,2026-04-16,24.218294,121.689142,0.002872998
C0M680,太保,2026-04-16,23.455062,120.331455,0.0012397664
C1S820,金峰,2026-04-16,22.590969,120.933236,9.178851e-07
C0AD10,八里,2026-04-16,25.150211,121.403947,1.6554714e-07
C2K240,草嶺,2026-04-16,23.59555,120.693461,4.579776e-08
C1SA70,都蘭,2026-04-16,22.87794,121.226881,0.0028042386
C0K440,二崙,2026-04-16,23.772797,120.408944,1.6691072e-05
C1A760,坪林交控,2026-04-16,24.94284,121.713442,4.5798807e-08
C0F9N0,大里,2026-04-16,24.092464,120.701378,5.6877965e-08
C0SA90,達仁林場,2026-04-16,22.264347,120.823972,8.697218e-09
C1R290,石門山,2026-04-16,22.112611,120.756597,4.7258633e-09
42HA10,萬大發電廠,2026-04-16,23.978875,121.139639,2.0600965e-09
C0R890,山海,2026-04-16,21.9878,120.7091,1.7099119e-06
C0T9A0,月眉山,2026-04-16,23.809928,121.539828,1.06581105e-07
C0AC70,信義,2026-04-16,25.037822,121.564597,1.6216165e-05
C0K560,棋山,2026-04-16,23.68645,120.603417,0.00014986828
C2FB50,出雲,2026-04-16,24.206469,120.902794,2.5873735e-08
C1Z240,中平林道,2026-04-16,23.42115,121.26763,4.0782093e-09
U2H480,溪頭,2026-04-16,23.670306,120.798194,9.243725e-09
C0M880,好美里,2026-04-16,23.3364,120.138,0.00022457627
C0T9E0,大坑,2026-04-16,23.880628,121.581981,7.165597e-08
C0K530,臺西,2026-04-16,23.701547,120.197559,8.8932927e-07
C1E900,國一N128K,2026-04-16,24.560997,120.844186,2.5766916e-08
C0AJ50,水湳洞,2026-04-16,25.123695,121.862238,4.4738986e-08
C0AI20,白沙灣,2026-04-16,25.283128,121.519058,2.4187602e-07
C2V310,美濃,2026-04-16,22.898792,120.51907,0.99592483
C0A860,大坪,2026-04-16,25.165914,121.632969,2.402894e-05
C1U850,觀音海岸,2026-04-16,24.38319,121.77856,8.83388e-08
C2K610,草嶺石壁,2026-04-16,23.602469,120.707731,3.61067e-08
C0U950,鶯子嶺,2026-04-16,24.89754,121.79244,6.1364145e-09
C0O900,善化,2026-04-16,23.112883,120.297219,0.93274415
C0K550,蔦松,2026-04-16,23.514319,120.229736,2.8400248e-07
E2P980,林試六龜中心,2026-04-16,22.991703,120.645722,0.97514224
C0E590,通霄,2026-04-16,24.471892,120.704622,1.3912887e-08
C1I310,西巒,2026-04-16,23.754486,120.883956,4.235259e-09
C0A550,泰平,2026-04-16,24.971197,121.823711,5.627129e-09
C2UC30,金洋,2026-04-16,24.42465,121.74573,3.9384933e-05
C0I360,水里,2026-04-16,23.812553,120.849792,2.1515271e-08
C0R830,高士,2026-04-16,22.121825,120.836781,2.7060714e-09
C1I101,溪頭,2026-04-16,23.661789,120.807647,3.4588412e-09
C0AJ20,野柳,2026-04-16,25.20703,121.690021,2.4268278e-08
C0B060,暖暖,2026-04-16,25.0957,121.7403,9.014076e-08
C1H920,長豐,2026-04-16,24.102039,120.879897,4.800164e-07
C2S9B0,利吉,2026-04-16,22.86246,121.15486,0.00045823885
C0V360,內門,2026-04-16,22.975481,120.466769,0.8570565
C0R850,林邊,2026-04-16,22.4634,120.5339,0.02554482
C0E930,龍鳳,2026-04-16,24.700034,120.859125,3.7060557e-09
C0U910,冬山,2026-04-16,24.63373,121.7937,0.000102544516
C1E721,泰安,2026-04-16,24.489017,120.968036,3.8994346e-09
82H320,茶改中部分場,2026-04-16,23.875611,120.913583,2.346609e-09
C0M750,布袋,2026-04-16,23.380878,120.167789,1.7561717e-07
C1S860,利嘉,2026-04-16,22.809417,121.050528,1.09304565e-08
E2S980,林試太麻里1,2026-04-16,22.598922,120.980044,9.217755e-06
C0X170,關廟,2026-04-16,22.963017,120.327797,0.008941804
C0V720,林園,2026-04-16,22.507747,120.394511,0.0012304146
C2M9G0,沄水,2026-04-16,23.38293,120.52666,0.54363793
C1I510,線浸林道,2026-04-16,23.761508,120.832956,1.859187e-09
C0D690,外湖,2026-04-16,24.917735,120.968711,2.898344e-09
C0C750,新興坑尾,2026-04-16,25.0061,121.0971,2.8724887e-09
B2Q810,畜試南區分所,2026-04-16,21.945583,120.802167,7.233632e-07
C0S790,金崙,2026-04-16,22.538122,120.966875,3.2185976e-06
C0AH90,福山植物園,2026-04-16,24.760717,121.58135,2.8536433e-09
C0I540,奇萊稜線,2026-04-16,24.109231,121.326456,1.4931475e-08
C0M850,表湖,2026-04-16,23.24186,120.64166,0.0015680405
C0S770,大溪山,2026-04-16,22.478475,120.943325,6.002697e-09
C0AG80,中和,2026-04-16,24.991622,121.491792,2.6645374e-05
C0T790,大禹嶺,2026-04-16,24.186117,121.316086,1.02026e-08
C0T9B0,水源,2026-04-16,23.991861,121.537169,5.0198437e-09
C0R840,牡丹池山,2026-04-16,22.168389,120.841225,1.5055761e-08
C1I131,桶頭,2026-04-16,23.641944,120.654117,0.111598805
CAL110,布袋國中,2026-04-16,23.35893,120.18026,0.00022457627
C2M9D0,何竹子腳,2026-04-16,23.53641,120.38203,0.9652716
C0Z290,赤柯山,2026-04-16,23.36893,121.38293,1.8419272e-09
C0X280,將軍,2026-04-16,23.214999,120.13577,0.0002695439
C0S690,太麻里,2026-04-16,22.60902,120.98533,1.9424753e-08
C0U880,北關,2026-04-16,24.9072,121.8734,1.2579491e-05
CAW010,東引,2026-04-16,26.3588,120.4836,4.1933987e-08
C0G810,埔心,2026-04-16,23.947633,120.525456,1.9864547e-06
C0U970,大福,2026-04-16,24.80064,121.81389,0.00016215292
C2H9N0,仁愛東眼,2026-04-16,24.026875,121.1205,2.279384e-09
C1E670,南礦,2026-04-16,24.538278,121.002836,2.467631e-09
C0M520,東後寮,2026-04-16,23.369908,120.248065,2.4115009e-06
C1E461,松安,2026-04-16,24.397972,120.986022,2.5797688e-09
C2N160,西拉雅風管處,2026-04-16,23.189481,120.335297,0.65283173
C2O850,環湖,2026-04-16,23.148665,120.4186,0.93939185
C2M970,碧湖,2026-04-16,23.568632,120.624165,2.903595e-09
C0A640,石碇,2026-04-16,24.993969,121.662917,6.666786e-09
E2S960,林試太麻里2,2026-04-16,22.598,120.99775,3.5797578e-07
C0F9Y0,桃山,2026-04-16,24.432739,121.303808,1.3691337e-08
C1I020,萬大,2026-04-16,23.979817,121.132261,1.951327e-09
C2UC20,長嶺,2026-04-16,24.70894,121.61162,9.514041e-09
C0U940,羅東,2026-04-16,24.68184,121.74934,0.0006639785
C0M650,朴子,2026-04-16,23.43463,120.23902,5.870043e-06
C1I500,大尖山,2026-04-16,23.858572,120.994889,3.6715173e-09
C0FB40,中橫21.6k,2026-04-16,24.2499,121.1455,2.1809021e-09
C0G820,田尾,2026-04-16,23.901669,120.509389,1.9864547e-06
E2K600,四湖植物園,2026-04-16,23.676986,120.163433,1.0974832e-07
C0S730,綠島,2026-04-16,22.6672,121.47533,6.1157402e-06
12Q970,東港工作站,2026-04-16,22.479997,120.466058,0.033438247
C1TA00,太魯閣,2026-04-16,24.15773,121.6236,1.6908697e-07
466920,臺北,2026-04-16,25.037658,121.514853,5.3736753e-06
C0R600,舊泰武,2026-04-16,22.588194,120.664944,0.00024996957
466910,鞍部,2026-04-16,25.182586,121.529731,2.8036473e-09
C1I230,九份二山,2026-04-16,23.961944,120.845,6.423341e-10
C2M810,里佳,2026-04-16,23.389125,120.716647,2.126387e-09
C2A660,瑞芳,2026-04-16,25.113169,121.801147,0.0009340495
C0R270,琉球嶼,2026-04-16,22.332244,120.362236,1.6873113e-07
C2V580,瑞山,2026-04-16,22.90304,120.43424,0.955328
C1T990,高寮,2026-04-16,23.394239,121.356808,0.40339467
C0G620,芬園,2026-04-16,24.015678,120.6213,8.446842e-08
C1Z140,荖溪,2026-04-16,23.890575,121.45964,2.1703248e-09
C1I201,中心崙,2026-04-16,23.728722,120.712097,2.506176e-08
C1I400,凌霄,2026-04-16,24.018778,121.004456,2.222119e-09
C1M640,十字,2026-04-16,23.492153,120.753683,2.4054714e-09
G2P820,農試鳳山分所,2026-04-16,22.646611,120.356083,5.464454e-05
C0Z270,蕃薯寮,2026-04-16,23.73835,121.540108,1.8518426e-06
C2E420,竹南,2026-04-16,24.70898,120.88897,4.7567554e-09
C2D480,打鐵坑,2026-04-16,24.849664,121.150789,1.4646926e-07
C0FB10,出雲山苗圃,2026-04-16,24.23105,120.90475,1.8596774e-08
C0F9Q0,外埔,2026-04-16,24.347817,120.705686,2.869857e-07
C0K580,高鐵雲林,2026-04-16,23.737456,120.417944,1.7713213e-06
C2I090,鳳凰,2026-04-16,23.728081,120.787347,2.3590938e-09
C0U990,員山,2026-04-16,24.74435,121.72247,0.00067963917
C0V770,大社,2026-04-16,22.730306,120.346639,0.002577907
C0X120,麻豆,2026-04-16,23.183289,120.248611,0.32240802
C0C670,龍潭,2026-04-16,24.870056,121.221389,3.735887e-08
C0D680,香山濕地,2026-04-16,24.783581,120.914988,2.898344e-09
C0S980,勝林山,2026-04-16,22.430439,120.8938,2.0960496e-09
C0V730,大寮,2026-04-16,22.605614,120.395717,1.2869074e-05
C0R570,麟洛,2026-04-16,22.65078,120.52719,0.9984055
C2M930,石卓,2026-04-16,23.478744,120.702264,2.4078675e-09
C0G9B0,和美,2026-04-16,24.105169,120.492131,5.6459777e-07
C2I240,外大坪,2026-04-16,23.9587,120.91788,2.8362845e-09
CAG100,王功漁港,2026-04-16,23.96824,120.32586,1.9601016e-08
C0X290,北門,2026-04-16,23.267772,120.125481,0.00026954417
C2F930,大甲,2026-04-16,24.347667,120.640403,8.627811e-08
C0D650,湖口,2026-04-16,24.904794,121.043628,2.5310298e-09
C0U780,五結,2026-04-16,24.68637,121.79794,0.000102544516
C1I250,鯉潭,2026-04-16,23.961922,120.991131,8.462432e-09
C0R130,阿禮,2026-04-16,22.742908,120.743678,1.4797534e-07
C0X100,臺南市北區,2026-04-16,23.010394,120.194228,2.3846133e-06
C0S920,金峰嘉蘭,2026-04-16,22.594789,120.960825,1.12390154e-07
C0V490,新興,2026-04-16,22.627422,120.298803,0.00016465517
C0F9K0,大安,2026-04-16,24.345061,120.588025,6.3554545e-08
467290,古坑,2026-04-16,23.633639,120.551889,0.9991064
C2E970,八甲,2026-04-16,24.535811,120.795983,2.2554735e-08
C0V440,鳳山,2026-04-16,22.646653,120.356122,5.464454e-05
C1T940,大觀,2026-04-16,23.714206,121.373133,4.9326033e-08
C0E740,造橋,2026-04-16,24.637056,120.864778,8.461867e-09
C0R100,尾寮山,2026-04-16,22.833111,120.683889,7.785752e-08
A2K630,臺大雲林校區,2026-04-16,23.730628,120.423903,7.994905e-06
467990,馬祖,2026-04-16,26.169467,119.923158,7.739394e-08
C0D580,寶山,2026-04-16,24.735006,121.025192,1.0123376e-08
E2P990,林試扇平站,2026-04-16,22.9677,120.6857,0.12392604
C0AI30,三重,2026-04-16,25.057328,121.500629,6.930704e-06
C0AH00,汐止,2026-04-16,25.066881,121.658778,2.1372878e-05
C1Z040,立山,2026-04-16,23.443356,121.327375,1.5143667e-07
466881,新北,2026-04-16,24.959207,121.525196,2.4393416e-05
C0W130,花嶼,2026-04-16,23.40007,119.32276,5.2277337e-05
C0A950,鼻頭角,2026-04-16,25.129036,121.923372,0.0030948957
C0K470,林內,2026-04-16,23.748675,120.609642,0.00016725517
C2F990,摩天嶺,2026-04-16,24.322458,120.936819,5.9177466e-08
C2E430,南庄,2026-04-16,24.601775,121.000214,4.7535718e-09
82C160,茶改場,2026-04-16,24.908472,121.185333,4.85223e-09
C2TB60,南安,2026-04-16,23.29818,121.26157,1.388482e-07
C0Z320,清水林道,2026-04-16,23.27125,121.188272,3.5502856e-09
C0R760,南仁湖,2026-04-16,22.084681,120.863353,4.232045e-09
C0M670,大林,2026-04-16,23.600616,120.45841,0.8428054
C0M800,茶山,2026-04-16,23.299075,120.664767,0.0055616274
C0A9C0,天母,2026-04-16,25.117494,121.537169,1.4578764e-05
72K220,南改斗南分場,2026-04-16,23.634556,120.477333,0.008148183
72AI40,桃改樹林分場,2026-04-16,24.944503,121.386972,0.00030522989
C0S910,蘭嶼燈塔,2026-04-16,22.081197,121.503117,4.948394e-09
C0B050,八斗子,2026-04-16,25.144754,121.79167,6.9104016e-07
C0U900,內城,2026-04-16,24.71813,121.68766,0.0010076512
C0X320,柳營,2026-04-16,23.253328,120.375253,0.99049956
C0M790,新港,2026-04-16,23.553269,120.345728,6.542465e-06
C0F9T0,西屯,2026-04-16,24.179494,120.641275,3.1208052e-07
C0E950,松安,2026-04-16,24.39792,120.98599,2.1188447e-09
C0SA30,都歷,2026-04-16,23.020333,121.323642,0.9179106
C0C620,蘆竹,2026-04-16,25.084275,121.265767,1.0802268e-08
C0R730,大坪頂,2026-04-16,22.024633,120.69355,6.9761086e-08
C0AJ40,石門,2026-04-16,25.273672,121.601198,7.224305e-08
C0E750,苗栗,2026-04-16,24.564569,120.824575,4.5695234e-08
C0T870,鯉魚潭,2026-04-16,23.935639,121.508944,0.0025645457
C1V170,排雲,2026-04-16,23.463619,120.954147,2.0741929e-08
C2H950,中寮,2026-04-16,23.884447,120.766406,3.873728e-08
C0R350,貓鼻頭,2026-04-16,21.921774,120.7358,1.2565324e-06
C0V660,岡山,2026-04-16,22.797078,120.294958,9.279221e-05
C1H941,雙冬,2026-04-16,23.967378,120.802189,9.128589e-10
C0AJ70,田寮,2026-04-16,25.2698,121.4886,2.5009194e-07
C0AI00,五股,2026-04-16,25.07445,121.42728,6.2331407e-07
C0Z280,德武,2026-04-16,23.47426,121.41071,0.081326365
C2RA10,大新,2026-04-16,22.67558,120.57788,0.99527574
C0R700,枋山,2026-04-16,22.246844,120.661086,0.027665524
C0C460,復興,2026-04-16,24.820208,121.352281,9.432624e-09
C2AA10,中八仙,2026-04-16,25.11576,121.49199,0.00023251053
C2K300,鹿南,2026-04-16,23.63855,120.3636,6.6896587e-07
E2H360,蓮華池,2026-04-16,23.918333,120.885278,5.3022036e-09
C0M640,中埔,2026-04-16,23.42538,120.5229,0.926507
C2C810,八德蔬果,2026-04-16,24.97858,121.28187,1.8433692e-08
C2M9F0,安溪寮,2026-04-16,23.350334,120.208039,0.00018294553
C0W140,金沙,2026-04-16,24.488292,118.408778,1.1945936e-07
C2A540,四堵,2026-04-16,24.8926,121.745736,1.4157155e-08
C0ACA0,新莊,2026-04-16,25.051478,121.446756,0.000169274
C0R220,潮州,2026-04-16,22.534361,120.54,0.28798807
U2HA40,臺大內茅埔,2026-04-16,23.689722,120.851117,8.11914e-09
467490,臺中,2026-04-16,24.145736,120.684075,2.5743714e-07
C0UB60,明池,2026-04-16,24.650688,121.475277,2.5069877e-09
C0U960,翠峰湖,2026-04-16,24.510856,121.608044,3.2025864e-09
E2HA20,林試畢祿溪站,2026-04-16,24.226944,121.308522,4.382262e-09
C2M9A0,大華,2026-04-16,23.4824,120.67491,2.165061e-07
C0V890,前鎮,2026-04-16,22.5718,120.3117,0.00036189647
C1F941,雪嶺,2026-04-16,24.280586,121.026642,9.473118e-09
C2H9E0,國姓南港,2026-04-16,23.911108,120.846556,7.9797635e-10
C0AC80,文山,2026-04-16,25.00235,121.575728,7.546091e-09
C0F9R0,龍井,2026-04-16,24.184536,120.528972,1.8739472e-07
C0M760,民雄,2026-04-16,23.551754,120.428457,0.8428054
C0UA40,西德山,2026-04-16,24.560647,121.752608,6.3078818e-09
C2TA70,赤科坪,2026-04-16,23.39885,121.39168,8.601091e-09
C1T920,中興,2026-04-16,23.769503,121.498653,0.0003765128
C0D550,雪霸,2026-04-16,24.526972,121.11605,3.6038015e-09
C2F860,梨山,2026-04-16,24.247522,121.243669,6.206203e-09
C0R320,車城,2026-04-16,22.0744,120.716247,5.021048e-07
C1S870,南美山,2026-04-16,23.15025,121.382333,2.1270456e-07
C0B020,基隆嶼,2026-04-16,25.19141,121.78391,5.3546074e-07
C1U501,牛鬥,2026-04-16,24.637836,121.573656,2.2719027e-07
C0M730,嘉義市東區,2026-04-16,23.457673,120.460531,0.9585571
C2R990,泰武,2026-04-16,22.60686,120.69765,5.8491456e-09
C0S700,知本,2026-04-16,22.684866,121.005642,1.9477435e-08
C1N001,沙崙,2026-04-16,22.935472,120.309406,0.008769782
C0V760,橋頭,2026-04-16,22.757806,120.30575,0.0024445702
C2V570,吉東,2026-04-16,22.85418,120.54539,0.9968756
C0G960,福寶,2026-04-16,24.0443,120.3814,2.3451005e-07
C0X210,白河,2026-04-16,23.347466,120.414427,0.98087204
C0S810,東河,2026-04-16,22.972672,121.303986,0.73953354
C2R170,屏東,2026-04-16,22.66027,120.49403,0.9984055
C0R670,楓港,2026-04-16,22.190131,120.692156,0.0050478084
C0FA50,霧峰,2026-04-16,24.0419,120.6995,5.634338e-08
C0UB10,蘇澳,2026-04-16,24.5969,121.8571,3.159511e-07
C0G950,防潮門,2026-04-16,24.1835,120.4871,6.6080213e-07
C0M740,六腳,2026-04-16,23.492871,120.290625,1.7300219e-05
C1R250,力里,2026-04-16,22.428117,120.629228,0.0014514026
C0K330,虎尾,2026-04-16,23.719183,120.442036,1.7734476e-06
C2FA00,烏石坑,2026-04-16,24.273503,120.947617,5.9643305e-08
C0V620,永安,2026-04-16,22.82315,120.236856,9.511858e-05
C1I330,楓樹林,2026-04-16,23.986803,121.076117,2.2359918e-09
C0W200,湖西,2026-04-16,23.596314,119.67275,1.4168254e-05
72Q010,高雄農改場,2026-04-16,22.709333,120.525889,0.9981218
C0C680,龜山,2026-04-16,25.02846,121.38656,7.34901e-08
C2V260,月眉,2026-04-16,22.971003,120.539853,0.9103623
C0V450,鳳森,2026-04-16,22.545064,120.392592,0.0002673495
C0FA90,小雪山林道,2026-04-16,24.29515,121.03651,1.6236863e-08
C0U720,南山,2026-04-16,24.43742,121.38167,4.0767008e-09
A2N290,臺南蘭花園區,2026-04-16,23.340258,120.379661,0.9640174
C0R560,新園,2026-04-16,22.5434,120.461558,0.0012304146
C0U890,三星,2026-04-16,24.66812,121.65302,0.00033879885
C1V300,御油山,2026-04-16,23.001983,120.715364,3.6956018e-09
C0U600,礁溪,2026-04-16,24.817539,121.765608,0.0001565344
C1T980,龍澗,2026-04-16,24.023289,121.411328,1.6761248e-09
C0D670,海天一線,2026-04-16,24.831986,120.914438,2.6142588e-09
C0SA00,歷坵,2026-04-16,22.520969,120.89185,2.972527e-08
C0M710,東石,2026-04-16,23.458927,120.15385,1.6319582e-07
C0M780,鹿草,2026-04-16,23.41134,120.30835,5.44219e-06
C0U520,雙連埤,2026-04-16,24.753033,121.641303,2.1216804e-08
C0B010,七堵,2026-04-16,25.094819,121.71713,4.3746186e-07
C0R480,長治,2026-04-16,22.693128,120.542622,0.995207
C1V830,國三S383K,2026-04-16,22.781967,120.426475,0.9825533
12Q980,恆春工作站,2026-04-16,22.079678,120.714425,5.021048e-07
C1O940,東山服務區,2026-04-16,23.286016,120.398472,0.96389335
C1U840,東澳嶺,2026-04-16,24.5378,121.8485,9.238419e-09
C1D630,飛鳳山,2026-04-16,24.766464,121.119178,1.8182471e-09
C0S940,石寧山,2026-04-16,23.223772,121.406639,0.00016849345
C0K410,北港,2026-04-16,23.573957,120.292802,6.0544954e-07
C2M620,瑞里,2026-04-16,23.545133,120.675197,5.7884627e-08
C0SB70,小港漁港,2026-04-16,23.158558,121.400431,3.056192e-05
C2O950,安南,2026-04-16,23.076694,120.144861,6.1647347e-06
C0F0E0,南湖圈谷,2026-04-16,24.363714,121.444667,2.0613788e-08
467610,成功,2026-04-16,23.097486,121.373428,0.0005323442
C0G890,伸港,2026-04-16,24.148933,120.484403,6.555341e-07
C2E540,龍溪,2026-04-16,24.606489,120.783933,2.6794222e-08
C1V200,梅山,2026-04-16,23.268447,120.823556,3.393373e-08
C0T9H0,加路蘭山,2026-04-16,23.682947,121.5274,5.89266e-09
C2O930,玉井,2026-04-16,23.126042,120.46055,0.93939185
C1F911,新伯公,2026-04-16,24.221361,120.841069,0.0035893247
C0X200,左鎮,2026-04-16,23.056758,120.408522,0.97635186
C2TB50,麻汝,2026-04-16,23.42554,121.39358,0.0812123
C0FA60,鞍馬山工作站,2026-04-16,24.267064,121.000793,4.5133484e-09
C0SB50,叭嗡嗡,2026-04-16,23.047062,121.343223,0.016531164
C2R550,新埤,2026-04-16,22.467947,120.582894,0.020520728
C1F891,稍來,2026-04-16,24.265689,121.001142,4.8661417e-09
C2M9C0,紫雲,2026-04-16,23.494914,120.540253,0.93160933
72N240,七股研究中心,2026-04-16,23.081672,120.062894,9.575553e-06
C0C700,中壢,2026-04-16,24.977661,121.256375,1.39358605e-08
C0M690,水上,2026-04-16,23.419734,120.388909,0.88734186
C0V690,鼓山,2026-04-16,22.623325,120.275575,0.00016465517
C0O860,大內,2026-04-16,23.11885,120.36083,0.7975541
C0Z200,萬榮,2026-04-16,23.709219,121.420106,1.5027414e-05
C0T9D0,和中,2026-04-16,24.26676,121.74103,0.029541472
C2S9A0,北份子寮,2026-04-16,22.78561,121.07813,0.036089458
C1O921,楠西,2026-04-16,23.183511,120.484083,0.9268207
C0AJ30,淡水觀海,2026-04-16,25.184591,121.408616,1.7102954e-07
C0V810,左營,2026-04-16,22.67491,120.28491,6.29782e-05
C0UA70,桃源谷,2026-04-16,24.962606,121.888875,9.2387715e-09
C0X130,官田,2026-04-16,23.193217,120.315422,0.66493714
C1H000,翠峰,2026-04-16,24.109397,121.205211,5.1060383e-09
C0UA90,石城,2026-04-16,24.980444,121.951214,0.0024456766
C1E681,南勢山,2026-04-16,24.421669,120.923831,1.9015796e-07
C0A9F0,內湖,2026-04-16,25.079422,121.57545,1.6216165e-05
C0K291,宜梧,2026-04-16,23.536281,120.169329,3.620932e-08
C1K540,口湖,2026-04-16,23.585344,120.180517,3.6370043e-08
C0R780,滿州,2026-04-16,22.024403,120.839892,3.2157027e-07
C0V870,文安,2026-04-16,22.8025,120.2164,0.00013455724
C0U650,玉蘭,2026-04-16,24.675286,121.587061,9.303864e-09
C0R640,東港,2026-04-16,22.46247,120.44074,0.00085541105
C0AJ80,板橋,2026-04-16,25.0107,121.4489,2.6645374e-05
C0S660,下馬,2026-04-16,23.150427,121.070312,4.6912962e-09
C2N190,烏樹,2026-04-16,23.32393,120.36989,0.013467313
C1H9B1,阿眉,2026-04-16,24.1263,120.994672,2.7147824e-09
C0UA20,多加屯,2026-04-16,24.368614,121.373189,7.2169057e-09
C0E730,頭份,2026-04-16,24.688247,120.912206,3.654721e-09
72V140,高改旗南分場,2026-04-16,22.857861,120.516667,0.2682286
C2R490,九如,2026-04-16,22.74049,120.490555,0.9981218
C0K480,莿桐,2026-04-16,23.761192,120.502372,0.002974095
C0U980,坪林石牌,2026-04-16,24.86478,121.77396,9.511537e-09
C0T900,西林,2026-04-16,23.8119,121.441458,3.5629466e-05
C1I150,青雲,2026-04-16,23.793361,120.949378,4.246859e-09
C2E980,和興,2026-04-16,24.505319,120.923016,1.4887496e-05
467350,澎湖,2026-04-16,23.565503,119.563094,4.1970696e-05
C0G800,埔鹽,2026-04-16,24.000394,120.431683,1.894822e-07
C0H960,草屯,2026-04-16,23.973672,120.68085,3.7325112e-08
C1V780,多納林道,2026-04-16,22.888028,120.737917,1.9794338e-07
C0E920,通霄漁港,2026-04-16,24.498589,120.673876,1.3839046e-08
C0Z330,安通山,2026-04-16,23.290728,121.348528,9.195665e-09
C0AH10,永和,2026-04-16,25.01125,121.508111,2.6846516e-05
C0AK10,太平里,2026-04-16,25.134937,121.364899,9.4125033e-07
C2G640,鹿港,2026-04-16,24.0753,120.430481,2.2054903e-07
C1E890,國三N149K,2026-04-16,24.463414,120.680019,8.689326e-09
C1R110,口社,2026-04-16,22.770111,120.645222,0.9921725
C1M870,國三N285K,2026-04-16,23.550319,120.505833,0.91769487
C1E480,鳳美,2026-04-16,24.554803,121.034747,4.7983244e-06
C0T9M0,靜浦,2026-04-16,23.455167,121.495028,0.2022135
C2H9M0,發祥,2026-04-16,24.154094,121.164517,2.1827957e-09
C2G9C0,埔南,2026-04-16,23.99124,120.46969,8.321105e-08
C0AI40,石牌,2026-04-16,25.115597,121.513139,1.6216165e-05
C1F871,上谷關,2026-04-16,24.203483,121.018644,5.9643305e-08
C2H9G0,百勝,2026-04-16,24.051142,120.909361,1.2497405e-05
C0G880,二水,2026-04-16,23.810742,120.6173,8.222072e-06
C0R940,加祿堂,2026-04-16,22.3363,120.6217,0.111201875
C0W220,北竿,2026-04-16,26.220358,119.974881,9.081604e-08
C0O960,崎頂,2026-04-16,22.959547,120.369317,0.009532003
C0TA40,秀林,2026-04-16,24.302864,121.731144,8.221695e-09
C0S750,向陽,2026-04-16,23.248397,120.986133,4.0965142e-09
C0T9F0,水璉,2026-04-16,23.797131,121.542514,7.3661545e-06
C1M600,頭凍,2026-04-16,23.406364,120.603339,3.4571987e-09
467660,臺東,2026-04-16,22.752211,121.154586,0.0019388675
C1D380,新埔,2026-04-16,24.84745,121.03834,3.77704e-09
C2G980,田頭村,2026-04-16,23.8263,120.444175,0.00020448292
C0V750,路竹,2026-04-16,22.854997,120.259439,9.310287e-05
C0N050,蚵寮,2026-04-16,23.301,120.1104,0.00026954417
C2X060,下營,2026-04-16,23.226806,120.256291,0.09142988
72M700,南改鹿草分場,2026-04-16,23.416869,120.283061,5.7461675e-06
C1SA50,利嘉林道,2026-04-16,22.82325,121.009389,1.7907852e-09
C0UB70,太平山中間站,2026-04-16,24.542003,121.513453,2.079016e-09
C0A940,金山,2026-04-16,25.223628,121.643967,9.3472204e-07
C1V340,大津,2026-04-16,22.888322,120.645986,0.99878687
C0W180,七美,2026-04-16,23.219333,119.444892,0.00025264928
C1F9C1,白冷,2026-04-16,24.182844,120.929889,3.3532813e-06
K2E710,苗改生物防治研究中心,2026-04-16,24.422861,120.871833,1.4714703e-07
C0N040,蘆竹溝,2026-04-16,23.2344,120.0961,0.00026943831
C0TB40,崇德,2026-04-16,24.166144,121.657414,0.00029413856
C0D760,大坪苗圃,2026-04-16,24.5362,121.1108,2.2492004e-09
C2D430,峨眉,2026-04-16,24.6905,121.017189,6.494971e-09
C2W230,畜試所澎湖,2026-04-16,23.628342,119.513206,1.9011997e-05
C0R880,後壁湖,2026-04-16,21.9457,120.7457,1.7099119e-06
C1I280,埔中,2026-04-16,23.820778,120.642594,2.2654502e-08
467790,墾丁雷達站,2026-04-16,21.948235,120.808028,0.0006883102
C0W190,望安,2026-04-16,23.380564,119.494075,5.9948896e-05
C0Z170,卓溪,2026-04-16,23.3443,121.3029,0.00019720137
C0F850,東勢,2026-04-16,24.246428,120.833047,0.15548575
466900,淡水,2026-04-16,25.164889,121.448906,4.1089083e-07
C0I370,魚池,2026-04-16,23.895703,120.94135,2.6035454e-09
C0C630,大溪,2026-04-16,24.882853,121.265547,7.1638033e-09
C0A520,山佳,2026-04-16,24.974944,121.402008,0.00022291315
C0I110,竹山,2026-04-16,23.761225,120.688156,0.0014946586
82H840,茶改南部分場,2026-04-16,23.762528,120.7405,6.6080474e-08
C2SD80,再來山,2026-04-16,23.34371,121.44122,0.0066652396
C0G660,溪湖,2026-04-16,23.94835,120.479122,2.107861e-06
C1T800,洛韶,2026-04-16,24.204558,121.453956,2.5590534e-09
C1T810,慈恩,2026-04-16,24.192044,121.388386,2.8512495e-09
C1E451,象鼻,2026-04-16,24.368617,120.940228,1.9015796e-07
C0AC60,三峽,2026-04-16,24.939025,121.369728,3.444265e-07
C0I490,萬大林道,2026-04-16,23.928228,121.091411,2.0696196e-09
C1I290,豐丘,2026-04-16,23.668178,120.887417,3.0112858e-08
C1I320,奧萬大,2026-04-16,23.952956,121.178556,3.1434775e-09
C2M910,嘉義大學,2026-04-16,23.471325,120.485903,0.9434938
C0U770,南澳,2026-04-16,24.44935,121.81022,2.4670755e-06
C2TB30,吉安,2026-04-16,23.94538,121.54803,0.01868985
C0A980,社子,2026-04-16,25.109508,121.469681,9.584278e-05
C0V800,六龜,2026-04-16,22.997889,120.633583,0.98582774
C1G9D0,國一S218K,2026-04-16,23.890641,120.493253,6.1811795e-07
C0E570,白沙屯,2026-04-16,24.549447,120.696803,9.840269e-09
C2F9A0,中竹林,2026-04-16,24.103556,120.751061,3.2476132e-07
C0FA40,臺中電廠,2026-04-16,24.2146,120.4907,3.8683862e-07
C2G9A0,畜試所彰化,2026-04-16,23.86045,120.557964,0.0001313305
C0H9C0,合歡山,2026-04-16,24.143442,121.272547,2.2691262e-08
G2M350,農試溪口農場,2026-04-16,23.58565,120.408111,0.8620556
C0U860,頭城,2026-04-16,24.85323,121.8308,5.304017e-05
C0R580,南州,2026-04-16,22.48591,120.50274,0.033438273
C0G780,秀水,2026-04-16,24.03405,120.503869,2.5423612e-06
72N100,臺南農改場,2026-04-16,23.0605,120.342194,0.92135125
C0S900,蘭嶼高中,2026-04-16,22.04909,121.51214,1.0414628e-08
C2TA60,六十石,2026-04-16,23.22477,121.31861,2.4110476e-09
C1F9W0,德基,2026-04-16,24.254783,121.190261,5.4091833e-09
C2M980,安和,2026-04-16,23.51377,120.31593,1.7300235e-05
C1Z120,壽豐,2026-04-16,23.870853,121.508081,0.001822378
C0W160,烏坵,2026-04-16,24.9944,119.44956,4.557859e-08
C1I550,國六W023K,2026-04-16,23.979067,120.867742,3.6907684e-07
C0R870,興海,2026-04-16,21.9752,120.8439,7.233632e-07
C0R140,瑪家,2026-04-16,22.682903,120.686639,0.008728767
C0A530,坪林,2026-04-16,24.938183,121.70975,4.809633e-09
C0X260,後壁,2026-04-16,23.366358,120.362326,0.0035115033
C0Z230,和平,2026-04-16,24.30717,121.77007,0.0184912
C0G770,福興,2026-04-16,24.041289,120.437669,1.894822e-07
C0H9A0,神木村,2026-04-16,23.532742,120.843667,4.2710746e-09
C0I460,南投,2026-04-16,23.911469,120.687331,3.7496005e-08
C0I480,梅峰,2026-04-16,24.085272,121.173572,4.5065613e-09
C2D770,巨埔,2026-04-16,24.84435,121.11442,1.5748267e-08
C2A560,福山,2026-04-16,24.776203,121.502811,1.16573355e-08
C0AH30,五分山,2026-04-16,25.07125,121.780794,3.7299475e-09
C0FA10,松柏,2026-04-16,24.429115,120.617482,2.355736e-08
72S200,東改班鳩分場,2026-04-16,22.829528,121.077694,1.0940689e-05
72HA00,中改埔里分場,2026-04-16,23.903208,120.963364,4.2504325e-09
C2H9W0,大坪頂農水,2026-04-16,24.043122,120.932781,2.7618788e-07
C0C650,平鎮,2026-04-16,24.897503,121.214636,6.2553323e-09
C0S930,延平,2026-04-16,22.902581,121.084058,0.00023888517
C0UA60,樟樹山,2026-04-16,24.41393,121.78325,6.037048e-07
C2UC10,出水溪,2026-04-16,24.615822,121.652253,2.7737984e-08
C1S670,摩天,2026-04-16,23.199503,121.027,2.649675e-09
C2C590,觀音,2026-04-16,25.027072,121.153317,1.4952423e-08
C0V630,茄萣,2026-04-16,22.906642,120.182608,8.168949e-07
466940,基隆,2026-04-16,25.133314,121.740475,6.7524866e-07
C0X050,東河,2026-04-16,23.296598,120.385608,0.9640174
C0R770,保力,2026-04-16,22.071122,120.764111,1.5846395e-07
G2L020,農試嘉義分所,2026-04-16,23.485028,120.473806,0.94060004
C0X240,關子嶺,2026-04-16,23.331169,120.508025,0.06452104
C0I380,集集,2026-04-16,23.828206,120.801467,2.4117986e-08
466990,花蓮,2026-04-16,23.975128,121.613275,0.00044048153
C1V220,小關山,2026-04-16,23.154217,120.813603,4.7247997e-09
C1F9G1,慶福山,2026-04-16,24.180853,120.848378,1.5269421e-08
C0FB20,雪山橋,2026-04-16,24.23192,120.9786,3.6665626e-09
C0Z250,瑞穗林道,2026-04-16,23.49284,121.30688,4.522871e-09
C0D590,新豐,2026-04-16,24.87068,120.97721,2.5108446e-09
C2N200,口宵里,2026-04-16,23.15987,120.45988,0.20684649
C0A870,五指山,2026-04-16,25.132153,121.608692,3.2859333e-09
C0UA50,西帽山,2026-04-16,24.555361,121.802628,9.282878e-09
C2R980,竹田國中,2026-04-16,22.61532,120.52412,0.38909802
C0X160,仁德,2026-04-16,22.968258,120.257689,1.5949423e-05
C1H971,六分寮,2026-04-16,23.92507,120.6378,7.912671e-09
C2D790,石鹿,2026-04-16,24.56551,121.15841,2.5000209e-09
C0W120,西嶼,2026-04-16,23.5626,119.468436,0.00013999536
C0G650,員林,2026-04-16,23.946503,120.585597,1.4537104e-06
C0AD50,鶯歌,2026-04-16,24.951533,121.346294,1.5883508e-07
C2H9Q0,北東眼山,2026-04-16,24.120939,121.189303,3.8855803e-09
C2H9T0,名間竹圍,2026-04-16,23.859914,120.637572,3.7898656e-07
C0S990,山豬窟,2026-04-16,22.318619,120.857372,2.6282692e-08
C0X190,安平,2026-04-16,22.993161,120.152181,3.2065634e-06
C0K400,斗六,2026-04-16,23.720583,120.541127,0.0028736207
12J990,口湖工作站,2026-04-16,23.589978,120.180394,3.6370043e-08
C0O830,北寮,2026-04-16,23.079561,120.495008,0.109259665
C1D410,白蘭,2026-04-16,24.579364,121.079947,2.5216962e-09
C0S970,加津林,2026-04-16,22.416211,120.926942,5.193359e-07
C0D700,關西,2026-04-16,24.7977,121.1732,9.1485697e-07
C0U750,龜山島,2026-04-16,24.841667,121.953133,4.2535486e-08
C0R810,內獅,2026-04-16,22.305064,120.642986,0.027665595
C2EA10,拉庫斯,2026-04-16,24.53637,121.02137,2.8635885e-09
C1M390,龍美,2026-04-16,23.406728,120.654417,3.272311e-09
C2K290,崙內,2026-04-16,23.69525,120.35601,6.6896587e-07
C2FB60,頭櫃山,2026-04-16,24.129842,120.858925,3.1780394e-09
C1H840,國三N238K,2026-04-16,23.841008,120.707711,4.9915474e-07
CAQ030,崎峰國小,2026-04-16,22.42565,120.49521,0.033438247
C2E520,大湖,2026-04-16,24.414939,120.870872,1.2474946e-07
467530,阿里山,2026-04-16,23.508208,120.813242,6.069552e-09
C1E691,南湖,2026-04-16,24.40135,120.837533,3.6844603e-09
C0FA30,梧棲,2026-04-16,24.256003,120.523381,1.8739472e-07
C1V231,高中,2026-04-16,23.134911,120.716711,0.00045505297
C0AK30,硬漢嶺,2026-04-16,25.136097,121.426372,2.9317817e-09
C0F9V0,新社,2026-04-16,24.200172,120.815806,0.00040643537
C0H890,埔里,2026-04-16,23.972169,120.952425,2.0292252e-07
C0R690,墾丁,2026-04-16,21.966756,120.810269,3.1401715e-08
C0SD20,富山,2026-04-16,22.822383,121.190825,0.011972662
C0F0D0,審馬陣,2026-04-16,24.381675,121.4203,9.73654e-09
C2W030,金門農試所,2026-04-16,24.448431,118.451786,6.1970034e-08
C0R820,白鷺,2026-04-16,22.454275,120.666219,6.44585e-05
C0FB00,大雪山,2026-04-16,24.254668,121.007374,4.5838897e-09
C2O880,南化,2026-04-16,23.17332,120.59413,0.09857738
C1V190,南天池,2026-04-16,23.27403,120.91176,4.7777324e-09
C0E940,雪見,2026-04-16,24.42595,121.01347,3.531389e-09
K2E360,苗栗農改場,2026-04-16,24.495722,120.829111,6.704777e-08
CAJ050,海口故事園區,2026-04-16,23.57543,120.14121,3.6370043e-08
C2K280,四湖,2026-04-16,23.6304,120.22717,1.0974832e-07
C2H9D0,三隻寮,2026-04-16,24.093078,120.861578,4.3334216e-09
C0O990,媽廟,2026-04-16,22.99175,120.293525,0.03364741
C0Z220,和平林道,2026-04-16,24.343922,121.656317,1.0150627e-06
C0TA10,花蓮漁港,2026-04-16,23.995322,121.638331,0.01463584
72C440,桃園農改場,2026-04-16,24.950944,121.030583,3.3409657e-09
C1E711,馬拉邦山,2026-04-16,24.367306,120.901656,1.837192e-07
C0SB20,富岡,2026-04-16,22.792467,121.192669,0.0090498105
C0D560,竹東,2026-04-16,24.767147,121.057881,1.9973282e-08
C0F9U0,南屯,2026-04-16,24.137006,120.637969,4.9036876e-06
C2SD60,明峰,2026-04-16,22.8671,121.11825,3.142294e-05
C0M720,番路,2026-04-16,23.464657,120.554156,0.21585721
C0F0A0,雪山圈谷,2026-04-16,24.388594,121.236339,2.2971749e-08
C1A9N0,四十份,2026-04-16,24.934158,121.593283,3.1156315e-09
C0U760,東澳,2026-04-16,24.52196,121.83318,2.1105002e-06
C0X230,鹽水,2026-04-16,23.272621,120.247641,0.00018294553
C2H9H0,苗改南投蜂場,2026-04-16,23.852589,120.693481,0.00071564387
C2TB70,達谷寮,2026-04-16,23.38,121.35968,0.006184494
C0R950,萬隆國小,2026-04-16,22.507667,120.587817,0.008722275
467540,大武,2026-04-16,22.35572,120.90374,0.00042140036
C0V370,古亭坑,2026-04-16,22.893178,120.401947,0.97062385
C1I340,新興橋,2026-04-16,23.563333,120.868728,1.6269713e-06
C2C480,桃園,2026-04-16,24.992425,121.323172,1.8433692e-08
C0SA80,土坂,2026-04-16,22.453108,120.887572,1.8657924e-07
C0R160,鹽埔,2026-04-16,22.739558,120.530778,0.9981218
C0AC40,大屯山,2026-04-16,25.175675,121.522408,3.0641705e-09
466850,五分山雷達站,2026-04-16,25.071182,121.781205,3.6855707e-09
C2H9L0,馬烈霸,2026-04-16,24.1512,121.201772,4.8336357e-09
C1AI50,國三N016K,2026-04-16,25.034164,121.619664,3.1216743e-07
C2V920,匏子寮,2026-04-16,23.04905,120.55319,0.115176566
C1V600,藤枝,2026-04-16,23.071961,120.757042,4.1337733e-09
C1E601,南勢,2026-04-16,24.572486,120.734842,6.2224177e-09
C0O980,新市,2026-04-16,23.061614,120.298197,0.9307151
C0K420,西螺,2026-04-16,23.800407,120.467394,1.6790054e-05
C0Z050,佳心,2026-04-16,23.34567,121.21316,2.1755013e-09
C0AD30,蘆洲,2026-04-16,25.086594,121.472331,0.00027390965
C0V610,梓官,2026-04-16,22.760558,120.267211,9.796302e-05
K2F750,種苗改良場,2026-04-16,24.225972,120.800917,5.4769956e-05
C0UA80,大溪漁港,2026-04-16,24.941801,121.902955,4.317011e-07
C1AI60,國一39K邊坡,2026-04-16,25.064361,121.383836,5.8200584e-07
C0W150,金寧,2026-04-16,24.457703,118.328989,9.21579e-08
C0R960,內埔,2026-04-16,22.608483,120.570714,0.31697196
C2H9S0,龍南,2026-04-16,23.953536,120.833183,6.649739e-10
C0AH40,平等,2026-04-16,25.129142,121.577086,7.142029e-09
C0R540,佳冬,2026-04-16,22.419456,120.552375,0.0070818886
466950,彭佳嶼,2026-04-16,25.627975,122.079744,6.103139e-07
C0A890,雙溪,2026-04-16,25.036003,121.864242,3.3680898e-08
C0AH50,林口,2026-04-16,25.072181,121.38084,6.43561e-08
A2K360,水試臺西試驗場,2026-04-16,23.717231,120.190522,2.506894e-07
C2M960,外寮,2026-04-16,23.562643,120.665688,1.7242816e-07
C0F9S0,烏日,2026-04-16,24.107058,120.624103,1.7664046e-07
C2N180,鹿陶洋,2026-04-16,23.14325,120.48352,0.9268207
C0C490,八德,2026-04-16,24.928708,121.283289,9.579558e-09
C0R190,赤山,2026-04-16,22.592333,120.614306,0.20933388
C0T820,天祥,2026-04-16,24.179597,121.495639,6.0050676e-09
C1F9E1,龍安,2026-04-16,24.1605,120.831961,8.148842e-06
C2SD50,順那,2026-04-16,23.04166,121.29332,0.52742666
C0V820,小林,2026-04-16,23.148408,120.63325,0.014942643
C2G870,芳苑,2026-04-16,23.922303,120.320025,1.6621781e-08
C0E850,大河,2026-04-16,24.618069,120.948578,1.1712519e-08
C1U670,寒溪,2026-04-16,24.634,121.71691,0.00037354216
C0N020,城西,2026-04-16,23.0568,120.0956,7.883036e-06
C1Z110,三棧,2026-04-16,24.11557,121.60501,2.7753422e-09
C0R280,檳榔,2026-04-16,22.076078,120.836777,2.2682867e-08
C2H9J0,中台,2026-04-16,23.9996,120.938739,3.3479307e-07
C0F9L0,后里,2026-04-16,24.310436,120.729725,0.0021070454
467441,高雄,2026-04-16,22.730432,120.312516,4.503373e-05
C2N210,岩坑,2026-04-16,23.24614,120.47458,0.67928493
C0Z180,新城,2026-04-16,24.040486,121.604878,0.00013181781
C0D540,橫山,2026-04-16,24.71116,121.11693,8.069289e-09
C1D420,太閣南,2026-04-16,24.632808,121.160575,1.6557665e-09
C1E770,公館,2026-04-16,24.526914,120.830806,3.097224e-08
CAN130,水試所海水繁養殖中心,2026-04-16,23.120802,120.07968,9.575553e-06
C1I430,翠華,2026-04-16,24.191961,121.224339,7.822873e-09
C1M400,菜瓜坪,2026-04-16,23.251928,120.576103,0.0049160076
C0G730,二林,2026-04-16,23.903325,120.376081,4.7346307e-07
72M360,南改義竹分場,2026-04-16,23.360694,120.279361,5.3889566e-05
V2K620,麥寮合作社,2026-04-16,23.753836,120.294783,7.022278e-07
C0Z070,舞鶴,2026-04-16,23.46811,121.37407,0.024595436
C0B040,大武崙,2026-04-16,25.166676,121.706993,2.014622e-08
C1Z030,紅葉,2026-04-16,23.493119,121.338806,0.060094256
C1I050,丹大,2026-04-16,23.753747,121.141147,9.1036085e-09
467290,古坑,2026-04-16,23.380729,120.336861,0.00047008178
C0I080,信義,2026-04-16,23.689694,120.851036,4.1614614e-09
C2TB80,庄子底,2026-04-16,23.71794,121.49438,0.00017605537
C0D750,樂山林道6k,2026-04-16,24.49999,121.08773,4.6572834e-09
C2M920,朴子農改,2026-04-16,23.469889,120.259383,5.870043e-06
C2A880,福隆,2026-04-16,25.017842,121.942083,0.003703683
C0Z160,鳳林,2026-04-16,23.746114,121.453411,0.00013186873
C0UB80,翠峰林道6K,2026-04-16,24.49773,121.568625,3.9144874e-09
C0V210,復興,2026-04-16,23.222403,120.806089,1.7657959e-06
C0H990,昆陽,2026-04-16,24.121322,121.273642,1.2892203e-08
C0R741,獅子,2026-04-16,22.202308,120.705236,0.0018636105
C0S710,鹿野,2026-04-16,22.917711,121.122994,6.6764546e-06
C0I530,小奇萊,2026-04-16,24.131764,121.295717,1.7229905e-08
C0FA70,大雪山埡口,2026-04-16,24.26867,121.03062,1.0755024e-08
C2K630,荷苞,2026-04-16,23.657717,120.595144,0.0011863422
C0Z080,富源,2026-04-16,23.587642,121.378225,7.071611e-05
C2M9E0,旺來山,2026-04-16,23.555153,120.486463,0.906157
C0SB10,美和,2026-04-16,22.682078,121.060236,0.32013828
C2K620,馬光農場,2026-04-16,23.721453,120.378864,8.814011e-06
C1I140,卡奈托灣,2026-04-16,23.754364,121.087872,3.0450025e-09
C0I520,玉山風口,2026-04-16,23.470489,120.955994,2.7736185e-08
C1G691,下水埔,2026-04-16,23.816114,120.5676,0.013389933
C0X110,臺南市南區,2026-04-16,22.961189,120.188378,1.4753214e-05
C0V680,仁武,2026-04-16,22.701083,120.347722,0.002577907
C2G840,北斗,2026-04-16,23.877586,120.514222,5.781114e-07
C2TB90,長橋,2026-04-16,23.6874,121.46186,0.00011784512
C0R900,竹坑,2026-04-16,22.1385,120.7022,0.0050478084
C0G860,社頭,2026-04-16,23.897647,120.5862,2.3656303e-05
C0X150,安定,2026-04-16,23.102614,120.227839,0.017172234
C0R590,里港,2026-04-16,22.77919,120.49459,0.9608618
C0E610,馬都安,2026-04-16,24.451272,120.930192,3.4536194e-07
C0E550,明德,2026-04-16,24.583486,120.885411,3.9054266e-05
C0R150,三地門,2026-04-16,22.709889,120.639944,0.9940703
C0G910,花壇,2026-04-16,24.032076,120.549461,2.4272206e-06
C1D400,鳥嘴山,2026-04-16,24.71909,121.28387,2.0896107e-09
C0K500,元長,2026-04-16,23.64981,120.315024,1.2071874e-05
C0F0B0,石岡,2026-04-16,24.276061,120.777644,0.0015843194
C2V250,甲仙,2026-04-16,23.080106,120.591758,0.095545076
C0SA20,金崙山,2026-04-16,22.567419,120.959667,3.3825538e-09
C0V350,溪埔,2026-04-16,22.738578,120.446797,0.991302
C0M660,溪口,2026-04-16,23.604131,120.403569,0.8620556
C1S880,壽卡,2026-04-16,22.238911,120.858903,1.1136181e-08
72D680,桃改新埔分場,2026-04-16,24.834444,121.066111,3.836549e-09
