站號,站名,日期,lat,lon,BLBTSLS
C0R710,龍磐,2026-03-18,21.931672,120.838942,0.9429721
C1F9D1,白毛台,2026-03-18,24.158325,120.886933,1.4441136e-09
C0G940,竹塘,2026-03-18,23.848253,120.386764,1.2610404e-08
467590,恆春,2026-03-18,22.003897,120.746339,0.998876
C1O850,環湖,2026-03-18,23.148617,120.418633,1.558451e-09
C0U710,太平山,2026-03-18,24.505486,121.525656,3.0798812e-08
C0E820,獅潭,2026-03-18,24.539133,120.920042,1.9113526e-09
C2SD70,二層坪,2026-03-18,22.94105,121.16838,1.4602121e-08
C0V880,興達,2026-03-18,22.8778,120.2127,0.025373392
C0S890,關山,2026-03-18,23.0395,121.175017,1.4151242e-08
C0SB30,新蘭,2026-03-18,22.869214,121.223228,5.1007063e-08
C2R970,屏科大,2026-03-18,22.648275,120.619247,5.8434284e-06
C1Z130,銅門,2026-03-18,23.965694,121.492842,1.1423362e-08
C0AD40,土城,2026-03-18,24.973208,121.445169,6.99248e-08
CAN140,六官養殖協會,2026-03-18,23.22881,120.29962,2.1646687e-07
C0X180,山上,2026-03-18,23.0757,120.363253,2.6101927e-07
C0F9Z0,雪山東峰,2026-03-18,24.388792,121.268675,3.670994e-08
C1M480,獨立山,2026-03-18,23.537022,120.607797,1.5308956e-09
C0X220,學甲,2026-03-18,23.230367,120.182187,6.9796384e-05
467650,日月潭,2026-03-18,23.881325,120.90805,2.786178e-09
A2K570,古坑(花卉中心),2026-03-18,23.633531,120.552392,4.903781e-10
C0K600,箔子寮,2026-03-18,23.6197,120.14,0.32583833
C0G830,埤頭,2026-03-18,23.866003,120.452806,1.7970707e-09
C0S950,七塊厝,2026-03-18,22.954453,121.229922,7.7799e-09
467110,金門,2026-03-18,24.407306,118.289281,1.6608969e-07
C0AH80,深坑,2026-03-18,25.002703,121.628328,3.0240233e-08
C0A970,三貂角,2026-03-18,25.007606,122.002058,1.1829302e-07
C2D730,寶山農場,2026-03-18,24.732444,120.976153,0.0076848795
C0K430,褒忠,2026-03-18,23.690938,120.303634,9.320757e-09
467480,嘉義,2026-03-18,23.495925,120.432906,3.1673346e-09
C0V400,阿公店,2026-03-18,22.804194,120.355528,0.39779672
C0E960,觀霧分站,2026-03-18,24.505781,121.113921,1.9072639e-08
467550,玉山,2026-03-18,23.48718,120.95943,3.409905e-08
C0R440,大漢山,2026-03-18,22.405264,120.753181,1.534261e-08
C0SD30,東清國小,2026-03-18,22.057128,121.564922,0.9756194
C1F9B1,桐林,2026-03-18,24.066172,120.735194,1.2491042e-09
C2H9U0,鳳鵬,2026-03-18,23.763919,120.788061,7.4444434e-10
C0K390,土庫,2026-03-18,23.679029,120.395574,3.9768064e-09
C1I450,望鄉山,2026-03-18,23.594153,120.944286,1.826932e-08
C0E910,海埔,2026-03-18,24.648767,120.772435,5.602874e-08
B2E890,畜試北區分所,2026-03-18,24.527806,120.770972,2.8619287e-09
C0R750,四林格山,2026-03-18,22.076989,120.802439,0.9999864
C0F0C0,中坑,2026-03-18,24.248517,120.903319,2.5672078e-09
C1I121,大鞍,2026-03-18,23.678381,120.760017,4.3828305e-09
C2G9E0,移民庄,2026-03-18,23.9784,120.40283,6.2842034e-08
72U480,花改蘭陽分場,2026-03-18,24.686306,121.716583,6.07093e-09
C0A770,科教館,2026-03-18,25.096356,121.516507,3.3579614e-08
C0AJ60,六塊厝,2026-03-18,25.24,121.4481,0.002559367
C0R620,墾雷,2026-03-18,21.900836,120.855269,0.968362
467420,永康,2026-03-18,23.038386,120.2367,4.7266545e-07
C2M530,奮起湖,2026-03-18,23.493903,120.699253,3.167987e-09
C0I410,名間,2026-03-18,23.837053,120.701447,6.5728695e-10
A2C560,農工中心,2026-03-18,24.985917,121.239833,0.95678884
C0V740,旗山,2026-03-18,22.888614,120.483597,0.00017126426
C0Z061,玉里,2026-03-18,23.3215,121.339656,8.607606e-09
C0S840,南田,2026-03-18,22.279725,120.889208,0.99438983
C1I470,杉林溪,2026-03-18,23.639517,120.786444,5.296028e-09
C1X040,東原,2026-03-18,23.291597,120.463822,5.025292e-10
C0R660,枋寮,2026-03-18,22.367722,120.590647,0.0013006476
C1R120,上德文,2026-03-18,22.763272,120.704442,1.183989e-09
C0K450,大埤,2026-03-18,23.646074,120.431537,7.9750767e-10
C0UA00,土場,2026-03-18,24.576533,121.495333,1.550024e-08
467080,宜蘭,2026-03-18,24.763975,121.756528,5.1435536e-09
C0N030,四草,2026-03-18,23.0235,120.1116,0.3925161
467410,臺南,2026-03-18,22.99328,120.20492,1.6309435e-06
C0V650,彌陀,2026-03-18,22.783806,120.246361,0.22777207
C0D660,新竹市東區,2026-03-18,24.798681,120.986942,0.64092505
82S580,茶改東部分場,2026-03-18,22.907694,121.130139,1.5408448e-08
C0SB40,興隆,2026-03-18,22.913661,121.257469,0.00028828747
467050,新屋,2026-03-18,25.006725,121.047492,0.9999816
C0C710,大溪永福,2026-03-18,24.892936,121.324975,0.058406334
C0FA20,溫寮,2026-03-18,24.372177,120.583125,1.47117e-07
C0V640,湖內,2026-03-18,22.887139,120.2445,0.02140516
C0R910,下寮,2026-03-18,22.3929,120.5548,0.081267685
C0Z020,明里,2026-03-18,23.208717,121.262342,8.357734e-09
C0M770,嘉義梅山,2026-03-18,23.585398,120.555587,5.4601074e-10
C0C660,楊梅,2026-03-18,24.912375,121.143047,0.88198274
C0SD40,牛頭山,2026-03-18,22.676661,121.506944,0.9854975
C1E511,新開,2026-03-18,24.347703,120.827019,2.1496065e-09
G2F820,農試所(霧峰),2026-03-18,24.031261,120.688133,1.2607465e-09
C2M990,大巃頂,2026-03-18,23.5547,120.61439,2.3060018e-09
C1I070,和社,2026-03-18,23.591131,120.888861,1.683404e-09
C2E990,新坪頂,2026-03-18,24.30201,120.8574,2.454038e-09
C0TA80,立霧山,2026-03-18,24.183258,121.641899,3.192592e-08
C2F000,大肚,2026-03-18,24.15295,120.572117,8.157341e-09
C1S850,豐南,2026-03-18,23.122139,121.262389,1.1158144e-08
C2M9B0,西興,2026-03-18,23.2428,120.57617,6.427483e-10
C2A920,富貴角,2026-03-18,25.263783,121.565258,0.007594929
C0T960,光復,2026-03-18,23.660694,121.424964,2.0028866e-08
C0F9M0,豐原,2026-03-18,24.254322,120.720692,1.5309832e-09
C0R720,旭海,2026-03-18,22.205403,120.887614,0.9997509
C0V710,苓雅,2026-03-18,22.622742,120.330669,0.13074672
C0C740,觀音工業區,2026-03-18,25.064764,121.114856,0.99999475
CAC040,拉拉山,2026-03-18,24.699317,121.427133,5.2126705e-08
C0V790,萬山,2026-03-18,22.905944,120.688056,3.6565198e-09
U2HA30,臺大和社,2026-03-18,23.590856,120.888864,1.683404e-09
C2H9K0,屯原,2026-03-18,24.067969,121.209389,8.268024e-09
C0AJ90,澳底,2026-03-18,25.0552,121.9253,2.0472221e-08
C0Z100,東華,2026-03-18,23.89525,121.549833,2.1059808e-08
C0G970,三豐,2026-03-18,23.882,120.2895,0.059794027
C0V900,汕尾,2026-03-18,22.4782,120.4151,0.10940142
C1R630,龍泉,2026-03-18,22.66701,120.59091,9.402901e-06
C1AC50,關渡,2026-03-18,25.133486,121.469331,2.9994687e-06
C0C800,四稜,2026-03-18,24.64733,121.4293,3.8723318e-08
C0F9I0,神岡,2026-03-18,24.272481,120.658314,3.652491e-09
C0K460,斗南,2026-03-18,23.678734,120.478359,7.969618e-10
C2O810,曾文,2026-03-18,23.219681,120.497328,5.816014e-10
467280,後龍,2026-03-18,24.648563,120.831834,2.9658104e-08
C1F9J1,清水林,2026-03-18,24.071242,120.820419,1.4360355e-09
C2A650,火燒寮,2026-03-18,25.002719,121.742892,1.3286029e-08
466930,竹子湖,2026-03-18,25.162078,121.544547,1.0033856e-07
C1I220,樟湖,2026-03-18,23.905333,120.846983,3.2989325e-09
C0I390,仁愛,2026-03-18,24.022122,121.132206,3.3984622e-09
C0Z300,東里,2026-03-18,23.26853,121.30547,8.545233e-09
C1V590,新發,2026-03-18,23.057019,120.646064,1.1272948e-09
C0K510,水林,2026-03-18,23.572924,120.24597,2.523338e-08
72S590,東改賓朗果園,2026-03-18,22.813889,121.071278,7.1871384e-09
82A750,茶改北部分場,2026-03-18,24.955778,121.631222,2.1885372e-08
C1A750,石碇服務區,2026-03-18,25.00872,121.646242,1.7945302e-08
C0X300,鹿寮,2026-03-18,23.386047,120.477331,1.1655508e-09
C0K590,雲林東勢,2026-03-18,23.674192,120.255721,1.0537111e-08
C2K310,港尾布雞,2026-03-18,23.74834,120.38439,2.9005671e-09
C0A570,桶後,2026-03-18,24.848222,121.597992,1.9278957e-08
C1S800,華源,2026-03-18,22.657883,121.02325,2.3464132e-08
C0G720,溪州,2026-03-18,23.851589,120.499093,1.7932086e-09
C1V160,達卡努瓦,2026-03-18,23.279811,120.705319,2.1522157e-09
C2M410,馬頭山,2026-03-18,23.324361,120.582017,4.8670307e-10
C0V850,蚵仔寮,2026-03-18,22.7256,120.2527,0.24665086
C0S740,池上,2026-03-18,23.119628,121.209469,1.6452214e-08
C1V390,尖山,2026-03-18,22.813153,120.367789,0.31596053
C0AH70,松山,2026-03-18,25.04871,121.55042,3.3586595e-08
C0N010,鯤鯓國小,2026-03-18,23.1879,120.0889,0.0001090192
C0R550,新埤,2026-03-18,22.467947,120.582894,0.0008567889
C0SA60,知本（水試所）,2026-03-18,22.702394,121.082761,2.2494228e-07
C0T9I0,豐濱,2026-03-18,23.583897,121.514806,2.0656572e-08
C0UB00,淡江大學蘭陽校園,2026-03-18,24.823239,121.730383,1.4492218e-08
C0W240,九宮,2026-03-18,24.423753,118.240186,9.95133e-08
C0T9N0,富里,2026-03-18,23.171639,121.249378,8.258661e-09
U2HA50,臺大竹山,2026-03-18,23.756972,120.681556,6.392102e-10
C0V840,鳳鼻頭,2026-03-18,22.5083,120.3591,0.08687835
C0X140,西港,2026-03-18,23.125608,120.203108,2.5553655e-07
72D080,桃改五峰分場,2026-03-18,24.612194,121.157167,7.529844e-09
C2H9P0,伊拿谷,2026-03-18,23.963211,121.088264,2.047928e-09
C2K250,崙背,2026-03-18,23.75553,120.31893,9.341099e-09
C2H9F0,柑林,2026-03-18,24.018658,120.847072,9.417248e-10
C0TA20,加灣,2026-03-18,24.082025,121.608944,3.2234304e-08
C0V530,阿蓮,2026-03-18,22.883208,120.327508,0.012040778
C0FB30,八仙山苗圃,2026-03-18,24.192719,121.001366,2.4381892e-09
C1O880,關山,2026-03-18,23.173397,120.594092,6.7906786e-10
C0E791,卓蘭,2026-03-18,24.3126,120.8244,2.210321e-09
C1I030,武界,2026-03-18,23.913225,121.052483,2.0815436e-09
C0R520,崁頂,2026-03-18,22.514781,120.506914,0.008915162
C0R341,牡丹,2026-03-18,22.130036,120.792639,0.9999821
C0R930,萬丹,2026-03-18,22.5885,120.4851,0.04399579
C0S760,紅石,2026-03-18,23.069131,121.126219,1.8532683e-08
C2C410,中央大學,2026-03-18,24.967652,121.185165,0.94921726
C1M610,石磐龍,2026-03-18,23.496606,120.663506,2.1906368e-09
C0C790,東眼山,2026-03-18,24.8284,121.40888,2.4507976e-08
C0UA10,鴛鴦湖,2026-03-18,24.590269,121.412228,3.4927062e-08
C0R800,丹路,2026-03-18,22.204481,120.750989,0.9860637
C0G920,永靖,2026-03-18,23.924703,120.547533,2.9925098e-09
C2M950,太和,2026-03-18,23.538372,120.702961,3.1061853e-09
C1A630,下盆,2026-03-18,24.771003,121.538622,2.334178e-08
B2N890,畜產試驗所,2026-03-18,23.058972,120.336406,2.6903027e-07
C0UA30,白嶺,2026-03-18,24.527819,121.519031,2.4789585e-08
467571,新竹,2026-03-18,24.828575,121.01455,0.9956623
C1V580,溪南(特生中心),2026-03-18,23.084972,120.788475,5.2974016e-09
C1T970,大農,2026-03-18,23.615233,121.413331,2.6517288e-08
C0R650,竹田,2026-03-18,22.58486,120.54344,0.005427878
C1H900,清流,2026-03-18,24.080775,120.962997,2.0166433e-09
C1C510,水尾,2026-03-18,24.940081,121.087161,0.9998174
C2N170,茅港尾,2026-03-18,23.2061,120.2624,2.1646687e-07
C0F9X0,大雅(中科園區),2026-03-18,24.21528,120.62445,5.8097074e-09
C0SB60,白守蓮,2026-03-18,23.126769,121.401914,3.0647327e-06
C0O970,虎頭埤,2026-03-18,23.021375,120.347878,1.380032e-06
C0C730,中大臨海站,2026-03-18,24.966126,121.008581,0.99995726
C0X250,新營,2026-03-18,23.310689,120.316681,2.1729312e-08
C0V700,三民,2026-03-18,22.645017,120.311233,0.2694924
C0U870,大礁溪,2026-03-18,24.791042,121.675047,1.645146e-08
C0E870,高鐵苗栗,2026-03-18,24.60725,120.826094,2.9879544e-08
C0TA30,鹽寮,2026-03-18,23.845606,121.592664,2.269598e-08
C0M860,新美,2026-03-18,23.338017,120.683169,9.858919e-10
C1E701,八卦,2026-03-18,24.491756,120.927619,4.7372253e-09
C2TA90,加納納,2026-03-18,23.466421,121.359867,1.7611775e-08
C0I420,國姓,2026-03-18,24.037803,120.855072,9.682791e-10
C2D720,關西工作站,2026-03-18,24.757275,121.184792,1.8708508e-07
C0S960,香蘭,2026-03-18,22.587569,120.993375,8.480419e-08
467620,蘭嶼,2026-03-18,22.0369,121.55843,0.9963831
C0R260,春日,2026-03-18,22.370361,120.628306,0.85728335
72G600,臺中農改場,2026-03-18,24.003028,120.534389,1.9082054e-09
C0Z210,瑞穗,2026-03-18,23.5239,121.39021,2.3459434e-08
C0M820,達邦,2026-03-18,23.453994,120.749517,1.5865115e-09
C0V860,南寮,2026-03-18,22.7616,120.2339,0.24665086
C0G740,大城,2026-03-18,23.852487,120.320935,0.05726705
C0R920,塭仔,2026-03-18,22.4169,120.5197,0.09535078
C0R470,高樹,2026-03-18,22.826389,120.600806,0.00018240018
C0R680,佳樂水,2026-03-18,21.993578,120.861633,0.96505755
C1O870,大棟山,2026-03-18,23.31157,120.52226,2.985674e-09
C0D360,梅花,2026-03-18,24.678347,121.208558,2.895163e-08
C0Z190,富世,2026-03-18,24.14743,121.6297,1.0763443e-07
C0AI10,屈尺,2026-03-18,24.92184,121.54475,6.6591e-08
B2U990,畜試東區分所,2026-03-18,24.669039,121.832561,7.3211517e-09
C0SB80,長濱漁港,2026-03-18,23.313644,121.459994,2.6681413e-08
C0TA50,和仁,2026-03-18,24.241394,121.712472,1.8223855e-07
C0V910,大樹,2026-03-18,22.684645,120.432803,0.0046943803
C1R610,西大武山,2026-03-18,22.617719,120.7322,9.0380885e-09
C0G900,線西,2026-03-18,24.143358,120.443536,4.817375e-07
C0M700,竹崎,2026-03-18,23.526178,120.555508,6.777816e-10
C2E880,三義,2026-03-18,24.405478,120.749819,5.3000497e-09
C0C720,竹圍,2026-03-18,25.112692,121.239824,0.9996787
C0F9P0,清水,2026-03-18,24.312297,120.562242,6.589382e-08
C0Z150,吉安光華,2026-03-18,23.930925,121.595153,3.0161775e-08
C0FA80,小雪山天池,2026-03-18,24.28025,121.02627,2.5474058e-08
467300,東吉島,2026-03-18,23.25727,119.66762,0.97216165
C1D640,外坪(五指山),2026-03-18,24.644447,121.090961,2.9348268e-08
C2R9A0,高士國小,2026-03-18,22.12553,120.84653,0.9999802
C0F9O0,潭子,2026-03-18,24.213106,120.703933,1.4742656e-09
C2H9R0,卓社,2026-03-18,23.887894,121.000086,4.210066e-09
72T250,花蓮農改場,2026-03-18,23.975222,121.563889,2.7844953e-08
C0E780,銅鑼,2026-03-18,24.489681,120.790853,3.198228e-09
C1T950,太安,2026-03-18,23.666719,121.370128,1.5083442e-08
C0E830,苑裡,2026-03-18,24.439714,120.653053,7.4107396e-07
467270,田中,2026-03-18,23.873803,120.581286,5.734632e-10
C0SA10,檳榔四格山,2026-03-18,22.810031,121.109308,5.7131055e-09
C1T830,布洛灣,2026-03-18,24.17184,121.57127,4.8544077e-08
C0F970,大坑,2026-03-18,24.173142,120.722289,2.036993e-09
C1U920,思源,2026-03-18,24.393125,121.347214,3.233437e-08
C2H9Y0,松茗,2026-03-18,23.8167,120.650765,8.1495294e-10
C0A931,三和,2026-03-18,25.233153,121.595236,3.3708858e-07
C0I010,廬山,2026-03-18,24.033311,121.181808,4.271922e-09
C2M940,日野賀,2026-03-18,23.434056,120.727169,2.1319833e-09
C0R860,鼻頭,2026-03-18,22.1043,120.8979,0.12432854
C0UB20,壯圍,2026-03-18,24.7359,121.8163,5.0323443e-09
C0R790,九棚,2026-03-18,22.14195,120.889281,0.99729544
C0W110,東莒,2026-03-18,25.9652,119.98069,8.50137e-06
C1U930,粉鳥林,2026-03-18,24.497088,121.842479,5.6451888e-09
C1I211,蘆竹湳,2026-03-18,23.934019,120.811994,1.3876837e-09
C0S830,長濱,2026-03-18,23.286817,121.411975,1.639786e-08
C1F9F1,伯公龍,2026-03-18,24.272392,120.849047,2.01814e-09
C0UB90,太平山莊,2026-03-18,24.494171,121.536209,3.1102182e-08
C0E810,西湖,2026-03-18,24.562947,120.7485,0.9999736
C1I440,新高口,2026-03-18,23.478744,120.878939,1.1497683e-08
C0O840,王爺宮,2026-03-18,23.222064,120.40085,2.4611302e-09
C0T9G0,鳳林山,2026-03-18,23.735269,121.420131,4.1480156e-08
C0X080,佳里,2026-03-18,23.173039,120.145086,6.471274e-05
C0FB70,大甲溪埔,2026-03-18,24.370625,120.620067,1.4136128e-07
C0Z310,清水斷崖,2026-03-18,24.218294,121.689142,9.904539e-08
C0M680,太保,2026-03-18,23.455062,120.331455,4.087445e-09
C1S820,金峰,2026-03-18,22.590969,120.933236,2.2856367e-08
C0AD10,八里,2026-03-18,25.150211,121.403947,0.99163663
C2K240,草嶺,2026-03-18,23.59555,120.693461,2.2647624e-09
C1SA70,都蘭,2026-03-18,22.87794,121.226881,4.7331543e-08
C0K440,二崙,2026-03-18,23.772797,120.408944,2.1836994e-09
C1A760,坪林交控,2026-03-18,24.94284,121.713442,1.4874596e-08
C0F9N0,大里,2026-03-18,24.092464,120.701378,1.2225868e-09
C0SA90,達仁林場,2026-03-18,22.264347,120.823972,0.0321305
C1R290,石門山,2026-03-18,22.112611,120.756597,0.99996424
42HA10,萬大發電廠,2026-03-18,23.978875,121.139639,2.7309235e-09
C0R890,山海,2026-03-18,21.9878,120.7091,0.9990395
C0T9A0,月眉山,2026-03-18,23.809928,121.539828,1.4346373e-08
C0AC70,信義,2026-03-18,25.037822,121.564597,3.646284e-08
C0K560,棋山,2026-03-18,23.68645,120.603417,4.4556278e-10
C2FB50,出雲,2026-03-18,24.206469,120.902794,3.112086e-09
C1Z240,中平林道,2026-03-18,23.42115,121.26763,3.755835e-08
U2H480,溪頭,2026-03-18,23.670306,120.798194,3.0527019e-09
C0M880,好美里,2026-03-18,23.3364,120.138,8.355524e-06
C0T9E0,大坑,2026-03-18,23.880628,121.581981,1.1355844e-08
C0K530,臺西,2026-03-18,23.701547,120.197559,0.008279557
C1E900,國一N128K,2026-03-18,24.560997,120.844186,3.3314653e-09
C0AJ50,水湳洞,2026-03-18,25.123695,121.862238,2.0197854e-08
C0AI20,白沙灣,2026-03-18,25.283128,121.519058,0.93594664
C2V310,美濃,2026-03-18,22.898792,120.51907,0.00021272704
C0A860,大坪,2026-03-18,25.165914,121.632969,1.3068053e-08
C1U850,觀音海岸,2026-03-18,24.38319,121.77856,8.3267695e-09
C2K610,草嶺石壁,2026-03-18,23.602469,120.707731,2.3766986e-09
C0U950,鶯子嶺,2026-03-18,24.89754,121.79244,3.012751e-08
C0O900,善化,2026-03-18,23.112883,120.297219,3.104381e-07
C0K550,蔦松,2026-03-18,23.514319,120.229736,9.314509e-07
E2P980,林試六龜中心,2026-03-18,22.991703,120.645722,8.724616e-09
C0E590,通霄,2026-03-18,24.471892,120.704622,0.3736971
C1I310,西巒,2026-03-18,23.754486,120.883956,2.6909905e-09
C0A550,泰平,2026-03-18,24.971197,121.823711,1.8335298e-08
C0I360,水里,2026-03-18,23.812553,120.849792,7.017111e-10
C0R830,高士,2026-03-18,22.121825,120.836781,0.99998313
C1I101,溪頭,2026-03-18,23.661789,120.807647,6.3543e-09
C0AJ20,野柳,2026-03-18,25.20703,121.690021,9.633796e-05
C0B060,暖暖,2026-03-18,25.0957,121.7403,1.9074168e-08
C1H920,長豐,2026-03-18,24.102039,120.879897,1.6726692e-09
C2S9B0,利吉,2026-03-18,22.86246,121.15486,1.8631214e-08
C0V360,內門,2026-03-18,22.975481,120.466769,9.972922e-06
C0R850,林邊,2026-03-18,22.4634,120.5339,0.13185729
C0E930,龍鳳,2026-03-18,24.700034,120.859125,0.9999879
C0U910,冬山,2026-03-18,24.63373,121.7937,7.3211517e-09
C1E721,泰安,2026-03-18,24.489017,120.968036,1.0664573e-08
82H320,茶改中部分場,2026-03-18,23.875611,120.913583,2.151912e-09
C0M750,布袋,2026-03-18,23.380878,120.167789,0.0003098501
C1S860,利嘉,2026-03-18,22.809417,121.050528,1.1916495e-08
E2S980,林試太麻里1,2026-03-18,22.598922,120.980044,3.5809798e-08
C0X170,關廟,2026-03-18,22.963017,120.327797,0.00011173084
C0V720,林園,2026-03-18,22.507747,120.394511,0.09459205
C1I510,線浸林道,2026-03-18,23.761508,120.832956,3.3427123e-09
C0D690,外湖,2026-03-18,24.917735,120.968711,0.99995553
C0C750,新興坑尾,2026-03-18,25.0061,121.0971,0.99993736
B2Q810,畜試南區分所,2026-03-18,21.945583,120.802167,0.96505755
C0S790,金崙,2026-03-18,22.538122,120.966875,2.588168e-08
C0AH90,福山植物園,2026-03-18,24.760717,121.58135,2.4816694e-08
C0I540,奇萊稜線,2026-03-18,24.109231,121.326456,3.2868314e-08
C0M850,表湖,2026-03-18,23.24186,120.64166,1.2231536e-09
C0S770,大溪山,2026-03-18,22.478475,120.943325,3.837733e-07
C0AG80,中和,2026-03-18,24.991622,121.491792,6.99248e-08
C0T790,大禹嶺,2026-03-18,24.186117,121.316086,2.4885423e-08
C0T9B0,水源,2026-03-18,23.991861,121.537169,1.5724526e-08
C0R840,牡丹池山,2026-03-18,22.168389,120.841225,0.9999787
C1I131,桶頭,2026-03-18,23.641944,120.654117,7.192922e-10
CAL110,布袋國中,2026-03-18,23.35893,120.18026,8.355524e-06
C2M9D0,何竹子腳,2026-03-18,23.53641,120.38203,3.1872787e-09
C0Z290,赤柯山,2026-03-18,23.36893,121.38293,2.0588287e-08
C0X280,將軍,2026-03-18,23.214999,120.13577,0.00010185482
C0S690,太麻里,2026-03-18,22.60902,120.98533,1.1696601e-08
C0U880,北關,2026-03-18,24.9072,121.8734,1.2409075e-08
CAW010,東引,2026-03-18,26.3588,120.4836,6.065272e-06
C0G810,埔心,2026-03-18,23.947633,120.525456,3.0091598e-09
C0U970,大福,2026-03-18,24.80064,121.81389,5.091528e-09
C2H9N0,仁愛東眼,2026-03-18,24.026875,121.1205,5.16468e-09
C1E670,南礦,2026-03-18,24.538278,121.002836,1.0271623e-08
C0M520,東後寮,2026-03-18,23.369908,120.248065,4.267563e-07
C1E461,松安,2026-03-18,24.397972,120.986022,1.0147212e-08
C2N160,西拉雅風管處,2026-03-18,23.189481,120.335297,3.532287e-08
C2M970,碧湖,2026-03-18,23.568632,120.624165,2.2899644e-09
C0A640,石碇,2026-03-18,24.993969,121.662917,1.4874596e-08
E2S960,林試太麻里2,2026-03-18,22.598,120.99775,8.873903e-08
C0F9Y0,桃山,2026-03-18,24.432739,121.303808,4.347647e-08
C1I020,萬大,2026-03-18,23.979817,121.132261,3.445994e-09
C2UC20,長嶺,2026-03-18,24.70894,121.61162,1.3662095e-08
C0U940,羅東,2026-03-18,24.68184,121.74934,6.007794e-09
C0M650,朴子,2026-03-18,23.43463,120.23902,3.4311473e-08
C1I500,大尖山,2026-03-18,23.858572,120.994889,9.966523e-09
C0FB40,中橫21.6k,2026-03-18,24.2499,121.1455,4.738617e-09
C0G820,田尾,2026-03-18,23.901669,120.509389,3.0091598e-09
E2K600,四湖植物園,2026-03-18,23.676986,120.163433,0.079837956
C0S730,綠島,2026-03-18,22.6672,121.47533,0.9978454
12Q970,東港工作站,2026-03-18,22.479997,120.466058,0.13371806
C1TA00,太魯閣,2026-03-18,24.15773,121.6236,6.7592325e-08
466920,臺北,2026-03-18,25.037658,121.514853,3.3586595e-08
C0R600,舊泰武,2026-03-18,22.588194,120.664944,2.525831e-09
C1I260,北坑,2026-03-18,23.9246,121.006903,1.1779007e-09
466910,鞍部,2026-03-18,25.182586,121.529731,1.2410418e-07
C1I230,九份二山,2026-03-18,23.961944,120.845,1.8571101e-09
C2M810,里佳,2026-03-18,23.389125,120.716647,3.142908e-09
C2A660,瑞芳,2026-03-18,25.113169,121.801147,2.1129413e-08
C0R270,琉球嶼,2026-03-18,22.332244,120.362236,0.00017466939
C2V580,瑞山,2026-03-18,22.90304,120.43424,5.8108842e-05
C1T990,高寮,2026-03-18,23.394239,121.356808,2.1615387e-08
C0G620,芬園,2026-03-18,24.015678,120.6213,7.952702e-10
C1Z140,荖溪,2026-03-18,23.890575,121.45964,4.029e-08
C1I201,中心崙,2026-03-18,23.728722,120.712097,1.1268757e-09
C1I400,凌霄,2026-03-18,24.018778,121.004456,5.2113855e-09
C1M640,十字,2026-03-18,23.492153,120.753683,4.4218753e-09
G2P820,農試鳳山分所,2026-03-18,22.646611,120.356083,0.12202462
C0Z270,蕃薯寮,2026-03-18,23.73835,121.540108,1.4818103e-08
C2E420,竹南,2026-03-18,24.70898,120.88897,0.99998724
C0FB10,出雲山苗圃,2026-03-18,24.23105,120.90475,2.558873e-09
C0F9Q0,外埔,2026-03-18,24.347817,120.705686,2.791034e-09
C0K580,高鐵雲林,2026-03-18,23.737456,120.417944,2.9040548e-09
C2I090,鳳凰,2026-03-18,23.728081,120.787347,1.8131666e-09
C0U990,員山,2026-03-18,24.74435,121.72247,5.983527e-09
C0V770,大社,2026-03-18,22.730306,120.346639,0.13648231
C0X120,麻豆,2026-03-18,23.183289,120.248611,2.2918995e-07
C0C670,龍潭,2026-03-18,24.870056,121.221389,2.12913e-07
C0D680,香山濕地,2026-03-18,24.783581,120.914988,0.99995553
C0S980,勝林山,2026-03-18,22.430439,120.8938,5.4165032e-09
C0V730,大寮,2026-03-18,22.605614,120.395717,0.070715144
C0R570,麟洛,2026-03-18,22.65078,120.52719,0.004806586
C2M930,石卓,2026-03-18,23.478744,120.702264,4.342101e-09
C0G9B0,和美,2026-03-18,24.105169,120.492131,2.13057e-07
CAG100,王功漁港,2026-03-18,23.96824,120.32586,0.81167674
C0X290,北門,2026-03-18,23.267772,120.125481,0.0001020807
C2F930,大甲,2026-03-18,24.347667,120.640403,3.7910873e-08
C0D650,湖口,2026-03-18,24.904794,121.043628,0.99781173
C0U780,五結,2026-03-18,24.68637,121.79794,7.3211517e-09
C1I250,鯉潭,2026-03-18,23.961922,120.991131,1.4386619e-09
C0R130,阿禮,2026-03-18,22.742908,120.743678,1.4155338e-09
C0X100,臺南市北區,2026-03-18,23.010394,120.194228,1.8280354e-06
C0S920,金峰嘉蘭,2026-03-18,22.594789,120.960825,5.179608e-08
C0V490,新興,2026-03-18,22.627422,120.298803,0.4601748
C0F9K0,大安,2026-03-18,24.345061,120.588025,3.7892654e-08
467290,古坑,2026-03-18,23.633639,120.551889,4.903781e-10
C2E970,八甲,2026-03-18,24.535811,120.795983,3.7737995e-09
C0V440,鳳山,2026-03-18,22.646653,120.356122,0.12202462
C1T940,大觀,2026-03-18,23.714206,121.373133,1.7044021e-08
C0E740,造橋,2026-03-18,24.637056,120.864778,0.71640867
C0R100,尾寮山,2026-03-18,22.833111,120.683889,1.4476381e-09
A2K630,臺大雲林校區,2026-03-18,23.730628,120.423903,2.8955702e-09
467990,馬祖,2026-03-18,26.169467,119.923158,5.4432877e-07
C0D580,寶山,2026-03-18,24.735006,121.025192,5.746725e-07
E2P990,林試扇平站,2026-03-18,22.9677,120.6857,1.2514818e-09
C0AI30,三重,2026-03-18,25.057328,121.500629,3.3579614e-08
C0AH00,汐止,2026-03-18,25.066881,121.658778,1.9376278e-08
C1Z040,立山,2026-03-18,23.443356,121.327375,3.2239655e-08
466881,新北,2026-03-18,24.959207,121.525196,6.9998734e-08
C0W130,花嶼,2026-03-18,23.40007,119.32276,0.97251695
C0A950,鼻頭角,2026-03-18,25.129036,121.923372,2.0094008e-06
C0K470,林內,2026-03-18,23.748675,120.609642,4.4208442e-10
C2F990,摩天嶺,2026-03-18,24.322458,120.936819,2.6991638e-09
C2E430,南庄,2026-03-18,24.601775,121.000214,1.2589793e-06
82C160,茶改場,2026-03-18,24.908472,121.185333,0.7649661
C2TB60,南安,2026-03-18,23.29818,121.26157,8.346391e-09
C0Z320,清水林道,2026-03-18,23.27125,121.188272,1.797706e-08
C0R760,南仁湖,2026-03-18,22.084681,120.863353,0.99996656
C0M670,大林,2026-03-18,23.600616,120.45841,1.2157874e-09
C0M800,茶山,2026-03-18,23.299075,120.664767,5.739742e-10
C0A9C0,天母,2026-03-18,25.117494,121.537169,3.6070908e-08
72K220,南改斗南分場,2026-03-18,23.634556,120.477333,7.9834933e-10
72AI40,桃改樹林分場,2026-03-18,24.944503,121.386972,8.761256e-08
C0S910,蘭嶼燈塔,2026-03-18,22.081197,121.503117,0.97517586
C0B050,八斗子,2026-03-18,25.144754,121.79167,2.4815936e-08
C0U900,內城,2026-03-18,24.71813,121.68766,6.03316e-09
C0X320,柳營,2026-03-18,23.253328,120.375253,2.6172773e-09
C0M790,新港,2026-03-18,23.553269,120.345728,6.9577673e-09
C0F9T0,西屯,2026-03-18,24.179494,120.641275,5.5128724e-09
C0E950,松安,2026-03-18,24.39792,120.98599,1.0147212e-08
C0SA30,都歷,2026-03-18,23.020333,121.323642,0.00010104752
C0C620,蘆竹,2026-03-18,25.084275,121.265767,0.99898607
C0R730,大坪頂,2026-03-18,22.024633,120.69355,0.46209577
C0AJ40,石門,2026-03-18,25.273672,121.601198,0.042433586
C0E750,苗栗,2026-03-18,24.564569,120.824575,3.300934e-09
C0T870,鯉魚潭,2026-03-18,23.935639,121.508944,2.1627264e-08
C1V170,排雲,2026-03-18,23.463619,120.954147,2.993802e-08
C2H950,中寮,2026-03-18,23.884447,120.766406,8.176917e-10
C0R350,貓鼻頭,2026-03-18,21.921774,120.7358,0.99902785
C0V660,岡山,2026-03-18,22.797078,120.294958,0.18666455
C1H941,雙冬,2026-03-18,23.967378,120.802189,1.284169e-09
C0AJ70,田寮,2026-03-18,25.2698,121.4886,0.94886726
C0AI00,五股,2026-03-18,25.07445,121.42728,3.6183778e-08
C0Z280,德武,2026-03-18,23.47426,121.41071,1.8449871e-08
C2RA10,大新,2026-03-18,22.67558,120.57788,9.402901e-06
C0R700,枋山,2026-03-18,22.246844,120.661086,0.9972316
C0C460,復興,2026-03-18,24.820208,121.352281,9.780171e-08
C2K300,鹿南,2026-03-18,23.63855,120.3636,5.434727e-09
E2H360,蓮華池,2026-03-18,23.918333,120.885278,1.4278038e-09
C0M640,中埔,2026-03-18,23.42538,120.5229,1.0656801e-09
C0W140,金沙,2026-03-18,24.488292,118.408778,7.063855e-07
C2A540,四堵,2026-03-18,24.8926,121.745736,1.7003627e-08
C0ACA0,新莊,2026-03-18,25.051478,121.446756,4.6105217e-08
C0R220,潮州,2026-03-18,22.534361,120.54,0.007083213
U2HA40,臺大內茅埔,2026-03-18,23.689722,120.851117,1.0272813e-09
467490,臺中,2026-03-18,24.145736,120.684075,1.9491362e-09
C0UB60,明池,2026-03-18,24.650688,121.475277,4.0923616e-08
C0U960,翠峰湖,2026-03-18,24.510856,121.608044,2.9956695e-08
E2HA20,林試畢祿溪站,2026-03-18,24.226944,121.308522,1.443046e-08
C2M9A0,大華,2026-03-18,23.4824,120.67491,1.8206555e-09
C0V890,前鎮,2026-03-18,22.5718,120.3117,0.34607148
C1F941,雪嶺,2026-03-18,24.280586,121.026642,2.5474058e-08
C2H9E0,國姓南港,2026-03-18,23.911108,120.846556,3.4889158e-09
C0AC80,文山,2026-03-18,25.00235,121.575728,4.4816108e-08
C0F9R0,龍井,2026-03-18,24.184536,120.528972,3.5100165e-08
C0M760,民雄,2026-03-18,23.551754,120.428457,1.2157874e-09
C0UA40,西德山,2026-03-18,24.560647,121.752608,2.379571e-08
C2TA70,赤科坪,2026-03-18,23.39885,121.39168,3.0620456e-08
C1T920,中興,2026-03-18,23.769503,121.498653,1.7193761e-08
C0D550,雪霸,2026-03-18,24.526972,121.11605,1.664926e-08
C2F860,梨山,2026-03-18,24.247522,121.243669,1.7763046e-08
C0R320,車城,2026-03-18,22.0744,120.716247,0.8331536
C1S870,南美山,2026-03-18,23.15025,121.382333,6.775496e-08
C0B020,基隆嶼,2026-03-18,25.19141,121.78391,2.3316506e-08
C1U501,牛鬥,2026-03-18,24.637836,121.573656,1.7966022e-08
C0M730,嘉義市東區,2026-03-18,23.457673,120.460531,1.0854724e-09
C2R990,泰武,2026-03-18,22.60686,120.69765,4.2172266e-09
C0S700,知本,2026-03-18,22.684866,121.005642,1.0912313e-08
C1N001,沙崙,2026-03-18,22.935472,120.309406,0.00014669109
C0V760,橋頭,2026-03-18,22.757806,120.30575,0.13773255
C0G960,福寶,2026-03-18,24.0443,120.3814,5.4743573e-08
C0X210,白河,2026-03-18,23.347466,120.414427,9.583957e-10
C0S810,東河,2026-03-18,22.972672,121.303986,0.00017830428
C2R170,屏東,2026-03-18,22.66027,120.49403,0.004806586
C0R670,楓港,2026-03-18,22.190131,120.692156,0.87155837
C0FA50,霧峰,2026-03-18,24.0419,120.6995,1.2281072e-09
C0UB10,蘇澳,2026-03-18,24.5969,121.8571,3.8475707e-09
C0G950,防潮門,2026-03-18,24.1835,120.4871,4.5283238e-07
C0M740,六腳,2026-03-18,23.492871,120.290625,1.3785987e-08
C1R250,力里,2026-03-18,22.428117,120.629228,0.0001469285
C0K330,虎尾,2026-03-18,23.719183,120.442036,2.8794278e-09
C2FA00,烏石坑,2026-03-18,24.273503,120.947617,2.6627713e-09
C0V620,永安,2026-03-18,22.82315,120.236856,0.19740255
C1I330,楓樹林,2026-03-18,23.986803,121.076117,3.7738714e-09
C0W200,湖西,2026-03-18,23.596314,119.67275,0.9818337
72Q010,高雄農改場,2026-03-18,22.709333,120.525889,0.0027548452
C0SA40,瑞和,2026-03-18,22.974361,121.156697,1.5953091e-08
C0C680,龜山,2026-03-18,25.02846,121.38656,5.367286e-08
C2V260,月眉,2026-03-18,22.971003,120.539853,2.0872561e-07
C0V450,鳳森,2026-03-18,22.545064,120.392592,0.051060364
C0FA90,小雪山林道,2026-03-18,24.29515,121.03651,3.2121072e-08
C0U720,南山,2026-03-18,24.43742,121.38167,2.001508e-08
A2N290,臺南蘭花園區,2026-03-18,23.340258,120.379661,1.1543757e-09
C0R560,新園,2026-03-18,22.5434,120.461558,0.09459205
C0U890,三星,2026-03-18,24.66812,121.65302,6.4954664e-09
C1V300,御油山,2026-03-18,23.001983,120.715364,5.103896e-09
C0U600,礁溪,2026-03-18,24.817539,121.765608,5.161922e-09
C1T980,龍澗,2026-03-18,24.023289,121.411328,3.8796063e-08
C0D670,海天一線,2026-03-18,24.831986,120.914438,0.99997777
C0SA00,歷坵,2026-03-18,22.520969,120.89185,3.0923233e-09
C0M710,東石,2026-03-18,23.458927,120.15385,0.00021912131
C0M780,鹿草,2026-03-18,23.41134,120.30835,3.2436414e-08
C0U520,雙連埤,2026-03-18,24.753033,121.641303,1.9737461e-08
C0B010,七堵,2026-03-18,25.094819,121.71713,2.3482263e-08
C0R480,長治,2026-03-18,22.693128,120.542622,1.8132707e-05
C1V830,國三S383K,2026-03-18,22.781967,120.426475,0.0011353354
12Q980,恆春工作站,2026-03-18,22.079678,120.714425,0.8331536
C1O940,東山服務區,2026-03-18,23.286016,120.398472,1.1485776e-09
C1U840,東澳嶺,2026-03-18,24.5378,121.8485,1.3729176e-08
C1D630,飛鳳山,2026-03-18,24.766464,121.119178,9.2645735e-08
C0S940,石寧山,2026-03-18,23.223772,121.406639,9.470068e-08
C0K410,北港,2026-03-18,23.573957,120.292802,2.4514101e-08
C2M620,瑞里,2026-03-18,23.545133,120.675197,2.4586155e-09
C0SB70,小港漁港,2026-03-18,23.158558,121.400431,2.5318795e-06
C2O950,安南,2026-03-18,23.076694,120.144861,0.19502576
C0F0E0,南湖圈谷,2026-03-18,24.363714,121.444667,3.5088785e-08
467610,成功,2026-03-18,23.097486,121.373428,8.044434e-06
C0G890,伸港,2026-03-18,24.148933,120.484403,4.4265525e-07
C2E540,龍溪,2026-03-18,24.606489,120.783933,3.208823e-09
C1V200,梅山,2026-03-18,23.268447,120.823556,1.4311765e-09
C0T9H0,加路蘭山,2026-03-18,23.682947,121.5274,1.7629251e-08
C2O930,玉井,2026-03-18,23.126042,120.46055,1.558451e-09
C1F911,新伯公,2026-03-18,24.221361,120.841069,1.7684878e-09
C0R490,九如,2026-03-18,22.7405,120.490503,0.0027548452
C0X200,左鎮,2026-03-18,23.056758,120.408522,1.8857183e-07
C2TB50,麻汝,2026-03-18,23.42554,121.39358,1.702878e-08
C0FA60,鞍馬山工作站,2026-03-18,24.267064,121.000793,1.7496898e-08
C0SB50,叭嗡嗡,2026-03-18,23.047062,121.343223,1.662082e-05
C1F891,稍來,2026-03-18,24.265689,121.001142,1.6931716e-08
C2M9C0,紫雲,2026-03-18,23.494914,120.540253,6.645581e-10
72N240,七股研究中心,2026-03-18,23.081672,120.062894,0.3925161
C0C700,中壢,2026-03-18,24.977661,121.256375,0.6716581
C0M690,水上,2026-03-18,23.419734,120.388909,3.8845873e-09
C0V690,鼓山,2026-03-18,22.623325,120.275575,0.4601748
C0O860,大內,2026-03-18,23.11885,120.36083,2.01762e-07
C0Z200,萬榮,2026-03-18,23.709219,121.420106,1.5739378e-08
C0T9D0,和中,2026-03-18,24.26676,121.74103,1.9933326e-07
C2S9A0,北份子寮,2026-03-18,22.78561,121.07813,2.9675759e-08
C1O921,楠西,2026-03-18,23.183511,120.484083,1.5375823e-09
C0AJ30,淡水觀海,2026-03-18,25.184591,121.408616,0.9921674
C0V810,左營,2026-03-18,22.67491,120.28491,0.2694924
C0UA70,桃源谷,2026-03-18,24.962606,121.888875,1.8597804e-08
C0X130,官田,2026-03-18,23.193217,120.315422,3.602876e-08
C1H000,翠峰,2026-03-18,24.109397,121.205211,1.4890208e-08
C0UA90,石城,2026-03-18,24.980444,121.951214,1.6139747e-07
C1E681,南勢山,2026-03-18,24.421669,120.923831,5.527244e-09
C0A9F0,內湖,2026-03-18,25.079422,121.57545,3.646284e-08
C0K291,宜梧,2026-03-18,23.536281,120.169329,0.32479557
C1K540,口湖,2026-03-18,23.585344,120.180517,0.32583833
C0R780,滿州,2026-03-18,22.024403,120.839892,0.16362174
C0V870,文安,2026-03-18,22.8025,120.2164,0.24665086
C0U650,玉蘭,2026-03-18,24.675286,121.587061,1.3827543e-08
C0R640,東港,2026-03-18,22.46247,120.44074,0.08687835
C0AJ80,板橋,2026-03-18,25.0107,121.4489,6.99248e-08
C0S660,下馬,2026-03-18,23.150427,121.070312,1.40034855e-08
C2N190,烏樹,2026-03-18,23.32393,120.36989,1.8129522e-09
C1H9B1,阿眉,2026-03-18,24.1263,120.994672,8.260206e-09
C0UA20,多加屯,2026-03-18,24.368614,121.373189,2.5024121e-08
C0E730,頭份,2026-03-18,24.688247,120.912206,0.99998736
72V140,高改旗南分場,2026-03-18,22.857861,120.516667,0.002140994
C0K480,莿桐,2026-03-18,23.761192,120.502372,7.6460843e-10
C0U980,坪林石牌,2026-03-18,24.86478,121.77396,2.1670951e-08
C0T900,西林,2026-03-18,23.8119,121.441458,1.5155045e-08
C1I150,青雲,2026-03-18,23.793361,120.949378,8.794179e-10
C2E980,和興,2026-03-18,24.505319,120.923016,3.381199e-09
467350,澎湖,2026-03-18,23.565503,119.563094,0.97604257
C0G800,埔鹽,2026-03-18,24.000394,120.431683,4.704793e-08
C0H960,草屯,2026-03-18,23.973672,120.68085,9.484793e-10
C1V780,多納林道,2026-03-18,22.888028,120.737917,1.9989355e-09
C0E920,通霄漁港,2026-03-18,24.498589,120.673876,0.45879483
C0Z330,安通山,2026-03-18,23.290728,121.348528,8.5871745e-09
C0AH10,永和,2026-03-18,25.01125,121.508111,7.060212e-08
C0AK10,太平里,2026-03-18,25.134937,121.364899,5.142791e-07
C2G640,鹿港,2026-03-18,24.0753,120.430481,2.176256e-07
C1E890,國三N149K,2026-03-18,24.463414,120.680019,0.34894395
C1R110,口社,2026-03-18,22.770111,120.645222,1.781755e-07
C1M870,國三N285K,2026-03-18,23.550319,120.505833,6.692505e-10
C1E480,鳳美,2026-03-18,24.554803,121.034747,3.2443264e-09
C0T9M0,靜浦,2026-03-18,23.455167,121.495028,2.8089799e-08
C2H9M0,發祥,2026-03-18,24.154094,121.164517,4.2057557e-09
C2G9C0,埔南,2026-03-18,23.99124,120.46969,4.704793e-08
C0AI40,石牌,2026-03-18,25.115597,121.513139,3.646284e-08
C1F871,上谷關,2026-03-18,24.203483,121.018644,2.6627713e-09
C2H9G0,百勝,2026-03-18,24.051142,120.909361,1.0608089e-09
C0G880,二水,2026-03-18,23.810742,120.6173,4.212594e-10
C0R940,加祿堂,2026-03-18,22.3363,120.6217,0.99798304
C0W220,北竿,2026-03-18,26.220358,119.974881,1.8673122e-06
C0O960,崎頂,2026-03-18,22.959547,120.369317,4.383249e-05
C0TA40,秀林,2026-03-18,24.302864,121.731144,1.5041124e-08
C0S750,向陽,2026-03-18,23.248397,120.986133,9.835034e-09
C0T9F0,水璉,2026-03-18,23.797131,121.542514,1.4909448e-08
C1M600,頭凍,2026-03-18,23.406364,120.603339,2.0042077e-09
467660,臺東,2026-03-18,22.752211,121.154586,0.9983556
C1D380,新埔,2026-03-18,24.84745,121.03834,0.9938347
C2G980,田頭村,2026-03-18,23.8263,120.444175,2.1802493e-09
C0V750,路竹,2026-03-18,22.854997,120.259439,0.17431366
C0N050,蚵寮,2026-03-18,23.301,120.1104,0.0001020807
C2X060,下營,2026-03-18,23.226806,120.256291,2.1646687e-07
72M700,南改鹿草分場,2026-03-18,23.416869,120.283061,3.2877406e-08
C1SA50,利嘉林道,2026-03-18,22.82325,121.009389,2.3834229e-08
C0UB70,太平山中間站,2026-03-18,24.542003,121.513453,2.2337932e-08
C0A940,金山,2026-03-18,25.223628,121.643967,1.5429026e-06
C1V340,大津,2026-03-18,22.888322,120.645986,5.0793e-07
C0W180,七美,2026-03-18,23.219333,119.444892,0.992669
C1F9C1,白冷,2026-03-18,24.182844,120.929889,1.4027965e-09
K2E710,苗改生物防治研究中心,2026-03-18,24.422861,120.871833,2.5012468e-09
C0N040,蘆竹溝,2026-03-18,23.2344,120.0961,0.00010524485
C0TB40,崇德,2026-03-18,24.166144,121.657414,1.1251198e-07
C0D760,大坪苗圃,2026-03-18,24.5362,121.1108,1.2545749e-08
C2W230,畜試所澎湖,2026-03-18,23.628342,119.513206,0.87847704
C0R880,後壁湖,2026-03-18,21.9457,120.7457,0.9990395
C1I280,埔中,2026-03-18,23.820778,120.642594,8.2164553e-10
467790,墾丁雷達站,2026-03-18,21.948235,120.808028,0.9597655
C0W190,望安,2026-03-18,23.380564,119.494075,0.98623383
C0Z170,卓溪,2026-03-18,23.3443,121.3029,8.210679e-09
C0F850,東勢,2026-03-18,24.246428,120.833047,1.6697271e-09
466900,淡水,2026-03-18,25.164889,121.448906,7.761934e-05
C0I370,魚池,2026-03-18,23.895703,120.94135,1.4898808e-09
C0C630,大溪,2026-03-18,24.882853,121.265547,0.15929212
C0A520,山佳,2026-03-18,24.974944,121.402008,8.9756966e-08
C0I110,竹山,2026-03-18,23.761225,120.688156,6.3737915e-10
82H840,茶改南部分場,2026-03-18,23.762528,120.7405,7.611991e-10
C2SD80,再來山,2026-03-18,23.34371,121.44122,1.7390729e-08
C0G660,溪湖,2026-03-18,23.94835,120.479122,3.0094927e-09
C1T800,洛韶,2026-03-18,24.204558,121.453956,1.8004478e-08
C1T810,慈恩,2026-03-18,24.192044,121.388386,1.2276253e-08
C1E451,象鼻,2026-03-18,24.368617,120.940228,5.527244e-09
C0AC60,三峽,2026-03-18,24.939025,121.369728,0.97962445
C0I490,萬大林道,2026-03-18,23.928228,121.091411,6.4050414e-09
C1I290,豐丘,2026-03-18,23.668178,120.887417,3.8195367e-09
C1I320,奧萬大,2026-03-18,23.952956,121.178556,2.1299185e-09
C2M910,嘉義大學,2026-03-18,23.471325,120.485903,1.0921511e-09
C0U770,南澳,2026-03-18,24.44935,121.81022,5.6451888e-09
C2TB30,吉安,2026-03-18,23.94538,121.54803,2.4954915e-08
C0A980,社子,2026-03-18,25.109508,121.469681,3.2885495e-08
C0V800,六龜,2026-03-18,22.997889,120.633583,9.850729e-09
C1G9D0,國一S218K,2026-03-18,23.890641,120.493253,5.9384577e-09
C0E570,白沙屯,2026-03-18,24.549447,120.696803,0.9999748
C2F9A0,中竹林,2026-03-18,24.103556,120.751061,1.0452195e-09
C0FA40,臺中電廠,2026-03-18,24.2146,120.4907,6.559463e-08
C2G9A0,畜試所彰化,2026-03-18,23.86045,120.557964,5.734632e-10
C0H9C0,合歡山,2026-03-18,24.143442,121.272547,3.6734455e-08
G2M350,農試溪口農場,2026-03-18,23.58565,120.408111,1.2133364e-09
C0U860,頭城,2026-03-18,24.85323,121.8308,6.8563937e-09
C0R580,南州,2026-03-18,22.48591,120.50274,0.13371806
C0D430,峨眉,2026-03-18,24.6905,121.017189,0.0019498613
C0G780,秀水,2026-03-18,24.03405,120.503869,1.9082054e-09
72N100,臺南農改場,2026-03-18,23.0605,120.342194,2.6760063e-07
C0S900,蘭嶼高中,2026-03-18,22.04909,121.51214,0.9854973
C2TA60,六十石,2026-03-18,23.22477,121.31861,1.8198755e-08
C1F9W0,德基,2026-03-18,24.254783,121.190261,1.5312967e-08
C2M980,安和,2026-03-18,23.51377,120.31593,1.378604e-08
C1Z120,壽豐,2026-03-18,23.870853,121.508081,2.1059808e-08
C0W160,烏坵,2026-03-18,24.9944,119.44956,0.8577449
C1I240,外大坪,2026-03-18,23.958697,120.917931,1.689042e-09
C1I550,國六W023K,2026-03-18,23.979067,120.867742,1.0507403e-09
C0R870,興海,2026-03-18,21.9752,120.8439,0.96505755
C0R140,瑪家,2026-03-18,22.682903,120.686639,8.5099816e-10
C0A530,坪林,2026-03-18,24.938183,121.70975,1.5668958e-08
C0X260,後壁,2026-03-18,23.366358,120.362326,9.048921e-09
C0Z230,和平,2026-03-18,24.30717,121.77007,1.0120618e-07
C0G770,福興,2026-03-18,24.041289,120.437669,4.704793e-08
C0H9A0,神木村,2026-03-18,23.532742,120.843667,4.54657e-09
C0I460,南投,2026-03-18,23.911469,120.687331,9.444753e-10
C0I480,梅峰,2026-03-18,24.085272,121.173572,1.0382834e-08
C1V570,吉東,2026-03-18,22.85422,120.5454,0.00025560352
C2A560,福山,2026-03-18,24.776203,121.502811,1.3457237e-08
C0AH30,五分山,2026-03-18,25.07125,121.780794,2.4713673e-08
C0FA10,松柏,2026-03-18,24.429115,120.617482,7.795327e-07
72S200,東改班鳩分場,2026-03-18,22.829528,121.077694,8.3312655e-09
72HA00,中改埔里分場,2026-03-18,23.903208,120.963364,1.4396089e-09
C2H9W0,大坪頂農水,2026-03-18,24.043122,120.932781,1.4505817e-09
C0C650,平鎮,2026-03-18,24.897503,121.214636,0.007165308
C0S930,延平,2026-03-18,22.902581,121.084058,1.2099836e-08
C0UA60,樟樹山,2026-03-18,24.41393,121.78325,7.2344086e-09
C2UC10,出水溪,2026-03-18,24.615822,121.652253,1.4005649e-08
C1S670,摩天,2026-03-18,23.199503,121.027,1.1755803e-08
C2C590,觀音,2026-03-18,25.027072,121.153317,0.9999939
C0V630,茄萣,2026-03-18,22.906642,120.182608,0.025373392
466940,基隆,2026-03-18,25.133314,121.740475,2.3953039e-08
C0X050,東河,2026-03-18,23.296598,120.385608,1.1543757e-09
C0R770,保力,2026-03-18,22.071122,120.764111,0.28970736
G2L020,農試嘉義分所,2026-03-18,23.485028,120.473806,1.094493e-09
C0X240,關子嶺,2026-03-18,23.331169,120.508025,5.6633476e-10
C0I380,集集,2026-03-18,23.828206,120.801467,6.892763e-10
466990,花蓮,2026-03-18,23.975128,121.613275,3.2171656e-08
C1V220,小關山,2026-03-18,23.154217,120.813603,7.085422e-09
C1F9G1,慶福山,2026-03-18,24.180853,120.848378,2.6661457e-09
C0FB20,雪山橋,2026-03-18,24.23192,120.9786,1.4799066e-08
C0Z250,瑞穗林道,2026-03-18,23.49284,121.30688,3.5987206e-08
C0D590,新豐,2026-03-18,24.87068,120.97721,0.99997413
C0A870,五指山,2026-03-18,25.132153,121.608692,9.696494e-08
C0UA50,西帽山,2026-03-18,24.555361,121.802628,1.3583417e-08
C2R980,竹田國中,2026-03-18,22.61532,120.52412,0.004355735
C0X160,仁德,2026-03-18,22.968258,120.257689,5.9872913e-05
C1H971,六分寮,2026-03-18,23.92507,120.6378,1.264981e-09
C0W120,西嶼,2026-03-18,23.5626,119.468436,0.9583009
C0G650,員林,2026-03-18,23.946503,120.585597,7.0482037e-10
C0AD50,鶯歌,2026-03-18,24.951533,121.346294,0.6294213
C2H9Q0,北東眼山,2026-03-18,24.120939,121.189303,1.0022148e-08
C2H9T0,名間竹圍,2026-03-18,23.859914,120.637572,7.729459e-10
C0S990,山豬窟,2026-03-18,22.318619,120.857372,0.43187886
C0X190,安平,2026-03-18,22.993161,120.152181,3.000613e-06
C0K400,斗六,2026-03-18,23.720583,120.541127,7.6452966e-10
12J990,口湖工作站,2026-03-18,23.589978,120.180394,0.32583833
C0O830,北寮,2026-03-18,23.079561,120.495008,4.9724638e-09
C1D410,白蘭,2026-03-18,24.579364,121.079947,1.0758944e-08
C0S970,加津林,2026-03-18,22.416211,120.926942,5.025245e-07
C0D700,關西,2026-03-18,24.7977,121.1732,2.0679263e-07
C0U750,龜山島,2026-03-18,24.841667,121.953133,1.569552e-08
C0R810,內獅,2026-03-18,22.305064,120.642986,0.9972316
C1M390,龍美,2026-03-18,23.406728,120.654417,2.0997228e-09
C2K290,崙內,2026-03-18,23.69525,120.35601,5.434727e-09
C2FB60,頭櫃山,2026-03-18,24.129842,120.858925,5.3770073e-09
C1H840,國三N238K,2026-03-18,23.841008,120.707711,6.781605e-10
CAQ030,崎峰國小,2026-03-18,22.42565,120.49521,0.13371806
C2E520,大湖,2026-03-18,24.414939,120.870872,2.6330647e-09
467530,阿里山,2026-03-18,23.508208,120.813242,1.1485321e-08
C1E691,南湖,2026-03-18,24.40135,120.837533,4.618027e-09
C0FA30,梧棲,2026-03-18,24.256003,120.523381,3.5100165e-08
C1V231,高中,2026-03-18,23.134911,120.716711,1.5338418e-09
C0AK30,硬漢嶺,2026-03-18,25.136097,121.426372,1.3926686e-07
C0F9V0,新社,2026-03-18,24.200172,120.815806,2.2100681e-09
C0H890,埔里,2026-03-18,23.972169,120.952425,9.794817e-10
C0R690,墾丁,2026-03-18,21.966756,120.810269,0.20475107
C0SD20,富山,2026-03-18,22.822383,121.190825,5.459061e-08
C0F0D0,審馬陣,2026-03-18,24.381675,121.4203,4.0657227e-08
C2W030,金門農試所,2026-03-18,24.448431,118.451786,9.440022e-05
C0R820,白鷺,2026-03-18,22.454275,120.666219,7.0628756e-09
C0FB00,大雪山,2026-03-18,24.254668,121.007374,1.7725716e-08
C1V190,南天池,2026-03-18,23.27403,120.91176,1.1667079e-08
C0E940,雪見,2026-03-18,24.42595,121.01347,1.8733196e-08
K2E360,苗栗農改場,2026-03-18,24.495722,120.829111,3.1562202e-09
CAJ050,海口故事園區,2026-03-18,23.57543,120.14121,0.32583833
C2K280,四湖,2026-03-18,23.6304,120.22717,0.079837956
C2H9D0,三隻寮,2026-03-18,24.093078,120.861578,1.5489237e-09
C0O990,媽廟,2026-03-18,22.99175,120.293525,4.6960116e-07
C0D480,打鐵坑,2026-03-18,24.849664,121.150789,8.5764293e-07
C0Z220,和平林道,2026-03-18,24.343922,121.656317,5.8770357e-09
C0TA10,花蓮漁港,2026-03-18,23.995322,121.638331,4.9087826e-06
72C440,桃園農改場,2026-03-18,24.950944,121.030583,0.9983273
C1E711,馬拉邦山,2026-03-18,24.367306,120.901656,6.1731584e-09
C0SB20,富岡,2026-03-18,22.792467,121.192669,4.3817458e-08
C0D560,竹東,2026-03-18,24.767147,121.057881,1.2221162e-05
C0F9U0,南屯,2026-03-18,24.137006,120.637969,1.7922794e-08
C2SD60,明峰,2026-03-18,22.8671,121.11825,8.62126e-09
C0M720,番路,2026-03-18,23.464657,120.554156,5.3851745e-10
C0F0A0,雪山圈谷,2026-03-18,24.388594,121.236339,4.524469e-08
C1A9N0,四十份,2026-03-18,24.934158,121.593283,3.838527e-08
C0U760,東澳,2026-03-18,24.52196,121.83318,5.640948e-09
C0X230,鹽水,2026-03-18,23.272621,120.247641,8.246792e-06
C2H9H0,苗改南投蜂場,2026-03-18,23.852589,120.693481,6.535604e-10
C2TB70,達谷寮,2026-03-18,23.38,121.35968,1.886486e-08
C0R950,萬隆國小,2026-03-18,22.507667,120.587817,0.00059771154
467540,大武,2026-03-18,22.35572,120.90374,0.99336356
C0V370,古亭坑,2026-03-18,22.893178,120.401947,0.00012611775
C1I340,新興橋,2026-03-18,23.563333,120.868728,1.5889887e-09
C0SA80,土坂,2026-03-18,22.453108,120.887572,0.0002155405
C0R160,鹽埔,2026-03-18,22.739558,120.530778,0.0027548452
C0AC40,大屯山,2026-03-18,25.175675,121.522408,9.554069e-08
466850,五分山雷達站,2026-03-18,25.071182,121.781205,2.5077732e-08
C2H9L0,馬烈霸,2026-03-18,24.1512,121.201772,1.4193547e-08
C1AI50,國三N016K,2026-03-18,25.034164,121.619664,2.855545e-08
C2V920,匏子寮,2026-03-18,23.04905,120.55319,6.3971544e-09
C1V600,藤枝,2026-03-18,23.071961,120.757042,4.425588e-09
C1E601,南勢,2026-03-18,24.572486,120.734842,0.9999705
C0O980,新市,2026-03-18,23.061614,120.298197,2.8956032e-07
C0K420,西螺,2026-03-18,23.800407,120.467394,2.169915e-09
C0Z050,佳心,2026-03-18,23.34567,121.21316,1.8728837e-08
C0AD30,蘆洲,2026-03-18,25.086594,121.472331,4.8786063e-08
C0V610,梓官,2026-03-18,22.760558,120.267211,0.2157287
K2F750,種苗改良場,2026-03-18,24.225972,120.800917,2.0625537e-09
C0UA80,大溪漁港,2026-03-18,24.941801,121.902955,1.0574338e-08
C1AI60,國一39K邊坡,2026-03-18,25.064361,121.383836,3.810363e-08
C0W150,金寧,2026-03-18,24.457703,118.328989,4.855879e-05
C0R960,內埔,2026-03-18,22.608483,120.570714,0.0042705876
C2H9S0,龍南,2026-03-18,23.953536,120.833183,2.6309914e-09
C0AH40,平等,2026-03-18,25.129142,121.577086,1.618389e-07
C0R540,佳冬,2026-03-18,22.419456,120.552375,0.079055235
466950,彭佳嶼,2026-03-18,25.627975,122.079744,0.9999975
C0A890,雙溪,2026-03-18,25.036003,121.864242,1.9388256e-08
C0C480,桃園,2026-03-18,24.992425,121.323172,0.73473793
C0AH50,林口,2026-03-18,25.072181,121.38084,3.608694e-08
A2K360,水試臺西試驗場,2026-03-18,23.717231,120.190522,0.009528159
C2M960,外寮,2026-03-18,23.562643,120.665688,1.9277144e-09
C0F9S0,烏日,2026-03-18,24.107058,120.624103,1.3749557e-09
C2N180,鹿陶洋,2026-03-18,23.14325,120.48352,1.5375823e-09
C0C490,八德,2026-03-18,24.928708,121.283289,0.28501713
C0R190,赤山,2026-03-18,22.592333,120.614306,0.003364503
C0T820,天祥,2026-03-18,24.179597,121.495639,4.2621735e-08
C1F9E1,龍安,2026-03-18,24.1605,120.831961,2.3335627e-09
C2SD50,順那,2026-03-18,23.04166,121.29332,4.0283694e-06
C0V820,小林,2026-03-18,23.148408,120.63325,6.571892e-10
C2G870,芳苑,2026-03-18,23.922303,120.320025,0.46080235
C0E850,大河,2026-03-18,24.618069,120.948578,1.5986321e-05
C1U670,寒溪,2026-03-18,24.634,121.71691,6.4192776e-09
C0N020,城西,2026-03-18,23.0568,120.0956,0.32186666
C1Z110,三棧,2026-03-18,24.11557,121.60501,4.0171294e-08
C0R280,檳榔,2026-03-18,22.076078,120.836777,0.99970496
C2H9J0,中台,2026-03-18,23.9996,120.938739,1.230804e-09
C0F9L0,后里,2026-03-18,24.310436,120.729725,1.8099083e-09
467441,高雄,2026-03-18,22.730432,120.312516,0.13648231
C0Z180,新城,2026-03-18,24.040486,121.604878,3.1684056e-08
C0D540,橫山,2026-03-18,24.71116,121.11693,3.3400474e-07
C1D420,太閣南,2026-03-18,24.632808,121.160575,2.7290035e-08
C1E770,公館,2026-03-18,24.526914,120.830806,3.5319414e-09
CAN130,水試所海水繁養殖中心,2026-03-18,23.120802,120.07968,0.3925161
C1I430,翠華,2026-03-18,24.191961,121.224339,2.1274671e-08
C1M400,菜瓜坪,2026-03-18,23.251928,120.576103,6.245518e-10
C0G730,二林,2026-03-18,23.903325,120.376081,9.013904e-08
72M360,南改義竹分場,2026-03-18,23.360694,120.279361,4.115316e-07
V2K620,麥寮合作社,2026-03-18,23.753836,120.294783,9.320757e-09
C0Z070,舞鶴,2026-03-18,23.46811,121.37407,1.715648e-08
C0B040,大武崙,2026-03-18,25.166676,121.706993,4.6576977e-05
C1Z030,紅葉,2026-03-18,23.493119,121.338806,1.8226405e-08
C1I050,丹大,2026-03-18,23.753747,121.141147,2.0358907e-08
C0I080,信義,2026-03-18,23.689694,120.851036,1.0272813e-09
C2TB80,庄子底,2026-03-18,23.71794,121.49438,1.7147483e-08
C0D750,樂山林道6k,2026-03-18,24.49999,121.08773,2.3047937e-08
C2M920,朴子農改,2026-03-18,23.469889,120.259383,3.4311473e-08
C2A880,福隆,2026-03-18,25.017842,121.942083,1.7073067e-07
C0Z160,鳳林,2026-03-18,23.746114,121.453411,1.6862746e-08
C0UB80,翠峰林道6K,2026-03-18,24.49773,121.568625,3.2551878e-08
C0V210,復興,2026-03-18,23.222403,120.806089,1.3641205e-09
C0H990,昆陽,2026-03-18,24.121322,121.273642,2.5747559e-08
C0R741,獅子,2026-03-18,22.202308,120.705236,0.99848604
C0S710,鹿野,2026-03-18,22.917711,121.122994,8.074863e-09
C0I530,小奇萊,2026-03-18,24.131764,121.295717,3.2132714e-08
C0FA70,大雪山埡口,2026-03-18,24.26867,121.03062,2.5331174e-08
C2K630,荷苞,2026-03-18,23.657717,120.595144,5.051575e-10
C0Z080,富源,2026-03-18,23.587642,121.378225,2.8306223e-08
C2M9E0,旺來山,2026-03-18,23.555153,120.486463,6.7079814e-10
C0SB10,美和,2026-03-18,22.682078,121.060236,1.8465948e-07
C2K620,馬光農場,2026-03-18,23.721453,120.378864,2.9005671e-09
C1I140,卡奈托灣,2026-03-18,23.754364,121.087872,6.737515e-09
C0I520,玉山風口,2026-03-18,23.470489,120.955994,3.4307938e-08
C1G691,下水埔,2026-03-18,23.816114,120.5676,6.982611e-10
C0X110,臺南市南區,2026-03-18,22.961189,120.188378,6.1146195e-05
C0V680,仁武,2026-03-18,22.701083,120.347722,0.13648231
C2G840,北斗,2026-03-18,23.877586,120.514222,5.8710308e-09
C2TB90,長橋,2026-03-18,23.6874,121.46186,1.67055e-08
C0R900,竹坑,2026-03-18,22.1385,120.7022,0.87155837
C0G860,社頭,2026-03-18,23.897647,120.5862,8.735534e-10
C0X150,安定,2026-03-18,23.102614,120.227839,3.1445911e-06
C0R590,里港,2026-03-18,22.77919,120.49459,0.010309964
C0E610,馬都安,2026-03-18,24.451272,120.930192,4.1497072e-09
C0E550,明德,2026-03-18,24.583486,120.885411,1.6175558e-09
C0R150,三地門,2026-03-18,22.709889,120.639944,4.9272294e-06
C0G910,花壇,2026-03-18,24.032076,120.549461,1.912403e-09
C1D400,鳥嘴山,2026-03-18,24.71909,121.28387,4.1291496e-08
C0K500,元長,2026-03-18,23.64981,120.315024,1.0518517e-08
C0F0B0,石岡,2026-03-18,24.276061,120.777644,1.9266817e-09
C2V250,甲仙,2026-03-18,23.080106,120.591758,2.7837452e-09
C0SA20,金崙山,2026-03-18,22.567419,120.959667,1.1763273e-08
C0V350,溪埔,2026-03-18,22.738578,120.446797,0.003175578
C0M660,溪口,2026-03-18,23.604131,120.403569,1.2133364e-09
C1S880,壽卡,2026-03-18,22.238911,120.858903,0.99995786
72D680,桃改新埔分場,2026-03-18,24.834444,121.066111,0.9942123
