站號,站名,日期,lat,lon,BLBTSLS
C0R710,龍磐,2026-05-01,21.931672,120.838942,0.017020337
C1F9D1,白毛台,2026-05-01,24.158325,120.886933,7.0361417e-10
C0G940,竹塘,2026-05-01,23.848253,120.386764,0.56906843
467590,恆春,2026-05-01,22.003897,120.746339,0.020255245
C0U710,太平山,2026-05-01,24.505486,121.525656,1.1103307e-08
C0E820,獅潭,2026-05-01,24.539133,120.920042,1.0332161e-06
C2SD70,二層坪,2026-05-01,22.94105,121.16838,0.00025630684
C0V880,興達,2026-05-01,22.8778,120.2127,0.9997759
C0SB30,新蘭,2026-05-01,22.869214,121.223228,0.19134094
C2R970,屏科大,2026-05-01,22.648275,120.619247,0.99837327
C1Z130,銅門,2026-05-01,23.965694,121.492842,1.1786483e-06
C0AD40,土城,2026-05-01,24.973208,121.445169,6.75544e-09
CAN140,六官養殖協會,2026-05-01,23.22881,120.29962,0.9996755
C0X180,山上,2026-05-01,23.0757,120.363253,0.9998209
C0F9Z0,雪山東峰,2026-05-01,24.388792,121.268675,1.0594466e-08
C1M480,獨立山,2026-05-01,23.537022,120.607797,5.9291067e-10
C0X220,學甲,2026-05-01,23.230367,120.182187,0.9992789
467650,日月潭,2026-05-01,23.881325,120.90805,8.594953e-10
A2K570,古坑(花卉中心),2026-05-01,23.633531,120.552392,0.045837916
C0K600,箔子寮,2026-05-01,23.6197,120.14,0.9937738
C0G830,埤頭,2026-05-01,23.866003,120.452806,0.3744741
C0S950,七塊厝,2026-05-01,22.954453,121.229922,5.494897e-07
467110,金門,2026-05-01,24.407306,118.289281,1.12214295e-07
C0AH80,深坑,2026-05-01,25.002703,121.628328,0.0018176041
C0A970,三貂角,2026-05-01,25.007606,122.002058,0.111898944
C2D730,寶山農場,2026-05-01,24.732444,120.976153,4.6770748e-07
C0K430,褒忠,2026-05-01,23.690938,120.303634,0.37801388
467480,嘉義,2026-05-01,23.495925,120.432906,0.0052760313
C0V400,阿公店,2026-05-01,22.804194,120.355528,0.99976647
C2S800,華源,2026-05-01,22.65783,121.0232,0.0020766645
C2SA40,瑞和,2026-05-01,22.974361,121.156697,0.0005294757
C0E960,觀霧分站,2026-05-01,24.505781,121.113921,3.5176415e-09
467550,玉山,2026-05-01,23.48718,120.95943,1.8561337e-08
C0R440,大漢山,2026-05-01,22.405264,120.753181,7.0133943e-09
C0SD30,東清國小,2026-05-01,22.057128,121.564922,0.13278134
C1F9B1,桐林,2026-05-01,24.066172,120.735194,0.018493457
C2I210,蘆竹湳,2026-05-01,23.93398,120.81209,1.0456821e-09
C2H9U0,鳳鵬,2026-05-01,23.763919,120.788061,4.229348e-07
C0K390,土庫,2026-05-01,23.679029,120.395574,0.8278621
C1I450,望鄉山,2026-05-01,23.594153,120.944286,8.107456e-09
C0E910,海埔,2026-05-01,24.648767,120.772435,0.0013538774
B2E890,畜試北區分所,2026-05-01,24.527806,120.770972,2.2583921e-05
C0R750,四林格山,2026-05-01,22.076989,120.802439,0.1824839
C0F0C0,中坑,2026-05-01,24.248517,120.903319,1.1510053e-09
C1I121,大鞍,2026-05-01,23.678381,120.760017,1.3771946e-09
C2G9E0,移民庄,2026-05-01,23.9784,120.40283,0.98027956
72U480,花改蘭陽分場,2026-05-01,24.686306,121.716583,1.0037835e-08
C0A770,科教館,2026-05-01,25.096356,121.516507,7.3730857e-09
C0AJ60,六塊厝,2026-05-01,25.24,121.4481,0.059430372
C0R620,墾雷,2026-05-01,21.900836,120.855269,0.0146421
467420,永康,2026-05-01,23.038386,120.2367,0.9998645
C2M530,奮起湖,2026-05-01,23.493903,120.699253,1.1949675e-09
C0I410,名間,2026-05-01,23.837053,120.701447,0.022613745
A2C560,農工中心,2026-05-01,24.985917,121.239833,1.1775465e-05
C0V740,旗山,2026-05-01,22.888614,120.483597,0.99762493
C0Z061,玉里,2026-05-01,23.3215,121.339656,0.00081275735
C0S840,南田,2026-05-01,22.279725,120.889208,0.061082155
C1I470,杉林溪,2026-05-01,23.639517,120.786444,1.4792201e-09
C1X040,東原,2026-05-01,23.291597,120.463822,0.0009363091
C0R660,枋寮,2026-05-01,22.367722,120.590647,0.87999785
C0K450,大埤,2026-05-01,23.646074,120.431537,0.91813177
C0UA00,土場,2026-05-01,24.576533,121.495333,5.9249185e-08
467080,宜蘭,2026-05-01,24.763975,121.756528,1.3849609e-08
C0N030,四草,2026-05-01,23.0235,120.1116,0.9997542
467410,臺南,2026-05-01,22.99328,120.20492,0.99984044
C0V650,彌陀,2026-05-01,22.783806,120.246361,0.9992511
C0D660,新竹市東區,2026-05-01,24.798681,120.986942,9.053004e-07
82S580,茶改東部分場,2026-05-01,22.907694,121.130139,0.0008351989
C0SB40,興隆,2026-05-01,22.913661,121.257469,0.2114967
467050,新屋,2026-05-01,25.006725,121.047492,4.033134e-05
C0C710,大溪永福,2026-05-01,24.892936,121.324975,2.187285e-05
C0FA20,溫寮,2026-05-01,24.372177,120.583125,0.0012347401
C0V640,湖內,2026-05-01,22.887139,120.2445,0.9997714
C0R910,下寮,2026-05-01,22.3929,120.5548,0.7566395
C0Z020,明里,2026-05-01,23.208717,121.262342,4.506578e-05
C0M770,嘉義梅山,2026-05-01,23.585398,120.555587,5.097716e-07
C0C660,楊梅,2026-05-01,24.912375,121.143047,4.7914145e-06
C0SD40,牛頭山,2026-05-01,22.676661,121.506944,0.9125483
C1E511,新開,2026-05-01,24.347703,120.827019,4.3379123e-09
G2F820,農試所(霧峰),2026-05-01,24.031261,120.688133,0.33142087
C2M990,大巃頂,2026-05-01,23.5547,120.61439,8.978959e-10
C1I070,和社,2026-05-01,23.591131,120.888861,1.017203e-09
C2E990,新坪頂,2026-05-01,24.30201,120.8574,1.263086e-09
C0TA80,立霧山,2026-05-01,24.183258,121.641899,1.3425985e-08
C2F000,大肚,2026-05-01,24.15295,120.572117,7.760855e-09
C1S850,豐南,2026-05-01,23.122139,121.262389,3.029638e-07
C2M9B0,西興,2026-05-01,23.2428,120.57617,1.2594372e-08
C2A920,富貴角,2026-05-01,25.263783,121.565258,0.0011591475
C0T960,光復,2026-05-01,23.660694,121.424964,5.7700986e-06
C0F9M0,豐原,2026-05-01,24.254322,120.720692,9.060824e-08
C0R720,旭海,2026-05-01,22.205403,120.887614,0.132559
C0V710,苓雅,2026-05-01,22.622742,120.330669,0.99825805
C0C740,觀音工業區,2026-05-01,25.064764,121.114856,5.8851987e-05
CAC040,拉拉山,2026-05-01,24.699317,121.427133,8.335827e-09
C0V790,萬山,2026-05-01,22.905944,120.688056,0.0013809846
U2HA30,臺大和社,2026-05-01,23.590856,120.888864,1.017203e-09
C2H9K0,屯原,2026-05-01,24.067969,121.209389,2.2579045e-09
C0AJ90,澳底,2026-05-01,25.0552,121.9253,0.048048623
C0Z100,東華,2026-05-01,23.89525,121.549833,5.2515526e-05
C0G970,三豐,2026-05-01,23.882,120.2895,0.42824018
C0V900,汕尾,2026-05-01,22.4782,120.4151,0.9013538
C1R630,龍泉,2026-05-01,22.66701,120.59091,0.9991865
C1AC50,關渡,2026-05-01,25.133486,121.469331,0.0015654968
C0C800,四稜,2026-05-01,24.64733,121.4293,6.013572e-09
C0F9I0,神岡,2026-05-01,24.272481,120.658314,1.1344645e-07
C0K460,斗南,2026-05-01,23.678734,120.478359,0.8650967
C2O810,曾文,2026-05-01,23.219681,120.497328,0.027922211
467280,後龍,2026-05-01,24.648563,120.831834,0.00034838368
C1F9J1,清水林,2026-05-01,24.071242,120.820419,6.371847e-10
C2A650,火燒寮,2026-05-01,25.002719,121.742892,5.8860303e-07
466930,竹子湖,2026-05-01,25.162078,121.544547,3.1692277e-08
C1I220,樟湖,2026-05-01,23.905333,120.846983,7.59104e-10
C0I390,仁愛,2026-05-01,24.022122,121.132206,9.444086e-10
C0Z300,東里,2026-05-01,23.26853,121.30547,0.0003828346
C1V590,新發,2026-05-01,23.057019,120.646064,3.8377492e-09
C0K510,水林,2026-05-01,23.572924,120.24597,0.9650338
72S590,東改賓朗果園,2026-05-01,22.813889,121.071278,6.736811e-07
82A750,茶改北部分場,2026-05-01,24.955778,121.631222,5.476028e-08
C1A750,石碇服務區,2026-05-01,25.00872,121.646242,0.0009214591
C0X300,鹿寮,2026-05-01,23.386047,120.477331,0.000102655955
C0K590,雲林東勢,2026-05-01,23.674192,120.255721,0.11287072
C2K310,港尾布雞,2026-05-01,23.74834,120.38439,0.7839222
C0A570,桶後,2026-05-01,24.848222,121.597992,1.0043928e-07
C0G720,溪州,2026-05-01,23.851589,120.499093,0.26302376
C1V160,達卡努瓦,2026-05-01,23.279811,120.705319,1.1439578e-09
C2M410,馬頭山,2026-05-01,23.324361,120.582017,1.756478e-05
C0V850,蚵仔寮,2026-05-01,22.7256,120.2527,0.99924594
C0S740,池上,2026-05-01,23.119628,121.209469,2.00053e-05
C1V390,尖山,2026-05-01,22.813153,120.367789,0.9996792
C0AH70,松山,2026-05-01,25.04871,121.55042,7.016418e-09
C0N010,鯤鯓國小,2026-05-01,23.1879,120.0889,0.99937
C0SA60,知本（水試所）,2026-05-01,22.702394,121.082761,0.35260433
C0T9I0,豐濱,2026-05-01,23.583897,121.514806,0.94987607
C0UB00,淡江大學蘭陽校園,2026-05-01,24.823239,121.730383,8.106189e-09
C0W240,九宮,2026-05-01,24.423753,118.240186,1.1473141e-07
C0T9N0,富里,2026-05-01,23.171639,121.249378,2.016624e-05
U2HA50,臺大竹山,2026-05-01,23.756972,120.681556,0.031578124
C0V840,鳳鼻頭,2026-05-01,22.5083,120.3591,0.87244004
C0X140,西港,2026-05-01,23.125608,120.203108,0.99972427
72D080,桃改五峰分場,2026-05-01,24.612194,121.157167,8.18411e-10
C2H9P0,伊拿谷,2026-05-01,23.963211,121.088264,6.724468e-10
C2K250,崙背,2026-05-01,23.75553,120.31893,0.25709164
C2H9F0,柑林,2026-05-01,24.018658,120.847072,1.1858823e-06
C0TA20,加灣,2026-05-01,24.082025,121.608944,0.0008016771
C0V530,阿蓮,2026-05-01,22.883208,120.327508,0.99984187
C0FB30,八仙山苗圃,2026-05-01,24.192719,121.001366,1.2737649e-09
C0E791,卓蘭,2026-05-01,24.3126,120.8244,3.5551238e-09
C2R260,春日,2026-05-01,22.370361,120.628306,0.35431632
C1I030,武界,2026-05-01,23.913225,121.052483,6.739491e-10
C0R520,崁頂,2026-05-01,22.514781,120.506914,0.95096123
C0R341,牡丹,2026-05-01,22.130036,120.792639,0.32897136
C0R930,萬丹,2026-05-01,22.5885,120.4851,0.9869999
C0S760,紅石,2026-05-01,23.069131,121.126219,6.2189534e-09
C2C410,中央大學,2026-05-01,24.967652,121.185165,8.968269e-06
C1M610,石磐龍,2026-05-01,23.496606,120.663506,1.1729191e-09
C2C830,中德,2026-05-01,24.981862,121.291344,2.7843664e-05
C0C790,東眼山,2026-05-01,24.8284,121.40888,4.2233124e-09
C0UA10,鴛鴦湖,2026-05-01,24.590269,121.412228,9.569933e-09
C0R800,丹路,2026-05-01,22.204481,120.750989,0.14606652
C2R240,萬巒,2026-05-01,22.527306,120.625111,0.6637631
C0G920,永靖,2026-05-01,23.924703,120.547533,0.9360792
C2M950,太和,2026-05-01,23.538372,120.702961,1.1867564e-09
C1A630,下盆,2026-05-01,24.771003,121.538622,1.215818e-08
B2N890,畜產試驗所,2026-05-01,23.058972,120.336406,0.9998982
C0UA30,白嶺,2026-05-01,24.527819,121.519031,6.5835e-09
467571,新竹,2026-05-01,24.828575,121.01455,9.4043924e-07
C1V580,溪南(特生中心),2026-05-01,23.084972,120.788475,1.867379e-09
C1T970,大農,2026-05-01,23.615233,121.413331,0.97402364
C0R650,竹田,2026-05-01,22.58486,120.54344,0.98917735
C1H900,清流,2026-05-01,24.080775,120.962997,6.9385475e-10
C1C510,水尾,2026-05-01,24.940081,121.087161,1.0180168e-05
C2N170,茅港尾,2026-05-01,23.2061,120.2624,0.9996755
C0F9X0,大雅(中科園區),2026-05-01,24.21528,120.62445,4.304805e-07
C0SB60,白守蓮,2026-05-01,23.126769,121.401914,0.88671625
C0O970,虎頭埤,2026-05-01,23.021375,120.347878,0.9998121
C0C730,中大臨海站,2026-05-01,24.966126,121.008581,2.323096e-06
C0X250,新營,2026-05-01,23.310689,120.316681,0.9992002
C0V700,三民,2026-05-01,22.645017,120.311233,0.99778503
C0U870,大礁溪,2026-05-01,24.791042,121.675047,6.5281314e-09
C0E870,高鐵苗栗,2026-05-01,24.60725,120.826094,0.0005488205
C2S890,關山,2026-05-01,23.0395,121.175017,0.00014509255
C0TA30,鹽寮,2026-05-01,23.845606,121.592664,0.00020344638
C0M860,新美,2026-05-01,23.338017,120.683169,2.5289886e-09
C1E701,八卦,2026-05-01,24.491756,120.927619,8.764841e-10
C2TA90,加納納,2026-05-01,23.466421,121.359867,0.6230614
C0I420,國姓,2026-05-01,24.037803,120.855072,2.533256e-07
C2D720,關西工作站,2026-05-01,24.757275,121.184792,6.735485e-09
C2AK30,信賢,2026-05-01,24.84108,121.53492,3.7291382e-08
C0S960,香蘭,2026-05-01,22.587569,120.993375,0.00012769659
467620,蘭嶼,2026-05-01,22.0369,121.55843,0.9038236
C2UC40,中城,2026-05-01,24.62865,121.74745,1.1112692e-08
72G600,臺中農改場,2026-05-01,24.003028,120.534389,0.9828749
C0Z210,瑞穗,2026-05-01,23.5239,121.39021,0.9694044
C0M820,達邦,2026-05-01,23.453994,120.749517,1.4218712e-09
C0V860,南寮,2026-05-01,22.7616,120.2339,0.99924594
C0G740,大城,2026-05-01,23.852487,120.320935,0.27904305
C0R920,塭仔,2026-05-01,22.4169,120.5197,0.79400223
C0R470,高樹,2026-05-01,22.826389,120.600806,0.9988026
C0R680,佳樂水,2026-05-01,21.993578,120.861633,0.014360088
C1O870,大棟山,2026-05-01,23.31157,120.52226,1.3591781e-09
C0D360,梅花,2026-05-01,24.678347,121.208558,1.1515213e-09
C0Z190,富世,2026-05-01,24.14743,121.6297,0.01591134
C0AI10,屈尺,2026-05-01,24.92184,121.54475,5.8883125e-09
B2U990,畜試東區分所,2026-05-01,24.669039,121.832561,1.2859515e-08
C0SB80,長濱漁港,2026-05-01,23.313644,121.459994,0.99846274
C0TA50,和仁,2026-05-01,24.241394,121.712472,0.294575
C2AK40,漁光,2026-05-01,24.96875,121.72132,1.08681535e-08
C0V910,大樹,2026-05-01,22.684645,120.432803,0.99946934
C1R610,西大武山,2026-05-01,22.617719,120.7322,5.335916e-09
C0G900,線西,2026-05-01,24.143358,120.443536,0.99274796
C0M700,竹崎,2026-05-01,23.526178,120.555508,1.0485576e-06
C2E880,三義,2026-05-01,24.405478,120.749819,3.4440883e-09
C0C720,竹圍,2026-05-01,25.112692,121.239824,8.350575e-05
C0F9P0,清水,2026-05-01,24.312297,120.562242,9.0747264e-05
C0Z150,吉安光華,2026-05-01,23.930925,121.595153,0.00029210187
C0FA80,小雪山天池,2026-05-01,24.28025,121.02627,6.524621e-09
467300,東吉島,2026-05-01,23.25727,119.66762,0.998924
C1D640,外坪(五指山),2026-05-01,24.644447,121.090961,1.4783993e-09
C2R9A0,高士國小,2026-05-01,22.12553,120.84653,0.21507679
C0F9O0,潭子,2026-05-01,24.213106,120.703933,3.4528355e-07
C2H9R0,卓社,2026-05-01,23.887894,121.000086,1.1117224e-09
72T250,花蓮農改場,2026-05-01,23.975222,121.563889,6.916754e-05
C0E780,銅鑼,2026-05-01,24.489681,120.790853,2.5719148e-06
C1T950,太安,2026-05-01,23.666719,121.370128,2.9762812e-09
C0E830,苑裡,2026-05-01,24.439714,120.653053,0.00047616195
467270,田中,2026-05-01,23.873803,120.581286,0.37610182
C0SA10,檳榔四格山,2026-05-01,22.810031,121.109308,1.5648118e-07
C1T830,布洛灣,2026-05-01,24.17184,121.57127,2.1221241e-07
C0F970,大坑,2026-05-01,24.173142,120.722289,7.5097165e-07
C1U920,思源,2026-05-01,24.393125,121.347214,3.4708756e-09
C2H9Y0,松茗,2026-05-01,23.8167,120.650765,3.1312837e-08
C0A931,三和,2026-05-01,25.233153,121.595236,0.00011043297
C0I010,廬山,2026-05-01,24.033311,121.181808,1.2315013e-09
C2M940,日野賀,2026-05-01,23.434056,120.727169,1.0205943e-09
C0R860,鼻頭,2026-05-01,22.1043,120.8979,0.017826343
C2I260,北坑,2026-05-01,23.92463,121.00683,7.324249e-10
C0UB20,壯圍,2026-05-01,24.7359,121.8163,1.5156981e-08
C0R790,九棚,2026-05-01,22.14195,120.889281,0.06341083
C0W110,東莒,2026-05-01,25.9652,119.98069,4.7675738e-05
C1U930,粉鳥林,2026-05-01,24.497088,121.842479,0.9598014
C0S830,長濱,2026-05-01,23.286817,121.411975,0.70438856
C1F9F1,伯公龍,2026-05-01,24.272392,120.849047,1.8280673e-09
C0UB90,太平山莊,2026-05-01,24.494171,121.536209,1.12470095e-08
C0E810,西湖,2026-05-01,24.562947,120.7485,0.00038661665
C1I440,新高口,2026-05-01,23.478744,120.878939,4.4017807e-09
C0O840,王爺宮,2026-05-01,23.222064,120.40085,0.820751
C0T9G0,鳳林山,2026-05-01,23.735269,121.420131,4.4538563e-08
C0X080,佳里,2026-05-01,23.173039,120.145086,0.99934167
C0FB70,大甲溪埔,2026-05-01,24.370625,120.620067,0.00035708264
C0Z310,清水斷崖,2026-05-01,24.218294,121.689142,0.0022507217
C0M680,太保,2026-05-01,23.455062,120.331455,0.9933979
C1S820,金峰,2026-05-01,22.590969,120.933236,0.0014936586
C0AD10,八里,2026-05-01,25.150211,121.403947,0.024789583
C2K240,草嶺,2026-05-01,23.59555,120.693461,1.2769515e-09
C1SA70,都蘭,2026-05-01,22.87794,121.226881,0.16320288
C0K440,二崙,2026-05-01,23.772797,120.408944,0.5310296
C1A760,坪林交控,2026-05-01,24.94284,121.713442,5.4710713e-06
C0F9N0,大里,2026-05-01,24.092464,120.701378,0.26066032
C0SA90,達仁林場,2026-05-01,22.264347,120.823972,0.8756076
C1R290,石門山,2026-05-01,22.112611,120.756597,0.29840246
42HA10,萬大發電廠,2026-05-01,23.978875,121.139639,8.046216e-10
C0R890,山海,2026-05-01,21.9878,120.7091,0.021165878
C0T9A0,月眉山,2026-05-01,23.809928,121.539828,1.8374227e-08
C0AC70,信義,2026-05-01,25.037822,121.564597,7.391954e-09
C0K560,棋山,2026-05-01,23.68645,120.603417,0.013618792
C2FB50,出雲,2026-05-01,24.206469,120.902794,9.66753e-10
C1Z240,中平林道,2026-05-01,23.42115,121.26763,2.4394602e-08
U2H480,溪頭,2026-05-01,23.670306,120.798194,9.707607e-10
C0M880,好美里,2026-05-01,23.3364,120.138,0.99857646
C0T9E0,大坑,2026-05-01,23.880628,121.581981,4.747295e-08
C0K530,臺西,2026-05-01,23.701547,120.197559,0.5022314
C1E900,國一N128K,2026-05-01,24.560997,120.844186,5.7245106e-05
C0AJ50,水湳洞,2026-05-01,25.123695,121.862238,0.041441385
C0AI20,白沙灣,2026-05-01,25.283128,121.519058,0.034839377
C2V310,美濃,2026-05-01,22.898792,120.51907,0.99799806
C0A860,大坪,2026-05-01,25.165914,121.632969,4.6083063e-08
C1U850,觀音海岸,2026-05-01,24.38319,121.77856,2.3501492e-07
C2K610,草嶺石壁,2026-05-01,23.602469,120.707731,1.2466336e-09
C0U950,鶯子嶺,2026-05-01,24.89754,121.79244,8.6023055e-09
C0O900,善化,2026-05-01,23.112883,120.297219,0.9999028
C0K550,蔦松,2026-05-01,23.514319,120.229736,0.97040975
E2P980,林試六龜中心,2026-05-01,22.991703,120.645722,0.009218211
C0E590,通霄,2026-05-01,24.471892,120.704622,0.00013343325
C1I310,西巒,2026-05-01,23.754486,120.883956,1.3773417e-09
C0A550,泰平,2026-05-01,24.971197,121.823711,5.622497e-08
C2UC30,金洋,2026-05-01,24.42465,121.74573,0.9241302
C0I360,水里,2026-05-01,23.812553,120.849792,3.9636543e-05
C0R830,高士,2026-05-01,22.121825,120.836781,0.3991475
C1I101,溪頭,2026-05-01,23.661789,120.807647,1.7831403e-09
C0AJ20,野柳,2026-05-01,25.20703,121.690021,0.014189971
C0B060,暖暖,2026-05-01,25.0957,121.7403,0.000582627
C1H920,長豐,2026-05-01,24.102039,120.879897,6.70976e-10
C2S9B0,利吉,2026-05-01,22.86246,121.15486,0.0033107859
C0V360,內門,2026-05-01,22.975481,120.466769,0.98694646
C0R850,林邊,2026-05-01,22.4634,120.5339,0.7773721
C0E930,龍鳳,2026-05-01,24.700034,120.859125,8.620961e-06
C0U910,冬山,2026-05-01,24.63373,121.7937,1.2859515e-08
C1E721,泰安,2026-05-01,24.489017,120.968036,1.6307338e-09
82H320,茶改中部分場,2026-05-01,23.875611,120.913583,7.6380674e-10
C0M750,布袋,2026-05-01,23.380878,120.167789,0.97086203
C1S860,利嘉,2026-05-01,22.809417,121.050528,8.473095e-08
E2S980,林試太麻里1,2026-05-01,22.598922,120.980044,0.31069884
C0X170,關廟,2026-05-01,22.963017,120.327797,0.9998532
C0V720,林園,2026-05-01,22.507747,120.394511,0.87443566
C2M9G0,沄水,2026-05-01,23.38293,120.52666,1.3732522e-07
C1I510,線浸林道,2026-05-01,23.761508,120.832956,9.325322e-10
C0D690,外湖,2026-05-01,24.917735,120.968711,4.5276734e-06
C0C750,新興坑尾,2026-05-01,25.0061,121.0971,1.9387742e-05
B2Q810,畜試南區分所,2026-05-01,21.945583,120.802167,0.014360088
C0S790,金崙,2026-05-01,22.538122,120.966875,0.0004643819
C0AH90,福山植物園,2026-05-01,24.760717,121.58135,8.934956e-09
C0I540,奇萊稜線,2026-05-01,24.109231,121.326456,1.1928183e-08
C0M850,表湖,2026-05-01,23.24186,120.64166,1.3520728e-09
C0S770,大溪山,2026-05-01,22.478475,120.943325,0.8272566
C0AG80,中和,2026-05-01,24.991622,121.491792,6.75544e-09
C0T790,大禹嶺,2026-05-01,24.186117,121.316086,8.700337e-09
C0T9B0,水源,2026-05-01,23.991861,121.537169,1.9431015e-08
C0R840,牡丹池山,2026-05-01,22.168389,120.841225,0.95470625
C1I131,桶頭,2026-05-01,23.641944,120.654117,1.4100682e-05
CAL110,布袋國中,2026-05-01,23.35893,120.18026,0.99857646
C2M9D0,何竹子腳,2026-05-01,23.53641,120.38203,0.01766073
C0Z290,赤柯山,2026-05-01,23.36893,121.38293,2.1912438e-08
C0X280,將軍,2026-05-01,23.214999,120.13577,0.99927986
C0S690,太麻里,2026-05-01,22.60902,120.98533,1.0647159e-07
C0U880,北關,2026-05-01,24.9072,121.8734,0.01782181
CAW010,東引,2026-05-01,26.3588,120.4836,8.39139e-05
C0G810,埔心,2026-05-01,23.947633,120.525456,0.93945473
C0U970,大福,2026-05-01,24.80064,121.81389,1.4684458e-08
C2H9N0,仁愛東眼,2026-05-01,24.026875,121.1205,1.476179e-09
C1E670,南礦,2026-05-01,24.538278,121.002836,1.264923e-09
C0M520,東後寮,2026-05-01,23.369908,120.248065,0.9969147
C1E461,松安,2026-05-01,24.397972,120.986022,1.3787506e-09
C2N160,西拉雅風管處,2026-05-01,23.189481,120.335297,0.9997112
C2O850,環湖,2026-05-01,23.148665,120.4186,0.86070293
C2M970,碧湖,2026-05-01,23.568632,120.624165,8.879329e-10
C0A640,石碇,2026-05-01,24.993969,121.662917,5.471066e-06
E2S960,林試太麻里2,2026-05-01,22.598,120.99775,0.00023594272
C0F9Y0,桃山,2026-05-01,24.432739,121.303808,1.32276705e-08
C1I020,萬大,2026-05-01,23.979817,121.132261,9.572722e-10
C2UC20,長嶺,2026-05-01,24.70894,121.61162,1.7711622e-08
C0U940,羅東,2026-05-01,24.68184,121.74934,1.058041e-08
C0M650,朴子,2026-05-01,23.43463,120.23902,0.97512186
C1I500,大尖山,2026-05-01,23.858572,120.994889,3.3893994e-09
C0FB40,中橫21.6k,2026-05-01,24.2499,121.1455,9.61435e-10
C0G820,田尾,2026-05-01,23.901669,120.509389,0.93945473
E2K600,四湖植物園,2026-05-01,23.676986,120.163433,0.3453303
C0S730,綠島,2026-05-01,22.6672,121.47533,0.9352327
12Q970,東港工作站,2026-05-01,22.479997,120.466058,0.7934423
C1TA00,太魯閣,2026-05-01,24.15773,121.6236,8.9889196e-05
466920,臺北,2026-05-01,25.037658,121.514853,7.016418e-09
C0R600,舊泰武,2026-05-01,22.588194,120.664944,0.00017877822
466910,鞍部,2026-05-01,25.182586,121.529731,1.513748e-08
C1I230,九份二山,2026-05-01,23.961944,120.845,5.371777e-10
C2M810,里佳,2026-05-01,23.389125,120.716647,1.0989444e-09
C2A660,瑞芳,2026-05-01,25.113169,121.801147,0.00035259087
C0R270,琉球嶼,2026-05-01,22.332244,120.362236,0.4883884
C2V580,瑞山,2026-05-01,22.90304,120.43424,0.9955765
C1T990,高寮,2026-05-01,23.394239,121.356808,0.99716574
C0G620,芬園,2026-05-01,24.015678,120.6213,0.31288412
C1Z140,荖溪,2026-05-01,23.890575,121.45964,1.844586e-08
C1I201,中心崙,2026-05-01,23.728722,120.712097,1.0375564e-09
C1I400,凌霄,2026-05-01,24.018778,121.004456,1.4450119e-09
C1M640,十字,2026-05-01,23.492153,120.753683,1.3621263e-09
G2P820,農試鳳山分所,2026-05-01,22.646611,120.356083,0.9980462
C0Z270,蕃薯寮,2026-05-01,23.73835,121.540108,7.6365744e-08
C2E420,竹南,2026-05-01,24.70898,120.88897,4.030598e-06
C2D480,打鐵坑,2026-05-01,24.849664,121.150789,3.2804601e-09
C0FB10,出雲山苗圃,2026-05-01,24.23105,120.90475,1.1502526e-09
C0F9Q0,外埔,2026-05-01,24.347817,120.705686,2.723503e-07
C0K580,高鐵雲林,2026-05-01,23.737456,120.417944,0.77014136
C2I090,鳳凰,2026-05-01,23.728081,120.787347,8.0499e-10
C0U990,員山,2026-05-01,24.74435,121.72247,1.067764e-08
C0V770,大社,2026-05-01,22.730306,120.346639,0.99946094
C0X120,麻豆,2026-05-01,23.183289,120.248611,0.9997454
C0C670,龍潭,2026-05-01,24.870056,121.221389,3.667255e-09
C0D680,香山濕地,2026-05-01,24.783581,120.914988,4.5276734e-06
C0S980,勝林山,2026-05-01,22.430439,120.8938,2.5953914e-06
C0V730,大寮,2026-05-01,22.605614,120.395717,0.83921415
C0R570,麟洛,2026-05-01,22.65078,120.52719,0.99952805
C2M930,石卓,2026-05-01,23.478744,120.702264,1.3451739e-09
C0G9B0,和美,2026-05-01,24.105169,120.492131,0.9857538
C2I240,外大坪,2026-05-01,23.9587,120.91788,6.0198924e-10
CAG100,王功漁港,2026-05-01,23.96824,120.32586,0.99397105
C0X290,北門,2026-05-01,23.267772,120.125481,0.99927986
C2F930,大甲,2026-05-01,24.347667,120.640403,2.170607e-06
C0D650,湖口,2026-05-01,24.904794,121.043628,3.9815828e-07
C0U780,五結,2026-05-01,24.68637,121.79794,1.2859515e-08
C1I250,鯉潭,2026-05-01,23.961922,120.991131,6.384085e-10
C0R130,阿禮,2026-05-01,22.742908,120.743678,8.94577e-08
C0X100,臺南市北區,2026-05-01,23.010394,120.194228,0.9998445
C0S920,金峰嘉蘭,2026-05-01,22.594789,120.960825,1.0216151e-05
C0V490,新興,2026-05-01,22.627422,120.298803,0.9978854
C0F9K0,大安,2026-05-01,24.345061,120.588025,3.0685485e-05
C2E970,八甲,2026-05-01,24.535811,120.795983,2.736215e-06
C0V440,鳳山,2026-05-01,22.646653,120.356122,0.9980462
C1T940,大觀,2026-05-01,23.714206,121.373133,2.5253794e-08
C0E740,造橋,2026-05-01,24.637056,120.864778,3.4429356e-06
C0R100,尾寮山,2026-05-01,22.833111,120.683889,8.508578e-08
A2K630,臺大雲林校區,2026-05-01,23.730628,120.423903,0.74585235
467990,馬祖,2026-05-01,26.169467,119.923158,1.2729205e-05
C0D580,寶山,2026-05-01,24.735006,121.025192,1.4928135e-07
E2P990,林試扇平站,2026-05-01,22.9677,120.6857,1.40997285e-08
C0AI30,三重,2026-05-01,25.057328,121.500629,7.3730857e-09
C0AH00,汐止,2026-05-01,25.066881,121.658778,0.0059717163
C1Z040,立山,2026-05-01,23.443356,121.327375,0.00014639778
466881,新北,2026-05-01,24.959207,121.525196,6.4569763e-09
C0W130,花嶼,2026-05-01,23.40007,119.32276,0.993885
C0A950,鼻頭角,2026-05-01,25.129036,121.923372,0.99961853
C0K470,林內,2026-05-01,23.748675,120.609642,0.04600722
C2F990,摩天嶺,2026-05-01,24.322458,120.936819,1.0672708e-09
C2E430,南庄,2026-05-01,24.601775,121.000214,2.7892687e-08
82C160,茶改場,2026-05-01,24.908472,121.185333,1.9617999e-06
C2TB60,南安,2026-05-01,23.29818,121.26157,8.8560715e-05
C0Z320,清水林道,2026-05-01,23.27125,121.188272,6.898846e-08
C0R760,南仁湖,2026-05-01,22.084681,120.863353,0.32621267
C0M670,大林,2026-05-01,23.600616,120.45841,0.0028469288
C0M800,茶山,2026-05-01,23.299075,120.664767,3.566332e-08
C0A9C0,天母,2026-05-01,25.117494,121.537169,7.3446347e-09
72K220,南改斗南分場,2026-05-01,23.634556,120.477333,0.8352921
72AI40,桃改樹林分場,2026-05-01,24.944503,121.386972,6.630732e-09
C0S910,蘭嶼燈塔,2026-05-01,22.081197,121.503117,0.4576873
C0B050,八斗子,2026-05-01,25.144754,121.79167,0.005774888
C0U900,內城,2026-05-01,24.71813,121.68766,9.690186e-09
C0X320,柳營,2026-05-01,23.253328,120.375253,0.99756324
C0M790,新港,2026-05-01,23.553269,120.345728,0.9871022
C0F9T0,西屯,2026-05-01,24.179494,120.641275,6.589233e-06
C0E950,松安,2026-05-01,24.39792,120.98599,1.3787506e-09
C0SA30,都歷,2026-05-01,23.020333,121.323642,0.13177632
C0C620,蘆竹,2026-05-01,25.084275,121.265767,5.0004386e-05
C0R730,大坪頂,2026-05-01,22.024633,120.69355,0.029711893
C0AJ40,石門,2026-05-01,25.273672,121.601198,0.0027627242
C0E750,苗栗,2026-05-01,24.564569,120.824575,8.229877e-05
C0T870,鯉魚潭,2026-05-01,23.935639,121.508944,1.3153498e-06
C1V170,排雲,2026-05-01,23.463619,120.954147,1.5491343e-08
C2H950,中寮,2026-05-01,23.884447,120.766406,0.00012531744
C0R350,貓鼻頭,2026-05-01,21.921774,120.7358,0.020300679
C0V660,岡山,2026-05-01,22.797078,120.294958,0.9992147
C1H941,雙冬,2026-05-01,23.967378,120.802189,8.440488e-10
C0AJ70,田寮,2026-05-01,25.2698,121.4886,0.035087645
C0AI00,五股,2026-05-01,25.07445,121.42728,4.814681e-09
C0Z280,德武,2026-05-01,23.47426,121.41071,0.88063073
C2RA10,大新,2026-05-01,22.67558,120.57788,0.9991865
C0R700,枋山,2026-05-01,22.246844,120.661086,0.054650456
C0C460,復興,2026-05-01,24.820208,121.352281,1.6027041e-09
C2AA10,中八仙,2026-05-01,25.11576,121.49199,7.907618e-09
C2K300,鹿南,2026-05-01,23.63855,120.3636,0.27572602
E2H360,蓮華池,2026-05-01,23.918333,120.885278,6.1883043e-10
C0M640,中埔,2026-05-01,23.42538,120.5229,8.116044e-07
C2C810,八德蔬果,2026-05-01,24.97858,121.28187,2.7843664e-05
C2M9F0,安溪寮,2026-05-01,23.350334,120.208039,0.9984916
C0W140,金沙,2026-05-01,24.488292,118.408778,7.590491e-05
C2A540,四堵,2026-05-01,24.8926,121.745736,1.4958817e-07
C0ACA0,新莊,2026-05-01,25.051478,121.446756,7.641263e-09
C0R220,潮州,2026-05-01,22.534361,120.54,0.93070215
U2HA40,臺大內茅埔,2026-05-01,23.689722,120.851117,3.804994e-09
467490,臺中,2026-05-01,24.145736,120.684075,5.365907e-06
C0UB60,明池,2026-05-01,24.650688,121.475277,5.9838694e-09
C0U960,翠峰湖,2026-05-01,24.510856,121.608044,1.0704169e-08
E2HA20,林試畢祿溪站,2026-05-01,24.226944,121.308522,4.078023e-09
C2M9A0,大華,2026-05-01,23.4824,120.67491,1.2230487e-09
C0V890,前鎮,2026-05-01,22.5718,120.3117,0.99860394
C1F941,雪嶺,2026-05-01,24.280586,121.026642,6.524621e-09
C2H9E0,國姓南港,2026-05-01,23.911108,120.846556,7.9064366e-10
C0AC80,文山,2026-05-01,25.00235,121.575728,7.12009e-09
C0F9R0,龍井,2026-05-01,24.184536,120.528972,0.98240083
C0M760,民雄,2026-05-01,23.551754,120.428457,0.0028469288
C0UA40,西德山,2026-05-01,24.560647,121.752608,1.25295125e-08
C2TA70,赤科坪,2026-05-01,23.39885,121.39168,1.6796308e-07
C1T920,中興,2026-05-01,23.769503,121.498653,1.669077e-05
C0D550,雪霸,2026-05-01,24.526972,121.11605,4.0905492e-09
C2F860,梨山,2026-05-01,24.247522,121.243669,4.8585833e-09
C0R320,車城,2026-05-01,22.0744,120.716247,0.014660045
C1S870,南美山,2026-05-01,23.15025,121.382333,0.00028836937
C0B020,基隆嶼,2026-05-01,25.19141,121.78391,0.0031883887
C1U501,牛鬥,2026-05-01,24.637836,121.573656,1.3110451e-07
C0M730,嘉義市東區,2026-05-01,23.457673,120.460531,0.00056789484
C2R990,泰武,2026-05-01,22.60686,120.69765,7.184003e-08
C0S700,知本,2026-05-01,22.684866,121.005642,9.639385e-08
C1N001,沙崙,2026-05-01,22.935472,120.309406,0.9998583
C0V760,橋頭,2026-05-01,22.757806,120.30575,0.99948
C2V570,吉東,2026-05-01,22.85418,120.54539,0.9992575
C0G960,福寶,2026-05-01,24.0443,120.3814,0.98644865
C0X210,白河,2026-05-01,23.347466,120.414427,0.98122823
C0S810,東河,2026-05-01,22.972672,121.303986,0.21364897
C2R170,屏東,2026-05-01,22.66027,120.49403,0.99952805
C0R670,楓港,2026-05-01,22.190131,120.692156,0.065489106
C0FA50,霧峰,2026-05-01,24.0419,120.6995,0.13719381
C0UB10,蘇澳,2026-05-01,24.5969,121.8571,0.7483168
C0G950,防潮門,2026-05-01,24.1835,120.4871,0.9924706
C0M740,六腳,2026-05-01,23.492871,120.290625,0.9880718
C1R250,力里,2026-05-01,22.428117,120.629228,0.41571724
C0K330,虎尾,2026-05-01,23.719183,120.442036,0.634144
C2FA00,烏石坑,2026-05-01,24.273503,120.947617,1.0998608e-09
C0V620,永安,2026-05-01,22.82315,120.236856,0.9992514
C1I330,楓樹林,2026-05-01,23.986803,121.076117,1.055815e-09
C0W200,湖西,2026-05-01,23.596314,119.67275,0.9990247
72Q010,高雄農改場,2026-05-01,22.709333,120.525889,0.99952024
C0C680,龜山,2026-05-01,25.02846,121.38656,3.8453547e-09
C2V260,月眉,2026-05-01,22.971003,120.539853,0.96562934
C0V450,鳳森,2026-05-01,22.545064,120.392592,0.6855476
C0FA90,小雪山林道,2026-05-01,24.29515,121.03651,1.16840475e-08
C0U720,南山,2026-05-01,24.43742,121.38167,6.7332113e-09
A2N290,臺南蘭花園區,2026-05-01,23.340258,120.379661,0.99392927
C0R560,新園,2026-05-01,22.5434,120.461558,0.8744358
C0U890,三星,2026-05-01,24.66812,121.65302,8.003714e-09
C1V300,御油山,2026-05-01,23.001983,120.715364,1.805254e-09
C0U600,礁溪,2026-05-01,24.817539,121.765608,1.3711486e-08
C1T980,龍澗,2026-05-01,24.023289,121.411328,1.6311981e-08
C0D670,海天一線,2026-05-01,24.831986,120.914438,3.919128e-06
C0SA00,歷坵,2026-05-01,22.520969,120.89185,0.7820096
C0M710,東石,2026-05-01,23.458927,120.15385,0.9566503
C0M780,鹿草,2026-05-01,23.41134,120.30835,0.95562804
C0U520,雙連埤,2026-05-01,24.753033,121.641303,4.8681748e-09
C0B010,七堵,2026-05-01,25.094819,121.71713,0.0025175991
C0R480,長治,2026-05-01,22.693128,120.542622,0.9992646
C1V830,國三S383K,2026-05-01,22.781967,120.426475,0.9985112
12Q980,恆春工作站,2026-05-01,22.079678,120.714425,0.014660045
C1O940,東山服務區,2026-05-01,23.286016,120.398472,0.99262637
C1U840,東澳嶺,2026-05-01,24.5378,121.8485,7.433298e-08
C1D630,飛鳳山,2026-05-01,24.766464,121.119178,2.2485698e-09
C0S940,石寧山,2026-05-01,23.223772,121.406639,0.99783784
C0K410,北港,2026-05-01,23.573957,120.292802,0.9604847
C2M620,瑞里,2026-05-01,23.545133,120.675197,1.1174922e-09
C0SB70,小港漁港,2026-05-01,23.158558,121.400431,0.876128
C2O950,安南,2026-05-01,23.076694,120.144861,0.9997472
C0F0E0,南湖圈谷,2026-05-01,24.363714,121.444667,2.6862432e-08
467610,成功,2026-05-01,23.097486,121.373428,0.791172
C0G890,伸港,2026-05-01,24.148933,120.484403,0.9881331
C2E540,龍溪,2026-05-01,24.606489,120.783933,0.0002708051
C1V200,梅山,2026-05-01,23.268447,120.823556,1.098123e-09
C0T9H0,加路蘭山,2026-05-01,23.682947,121.5274,1.2297204e-08
C2O930,玉井,2026-05-01,23.126042,120.46055,0.86070293
C1F911,新伯公,2026-05-01,24.221361,120.841069,2.8349378e-09
C0X200,左鎮,2026-05-01,23.056758,120.408522,0.99768156
C2TB50,麻汝,2026-05-01,23.42554,121.39358,0.5502994
C0FA60,鞍馬山工作站,2026-05-01,24.267064,121.000793,3.910741e-09
C0SB50,叭嗡嗡,2026-05-01,23.047062,121.343223,0.8740636
C2R550,新埤,2026-05-01,22.467947,120.582894,0.83160627
C1F891,稍來,2026-05-01,24.265689,121.001142,3.703088e-09
C2M9C0,紫雲,2026-05-01,23.494914,120.540253,7.610685e-06
72N240,七股研究中心,2026-05-01,23.081672,120.062894,0.9997542
C0C700,中壢,2026-05-01,24.977661,121.256375,1.6199581e-05
C0M690,水上,2026-05-01,23.419734,120.388909,0.0048853825
C0V690,鼓山,2026-05-01,22.623325,120.275575,0.9978854
C0O860,大內,2026-05-01,23.11885,120.36083,0.99989116
C0Z200,萬榮,2026-05-01,23.709219,121.420106,1.7913775e-06
C0T9D0,和中,2026-05-01,24.26676,121.74103,0.3597006
C2S9A0,北份子寮,2026-05-01,22.78561,121.07813,0.005141521
C1O921,楠西,2026-05-01,23.183511,120.484083,0.68421006
C0AJ30,淡水觀海,2026-05-01,25.184591,121.408616,0.027201004
C0V810,左營,2026-05-01,22.67491,120.28491,0.99778503
C0UA70,桃源谷,2026-05-01,24.962606,121.888875,3.70415e-08
C0X130,官田,2026-05-01,23.193217,120.315422,0.9997201
C1H000,翠峰,2026-05-01,24.109397,121.205211,4.158494e-09
C0UA90,石城,2026-05-01,24.980444,121.951214,0.5947211
C1E681,南勢山,2026-05-01,24.421669,120.923831,8.146654e-10
C0A9F0,內湖,2026-05-01,25.079422,121.57545,7.391954e-09
C0K291,宜梧,2026-05-01,23.536281,120.169329,0.99553245
C1K540,口湖,2026-05-01,23.585344,120.180517,0.9937738
C0R780,滿州,2026-05-01,22.024403,120.839892,0.023700994
C0V870,文安,2026-05-01,22.8025,120.2164,0.99924594
C0U650,玉蘭,2026-05-01,24.675286,121.587061,1.6758124e-08
C0R640,東港,2026-05-01,22.46247,120.44074,0.87244004
C0AJ80,板橋,2026-05-01,25.0107,121.4489,6.75544e-09
C0S660,下馬,2026-05-01,23.150427,121.070312,3.3392475e-08
C2N190,烏樹,2026-05-01,23.32393,120.36989,0.9993859
C1H9B1,阿眉,2026-05-01,24.1263,120.994672,1.4965396e-09
C0UA20,多加屯,2026-05-01,24.368614,121.373189,8.266983e-09
C0E730,頭份,2026-05-01,24.688247,120.912206,4.637126e-06
72V140,高改旗南分場,2026-05-01,22.857861,120.516667,0.99869245
C2R490,九如,2026-05-01,22.74049,120.490555,0.99952024
C0K480,莿桐,2026-05-01,23.761192,120.502372,0.8169597
C0U980,坪林石牌,2026-05-01,24.86478,121.77396,8.558869e-09
C0T900,西林,2026-05-01,23.8119,121.441458,5.5497844e-07
C1I150,青雲,2026-05-01,23.793361,120.949378,1.4366198e-08
C2E980,和興,2026-05-01,24.505319,120.923016,1.2628306e-09
467350,澎湖,2026-05-01,23.565503,119.563094,0.99839777
C0G800,埔鹽,2026-05-01,24.000394,120.431683,0.97577244
C0H960,草屯,2026-05-01,23.973672,120.68085,0.008902836
C1V780,多納林道,2026-05-01,22.888028,120.737917,1.0726503e-09
C0E920,通霄漁港,2026-05-01,24.498589,120.673876,0.0006325085
C0Z330,安通山,2026-05-01,23.290728,121.348528,1.1679786e-07
C0AH10,永和,2026-05-01,25.01125,121.508111,6.8892705e-09
C0AK10,太平里,2026-05-01,25.134937,121.364899,8.395984e-09
C2G640,鹿港,2026-05-01,24.0753,120.430481,0.9908358
C1E890,國三N149K,2026-05-01,24.463414,120.680019,8.515392e-05
C1R110,口社,2026-05-01,22.770111,120.645222,0.9887905
C1M870,國三N285K,2026-05-01,23.550319,120.505833,2.9822122e-06
C1E480,鳳美,2026-05-01,24.554803,121.034747,1.6303325e-09
C0T9M0,靜浦,2026-05-01,23.455167,121.495028,0.99245304
C2H9M0,發祥,2026-05-01,24.154094,121.164517,8.3286555e-10
C2G9C0,埔南,2026-05-01,23.99124,120.46969,0.97577244
C0AI40,石牌,2026-05-01,25.115597,121.513139,7.391954e-09
C1F871,上谷關,2026-05-01,24.203483,121.018644,1.099152e-09
C2H9G0,百勝,2026-05-01,24.051142,120.909361,8.702739e-10
C0G880,二水,2026-05-01,23.810742,120.6173,0.018542113
C0R940,加祿堂,2026-05-01,22.3363,120.6217,0.8319648
C0W220,北竿,2026-05-01,26.220358,119.974881,8.606103e-05
C0O960,崎頂,2026-05-01,22.959547,120.369317,0.9998175
C0TA40,秀林,2026-05-01,24.302864,121.731144,3.6940957e-08
C0S750,向陽,2026-05-01,23.248397,120.986133,4.5183355e-09
C0T9F0,水璉,2026-05-01,23.797131,121.542514,1.1125846e-07
C1M600,頭凍,2026-05-01,23.406364,120.603339,8.213039e-10
467660,臺東,2026-05-01,22.752211,121.154586,0.9837625
C1D380,新埔,2026-05-01,24.84745,121.03834,3.2683525e-07
C2G980,田頭村,2026-05-01,23.8263,120.444175,0.5507809
C0V750,路竹,2026-05-01,22.854997,120.259439,0.9991508
C0N050,蚵寮,2026-05-01,23.301,120.1104,0.99927986
C2X060,下營,2026-05-01,23.226806,120.256291,0.9996755
72M700,南改鹿草分場,2026-05-01,23.416869,120.283061,0.9721199
C1SA50,利嘉林道,2026-05-01,22.82325,121.009389,1.2784484e-08
C0UB70,太平山中間站,2026-05-01,24.542003,121.513453,6.328163e-09
C0A940,金山,2026-05-01,25.223628,121.643967,0.008525033
C1V340,大津,2026-05-01,22.888322,120.645986,0.7360259
C0W180,七美,2026-05-01,23.219333,119.444892,0.9983179
C1F9C1,白冷,2026-05-01,24.182844,120.929889,7.1455547e-10
K2E710,苗改生物防治研究中心,2026-05-01,24.422861,120.871833,8.00584e-08
C0N040,蘆竹溝,2026-05-01,23.2344,120.0961,0.99935824
C0TB40,崇德,2026-05-01,24.166144,121.657414,0.186963
C0D760,大坪苗圃,2026-05-01,24.5362,121.1108,1.588113e-09
C2D430,峨眉,2026-05-01,24.6905,121.017189,3.708678e-07
C2W230,畜試所澎湖,2026-05-01,23.628342,119.513206,0.99492645
C0R880,後壁湖,2026-05-01,21.9457,120.7457,0.021165878
C1I280,埔中,2026-05-01,23.820778,120.642594,2.1979579e-08
467790,墾丁雷達站,2026-05-01,21.948235,120.808028,0.014616713
C0W190,望安,2026-05-01,23.380564,119.494075,0.9985486
C0Z170,卓溪,2026-05-01,23.3443,121.3029,0.0001345208
C0F850,東勢,2026-05-01,24.246428,120.833047,3.759431e-09
466900,淡水,2026-05-01,25.164889,121.448906,0.021906018
C0I370,魚池,2026-05-01,23.895703,120.94135,6.1747807e-10
C0C630,大溪,2026-05-01,24.882853,121.265547,3.8679473e-06
C0A520,山佳,2026-05-01,24.974944,121.402008,6.7425803e-09
C0I110,竹山,2026-05-01,23.761225,120.688156,0.03328147
82H840,茶改南部分場,2026-05-01,23.762528,120.7405,9.9371235e-08
C2SD80,再來山,2026-05-01,23.34371,121.44122,0.8331687
C0G660,溪湖,2026-05-01,23.94835,120.479122,0.9615424
C1T800,洛韶,2026-05-01,24.204558,121.453956,9.802055e-09
C1T810,慈恩,2026-05-01,24.192044,121.388386,8.821097e-09
C1E451,象鼻,2026-05-01,24.368617,120.940228,8.146654e-10
C0AC60,三峽,2026-05-01,24.939025,121.369728,0.00017941128
C0I490,萬大林道,2026-05-01,23.928228,121.091411,1.8626442e-09
C1I290,豐丘,2026-05-01,23.668178,120.887417,1.4600164e-09
C1I320,奧萬大,2026-05-01,23.952956,121.178556,8.892956e-10
C2M910,嘉義大學,2026-05-01,23.471325,120.485903,6.232507e-05
C0U770,南澳,2026-05-01,24.44935,121.81022,0.9598014
C2TB30,吉安,2026-05-01,23.94538,121.54803,1.112738e-05
C0A980,社子,2026-05-01,25.109508,121.469681,8.352188e-09
C0V800,六龜,2026-05-01,22.997889,120.633583,0.019498972
C1G9D0,國一S218K,2026-05-01,23.890641,120.493253,0.94233614
C0E570,白沙屯,2026-05-01,24.549447,120.696803,0.0014043762
C2F9A0,中竹林,2026-05-01,24.103556,120.751061,8.927426e-09
C0FA40,臺中電廠,2026-05-01,24.2146,120.4907,0.9887908
C2G9A0,畜試所彰化,2026-05-01,23.86045,120.557964,0.37610182
C0H9C0,合歡山,2026-05-01,24.143442,121.272547,1.5479145e-08
G2M350,農試溪口農場,2026-05-01,23.58565,120.408111,0.008138027
C0U860,頭城,2026-05-01,24.85323,121.8308,2.2592927e-08
C0R580,南州,2026-05-01,22.48591,120.50274,0.7934423
C0G780,秀水,2026-05-01,24.03405,120.503869,0.9828749
72N100,臺南農改場,2026-05-01,23.0605,120.342194,0.9998984
C0S900,蘭嶼高中,2026-05-01,22.04909,121.51214,0.13081786
C2TA60,六十石,2026-05-01,23.22477,121.31861,2.4754243e-08
C1F9W0,德基,2026-05-01,24.254783,121.190261,3.8272887e-09
C2M980,安和,2026-05-01,23.51377,120.31593,0.9880718
C1Z120,壽豐,2026-05-01,23.870853,121.508081,5.2515526e-05
C0W160,烏坵,2026-05-01,24.9944,119.44956,0.99888605
C1I550,國六W023K,2026-05-01,23.979067,120.867742,1.5064208e-08
C0R870,興海,2026-05-01,21.9752,120.8439,0.014360088
C0R140,瑪家,2026-05-01,22.682903,120.686639,0.0859271
C0A530,坪林,2026-05-01,24.938183,121.70975,3.765702e-07
C0X260,後壁,2026-05-01,23.366358,120.362326,0.9991744
C0Z230,和平,2026-05-01,24.30717,121.77007,0.48107988
C0G770,福興,2026-05-01,24.041289,120.437669,0.97577244
C0H9A0,神木村,2026-05-01,23.532742,120.843667,1.2843209e-09
C0I460,南投,2026-05-01,23.911469,120.687331,0.014313855
C0I480,梅峰,2026-05-01,24.085272,121.173572,2.7109377e-09
C2D770,巨埔,2026-05-01,24.84435,121.11442,2.7626453e-07
C2A560,福山,2026-05-01,24.776203,121.502811,2.0572742e-08
C0AH30,五分山,2026-05-01,25.07125,121.780794,1.0002287e-08
C0FA10,松柏,2026-05-01,24.429115,120.617482,0.0009977783
72S200,東改班鳩分場,2026-05-01,22.829528,121.077694,2.1497424e-06
72HA00,中改埔里分場,2026-05-01,23.903208,120.963364,6.282903e-10
C2H9W0,大坪頂農水,2026-05-01,24.043122,120.932781,6.137079e-10
C0C650,平鎮,2026-05-01,24.897503,121.214636,1.9669328e-06
C0S930,延平,2026-05-01,22.902581,121.084058,9.258264e-05
C0UA60,樟樹山,2026-05-01,24.41393,121.78325,1.2397563e-06
C2UC10,出水溪,2026-05-01,24.615822,121.652253,2.966046e-07
C1S670,摩天,2026-05-01,23.199503,121.027,4.103404e-09
C2C590,觀音,2026-05-01,25.027072,121.153317,2.1204696e-05
C0V630,茄萣,2026-05-01,22.906642,120.182608,0.9997759
466940,基隆,2026-05-01,25.133314,121.740475,0.0047922987
C0X050,東河,2026-05-01,23.296598,120.385608,0.99392927
C0R770,保力,2026-05-01,22.071122,120.764111,0.023366403
G2L020,農試嘉義分所,2026-05-01,23.485028,120.473806,5.074169e-05
C0X240,關子嶺,2026-05-01,23.331169,120.508025,1.4807557e-07
C0I380,集集,2026-05-01,23.828206,120.801467,8.7451444e-05
466990,花蓮,2026-05-01,23.975128,121.613275,0.0008268369
C1V220,小關山,2026-05-01,23.154217,120.813603,3.2232013e-09
C1F9G1,慶福山,2026-05-01,24.180853,120.848378,8.7650415e-10
C0FB20,雪山橋,2026-05-01,24.23192,120.9786,2.9707912e-09
C0Z250,瑞穗林道,2026-05-01,23.49284,121.30688,2.5875906e-08
C0D590,新豐,2026-05-01,24.87068,120.97721,2.3559613e-07
C2N200,口宵里,2026-05-01,23.15987,120.45988,0.00019146729
C0A870,五指山,2026-05-01,25.132153,121.608692,2.0697074e-08
C0UA50,西帽山,2026-05-01,24.555361,121.802628,7.6188975e-08
C2R980,竹田國中,2026-05-01,22.61532,120.52412,0.98548526
C0X160,仁德,2026-05-01,22.968258,120.257689,0.9998323
C1H971,六分寮,2026-05-01,23.92507,120.6378,3.7875725e-09
C2D790,石鹿,2026-05-01,24.56551,121.15841,2.4659936e-09
C0W120,西嶼,2026-05-01,23.5626,119.468436,0.9988141
C0G650,員林,2026-05-01,23.946503,120.585597,0.9299644
C0AD50,鶯歌,2026-05-01,24.951533,121.346294,0.00015776792
C2H9Q0,北東眼山,2026-05-01,24.120939,121.189303,2.560015e-09
C2H9T0,名間竹圍,2026-05-01,23.859914,120.637572,1.0946878e-05
C0S990,山豬窟,2026-05-01,22.318619,120.857372,0.9200338
C0X190,安平,2026-05-01,22.993161,120.152181,0.99984455
C0K400,斗六,2026-05-01,23.720583,120.541127,0.7163765
12J990,口湖工作站,2026-05-01,23.589978,120.180394,0.9937738
C0O830,北寮,2026-05-01,23.079561,120.495008,0.81801933
C1D410,白蘭,2026-05-01,24.579364,121.079947,1.3833366e-09
C0S970,加津林,2026-05-01,22.416211,120.926942,0.00025536527
C0D700,關西,2026-05-01,24.7977,121.1732,8.229038e-09
C0U750,龜山島,2026-05-01,24.841667,121.953133,2.1842695e-07
C0R810,內獅,2026-05-01,22.305064,120.642986,0.054650456
C2EA10,拉庫斯,2026-05-01,24.53637,121.02137,1.128971e-09
C1M390,龍美,2026-05-01,23.406728,120.654417,1.0221372e-09
C2K290,崙內,2026-05-01,23.69525,120.35601,0.27572602
C2FB60,頭櫃山,2026-05-01,24.129842,120.858925,1.4122814e-09
C1H840,國三N238K,2026-05-01,23.841008,120.707711,6.60798e-05
CAQ030,崎峰國小,2026-05-01,22.42565,120.49521,0.7934421
C2E520,大湖,2026-05-01,24.414939,120.870872,4.1879552e-08
467530,阿里山,2026-05-01,23.508208,120.813242,4.044258e-09
C1E691,南湖,2026-05-01,24.40135,120.837533,1.6529015e-09
C0FA30,梧棲,2026-05-01,24.256003,120.523381,0.98240083
C1V231,高中,2026-05-01,23.134911,120.716711,1.3087629e-09
C0AK30,硬漢嶺,2026-05-01,25.136097,121.426372,5.6521948e-08
C0F9V0,新社,2026-05-01,24.200172,120.815806,1.4689437e-09
C0H890,埔里,2026-05-01,23.972169,120.952425,9.6774e-10
C0R690,墾丁,2026-05-01,21.966756,120.810269,0.19237046
C0SD20,富山,2026-05-01,22.822383,121.190825,0.64941597
C0F0D0,審馬陣,2026-05-01,24.381675,121.4203,1.0436422e-08
C2W030,金門農試所,2026-05-01,24.448431,118.451786,0.9371848
C0R820,白鷺,2026-05-01,22.454275,120.666219,0.101059124
C0FB00,大雪山,2026-05-01,24.254668,121.007374,3.9931707e-09
C2O880,南化,2026-05-01,23.17332,120.59413,3.298286e-05
C1V190,南天池,2026-05-01,23.27403,120.91176,5.199154e-09
C0E940,雪見,2026-05-01,24.42595,121.01347,3.9056496e-09
K2E360,苗栗農改場,2026-05-01,24.495722,120.829111,1.117498e-05
CAJ050,海口故事園區,2026-05-01,23.57543,120.14121,0.9937738
C2K280,四湖,2026-05-01,23.6304,120.22717,0.3453303
C2H9D0,三隻寮,2026-05-01,24.093078,120.861578,6.0318917e-10
C0O990,媽廟,2026-05-01,22.99175,120.293525,0.9998658
C0Z220,和平林道,2026-05-01,24.343922,121.656317,7.5465465e-07
C0TA10,花蓮漁港,2026-05-01,23.995322,121.638331,0.9998004
72C440,桃園農改場,2026-05-01,24.950944,121.030583,8.02582e-07
C1E711,馬拉邦山,2026-05-01,24.367306,120.901656,8.496569e-10
C0SB20,富岡,2026-05-01,22.792467,121.192669,0.5254367
C0D560,竹東,2026-05-01,24.767147,121.057881,1.96056e-07
C0F9U0,南屯,2026-05-01,24.137006,120.637969,4.8415175e-05
C2SD60,明峰,2026-05-01,22.8671,121.11825,8.0026695e-07
C0M720,番路,2026-05-01,23.464657,120.554156,2.7926756e-08
C0F0A0,雪山圈谷,2026-05-01,24.388594,121.236339,1.7401877e-08
C1A9N0,四十份,2026-05-01,24.934158,121.593283,4.0605745e-09
C0U760,東澳,2026-05-01,24.52196,121.83318,0.9522974
C0X230,鹽水,2026-05-01,23.272621,120.247641,0.9984916
C2H9H0,苗改南投蜂場,2026-05-01,23.852589,120.693481,0.038774922
C2TB70,達谷寮,2026-05-01,23.38,121.35968,0.98168015
C0R950,萬隆國小,2026-05-01,22.507667,120.587817,0.7463997
467540,大武,2026-05-01,22.35572,120.90374,0.05928287
C0V370,古亭坑,2026-05-01,22.893178,120.401947,0.9974551
C1I340,新興橋,2026-05-01,23.563333,120.868728,2.1132305e-09
C2C480,桃園,2026-05-01,24.992425,121.323172,2.7843664e-05
C0SA80,土坂,2026-05-01,22.453108,120.887572,0.11291313
C0R160,鹽埔,2026-05-01,22.739558,120.530778,0.99952024
C0AC40,大屯山,2026-05-01,25.175675,121.522408,1.1096172e-08
466850,五分山雷達站,2026-05-01,25.071182,121.781205,9.718561e-09
C2H9L0,馬烈霸,2026-05-01,24.1512,121.201772,3.6844252e-09
C1AI50,國三N016K,2026-05-01,25.034164,121.619664,6.6984596e-09
C2V920,匏子寮,2026-05-01,23.04905,120.55319,0.022032665
C1V600,藤枝,2026-05-01,23.071961,120.757042,1.5900529e-09
C1E601,南勢,2026-05-01,24.572486,120.734842,3.8493425e-05
C0O980,新市,2026-05-01,23.061614,120.298197,0.9999006
C0K420,西螺,2026-05-01,23.800407,120.467394,0.37226
C0Z050,佳心,2026-05-01,23.34567,121.21316,3.316081e-08
C0AD30,蘆洲,2026-05-01,25.086594,121.472331,7.921309e-09
C0V610,梓官,2026-05-01,22.760558,120.267211,0.9992145
K2F750,種苗改良場,2026-05-01,24.225972,120.800917,1.8124647e-09
C0UA80,大溪漁港,2026-05-01,24.941801,121.902955,3.9987672e-08
C1AI60,國一39K邊坡,2026-05-01,25.064361,121.383836,4.561919e-09
C0W150,金寧,2026-05-01,24.457703,118.328989,0.0049276445
C0R960,內埔,2026-05-01,22.608483,120.570714,0.98332286
C2H9S0,龍南,2026-05-01,23.953536,120.833183,5.605509e-10
C0AH40,平等,2026-05-01,25.129142,121.577086,9.845207e-07
C0R540,佳冬,2026-05-01,22.419456,120.552375,0.7553642
466950,彭佳嶼,2026-05-01,25.627975,122.079744,0.9999491
C0A890,雙溪,2026-05-01,25.036003,121.864242,0.024061944
C0AH50,林口,2026-05-01,25.072181,121.38084,4.230423e-09
A2K360,水試臺西試驗場,2026-05-01,23.717231,120.190522,0.54645634
C2M960,外寮,2026-05-01,23.562643,120.665688,1.2076682e-09
C0F9S0,烏日,2026-05-01,24.107058,120.624103,0.9888776
C2N180,鹿陶洋,2026-05-01,23.14325,120.48352,0.68421006
C0C490,八德,2026-05-01,24.928708,121.283289,9.389271e-06
C0R190,赤山,2026-05-01,22.592333,120.614306,0.9782475
C0T820,天祥,2026-05-01,24.179597,121.495639,5.4363056e-08
C1F9E1,龍安,2026-05-01,24.1605,120.831961,1.3204297e-09
C2SD50,順那,2026-05-01,23.04166,121.29332,0.009927309
C0V820,小林,2026-05-01,23.148408,120.63325,2.7827273e-08
C2G870,芳苑,2026-05-01,23.922303,120.320025,0.28561756
C0E850,大河,2026-05-01,24.618069,120.948578,6.2612736e-07
C1U670,寒溪,2026-05-01,24.634,121.71691,8.076834e-09
C0N020,城西,2026-05-01,23.0568,120.0956,0.9997497
C1Z110,三棧,2026-05-01,24.11557,121.60501,2.3966154e-08
C0R280,檳榔,2026-05-01,22.076078,120.836777,0.13806827
C2H9J0,中台,2026-05-01,23.9996,120.938739,7.1458e-10
C0F9L0,后里,2026-05-01,24.310436,120.729725,2.5651289e-08
467441,高雄,2026-05-01,22.730432,120.312516,0.99946094
C2N210,岩坑,2026-05-01,23.24614,120.47458,0.016253954
C0Z180,新城,2026-05-01,24.040486,121.604878,0.0004673488
C0D540,橫山,2026-05-01,24.71116,121.11693,2.6411389e-08
C1D420,太閣南,2026-05-01,24.632808,121.160575,2.481337e-09
C1E770,公館,2026-05-01,24.526914,120.830806,3.9466217e-05
CAN130,水試所海水繁養殖中心,2026-05-01,23.120802,120.07968,0.9997542
C1I430,翠華,2026-05-01,24.191961,121.224339,6.21376e-09
C1M400,菜瓜坪,2026-05-01,23.251928,120.576103,3.347359e-08
C0G730,二林,2026-05-01,23.903325,120.376081,0.98320234
72M360,南改義竹分場,2026-05-01,23.360694,120.279361,0.9963768
V2K620,麥寮合作社,2026-05-01,23.753836,120.294783,0.37801388
C0Z070,舞鶴,2026-05-01,23.46811,121.37407,0.42018455
C0B040,大武崙,2026-05-01,25.166676,121.706993,0.009254769
C1Z030,紅葉,2026-05-01,23.493119,121.338806,0.83577806
C1I050,丹大,2026-05-01,23.753747,121.141147,6.6174914e-09
467290,古坑,2026-05-01,23.380729,120.336861,0.97732675
C0I080,信義,2026-05-01,23.689694,120.851036,3.804994e-09
C2TB80,庄子底,2026-05-01,23.71794,121.49438,1.3455781e-05
C0D750,樂山林道6k,2026-05-01,24.49999,121.08773,4.7815156e-09
C2M920,朴子農改,2026-05-01,23.469889,120.259383,0.9751219
C2A880,福隆,2026-05-01,25.017842,121.942083,0.62138236
C0Z160,鳳林,2026-05-01,23.746114,121.453411,7.39842e-06
C0UB80,翠峰林道6K,2026-05-01,24.49773,121.568625,1.19114505e-08
C0V210,復興,2026-05-01,23.222403,120.806089,1.2956166e-09
C0H990,昆陽,2026-05-01,24.121322,121.273642,9.145516e-09
C0R741,獅子,2026-05-01,22.202308,120.705236,0.053258203
C0S710,鹿野,2026-05-01,22.917711,121.122994,1.147261e-06
C0I530,小奇萊,2026-05-01,24.131764,121.295717,1.2460161e-08
C0FA70,大雪山埡口,2026-05-01,24.26867,121.03062,8.079577e-09
C2K630,荷苞,2026-05-01,23.657717,120.595144,0.0008882419
C0Z080,富源,2026-05-01,23.587642,121.378225,0.035994515
C2M9E0,旺來山,2026-05-01,23.555153,120.486463,1.4986949e-06
C0SB10,美和,2026-05-01,22.682078,121.060236,0.26348642
C2K620,馬光農場,2026-05-01,23.721453,120.378864,0.7839222
C1I140,卡奈托灣,2026-05-01,23.754364,121.087872,2.3208897e-09
C0I520,玉山風口,2026-05-01,23.470489,120.955994,1.878608e-08
C1G691,下水埔,2026-05-01,23.816114,120.5676,0.54795873
C0X110,臺南市南區,2026-05-01,22.961189,120.188378,0.999836
C0V680,仁武,2026-05-01,22.701083,120.347722,0.99946094
C2G840,北斗,2026-05-01,23.877586,120.514222,0.9390524
C2TB90,長橋,2026-05-01,23.6874,121.46186,5.7278935e-06
C0R900,竹坑,2026-05-01,22.1385,120.7022,0.065489106
C0G860,社頭,2026-05-01,23.897647,120.5862,0.96548843
C0X150,安定,2026-05-01,23.102614,120.227839,0.99987775
C0R590,里港,2026-05-01,22.77919,120.49459,0.99917173
C0E610,馬都安,2026-05-01,24.451272,120.930192,8.149856e-10
C0E550,明德,2026-05-01,24.583486,120.885411,0.00012821464
C0R150,三地門,2026-05-01,22.709889,120.639944,0.99849564
C0G910,花壇,2026-05-01,24.032076,120.549461,0.9720149
C1D400,鳥嘴山,2026-05-01,24.71909,121.28387,1.3373508e-09
C0K500,元長,2026-05-01,23.64981,120.315024,0.18363194
C0F0B0,石岡,2026-05-01,24.276061,120.777644,1.11812595e-08
C2V250,甲仙,2026-05-01,23.080106,120.591758,0.0004731987
C0SA20,金崙山,2026-05-01,22.567419,120.959667,1.9265613e-08
C0V350,溪埔,2026-05-01,22.738578,120.446797,0.99948
C0M660,溪口,2026-05-01,23.604131,120.403569,0.008138027
C1S880,壽卡,2026-05-01,22.238911,120.858903,0.9830667
72D680,桃改新埔分場,2026-05-01,24.834444,121.066111,3.8985405e-07
