站號,站名,日期,lat,lon,BlastGRU-TW
C0R710,龍磐,2026-01-22,21.931672,120.838942,0.00059110916
C1F9D1,白毛台,2026-01-22,24.158325,120.886933,0.004523336
C0G940,竹塘,2026-01-22,23.848253,120.386764,0.00533854
467590,恆春,2026-01-22,22.003897,120.746339,0.00058605755
C1O850,環湖,2026-01-22,23.148617,120.418633,0.02072721
C0U710,太平山,2026-01-22,24.505486,121.525656,0.00068754796
C0E820,獅潭,2026-01-22,24.539133,120.920042,0.0013163226
C2SD70,二層坪,2026-01-22,22.94105,121.16838,0.0012103936
C0V880,興達,2026-01-22,22.8778,120.2127,0.004817558
C0S890,關山,2026-01-22,23.0395,121.175017,0.0014412455
C0SB30,新蘭,2026-01-22,22.869214,121.223228,0.0013864052
C2R970,屏科大,2026-01-22,22.648275,120.619247,0.00872639
C1Z130,銅門,2026-01-22,23.965694,121.492842,0.00043366168
C0AD40,土城,2026-01-22,24.973208,121.445169,0.0046521677
CAN140,六官養殖協會,2026-01-22,23.22881,120.29962,0.0058224355
C0X180,山上,2026-01-22,23.0757,120.363253,0.0070894267
C0F9Z0,雪山東峰,2026-01-22,24.388792,121.268675,0.0004398792
C1M480,獨立山,2026-01-22,23.537022,120.607797,0.0012699044
C0X220,學甲,2026-01-22,23.230367,120.182187,0.0047835805
467650,日月潭,2026-01-22,23.881325,120.90805,0.002036837
A2K570,古坑(花卉中心),2026-01-22,23.633531,120.552392,0.0033134536
C0K600,箔子寮,2026-01-22,23.6197,120.14,0.0032448715
C0G830,埤頭,2026-01-22,23.866003,120.452806,0.005917273
C0S950,七塊厝,2026-01-22,22.954453,121.229922,0.00093925995
467110,金門,2026-01-22,24.407306,118.289281,0.00083942706
C0AH80,深坑,2026-01-22,25.002703,121.628328,0.0040534525
C0A970,三貂角,2026-01-22,25.007606,122.002058,0.021050308
C2D730,寶山農場,2026-01-22,24.732444,120.976153,0.0025747165
C0K430,褒忠,2026-01-22,23.690938,120.303634,0.0010728305
467480,嘉義,2026-01-22,23.495925,120.432906,0.01404642
C0V400,阿公店,2026-01-22,22.804194,120.355528,0.008144253
C0E960,觀霧分站,2026-01-22,24.505781,121.113921,0.00057768053
467550,玉山,2026-01-22,23.48718,120.95943,0.0004387328
C0R440,大漢山,2026-01-22,22.405264,120.753181,0.00066024764
C0SD30,東清國小,2026-01-22,22.057128,121.564922,0.0010343628
C1F9B1,桐林,2026-01-22,24.066172,120.735194,0.006764658
C2H9U0,鳳鵬,2026-01-22,23.763919,120.788061,0.00376088
C0K390,土庫,2026-01-22,23.679029,120.395574,0.006858316
C1I450,望鄉山,2026-01-22,23.594153,120.944286,0.00039563442
C0E910,海埔,2026-01-22,24.648767,120.772435,0.0022241422
B2E890,畜試北區分所,2026-01-22,24.527806,120.770972,0.0022238304
C0R750,四林格山,2026-01-22,22.076989,120.802439,0.0008832444
C0F0C0,中坑,2026-01-22,24.248517,120.903319,0.0021199216
C1I121,大鞍,2026-01-22,23.678381,120.760017,0.00097515725
C2G9E0,移民庄,2026-01-22,23.9784,120.40283,0.0025489829
72U480,花改蘭陽分場,2026-01-22,24.686306,121.716583,0.0056424947
C0A770,科教館,2026-01-22,25.096356,121.516507,0.0061261253
C0AJ60,六塊厝,2026-01-22,25.24,121.4481,0.008365713
C0R620,墾雷,2026-01-22,21.900836,120.855269,0.00052279833
467420,永康,2026-01-22,23.038386,120.2367,0.007818534
C2M530,奮起湖,2026-01-22,23.493903,120.699253,0.0011647163
C0I410,名間,2026-01-22,23.837053,120.701447,0.008946069
A2C560,農工中心,2026-01-22,24.985917,121.239833,0.0047935126
C0V740,旗山,2026-01-22,22.888614,120.483597,0.035662696
C0Z061,玉里,2026-01-22,23.3215,121.339656,0.000800004
C0S840,南田,2026-01-22,22.279725,120.889208,0.0017524385
C1I470,杉林溪,2026-01-22,23.639517,120.786444,0.0007616375
C1X040,東原,2026-01-22,23.291597,120.463822,0.008201586
C0R660,枋寮,2026-01-22,22.367722,120.590647,0.004103669
C1R120,上德文,2026-01-22,22.763272,120.704442,0.0014835763
C0K450,大埤,2026-01-22,23.646074,120.431537,0.0061430596
C0UA00,土場,2026-01-22,24.576533,121.495333,0.003924074
467080,宜蘭,2026-01-22,24.763975,121.756528,0.002703546
C0N030,四草,2026-01-22,23.0235,120.1116,0.005244112
467410,臺南,2026-01-22,22.99328,120.20492,0.005845561
C0V650,彌陀,2026-01-22,22.783806,120.246361,0.004301969
C0D660,新竹市東區,2026-01-22,24.798681,120.986942,0.0028703287
82S580,茶改東部分場,2026-01-22,22.907694,121.130139,0.0011555046
C0SB40,興隆,2026-01-22,22.913661,121.257469,0.0017217983
467050,新屋,2026-01-22,25.006725,121.047492,0.0029374743
C0C710,大溪永福,2026-01-22,24.892936,121.324975,0.0029106832
C0FA20,溫寮,2026-01-22,24.372177,120.583125,0.0009605821
C0V640,湖內,2026-01-22,22.887139,120.2445,0.0048178094
C0R910,下寮,2026-01-22,22.3929,120.5548,0.0043719094
C0Z020,明里,2026-01-22,23.208717,121.262342,0.0007921726
C0M770,嘉義梅山,2026-01-22,23.585398,120.555587,0.0068875533
C0C660,楊梅,2026-01-22,24.912375,121.143047,0.0041569658
C0SD40,牛頭山,2026-01-22,22.676661,121.506944,0.0010471097
C1E511,新開,2026-01-22,24.347703,120.827019,0.0030916564
G2F820,農試所(霧峰),2026-01-22,24.031261,120.688133,0.0070576337
C2M990,大巃頂,2026-01-22,23.5547,120.61439,0.00093753124
C1I070,和社,2026-01-22,23.591131,120.888861,0.0019880808
C2E990,新坪頂,2026-01-22,24.30201,120.8574,0.001461368
C0TA80,立霧山,2026-01-22,24.183258,121.641899,0.0003319764
C2F000,大肚,2026-01-22,24.15295,120.572117,0.00067809323
C1S850,豐南,2026-01-22,23.122139,121.262389,0.0010448631
C2M9B0,西興,2026-01-22,23.2428,120.57617,0.004448388
C2A920,富貴角,2026-01-22,25.263783,121.565258,0.011728163
CAH030,茶改場竹圍站,2026-01-22,23.860083,120.637528,0.0054062153
C0T960,光復,2026-01-22,23.660694,121.424964,0.00045664186
C0F9M0,豐原,2026-01-22,24.254322,120.720692,0.0040629134
C0R720,旭海,2026-01-22,22.205403,120.887614,0.0005398405
C0V710,苓雅,2026-01-22,22.622742,120.330669,0.004853768
C0C740,觀音工業區,2026-01-22,25.064764,121.114856,0.002774805
CAC040,拉拉山,2026-01-22,24.699317,121.427133,0.0013509297
C0V790,萬山,2026-01-22,22.905944,120.688056,0.00635889
U2HA30,臺大和社,2026-01-22,23.590856,120.888864,0.0019880808
C2H9K0,屯原,2026-01-22,24.067969,121.209389,0.00050965254
C0AJ90,澳底,2026-01-22,25.0552,121.9253,0.022385448
C0Z100,東華,2026-01-22,23.89525,121.549833,0.0005226155
C0G970,三豐,2026-01-22,23.882,120.2895,0.0013381592
V2K610,大庄合作社,2026-01-22,23.8068,120.367939,0.0010563582
C0V900,汕尾,2026-01-22,22.4782,120.4151,0.007342454
C1R630,龍泉,2026-01-22,22.66701,120.59091,0.008102199
C1AC50,關渡,2026-01-22,25.133486,121.469331,0.0059364527
C0C800,四稜,2026-01-22,24.64733,121.4293,0.0011258669
C0F9I0,神岡,2026-01-22,24.272481,120.658314,0.0052801818
C0K460,斗南,2026-01-22,23.678734,120.478359,0.00602876
C2O810,曾文,2026-01-22,23.219681,120.497328,0.014019253
467280,後龍,2026-01-22,24.648563,120.831834,0.0020031247
C1F9J1,清水林,2026-01-22,24.071242,120.820419,0.0016485614
C2A650,火燒寮,2026-01-22,25.002719,121.742892,0.0140910065
466930,竹子湖,2026-01-22,25.162078,121.544547,0.003465399
C1I220,樟湖,2026-01-22,23.905333,120.846983,0.0016904522
C0I390,仁愛,2026-01-22,24.022122,121.132206,0.0013140229
C0Z300,東里,2026-01-22,23.26853,121.30547,0.00077587325
C1V590,新發,2026-01-22,23.057019,120.646064,0.002395191
C0K510,水林,2026-01-22,23.572924,120.24597,0.0030321782
72S590,東改賓朗果園,2026-01-22,22.813889,121.071278,0.0017003663
82A750,茶改北部分場,2026-01-22,24.955778,121.631222,0.0059786127
C1A750,石碇服務區,2026-01-22,25.00872,121.646242,0.005184226
C0X300,鹿寮,2026-01-22,23.386047,120.477331,0.011576784
G2AI50,關渡,2026-01-22,25.11575,121.492,0.0062253354
C0K590,雲林東勢,2026-01-22,23.674192,120.255721,0.0010538183
C2K310,港尾布雞,2026-01-22,23.74834,120.38439,0.0068408293
C0A570,桶後,2026-01-22,24.848222,121.597992,0.026212918
C1S800,華源,2026-01-22,22.657883,121.02325,0.0022016084
C0G720,溪州,2026-01-22,23.851589,120.499093,0.005736036
C1V160,達卡努瓦,2026-01-22,23.279811,120.705319,0.001943051
C2M410,馬頭山,2026-01-22,23.324361,120.582017,0.005023149
C0V850,蚵仔寮,2026-01-22,22.7256,120.2527,0.0042641265
C0S740,池上,2026-01-22,23.119628,121.209469,0.0013976317
C1V390,尖山,2026-01-22,22.813153,120.367789,0.008291325
C0AH70,松山,2026-01-22,25.04871,121.55042,0.006157677
C0N010,鯤鯓國小,2026-01-22,23.1879,120.0889,0.0047529754
C0R550,新埤,2026-01-22,22.467947,120.582894,0.003881697
C0SA60,知本（水試所）,2026-01-22,22.702394,121.082761,0.0028335752
C0T9I0,豐濱,2026-01-22,23.583897,121.514806,0.00047875204
C0UB00,淡江大學蘭陽校園,2026-01-22,24.823239,121.730383,0.004122304
C0W240,九宮,2026-01-22,24.423753,118.240186,0.00094151695
C0T9N0,富里,2026-01-22,23.171639,121.249378,0.00075569726
U2HA50,臺大竹山,2026-01-22,23.756972,120.681556,0.007604844
C0V840,鳳鼻頭,2026-01-22,22.5083,120.3591,0.0071764337
C0X140,西港,2026-01-22,23.125608,120.203108,0.0053525623
72D080,桃改五峰分場,2026-01-22,24.612194,121.157167,0.0024043233
C2H9P0,伊拿谷,2026-01-22,23.963211,121.088264,0.0017898125
C2K250,崙背,2026-01-22,23.75553,120.31893,0.0010711501
C2H9F0,柑林,2026-01-22,24.018658,120.847072,0.0047801062
C0TA20,加灣,2026-01-22,24.082025,121.608944,0.0015580137
C0V530,阿蓮,2026-01-22,22.883208,120.327508,0.0065301796
C0FB30,八仙山苗圃,2026-01-22,24.192719,121.001366,0.0022588712
C1O880,關山,2026-01-22,23.173397,120.594092,0.005756763
C0E791,卓蘭,2026-01-22,24.3126,120.8244,0.0029979127
C1I030,武界,2026-01-22,23.913225,121.052483,0.0017053132
C0R520,崁頂,2026-01-22,22.514781,120.506914,0.00614684
C0R341,牡丹,2026-01-22,22.130036,120.792639,0.0025667187
C0R930,萬丹,2026-01-22,22.5885,120.4851,0.01007841
C0S760,紅石,2026-01-22,23.069131,121.126219,0.00058254093
C2C410,中央大學,2026-01-22,24.967652,121.185165,0.0047340975
C1M610,石磐龍,2026-01-22,23.496606,120.663506,0.0016616414
C0C790,東眼山,2026-01-22,24.8284,121.40888,0.0041050124
C0UA10,鴛鴦湖,2026-01-22,24.590269,121.412228,0.00061417924
V2C260,八德蔬果,2026-01-22,24.978508,121.281819,0.004930341
C0R800,丹路,2026-01-22,22.204481,120.750989,0.0010850535
C0G920,永靖,2026-01-22,23.924703,120.547533,0.0022911415
C2M950,太和,2026-01-22,23.538372,120.702961,0.0011747557
C1A630,下盆,2026-01-22,24.771003,121.538622,0.026239764
B2N890,畜產試驗所,2026-01-22,23.058972,120.336406,0.008614147
C0UA30,白嶺,2026-01-22,24.527819,121.519031,0.0013012945
467571,新竹,2026-01-22,24.828575,121.01455,0.0033050259
C1V580,溪南(特生中心),2026-01-22,23.084972,120.788475,0.0006886543
C1T970,大農,2026-01-22,23.615233,121.413331,0.0004324311
C0R650,竹田,2026-01-22,22.58486,120.54344,0.0057226177
C1H900,清流,2026-01-22,24.080775,120.962997,0.0016526373
C1C510,水尾,2026-01-22,24.940081,121.087161,0.0037723158
C2N170,茅港尾,2026-01-22,23.2061,120.2624,0.0058940575
C0F9X0,大雅(中科園區),2026-01-22,24.21528,120.62445,0.0007350465
C0SB60,白守蓮,2026-01-22,23.126769,121.401914,0.0006742599
C0O970,虎頭埤,2026-01-22,23.021375,120.347878,0.0073052463
C0C730,中大臨海站,2026-01-22,24.966126,121.008581,0.0036714955
C0X250,新營,2026-01-22,23.310689,120.316681,0.0057280893
C0V700,三民,2026-01-22,22.645017,120.311233,0.0040893783
C0U870,大礁溪,2026-01-22,24.791042,121.675047,0.006891086
C0E870,高鐵苗栗,2026-01-22,24.60725,120.826094,0.002045866
C0TA30,鹽寮,2026-01-22,23.845606,121.592664,0.00053631706
C0M860,新美,2026-01-22,23.338017,120.683169,0.009377725
C1E701,八卦,2026-01-22,24.491756,120.927619,0.0016940419
C2TA90,加納納,2026-01-22,23.466421,121.359867,0.0005133259
C0I420,國姓,2026-01-22,24.037803,120.855072,0.0044249967
C2D720,關西工作站,2026-01-22,24.757275,121.184792,0.004907906
C0S960,香蘭,2026-01-22,22.587569,120.993375,0.0022693435
467620,蘭嶼,2026-01-22,22.0369,121.55843,0.0007978183
C0R260,春日,2026-01-22,22.370361,120.628306,0.00376714
72G600,臺中農改場,2026-01-22,24.003028,120.534389,0.002179376
C0Z210,瑞穗,2026-01-22,23.5239,121.39021,0.0005244151
C0M820,達邦,2026-01-22,23.453994,120.749517,0.002073332
C0V860,南寮,2026-01-22,22.7616,120.2339,0.0042373985
C0G740,大城,2026-01-22,23.852487,120.320935,0.0013112875
C0R920,塭仔,2026-01-22,22.4169,120.5197,0.00438822
C0R470,高樹,2026-01-22,22.826389,120.600806,0.010374333
C0R680,佳樂水,2026-01-22,21.993578,120.861633,0.0005251044
C1O870,大棟山,2026-01-22,23.31157,120.52226,0.00093990535
C0D360,梅花,2026-01-22,24.678347,121.208558,0.0021458114
C0Z190,富世,2026-01-22,24.14743,121.6297,0.002682451
C0AI10,屈尺,2026-01-22,24.92184,121.54475,0.0046225754
B2U990,畜試東區分所,2026-01-22,24.669039,121.832561,0.047461312
C0SB80,長濱漁港,2026-01-22,23.313644,121.459994,0.00047301085
C0TA50,和仁,2026-01-22,24.241394,121.712472,0.00051844306
C0V910,大樹,2026-01-22,22.684645,120.432803,0.010420497
C1R610,西大武山,2026-01-22,22.617719,120.7322,0.00061437534
C0G900,線西,2026-01-22,24.143358,120.443536,0.0009159127
C0M700,竹崎,2026-01-22,23.526178,120.555508,0.007049889
C2E880,三義,2026-01-22,24.405478,120.749819,0.0011210189
C0C720,竹圍,2026-01-22,25.112692,121.239824,0.0036398305
C0F9P0,清水,2026-01-22,24.312297,120.562242,0.0009603552
C0Z150,吉安光華,2026-01-22,23.930925,121.595153,0.00051408855
C0FA80,小雪山天池,2026-01-22,24.28025,121.02627,0.0005168382
467300,東吉島,2026-01-22,23.25727,119.66762,0.00073707267
C1D640,外坪(五指山),2026-01-22,24.644447,121.090961,0.0008698439
C2R9A0,高士國小,2026-01-22,22.12553,120.84653,0.0018697191
C0F9O0,潭子,2026-01-22,24.213106,120.703933,0.0045812903
C2H9R0,卓社,2026-01-22,23.887894,121.000086,0.00090901705
72T250,花蓮農改場,2026-01-22,23.975222,121.563889,0.000497382
C0E780,銅鑼,2026-01-22,24.489681,120.790853,0.0017941054
C1T950,太安,2026-01-22,23.666719,121.370128,0.0022690573
C0E830,苑裡,2026-01-22,24.439714,120.653053,0.0029576654
467270,田中,2026-01-22,23.873803,120.581286,0.005589917
C0SA10,檳榔四格山,2026-01-22,22.810031,121.109308,0.0015434001
C1T830,布洛灣,2026-01-22,24.17184,121.57127,0.015133813
C0F970,大坑,2026-01-22,24.173142,120.722289,0.005238089
C1U920,思源,2026-01-22,24.393125,121.347214,0.0006574945
C2H9Y0,松茗,2026-01-22,23.8167,120.650765,0.0031378146
C0A931,三和,2026-01-22,25.233153,121.595236,0.016774673
C0I010,廬山,2026-01-22,24.033311,121.181808,0.00097453536
C2M940,日野賀,2026-01-22,23.434056,120.727169,0.0014812194
C0R860,鼻頭,2026-01-22,22.1043,120.8979,0.0016974306
C0UB20,壯圍,2026-01-22,24.7359,121.8163,0.0027490743
C0R790,九棚,2026-01-22,22.14195,120.889281,0.0005144486
C0W110,東莒,2026-01-22,25.9652,119.98069,0.00078351906
C1U930,粉鳥林,2026-01-22,24.497088,121.842479,0.005606216
C1I211,蘆竹湳,2026-01-22,23.934019,120.811994,0.0025275482
C0S830,長濱,2026-01-22,23.286817,121.411975,0.000676356
C1F9F1,伯公龍,2026-01-22,24.272392,120.849047,0.0016286838
C0UB90,太平山莊,2026-01-22,24.494171,121.536209,0.0006800992
C0E810,西湖,2026-01-22,24.562947,120.7485,0.0024363536
C1I440,新高口,2026-01-22,23.478744,120.878939,0.00045365232
C0O840,王爺宮,2026-01-22,23.222064,120.40085,0.021934455
C0T9G0,鳳林山,2026-01-22,23.735269,121.420131,0.0007877666
C0X080,佳里,2026-01-22,23.173039,120.145086,0.0047503347
C0FB70,大甲溪埔,2026-01-22,24.370625,120.620067,0.0009181582
C0Z310,清水斷崖,2026-01-22,24.218294,121.689142,0.0005182929
C0M680,太保,2026-01-22,23.455062,120.331455,0.0032513244
C1S820,金峰,2026-01-22,22.590969,120.933236,0.0012680733
C0AD10,八里,2026-01-22,25.150211,121.403947,0.0029203494
C2K240,草嶺,2026-01-22,23.59555,120.693461,0.0017209699
C1SA70,都蘭,2026-01-22,22.87794,121.226881,0.0013614552
C0K440,二崙,2026-01-22,23.772797,120.408944,0.006408079
C1A760,坪林交控,2026-01-22,24.94284,121.713442,0.009977794
C0F9N0,大里,2026-01-22,24.092464,120.701378,0.0071099303
C0SA90,達仁林場,2026-01-22,22.264347,120.823972,0.0025308153
C1R290,石門山,2026-01-22,22.112611,120.756597,0.0015215412
42HA10,萬大發電廠,2026-01-22,23.978875,121.139639,0.0015721509
C0R890,山海,2026-01-22,21.9878,120.7091,0.0005769754
C0T9A0,月眉山,2026-01-22,23.809928,121.539828,0.0003755143
C0AC70,信義,2026-01-22,25.037822,121.564597,0.006249096
C0K560,棋山,2026-01-22,23.68645,120.603417,0.0029453754
C2FB50,出雲,2026-01-22,24.206469,120.902794,0.0018230105
C1Z240,中平林道,2026-01-22,23.42115,121.26763,0.001734275
U2H480,溪頭,2026-01-22,23.670306,120.798194,0.0010760076
C0M880,好美里,2026-01-22,23.3364,120.138,0.005076062
C0T9E0,大坑,2026-01-22,23.880628,121.581981,0.00047252956
C0K530,臺西,2026-01-22,23.701547,120.197559,0.0011128988
C1E900,國一N128K,2026-01-22,24.560997,120.844186,0.0019778383
C0AJ50,水湳洞,2026-01-22,25.123695,121.862238,0.022242533
C0AI20,白沙灣,2026-01-22,25.283128,121.519058,0.011846962
C2V310,美濃,2026-01-22,22.898792,120.51907,0.035069488
C0A860,大坪,2026-01-22,25.165914,121.632969,0.010983757
C1U850,觀音海岸,2026-01-22,24.38319,121.77856,0.0010696485
C2K610,草嶺石壁,2026-01-22,23.602469,120.707731,0.0016465253
C0U950,鶯子嶺,2026-01-22,24.89754,121.79244,0.0041915723
C0O900,善化,2026-01-22,23.112883,120.297219,0.008877403
C0K550,蔦松,2026-01-22,23.514319,120.229736,0.0029506946
E2P980,林試六龜中心,2026-01-22,22.991703,120.645722,0.0058122505
C0E590,通霄,2026-01-22,24.471892,120.704622,0.003398842
C1I310,西巒,2026-01-22,23.754486,120.883956,0.0017206306
C0A550,泰平,2026-01-22,24.971197,121.823711,0.017892877
C0I360,水里,2026-01-22,23.812553,120.849792,0.0052889423
C0R830,高士,2026-01-22,22.121825,120.836781,0.0017038907
C1I101,溪頭,2026-01-22,23.661789,120.807647,0.0006749951
C0AJ20,野柳,2026-01-22,25.20703,121.690021,0.034077942
C0B060,暖暖,2026-01-22,25.0957,121.7403,0.02219356
C1H920,長豐,2026-01-22,24.102039,120.879897,0.0026287646
C2S9B0,利吉,2026-01-22,22.86246,121.15486,0.001205352
C0V360,內門,2026-01-22,22.975481,120.466769,0.022833528
C0R850,林邊,2026-01-22,22.4634,120.5339,0.005178603
C0E930,龍鳳,2026-01-22,24.700034,120.859125,0.0029453253
C0U910,冬山,2026-01-22,24.63373,121.7937,0.047461312
C1E721,泰安,2026-01-22,24.489017,120.968036,0.0006912299
82H320,茶改中部分場,2026-01-22,23.875611,120.913583,0.0025780604
C0M750,布袋,2026-01-22,23.380878,120.167789,0.0029911832
C1S860,利嘉,2026-01-22,22.809417,121.050528,0.0010899766
E2S980,林試太麻里1,2026-01-22,22.598922,120.980044,0.0015735055
C0X170,關廟,2026-01-22,22.963017,120.327797,0.007528435
C0V720,林園,2026-01-22,22.507747,120.394511,0.007592683
C1I510,線浸林道,2026-01-22,23.761508,120.832956,0.0008617173
C0D690,外湖,2026-01-22,24.917735,120.968711,0.003843579
C0C750,新興坑尾,2026-01-22,25.0061,121.0971,0.0033231669
B2Q810,畜試南區分所,2026-01-22,21.945583,120.802167,0.0005226279
C0S790,金崙,2026-01-22,22.538122,120.966875,0.0014712681
C0AH90,福山植物園,2026-01-22,24.760717,121.58135,0.021630403
C0I540,奇萊稜線,2026-01-22,24.109231,121.326456,0.00037959372
C0M850,表湖,2026-01-22,23.24186,120.64166,0.0036524122
C0S770,大溪山,2026-01-22,22.478475,120.943325,0.0011066899
C0AG80,中和,2026-01-22,24.991622,121.491792,0.004660024
C0T790,大禹嶺,2026-01-22,24.186117,121.316086,0.0004480629
C0T9B0,水源,2026-01-22,23.991861,121.537169,0.00030436306
C0R840,牡丹池山,2026-01-22,22.168389,120.841225,0.0028420126
C1I131,桶頭,2026-01-22,23.641944,120.654117,0.004876945
CAL110,布袋國中,2026-01-22,23.35893,120.18026,0.005080777
C2M9D0,何竹子腳,2026-01-22,23.53641,120.38203,0.014276102
467571,新竹,2026-01-22,24.827853,121.014219,0.0008418434
C0Z290,赤柯山,2026-01-22,23.36893,121.38293,0.00034158706
C0X280,將軍,2026-01-22,23.214999,120.13577,0.0048347525
C0S690,太麻里,2026-01-22,22.60902,120.98533,0.0008061121
C0U880,北關,2026-01-22,24.9072,121.8734,0.034274396
CAW010,東引,2026-01-22,26.3588,120.4836,0.0012776533
C0G810,埔心,2026-01-22,23.947633,120.525456,0.0023360124
C0U970,大福,2026-01-22,24.80064,121.81389,0.00269552
C2H9N0,仁愛東眼,2026-01-22,24.026875,121.1205,0.0009105847
C1E670,南礦,2026-01-22,24.538278,121.002836,0.00082543725
C0M520,東後寮,2026-01-22,23.369908,120.248065,0.005090411
C1E461,松安,2026-01-22,24.397972,120.986022,0.00068638986
C2N160,西拉雅風管處,2026-01-22,23.189481,120.335297,0.0063044396
C2M970,碧湖,2026-01-22,23.568632,120.624165,0.0009458655
C0A640,石碇,2026-01-22,24.993969,121.662917,0.0099448385
E2S960,林試太麻里2,2026-01-22,22.598,120.99775,0.0024216245
C0F9Y0,桃山,2026-01-22,24.432739,121.303808,0.00044105362
C1I020,萬大,2026-01-22,23.979817,121.132261,0.0013009042
C2UC20,長嶺,2026-01-22,24.70894,121.61162,0.020065263
C0U940,羅東,2026-01-22,24.68184,121.74934,0.005654772
C0M650,朴子,2026-01-22,23.43463,120.23902,0.003028961
C1I500,大尖山,2026-01-22,23.858572,120.994889,0.0005907237
C0FB40,中橫21.6k,2026-01-22,24.2499,121.1455,0.0012150615
C0G820,田尾,2026-01-22,23.901669,120.509389,0.0023192083
E2K600,四湖植物園,2026-01-22,23.676986,120.163433,0.0010977471
C0S730,綠島,2026-01-22,22.6672,121.47533,0.0007560585
12Q970,東港工作站,2026-01-22,22.479997,120.466058,0.005210757
C1TA00,太魯閣,2026-01-22,24.15773,121.6236,0.0058733905
466920,臺北,2026-01-22,25.037658,121.514853,0.006157677
C0R600,舊泰武,2026-01-22,22.588194,120.664944,0.0017706992
C1I260,北坑,2026-01-22,23.9246,121.006903,0.002915359
466910,鞍部,2026-01-22,25.182586,121.529731,0.002844915
C1I230,九份二山,2026-01-22,23.961944,120.845,0.0015948443
C2M810,里佳,2026-01-22,23.389125,120.716647,0.0011022058
C2A660,瑞芳,2026-01-22,25.113169,121.801147,0.022803253
C0R270,琉球嶼,2026-01-22,22.332244,120.362236,0.0036609108
C2V580,瑞山,2026-01-22,22.90304,120.43424,0.022025388
C1T990,高寮,2026-01-22,23.394239,121.356808,0.00090343005
C0G620,芬園,2026-01-22,24.015678,120.6213,0.0016777527
C1Z140,荖溪,2026-01-22,23.890575,121.45964,0.003054442
C1I201,中心崙,2026-01-22,23.728722,120.712097,0.0019370883
C1I400,凌霄,2026-01-22,24.018778,121.004456,0.00095334236
C1M640,十字,2026-01-22,23.492153,120.753683,0.000821865
G2P820,農試鳳山分所,2026-01-22,22.646611,120.356083,0.0049686604
C0Z270,蕃薯寮,2026-01-22,23.73835,121.540108,0.00038709736
C2E420,竹南,2026-01-22,24.70898,120.88897,0.0028985566
C0FB10,出雲山苗圃,2026-01-22,24.23105,120.90475,0.0021122363
C0F9Q0,外埔,2026-01-22,24.347817,120.705686,0.0058888914
C0K580,高鐵雲林,2026-01-22,23.737456,120.417944,0.006726391
C2I090,鳳凰,2026-01-22,23.728081,120.787347,0.0013865853
C0U990,員山,2026-01-22,24.74435,121.72247,0.005659927
C0V770,大社,2026-01-22,22.730306,120.346639,0.0048060976
C0X120,麻豆,2026-01-22,23.183289,120.248611,0.0055209384
C0C670,龍潭,2026-01-22,24.870056,121.221389,0.0034053314
C0D680,香山濕地,2026-01-22,24.783581,120.914988,0.003840418
C0S980,勝林山,2026-01-22,22.430439,120.8938,0.0006872723
C0V730,大寮,2026-01-22,22.605614,120.395717,0.004807699
C0R570,麟洛,2026-01-22,22.65078,120.52719,0.014069413
C2M930,石卓,2026-01-22,23.478744,120.702264,0.0008353247
C0G9B0,和美,2026-01-22,24.105169,120.492131,0.002297607
CAG100,王功漁港,2026-01-22,23.96824,120.32586,0.0041061095
C0X290,北門,2026-01-22,23.267772,120.125481,0.004850841
C2F930,大甲,2026-01-22,24.347667,120.640403,0.005110773
C0D650,湖口,2026-01-22,24.904794,121.043628,0.0029303534
C0U780,五結,2026-01-22,24.68637,121.79794,0.047461312
C1I250,鯉潭,2026-01-22,23.961922,120.991131,0.0022951094
C0R130,阿禮,2026-01-22,22.742908,120.743678,0.0010900899
C0X100,臺南市北區,2026-01-22,23.010394,120.194228,0.0058720205
C0S920,金峰嘉蘭,2026-01-22,22.594789,120.960825,0.0015576762
C0V490,新興,2026-01-22,22.627422,120.298803,0.0040500867
C0F9K0,大安,2026-01-22,24.345061,120.588025,0.0009272524
467290,古坑,2026-01-22,23.633639,120.551889,0.0033134536
C2E970,八甲,2026-01-22,24.535811,120.795983,0.0015012145
C0V440,鳳山,2026-01-22,22.646653,120.356122,0.0049686604
C1T940,大觀,2026-01-22,23.714206,121.373133,0.0003622843
C0E740,造橋,2026-01-22,24.637056,120.864778,0.0020893777
C0R100,尾寮山,2026-01-22,22.833111,120.683889,0.0010975804
A2K630,臺大雲林校區,2026-01-22,23.730628,120.423903,0.0066933683
467990,馬祖,2026-01-22,26.169467,119.923158,0.00088591635
C0D580,寶山,2026-01-22,24.735006,121.025192,0.0020375068
E2P990,林試扇平站,2026-01-22,22.9677,120.6857,0.0023179178
C0AI30,三重,2026-01-22,25.057328,121.500629,0.0061261253
C0AH00,汐止,2026-01-22,25.066881,121.658778,0.0049937405
C1Z040,立山,2026-01-22,23.443356,121.327375,0.0005452299
466881,新北,2026-01-22,24.959207,121.525196,0.004713613
C0W130,花嶼,2026-01-22,23.40007,119.32276,0.00062667363
C0A950,鼻頭角,2026-01-22,25.129036,121.923372,0.022244051
C0K470,林內,2026-01-22,23.748675,120.609642,0.0031133685
C2F990,摩天嶺,2026-01-22,24.322458,120.936819,0.001996099
C2E430,南庄,2026-01-22,24.601775,121.000214,0.0018593498
82C160,茶改場,2026-01-22,24.908472,121.185333,0.0037587034
C2TB60,南安,2026-01-22,23.29818,121.26157,0.00072661665
C0Z320,清水林道,2026-01-22,23.27125,121.188272,0.00045333174
C0R760,南仁湖,2026-01-22,22.084681,120.863353,0.0015301382
C0M670,大林,2026-01-22,23.600616,120.45841,0.013720868
C0M800,茶山,2026-01-22,23.299075,120.664767,0.0045926515
C0A9C0,天母,2026-01-22,25.117494,121.537169,0.00626949
72K220,南改斗南分場,2026-01-22,23.634556,120.477333,0.0059311846
72AI40,桃改樹林分場,2026-01-22,24.944503,121.386972,0.0052757203
C0S910,蘭嶼燈塔,2026-01-22,22.081197,121.503117,0.0011981655
C0B050,八斗子,2026-01-22,25.144754,121.79167,0.024619563
C0U900,內城,2026-01-22,24.71813,121.68766,0.005771446
C0X320,柳營,2026-01-22,23.253328,120.375253,0.0295817
C0M790,新港,2026-01-22,23.553269,120.345728,0.0030372648
C0F9T0,西屯,2026-01-22,24.179494,120.641275,0.006021615
C0E950,松安,2026-01-22,24.39792,120.98599,0.00068638986
C0SA30,都歷,2026-01-22,23.020333,121.323642,0.0016846482
C0C620,蘆竹,2026-01-22,25.084275,121.265767,0.004010091
C0R730,大坪頂,2026-01-22,22.024633,120.69355,0.00089139125
C0AJ40,石門,2026-01-22,25.273672,121.601198,0.012439293
C0E750,苗栗,2026-01-22,24.564569,120.824575,0.0020351044
C0T870,鯉魚潭,2026-01-22,23.935639,121.508944,0.00044364267
C1V170,排雲,2026-01-22,23.463619,120.954147,0.00042040064
C2H950,中寮,2026-01-22,23.884447,120.766406,0.0051671793
C0R350,貓鼻頭,2026-01-22,21.921774,120.7358,0.0005806526
C0V660,岡山,2026-01-22,22.797078,120.294958,0.004347533
C1H941,雙冬,2026-01-22,23.967378,120.802189,0.0022681993
C0AJ70,田寮,2026-01-22,25.2698,121.4886,0.011706981
C0AI00,五股,2026-01-22,25.07445,121.42728,0.0052273637
C0Z280,德武,2026-01-22,23.47426,121.41071,0.00052282604
C2RA10,大新,2026-01-22,22.67558,120.57788,0.008036464
C0R700,枋山,2026-01-22,22.246844,120.661086,0.0010422212
C0C460,復興,2026-01-22,24.820208,121.352281,0.0035360982
C2K300,鹿南,2026-01-22,23.63855,120.3636,0.0011038103
E2H360,蓮華池,2026-01-22,23.918333,120.885278,0.003437973
C0M640,中埔,2026-01-22,23.42538,120.5229,0.008390854
C0W140,金沙,2026-01-22,24.488292,118.408778,0.00087093905
C2A540,四堵,2026-01-22,24.8926,121.745736,0.011434282
C0ACA0,新莊,2026-01-22,25.051478,121.446756,0.005916328
C0R220,潮州,2026-01-22,22.534361,120.54,0.0061101574
U2HA40,臺大內茅埔,2026-01-22,23.689722,120.851117,0.0028163642
467490,臺中,2026-01-22,24.145736,120.684075,0.0058275987
C0UB60,明池,2026-01-22,24.650688,121.475277,0.0019653891
C0U960,翠峰湖,2026-01-22,24.510856,121.608044,0.00070635375
E2HA20,林試畢祿溪站,2026-01-22,24.226944,121.308522,0.0005681761
C2M9A0,大華,2026-01-22,23.4824,120.67491,0.0017980731
C0V890,前鎮,2026-01-22,22.5718,120.3117,0.0048930985
C1F941,雪嶺,2026-01-22,24.280586,121.026642,0.0005168382
C2H9E0,國姓南港,2026-01-22,23.911108,120.846556,0.001623274
C0AC80,文山,2026-01-22,25.00235,121.575728,0.007911879
C0F9R0,龍井,2026-01-22,24.184536,120.528972,0.0009328196
C0M760,民雄,2026-01-22,23.551754,120.428457,0.013747731
C0UA40,西德山,2026-01-22,24.560647,121.752608,0.0018832325
C2TA70,赤科坪,2026-01-22,23.39885,121.39168,0.00035102255
C1T920,中興,2026-01-22,23.769503,121.498653,0.00047939573
C0D550,雪霸,2026-01-22,24.526972,121.11605,0.0006665756
C2F860,梨山,2026-01-22,24.247522,121.243669,0.0006441142
C0R320,車城,2026-01-22,22.0744,120.716247,0.0007486848
C1S870,南美山,2026-01-22,23.15025,121.382333,0.002126863
C0B020,基隆嶼,2026-01-22,25.19141,121.78391,0.024278697
C1U501,牛鬥,2026-01-22,24.637836,121.573656,0.011681433
C0M730,嘉義市東區,2026-01-22,23.457673,120.460531,0.011012324
C2R990,泰武,2026-01-22,22.60686,120.69765,0.0014330907
C0S700,知本,2026-01-22,22.684866,121.005642,0.0011697867
C1N001,沙崙,2026-01-22,22.935472,120.309406,0.007690184
C0V760,橋頭,2026-01-22,22.757806,120.30575,0.004671557
C0G960,福寶,2026-01-22,24.0443,120.3814,0.0025012186
C0X210,白河,2026-01-22,23.347466,120.414427,0.016306309
C0S810,東河,2026-01-22,22.972672,121.303986,0.0017444105
C2R170,屏東,2026-01-22,22.66027,120.49403,0.014044795
C0R670,楓港,2026-01-22,22.190131,120.692156,0.00054254266
C0FA50,霧峰,2026-01-22,24.0419,120.6995,0.007007411
C0UB10,蘇澳,2026-01-22,24.5969,121.8571,0.035234764
C0G950,防潮門,2026-01-22,24.1835,120.4871,0.00091959845
C0M740,六腳,2026-01-22,23.492871,120.290625,0.0030492959
C1R250,力里,2026-01-22,22.428117,120.629228,0.012526604
C0K330,虎尾,2026-01-22,23.719183,120.442036,0.006554598
C2FA00,烏石坑,2026-01-22,24.273503,120.947617,0.0020418165
C0V620,永安,2026-01-22,22.82315,120.236856,0.0043002144
C1I330,楓樹林,2026-01-22,23.986803,121.076117,0.000936841
C0W200,湖西,2026-01-22,23.596314,119.67275,0.0006654188
72Q010,高雄農改場,2026-01-22,22.709333,120.525889,0.014854177
C0SA40,瑞和,2026-01-22,22.974361,121.156697,0.001233433
C0C680,龜山,2026-01-22,25.02846,121.38656,0.0039514625
C2V260,月眉,2026-01-22,22.971003,120.539853,0.017941408
C0V450,鳳森,2026-01-22,22.545064,120.392592,0.0074402126
C0FA90,小雪山林道,2026-01-22,24.29515,121.03651,0.000483105
C0U720,南山,2026-01-22,24.43742,121.38167,0.0010477004
A2N290,臺南蘭花園區,2026-01-22,23.340258,120.379661,0.018490639
C0R560,新園,2026-01-22,22.5434,120.461558,0.0075926865
C0U890,三星,2026-01-22,24.66812,121.65302,0.0054765414
C1V300,御油山,2026-01-22,23.001983,120.715364,0.0007076316
C0U600,礁溪,2026-01-22,24.817539,121.765608,0.002704841
C1T980,龍澗,2026-01-22,24.023289,121.411328,0.00036272523
C0D670,海天一線,2026-01-22,24.831986,120.914438,0.0038700674
C0SA00,歷坵,2026-01-22,22.520969,120.89185,0.0010169487
C0M710,東石,2026-01-22,23.458927,120.15385,0.0029746126
C0M780,鹿草,2026-01-22,23.41134,120.30835,0.0029293324
C0U520,雙連埤,2026-01-22,24.753033,121.641303,0.012291607
C0B010,七堵,2026-01-22,25.094819,121.71713,0.024092745
C0R480,長治,2026-01-22,22.693128,120.542622,0.008886739
C1V830,國三S383K,2026-01-22,22.781967,120.426475,0.021834474
12Q980,恆春工作站,2026-01-22,22.079678,120.714425,0.00074888
C1O940,東山服務區,2026-01-22,23.286016,120.398472,0.01827565
C1U840,東澳嶺,2026-01-22,24.5378,121.8485,0.0025666456
C1D630,飛鳳山,2026-01-22,24.766464,121.119178,0.0012050541
C0S940,石寧山,2026-01-22,23.223772,121.406639,0.00060318055
C0K410,北港,2026-01-22,23.573957,120.292802,0.0030017677
C2M620,瑞里,2026-01-22,23.545133,120.675197,0.001319998
C0SB70,小港漁港,2026-01-22,23.158558,121.400431,0.00066339
C2O950,安南,2026-01-22,23.076694,120.144861,0.005263585
C0F0E0,南湖圈谷,2026-01-22,24.363714,121.444667,0.00028794765
467610,成功,2026-01-22,23.097486,121.373428,0.0025390417
C0G890,伸港,2026-01-22,24.148933,120.484403,0.00091145106
C2E540,龍溪,2026-01-22,24.606489,120.783933,0.0023402148
C1V200,梅山,2026-01-22,23.268447,120.823556,0.0029047164
C0T9H0,加路蘭山,2026-01-22,23.682947,121.5274,0.00032724498
C2O930,玉井,2026-01-22,23.126042,120.46055,0.02080908
C1F911,新伯公,2026-01-22,24.221361,120.841069,0.0019522831
C0R490,九如,2026-01-22,22.7405,120.490503,0.014752431
C0X200,左鎮,2026-01-22,23.056758,120.408522,0.017779956
C2TB50,麻汝,2026-01-22,23.42554,121.39358,0.00050010293
C0FA60,鞍馬山工作站,2026-01-22,24.267064,121.000793,0.00050459825
C0SB50,叭嗡嗡,2026-01-22,23.047062,121.343223,0.0026792586
C1F891,稍來,2026-01-22,24.265689,121.001142,0.0005152701
C2M9C0,紫雲,2026-01-22,23.494914,120.540253,0.007709482
72N240,七股研究中心,2026-01-22,23.081672,120.062894,0.0052374206
C0C700,中壢,2026-01-22,24.977661,121.256375,0.0048176562
C0M690,水上,2026-01-22,23.419734,120.388909,0.018186716
C0V690,鼓山,2026-01-22,22.623325,120.275575,0.0040341215
C0O860,大內,2026-01-22,23.11885,120.36083,0.009047258
C0Z200,萬榮,2026-01-22,23.709219,121.420106,0.00043893736
C0T9D0,和中,2026-01-22,24.26676,121.74103,0.00051939103
C2S9A0,北份子寮,2026-01-22,22.78561,121.07813,0.0022873224
C1O921,楠西,2026-01-22,23.183511,120.484083,0.019688223
C0AJ30,淡水觀海,2026-01-22,25.184591,121.408616,0.0028324071
C0V810,左營,2026-01-22,22.67491,120.28491,0.0040930896
C0UA70,桃源谷,2026-01-22,24.962606,121.888875,0.017211018
C0X130,官田,2026-01-22,23.193217,120.315422,0.0064353915
C1H000,翠峰,2026-01-22,24.109397,121.205211,0.00042735925
C0UA90,石城,2026-01-22,24.980444,121.951214,0.022206537
C1E681,南勢山,2026-01-22,24.421669,120.923831,0.0012826682
C0A9F0,內湖,2026-01-22,25.079422,121.57545,0.006246384
C0K291,宜梧,2026-01-22,23.536281,120.169329,0.0032641138
C1K540,口湖,2026-01-22,23.585344,120.180517,0.0032612092
C0R780,滿州,2026-01-22,22.024403,120.839892,0.0008039458
C0V870,文安,2026-01-22,22.8025,120.2164,0.0042641265
C0U650,玉蘭,2026-01-22,24.675286,121.587061,0.019650275
C0R640,東港,2026-01-22,22.46247,120.44074,0.0071680704
C0AJ80,板橋,2026-01-22,25.0107,121.4489,0.004633319
C0S660,下馬,2026-01-22,23.150427,121.070312,0.00038898268
C2N190,烏樹,2026-01-22,23.32393,120.36989,0.0047243075
C1H9B1,阿眉,2026-01-22,24.1263,120.994672,0.0008546208
C0UA20,多加屯,2026-01-22,24.368614,121.373189,0.00044172409
C0E730,頭份,2026-01-22,24.688247,120.912206,0.002906087
72V140,高改旗南分場,2026-01-22,22.857861,120.516667,0.03011745
C0K480,莿桐,2026-01-22,23.761192,120.502372,0.0055670203
C0U980,坪林石牌,2026-01-22,24.86478,121.77396,0.005890533
C0T900,西林,2026-01-22,23.8119,121.441458,0.00043392443
C1I150,青雲,2026-01-22,23.793361,120.949378,0.0045100283
C2E980,和興,2026-01-22,24.505319,120.923016,0.0022075244
467350,澎湖,2026-01-22,23.565503,119.563094,0.00062882993
C0G800,埔鹽,2026-01-22,24.000394,120.431683,0.0024332604
C0H960,草屯,2026-01-22,23.973672,120.68085,0.0081997905
C1V780,多納林道,2026-01-22,22.888028,120.737917,0.0010904762
C0E920,通霄漁港,2026-01-22,24.498589,120.673876,0.0038812326
C0Z330,安通山,2026-01-22,23.290728,121.348528,0.00052372325
C0AH10,永和,2026-01-22,25.01125,121.508111,0.00462242
C0AK10,太平里,2026-01-22,25.134937,121.364899,0.0031767813
C2G640,鹿港,2026-01-22,24.0753,120.430481,0.0023498514
C1E890,國三N149K,2026-01-22,24.463414,120.680019,0.003188428
C1R110,口社,2026-01-22,22.770111,120.645222,0.00858866
C1M870,國三N285K,2026-01-22,23.550319,120.505833,0.0074532856
C1E480,鳳美,2026-01-22,24.554803,121.034747,0.0023920792
C0T9M0,靜浦,2026-01-22,23.455167,121.495028,0.00053798
C2H9M0,發祥,2026-01-22,24.154094,121.164517,0.001203157
C2G9C0,埔南,2026-01-22,23.99124,120.46969,0.002416013
C0AI40,石牌,2026-01-22,25.115597,121.513139,0.006246384
C1F871,上谷關,2026-01-22,24.203483,121.018644,0.0020258587
C2H9G0,百勝,2026-01-22,24.051142,120.909361,0.00408281
C0G880,二水,2026-01-22,23.810742,120.6173,0.003403581
C0R940,加祿堂,2026-01-22,22.3363,120.6217,0.0019879718
C0W220,北竿,2026-01-22,26.220358,119.974881,0.001044009
C0O960,崎頂,2026-01-22,22.959547,120.369317,0.006665123
C0TA40,秀林,2026-01-22,24.302864,121.731144,0.0021605252
C0S750,向陽,2026-01-22,23.248397,120.986133,0.00037501685
C0T9F0,水璉,2026-01-22,23.797131,121.542514,0.0004112718
C1M600,頭凍,2026-01-22,23.406364,120.603339,0.0009914568
467660,臺東,2026-01-22,22.752211,121.154586,0.00090377446
C1D380,新埔,2026-01-22,24.84745,121.03834,0.0027942904
C2G980,田頭村,2026-01-22,23.8263,120.444175,0.00642322
C0V750,路竹,2026-01-22,22.854997,120.259439,0.0045059114
C0N050,蚵寮,2026-01-22,23.301,120.1104,0.004850841
C2X060,下營,2026-01-22,23.226806,120.256291,0.005905163
72M700,南改鹿草分場,2026-01-22,23.416869,120.283061,0.0030035619
C1SA50,利嘉林道,2026-01-22,22.82325,121.009389,0.000691447
C0UB70,太平山中間站,2026-01-22,24.542003,121.513453,0.0026958738
C0A940,金山,2026-01-22,25.223628,121.643967,0.023378825
C1V340,大津,2026-01-22,22.888322,120.645986,0.0074066734
C0W180,七美,2026-01-22,23.219333,119.444892,0.0007029444
C1F9C1,白冷,2026-01-22,24.182844,120.929889,0.0046952227
K2E710,苗改生物防治研究中心,2026-01-22,24.422861,120.871833,0.0018451149
C0N040,蘆竹溝,2026-01-22,23.2344,120.0961,0.004866302
C0TB40,崇德,2026-01-22,24.166144,121.657414,0.00064016593
C0D760,大坪苗圃,2026-01-22,24.5362,121.1108,0.00070964673
C2W230,畜試所澎湖,2026-01-22,23.628342,119.513206,0.000559831
C0R880,後壁湖,2026-01-22,21.9457,120.7457,0.0005753998
C1I280,埔中,2026-01-22,23.820778,120.642594,0.0030821885
467790,墾丁雷達站,2026-01-22,21.948235,120.808028,0.00054347044
C0W190,望安,2026-01-22,23.380564,119.494075,0.0005768124
C0Z170,卓溪,2026-01-22,23.3443,121.3029,0.00076597964
C0F850,東勢,2026-01-22,24.246428,120.833047,0.002101595
466900,淡水,2026-01-22,25.164889,121.448906,0.0045805275
C0I370,魚池,2026-01-22,23.895703,120.94135,0.0035499088
C0C630,大溪,2026-01-22,24.882853,121.265547,0.0036142855
C0A520,山佳,2026-01-22,24.974944,121.402008,0.0053024204
C0I110,竹山,2026-01-22,23.761225,120.688156,0.0077273296
82H840,茶改南部分場,2026-01-22,23.762528,120.7405,0.003432609
C2SD80,再來山,2026-01-22,23.34371,121.44122,0.00042955598
C0G660,溪湖,2026-01-22,23.94835,120.479122,0.002391906
C1T800,洛韶,2026-01-22,24.204558,121.453956,0.00149653
C1T810,慈恩,2026-01-22,24.192044,121.388386,0.00031757113
C1E451,象鼻,2026-01-22,24.368617,120.940228,0.0023072483
C0AC60,三峽,2026-01-22,24.939025,121.369728,0.004228235
C0I490,萬大林道,2026-01-22,23.928228,121.091411,0.0006811441
C1I290,豐丘,2026-01-22,23.668178,120.887417,0.0014776707
C1I320,奧萬大,2026-01-22,23.952956,121.178556,0.0010838608
C2M910,嘉義大學,2026-01-22,23.471325,120.485903,0.010551839
C0U770,南澳,2026-01-22,24.44935,121.81022,0.0055960515
C2TB30,吉安,2026-01-22,23.94538,121.54803,0.00047437273
C0A980,社子,2026-01-22,25.109508,121.469681,0.008201164
C0V800,六龜,2026-01-22,22.997889,120.633583,0.006069799
C1G9D0,國一S218K,2026-01-22,23.890641,120.493253,0.002457487
C0E570,白沙屯,2026-01-22,24.549447,120.696803,0.00272804
C2F9A0,中竹林,2026-01-22,24.103556,120.751061,0.0031004325
C0FA40,臺中電廠,2026-01-22,24.2146,120.4907,0.0009242944
C2G9A0,畜試所彰化,2026-01-22,23.86045,120.557964,0.005627137
C0H9C0,合歡山,2026-01-22,24.143442,121.272547,0.00044689796
G2M350,農試溪口農場,2026-01-22,23.58565,120.408111,0.0139645785
C0U860,頭城,2026-01-22,24.85323,121.8308,0.005772817
C0R580,南州,2026-01-22,22.48591,120.50274,0.0052202498
C0D430,峨眉,2026-01-22,24.6905,121.017189,0.002510685
C0G780,秀水,2026-01-22,24.03405,120.503869,0.0021934623
72N100,臺南農改場,2026-01-22,23.0605,120.342194,0.008566835
C0S900,蘭嶼高中,2026-01-22,22.04909,121.51214,0.0009131865
C2TA60,六十石,2026-01-22,23.22477,121.31861,0.0003667757
C1F9W0,德基,2026-01-22,24.254783,121.190261,0.00079423457
C2M980,安和,2026-01-22,23.51377,120.31593,0.0029757214
C1Z120,壽豐,2026-01-22,23.870853,121.508081,0.0005226155
C0W160,烏坵,2026-01-22,24.9944,119.44956,0.00047406554
C1I240,外大坪,2026-01-22,23.958697,120.917931,0.0030806973
C1I550,國六W023K,2026-01-22,23.979067,120.867742,0.0036868774
C0R870,興海,2026-01-22,21.9752,120.8439,0.0005227741
C0R140,瑪家,2026-01-22,22.682903,120.686639,0.0024454275
C0A530,坪林,2026-01-22,24.938183,121.70975,0.0086571695
C0X260,後壁,2026-01-22,23.366358,120.362326,0.005950835
C0Z230,和平,2026-01-22,24.30717,121.77007,0.0012743353
C0G770,福興,2026-01-22,24.041289,120.437669,0.002450531
C0H9A0,神木村,2026-01-22,23.532742,120.843667,0.0008409647
C0I460,南投,2026-01-22,23.911469,120.687331,0.008329269
C0I480,梅峰,2026-01-22,24.085272,121.173572,0.0004886469
C1V570,吉東,2026-01-22,22.85422,120.5454,0.0098783905
C2A560,福山,2026-01-22,24.776203,121.502811,0.021111945
C0AH30,五分山,2026-01-22,25.07125,121.780794,0.010801399
C0FA10,松柏,2026-01-22,24.429115,120.617482,0.003147248
72S200,東改班鳩分場,2026-01-22,22.829528,121.077694,0.001804992
72HA00,中改埔里分場,2026-01-22,23.903208,120.963364,0.0037087784
C2H9W0,大坪頂農水,2026-01-22,24.043122,120.932781,0.0028070882
C0C650,平鎮,2026-01-22,24.897503,121.214636,0.0026775824
C0S930,延平,2026-01-22,22.902581,121.084058,0.0010818605
C0UA60,樟樹山,2026-01-22,24.41393,121.78325,0.0011264747
C2UC10,出水溪,2026-01-22,24.615822,121.652253,0.0034126847
C1S670,摩天,2026-01-22,23.199503,121.027,0.00083687744
C2C590,觀音,2026-01-22,25.027072,121.153317,0.0033267636
C0V630,茄萣,2026-01-22,22.906642,120.182608,0.004818411
466940,基隆,2026-01-22,25.133314,121.740475,0.024428267
C0X050,東河,2026-01-22,23.296598,120.385608,0.018428631
C0R770,保力,2026-01-22,22.071122,120.764111,0.0007872105
G2L020,農試嘉義分所,2026-01-22,23.485028,120.473806,0.01042174
C0X240,關子嶺,2026-01-22,23.331169,120.508025,0.004919872
C0I380,集集,2026-01-22,23.828206,120.801467,0.005540551
466990,花蓮,2026-01-22,23.975128,121.613275,0.001576775
C1V220,小關山,2026-01-22,23.154217,120.813603,0.0006620002
C1F9G1,慶福山,2026-01-22,24.180853,120.848378,0.0010622174
C0FB20,雪山橋,2026-01-22,24.23192,120.9786,0.0005197022
C0Z250,瑞穗林道,2026-01-22,23.49284,121.30688,0.0012461856
C0D590,新豐,2026-01-22,24.87068,120.97721,0.0031681862
C0A870,五指山,2026-01-22,25.132153,121.608692,0.00602744
C0UA50,西帽山,2026-01-22,24.555361,121.802628,0.0025891035
C2R980,竹田國中,2026-01-22,22.61532,120.52412,0.005707807
C0X160,仁德,2026-01-22,22.968258,120.257689,0.0060332115
C1H971,六分寮,2026-01-22,23.92507,120.6378,0.0035637012
C0W120,西嶼,2026-01-22,23.5626,119.468436,0.00060244574
C0G650,員林,2026-01-22,23.946503,120.585597,0.002238116
C0AD50,鶯歌,2026-01-22,24.951533,121.346294,0.0037933474
C2H9Q0,北東眼山,2026-01-22,24.120939,121.189303,0.0006086001
C2H9T0,名間竹圍,2026-01-22,23.859914,120.637572,0.0053975843
C0S990,山豬窟,2026-01-22,22.318619,120.857372,0.0033398818
C0X190,安平,2026-01-22,22.993161,120.152181,0.0058871657
C0K400,斗六,2026-01-22,23.720583,120.541127,0.005405859
12J990,口湖工作站,2026-01-22,23.589978,120.180394,0.0032448715
C0O830,北寮,2026-01-22,23.079561,120.495008,0.015958913
C1D410,白蘭,2026-01-22,24.579364,121.079947,0.0007421849
C0S970,加津林,2026-01-22,22.416211,120.926942,0.003554525
C0D700,關西,2026-01-22,24.7977,121.1732,0.005095687
C0U750,龜山島,2026-01-22,24.841667,121.953133,0.0101899
C0R810,內獅,2026-01-22,22.305064,120.642986,0.0019906189
C1M390,龍美,2026-01-22,23.406728,120.654417,0.0014993764
C2K290,崙內,2026-01-22,23.69525,120.35601,0.0011038103
C2FB60,頭櫃山,2026-01-22,24.129842,120.858925,0.0013944654
C1H840,國三N238K,2026-01-22,23.841008,120.707711,0.004875251
CAQ030,崎峰國小,2026-01-22,22.42565,120.49521,0.0052202498
C2E520,大湖,2026-01-22,24.414939,120.870872,0.0017761302
467530,阿里山,2026-01-22,23.508208,120.813242,0.000452475
C1E691,南湖,2026-01-22,24.40135,120.837533,0.0006877247
C0FA30,梧棲,2026-01-22,24.256003,120.523381,0.00092702365
C1V231,高中,2026-01-22,23.134911,120.716711,0.0029670168
C0AK30,硬漢嶺,2026-01-22,25.136097,121.426372,0.0026270198
C0F9V0,新社,2026-01-22,24.200172,120.815806,0.0015563746
C0H890,埔里,2026-01-22,23.972169,120.952425,0.0054159616
C0R690,墾丁,2026-01-22,21.966756,120.810269,0.0010169782
C0SD20,富山,2026-01-22,22.822383,121.190825,0.0014498796
C0F0D0,審馬陣,2026-01-22,24.381675,121.4203,0.00029446487
C2W030,金門農試所,2026-01-22,24.448431,118.451786,0.0004828111
C0R820,白鷺,2026-01-22,22.454275,120.666219,0.0028488243
C0FB00,大雪山,2026-01-22,24.254668,121.007374,0.00050063356
C1V190,南天池,2026-01-22,23.27403,120.91176,0.0003630039
C0E940,雪見,2026-01-22,24.42595,121.01347,0.0007048435
K2E360,苗栗農改場,2026-01-22,24.495722,120.829111,0.0020207306
CAJ050,海口故事園區,2026-01-22,23.57543,120.14121,0.003252269
C2K280,四湖,2026-01-22,23.6304,120.22717,0.0011017276
C2H9D0,三隻寮,2026-01-22,24.093078,120.861578,0.0015557226
C0O990,媽廟,2026-01-22,22.99175,120.293525,0.007731283
C0D480,打鐵坑,2026-01-22,24.849664,121.150789,0.004242246
C0Z220,和平林道,2026-01-22,24.343922,121.656317,0.0010358696
C0TA10,花蓮漁港,2026-01-22,23.995322,121.638331,0.0010727217
72C440,桃園農改場,2026-01-22,24.950944,121.030583,0.0033335942
C1E711,馬拉邦山,2026-01-22,24.367306,120.901656,0.0020279586
C0SB20,富岡,2026-01-22,22.792467,121.192669,0.0008804829
C0D560,竹東,2026-01-22,24.767147,121.057881,0.0021531528
C0F9U0,南屯,2026-01-22,24.137006,120.637969,0.006322595
C2SD60,明峰,2026-01-22,22.8671,121.11825,0.001002395
C0M720,番路,2026-01-22,23.464657,120.554156,0.004832954
C0F0A0,雪山圈谷,2026-01-22,24.388594,121.236339,0.00045590158
C1A9N0,四十份,2026-01-22,24.934158,121.593283,0.0067828777
C0U760,東澳,2026-01-22,24.52196,121.83318,0.005343327
C0X230,鹽水,2026-01-22,23.272621,120.247641,0.005009253
C2H9H0,苗改南投蜂場,2026-01-22,23.852589,120.693481,0.00925202
C2TB70,達谷寮,2026-01-22,23.38,121.35968,0.0008120285
C0R950,萬隆國小,2026-01-22,22.507667,120.587817,0.0038025684
467540,大武,2026-01-22,22.35572,120.90374,0.0018278578
C0V370,古亭坑,2026-01-22,22.893178,120.401947,0.02141116
C1I340,新興橋,2026-01-22,23.563333,120.868728,0.002632068
C0SA80,土坂,2026-01-22,22.453108,120.887572,0.002010961
C0R160,鹽埔,2026-01-22,22.739558,120.530778,0.014933086
C0AC40,大屯山,2026-01-22,25.175675,121.522408,0.00219835
466850,五分山雷達站,2026-01-22,25.071182,121.781205,0.010681193
C2H9L0,馬烈霸,2026-01-22,24.1512,121.201772,0.00071955804
C1AI50,國三N016K,2026-01-22,25.034164,121.619664,0.009689359
C2V920,匏子寮,2026-01-22,23.04905,120.55319,0.009263322
C1V600,藤枝,2026-01-22,23.071961,120.757042,0.00076693244
C1E601,南勢,2026-01-22,24.572486,120.734842,0.0019506374
C0O980,新市,2026-01-22,23.061614,120.298197,0.008853291
C0K420,西螺,2026-01-22,23.800407,120.467394,0.006213756
C0Z050,佳心,2026-01-22,23.34567,121.21316,0.00037974986
C0AD30,蘆洲,2026-01-22,25.086594,121.472331,0.005966801
C0V610,梓官,2026-01-22,22.760558,120.267211,0.0043412955
K2F750,種苗改良場,2026-01-22,24.225972,120.800917,0.0017210911
C0UA80,大溪漁港,2026-01-22,24.941801,121.902955,0.05591921
C1AI60,國一39K邊坡,2026-01-22,25.064361,121.383836,0.004833078
C0W150,金寧,2026-01-22,24.457703,118.328989,0.00084532436
C0R960,內埔,2026-01-22,22.608483,120.570714,0.005692148
V2C250,八德合作社,2026-01-22,24.93775,121.266389,0.004138511
C2H9S0,龍南,2026-01-22,23.953536,120.833183,0.0019483865
C0AH40,平等,2026-01-22,25.129142,121.577086,0.005212712
C0R540,佳冬,2026-01-22,22.419456,120.552375,0.004295112
466950,彭佳嶼,2026-01-22,25.627975,122.079744,0.004273965
C0A890,雙溪,2026-01-22,25.036003,121.864242,0.021642445
C0C480,桃園,2026-01-22,24.992425,121.323172,0.004954594
C0AH50,林口,2026-01-22,25.072181,121.38084,0.004290277
A2K360,水試臺西試驗場,2026-01-22,23.717231,120.190522,0.0011180951
C2M960,外寮,2026-01-22,23.562643,120.665688,0.0017749208
C0F9S0,烏日,2026-01-22,24.107058,120.624103,0.0020885714
C2N180,鹿陶洋,2026-01-22,23.14325,120.48352,0.01965482
C0C490,八德,2026-01-22,24.928708,121.283289,0.004095905
C0R190,赤山,2026-01-22,22.592333,120.614306,0.0053092
C0T820,天祥,2026-01-22,24.179597,121.495639,0.006163019
C1F9E1,龍安,2026-01-22,24.1605,120.831961,0.0014856268
C2SD50,順那,2026-01-22,23.04166,121.29332,0.0015534622
C0V820,小林,2026-01-22,23.148408,120.63325,0.0029502402
C2G870,芳苑,2026-01-22,23.922303,120.320025,0.0014536552
C0E850,大河,2026-01-22,24.618069,120.948578,0.0026738094
C1U670,寒溪,2026-01-22,24.634,121.71691,0.0055123027
C0N020,城西,2026-01-22,23.0568,120.0956,0.005269688
C1Z110,三棧,2026-01-22,24.11557,121.60501,0.0030947882
C0R280,檳榔,2026-01-22,22.076078,120.836777,0.0011705282
C2H9J0,中台,2026-01-22,23.9996,120.938739,0.004132318
C0F9L0,后里,2026-01-22,24.310436,120.729725,0.0037575054
467441,高雄,2026-01-22,22.730432,120.312516,0.0047711795
C0Z180,新城,2026-01-22,24.040486,121.604878,0.0014966064
C0D540,橫山,2026-01-22,24.71116,121.11693,0.001694517
C1D420,太閣南,2026-01-22,24.632808,121.160575,0.0007467037
C1E770,公館,2026-01-22,24.526914,120.830806,0.0018934762
CAN130,水試所海水繁養殖中心,2026-01-22,23.120802,120.07968,0.005244112
C1I430,翠華,2026-01-22,24.191961,121.224339,0.00057604926
C1M400,菜瓜坪,2026-01-22,23.251928,120.576103,0.0048631947
C0G730,二林,2026-01-22,23.903325,120.376081,0.002580288
72M360,南改義竹分場,2026-01-22,23.360694,120.279361,0.0050600227
V2K620,麥寮合作社,2026-01-22,23.753836,120.294783,0.0010764335
C0Z070,舞鶴,2026-01-22,23.46811,121.37407,0.00051060825
C0B040,大武崙,2026-01-22,25.166676,121.706993,0.023950513
C1Z030,紅葉,2026-01-22,23.493119,121.338806,0.00052273204
C1I050,丹大,2026-01-22,23.753747,121.141147,0.00040460745
C0I080,信義,2026-01-22,23.689694,120.851036,0.0028163642
C2TB80,庄子底,2026-01-22,23.71794,121.49438,0.00045641558
C0D750,樂山林道6k,2026-01-22,24.49999,121.08773,0.00048342865
C2M920,朴子農改,2026-01-22,23.469889,120.259383,0.0030582545
C2A880,福隆,2026-01-22,25.017842,121.942083,0.022413693
C0Z160,鳳林,2026-01-22,23.746114,121.453411,0.00044842032
C0UB80,翠峰林道6K,2026-01-22,24.49773,121.568625,0.0006510926
C0V210,復興,2026-01-22,23.222403,120.806089,0.002690679
C0H990,昆陽,2026-01-22,24.121322,121.273642,0.00038356302
C0R741,獅子,2026-01-22,22.202308,120.705236,0.0011685019
C0S710,鹿野,2026-01-22,22.917711,121.122994,0.00091642723
C0I530,小奇萊,2026-01-22,24.131764,121.295717,0.00043732754
C0FA70,大雪山埡口,2026-01-22,24.26867,121.03062,0.0005175383
C2K630,荷苞,2026-01-22,23.657717,120.595144,0.0028016316
C0Z080,富源,2026-01-22,23.587642,121.378225,0.00044063674
C2M9E0,旺來山,2026-01-22,23.555153,120.486463,0.007357874
C0SB10,美和,2026-01-22,22.682078,121.060236,0.002791816
C2K620,馬光農場,2026-01-22,23.721453,120.378864,0.006856371
C1I140,卡奈托灣,2026-01-22,23.754364,121.087872,0.0007232199
C0I520,玉山風口,2026-01-22,23.470489,120.955994,0.00043866655
C1G691,下水埔,2026-01-22,23.816114,120.5676,0.0051833973
C0X110,臺南市南區,2026-01-22,22.961189,120.188378,0.0060385005
C0V680,仁武,2026-01-22,22.701083,120.347722,0.0048060976
C2G840,北斗,2026-01-22,23.877586,120.514222,0.0024305878
C2TB90,長橋,2026-01-22,23.6874,121.46186,0.00044807658
C0R900,竹坑,2026-01-22,22.1385,120.7022,0.00054254266
C0G860,社頭,2026-01-22,23.897647,120.5862,0.002287465
C0X150,安定,2026-01-22,23.102614,120.227839,0.0070722313
C0R590,里港,2026-01-22,22.77919,120.49459,0.034463514
C0E610,馬都安,2026-01-22,24.451272,120.930192,0.0015091952
C0E550,明德,2026-01-22,24.583486,120.885411,0.0017295501
C0R150,三地門,2026-01-22,22.709889,120.639944,0.008418425
C0G910,花壇,2026-01-22,24.032076,120.549461,0.0021070654
C1D400,鳥嘴山,2026-01-22,24.71909,121.28387,0.0012830568
C0K500,元長,2026-01-22,23.64981,120.315024,0.0010571193
C0F0B0,石岡,2026-01-22,24.276061,120.777644,0.003286883
C2V250,甲仙,2026-01-22,23.080106,120.591758,0.006859996
C0SA20,金崙山,2026-01-22,22.567419,120.959667,0.0005773382
C0V350,溪埔,2026-01-22,22.738578,120.446797,0.018812913
C0M660,溪口,2026-01-22,23.604131,120.403569,0.013954975
C1S880,壽卡,2026-01-22,22.238911,120.858903,0.0029440192
72D680,桃改新埔分場,2026-01-22,24.834444,121.066111,0.0028661226
