站號,站名,日期,lat,lon,BLBTSLS
C0R700,枋山,2026-04-27,22.246844,120.661086,0.9891578
C2K300,鹿南,2026-04-27,23.63855,120.3636,0.00026249996
C1R110,口社,2026-04-27,22.770111,120.645222,0.99985135
467290,古坑,2026-04-27,23.380729,120.336861,0.0067658084
C0K500,元長,2026-04-27,23.64981,120.315024,0.00028632127
