站號,站名,日期,lat,lon,BLBTSLS
C1R120,上德文,2026-04-18,22.763272,120.704442,0.9998503
467290,古坑,2026-04-18,23.633639,120.551889,0.99914736
C0R700,枋山,2026-04-18,22.246844,120.661086,0.9817922
C2K300,鹿南,2026-04-18,23.63855,120.3636,7.355222e-08
C1R110,口社,2026-04-18,22.770111,120.645222,0.99990994
467290,古坑,2026-04-18,23.380729,120.336861,4.705216e-06
C0K500,元長,2026-04-18,23.64981,120.315024,3.9840972e-07
