站號,站名,日期,lat,lon,BLBTSLS
C0R710,龍磐,2026-06-26,21.931672,120.838942,2.3758241e-06
C1F9D1,白毛台,2026-06-26,24.158325,120.886933,6.037661e-09
C0G940,竹塘,2026-06-26,23.848253,120.386764,2.0241863e-07
467590,恆春,2026-06-26,22.003897,120.746339,8.318157e-05
C0U710,太平山,2026-06-26,24.505486,121.525656,1.3456306e-09
C0E820,獅潭,2026-06-26,24.539133,120.920042,0.8812488
C2SD70,二層坪,2026-06-26,22.94105,121.16838,0.0007260338
C0V880,興達,2026-06-26,22.8778,120.2127,0.10118154
C0SB30,新蘭,2026-06-26,22.869214,121.223228,0.0039662295
C2R970,屏科大,2026-06-26,22.648275,120.619247,0.9006859
C1Z130,銅門,2026-06-26,23.965694,121.492842,0.20296706
C0AD40,土城,2026-06-26,24.973208,121.445169,0.5105876
CAN140,六官養殖協會,2026-06-26,23.22881,120.29962,1.6016076e-05
C0X180,山上,2026-06-26,23.0757,120.363253,0.002078733
C0F9Z0,雪山東峰,2026-06-26,24.388792,121.268675,4.673595e-09
C1M480,獨立山,2026-06-26,23.537022,120.607797,1.3936252e-09
C0X220,學甲,2026-06-26,23.230367,120.182187,5.1898296e-05
467650,日月潭,2026-06-26,23.881325,120.90805,1.6246458e-09
A2K570,古坑(花卉中心),2026-06-26,23.633531,120.552392,2.3728434e-07
C0K600,箔子寮,2026-06-26,23.6197,120.14,0.00013971534
C0G830,埤頭,2026-06-26,23.866003,120.452806,4.4629555e-08
C0S950,七塊厝,2026-06-26,22.954453,121.229922,2.381259e-06
467110,金門,2026-06-26,24.407306,118.289281,4.6126866e-06
C0AH80,深坑,2026-06-26,25.002703,121.628328,0.32458735
C0A970,三貂角,2026-06-26,25.007606,122.002058,0.80753094
C2D730,寶山農場,2026-06-26,24.732444,120.976153,0.00072705833
C0K430,褒忠,2026-06-26,23.690938,120.303634,1.814263e-07
467480,嘉義,2026-06-26,23.495925,120.432906,2.2013464e-07
C0V400,阿公店,2026-06-26,22.804194,120.355528,6.063226e-05
C2S800,華源,2026-06-26,22.65783,121.0232,0.17492153
C2SA40,瑞和,2026-06-26,22.974361,121.156697,0.0007260338
C0E960,觀霧分站,2026-06-26,24.505781,121.113921,1.0598422e-09
467550,玉山,2026-06-26,23.48718,120.95943,9.379984e-09
C0R440,大漢山,2026-06-26,22.405264,120.753181,8.4622814e-10
C0SD30,東清國小,2026-06-26,22.057128,121.564922,0.99619347
C1F9B1,桐林,2026-06-26,24.066172,120.735194,6.6294257e-07
C2I210,蘆竹湳,2026-06-26,23.93398,120.81209,5.5001848e-09
C2H9U0,鳳鵬,2026-06-26,23.763919,120.788061,1.2344793e-08
C0K390,土庫,2026-06-26,23.679029,120.395574,5.4153077e-08
C1I450,望鄉山,2026-06-26,23.594153,120.944286,3.0575442e-09
C0E910,海埔,2026-06-26,24.648767,120.772435,0.9929694
B2E890,畜試北區分所,2026-06-26,24.527806,120.770972,1.1430104e-05
C0R750,四林格山,2026-06-26,22.076989,120.802439,4.731688e-10
C0F0C0,中坑,2026-06-26,24.248517,120.903319,2.1065703e-09
C1I121,大鞍,2026-06-26,23.678381,120.760017,1.0937647e-09
C2G9E0,移民庄,2026-06-26,23.9784,120.40283,4.3316183e-07
72U480,花改蘭陽分場,2026-06-26,24.686306,121.716583,0.027919313
C0A770,科教館,2026-06-26,25.096356,121.516507,0.97486216
C0AJ60,六塊厝,2026-06-26,25.24,121.4481,0.00043925236
C0R620,墾雷,2026-06-26,21.900836,120.855269,4.206591e-06
467290,古坑,2026-06-26,23.633536,120.551906,2.3728434e-07
467420,永康,2026-06-26,23.038386,120.2367,0.0023773785
C2M530,奮起湖,2026-06-26,23.493903,120.699253,1.318615e-09
C0I410,名間,2026-06-26,23.837053,120.701447,7.674261e-08
A2C560,農工中心,2026-06-26,24.985917,121.239833,3.914247e-07
C0V740,旗山,2026-06-26,22.888614,120.483597,6.6550315e-06
C0Z061,玉里,2026-06-26,23.3215,121.339656,0.0153939435
C0S840,南田,2026-06-26,22.279725,120.889208,0.0050780517
C1I470,杉林溪,2026-06-26,23.639517,120.786444,8.352645e-10
C1X040,東原,2026-06-26,23.291597,120.463822,6.609591e-07
C0R660,枋寮,2026-06-26,22.367722,120.590647,0.85902
C0K450,大埤,2026-06-26,23.646074,120.431537,3.6059356e-07
C0UA00,土場,2026-06-26,24.576533,121.495333,0.017798653
467080,宜蘭,2026-06-26,24.763975,121.756528,0.030340668
C0N030,四草,2026-06-26,23.0235,120.1116,0.045461774
467410,臺南,2026-06-26,22.99328,120.20492,0.00863906
C0V650,彌陀,2026-06-26,22.783806,120.246361,0.010236165
C0D660,新竹市東區,2026-06-26,24.798681,120.986942,2.881114e-07
82S580,茶改東部分場,2026-06-26,22.907694,121.130139,0.00012349793
C0SB40,興隆,2026-06-26,22.913661,121.257469,7.7862916e-07
467050,新屋,2026-06-26,25.006725,121.047492,1.0029502e-06
C0C710,大溪永福,2026-06-26,24.892936,121.324975,0.024395613
C0FA20,溫寮,2026-06-26,24.372177,120.583125,0.00014139153
C0V640,湖內,2026-06-26,22.887139,120.2445,0.10118154
C0R910,下寮,2026-06-26,22.3929,120.5548,0.8906906
C0Z020,明里,2026-06-26,23.208717,121.262342,0.02080202
C0M770,嘉義梅山,2026-06-26,23.585398,120.555587,3.12118e-07
C0C660,楊梅,2026-06-26,24.912375,121.143047,2.24578e-06
C0SD40,牛頭山,2026-06-26,22.676661,121.506944,0.0058184452
C1E511,新開,2026-06-26,24.347703,120.827019,3.906396e-06
G2F820,農試所(霧峰),2026-06-26,24.031261,120.688133,2.237987e-06
C2M990,大巃頂,2026-06-26,23.5547,120.61439,1.5437917e-09
C1I070,和社,2026-06-26,23.591131,120.888861,1.6345173e-09
C2E990,新坪頂,2026-06-26,24.30201,120.8574,3.5332275e-07
C0TA80,立霧山,2026-06-26,24.183258,121.641899,1.96583e-08
C2F000,大肚,2026-06-26,24.15295,120.572117,1.6310613e-08
C1S850,豐南,2026-06-26,23.122139,121.262389,8.859645e-06
C2M9B0,西興,2026-06-26,23.2428,120.57617,4.526135e-08
C2A920,富貴角,2026-06-26,25.263783,121.565258,1.5142506e-08
C0T960,光復,2026-06-26,23.660694,121.424964,0.18516815
C0F9M0,豐原,2026-06-26,24.254322,120.720692,1.5598324e-06
C0R720,旭海,2026-06-26,22.205403,120.887614,2.3546788e-07
C0V710,苓雅,2026-06-26,22.622742,120.330669,0.00051046297
C0C740,觀音工業區,2026-06-26,25.064764,121.114856,1.810891e-05
CAC040,拉拉山,2026-06-26,24.699317,121.427133,4.9623545e-09
C0V790,萬山,2026-06-26,22.905944,120.688056,1.744665e-05
U2HA30,臺大和社,2026-06-26,23.590856,120.888864,1.6345173e-09
C2H9K0,屯原,2026-06-26,24.067969,121.209389,1.724867e-09
C0AJ90,澳底,2026-06-26,25.0552,121.9253,0.9118017
C0Z100,東華,2026-06-26,23.89525,121.549833,0.030742077
C0G970,三豐,2026-06-26,23.882,120.2895,9.1684924e-05
C0V900,汕尾,2026-06-26,22.4782,120.4151,0.0013833356
C1R630,龍泉,2026-06-26,22.66701,120.59091,0.9006859
C1AC50,關渡,2026-06-26,25.133486,121.469331,0.00014085528
C0C800,四稜,2026-06-26,24.64733,121.4293,1.5024092e-08
C0F9I0,神岡,2026-06-26,24.272481,120.658314,1.1181334e-06
C0K460,斗南,2026-06-26,23.678734,120.478359,3.6059356e-07
C2O810,曾文,2026-06-26,23.219681,120.497328,6.546828e-06
467280,後龍,2026-06-26,24.648563,120.831834,0.99152255
C1F9J1,清水林,2026-06-26,24.071242,120.820419,4.7205484e-09
C2A650,火燒寮,2026-06-26,25.002719,121.742892,0.007394767
466930,竹子湖,2026-06-26,25.162078,121.544547,3.3973154e-06
C1I220,樟湖,2026-06-26,23.905333,120.846983,1.3537061e-09
C0I390,仁愛,2026-06-26,24.022122,121.132206,2.4784659e-09
C0Z300,東里,2026-06-26,23.26853,121.30547,0.012011572
C1V590,新發,2026-06-26,23.057019,120.646064,5.8679857e-09
C0K510,水林,2026-06-26,23.572924,120.24597,3.5714004e-07
72S590,東改賓朗果園,2026-06-26,22.813889,121.071278,0.00018057332
82A750,茶改北部分場,2026-06-26,24.955778,121.631222,1.3568848e-06
C1A750,石碇服務區,2026-06-26,25.00872,121.646242,0.08916616
C0X300,鹿寮,2026-06-26,23.386047,120.477331,8.671553e-07
C0K590,雲林東勢,2026-06-26,23.674192,120.255721,1.6253897e-07
C2K310,港尾布雞,2026-06-26,23.74834,120.38439,3.4232375e-08
C0A570,桶後,2026-06-26,24.848222,121.597992,0.05247647
C0G720,溪州,2026-06-26,23.851589,120.499093,4.4629555e-08
C1V160,達卡努瓦,2026-06-26,23.279811,120.705319,1.2343987e-09
C2M410,馬頭山,2026-06-26,23.324361,120.582017,1.63716e-07
C0V850,蚵仔寮,2026-06-26,22.7256,120.2527,0.010569586
C0S740,池上,2026-06-26,23.119628,121.209469,0.00066407287
C1V390,尖山,2026-06-26,22.813153,120.367789,6.063226e-05
C0AH70,松山,2026-06-26,25.04871,121.55042,0.97486216
C0N010,鯤鯓國小,2026-06-26,23.1879,120.0889,0.0028565517
C0SA60,知本（水試所）,2026-06-26,22.702394,121.082761,0.21043679
C0T9I0,豐濱,2026-06-26,23.583897,121.514806,0.042164315
C0UB00,淡江大學蘭陽校園,2026-06-26,24.823239,121.730383,6.636163e-05
C0W240,九宮,2026-06-26,24.423753,118.240186,2.3995694e-06
C0T9N0,富里,2026-06-26,23.171639,121.249378,0.0068663657
U2HA50,臺大竹山,2026-06-26,23.756972,120.681556,1.338704e-08
C0V840,鳳鼻頭,2026-06-26,22.5083,120.3591,0.0011900438
C0X140,西港,2026-06-26,23.125608,120.203108,0.00012529963
72D080,桃改五峰分場,2026-06-26,24.612194,121.157167,1.1178802e-09
C2H9P0,伊拿谷,2026-06-26,23.963211,121.088264,2.6343103e-09
C2K250,崙背,2026-06-26,23.75553,120.31893,1.814263e-07
C2H9F0,柑林,2026-06-26,24.018658,120.847072,7.191536e-07
C0TA20,加灣,2026-06-26,24.082025,121.608944,0.038979795
C0V530,阿蓮,2026-06-26,22.883208,120.327508,0.01202405
C0FB30,八仙山苗圃,2026-06-26,24.192719,121.001366,2.274433e-09
C0E791,卓蘭,2026-06-26,24.3126,120.8244,2.103014e-06
C2R260,春日,2026-06-26,22.370361,120.628306,0.8900029
C1I030,武界,2026-06-26,23.913225,121.052483,1.8659867e-09
C0R520,崁頂,2026-06-26,22.514781,120.506914,0.90298796
C0R341,牡丹,2026-06-26,22.130036,120.792639,1.2253211e-08
C0R930,萬丹,2026-06-26,22.5885,120.4851,0.0068071936
C0S760,紅石,2026-06-26,23.069131,121.126219,1.3491283e-09
C2C410,中央大學,2026-06-26,24.967652,121.185165,3.914247e-07
C1M610,石磐龍,2026-06-26,23.496606,120.663506,1.3882264e-09
C2C830,中德,2026-06-26,24.981862,121.291344,0.0004509881
C0C790,東眼山,2026-06-26,24.8284,121.40888,4.6469573e-08
C0UA10,鴛鴦湖,2026-06-26,24.590269,121.412228,4.1104067e-09
C0R800,丹路,2026-06-26,22.204481,120.750989,8.843073e-07
C2R240,萬巒,2026-06-26,22.527306,120.625111,0.6380589
C0G920,永靖,2026-06-26,23.924703,120.547533,5.8815694e-08
C2M950,太和,2026-06-26,23.538372,120.702961,1.3210393e-09
C1A630,下盆,2026-06-26,24.771003,121.538622,3.473862e-05
B2N890,畜產試驗所,2026-06-26,23.058972,120.336406,0.0006969523
C0UA30,白嶺,2026-06-26,24.527819,121.519031,2.3368543e-09
467571,新竹,2026-06-26,24.828575,121.01455,4.1175888e-08
C1V580,溪南(特生中心),2026-06-26,23.084972,120.788475,1.2753888e-09
C1T970,大農,2026-06-26,23.615233,121.413331,0.49883366
C0R650,竹田,2026-06-26,22.58486,120.54344,0.8083976
C1H900,清流,2026-06-26,24.080775,120.962997,1.6813279e-09
C1C510,水尾,2026-06-26,24.940081,121.087161,3.6195374e-08
C2N170,茅港尾,2026-06-26,23.2061,120.2624,1.6016076e-05
C0F9X0,大雅(中科園區),2026-06-26,24.21528,120.62445,9.976138e-07
C0SB60,白守蓮,2026-06-26,23.126769,121.401914,0.09234983
C0O970,虎頭埤,2026-06-26,23.021375,120.347878,0.0005247131
C0C730,中大臨海站,2026-06-26,24.966126,121.008581,1.0739245e-07
C0X250,新營,2026-06-26,23.310689,120.316681,4.4221283e-06
C0V700,三民,2026-06-26,22.645017,120.311233,0.005290944
C0U870,大礁溪,2026-06-26,24.791042,121.675047,5.5382213e-07
C0E870,高鐵苗栗,2026-06-26,24.60725,120.826094,0.99152255
C2S890,關山,2026-06-26,23.0395,121.175017,0.02020402
C0TA30,鹽寮,2026-06-26,23.845606,121.592664,0.02814424
C0M860,新美,2026-06-26,23.338017,120.683169,1.1262573e-08
C1E701,八卦,2026-06-26,24.491756,120.927619,1.976681e-08
C2TA90,加納納,2026-06-26,23.466421,121.359867,0.00027286442
C0I420,國姓,2026-06-26,24.037803,120.855072,3.3994598e-07
C2D720,關西工作站,2026-06-26,24.757275,121.184792,0.030277545
C2AK30,信賢,2026-06-26,24.84108,121.53492,0.0052438187
C0S960,香蘭,2026-06-26,22.587569,120.993375,0.00037886036
467620,蘭嶼,2026-06-26,22.0369,121.55843,0.00419989
C2UC40,中城,2026-06-26,24.62865,121.74745,0.06219004
72G600,臺中農改場,2026-06-26,24.003028,120.534389,1.968288e-07
C0Z210,瑞穗,2026-06-26,23.5239,121.39021,0.0077487472
C0M820,達邦,2026-06-26,23.453994,120.749517,1.6132329e-09
C0V860,南寮,2026-06-26,22.7616,120.2339,0.010608964
C0G740,大城,2026-06-26,23.852487,120.320935,9.1684924e-05
C0R920,塭仔,2026-06-26,22.4169,120.5197,0.8899418
C0R470,高樹,2026-06-26,22.826389,120.600806,0.010856419
C0R680,佳樂水,2026-06-26,21.993578,120.861633,2.3758241e-06
C1O870,大棟山,2026-06-26,23.31157,120.52226,1.6950836e-09
C0D360,梅花,2026-06-26,24.678347,121.208558,1.7448e-07
C0Z190,富世,2026-06-26,24.14743,121.6297,0.5704364
C0AI10,屈尺,2026-06-26,24.92184,121.54475,0.45411304
B2U990,畜試東區分所,2026-06-26,24.669039,121.832561,0.04629869
C0SB80,長濱漁港,2026-06-26,23.313644,121.459994,0.04948697
C0TA50,和仁,2026-06-26,24.241394,121.712472,0.10760907
C2AK40,漁光,2026-06-26,24.96875,121.72132,7.0120434e-09
C0V910,大樹,2026-06-26,22.684645,120.432803,4.1608248e-05
C1R610,西大武山,2026-06-26,22.617719,120.7322,9.1878927e-10
C0K500,元長,2026-06-26,23.642858,120.31966,1.6253897e-07
C0G900,線西,2026-06-26,24.143358,120.443536,2.9422583e-05
C0M700,竹崎,2026-06-26,23.526178,120.555508,4.2854057e-07
C2E880,三義,2026-06-26,24.405478,120.749819,5.193782e-09
C0C720,竹圍,2026-06-26,25.112692,121.239824,1.6259165e-06
C0F9P0,清水,2026-06-26,24.312297,120.562242,7.519556e-05
C0Z150,吉安光華,2026-06-26,23.930925,121.595153,0.027371656
C0FA80,小雪山天池,2026-06-26,24.28025,121.02627,3.569576e-09
467300,東吉島,2026-06-26,23.25727,119.66762,0.00013125902
C1D640,外坪(五指山),2026-06-26,24.644447,121.090961,5.0586767e-08
C2R9A0,高士國小,2026-06-26,22.12553,120.84653,1.2253211e-08
C0F9O0,潭子,2026-06-26,24.213106,120.703933,1.5598324e-06
C2H9R0,卓社,2026-06-26,23.887894,121.000086,1.0545189e-09
72T250,花蓮農改場,2026-06-26,23.975222,121.563889,0.028887855
C0E780,銅鑼,2026-06-26,24.489681,120.790853,1.1430104e-05
C1T950,太安,2026-06-26,23.666719,121.370128,3.6940463e-08
C0E830,苑裡,2026-06-26,24.439714,120.653053,0.0032388514
467270,田中,2026-06-26,23.873803,120.581286,2.678528e-08
C0SA10,檳榔四格山,2026-06-26,22.810031,121.109308,1.095353e-05
C1T830,布洛灣,2026-06-26,24.17184,121.57127,0.9952178
C0F970,大坑,2026-06-26,24.173142,120.722289,7.2093603e-06
C1U920,思源,2026-06-26,24.393125,121.347214,9.464679e-10
C2H9Y0,松茗,2026-06-26,23.8167,120.650765,6.2922725e-09
C0A931,三和,2026-06-26,25.233153,121.595236,0.062231954
C0I010,廬山,2026-06-26,24.033311,121.181808,1.6426839e-09
C2M940,日野賀,2026-06-26,23.434056,120.727169,1.3236421e-09
C0R860,鼻頭,2026-06-26,22.1043,120.8979,1.8648866e-06
C2I260,北坑,2026-06-26,23.92463,121.00683,2.5314753e-08
C0UB20,壯圍,2026-06-26,24.7359,121.8163,0.02526619
C0R790,九棚,2026-06-26,22.14195,120.889281,3.374623e-08
C0W110,東莒,2026-06-26,25.9652,119.98069,8.78504e-07
C1U930,粉鳥林,2026-06-26,24.497088,121.842479,0.13111968
C0S830,長濱,2026-06-26,23.286817,121.411975,0.0015291332
C1F9F1,伯公龍,2026-06-26,24.272392,120.849047,4.656509e-06
C0UB90,太平山莊,2026-06-26,24.494171,121.536209,1.3670585e-09
C0E810,西湖,2026-06-26,24.562947,120.7485,0.9865567
C1I440,新高口,2026-06-26,23.478744,120.878939,1.96421e-09
C0O840,王爺宮,2026-06-26,23.222064,120.40085,6.744004e-05
C0T9G0,鳳林山,2026-06-26,23.735269,121.420131,0.98597777
C0X080,佳里,2026-06-26,23.173039,120.145086,0.0021876905
C0FB70,大甲溪埔,2026-06-26,24.370625,120.620067,0.00014139153
C0Z310,清水斷崖,2026-06-26,24.218294,121.689142,0.08380704
C0M680,太保,2026-06-26,23.455062,120.331455,2.6864927e-07
C1S820,金峰,2026-06-26,22.590969,120.933236,4.96915e-05
C0AD10,八里,2026-06-26,25.150211,121.403947,2.2340579e-07
C2K240,草嶺,2026-06-26,23.59555,120.693461,9.657725e-10
C1SA70,都蘭,2026-06-26,22.87794,121.226881,0.002714912
C0K440,二崙,2026-06-26,23.772797,120.408944,2.291193e-08
C1A760,坪林交控,2026-06-26,24.94284,121.713442,0.0023594764
C0F9N0,大里,2026-06-26,24.092464,120.701378,6.419752e-07
C0SA90,達仁林場,2026-06-26,22.264347,120.823972,2.1182345e-09
C1R290,石門山,2026-06-26,22.112611,120.756597,2.9857765e-09
42HA10,萬大發電廠,2026-06-26,23.978875,121.139639,3.6026195e-09
C0R890,山海,2026-06-26,21.9878,120.7091,8.318157e-05
C0T9A0,月眉山,2026-06-26,23.809928,121.539828,1.24414555e-05
C0AC70,信義,2026-06-26,25.037822,121.564597,0.9816344
C0K560,棋山,2026-06-26,23.68645,120.603417,1.8698533e-08
C2FB50,出雲,2026-06-26,24.206469,120.902794,1.6634459e-09
C1Z240,中平林道,2026-06-26,23.42115,121.26763,6.062529e-09
U2H480,溪頭,2026-06-26,23.670306,120.798194,1.0295842e-09
C0M880,好美里,2026-06-26,23.3364,120.138,8.654668e-06
C0T9E0,大坑,2026-06-26,23.880628,121.581981,0.18804172
C0K530,臺西,2026-06-26,23.701547,120.197559,8.2648165e-07
C1E900,國一N128K,2026-06-26,24.560997,120.844186,0.9864585
C0AJ50,水湳洞,2026-06-26,25.123695,121.862238,0.91519403
C0AI20,白沙灣,2026-06-26,25.283128,121.519058,1.660908e-07
C2V310,美濃,2026-06-26,22.898792,120.51907,6.6550315e-06
C0A860,大坪,2026-06-26,25.165914,121.632969,0.015337987
C1U850,觀音海岸,2026-06-26,24.38319,121.77856,1.7330036e-06
C2K610,草嶺石壁,2026-06-26,23.602469,120.707731,9.580758e-10
C0U950,鶯子嶺,2026-06-26,24.89754,121.79244,2.3543156e-09
C0O900,善化,2026-06-26,23.112883,120.297219,0.0006969523
C0K550,蔦松,2026-06-26,23.514319,120.229736,1.274386e-06
E2P980,林試六龜中心,2026-06-26,22.991703,120.645722,0.0003101977
C0E590,通霄,2026-06-26,24.471892,120.704622,0.5063584
C1I310,西巒,2026-06-26,23.754486,120.883956,1.9227462e-09
C0A550,泰平,2026-06-26,24.971197,121.823711,3.2268897e-05
C2UC30,金洋,2026-06-26,24.42465,121.74573,0.074673586
C0I360,水里,2026-06-26,23.812553,120.849792,3.8897273e-08
C0R830,高士,2026-06-26,22.121825,120.836781,1.4319356e-09
C1I101,溪頭,2026-06-26,23.661789,120.807647,9.2918534e-10
C0AJ20,野柳,2026-06-26,25.20703,121.690021,0.040018436
C0B060,暖暖,2026-06-26,25.0957,121.7403,0.19116591
C1H920,長豐,2026-06-26,24.102039,120.879897,3.9432555e-09
C2S9B0,利吉,2026-06-26,22.86246,121.15486,0.00012349781
C0V360,內門,2026-06-26,22.975481,120.466769,1.1313824e-05
C0R850,林邊,2026-06-26,22.4634,120.5339,0.8737889
C0E930,龍鳳,2026-06-26,24.700034,120.859125,0.96158516
C0U910,冬山,2026-06-26,24.63373,121.7937,0.04629869
C1E721,泰安,2026-06-26,24.489017,120.968036,6.878894e-10
82H320,茶改中部分場,2026-06-26,23.875611,120.913583,2.5179714e-09
C0M750,布袋,2026-06-26,23.380878,120.167789,1.7364251e-05
C1S860,利嘉,2026-06-26,22.809417,121.050528,4.4795697e-06
E2S980,林試太麻里1,2026-06-26,22.598922,120.980044,0.00022148967
C0X170,關廟,2026-06-26,22.963017,120.327797,0.002196696
C0V720,林園,2026-06-26,22.507747,120.394511,0.0024060418
C2M9G0,沄水,2026-06-26,23.38293,120.52666,9.022398e-07
C1I510,線浸林道,2026-06-26,23.761508,120.832956,1.5433324e-09
C0D690,外湖,2026-06-26,24.917735,120.968711,2.6482716e-08
C0C750,新興坑尾,2026-06-26,25.0061,121.0971,2.962891e-07
B2Q810,畜試南區分所,2026-06-26,21.945583,120.802167,2.3758241e-06
C0S790,金崙,2026-06-26,22.538122,120.966875,9.269253e-05
C0AH90,福山植物園,2026-06-26,24.760717,121.58135,4.3226552e-07
C0I540,奇萊稜線,2026-06-26,24.109231,121.326456,6.471525e-09
C0M850,表湖,2026-06-26,23.24186,120.64166,2.2748323e-09
C0S770,大溪山,2026-06-26,22.478475,120.943325,9.2837274e-07
C0AG80,中和,2026-06-26,24.991622,121.491792,0.5105876
C0T790,大禹嶺,2026-06-26,24.186117,121.316086,3.1714935e-09
C0T9B0,水源,2026-06-26,23.991861,121.537169,0.0009872924
C0R840,牡丹池山,2026-06-26,22.168389,120.841225,4.1761455e-10
C1I131,桶頭,2026-06-26,23.641944,120.654117,1.1757598e-08
CAL110,布袋國中,2026-06-26,23.35893,120.18026,8.695306e-06
C2M9D0,何竹子腳,2026-06-26,23.53641,120.38203,2.2013464e-07
C0Z290,赤柯山,2026-06-26,23.36893,121.38293,1.2965764e-08
C0X280,將軍,2026-06-26,23.214999,120.13577,5.4967848e-05
C0S690,太麻里,2026-06-26,22.60902,120.98533,4.598253e-08
C0U880,北關,2026-06-26,24.9072,121.8734,0.33808723
CAW010,東引,2026-06-26,26.3588,120.4836,9.218515e-08
C0G810,埔心,2026-06-26,23.947633,120.525456,5.8815694e-08
C0U970,大福,2026-06-26,24.80064,121.81389,0.030340668
C2H9N0,仁愛東眼,2026-06-26,24.026875,121.1205,1.8610568e-09
C1E670,南礦,2026-06-26,24.538278,121.002836,6.6693007e-10
C0M520,東後寮,2026-06-26,23.369908,120.248065,1.5236103e-06
C1E461,松安,2026-06-26,24.397972,120.986022,1.0132818e-09
C2N160,西拉雅風管處,2026-06-26,23.189481,120.335297,0.00030808567
C2O850,環湖,2026-06-26,23.148665,120.4186,5.509784e-05
C2M970,碧湖,2026-06-26,23.568632,120.624165,1.5550038e-09
C0A640,石碇,2026-06-26,24.993969,121.662917,0.0023594764
E2S960,林試太麻里2,2026-06-26,22.598,120.99775,0.0003867906
C0F9Y0,桃山,2026-06-26,24.432739,121.303808,4.2189647e-09
C1I020,萬大,2026-06-26,23.979817,121.132261,2.447083e-09
C2UC20,長嶺,2026-06-26,24.70894,121.61162,0.00020578438
C0U940,羅東,2026-06-26,24.68184,121.74934,0.027919313
C0M650,朴子,2026-06-26,23.43463,120.23902,4.6061578e-07
C1I500,大尖山,2026-06-26,23.858572,120.994889,1.2411058e-09
C0FB40,中橫21.6k,2026-06-26,24.2499,121.1455,1.2653478e-09
C0G820,田尾,2026-06-26,23.901669,120.509389,5.8815694e-08
E2K600,四湖植物園,2026-06-26,23.676986,120.163433,2.2966747e-06
C0S730,綠島,2026-06-26,22.6672,121.47533,0.0001780233
12Q970,東港工作站,2026-06-26,22.479997,120.466058,0.8737889
C1TA00,太魯閣,2026-06-26,24.15773,121.6236,0.7100904
466920,臺北,2026-06-26,25.037658,121.514853,0.97486216
C0R600,舊泰武,2026-06-26,22.588194,120.664944,2.3930754e-08
466910,鞍部,2026-06-26,25.182586,121.529731,7.294414e-10
C1I230,九份二山,2026-06-26,23.961944,120.845,1.9485638e-09
C2M810,里佳,2026-06-26,23.389125,120.716647,1.137216e-09
C2A660,瑞芳,2026-06-26,25.113169,121.801147,0.13469686
C0R270,琉球嶼,2026-06-26,22.332244,120.362236,0.011071183
C2V580,瑞山,2026-06-26,22.90304,120.43424,9.107221e-06
C1T990,高寮,2026-06-26,23.394239,121.356808,0.028418235
C0G620,芬園,2026-06-26,24.015678,120.6213,2.0909857e-07
C1Z140,荖溪,2026-06-26,23.890575,121.45964,2.2166152e-07
C1I201,中心崙,2026-06-26,23.728722,120.712097,1.2212816e-09
C1I400,凌霄,2026-06-26,24.018778,121.004456,1.8442051e-09
C1M640,十字,2026-06-26,23.492153,120.753683,1.2514197e-09
G2P820,農試鳳山分所,2026-06-26,22.646611,120.356083,0.00051046297
C0Z270,蕃薯寮,2026-06-26,23.73835,121.540108,0.30389214
C2E420,竹南,2026-06-26,24.70898,120.88897,0.96158516
C2D480,打鐵坑,2026-06-26,24.849664,121.150789,1.0330615e-06
C0FB10,出雲山苗圃,2026-06-26,24.23105,120.90475,2.1065703e-09
C0F9Q0,外埔,2026-06-26,24.347817,120.705686,1.7364138e-07
C0K580,高鐵雲林,2026-06-26,23.737456,120.417944,3.4232375e-08
C2I090,鳳凰,2026-06-26,23.728081,120.787347,6.0259837e-09
C0U990,員山,2026-06-26,24.74435,121.72247,0.027919313
C0V770,大社,2026-06-26,22.730306,120.346639,0.0010236226
C0X120,麻豆,2026-06-26,23.183289,120.248611,1.7998378e-05
C0C670,龍潭,2026-06-26,24.870056,121.221389,0.00032844083
C0D680,香山濕地,2026-06-26,24.783581,120.914988,2.6482716e-08
C0S980,勝林山,2026-06-26,22.430439,120.8938,1.0825075e-09
C0V730,大寮,2026-06-26,22.605614,120.395717,0.00051046297
C0R570,麟洛,2026-06-26,22.65078,120.52719,0.0031009999
C2M930,石卓,2026-06-26,23.478744,120.702264,1.2449703e-09
C0G9B0,和美,2026-06-26,24.105169,120.492131,2.1853708e-05
C2I240,外大坪,2026-06-26,23.9587,120.91788,2.675014e-09
CAG100,王功漁港,2026-06-26,23.96824,120.32586,9.12048e-05
C0X290,北門,2026-06-26,23.267772,120.125481,5.4967848e-05
C2F930,大甲,2026-06-26,24.347667,120.640403,0.00014139153
C0D650,湖口,2026-06-26,24.904794,121.043628,3.6195374e-08
C0U780,五結,2026-06-26,24.68637,121.79794,0.04629869
C1I250,鯉潭,2026-06-26,23.961922,120.991131,5.6472134e-09
C0R130,阿禮,2026-06-26,22.742908,120.743678,7.8041207e-10
C0X100,臺南市北區,2026-06-26,23.010394,120.194228,0.00863906
C0S920,金峰嘉蘭,2026-06-26,22.594789,120.960825,0.00020943652
C0V490,新興,2026-06-26,22.627422,120.298803,0.007762185
C0F9K0,大安,2026-06-26,24.345061,120.588025,0.00014139153
C2E970,八甲,2026-06-26,24.535811,120.795983,0.9864585
C0V440,鳳山,2026-06-26,22.646653,120.356122,0.00051046297
C1T940,大觀,2026-06-26,23.714206,121.373133,0.0010999464
C0E740,造橋,2026-06-26,24.637056,120.864778,0.99152255
C0R100,尾寮山,2026-06-26,22.833111,120.683889,7.1315304e-10
A2K630,臺大雲林校區,2026-06-26,23.730628,120.423903,3.4232375e-08
467990,馬祖,2026-06-26,26.169467,119.923158,4.110136e-05
C0D580,寶山,2026-06-26,24.735006,121.025192,0.0028368605
E2P990,林試扇平站,2026-06-26,22.9677,120.6857,5.157452e-07
C0AI30,三重,2026-06-26,25.057328,121.500629,0.97486216
C0AH00,汐止,2026-06-26,25.066881,121.658778,0.102866724
C1Z040,立山,2026-06-26,23.443356,121.327375,0.9268824
466881,新北,2026-06-26,24.959207,121.525196,0.55263287
C0W130,花嶼,2026-06-26,23.40007,119.32276,0.02950834
C0A950,鼻頭角,2026-06-26,25.129036,121.923372,0.9118017
C0K470,林內,2026-06-26,23.748675,120.609642,1.8698533e-08
C2F990,摩天嶺,2026-06-26,24.322458,120.936819,1.9702509e-09
C2E430,南庄,2026-06-26,24.601775,121.000214,0.64733243
82C160,茶改場,2026-06-26,24.908472,121.185333,2.24578e-06
C2TB60,南安,2026-06-26,23.29818,121.26157,0.0058204313
C0Z320,清水林道,2026-06-26,23.27125,121.188272,3.0595307e-05
C0R760,南仁湖,2026-06-26,22.084681,120.863353,2.9857765e-09
C0M670,大林,2026-06-26,23.600616,120.45841,2.2616581e-07
C0M800,茶山,2026-06-26,23.299075,120.664767,4.1640284e-08
C0A9C0,天母,2026-06-26,25.117494,121.537169,0.9799182
72K220,南改斗南分場,2026-06-26,23.634556,120.477333,3.6059356e-07
72AI40,桃改樹林分場,2026-06-26,24.944503,121.386972,0.19457516
C0S910,蘭嶼燈塔,2026-06-26,22.081197,121.503117,0.52047926
C0B050,八斗子,2026-06-26,25.144754,121.79167,0.035169467
C0U900,內城,2026-06-26,24.71813,121.68766,0.024374753
C0X320,柳營,2026-06-26,23.253328,120.375253,6.744004e-05
C0M790,新港,2026-06-26,23.553269,120.345728,6.3864775e-08
C0F9T0,西屯,2026-06-26,24.179494,120.641275,9.976138e-07
C0E950,松安,2026-06-26,24.39792,120.98599,1.0132818e-09
C0SA30,都歷,2026-06-26,23.020333,121.323642,5.73717e-07
C0C620,蘆竹,2026-06-26,25.084275,121.265767,2.9290763e-07
C0R730,大坪頂,2026-06-26,22.024633,120.69355,2.0223204e-07
C0AJ40,石門,2026-06-26,25.273672,121.601198,2.2021123e-08
C0E750,苗栗,2026-06-26,24.564569,120.824575,0.9864585
C0T870,鯉魚潭,2026-06-26,23.935639,121.508944,0.0959915
C1V170,排雲,2026-06-26,23.463619,120.954147,7.281018e-09
C2H950,中寮,2026-06-26,23.884447,120.766406,1.9468804e-07
C0R350,貓鼻頭,2026-06-26,21.921774,120.7358,0.00014228266
C0V660,岡山,2026-06-26,22.797078,120.294958,0.010408113
C1H941,雙冬,2026-06-26,23.967378,120.802189,4.984381e-09
C0AJ70,田寮,2026-06-26,25.2698,121.4886,2.1077875e-07
C0AI00,五股,2026-06-26,25.07445,121.42728,0.022897797
C0Z280,德武,2026-06-26,23.47426,121.41071,0.001138505
C2RA10,大新,2026-06-26,22.67558,120.57788,0.9006859
C0C460,復興,2026-06-26,24.820208,121.352281,2.7618717e-05
C2AA10,中八仙,2026-06-26,25.11576,121.49199,0.98146456
C2K300,鹿南,2026-06-26,23.63855,120.3636,5.4153077e-08
E2H360,蓮華池,2026-06-26,23.918333,120.885278,5.6468474e-09
C0M640,中埔,2026-06-26,23.42538,120.5229,2.818144e-07
C2C810,八德蔬果,2026-06-26,24.97858,121.28187,0.0004509881
C2M9F0,安溪寮,2026-06-26,23.350334,120.208039,8.1054e-06
C0W140,金沙,2026-06-26,24.488292,118.408778,3.856529e-06
C2A540,四堵,2026-06-26,24.8926,121.745736,0.0008371637
C0ACA0,新莊,2026-06-26,25.051478,121.446756,0.34069845
C0R220,潮州,2026-06-26,22.534361,120.54,0.90298796
U2HA40,臺大內茅埔,2026-06-26,23.689722,120.851117,3.1016435e-07
467490,臺中,2026-06-26,24.145736,120.684075,7.2093603e-06
C0UB60,明池,2026-06-26,24.650688,121.475277,1.4545527e-08
C0U960,翠峰湖,2026-06-26,24.510856,121.608044,1.3028476e-09
E2HA20,林試畢祿溪站,2026-06-26,24.226944,121.308522,1.6038569e-09
C2M9A0,大華,2026-06-26,23.4824,120.67491,1.4676611e-09
C0V890,前鎮,2026-06-26,22.5718,120.3117,0.0028799498
C1F941,雪嶺,2026-06-26,24.280586,121.026642,3.569576e-09
C2H9E0,國姓南港,2026-06-26,23.911108,120.846556,1.3191432e-09
C0AC80,文山,2026-06-26,25.00235,121.575728,0.32545957
C0F9R0,龍井,2026-06-26,24.184536,120.528972,6.723129e-05
C0M760,民雄,2026-06-26,23.551754,120.428457,2.2616581e-07
C0UA40,西德山,2026-06-26,24.560647,121.752608,1.5951844e-08
C2TA70,赤科坪,2026-06-26,23.39885,121.39168,2.8916642e-08
C1T920,中興,2026-06-26,23.769503,121.498653,0.13942617
C0D550,雪霸,2026-06-26,24.526972,121.11605,7.987316e-10
C2F860,梨山,2026-06-26,24.247522,121.243669,2.1612945e-09
C0R320,車城,2026-06-26,22.0744,120.716247,0.00084047846
C1S870,南美山,2026-06-26,23.15025,121.382333,0.041847937
C0B020,基隆嶼,2026-06-26,25.19141,121.78391,0.043478403
C1U501,牛鬥,2026-06-26,24.637836,121.573656,0.08181782
C0M730,嘉義市東區,2026-06-26,23.457673,120.460531,6.477252e-07
C2R990,泰武,2026-06-26,22.60686,120.69765,8.899064e-10
C0S700,知本,2026-06-26,22.684866,121.005642,6.930063e-08
C1N001,沙崙,2026-06-26,22.935472,120.309406,0.002196696
C0V760,橋頭,2026-06-26,22.757806,120.30575,0.0010236226
C2V570,吉東,2026-06-26,22.85418,120.54539,0.010856419
C0G960,福寶,2026-06-26,24.0443,120.3814,3.1274928e-06
C0X210,白河,2026-06-26,23.347466,120.414427,8.671553e-07
C0S810,東河,2026-06-26,22.972672,121.303986,2.417863e-07
C2R170,屏東,2026-06-26,22.66027,120.49403,0.0031009999
C0R670,楓港,2026-06-26,22.190131,120.692156,0.0007925501
C0FA50,霧峰,2026-06-26,24.0419,120.6995,6.419752e-07
C0UB10,蘇澳,2026-06-26,24.5969,121.8571,0.04066498
C0G950,防潮門,2026-06-26,24.1835,120.4871,2.7452288e-05
C0M740,六腳,2026-06-26,23.492871,120.290625,1.0711403e-07
C1R250,力里,2026-06-26,22.428117,120.629228,0.8883448
C0K330,虎尾,2026-06-26,23.719183,120.442036,3.4232375e-08
C2FA00,烏石坑,2026-06-26,24.273503,120.947617,1.9830013e-09
C0V620,永安,2026-06-26,22.82315,120.236856,0.010408113
C1I330,楓樹林,2026-06-26,23.986803,121.076117,1.6322896e-09
C0W200,湖西,2026-06-26,23.596314,119.67275,0.00064833125
72Q010,高雄農改場,2026-06-26,22.709333,120.525889,0.026871296
C2K301,鹿南,2026-06-26,23.643341,120.3683,5.4153077e-08
C0C680,龜山,2026-06-26,25.02846,121.38656,0.0002530051
C2V260,月眉,2026-06-26,22.971003,120.539853,2.8335853e-06
C0V450,鳳森,2026-06-26,22.545064,120.392592,0.0024060418
C0FA90,小雪山林道,2026-06-26,24.29515,121.03651,5.3866973e-09
C0U720,南山,2026-06-26,24.43742,121.38167,1.0984441e-08
A2N290,臺南蘭花園區,2026-06-26,23.340258,120.379661,4.227875e-06
C0R560,新園,2026-06-26,22.5434,120.461558,0.0024060418
C0U890,三星,2026-06-26,24.66812,121.65302,0.03144211
C1V300,御油山,2026-06-26,23.001983,120.715364,1.2571661e-09
C0U600,礁溪,2026-06-26,24.817539,121.765608,0.030340668
C1T980,龍澗,2026-06-26,24.023289,121.411328,1.887907e-09
C0R700,枋山,2026-06-26,22.247814,120.660794,0.0022986676
C0D670,海天一線,2026-06-26,24.831986,120.914438,2.0369395e-08
C0SA00,歷坵,2026-06-26,22.520969,120.89185,2.2161059e-07
C0M710,東石,2026-06-26,23.458927,120.15385,1.5015753e-05
C0M780,鹿草,2026-06-26,23.41134,120.30835,4.6061578e-07
C0U520,雙連埤,2026-06-26,24.753033,121.641303,2.349937e-06
C0B010,七堵,2026-06-26,25.094819,121.71713,0.047666114
C0R480,長治,2026-06-26,22.693128,120.542622,0.81371087
C1V830,國三S383K,2026-06-26,22.781967,120.426475,1.0516457e-05
12Q980,恆春工作站,2026-06-26,22.079678,120.714425,0.00084047846
C1O940,東山服務區,2026-06-26,23.286016,120.398472,4.227875e-06
C1U840,東澳嶺,2026-06-26,24.5378,121.8485,4.6305945e-06
C1D630,飛鳳山,2026-06-26,24.766464,121.119178,3.4433033e-06
C0S940,石寧山,2026-06-26,23.223772,121.406639,0.3607192
C0K410,北港,2026-06-26,23.573957,120.292802,3.5714004e-07
C2M620,瑞里,2026-06-26,23.545133,120.675197,1.3882264e-09
C0SB70,小港漁港,2026-06-26,23.158558,121.400431,0.100889936
C2O950,安南,2026-06-26,23.076694,120.144861,0.020251516
C0F0E0,南湖圈谷,2026-06-26,24.363714,121.444667,5.1899893e-09
467610,成功,2026-06-26,23.097486,121.373428,0.2529403
C0G890,伸港,2026-06-26,24.148933,120.484403,2.7452288e-05
C2E540,龍溪,2026-06-26,24.606489,120.783933,0.9864585
C1V200,梅山,2026-06-26,23.268447,120.823556,2.1922084e-09
C0T9H0,加路蘭山,2026-06-26,23.682947,121.5274,7.7512574e-08
C2O930,玉井,2026-06-26,23.126042,120.46055,5.509784e-05
C1F911,新伯公,2026-06-26,24.221361,120.841069,7.1305353e-06
C0X200,左鎮,2026-06-26,23.056758,120.408522,0.0020787339
C2TB50,麻汝,2026-06-26,23.42554,121.39358,0.001138505
C0FA60,鞍馬山工作站,2026-06-26,24.267064,121.000793,2.3337408e-09
C0SB50,叭嗡嗡,2026-06-26,23.047062,121.343223,0.23128149
C2R550,新埤,2026-06-26,22.467947,120.582894,0.8775592
C1F891,稍來,2026-06-26,24.265689,121.001142,2.2149929e-09
C2M9C0,紫雲,2026-06-26,23.494914,120.540253,7.9868033e-07
72N240,七股研究中心,2026-06-26,23.081672,120.062894,0.045461774
C0C700,中壢,2026-06-26,24.977661,121.256375,0.0004509881
C0M690,水上,2026-06-26,23.419734,120.388909,2.6864927e-07
C0V690,鼓山,2026-06-26,22.623325,120.275575,0.007762185
C0O860,大內,2026-06-26,23.11885,120.36083,0.00030808567
C0Z200,萬榮,2026-06-26,23.709219,121.420106,0.76775414
C0T9D0,和中,2026-06-26,24.26676,121.74103,0.10702829
C2S9A0,北份子寮,2026-06-26,22.78561,121.07813,0.17806715
C1O921,楠西,2026-06-26,23.183511,120.484083,5.509784e-05
C0AJ30,淡水觀海,2026-06-26,25.184591,121.408616,2.2411683e-07
C0V810,左營,2026-06-26,22.67491,120.28491,0.005290944
C0UA70,桃源谷,2026-06-26,24.962606,121.888875,6.846386e-08
C0X130,官田,2026-06-26,23.193217,120.315422,0.00030808567
C1H000,翠峰,2026-06-26,24.109397,121.205211,2.3753526e-09
C0UA90,石城,2026-06-26,24.980444,121.951214,0.9119293
C1E681,南勢山,2026-06-26,24.421669,120.923831,5.955745e-09
C0A9F0,內湖,2026-06-26,25.079422,121.57545,0.9816344
C0K291,宜梧,2026-06-26,23.536281,120.169329,0.00012842291
C1K540,口湖,2026-06-26,23.585344,120.180517,0.00013971534
C0R780,滿州,2026-06-26,22.024403,120.839892,8.508156e-08
C0V870,文安,2026-06-26,22.8025,120.2164,0.010569586
C0U650,玉蘭,2026-06-26,24.675286,121.587061,0.00016886549
C0R640,東港,2026-06-26,22.46247,120.44074,0.0011900438
C0AJ80,板橋,2026-06-26,25.0107,121.4489,0.5105876
C0S660,下馬,2026-06-26,23.150427,121.070312,9.9507794e-08
C2N190,烏樹,2026-06-26,23.32393,120.36989,4.227875e-06
C1H9B1,阿眉,2026-06-26,24.1263,120.994672,1.1849153e-09
C0UA20,多加屯,2026-06-26,24.368614,121.373189,1.6682055e-09
C0E730,頭份,2026-06-26,24.688247,120.912206,0.96158516
72V140,高改旗南分場,2026-06-26,22.857861,120.516667,6.6550315e-06
C2R490,九如,2026-06-26,22.74049,120.490555,0.026871296
C0K480,莿桐,2026-06-26,23.761192,120.502372,7.96256e-08
C0U980,坪林石牌,2026-06-26,24.86478,121.77396,5.354045e-08
C0T900,西林,2026-06-26,23.8119,121.441458,0.6566337
C1I150,青雲,2026-06-26,23.793361,120.949378,6.576199e-08
C2E980,和興,2026-06-26,24.505319,120.923016,2.9487515e-07
467350,澎湖,2026-06-26,23.565503,119.563094,0.726676
C0G800,埔鹽,2026-06-26,24.000394,120.431683,2.484453e-06
C0H960,草屯,2026-06-26,23.973672,120.68085,1.3073058e-07
C1V780,多納林道,2026-06-26,22.888028,120.737917,2.1039521e-09
C0E920,通霄漁港,2026-06-26,24.498589,120.673876,0.5063584
C0Z330,安通山,2026-06-26,23.290728,121.348528,7.1395664e-07
C0AH10,永和,2026-06-26,25.01125,121.508111,0.5105876
C0AK10,太平里,2026-06-26,25.134937,121.364899,3.3781134e-08
C2G640,鹿港,2026-06-26,24.0753,120.430481,2.1853708e-05
C1E890,國三N149K,2026-06-26,24.463414,120.680019,0.5063584
C1R110,口社,2026-06-26,22.770111,120.645222,0.8995874
C1M870,國三N285K,2026-06-26,23.550319,120.505833,7.9868033e-07
C1E480,鳳美,2026-06-26,24.554803,121.034747,0.0010048227
C0T9M0,靜浦,2026-06-26,23.455167,121.495028,0.02468446
C2H9M0,發祥,2026-06-26,24.154094,121.164517,1.3969944e-09
C2G9C0,埔南,2026-06-26,23.99124,120.46969,2.484453e-06
C0AI40,石牌,2026-06-26,25.115597,121.513139,0.9816344
C1F871,上谷關,2026-06-26,24.203483,121.018644,1.9830013e-09
C2H9G0,百勝,2026-06-26,24.051142,120.909361,3.2954315e-08
C0G880,二水,2026-06-26,23.810742,120.6173,3.0119466e-08
C0R940,加祿堂,2026-06-26,22.3363,120.6217,0.0022986676
C0W220,北竿,2026-06-26,26.220358,119.974881,1.1699552e-05
C0O960,崎頂,2026-06-26,22.959547,120.369317,0.002196696
C0TA40,秀林,2026-06-26,24.302864,121.731144,5.495144e-08
C0S750,向陽,2026-06-26,23.248397,120.986133,1.7048856e-09
C0T9F0,水璉,2026-06-26,23.797131,121.542514,0.6538621
C1M600,頭凍,2026-06-26,23.406364,120.603339,1.5851714e-09
467660,臺東,2026-06-26,22.752211,121.154586,0.2105554
C1D380,新埔,2026-06-26,24.84745,121.03834,4.1175888e-08
C2G980,田頭村,2026-06-26,23.8263,120.444175,2.291193e-08
C0V750,路竹,2026-06-26,22.854997,120.259439,0.010408113
C0N050,蚵寮,2026-06-26,23.301,120.1104,5.4967848e-05
C2X060,下營,2026-06-26,23.226806,120.256291,1.6016076e-05
72M700,南改鹿草分場,2026-06-26,23.416869,120.283061,4.6061578e-07
C1SA50,利嘉林道,2026-06-26,22.82325,121.009389,4.396551e-10
C0UB70,太平山中間站,2026-06-26,24.542003,121.513453,2.5306353e-08
C0A940,金山,2026-06-26,25.223628,121.643967,0.9124039
C1V340,大津,2026-06-26,22.888322,120.645986,0.0016500179
C0W180,七美,2026-06-26,23.219333,119.444892,0.0048778476
C1F9C1,白冷,2026-06-26,24.182844,120.929889,6.6759727e-09
K2E710,苗改生物防治研究中心,2026-06-26,24.422861,120.871833,1.6472802e-06
C0N040,蘆竹溝,2026-06-26,23.2344,120.0961,5.4967848e-05
C0TB40,崇德,2026-06-26,24.166144,121.657414,0.51083505
C0D760,大坪苗圃,2026-06-26,24.5362,121.1108,5.195028e-10
C2D430,峨眉,2026-06-26,24.6905,121.017189,0.000106756466
C2W230,畜試所澎湖,2026-06-26,23.628342,119.513206,0.813914
C0R880,後壁湖,2026-06-26,21.9457,120.7457,8.318157e-05
C1I280,埔中,2026-06-26,23.820778,120.642594,5.6241887e-09
467790,墾丁雷達站,2026-06-26,21.948235,120.808028,2.3758241e-06
C0W190,望安,2026-06-26,23.380564,119.494075,0.15670267
C0Z170,卓溪,2026-06-26,23.3443,121.3029,0.0051534567
C0F850,東勢,2026-06-26,24.246428,120.833047,1.5180136e-05
466900,淡水,2026-06-26,25.164889,121.448906,0.030908331
C0I370,魚池,2026-06-26,23.895703,120.94135,3.754988e-09
C0C630,大溪,2026-06-26,24.882853,121.265547,0.00010606767
C0A520,山佳,2026-06-26,24.974944,121.402008,0.22916408
C0I110,竹山,2026-06-26,23.761225,120.688156,1.4807423e-08
82H840,茶改南部分場,2026-06-26,23.762528,120.7405,1.3279265e-08
C2SD80,再來山,2026-06-26,23.34371,121.44122,0.0011655095
C0G660,溪湖,2026-06-26,23.94835,120.479122,5.8815694e-08
C1T800,洛韶,2026-06-26,24.204558,121.453956,1.19959e-08
C1T810,慈恩,2026-06-26,24.192044,121.388386,1.0351745e-09
C1E451,象鼻,2026-06-26,24.368617,120.940228,5.955745e-09
C0AC60,三峽,2026-06-26,24.939025,121.369728,0.1559642
C0I490,萬大林道,2026-06-26,23.928228,121.091411,1.4686328e-09
C1I290,豐丘,2026-06-26,23.668178,120.887417,1.2574828e-09
C1I320,奧萬大,2026-06-26,23.952956,121.178556,1.6317729e-09
C2M910,嘉義大學,2026-06-26,23.471325,120.485903,6.477252e-07
C0U770,南澳,2026-06-26,24.44935,121.81022,0.13111968
C2TB30,吉安,2026-06-26,23.94538,121.54803,0.03396193
C0A980,社子,2026-06-26,25.109508,121.469681,0.04352037
C0V800,六龜,2026-06-26,22.997889,120.633583,0.00045321052
C1G9D0,國一S218K,2026-06-26,23.890641,120.493253,4.4629555e-08
C0E570,白沙屯,2026-06-26,24.549447,120.696803,0.9865567
C2F9A0,中竹林,2026-06-26,24.103556,120.751061,7.997095e-08
C0FA40,臺中電廠,2026-06-26,24.2146,120.4907,0.00016612731
C2G9A0,畜試所彰化,2026-06-26,23.86045,120.557964,2.678528e-08
C0H9C0,合歡山,2026-06-26,24.143442,121.272547,7.1593096e-09
G2M350,農試溪口農場,2026-06-26,23.58565,120.408111,2.261656e-07
C0U860,頭城,2026-06-26,24.85323,121.8308,0.05556956
C0R580,南州,2026-06-26,22.48591,120.50274,0.8737889
C0G780,秀水,2026-06-26,24.03405,120.503869,1.968288e-07
72N100,臺南農改場,2026-06-26,23.0605,120.342194,0.0006969523
C0S900,蘭嶼高中,2026-06-26,22.04909,121.51214,0.8610384
C2TA60,六十石,2026-06-26,23.22477,121.31861,1.5516331e-08
C1F9W0,德基,2026-06-26,24.254783,121.190261,1.9249955e-09
C2M980,安和,2026-06-26,23.51377,120.31593,1.0711403e-07
C1Z120,壽豐,2026-06-26,23.870853,121.508081,0.030742077
C0W160,烏坵,2026-06-26,24.9944,119.44956,7.9643205e-06
C1I550,國六W023K,2026-06-26,23.979067,120.867742,8.2602405e-08
C0R870,興海,2026-06-26,21.9752,120.8439,2.3758241e-06
C0R140,瑪家,2026-06-26,22.682903,120.686639,5.959674e-07
C0A530,坪林,2026-06-26,24.938183,121.70975,0.00061426265
C0X260,後壁,2026-06-26,23.366358,120.362326,8.8114876e-07
C0Z230,和平,2026-06-26,24.30717,121.77007,0.023977615
C0G770,福興,2026-06-26,24.041289,120.437669,2.484453e-06
C0H9A0,神木村,2026-06-26,23.532742,120.843667,7.916109e-10
C0I460,南投,2026-06-26,23.911469,120.687331,1.3073058e-07
C0I480,梅峰,2026-06-26,24.085272,121.173572,1.927689e-09
C2D770,巨埔,2026-06-26,24.84435,121.11442,6.39868e-05
C2A560,福山,2026-06-26,24.776203,121.502811,0.0012268628
C0AH30,五分山,2026-06-26,25.07125,121.780794,9.7913295e-09
C0FA10,松柏,2026-06-26,24.429115,120.617482,0.0032388514
72S200,東改班鳩分場,2026-06-26,22.829528,121.077694,0.0009980634
72HA00,中改埔里分場,2026-06-26,23.903208,120.963364,4.1026915e-09
C2H9W0,大坪頂農水,2026-06-26,24.043122,120.932781,6.752619e-09
C0C650,平鎮,2026-06-26,24.897503,121.214636,0.00032844083
C0S930,延平,2026-06-26,22.902581,121.084058,2.5631085e-05
C0UA60,樟樹山,2026-06-26,24.41393,121.78325,0.00040153653
C2UC10,出水溪,2026-06-26,24.615822,121.652253,4.5341076e-06
C1S670,摩天,2026-06-26,23.199503,121.027,1.6126115e-09
C2C590,觀音,2026-06-26,25.027072,121.153317,1.810891e-05
C0V630,茄萣,2026-06-26,22.906642,120.182608,0.10118154
466940,基隆,2026-06-26,25.133314,121.740475,0.03771503
C0X050,東河,2026-06-26,23.296598,120.385608,4.227875e-06
C0R770,保力,2026-06-26,22.071122,120.764111,4.956932e-07
G2L020,農試嘉義分所,2026-06-26,23.485028,120.473806,6.477252e-07
C0X240,關子嶺,2026-06-26,23.331169,120.508025,6.609591e-07
C0I380,集集,2026-06-26,23.828206,120.801467,4.921129e-08
466990,花蓮,2026-06-26,23.975128,121.613275,0.038979795
C1V220,小關山,2026-06-26,23.154217,120.813603,1.4661502e-09
C1F9G1,慶福山,2026-06-26,24.180853,120.848378,3.2035883e-09
C0FB20,雪山橋,2026-06-26,24.23192,120.9786,1.8881625e-09
C0Z250,瑞穗林道,2026-06-26,23.49284,121.30688,7.1598283e-09
C0D590,新豐,2026-06-26,24.87068,120.97721,2.0369395e-08
C2N200,口宵里,2026-06-26,23.15987,120.45988,5.0332533e-06
C0A870,五指山,2026-06-26,25.132153,121.608692,7.948251e-08
C0UA50,西帽山,2026-06-26,24.555361,121.802628,5.395376e-06
C2R980,竹田國中,2026-06-26,22.61532,120.52412,0.8083976
C0X160,仁德,2026-06-26,22.968258,120.257689,0.013885863
C1H971,六分寮,2026-06-26,23.92507,120.6378,6.6022867e-09
C2D790,石鹿,2026-06-26,24.56551,121.15841,1.4670286e-09
C0W120,西嶼,2026-06-26,23.5626,119.468436,0.79320693
C0G650,員林,2026-06-26,23.946503,120.585597,4.4315197e-08
C0AD50,鶯歌,2026-06-26,24.951533,121.346294,0.12809254
C2H9Q0,北東眼山,2026-06-26,24.120939,121.189303,1.8265477e-09
C2H9T0,名間竹圍,2026-06-26,23.859914,120.637572,1.0229704e-08
C0S990,山豬窟,2026-06-26,22.318619,120.857372,1.2239196e-08
C0X190,安平,2026-06-26,22.993161,120.152181,0.015639707
C0K400,斗六,2026-06-26,23.720583,120.541127,7.96256e-08
12J990,口湖工作站,2026-06-26,23.589978,120.180394,0.00013971534
C0O830,北寮,2026-06-26,23.079561,120.495008,4.1844887e-06
C1D410,白蘭,2026-06-26,24.579364,121.079947,6.797132e-10
C0S970,加津林,2026-06-26,22.416211,120.926942,0.8993942
C0D700,關西,2026-06-26,24.7977,121.1732,0.043945227
C0U750,龜山島,2026-06-26,24.841667,121.953133,0.98126787
C0R810,內獅,2026-06-26,22.305064,120.642986,0.0022986676
C2EA10,拉庫斯,2026-06-26,24.53637,121.02137,9.18304e-10
C1M390,龍美,2026-06-26,23.406728,120.654417,1.3302174e-09
C2K290,崙內,2026-06-26,23.69525,120.35601,5.4153077e-08
C2FB60,頭櫃山,2026-06-26,24.129842,120.858925,1.6937327e-09
C1H840,國三N238K,2026-06-26,23.841008,120.707711,6.2432484e-08
CAQ030,崎峰國小,2026-06-26,22.42565,120.49521,0.8737889
C2E520,大湖,2026-06-26,24.414939,120.870872,1.6472802e-06
467530,阿里山,2026-06-26,23.508208,120.813242,1.9757602e-09
C1E691,南湖,2026-06-26,24.40135,120.837533,2.00354e-08
C0FA30,梧棲,2026-06-26,24.256003,120.523381,6.723129e-05
C1V231,高中,2026-06-26,23.134911,120.716711,6.121078e-09
C0AK30,硬漢嶺,2026-06-26,25.136097,121.426372,5.8062404e-09
C0F9V0,新社,2026-06-26,24.200172,120.815806,7.877976e-07
C0H890,埔里,2026-06-26,23.972169,120.952425,8.891574e-08
C0R690,墾丁,2026-06-26,21.966756,120.810269,1.7376603e-08
C0SD20,富山,2026-06-26,22.822383,121.190825,0.05575506
C0F0D0,審馬陣,2026-06-26,24.381675,121.4203,2.9554017e-09
C2W030,金門農試所,2026-06-26,24.448431,118.451786,3.138946e-06
C0R820,白鷺,2026-06-26,22.454275,120.666219,1.1371146e-08
C0FB00,大雪山,2026-06-26,24.254668,121.007374,2.358662e-09
C2O880,南化,2026-06-26,23.17332,120.59413,1.6085121e-06
C1V190,南天池,2026-06-26,23.27403,120.91176,2.0535176e-09
C0E940,雪見,2026-06-26,24.42595,121.01347,1.361773e-09
K2E360,苗栗農改場,2026-06-26,24.495722,120.829111,4.774421e-05
CAJ050,海口故事園區,2026-06-26,23.57543,120.14121,0.00013971534
C2K280,四湖,2026-06-26,23.6304,120.22717,2.2966747e-06
C2H9D0,三隻寮,2026-06-26,24.093078,120.861578,3.7912153e-09
C0O990,媽廟,2026-06-26,22.99175,120.293525,0.0023773785
C0Z220,和平林道,2026-06-26,24.343922,121.656317,1.789246e-05
C0TA10,花蓮漁港,2026-06-26,23.995322,121.638331,0.038548965
72C440,桃園農改場,2026-06-26,24.950944,121.030583,3.6195374e-08
C1E711,馬拉邦山,2026-06-26,24.367306,120.901656,6.564929e-09
C0SB20,富岡,2026-06-26,22.792467,121.192669,0.03725074
C0D560,竹東,2026-06-26,24.767147,121.057881,0.004308252
C0F9U0,南屯,2026-06-26,24.137006,120.637969,6.6793757e-07
C2SD60,明峰,2026-06-26,22.8671,121.11825,0.00012349793
C0M720,番路,2026-06-26,23.464657,120.554156,3.4246784e-07
C0F0A0,雪山圈谷,2026-06-26,24.388594,121.236339,7.261352e-09
C1A9N0,四十份,2026-06-26,24.934158,121.593283,0.004966768
C0U760,東澳,2026-06-26,24.52196,121.83318,0.23361182
C0X230,鹽水,2026-06-26,23.272621,120.247641,8.1054e-06
C2H9H0,苗改南投蜂場,2026-06-26,23.852589,120.693481,7.674261e-08
C2TB70,達谷寮,2026-06-26,23.38,121.35968,0.0012272153
C0R950,萬隆國小,2026-06-26,22.507667,120.587817,0.8845117
467540,大武,2026-06-26,22.35572,120.90374,0.032602195
C0V370,古亭坑,2026-06-26,22.893178,120.401947,9.107221e-06
C1I340,新興橋,2026-06-26,23.563333,120.868728,1.2840244e-09
C2C480,桃園,2026-06-26,24.992425,121.323172,0.0004509881
C0SA80,土坂,2026-06-26,22.453108,120.887572,0.42759112
C0R160,鹽埔,2026-06-26,22.739558,120.530778,0.026871296
C0AC40,大屯山,2026-06-26,25.175675,121.522408,4.3598494e-10
466850,五分山雷達站,2026-06-26,25.071182,121.781205,9.507148e-09
C2H9L0,馬烈霸,2026-06-26,24.1512,121.201772,1.8265477e-09
C1AI50,國三N016K,2026-06-26,25.034164,121.619664,0.09767855
C2V920,匏子寮,2026-06-26,23.04905,120.55319,3.8068144e-06
C1V600,藤枝,2026-06-26,23.071961,120.757042,1.2091248e-09
C1E601,南勢,2026-06-26,24.572486,120.734842,0.9865567
C0O980,新市,2026-06-26,23.061614,120.298197,0.0006969523
C0K420,西螺,2026-06-26,23.800407,120.467394,2.291193e-08
C0Z050,佳心,2026-06-26,23.34567,121.21316,4.3953143e-08
C0AD30,蘆洲,2026-06-26,25.086594,121.472331,0.5660304
C0V610,梓官,2026-06-26,22.760558,120.267211,0.010213791
K2F750,種苗改良場,2026-06-26,24.225972,120.800917,7.877976e-07
C0UA80,大溪漁港,2026-06-26,24.941801,121.902955,0.71211547
C1AI60,國一39K邊坡,2026-06-26,25.064361,121.383836,0.015257896
C0W150,金寧,2026-06-26,24.457703,118.328989,4.612682e-06
C0R960,內埔,2026-06-26,22.608483,120.570714,0.8083976
C2H9S0,龍南,2026-06-26,23.953536,120.833183,1.3612718e-09
C0AH40,平等,2026-06-26,25.129142,121.577086,0.57181454
C0R540,佳冬,2026-06-26,22.419456,120.552375,0.89665014
466950,彭佳嶼,2026-06-26,25.627975,122.079744,2.915339e-05
C0A890,雙溪,2026-06-26,25.036003,121.864242,0.9071317
C0AH50,林口,2026-06-26,25.072181,121.38084,0.0012746523
A2K360,水試臺西試驗場,2026-06-26,23.717231,120.190522,8.2648165e-07
C2M960,外寮,2026-06-26,23.562643,120.665688,1.4941495e-09
C0F9S0,烏日,2026-06-26,24.107058,120.624103,6.6793694e-07
C2N180,鹿陶洋,2026-06-26,23.14325,120.48352,5.509784e-05
C0C490,八德,2026-06-26,24.928708,121.283289,0.00010606767
C0R190,赤山,2026-06-26,22.592333,120.614306,0.87747574
C0T820,天祥,2026-06-26,24.179597,121.495639,0.9955727
C1F9E1,龍安,2026-06-26,24.1605,120.831961,6.1159636e-07
C2SD50,順那,2026-06-26,23.04166,121.29332,2.0282849e-07
C0V820,小林,2026-06-26,23.148408,120.63325,3.3764383e-08
C2G870,芳苑,2026-06-26,23.922303,120.320025,9.12048e-05
C0E850,大河,2026-06-26,24.618069,120.948578,0.90437835
C1U670,寒溪,2026-06-26,24.634,121.71691,0.030673342
C0N020,城西,2026-06-26,23.0568,120.0956,0.03054613
C1Z110,三棧,2026-06-26,24.11557,121.60501,0.0015743979
C0R280,檳榔,2026-06-26,22.076078,120.836777,1.2253211e-08
C2H9J0,中台,2026-06-26,23.9996,120.938739,6.752619e-09
C0F9L0,后里,2026-06-26,24.310436,120.729725,0.00049791613
467441,高雄,2026-06-26,22.730432,120.312516,0.0010236226
C2N210,岩坑,2026-06-26,23.24614,120.47458,6.546828e-06
C0Z180,新城,2026-06-26,24.040486,121.604878,0.03980498
C0D540,橫山,2026-06-26,24.71116,121.11693,0.0016357974
C1D420,太閣南,2026-06-26,24.632808,121.160575,6.160209e-09
C1E770,公館,2026-06-26,24.526914,120.830806,0.9901291
CAN130,水試所海水繁養殖中心,2026-06-26,23.120802,120.07968,0.045461774
C1I430,翠華,2026-06-26,24.191961,121.224339,2.7669278e-09
C1M400,菜瓜坪,2026-06-26,23.251928,120.576103,4.526135e-08
C0G730,二林,2026-06-26,23.903325,120.376081,2.0241863e-07
72M360,南改義竹分場,2026-06-26,23.360694,120.279361,1.5236103e-06
V2K620,麥寮合作社,2026-06-26,23.753836,120.294783,1.814263e-07
C0Z070,舞鶴,2026-06-26,23.46811,121.37407,0.00013664439
C0B040,大武崙,2026-06-26,25.166676,121.706993,0.05307452
C1Z030,紅葉,2026-06-26,23.493119,121.338806,0.0009401109
C1I050,丹大,2026-06-26,23.753747,121.141147,1.7207464e-09
C0I080,信義,2026-06-26,23.689694,120.851036,3.1016435e-07
C2TB80,庄子底,2026-06-26,23.71794,121.49438,0.54961467
C0D750,樂山林道6k,2026-06-26,24.49999,121.08773,1.8583184e-09
C2M920,朴子農改,2026-06-26,23.469889,120.259383,4.6061578e-07
C2A880,福隆,2026-06-26,25.017842,121.942083,0.9118017
C0Z160,鳳林,2026-06-26,23.746114,121.453411,0.62116736
C0UB80,翠峰林道6K,2026-06-26,24.49773,121.568625,1.4786136e-09
C0V210,復興,2026-06-26,23.222403,120.806089,5.1380624e-09
C0H990,昆陽,2026-06-26,24.121322,121.273642,5.0169913e-09
C0R741,獅子,2026-06-26,22.202308,120.705236,0.0007524682
C0S710,鹿野,2026-06-26,22.917711,121.122994,3.328689e-07
C0I530,小奇萊,2026-06-26,24.131764,121.295717,5.394553e-09
C0FA70,大雪山埡口,2026-06-26,24.26867,121.03062,3.5009013e-09
C2K630,荷苞,2026-06-26,23.657717,120.595144,2.3728434e-07
C0Z080,富源,2026-06-26,23.587642,121.378225,0.72658134
C2M9E0,旺來山,2026-06-26,23.555153,120.486463,7.9868033e-07
C0SB10,美和,2026-06-26,22.682078,121.060236,0.2105554
C2K620,馬光農場,2026-06-26,23.721453,120.378864,3.4232375e-08
C1I140,卡奈托灣,2026-06-26,23.754364,121.087872,9.586718e-10
C0I520,玉山風口,2026-06-26,23.470489,120.955994,9.451713e-09
C1G691,下水埔,2026-06-26,23.816114,120.5676,1.8333338e-08
C0X110,臺南市南區,2026-06-26,22.961189,120.188378,0.013296959
C0V680,仁武,2026-06-26,22.701083,120.347722,0.0010236226
C2G840,北斗,2026-06-26,23.877586,120.514222,4.4629555e-08
C2TB90,長橋,2026-06-26,23.6874,121.46186,0.6654079
C0R900,竹坑,2026-06-26,22.1385,120.7022,0.0007925501
C0G860,社頭,2026-06-26,23.897647,120.5862,2.678528e-08
C0X150,安定,2026-06-26,23.102614,120.227839,0.00012529963
C0R590,里港,2026-06-26,22.77919,120.49459,2.924824e-06
C0E610,馬都安,2026-06-26,24.451272,120.930192,1.3041212e-08
C0E550,明德,2026-06-26,24.583486,120.885411,0.9951325
C0R150,三地門,2026-06-26,22.709889,120.639944,0.92315114
C0G910,花壇,2026-06-26,24.032076,120.549461,1.9682842e-07
C1D400,鳥嘴山,2026-06-26,24.71909,121.28387,6.892714e-09
C0K500,元長,2026-06-26,23.64981,120.315024,1.6253897e-07
C0F0B0,石岡,2026-06-26,24.276061,120.777644,0.00049791613
C2V250,甲仙,2026-06-26,23.080106,120.591758,1.6462311e-06
C0SA20,金崙山,2026-06-26,22.567419,120.959667,1.5253229e-09
C0V350,溪埔,2026-06-26,22.738578,120.446797,1.0516457e-05
C0M660,溪口,2026-06-26,23.604131,120.403569,2.2616581e-07
C1S880,壽卡,2026-06-26,22.238911,120.858903,4.4682853e-09
72D680,桃改新埔分場,2026-06-26,24.834444,121.066111,4.1175888e-08
