站號,站名,日期,lat,lon,BlastGRU-TW
C0R710,龍磐,2026-04-13,21.931672,120.838942,0.62386775
C1F9D1,白毛台,2026-04-13,24.158325,120.886933,0.4954516
C0G940,竹塘,2026-04-13,23.848253,120.386764,0.9919041
467590,恆春,2026-04-13,22.003897,120.746339,0.6953684
C0U710,太平山,2026-04-13,24.505486,121.525656,0.004360922
C0E820,獅潭,2026-04-13,24.539133,120.920042,0.9034334
C2SD70,二層坪,2026-04-13,22.94105,121.16838,0.542897
C0V880,興達,2026-04-13,22.8778,120.2127,0.9801974
C0SB30,新蘭,2026-04-13,22.869214,121.223228,0.89452475
C2R970,屏科大,2026-04-13,22.648275,120.619247,0.9220828
C1Z130,銅門,2026-04-13,23.965694,121.492842,0.36221123
C0AD40,土城,2026-04-13,24.973208,121.445169,0.9457558
CAN140,六官養殖協會,2026-04-13,23.22881,120.29962,0.9495798
C0X180,山上,2026-04-13,23.0757,120.363253,0.62073606
C0F9Z0,雪山東峰,2026-04-13,24.388792,121.268675,0.00096213236
C1M480,獨立山,2026-04-13,23.537022,120.607797,0.18454807
C0X220,學甲,2026-04-13,23.230367,120.182187,0.9912034
467650,日月潭,2026-04-13,23.881325,120.90805,0.12982118
A2K570,古坑(花卉中心),2026-04-13,23.633531,120.552392,0.9650837
C0K600,箔子寮,2026-04-13,23.6197,120.14,0.98465633
C0G830,埤頭,2026-04-13,23.866003,120.452806,0.9886907
C0S950,七塊厝,2026-04-13,22.954453,121.229922,0.43548802
467110,金門,2026-04-13,24.407306,118.289281,0.07951234
C0AH80,深坑,2026-04-13,25.002703,121.628328,0.9635552
C0A970,三貂角,2026-04-13,25.007606,122.002058,0.8720009
C2D730,寶山農場,2026-04-13,24.732444,120.976153,0.9283578
C0K430,褒忠,2026-04-13,23.690938,120.303634,0.9961198
467480,嘉義,2026-04-13,23.495925,120.432906,0.8660557
C0V400,阿公店,2026-04-13,22.804194,120.355528,0.8812151
C2S800,華源,2026-04-13,22.65783,121.0232,0.6449702
C2SA40,瑞和,2026-04-13,22.974361,121.156697,0.543184
C0E960,觀霧分站,2026-04-13,24.505781,121.113921,0.006344854
467550,玉山,2026-04-13,23.48718,120.95943,0.0005633067
C0R440,大漢山,2026-04-13,22.405264,120.753181,0.017700845
C0SD30,東清國小,2026-04-13,22.057128,121.564922,0.46097314
C1F9B1,桐林,2026-04-13,24.066172,120.735194,0.6262288
C2I210,蘆竹湳,2026-04-13,23.93398,120.81209,0.5123426
C2H9U0,鳳鵬,2026-04-13,23.763919,120.788061,0.91326684
C0K390,土庫,2026-04-13,23.679029,120.395574,0.9928437
C1I450,望鄉山,2026-04-13,23.594153,120.944286,0.0015162029
C0E910,海埔,2026-04-13,24.648767,120.772435,0.89183843
B2E890,畜試北區分所,2026-04-13,24.527806,120.770972,0.94328034
C0R750,四林格山,2026-04-13,22.076989,120.802439,0.77846956
C0F0C0,中坑,2026-04-13,24.248517,120.903319,0.27403498
C1I121,大鞍,2026-04-13,23.678381,120.760017,0.075693965
C2G9E0,移民庄,2026-04-13,23.9784,120.40283,0.9847904
72U480,花改蘭陽分場,2026-04-13,24.686306,121.716583,0.37779936
C0A770,科教館,2026-04-13,25.096356,121.516507,0.8746337
C0AJ60,六塊厝,2026-04-13,25.24,121.4481,0.98523855
C0R620,墾雷,2026-04-13,21.900836,120.855269,0.67034394
467420,永康,2026-04-13,23.038386,120.2367,0.91092193
C2M530,奮起湖,2026-04-13,23.493903,120.699253,0.046064883
C0I410,名間,2026-04-13,23.837053,120.701447,0.85626966
A2C560,農工中心,2026-04-13,24.985917,121.239833,0.89341927
C0V740,旗山,2026-04-13,22.888614,120.483597,0.92668283
C0Z061,玉里,2026-04-13,23.3215,121.339656,0.7036106
C0S840,南田,2026-04-13,22.279725,120.889208,0.88450426
C1I470,杉林溪,2026-04-13,23.639517,120.786444,0.022126848
C1X040,東原,2026-04-13,23.291597,120.463822,0.9793351
C0R660,枋寮,2026-04-13,22.367722,120.590647,0.87553257
C1R120,上德文,2026-04-13,22.763272,120.704442,0.7474003
C0K450,大埤,2026-04-13,23.646074,120.431537,0.9910008
C0UA00,土場,2026-04-13,24.576533,121.495333,0.703642
467080,宜蘭,2026-04-13,24.763975,121.756528,0.12897013
C0N030,四草,2026-04-13,23.0235,120.1116,0.98777175
467410,臺南,2026-04-13,22.99328,120.20492,0.98429614
C0V650,彌陀,2026-04-13,22.783806,120.246361,0.94937307
C0D660,新竹市東區,2026-04-13,24.798681,120.986942,0.711224
82S580,茶改東部分場,2026-04-13,22.907694,121.130139,0.7220467
C0SB40,興隆,2026-04-13,22.913661,121.257469,0.6819005
467050,新屋,2026-04-13,25.006725,121.047492,0.96198636
C0C710,大溪永福,2026-04-13,24.892936,121.324975,0.67781633
C0FA20,溫寮,2026-04-13,24.372177,120.583125,0.9973358
C0V640,湖內,2026-04-13,22.887139,120.2445,0.98021865
C0R910,下寮,2026-04-13,22.3929,120.5548,0.92416507
C0Z020,明里,2026-04-13,23.208717,121.262342,0.59600526
C0M770,嘉義梅山,2026-04-13,23.585398,120.555587,0.9629076
C0C660,楊梅,2026-04-13,24.912375,121.143047,0.87751615
C0SD40,牛頭山,2026-04-13,22.676661,121.506944,0.40777242
C1E511,新開,2026-04-13,24.347703,120.827019,0.9806015
G2F820,農試所(霧峰),2026-04-13,24.031261,120.688133,0.35671985
C2M990,大巃頂,2026-04-13,23.5547,120.61439,0.19620676
C1I070,和社,2026-04-13,23.591131,120.888861,0.599741
C2E990,新坪頂,2026-04-13,24.30201,120.8574,0.72958237
C0TA80,立霧山,2026-04-13,24.183258,121.641899,0.032559086
C2F000,大肚,2026-04-13,24.15295,120.572117,0.9829601
C1S850,豐南,2026-04-13,23.122139,121.262389,0.4382412
C2M9B0,西興,2026-04-13,23.2428,120.57617,0.7758546
C2A920,富貴角,2026-04-13,25.263783,121.565258,0.6680889
C0T960,光復,2026-04-13,23.660694,121.424964,0.2934881
C0F9M0,豐原,2026-04-13,24.254322,120.720692,0.9699184
C0R720,旭海,2026-04-13,22.205403,120.887614,0.75799936
C0V710,苓雅,2026-04-13,22.622742,120.330669,0.949204
C0C740,觀音工業區,2026-04-13,25.064764,121.114856,0.8500553
CAC040,拉拉山,2026-04-13,24.699317,121.427133,0.0031533528
C0V790,萬山,2026-04-13,22.905944,120.688056,0.9710289
U2HA30,臺大和社,2026-04-13,23.590856,120.888864,0.599741
C2H9K0,屯原,2026-04-13,24.067969,121.209389,0.003095786
C0AJ90,澳底,2026-04-13,25.0552,121.9253,0.9773932
C0Z100,東華,2026-04-13,23.89525,121.549833,0.5980356
C0G970,三豐,2026-04-13,23.882,120.2895,0.9894457
C0V900,汕尾,2026-04-13,22.4782,120.4151,0.9096445
C1R630,龍泉,2026-04-13,22.66701,120.59091,0.91584486
C1AC50,關渡,2026-04-13,25.133486,121.469331,0.72033364
C0C800,四稜,2026-04-13,24.64733,121.4293,0.03641773
C0F9I0,神岡,2026-04-13,24.272481,120.658314,0.9939181
C0K460,斗南,2026-04-13,23.678734,120.478359,0.99124867
C2O810,曾文,2026-04-13,23.219681,120.497328,0.97801495
467280,後龍,2026-04-13,24.648563,120.831834,0.9160539
C1F9J1,清水林,2026-04-13,24.071242,120.820419,0.3278313
C2A650,火燒寮,2026-04-13,25.002719,121.742892,0.49782908
466930,竹子湖,2026-04-13,25.162078,121.544547,0.2547563
C1I220,樟湖,2026-04-13,23.905333,120.846983,0.05108998
C0I390,仁愛,2026-04-13,24.022122,121.132206,0.00856882
C0Z300,東里,2026-04-13,23.26853,121.30547,0.664626
C1V590,新發,2026-04-13,23.057019,120.646064,0.46475968
C0K510,水林,2026-04-13,23.572924,120.24597,0.9807497
72S590,東改賓朗果園,2026-04-13,22.813889,121.071278,0.70807755
82A750,茶改北部分場,2026-04-13,24.955778,121.631222,0.6721503
C1A750,石碇服務區,2026-04-13,25.00872,121.646242,0.8689901
C0X300,鹿寮,2026-04-13,23.386047,120.477331,0.8920606
C0K590,雲林東勢,2026-04-13,23.674192,120.255721,0.9954477
C2K310,港尾布雞,2026-04-13,23.74834,120.38439,0.9964763
C0A570,桶後,2026-04-13,24.848222,121.597992,0.8031056
C0G720,溪州,2026-04-13,23.851589,120.499093,0.9888294
C1V160,達卡努瓦,2026-04-13,23.279811,120.705319,0.31026313
C2M410,馬頭山,2026-04-13,23.324361,120.582017,0.97823805
C0V850,蚵仔寮,2026-04-13,22.7256,120.2527,0.9474163
C0S740,池上,2026-04-13,23.119628,121.209469,0.5784739
C1V390,尖山,2026-04-13,22.813153,120.367789,0.8920227
C0AH70,松山,2026-04-13,25.04871,121.55042,0.8699657
C0N010,鯤鯓國小,2026-04-13,23.1879,120.0889,0.9916325
C0SA60,知本（水試所）,2026-04-13,22.702394,121.082761,0.73391366
C0T9I0,豐濱,2026-04-13,23.583897,121.514806,0.6251277
C0UB00,淡江大學蘭陽校園,2026-04-13,24.823239,121.730383,0.41621447
C0W240,九宮,2026-04-13,24.423753,118.240186,0.06350992
C0T9N0,富里,2026-04-13,23.171639,121.249378,0.50534153
U2HA50,臺大竹山,2026-04-13,23.756972,120.681556,0.9395013
C0V840,鳳鼻頭,2026-04-13,22.5083,120.3591,0.9156205
C0X140,西港,2026-04-13,23.125608,120.203108,0.9827736
72D080,桃改五峰分場,2026-04-13,24.612194,121.157167,0.31384423
C2H9P0,伊拿谷,2026-04-13,23.963211,121.088264,0.2798713
C2K250,崙背,2026-04-13,23.75553,120.31893,0.9961083
C2H9F0,柑林,2026-04-13,24.018658,120.847072,0.7520769
C0TA20,加灣,2026-04-13,24.082025,121.608944,0.83190334
C0V530,阿蓮,2026-04-13,22.883208,120.327508,0.6899866
C0FB30,八仙山苗圃,2026-04-13,24.192719,121.001366,0.30919552
C0E791,卓蘭,2026-04-13,24.3126,120.8244,0.9799699
C2R260,春日,2026-04-13,22.370361,120.628306,0.9096536
C1I030,武界,2026-04-13,23.913225,121.052483,0.16549824
C0R520,崁頂,2026-04-13,22.514781,120.506914,0.97981
C0R341,牡丹,2026-04-13,22.130036,120.792639,0.73900366
C0R930,萬丹,2026-04-13,22.5885,120.4851,0.20211712
C0S760,紅石,2026-04-13,23.069131,121.126219,0.004352264
C2C410,中央大學,2026-04-13,24.967652,121.185165,0.8886859
C1M610,石磐龍,2026-04-13,23.496606,120.663506,0.12728134
C2C830,中德,2026-04-13,24.981862,121.291344,0.8285964
C0C790,東眼山,2026-04-13,24.8284,121.40888,0.19145921
C0UA10,鴛鴦湖,2026-04-13,24.590269,121.412228,0.014994297
C0R800,丹路,2026-04-13,22.204481,120.750989,0.85883313
C2R240,萬巒,2026-04-13,22.527306,120.625111,0.9574334
C0G920,永靖,2026-04-13,23.924703,120.547533,0.9579683
C2M950,太和,2026-04-13,23.538372,120.702961,0.048157632
C1A630,下盆,2026-04-13,24.771003,121.538622,0.38203293
B2N890,畜產試驗所,2026-04-13,23.058972,120.336406,0.5034877
C0UA30,白嶺,2026-04-13,24.527819,121.519031,0.03199906
467571,新竹,2026-04-13,24.828575,121.01455,0.93726456
C1V580,溪南(特生中心),2026-04-13,23.084972,120.788475,0.00981287
C1T970,大農,2026-04-13,23.615233,121.413331,0.23012944
C0R650,竹田,2026-04-13,22.58486,120.54344,0.9695487
C1H900,清流,2026-04-13,24.080775,120.962997,0.4977767
C1C510,水尾,2026-04-13,24.940081,121.087161,0.8934254
C2N170,茅港尾,2026-04-13,23.2061,120.2624,0.9495798
C0F9X0,大雅(中科園區),2026-04-13,24.21528,120.62445,0.98133737
C0SB60,白守蓮,2026-04-13,23.126769,121.401914,0.97793925
C0O970,虎頭埤,2026-04-13,23.021375,120.347878,0.6322909
C0C730,中大臨海站,2026-04-13,24.966126,121.008581,0.96453094
C0X250,新營,2026-04-13,23.310689,120.316681,0.91253966
C0V700,三民,2026-04-13,22.645017,120.311233,0.9550114
C0U870,大礁溪,2026-04-13,24.791042,121.675047,0.14125024
C0E870,高鐵苗栗,2026-04-13,24.60725,120.826094,0.9158597
C2S890,關山,2026-04-13,23.0395,121.175017,0.47279784
C0TA30,鹽寮,2026-04-13,23.845606,121.592664,0.6863863
C0M860,新美,2026-04-13,23.338017,120.683169,0.78363574
C1E701,八卦,2026-04-13,24.491756,120.927619,0.619447
C2TA90,加納納,2026-04-13,23.466421,121.359867,0.53186464
C0I420,國姓,2026-04-13,24.037803,120.855072,0.77088773
C2D720,關西工作站,2026-04-13,24.757275,121.184792,0.9776816
C2AK30,信賢,2026-04-13,24.84108,121.53492,0.65894413
C0S960,香蘭,2026-04-13,22.587569,120.993375,0.9788386
467620,蘭嶼,2026-04-13,22.0369,121.55843,0.2515223
C2UC40,中城,2026-04-13,24.62865,121.74745,0.7875232
72G600,臺中農改場,2026-04-13,24.003028,120.534389,0.87975055
C0Z210,瑞穗,2026-04-13,23.5239,121.39021,0.61251414
C0M820,達邦,2026-04-13,23.453994,120.749517,0.15248837
C0V860,南寮,2026-04-13,22.7616,120.2339,0.9474163
C0G740,大城,2026-04-13,23.852487,120.320935,0.98941296
C0R920,塭仔,2026-04-13,22.4169,120.5197,0.92427653
C0R470,高樹,2026-04-13,22.826389,120.600806,0.5058597
C0R680,佳樂水,2026-04-13,21.993578,120.861633,0.67535216
C1O870,大棟山,2026-04-13,23.31157,120.52226,0.15244733
C0D360,梅花,2026-04-13,24.678347,121.208558,0.6136904
C0Z190,富世,2026-04-13,24.14743,121.6297,0.7522896
C0AI10,屈尺,2026-04-13,24.92184,121.54475,0.93227506
B2U990,畜試東區分所,2026-04-13,24.669039,121.832561,0.87123656
C0SB80,長濱漁港,2026-04-13,23.313644,121.459994,0.76529324
C0TA50,和仁,2026-04-13,24.241394,121.712472,0.86890036
C2AK40,漁光,2026-04-13,24.96875,121.72132,0.2771783
C0V910,大樹,2026-04-13,22.684645,120.432803,0.7987573
C1R610,西大武山,2026-04-13,22.617719,120.7322,0.019926907
C0G900,線西,2026-04-13,24.143358,120.443536,0.95496285
C0M700,竹崎,2026-04-13,23.526178,120.555508,0.9517472
C2E880,三義,2026-04-13,24.405478,120.749819,0.80147755
C0C720,竹圍,2026-04-13,25.112692,121.239824,0.9691945
C0F9P0,清水,2026-04-13,24.312297,120.562242,0.99390453
C0Z150,吉安光華,2026-04-13,23.930925,121.595153,0.7709367
C0FA80,小雪山天池,2026-04-13,24.28025,121.02627,0.00096505095
467300,東吉島,2026-04-13,23.25727,119.66762,0.9623176
C1D640,外坪(五指山),2026-04-13,24.644447,121.090961,0.62985474
C2R9A0,高士國小,2026-04-13,22.12553,120.84653,0.7598955
C0F9O0,潭子,2026-04-13,24.213106,120.703933,0.9673604
C2H9R0,卓社,2026-04-13,23.887894,121.000086,0.0069274628
72T250,花蓮農改場,2026-04-13,23.975222,121.563889,0.67681706
C0E780,銅鑼,2026-04-13,24.489681,120.790853,0.93832546
C1T950,太安,2026-04-13,23.666719,121.370128,0.42976674
C0E830,苑裡,2026-04-13,24.439714,120.653053,0.9838476
467270,田中,2026-04-13,23.873803,120.581286,0.6656983
C0SA10,檳榔四格山,2026-04-13,22.810031,121.109308,0.64840573
C1T830,布洛灣,2026-04-13,24.17184,121.57127,0.8593003
C0F970,大坑,2026-04-13,24.173142,120.722289,0.7972536
C1U920,思源,2026-04-13,24.393125,121.347214,0.003319926
C2H9Y0,松茗,2026-04-13,23.8167,120.650765,0.66175616
C0A931,三和,2026-04-13,25.233153,121.595236,0.6269704
C0I010,廬山,2026-04-13,24.033311,121.181808,0.0030138404
C2M940,日野賀,2026-04-13,23.434056,120.727169,0.1544549
C0R860,鼻頭,2026-04-13,22.1043,120.8979,0.7113006
C2I260,北坑,2026-04-13,23.92463,121.00683,0.539372
C0UB20,壯圍,2026-04-13,24.7359,121.8163,0.20994015
C0R790,九棚,2026-04-13,22.14195,120.889281,0.68549293
C0W110,東莒,2026-04-13,25.9652,119.98069,0.008490199
C1U930,粉鳥林,2026-04-13,24.497088,121.842479,0.93845576
C0S830,長濱,2026-04-13,23.286817,121.411975,0.38643622
C1F9F1,伯公龍,2026-04-13,24.272392,120.849047,0.93143886
C0UB90,太平山莊,2026-04-13,24.494171,121.536209,0.0040525803
C0E810,西湖,2026-04-13,24.562947,120.7485,0.9481874
C1I440,新高口,2026-04-13,23.478744,120.878939,0.0022215385
C0O840,王爺宮,2026-04-13,23.222064,120.40085,0.57555443
C0T9G0,鳳林山,2026-04-13,23.735269,121.420131,0.77286804
C0X080,佳里,2026-04-13,23.173039,120.145086,0.9914557
C0FB70,大甲溪埔,2026-04-13,24.370625,120.620067,0.9974205
C0Z310,清水斷崖,2026-04-13,24.218294,121.689142,0.6400649
C0M680,太保,2026-04-13,23.455062,120.331455,0.8124061
C1S820,金峰,2026-04-13,22.590969,120.933236,0.94245327
C0AD10,八里,2026-04-13,25.150211,121.403947,0.96615934
C2K240,草嶺,2026-04-13,23.59555,120.693461,0.27426866
C1SA70,都蘭,2026-04-13,22.87794,121.226881,0.88600713
C0K440,二崙,2026-04-13,23.772797,120.408944,0.9928517
C1A760,坪林交控,2026-04-13,24.94284,121.713442,0.6474552
C0F9N0,大里,2026-04-13,24.092464,120.701378,0.4170509
C0SA90,達仁林場,2026-04-13,22.264347,120.823972,0.7765922
C1R290,石門山,2026-04-13,22.112611,120.756597,0.5696576
42HA10,萬大發電廠,2026-04-13,23.978875,121.139639,0.025804857
C0R890,山海,2026-04-13,21.9878,120.7091,0.70929104
C0T9A0,月眉山,2026-04-13,23.809928,121.539828,0.15119216
C0AC70,信義,2026-04-13,25.037822,121.564597,0.94817185
C0K560,棋山,2026-04-13,23.68645,120.603417,0.85198027
C2FB50,出雲,2026-04-13,24.206469,120.902794,0.16637115
C1Z240,中平林道,2026-04-13,23.42115,121.26763,0.48913893
U2H480,溪頭,2026-04-13,23.670306,120.798194,0.27088606
C0M880,好美里,2026-04-13,23.3364,120.138,0.9913116
C0T9E0,大坑,2026-04-13,23.880628,121.581981,0.05052045
C0K530,臺西,2026-04-13,23.701547,120.197559,0.98830694
C1E900,國一N128K,2026-04-13,24.560997,120.844186,0.95334786
C0AJ50,水湳洞,2026-04-13,25.123695,121.862238,0.97565216
C0AI20,白沙灣,2026-04-13,25.283128,121.519058,0.9679468
C2V310,美濃,2026-04-13,22.898792,120.51907,0.9258055
C0A860,大坪,2026-04-13,25.165914,121.632969,0.35727286
C1U850,觀音海岸,2026-04-13,24.38319,121.77856,0.018350301
C2K610,草嶺石壁,2026-04-13,23.602469,120.707731,0.2521524
C0U950,鶯子嶺,2026-04-13,24.89754,121.79244,0.0689263
C0O900,善化,2026-04-13,23.112883,120.297219,0.4905722
C0K550,蔦松,2026-04-13,23.514319,120.229736,0.9649821
E2P980,林試六龜中心,2026-04-13,22.991703,120.645722,0.9410045
C0E590,通霄,2026-04-13,24.471892,120.704622,0.9552631
C1I310,西巒,2026-04-13,23.754486,120.883956,0.2685983
C0A550,泰平,2026-04-13,24.971197,121.823711,0.45500255
C2UC30,金洋,2026-04-13,24.42465,121.74573,0.96081394
C0I360,水里,2026-04-13,23.812553,120.849792,0.8825603
C0R830,高士,2026-04-13,22.121825,120.836781,0.5730377
C1I101,溪頭,2026-04-13,23.661789,120.807647,0.011729385
C0AJ20,野柳,2026-04-13,25.20703,121.690021,0.9524688
C0B060,暖暖,2026-04-13,25.0957,121.7403,0.8582556
C1H920,長豐,2026-04-13,24.102039,120.879897,0.39681333
C2S9B0,利吉,2026-04-13,22.86246,121.15486,0.7335032
C0V360,內門,2026-04-13,22.975481,120.466769,0.9682282
C0R850,林邊,2026-04-13,22.4634,120.5339,0.8876042
C0E930,龍鳳,2026-04-13,24.700034,120.859125,0.9704875
C0U910,冬山,2026-04-13,24.63373,121.7937,0.87123656
C1E721,泰安,2026-04-13,24.489017,120.968036,0.13984425
82H320,茶改中部分場,2026-04-13,23.875611,120.913583,0.28723764
C0M750,布袋,2026-04-13,23.380878,120.167789,0.9869647
C1S860,利嘉,2026-04-13,22.809417,121.050528,0.79021853
E2S980,林試太麻里1,2026-04-13,22.598922,120.980044,0.9801143
C0X170,關廟,2026-04-13,22.963017,120.327797,0.63441384
C0V720,林園,2026-04-13,22.507747,120.394511,0.89435065
C2M9G0,沄水,2026-04-13,23.38293,120.52666,0.98117715
C1I510,線浸林道,2026-04-13,23.761508,120.832956,0.13578004
C0D690,外湖,2026-04-13,24.917735,120.968711,0.9428737
C0C750,新興坑尾,2026-04-13,25.0061,121.0971,0.92983484
B2Q810,畜試南區分所,2026-04-13,21.945583,120.802167,0.67535216
C0S790,金崙,2026-04-13,22.538122,120.966875,0.6844384
C0AH90,福山植物園,2026-04-13,24.760717,121.58135,0.24463648
C0I540,奇萊稜線,2026-04-13,24.109231,121.326456,0.00049385894
C0M850,表湖,2026-04-13,23.24186,120.64166,0.5919014
C0S770,大溪山,2026-04-13,22.478475,120.943325,0.7138917
C0AG80,中和,2026-04-13,24.991622,121.491792,0.9457558
C0T790,大禹嶺,2026-04-13,24.186117,121.316086,0.00096626725
C0T9B0,水源,2026-04-13,23.991861,121.537169,0.047290795
C0R840,牡丹池山,2026-04-13,22.168389,120.841225,0.62400126
C1I131,桶頭,2026-04-13,23.641944,120.654117,0.9830095
CAL110,布袋國中,2026-04-13,23.35893,120.18026,0.9913116
C2M9D0,何竹子腳,2026-04-13,23.53641,120.38203,0.91483146
C0Z290,赤柯山,2026-04-13,23.36893,121.38293,0.080307305
C0X280,將軍,2026-04-13,23.214999,120.13577,0.9912484
C0S690,太麻里,2026-04-13,22.60902,120.98533,0.6083057
C0U880,北關,2026-04-13,24.9072,121.8734,0.9801301
CAW010,東引,2026-04-13,26.3588,120.4836,0.0042197634
C0G810,埔心,2026-04-13,23.947633,120.525456,0.956737
C0U970,大福,2026-04-13,24.80064,121.81389,0.13976623
C2H9N0,仁愛東眼,2026-04-13,24.026875,121.1205,0.0024361822
C1E670,南礦,2026-04-13,24.538278,121.002836,0.19943736
C0M520,東後寮,2026-04-13,23.369908,120.248065,0.98912084
C1E461,松安,2026-04-13,24.397972,120.986022,0.112570055
C2N160,西拉雅風管處,2026-04-13,23.189481,120.335297,0.4130032
C2O850,環湖,2026-04-13,23.148665,120.4186,0.90243447
C2M970,碧湖,2026-04-13,23.568632,120.624165,0.20352556
C0A640,石碇,2026-04-13,24.993969,121.662917,0.6692504
E2S960,林試太麻里2,2026-04-13,22.598,120.99775,0.9799805
C0F9Y0,桃山,2026-04-13,24.432739,121.303808,0.0006156746
C1I020,萬大,2026-04-13,23.979817,121.132261,0.008961017
C2UC20,長嶺,2026-04-13,24.70894,121.61162,0.41882697
C0U940,羅東,2026-04-13,24.68184,121.74934,0.37963107
C0M650,朴子,2026-04-13,23.43463,120.23902,0.9743852
C1I500,大尖山,2026-04-13,23.858572,120.994889,0.004689664
C0FB40,中橫21.6k,2026-04-13,24.2499,121.1455,0.22828963
C0G820,田尾,2026-04-13,23.901669,120.509389,0.956737
E2K600,四湖植物園,2026-04-13,23.676986,120.163433,0.9881707
C0S730,綠島,2026-04-13,22.6672,121.47533,0.2506032
12Q970,東港工作站,2026-04-13,22.479997,120.466058,0.88705343
C1TA00,太魯閣,2026-04-13,24.15773,121.6236,0.48678598
466920,臺北,2026-04-13,25.037658,121.514853,0.8699657
C0R600,舊泰武,2026-04-13,22.588194,120.664944,0.48494834
466910,鞍部,2026-04-13,25.182586,121.529731,0.21426499
C1I230,九份二山,2026-04-13,23.961944,120.845,0.350599
C2M810,里佳,2026-04-13,23.389125,120.716647,0.041386317
C2A660,瑞芳,2026-04-13,25.113169,121.801147,0.9124401
C0R270,琉球嶼,2026-04-13,22.332244,120.362236,0.941009
C2V580,瑞山,2026-04-13,22.90304,120.43424,0.9347635
C1T990,高寮,2026-04-13,23.394239,121.356808,0.6986255
C0G620,芬園,2026-04-13,24.015678,120.6213,0.75241745
C1Z140,荖溪,2026-04-13,23.890575,121.45964,0.3920818
C1I201,中心崙,2026-04-13,23.728722,120.712097,0.33390692
C1I400,凌霄,2026-04-13,24.018778,121.004456,0.0022205664
C1M640,十字,2026-04-13,23.492153,120.753683,0.009838413
G2P820,農試鳳山分所,2026-04-13,22.646611,120.356083,0.9492595
C0Z270,蕃薯寮,2026-04-13,23.73835,121.540108,0.18374345
C2E420,竹南,2026-04-13,24.70898,120.88897,0.9734796
C2D480,打鐵坑,2026-04-13,24.849664,121.150789,0.7999844
C0FB10,出雲山苗圃,2026-04-13,24.23105,120.90475,0.27403498
C0F9Q0,外埔,2026-04-13,24.347817,120.705686,0.9864597
C0K580,高鐵雲林,2026-04-13,23.737456,120.417944,0.9963084
C2I090,鳳凰,2026-04-13,23.728081,120.787347,0.4556044
C0U990,員山,2026-04-13,24.74435,121.72247,0.38137645
C0V770,大社,2026-04-13,22.730306,120.346639,0.94957936
C0X120,麻豆,2026-04-13,23.183289,120.248611,0.98439014
C0C670,龍潭,2026-04-13,24.870056,121.221389,0.79374003
C0D680,香山濕地,2026-04-13,24.783581,120.914988,0.9428737
C0S980,勝林山,2026-04-13,22.430439,120.8938,0.10418802
C0V730,大寮,2026-04-13,22.605614,120.395717,0.9486712
C0R570,麟洛,2026-04-13,22.65078,120.52719,0.09835074
C2M930,石卓,2026-04-13,23.478744,120.702264,0.0107633555
C0G9B0,和美,2026-04-13,24.105169,120.492131,0.95296335
C2I240,外大坪,2026-04-13,23.9587,120.91788,0.4495444
CAG100,王功漁港,2026-04-13,23.96824,120.32586,0.99245757
C0X290,北門,2026-04-13,23.267772,120.125481,0.9912484
C2F930,大甲,2026-04-13,24.347667,120.640403,0.9975523
C0D650,湖口,2026-04-13,24.904794,121.043628,0.8997418
C0U780,五結,2026-04-13,24.68637,121.79794,0.87123656
C1I250,鯉潭,2026-04-13,23.961922,120.991131,0.43839827
C0R130,阿禮,2026-04-13,22.742908,120.743678,0.5134565
C0X100,臺南市北區,2026-04-13,23.010394,120.194228,0.98502547
C0S920,金峰嘉蘭,2026-04-13,22.594789,120.960825,0.9507055
C0V490,新興,2026-04-13,22.627422,120.298803,0.9542831
C0F9K0,大安,2026-04-13,24.345061,120.588025,0.9974962
467290,古坑,2026-04-13,23.633639,120.551889,0.9489089
C2E970,八甲,2026-04-13,24.535811,120.795983,0.94779813
C0V440,鳳山,2026-04-13,22.646653,120.356122,0.94925946
C1T940,大觀,2026-04-13,23.714206,121.373133,0.17776133
C0E740,造橋,2026-04-13,24.637056,120.864778,0.9167521
C0R100,尾寮山,2026-04-13,22.833111,120.683889,0.437043
A2K630,臺大雲林校區,2026-04-13,23.730628,120.423903,0.9964244
467990,馬祖,2026-04-13,26.169467,119.923158,0.0031416353
C0D580,寶山,2026-04-13,24.735006,121.025192,0.80797726
E2P990,林試扇平站,2026-04-13,22.9677,120.6857,0.16179231
C0AI30,三重,2026-04-13,25.057328,121.500629,0.8746337
C0AH00,汐止,2026-04-13,25.066881,121.658778,0.95979655
C1Z040,立山,2026-04-13,23.443356,121.327375,0.5735595
466881,新北,2026-04-13,24.959207,121.525196,0.9469015
C0W130,花嶼,2026-04-13,23.40007,119.32276,0.8463616
C0A950,鼻頭角,2026-04-13,25.129036,121.923372,0.9564752
C0K470,林內,2026-04-13,23.748675,120.609642,0.8417368
C2F990,摩天嶺,2026-04-13,24.322458,120.936819,0.26464108
C2E430,南庄,2026-04-13,24.601775,121.000214,0.8708611
82C160,茶改場,2026-04-13,24.908472,121.185333,0.84337455
C2TB60,南安,2026-04-13,23.29818,121.26157,0.5305975
C0Z320,清水林道,2026-04-13,23.27125,121.188272,0.4781666
C0R760,南仁湖,2026-04-13,22.084681,120.863353,0.5686689
C0M670,大林,2026-04-13,23.600616,120.45841,0.8348231
C0M800,茶山,2026-04-13,23.299075,120.664767,0.96116614
C0A9C0,天母,2026-04-13,25.117494,121.537169,0.9414968
72K220,南改斗南分場,2026-04-13,23.634556,120.477333,0.99296236
72AI40,桃改樹林分場,2026-04-13,24.944503,121.386972,0.9294217
C0S910,蘭嶼燈塔,2026-04-13,22.081197,121.503117,0.4165891
C0B050,八斗子,2026-04-13,25.144754,121.79167,0.9629509
C0U900,內城,2026-04-13,24.71813,121.68766,0.43334624
C0X320,柳營,2026-04-13,23.253328,120.375253,0.5152482
C0M790,新港,2026-04-13,23.553269,120.345728,0.9665252
C0F9T0,西屯,2026-04-13,24.179494,120.641275,0.9782481
C0E950,松安,2026-04-13,24.39792,120.98599,0.122663505
C0SA30,都歷,2026-04-13,23.020333,121.323642,0.6628872
C0C620,蘆竹,2026-04-13,25.084275,121.265767,0.8926854
C0R730,大坪頂,2026-04-13,22.024633,120.69355,0.66004384
C0AJ40,石門,2026-04-13,25.273672,121.601198,0.811335
C0E750,苗栗,2026-04-13,24.564569,120.824575,0.95091647
C0T870,鯉魚潭,2026-04-13,23.935639,121.508944,0.1916096
C1V170,排雲,2026-04-13,23.463619,120.954147,0.0006932674
C2H950,中寮,2026-04-13,23.884447,120.766406,0.95249575
C0R350,貓鼻頭,2026-04-13,21.921774,120.7358,0.69797575
C0V660,岡山,2026-04-13,22.797078,120.294958,0.950536
C1H941,雙冬,2026-04-13,23.967378,120.802189,0.54662985
C0AJ70,田寮,2026-04-13,25.2698,121.4886,0.9697005
C0AI00,五股,2026-04-13,25.07445,121.42728,0.60221523
C0Z280,德武,2026-04-13,23.47426,121.41071,0.58143157
C2RA10,大新,2026-04-13,22.67558,120.57788,0.91584486
C0R700,枋山,2026-04-13,22.246844,120.661086,0.90486926
C0C460,復興,2026-04-13,24.820208,121.352281,0.5303316
C2AA10,中八仙,2026-04-13,25.11576,121.49199,0.89328253
C2K300,鹿南,2026-04-13,23.63855,120.3636,0.9932033
E2H360,蓮華池,2026-04-13,23.918333,120.885278,0.5758876
C0M640,中埔,2026-04-13,23.42538,120.5229,0.9446015
C2C810,八德蔬果,2026-04-13,24.97858,121.28187,0.8285964
C2M9F0,安溪寮,2026-04-13,23.350334,120.208039,0.99137354
C0W140,金沙,2026-04-13,24.488292,118.408778,0.09710445
C2A540,四堵,2026-04-13,24.8926,121.745736,0.6505136
C0ACA0,新莊,2026-04-13,25.051478,121.446756,0.9311558
C0R220,潮州,2026-04-13,22.534361,120.54,0.9802389
U2HA40,臺大內茅埔,2026-04-13,23.689722,120.851117,0.9661898
467490,臺中,2026-04-13,24.145736,120.684075,0.77458113
C0UB60,明池,2026-04-13,24.650688,121.475277,0.03305825
C0U960,翠峰湖,2026-04-13,24.510856,121.608044,0.005303223
E2HA20,林試畢祿溪站,2026-04-13,24.226944,121.308522,0.0038279952
C2M9A0,大華,2026-04-13,23.4824,120.67491,0.104028076
C0V890,前鎮,2026-04-13,22.5718,120.3117,0.9394485
C1F941,雪嶺,2026-04-13,24.280586,121.026642,0.0011398373
C2H9E0,國姓南港,2026-04-13,23.911108,120.846556,0.039953835
C0AC80,文山,2026-04-13,25.00235,121.575728,0.9239359
C0F9R0,龍井,2026-04-13,24.184536,120.528972,0.8681569
C0M760,民雄,2026-04-13,23.551754,120.428457,0.8348231
C0UA40,西德山,2026-04-13,24.560647,121.752608,0.05090099
C2TA70,赤科坪,2026-04-13,23.39885,121.39168,0.06469525
C1T920,中興,2026-04-13,23.769503,121.498653,0.23559147
C0D550,雪霸,2026-04-13,24.526972,121.11605,0.015207448
C2F860,梨山,2026-04-13,24.247522,121.243669,0.0023880329
C0R320,車城,2026-04-13,22.0744,120.716247,0.7918804
C1S870,南美山,2026-04-13,23.15025,121.382333,0.80458856
C0B020,基隆嶼,2026-04-13,25.19141,121.78391,0.9620501
C1U501,牛鬥,2026-04-13,24.637836,121.573656,0.9647576
C0M730,嘉義市東區,2026-04-13,23.457673,120.460531,0.9126015
C2R990,泰武,2026-04-13,22.60686,120.69765,0.60181564
C0S700,知本,2026-04-13,22.684866,121.005642,0.67403597
C1N001,沙崙,2026-04-13,22.935472,120.309406,0.6225363
C0V760,橋頭,2026-04-13,22.757806,120.30575,0.94938475
C2V570,吉東,2026-04-13,22.85418,120.54539,0.46760774
C0G960,福寶,2026-04-13,24.0443,120.3814,0.8801195
C0X210,白河,2026-04-13,23.347466,120.414427,0.7786735
C0S810,東河,2026-04-13,22.972672,121.303986,0.6347984
C2R170,屏東,2026-04-13,22.66027,120.49403,0.09835074
C0R670,楓港,2026-04-13,22.190131,120.692156,0.86943173
C0FA50,霧峰,2026-04-13,24.0419,120.6995,0.42713487
C0UB10,蘇澳,2026-04-13,24.5969,121.8571,0.95086265
C0G950,防潮門,2026-04-13,24.1835,120.4871,0.9594453
C0M740,六腳,2026-04-13,23.492871,120.290625,0.9691377
C1R250,力里,2026-04-13,22.428117,120.629228,0.88525707
C0K330,虎尾,2026-04-13,23.719183,120.442036,0.9962528
C2FA00,烏石坑,2026-04-13,24.273503,120.947617,0.27270362
C0V620,永安,2026-04-13,22.82315,120.236856,0.95015806
C1I330,楓樹林,2026-04-13,23.986803,121.076117,0.0066555194
C0W200,湖西,2026-04-13,23.596314,119.67275,0.9064746
72Q010,高雄農改場,2026-04-13,22.709333,120.525889,0.16775218
C0C680,龜山,2026-04-13,25.02846,121.38656,0.4843152
C2V260,月眉,2026-04-13,22.971003,120.539853,0.8736821
C0V450,鳳森,2026-04-13,22.545064,120.392592,0.89926594
C0FA90,小雪山林道,2026-04-13,24.29515,121.03651,0.00053604314
C0U720,南山,2026-04-13,24.43742,121.38167,0.41479006
A2N290,臺南蘭花園區,2026-04-13,23.340258,120.379661,0.68026423
C0R560,新園,2026-04-13,22.5434,120.461558,0.89435065
C0U890,三星,2026-04-13,24.66812,121.65302,0.344475
C1V300,御油山,2026-04-13,23.001983,120.715364,0.010965766
C0U600,礁溪,2026-04-13,24.817539,121.765608,0.13798092
C1T980,龍澗,2026-04-13,24.023289,121.411328,0.01899903
C0D670,海天一線,2026-04-13,24.831986,120.914438,0.918171
C0SA00,歷坵,2026-04-13,22.520969,120.89185,0.8089472
C0M710,東石,2026-04-13,23.458927,120.15385,0.9876541
C0M780,鹿草,2026-04-13,23.41134,120.30835,0.9758667
C0U520,雙連埤,2026-04-13,24.753033,121.641303,0.24869423
C0B010,七堵,2026-04-13,25.094819,121.71713,0.9610098
C0R480,長治,2026-04-13,22.693128,120.542622,0.86192405
C1V830,國三S383K,2026-04-13,22.781967,120.426475,0.63562226
12Q980,恆春工作站,2026-04-13,22.079678,120.714425,0.7918804
C1O940,東山服務區,2026-04-13,23.286016,120.398472,0.68498224
C1U840,東澳嶺,2026-04-13,24.5378,121.8485,0.18303163
C1D630,飛鳳山,2026-04-13,24.766464,121.119178,0.71610016
C0S940,石寧山,2026-04-13,23.223772,121.406639,0.9367595
C0K410,北港,2026-04-13,23.573957,120.292802,0.9811986
C2M620,瑞里,2026-04-13,23.545133,120.675197,0.12292618
C0SB70,小港漁港,2026-04-13,23.158558,121.400431,0.97681266
C2O950,安南,2026-04-13,23.076694,120.144861,0.98858947
C0F0E0,南湖圈谷,2026-04-13,24.363714,121.444667,0.0005487676
467610,成功,2026-04-13,23.097486,121.373428,0.95890784
C0G890,伸港,2026-04-13,24.148933,120.484403,0.96051764
C2E540,龍溪,2026-04-13,24.606489,120.783933,0.95597017
C1V200,梅山,2026-04-13,23.268447,120.823556,0.46157986
C0T9H0,加路蘭山,2026-04-13,23.682947,121.5274,0.095620036
C2O930,玉井,2026-04-13,23.126042,120.46055,0.90243447
C1F911,新伯公,2026-04-13,24.221361,120.841069,0.9560267
C0X200,左鎮,2026-04-13,23.056758,120.408522,0.69837135
C2TB50,麻汝,2026-04-13,23.42554,121.39358,0.58102155
C0FA60,鞍馬山工作站,2026-04-13,24.267064,121.000793,0.0037846933
C0SB50,叭嗡嗡,2026-04-13,23.047062,121.343223,0.95755994
C2R550,新埤,2026-04-13,22.467947,120.582894,0.8834997
C1F891,稍來,2026-04-13,24.265689,121.001142,0.0051966626
C2M9C0,紫雲,2026-04-13,23.494914,120.540253,0.905965
72N240,七股研究中心,2026-04-13,23.081672,120.062894,0.98777175
C0C700,中壢,2026-04-13,24.977661,121.256375,0.8541919
C0M690,水上,2026-04-13,23.419734,120.388909,0.9287183
C0V690,鼓山,2026-04-13,22.623325,120.275575,0.9542831
C0O860,大內,2026-04-13,23.11885,120.36083,0.39666834
C0Z200,萬榮,2026-04-13,23.709219,121.420106,0.13924532
C0T9D0,和中,2026-04-13,24.26676,121.74103,0.87236315
C2S9A0,北份子寮,2026-04-13,22.78561,121.07813,0.6609916
C1O921,楠西,2026-04-13,23.183511,120.484083,0.90991735
C0AJ30,淡水觀海,2026-04-13,25.184591,121.408616,0.9667131
C0V810,左營,2026-04-13,22.67491,120.28491,0.9550114
C0UA70,桃源谷,2026-04-13,24.962606,121.888875,0.44310462
C0X130,官田,2026-04-13,23.193217,120.315422,0.41038555
C1H000,翠峰,2026-04-13,24.109397,121.205211,0.0016177002
C0UA90,石城,2026-04-13,24.980444,121.951214,0.8935331
C1E681,南勢山,2026-04-13,24.421669,120.923831,0.3851041
C0A9F0,內湖,2026-04-13,25.079422,121.57545,0.94817185
C0K291,宜梧,2026-04-13,23.536281,120.169329,0.9850529
C1K540,口湖,2026-04-13,23.585344,120.180517,0.9793062
C0R780,滿州,2026-04-13,22.024403,120.839892,0.6846825
C0V870,文安,2026-04-13,22.8025,120.2164,0.9474163
C0U650,玉蘭,2026-04-13,24.675286,121.587061,0.41124326
C0R640,東港,2026-04-13,22.46247,120.44074,0.9156205
C0AJ80,板橋,2026-04-13,25.0107,121.4489,0.9457558
C0S660,下馬,2026-04-13,23.150427,121.070312,0.4001712
C2N190,烏樹,2026-04-13,23.32393,120.36989,0.6167662
C1H9B1,阿眉,2026-04-13,24.1263,120.994672,0.050939064
C0UA20,多加屯,2026-04-13,24.368614,121.373189,0.0011887986
C0E730,頭份,2026-04-13,24.688247,120.912206,0.9709355
72V140,高改旗南分場,2026-04-13,22.857861,120.516667,0.9139744
C2R490,九如,2026-04-13,22.74049,120.490555,0.16775218
C0K480,莿桐,2026-04-13,23.761192,120.502372,0.99279475
C0U980,坪林石牌,2026-04-13,24.86478,121.77396,0.40885335
C0T900,西林,2026-04-13,23.8119,121.441458,0.12041813
C1I150,青雲,2026-04-13,23.793361,120.949378,0.69043016
C2E980,和興,2026-04-13,24.505319,120.923016,0.82148373
467350,澎湖,2026-04-13,23.565503,119.563094,0.8902682
C0G800,埔鹽,2026-04-13,24.000394,120.431683,0.90814537
C0H960,草屯,2026-04-13,23.973672,120.68085,0.5943783
C1V780,多納林道,2026-04-13,22.888028,120.737917,0.06731791
C0E920,通霄漁港,2026-04-13,24.498589,120.673876,0.95586497
C0Z330,安通山,2026-04-13,23.290728,121.348528,0.31969067
C0AH10,永和,2026-04-13,25.01125,121.508111,0.94602615
C0AK10,太平里,2026-04-13,25.134937,121.364899,0.86560154
C2G640,鹿港,2026-04-13,24.0753,120.430481,0.9443012
C1E890,國三N149K,2026-04-13,24.463414,120.680019,0.95710003
C1R110,口社,2026-04-13,22.770111,120.645222,0.8631767
C1M870,國三N285K,2026-04-13,23.550319,120.505833,0.91093546
C1E480,鳳美,2026-04-13,24.554803,121.034747,0.8210291
C0T9M0,靜浦,2026-04-13,23.455167,121.495028,0.62354624
C2H9M0,發祥,2026-04-13,24.154094,121.164517,0.06393073
C2G9C0,埔南,2026-04-13,23.99124,120.46969,0.89136386
C0AI40,石牌,2026-04-13,25.115597,121.513139,0.94817185
C1F871,上谷關,2026-04-13,24.203483,121.018644,0.27270362
C2H9G0,百勝,2026-04-13,24.051142,120.909361,0.57990044
C0G880,二水,2026-04-13,23.810742,120.6173,0.76133764
C0R940,加祿堂,2026-04-13,22.3363,120.6217,0.8797283
C0W220,北竿,2026-04-13,26.220358,119.974881,0.0034410541
C0O960,崎頂,2026-04-13,22.959547,120.369317,0.68110037
C0TA40,秀林,2026-04-13,24.302864,121.731144,0.22023644
C0S750,向陽,2026-04-13,23.248397,120.986133,0.0042265193
C0T9F0,水璉,2026-04-13,23.797131,121.542514,0.1427408
C1M600,頭凍,2026-04-13,23.406364,120.603339,0.124352135
467660,臺東,2026-04-13,22.752211,121.154586,0.7831784
C1D380,新埔,2026-04-13,24.84745,121.03834,0.9376687
C2G980,田頭村,2026-04-13,23.8263,120.444175,0.99301904
C0V750,路竹,2026-04-13,22.854997,120.259439,0.95123583
C0N050,蚵寮,2026-04-13,23.301,120.1104,0.9912484
C2X060,下營,2026-04-13,23.226806,120.256291,0.9495798
72M700,南改鹿草分場,2026-04-13,23.416869,120.283061,0.9749235
C1SA50,利嘉林道,2026-04-13,22.82325,121.009389,0.111152984
C0UB70,太平山中間站,2026-04-13,24.542003,121.513453,0.16105978
C0A940,金山,2026-04-13,25.223628,121.643967,0.97280747
C1V340,大津,2026-04-13,22.888322,120.645986,0.91085863
C0W180,七美,2026-04-13,23.219333,119.444892,0.940665
C1F9C1,白冷,2026-04-13,24.182844,120.929889,0.5153294
K2E710,苗改生物防治研究中心,2026-04-13,24.422861,120.871833,0.9169534
C0N040,蘆竹溝,2026-04-13,23.2344,120.0961,0.99126387
C0TB40,崇德,2026-04-13,24.166144,121.657414,0.8739091
C0D760,大坪苗圃,2026-04-13,24.5362,121.1108,0.101613216
C2D430,峨眉,2026-04-13,24.6905,121.017189,0.9657751
C2W230,畜試所澎湖,2026-04-13,23.628342,119.513206,0.90638435
C0R880,後壁湖,2026-04-13,21.9457,120.7457,0.70929104
C1I280,埔中,2026-04-13,23.820778,120.642594,0.62869734
467790,墾丁雷達站,2026-04-13,21.948235,120.808028,0.6821081
C0W190,望安,2026-04-13,23.380564,119.494075,0.8883213
C0Z170,卓溪,2026-04-13,23.3443,121.3029,0.5869332
C0F850,東勢,2026-04-13,24.246428,120.833047,0.9816085
466900,淡水,2026-04-13,25.164889,121.448906,0.97137994
C0I370,魚池,2026-04-13,23.895703,120.94135,0.50377625
C0C630,大溪,2026-04-13,24.882853,121.265547,0.79605925
C0A520,山佳,2026-04-13,24.974944,121.402008,0.9531406
C0I110,竹山,2026-04-13,23.761225,120.688156,0.9039172
82H840,茶改南部分場,2026-04-13,23.762528,120.7405,0.8985638
C2SD80,再來山,2026-04-13,23.34371,121.44122,0.44617277
C0G660,溪湖,2026-04-13,23.94835,120.479122,0.9558308
C1T800,洛韶,2026-04-13,24.204558,121.453956,0.041505985
C1T810,慈恩,2026-04-13,24.192044,121.388386,0.0074133547
C1E451,象鼻,2026-04-13,24.368617,120.940228,0.38510394
C0AC60,三峽,2026-04-13,24.939025,121.369728,0.9343993
C0I490,萬大林道,2026-04-13,23.928228,121.091411,0.0010499811
C1I290,豐丘,2026-04-13,23.668178,120.887417,0.22883582
C1I320,奧萬大,2026-04-13,23.952956,121.178556,0.009161381
C2M910,嘉義大學,2026-04-13,23.471325,120.485903,0.9214517
C0U770,南澳,2026-04-13,24.44935,121.81022,0.93845576
C2TB30,吉安,2026-04-13,23.94538,121.54803,0.45251957
C0A980,社子,2026-04-13,25.109508,121.469681,0.97844136
C0V800,六龜,2026-04-13,22.997889,120.633583,0.92389315
C1G9D0,國一S218K,2026-04-13,23.890641,120.493253,0.98970944
C0E570,白沙屯,2026-04-13,24.549447,120.696803,0.94896084
C2F9A0,中竹林,2026-04-13,24.103556,120.751061,0.7757644
C0FA40,臺中電廠,2026-04-13,24.2146,120.4907,0.6487908
C2G9A0,畜試所彰化,2026-04-13,23.86045,120.557964,0.7756134
C0H9C0,合歡山,2026-04-13,24.143442,121.272547,0.0004181098
G2M350,農試溪口農場,2026-04-13,23.58565,120.408111,0.8261015
C0U860,頭城,2026-04-13,24.85323,121.8308,0.6134769
C0R580,南州,2026-04-13,22.48591,120.50274,0.88705343
C0G780,秀水,2026-04-13,24.03405,120.503869,0.8556188
72N100,臺南農改場,2026-04-13,23.0605,120.342194,0.5071715
C0S900,蘭嶼高中,2026-04-13,22.04909,121.51214,0.4847619
C2TA60,六十石,2026-04-13,23.22477,121.31861,0.12423654
C1F9W0,德基,2026-04-13,24.254783,121.190261,0.012217475
C2M980,安和,2026-04-13,23.51377,120.31593,0.9691377
C1Z120,壽豐,2026-04-13,23.870853,121.508081,0.5980361
C0W160,烏坵,2026-04-13,24.9944,119.44956,0.009794219
C1I550,國六W023K,2026-04-13,23.979067,120.867742,0.6801174
C0R870,興海,2026-04-13,21.9752,120.8439,0.67535216
C0R140,瑪家,2026-04-13,22.682903,120.686639,0.6664829
C0A530,坪林,2026-04-13,24.938183,121.70975,0.5232955
C0X260,後壁,2026-04-13,23.366358,120.362326,0.8511129
C0Z230,和平,2026-04-13,24.30717,121.77007,0.9089025
C0G770,福興,2026-04-13,24.041289,120.437669,0.90814537
C0H9A0,神木村,2026-04-13,23.532742,120.843667,0.040138032
C0I460,南投,2026-04-13,23.911469,120.687331,0.5891725
C0I480,梅峰,2026-04-13,24.085272,121.173572,0.0021380729
C2D770,巨埔,2026-04-13,24.84435,121.11442,0.9100167
C2A560,福山,2026-04-13,24.776203,121.502811,0.46600905
C0AH30,五分山,2026-04-13,25.07125,121.780794,0.14909494
C0FA10,松柏,2026-04-13,24.429115,120.617482,0.9842001
72S200,東改班鳩分場,2026-04-13,22.829528,121.077694,0.73459065
72HA00,中改埔里分場,2026-04-13,23.903208,120.963364,0.5272608
C2H9W0,大坪頂農水,2026-04-13,24.043122,120.932781,0.5844746
C0C650,平鎮,2026-04-13,24.897503,121.214636,0.78270143
C0S930,延平,2026-04-13,22.902581,121.084058,0.6471038
C0UA60,樟樹山,2026-04-13,24.41393,121.78325,0.044901095
C2UC10,出水溪,2026-04-13,24.615822,121.652253,0.44140106
C1S670,摩天,2026-04-13,23.199503,121.027,0.02381769
C2C590,觀音,2026-04-13,25.027072,121.153317,0.81617904
C0V630,茄萣,2026-04-13,22.906642,120.182608,0.9801974
466940,基隆,2026-04-13,25.133314,121.740475,0.9630844
C0X050,東河,2026-04-13,23.296598,120.385608,0.68026423
C0R770,保力,2026-04-13,22.071122,120.764111,0.7044589
G2L020,農試嘉義分所,2026-04-13,23.485028,120.473806,0.92319345
C0X240,關子嶺,2026-04-13,23.331169,120.508025,0.97602797
C0I380,集集,2026-04-13,23.828206,120.801467,0.92369384
466990,花蓮,2026-04-13,23.975128,121.613275,0.72024554
C1V220,小關山,2026-04-13,23.154217,120.813603,0.00486988
C1F9G1,慶福山,2026-04-13,24.180853,120.848378,0.3852988
C0FB20,雪山橋,2026-04-13,24.23192,120.9786,0.007309436
C0Z250,瑞穗林道,2026-04-13,23.49284,121.30688,0.41695088
C0D590,新豐,2026-04-13,24.87068,120.97721,0.9076615
C2N200,口宵里,2026-04-13,23.15987,120.45988,0.9771461
C0A870,五指山,2026-04-13,25.132153,121.608692,0.14426835
C0UA50,西帽山,2026-04-13,24.555361,121.802628,0.19002606
C2R980,竹田國中,2026-04-13,22.61532,120.52412,0.96998876
C0X160,仁德,2026-04-13,22.968258,120.257689,0.96983486
C1H971,六分寮,2026-04-13,23.92507,120.6378,0.88583344
C2D790,石鹿,2026-04-13,24.56551,121.15841,0.038914908
C0W120,西嶼,2026-04-13,23.5626,119.468436,0.9429392
C0G650,員林,2026-04-13,23.946503,120.585597,0.6339175
C0AD50,鶯歌,2026-04-13,24.951533,121.346294,0.9433543
C2H9Q0,北東眼山,2026-04-13,24.120939,121.189303,0.0028038106
C2H9T0,名間竹圍,2026-04-13,23.859914,120.637572,0.9652365
C0S990,山豬窟,2026-04-13,22.318619,120.857372,0.7409907
C0X190,安平,2026-04-13,22.993161,120.152181,0.98500067
C0K400,斗六,2026-04-13,23.720583,120.541127,0.99293983
12J990,口湖工作站,2026-04-13,23.589978,120.180394,0.9793062
C0O830,北寮,2026-04-13,23.079561,120.495008,0.9742229
C1D410,白蘭,2026-04-13,24.579364,121.079947,0.19783674
C0S970,加津林,2026-04-13,22.416211,120.926942,0.50808
C0D700,關西,2026-04-13,24.7977,121.1732,0.97815686
C0U750,龜山島,2026-04-13,24.841667,121.953133,0.5446962
C0R810,內獅,2026-04-13,22.305064,120.642986,0.90486926
C2EA10,拉庫斯,2026-04-13,24.53637,121.02137,0.2897356
C1M390,龍美,2026-04-13,23.406728,120.654417,0.16146053
C2K290,崙內,2026-04-13,23.69525,120.35601,0.9932033
C2FB60,頭櫃山,2026-04-13,24.129842,120.858925,0.14701867
C1H840,國三N238K,2026-04-13,23.841008,120.707711,0.9638097
CAQ030,崎峰國小,2026-04-13,22.42565,120.49521,0.88705343
C2E520,大湖,2026-04-13,24.414939,120.870872,0.91438484
467530,阿里山,2026-04-13,23.508208,120.813242,0.0005071467
C1E691,南湖,2026-04-13,24.40135,120.837533,0.52300894
C0FA30,梧棲,2026-04-13,24.256003,120.523381,0.8681569
C1V231,高中,2026-04-13,23.134911,120.716711,0.45969793
C0AK30,硬漢嶺,2026-04-13,25.136097,121.426372,0.40393966
C0F9V0,新社,2026-04-13,24.200172,120.815806,0.84786886
C0H890,埔里,2026-04-13,23.972169,120.952425,0.6937279
C0R690,墾丁,2026-04-13,21.966756,120.810269,0.45732778
C0SD20,富山,2026-04-13,22.822383,121.190825,0.9101238
C0F0D0,審馬陣,2026-04-13,24.381675,121.4203,0.0008327577
C2W030,金門農試所,2026-04-13,24.448431,118.451786,0.088567145
C0R820,白鷺,2026-04-13,22.454275,120.666219,0.84353983
C0FB00,大雪山,2026-04-13,24.254668,121.007374,0.0036756857
C2O880,南化,2026-04-13,23.17332,120.59413,0.9759795
C1V190,南天池,2026-04-13,23.27403,120.91176,0.0020061466
C0E940,雪見,2026-04-13,24.42595,121.01347,0.0063423985
K2E360,苗栗農改場,2026-04-13,24.495722,120.829111,0.9518436
CAJ050,海口故事園區,2026-04-13,23.57543,120.14121,0.9793062
C2K280,四湖,2026-04-13,23.6304,120.22717,0.9881707
C2H9D0,三隻寮,2026-04-13,24.093078,120.861578,0.27944195
C0O990,媽廟,2026-04-13,22.99175,120.293525,0.93532956
C0Z220,和平林道,2026-04-13,24.343922,121.656317,0.029309034
C0TA10,花蓮漁港,2026-04-13,23.995322,121.638331,0.7185981
72C440,桃園農改場,2026-04-13,24.950944,121.030583,0.9031579
C1E711,馬拉邦山,2026-04-13,24.367306,120.901656,0.30319792
C0SB20,富岡,2026-04-13,22.792467,121.192669,0.90541667
C0D560,竹東,2026-04-13,24.767147,121.057881,0.79935575
C0F9U0,南屯,2026-04-13,24.137006,120.637969,0.89969635
C2SD60,明峰,2026-04-13,22.8671,121.11825,0.7123293
C0M720,番路,2026-04-13,23.464657,120.554156,0.96280086
C0F0A0,雪山圈谷,2026-04-13,24.388594,121.236339,0.00071821216
C1A9N0,四十份,2026-04-13,24.934158,121.593283,0.55307525
C0U760,東澳,2026-04-13,24.52196,121.83318,0.9384115
C0X230,鹽水,2026-04-13,23.272621,120.247641,0.99137354
C2H9H0,苗改南投蜂場,2026-04-13,23.852589,120.693481,0.90490365
C2TB70,達谷寮,2026-04-13,23.38,121.35968,0.46017545
C0R950,萬隆國小,2026-04-13,22.507667,120.587817,0.885961
467540,大武,2026-04-13,22.35572,120.90374,0.871534
C0V370,古亭坑,2026-04-13,22.893178,120.401947,0.9318257
C1I340,新興橋,2026-04-13,23.563333,120.868728,0.51391286
C2C480,桃園,2026-04-13,24.992425,121.323172,0.8285964
C0SA80,土坂,2026-04-13,22.453108,120.887572,0.86849815
C0R160,鹽埔,2026-04-13,22.739558,120.530778,0.16775201
C0AC40,大屯山,2026-04-13,25.175675,121.522408,0.044922803
466850,五分山雷達站,2026-04-13,25.071182,121.781205,0.14254105
C2H9L0,馬烈霸,2026-04-13,24.1512,121.201772,0.002703055
C1AI50,國三N016K,2026-04-13,25.034164,121.619664,0.7073651
C2V920,匏子寮,2026-04-13,23.04905,120.55319,0.96780586
C1V600,藤枝,2026-04-13,23.071961,120.757042,0.017994078
C1E601,南勢,2026-04-13,24.572486,120.734842,0.94955933
C0O980,新市,2026-04-13,23.061614,120.298197,0.49517962
C0K420,西螺,2026-04-13,23.800407,120.467394,0.99300843
C0Z050,佳心,2026-04-13,23.34567,121.21316,0.21874404
C0AD30,蘆洲,2026-04-13,25.086594,121.472331,0.9606158
C0V610,梓官,2026-04-13,22.760558,120.267211,0.9497808
K2F750,種苗改良場,2026-04-13,24.225972,120.800917,0.7943603
C0UA80,大溪漁港,2026-04-13,24.941801,121.902955,0.9719717
C1AI60,國一39K邊坡,2026-04-13,25.064361,121.383836,0.55276245
C0W150,金寧,2026-04-13,24.457703,118.328989,0.101261206
C0R960,內埔,2026-04-13,22.608483,120.570714,0.9704205
C2H9S0,龍南,2026-04-13,23.953536,120.833183,0.14803064
C0AH40,平等,2026-04-13,25.129142,121.577086,0.47143695
C0R540,佳冬,2026-04-13,22.419456,120.552375,0.9252587
466950,彭佳嶼,2026-04-13,25.627975,122.079744,0.23231098
C0A890,雙溪,2026-04-13,25.036003,121.864242,0.96597236
C0AH50,林口,2026-04-13,25.072181,121.38084,0.518004
A2K360,水試臺西試驗場,2026-04-13,23.717231,120.190522,0.9864886
C2M960,外寮,2026-04-13,23.562643,120.665688,0.19944586
C0F9S0,烏日,2026-04-13,24.107058,120.624103,0.8623864
C2N180,鹿陶洋,2026-04-13,23.14325,120.48352,0.90991735
C0C490,八德,2026-04-13,24.928708,121.283289,0.7979445
C0R190,赤山,2026-04-13,22.592333,120.614306,0.97806484
C0T820,天祥,2026-04-13,24.179597,121.495639,0.7062732
C1F9E1,龍安,2026-04-13,24.1605,120.831961,0.7555921
C2SD50,順那,2026-04-13,23.04166,121.29332,0.5784677
C0V820,小林,2026-04-13,23.148408,120.63325,0.84175986
C2G870,芳苑,2026-04-13,23.922303,120.320025,0.9926173
C0E850,大河,2026-04-13,24.618069,120.948578,0.7268117
C1U670,寒溪,2026-04-13,24.634,121.71691,0.35385302
C0N020,城西,2026-04-13,23.0568,120.0956,0.9882452
C1Z110,三棧,2026-04-13,24.11557,121.60501,0.4823431
C0R280,檳榔,2026-04-13,22.076078,120.836777,0.6281568
C2H9J0,中台,2026-04-13,23.9996,120.938739,0.58689076
C0F9L0,后里,2026-04-13,24.310436,120.729725,0.9902993
467441,高雄,2026-04-13,22.730432,120.312516,0.94733095
C2N210,岩坑,2026-04-13,23.24614,120.47458,0.9782738
C0Z180,新城,2026-04-13,24.040486,121.604878,0.82500553
C0D540,橫山,2026-04-13,24.71116,121.11693,0.8880932
C1D420,太閣南,2026-04-13,24.632808,121.160575,0.21657616
C1E770,公館,2026-04-13,24.526914,120.830806,0.95606697
CAN130,水試所海水繁養殖中心,2026-04-13,23.120802,120.07968,0.98777175
C1I430,翠華,2026-04-13,24.191961,121.224339,0.0013553526
C1M400,菜瓜坪,2026-04-13,23.251928,120.576103,0.7801501
C0G730,二林,2026-04-13,23.903325,120.376081,0.99230915
72M360,南改義竹分場,2026-04-13,23.360694,120.279361,0.9892444
V2K620,麥寮合作社,2026-04-13,23.753836,120.294783,0.9959887
C0Z070,舞鶴,2026-04-13,23.46811,121.37407,0.51850516
C0B040,大武崙,2026-04-13,25.166676,121.706993,0.9310691
C1Z030,紅葉,2026-04-13,23.493119,121.338806,0.56152934
C1I050,丹大,2026-04-13,23.753747,121.141147,0.0024074959
467290,古坑,2026-04-13,23.380729,120.336861,0.84013146
C0I080,信義,2026-04-13,23.689694,120.851036,0.97472525
C2TB80,庄子底,2026-04-13,23.71794,121.49438,0.19194858
C0D750,樂山林道6k,2026-04-13,24.49999,121.08773,0.0032677988
C2M920,朴子農改,2026-04-13,23.469889,120.259383,0.9743852
C2A880,福隆,2026-04-13,25.017842,121.942083,0.9114226
C0Z160,鳳林,2026-04-13,23.746114,121.453411,0.1700054
C0UB80,翠峰林道6K,2026-04-13,24.49773,121.568625,0.0029694836
C0V210,復興,2026-04-13,23.222403,120.806089,0.29615697
C0H990,昆陽,2026-04-13,24.121322,121.273642,0.0004998199
C0R741,獅子,2026-04-13,22.202308,120.705236,0.90938145
C0S710,鹿野,2026-04-13,22.917711,121.122994,0.37094063
C0I530,小奇萊,2026-04-13,24.131764,121.295717,0.00047163118
C0FA70,大雪山埡口,2026-04-13,24.26867,121.03062,0.0010327391
C2K630,荷苞,2026-04-13,23.657717,120.595144,0.97234577
C0Z080,富源,2026-04-13,23.587642,121.378225,0.32190707
C2M9E0,旺來山,2026-04-13,23.555153,120.486463,0.9136736
C0SB10,美和,2026-04-13,22.682078,121.060236,0.72921324
C2K620,馬光農場,2026-04-13,23.721453,120.378864,0.9964763
C1I140,卡奈托灣,2026-04-13,23.754364,121.087872,0.009332174
C0I520,玉山風口,2026-04-13,23.470489,120.955994,0.00056091795
C1G691,下水埔,2026-04-13,23.816114,120.5676,0.9790418
C0X110,臺南市南區,2026-04-13,22.961189,120.188378,0.9701094
C0V680,仁武,2026-04-13,22.701083,120.347722,0.94957936
C2G840,北斗,2026-04-13,23.877586,120.514222,0.98982745
C2TB90,長橋,2026-04-13,23.6874,121.46186,0.16254531
C0R900,竹坑,2026-04-13,22.1385,120.7022,0.86943173
C0G860,社頭,2026-04-13,23.897647,120.5862,0.68518245
C0X150,安定,2026-04-13,23.102614,120.227839,0.9821451
C0R590,里港,2026-04-13,22.77919,120.49459,0.63580257
C0E610,馬都安,2026-04-13,24.451272,120.930192,0.5471854
C0E550,明德,2026-04-13,24.583486,120.885411,0.20952655
C0R150,三地門,2026-04-13,22.709889,120.639944,0.9289961
C0G910,花壇,2026-04-13,24.032076,120.549461,0.8578016
C1D400,鳥嘴山,2026-04-13,24.71909,121.28387,0.4492848
C0K500,元長,2026-04-13,23.64981,120.315024,0.99535275
C0F0B0,石岡,2026-04-13,24.276061,120.777644,0.99006677
C2V250,甲仙,2026-04-13,23.080106,120.591758,0.9748526
C0SA20,金崙山,2026-04-13,22.567419,120.959667,0.15608335
C0V350,溪埔,2026-04-13,22.738578,120.446797,0.56446224
C0M660,溪口,2026-04-13,23.604131,120.403569,0.8261015
C1S880,壽卡,2026-04-13,22.238911,120.858903,0.6970895
72D680,桃改新埔分場,2026-04-13,24.834444,121.066111,0.93843883
