站號,站名,日期,lat,lon,BLBTSLS
C0R710,龍磐,2026-07-25,21.931672,120.838942,0.0054850383
C1F9D1,白毛台,2026-07-25,24.158325,120.886933,0.00030112264
C0G940,竹塘,2026-07-25,23.848253,120.386764,0.033276435
467590,恆春,2026-07-25,22.003897,120.746339,0.010936359
C0U710,太平山,2026-07-25,24.505486,121.525656,1.4609253e-08
C0E820,獅潭,2026-07-25,24.539133,120.920042,0.99768317
C2SD70,二層坪,2026-07-25,22.94105,121.16838,0.9806715
C0V880,興達,2026-07-25,22.8778,120.2127,0.014031551
C0SB30,新蘭,2026-07-25,22.869214,121.223228,0.26265645
C2R970,屏科大,2026-07-25,22.648275,120.619247,0.028115667
C1Z130,銅門,2026-07-25,23.965694,121.492842,0.18836074
C0AD40,土城,2026-07-25,24.973208,121.445169,0.25474158
CAN140,六官養殖協會,2026-07-25,23.22881,120.29962,0.025623634
C0X180,山上,2026-07-25,23.0757,120.363253,0.43456262
C0F9Z0,雪山東峰,2026-07-25,24.388792,121.268675,7.4765785e-09
C1M480,獨立山,2026-07-25,23.537022,120.607797,7.198878e-07
C0X220,學甲,2026-07-25,23.230367,120.182187,0.018299054
467650,日月潭,2026-07-25,23.881325,120.90805,8.614985e-08
A2K570,古坑(花卉中心),2026-07-25,23.633531,120.552392,0.033174347
C0K600,箔子寮,2026-07-25,23.6197,120.14,0.009992708
C0G830,埤頭,2026-07-25,23.866003,120.452806,0.043855496
C0S950,七塊厝,2026-07-25,22.954453,121.229922,0.9983748
467110,金門,2026-07-25,24.407306,118.289281,0.058147654
C0AH80,深坑,2026-07-25,25.002703,121.628328,0.15260711
C0A970,三貂角,2026-07-25,25.007606,122.002058,0.06867861
C2D730,寶山農場,2026-07-25,24.732444,120.976153,0.9913519
C0K430,褒忠,2026-07-25,23.690938,120.303634,0.022865979
467480,嘉義,2026-07-25,23.495925,120.432906,0.027110996
C0V400,阿公店,2026-07-25,22.804194,120.355528,0.12224562
C2S800,華源,2026-07-25,22.65783,121.0232,0.5530336
C2SA40,瑞和,2026-07-25,22.974361,121.156697,0.97842085
C0E960,觀霧分站,2026-07-25,24.505781,121.113921,9.405657e-09
467550,玉山,2026-07-25,23.48718,120.95943,1.4464382e-08
C0R440,大漢山,2026-07-25,22.405264,120.753181,3.1296399e-09
C0SD30,東清國小,2026-07-25,22.057128,121.564922,0.016967246
C1F9B1,桐林,2026-07-25,24.066172,120.735194,0.8417816
C2I210,蘆竹湳,2026-07-25,23.93398,120.81209,0.016255127
C2H9U0,鳳鵬,2026-07-25,23.763919,120.788061,0.090723425
C0K390,土庫,2026-07-25,23.679029,120.395574,0.081708804
C1I450,望鄉山,2026-07-25,23.594153,120.944286,6.848055e-09
C0E910,海埔,2026-07-25,24.648767,120.772435,0.9966196
B2E890,畜試北區分所,2026-07-25,24.527806,120.770972,0.9545116
C0R750,四林格山,2026-07-25,22.076989,120.802439,6.7839274e-08
C0F0C0,中坑,2026-07-25,24.248517,120.903319,2.1357108e-07
C1I121,大鞍,2026-07-25,23.678381,120.760017,1.5181778e-08
C2G9E0,移民庄,2026-07-25,23.9784,120.40283,0.011798507
72U480,花改蘭陽分場,2026-07-25,24.686306,121.716583,0.08691278
C0A770,科教館,2026-07-25,25.096356,121.516507,0.53913915
C0AJ60,六塊厝,2026-07-25,25.24,121.4481,0.42911008
C0R620,墾雷,2026-07-25,21.900836,120.855269,0.023899792
467290,古坑,2026-07-25,23.633536,120.551906,0.033174317
467420,永康,2026-07-25,23.038386,120.2367,0.03012671
C2M530,奮起湖,2026-07-25,23.493903,120.699253,8.368852e-09
C0I410,名間,2026-07-25,23.837053,120.701447,0.82170117
A2C560,農工中心,2026-07-25,24.985917,121.239833,0.95449877
C0V740,旗山,2026-07-25,22.888614,120.483597,0.06908237
C0Z061,玉里,2026-07-25,23.3215,121.339656,0.22784884
C0S840,南田,2026-07-25,22.279725,120.889208,0.99692535
C1I470,杉林溪,2026-07-25,23.639517,120.786444,7.679558e-09
C1X040,東原,2026-07-25,23.291597,120.463822,0.6523661
C0R660,枋寮,2026-07-25,22.367722,120.590647,0.010890107
C0K450,大埤,2026-07-25,23.646074,120.431537,0.050794695
C0UA00,土場,2026-07-25,24.576533,121.495333,0.7292404
467080,宜蘭,2026-07-25,24.763975,121.756528,0.106890626
C0N030,四草,2026-07-25,23.0235,120.1116,0.06965901
467410,臺南,2026-07-25,22.99328,120.20492,0.036264293
C0V650,彌陀,2026-07-25,22.783806,120.246361,0.022815768
C0D660,新竹市東區,2026-07-25,24.798681,120.986942,0.9953136
82S580,茶改東部分場,2026-07-25,22.907694,121.130139,0.875234
C0SB40,興隆,2026-07-25,22.913661,121.257469,0.33256677
467050,新屋,2026-07-25,25.006725,121.047492,0.9911825
C0C710,大溪永福,2026-07-25,24.892936,121.324975,0.41462877
C0FA20,溫寮,2026-07-25,24.372177,120.583125,0.52329916
C0V640,湖內,2026-07-25,22.887139,120.2445,0.014417364
C0R910,下寮,2026-07-25,22.3929,120.5548,0.00083747413
C0Z020,明里,2026-07-25,23.208717,121.262342,0.6404516
C0M770,嘉義梅山,2026-07-25,23.585398,120.555587,0.15424924
C0C660,楊梅,2026-07-25,24.912375,121.143047,0.93231875
C0SD40,牛頭山,2026-07-25,22.676661,121.506944,2.5797758e-06
C1E511,新開,2026-07-25,24.347703,120.827019,0.80442274
G2F820,農試所(霧峰),2026-07-25,24.031261,120.688133,0.72634065
C2M990,大巃頂,2026-07-25,23.5547,120.61439,1.667516e-08
C1I070,和社,2026-07-25,23.591131,120.888861,4.3358546e-07
C2E990,新坪頂,2026-07-25,24.30201,120.8574,0.04945414
C0TA80,立霧山,2026-07-25,24.183258,121.641899,6.685489e-06
C2F000,大肚,2026-07-25,24.15295,120.572117,0.21270895
C1S850,豐南,2026-07-25,23.122139,121.262389,0.9980592
C2M9B0,西興,2026-07-25,23.2428,120.57617,0.081576
C2A920,富貴角,2026-07-25,25.263783,121.565258,0.5980859
C0T960,光復,2026-07-25,23.660694,121.424964,0.2114704
C0F9M0,豐原,2026-07-25,24.254322,120.720692,0.7014175
C0R720,旭海,2026-07-25,22.205403,120.887614,0.9966153
C0V710,苓雅,2026-07-25,22.622742,120.330669,0.15531021
C0C740,觀音工業區,2026-07-25,25.064764,121.114856,0.99493283
CAC040,拉拉山,2026-07-25,24.699317,121.427133,2.737574e-08
C0V790,萬山,2026-07-25,22.905944,120.688056,0.77539974
U2HA30,臺大和社,2026-07-25,23.590856,120.888864,4.3358546e-07
C2H9K0,屯原,2026-07-25,24.067969,121.209389,7.8707965e-09
C0AJ90,澳底,2026-07-25,25.0552,121.9253,0.8757398
C0Z100,東華,2026-07-25,23.89525,121.549833,0.16894285
C0G970,三豐,2026-07-25,23.882,120.2895,0.08446779
C0V900,汕尾,2026-07-25,22.4782,120.4151,0.0017244829
C1R630,龍泉,2026-07-25,22.66701,120.59091,0.032591186
C1AC50,關渡,2026-07-25,25.133486,121.469331,0.50583047
C0C800,四稜,2026-07-25,24.64733,121.4293,0.00017162079
C0F9I0,神岡,2026-07-25,24.272481,120.658314,0.3171738
C0K460,斗南,2026-07-25,23.678734,120.478359,0.05140357
C2O810,曾文,2026-07-25,23.219681,120.497328,0.7814172
467280,後龍,2026-07-25,24.648563,120.831834,0.99713
C1F9J1,清水林,2026-07-25,24.071242,120.820419,2.2555447e-05
C2A650,火燒寮,2026-07-25,25.002719,121.742892,0.86377764
466930,竹子湖,2026-07-25,25.162078,121.544547,1.4926534e-05
C1I220,樟湖,2026-07-25,23.905333,120.846983,6.916422e-08
C0I390,仁愛,2026-07-25,24.022122,121.132206,1.9156857e-08
C0Z300,東里,2026-07-25,23.26853,121.30547,0.23523459
C1V590,新發,2026-07-25,23.057019,120.646064,1.3941664e-06
C0K510,水林,2026-07-25,23.572924,120.24597,0.009071671
72S590,東改賓朗果園,2026-07-25,22.813889,121.071278,0.60387665
82A750,茶改北部分場,2026-07-25,24.955778,121.631222,0.9949955
C1A750,石碇服務區,2026-07-25,25.00872,121.646242,0.30298677
C0X300,鹿寮,2026-07-25,23.386047,120.477331,0.35009488
C0K590,雲林東勢,2026-07-25,23.674192,120.255721,0.015177484
C2K310,港尾布雞,2026-07-25,23.74834,120.38439,0.14815389
C0A570,桶後,2026-07-25,24.848222,121.597992,0.91451645
C0G720,溪州,2026-07-25,23.851589,120.499093,0.04426278
C1V160,達卡努瓦,2026-07-25,23.279811,120.705319,3.6815962e-08
C2M410,馬頭山,2026-07-25,23.324361,120.582017,0.29643402
C0V850,蚵仔寮,2026-07-25,22.7256,120.2527,0.022426272
C0S740,池上,2026-07-25,23.119628,121.209469,0.9932784
C1V390,尖山,2026-07-25,22.813153,120.367789,0.14005066
C0AH70,松山,2026-07-25,25.04871,121.55042,0.54395944
C0N010,鯤鯓國小,2026-07-25,23.1879,120.0889,0.3411215
C0SA60,知本（水試所）,2026-07-25,22.702394,121.082761,0.46472207
C0T9I0,豐濱,2026-07-25,23.583897,121.514806,0.22201014
C0UB00,淡江大學蘭陽校園,2026-07-25,24.823239,121.730383,0.9959628
C0W240,九宮,2026-07-25,24.423753,118.240186,0.06416577
C0T9N0,富里,2026-07-25,23.171639,121.249378,0.7731495
U2HA50,臺大竹山,2026-07-25,23.756972,120.681556,0.24708027
C0V840,鳳鼻頭,2026-07-25,22.5083,120.3591,0.0016992748
C0X140,西港,2026-07-25,23.125608,120.203108,0.022511225
72D080,桃改五峰分場,2026-07-25,24.612194,121.157167,1.2689069e-06
C2H9P0,伊拿谷,2026-07-25,23.963211,121.088264,1.5820665e-07
C2K250,崙背,2026-07-25,23.75553,120.31893,0.022529274
C2H9F0,柑林,2026-07-25,24.018658,120.847072,0.92160296
C0TA20,加灣,2026-07-25,24.082025,121.608944,0.14130127
C0V530,阿蓮,2026-07-25,22.883208,120.327508,0.06105525
C0FB30,八仙山苗圃,2026-07-25,24.192719,121.001366,3.898087e-07
C0E791,卓蘭,2026-07-25,24.3126,120.8244,0.8290633
C2R260,春日,2026-07-25,22.370361,120.628306,0.0041044373
C1I030,武界,2026-07-25,23.913225,121.052483,4.9967247e-07
C0R520,崁頂,2026-07-25,22.514781,120.506914,0.0017399854
C0R341,牡丹,2026-07-25,22.130036,120.792639,0.1379859
C0R930,萬丹,2026-07-25,22.5885,120.4851,0.0026401095
C0S760,紅石,2026-07-25,23.069131,121.126219,7.716751e-09
C2C410,中央大學,2026-07-25,24.967652,121.185165,0.95430905
C1M610,石磐龍,2026-07-25,23.496606,120.663506,1.4020777e-08
C2C830,中德,2026-07-25,24.981862,121.291344,0.44658437
C0C790,東眼山,2026-07-25,24.8284,121.40888,0.12915361
C0UA10,鴛鴦湖,2026-07-25,24.590269,121.412228,3.566495e-08
C0R800,丹路,2026-07-25,22.204481,120.750989,0.14025864
C2R240,萬巒,2026-07-25,22.527306,120.625111,0.05837554
C0G920,永靖,2026-07-25,23.924703,120.547533,0.0122487955
C2M950,太和,2026-07-25,23.538372,120.702961,8.631956e-09
C1A630,下盆,2026-07-25,24.771003,121.538622,0.87178457
B2N890,畜產試驗所,2026-07-25,23.058972,120.336406,0.040009048
C0UA30,白嶺,2026-07-25,24.527819,121.519031,1.2870342e-07
467571,新竹,2026-07-25,24.828575,121.01455,0.99708426
C1V580,溪南(特生中心),2026-07-25,23.084972,120.788475,4.483652e-09
C1T970,大農,2026-07-25,23.615233,121.413331,0.13924132
C0R650,竹田,2026-07-25,22.58486,120.54344,0.0029123488
C1H900,清流,2026-07-25,24.080775,120.962997,1.0295497e-07
C1C510,水尾,2026-07-25,24.940081,121.087161,0.9904741
C2N170,茅港尾,2026-07-25,23.2061,120.2624,0.025623634
C0F9X0,大雅(中科園區),2026-07-25,24.21528,120.62445,0.08704193
C0SB60,白守蓮,2026-07-25,23.126769,121.401914,0.12548721
C0O970,虎頭埤,2026-07-25,23.021375,120.347878,0.41138455
C0C730,中大臨海站,2026-07-25,24.966126,121.008581,0.99523854
C0X250,新營,2026-07-25,23.310689,120.316681,0.035444282
C0V700,三民,2026-07-25,22.645017,120.311233,0.0795631
C0U870,大礁溪,2026-07-25,24.791042,121.675047,0.9066453
C0E870,高鐵苗栗,2026-07-25,24.60725,120.826094,0.9971242
C2S890,關山,2026-07-25,23.0395,121.175017,0.9387916
C0TA30,鹽寮,2026-07-25,23.845606,121.592664,0.16699257
C0M860,新美,2026-07-25,23.338017,120.683169,3.213865e-06
C1E701,八卦,2026-07-25,24.491756,120.927619,0.95226187
C2TA90,加納納,2026-07-25,23.466421,121.359867,0.8233371
C0I420,國姓,2026-07-25,24.037803,120.855072,0.89551777
C2D720,關西工作站,2026-07-25,24.757275,121.184792,0.5584175
C2AK30,信賢,2026-07-25,24.84108,121.53492,0.6354668
C0S960,香蘭,2026-07-25,22.587569,120.993375,0.1649025
467620,蘭嶼,2026-07-25,22.0369,121.55843,3.7983253e-07
C2UC40,中城,2026-07-25,24.62865,121.74745,0.1264554
72G600,臺中農改場,2026-07-25,24.003028,120.534389,0.017643256
C0Z210,瑞穗,2026-07-25,23.5239,121.39021,0.09958216
C0M820,達邦,2026-07-25,23.453994,120.749517,1.2989321e-07
C0V860,南寮,2026-07-25,22.7616,120.2339,0.022426272
C0G740,大城,2026-07-25,23.852487,120.320935,0.08987946
C0R920,塭仔,2026-07-25,22.4169,120.5197,0.00084667106
C0R470,高樹,2026-07-25,22.826389,120.600806,0.07913932
C0R680,佳樂水,2026-07-25,21.993578,120.861633,0.026771413
C1O870,大棟山,2026-07-25,23.31157,120.52226,9.16726e-09
C0D360,梅花,2026-07-25,24.678347,121.208558,0.6916752
C0Z190,富世,2026-07-25,24.14743,121.6297,0.5428204
C0AI10,屈尺,2026-07-25,24.92184,121.54475,0.26409012
B2U990,畜試東區分所,2026-07-25,24.669039,121.832561,0.12383721
C0SB80,長濱漁港,2026-07-25,23.313644,121.459994,0.4930725
C0TA50,和仁,2026-07-25,24.241394,121.712472,0.102762826
C2AK40,漁光,2026-07-25,24.96875,121.72132,0.99877125
C0V910,大樹,2026-07-25,22.684645,120.432803,0.07284015
C1R610,西大武山,2026-07-25,22.617719,120.7322,5.957858e-09
C0K500,元長,2026-07-25,23.642858,120.31966,0.015177484
C0G900,線西,2026-07-25,24.143358,120.443536,0.016298585
C0M700,竹崎,2026-07-25,23.526178,120.555508,0.24303451
C2E880,三義,2026-07-25,24.405478,120.749819,0.10274036
C0C720,竹圍,2026-07-25,25.112692,121.239824,0.95638156
C0F9P0,清水,2026-07-25,24.312297,120.562242,0.07284959
C0Z150,吉安光華,2026-07-25,23.930925,121.595153,0.20196752
C0FA80,小雪山天池,2026-07-25,24.28025,121.02627,7.038682e-09
467300,東吉島,2026-07-25,23.25727,119.66762,0.96837246
C1D640,外坪(五指山),2026-07-25,24.644447,121.090961,0.21438894
C2R9A0,高士國小,2026-07-25,22.12553,120.84653,0.13965264
C0F9O0,潭子,2026-07-25,24.213106,120.703933,0.66021484
C2H9R0,卓社,2026-07-25,23.887894,121.000086,1.2457025e-08
72T250,花蓮農改場,2026-07-25,23.975222,121.563889,0.20409174
C0E780,銅鑼,2026-07-25,24.489681,120.790853,0.9549469
C1T950,太安,2026-07-25,23.666719,121.370128,0.0015781733
C0E830,苑裡,2026-07-25,24.439714,120.653053,0.8461246
467270,田中,2026-07-25,23.873803,120.581286,0.36932445
C0SA10,檳榔四格山,2026-07-25,22.810031,121.109308,0.756053
C1T830,布洛灣,2026-07-25,24.17184,121.57127,0.89877796
C0F970,大坑,2026-07-25,24.173142,120.722289,0.30748406
C1U920,思源,2026-07-25,24.393125,121.347214,1.2771518e-08
C2H9Y0,松茗,2026-07-25,23.8167,120.650765,0.043883838
C0A931,三和,2026-07-25,25.233153,121.595236,0.83458114
C0I010,廬山,2026-07-25,24.033311,121.181808,1.3198461e-08
C2M940,日野賀,2026-07-25,23.434056,120.727169,9.088188e-08
C0R860,鼻頭,2026-07-25,22.1043,120.8979,0.49284533
C2I260,北坑,2026-07-25,23.92463,121.00683,0.9052952
C0UB20,壯圍,2026-07-25,24.7359,121.8163,0.08312949
C0R790,九棚,2026-07-25,22.14195,120.889281,0.22645317
C0W110,東莒,2026-07-25,25.9652,119.98069,0.9300328
C1U930,粉鳥林,2026-07-25,24.497088,121.842479,0.18057562
C0S830,長濱,2026-07-25,23.286817,121.411975,0.52066725
C1F9F1,伯公龍,2026-07-25,24.272392,120.849047,0.8361768
C0UB90,太平山莊,2026-07-25,24.494171,121.536209,1.4432277e-08
C0E810,西湖,2026-07-25,24.562947,120.7485,0.9831433
C1I440,新高口,2026-07-25,23.478744,120.878939,6.91539e-09
C0O840,王爺宮,2026-07-25,23.222064,120.40085,0.3676803
C0T9G0,鳳林山,2026-07-25,23.735269,121.420131,0.90618813
C0X080,佳里,2026-07-25,23.173039,120.145086,0.36970994
C0FB70,大甲溪埔,2026-07-25,24.370625,120.620067,0.5387818
C0Z310,清水斷崖,2026-07-25,24.218294,121.689142,0.1137154
C0M680,太保,2026-07-25,23.455062,120.331455,0.03024556
C1S820,金峰,2026-07-25,22.590969,120.933236,0.113357864
C0AD10,八里,2026-07-25,25.150211,121.403947,0.6766797
C2K240,草嶺,2026-07-25,23.59555,120.693461,4.900121e-08
C1SA70,都蘭,2026-07-25,22.87794,121.226881,0.2795453
C0K440,二崙,2026-07-25,23.772797,120.408944,0.13791472
C1A760,坪林交控,2026-07-25,24.94284,121.713442,0.53140795
C0F9N0,大里,2026-07-25,24.092464,120.701378,0.830551
C0SA90,達仁林場,2026-07-25,22.264347,120.823972,0.0012732017
C1R290,石門山,2026-07-25,22.112611,120.756597,1.47380815e-05
42HA10,萬大發電廠,2026-07-25,23.978875,121.139639,6.8346964e-08
C0R890,山海,2026-07-25,21.9878,120.7091,0.014095663
C0T9A0,月眉山,2026-07-25,23.809928,121.539828,0.97320145
C0AC70,信義,2026-07-25,25.037822,121.564597,0.4585905
C0K560,棋山,2026-07-25,23.68645,120.603417,0.05503928
C2FB50,出雲,2026-07-25,24.206469,120.902794,3.947931e-08
C1Z240,中平林道,2026-07-25,23.42115,121.26763,1.8853636e-06
U2H480,溪頭,2026-07-25,23.670306,120.798194,1.3286561e-08
C0M880,好美里,2026-07-25,23.3364,120.138,0.018531961
C0T9E0,大坑,2026-07-25,23.880628,121.581981,0.9419494
C0K530,臺西,2026-07-25,23.701547,120.197559,0.009362301
C1E900,國一N128K,2026-07-25,24.560997,120.844186,0.9964218
C0AJ50,水湳洞,2026-07-25,25.123695,121.862238,0.8923384
C0AI20,白沙灣,2026-07-25,25.283128,121.519058,0.56457543
C2V310,美濃,2026-07-25,22.898792,120.51907,0.06696043
C0A860,大坪,2026-07-25,25.165914,121.632969,0.9900089
C1U850,觀音海岸,2026-07-25,24.38319,121.77856,0.660987
C2K610,草嶺石壁,2026-07-25,23.602469,120.707731,3.6816804e-08
C0U950,鶯子嶺,2026-07-25,24.89754,121.79244,0.07332768
C0O900,善化,2026-07-25,23.112883,120.297219,0.03926173
C0K550,蔦松,2026-07-25,23.514319,120.229736,0.009504172
E2P980,林試六龜中心,2026-07-25,22.991703,120.645722,0.94075066
C0E590,通霄,2026-07-25,24.471892,120.704622,0.83348256
C1I310,西巒,2026-07-25,23.754486,120.883956,5.259718e-06
C0A550,泰平,2026-07-25,24.971197,121.823711,0.9978684
C2UC30,金洋,2026-07-25,24.42465,121.74573,0.82958204
C0I360,水里,2026-07-25,23.812553,120.849792,0.4045972
C0R830,高士,2026-07-25,22.121825,120.836781,1.6095047e-06
C1I101,溪頭,2026-07-25,23.661789,120.807647,6.2379018e-09
C0AJ20,野柳,2026-07-25,25.20703,121.690021,0.16771567
C0B060,暖暖,2026-07-25,25.0957,121.7403,0.59612054
C1H920,長豐,2026-07-25,24.102039,120.879897,3.5099977e-06
C2S9B0,利吉,2026-07-25,22.86246,121.15486,0.848305
C0V360,內門,2026-07-25,22.975481,120.466769,0.1615007
C0R850,林邊,2026-07-25,22.4634,120.5339,0.0012972654
C0E930,龍鳳,2026-07-25,24.700034,120.859125,0.99692357
C0U910,冬山,2026-07-25,24.63373,121.7937,0.12383721
C1E721,泰安,2026-07-25,24.489017,120.968036,1.8612023e-09
82H320,茶改中部分場,2026-07-25,23.875611,120.913583,2.4287904e-06
C0M750,布袋,2026-07-25,23.380878,120.167789,0.0109238
C1S860,利嘉,2026-07-25,22.809417,121.050528,0.25691262
E2S980,林試太麻里1,2026-07-25,22.598922,120.980044,0.08864707
C0X170,關廟,2026-07-25,22.963017,120.327797,0.20990199
C0V720,林園,2026-07-25,22.507747,120.394511,0.0017763916
C2M9G0,沄水,2026-07-25,23.38293,120.52666,0.34763807
C1I510,線浸林道,2026-07-25,23.761508,120.832956,9.60708e-08
C0D690,外湖,2026-07-25,24.917735,120.968711,0.9585963
C0C750,新興坑尾,2026-07-25,25.0061,121.0971,0.99014074
B2Q810,畜試南區分所,2026-07-25,21.945583,120.802167,0.026771389
C0S790,金崙,2026-07-25,22.538122,120.966875,0.009579027
C0AH90,福山植物園,2026-07-25,24.760717,121.58135,0.8968966
C0I540,奇萊稜線,2026-07-25,24.109231,121.326456,8.013475e-09
C0M850,表湖,2026-07-25,23.24186,120.64166,8.8820957e-07
C0S770,大溪山,2026-07-25,22.478475,120.943325,0.013584884
C0AG80,中和,2026-07-25,24.991622,121.491792,0.25474158
C0T790,大禹嶺,2026-07-25,24.186117,121.316086,3.6861825e-09
C0T9B0,水源,2026-07-25,23.991861,121.537169,0.9843116
C0R840,牡丹池山,2026-07-25,22.168389,120.841225,6.364216e-06
C1I131,桶頭,2026-07-25,23.641944,120.654117,0.028869322
CAL110,布袋國中,2026-07-25,23.35893,120.18026,0.018531961
C2M9D0,何竹子腳,2026-07-25,23.53641,120.38203,0.025812736
C0Z290,赤柯山,2026-07-25,23.36893,121.38293,0.12259455
C0X280,將軍,2026-07-25,23.214999,120.13577,0.018299054
C0S690,太麻里,2026-07-25,22.60902,120.98533,0.002219184
C0U880,北關,2026-07-25,24.9072,121.8734,0.9584786
CAW010,東引,2026-07-25,26.3588,120.4836,0.0013282001
C0G810,埔心,2026-07-25,23.947633,120.525456,0.01195645
C0U970,大福,2026-07-25,24.80064,121.81389,0.108670674
C2H9N0,仁愛東眼,2026-07-25,24.026875,121.1205,5.964453e-09
C1E670,南礦,2026-07-25,24.538278,121.002836,6.7698607e-09
C0M520,東後寮,2026-07-25,23.369908,120.248065,0.014635392
C1E461,松安,2026-07-25,24.397972,120.986022,4.4450963e-09
C2N160,西拉雅風管處,2026-07-25,23.189481,120.335297,0.0624163
C2O850,環湖,2026-07-25,23.148665,120.4186,0.3360585
C2M970,碧湖,2026-07-25,23.568632,120.624165,1.7301927e-08
C0A640,石碇,2026-07-25,24.993969,121.662917,0.5314081
E2S960,林試太麻里2,2026-07-25,22.598,120.99775,0.1502086
C0F9Y0,桃山,2026-07-25,24.432739,121.303808,9.511501e-09
C1I020,萬大,2026-07-25,23.979817,121.132261,1.7997095e-08
C2UC20,長嶺,2026-07-25,24.70894,121.61162,0.93311954
C0U940,羅東,2026-07-25,24.68184,121.74934,0.087671585
C0M650,朴子,2026-07-25,23.43463,120.23902,0.015845234
C1I500,大尖山,2026-07-25,23.858572,120.994889,8.3311225e-09
C0FB40,中橫21.6k,2026-07-25,24.2499,121.1455,9.9182444e-08
C0G820,田尾,2026-07-25,23.901669,120.509389,0.01195645
E2K600,四湖植物園,2026-07-25,23.676986,120.163433,0.007847859
C0S730,綠島,2026-07-25,22.6672,121.47533,2.8055588e-06
12Q970,東港工作站,2026-07-25,22.479997,120.466058,0.0013988301
C1TA00,太魯閣,2026-07-25,24.15773,121.6236,0.9406976
466920,臺北,2026-07-25,25.037658,121.514853,0.54395944
C0R600,舊泰武,2026-07-25,22.588194,120.664944,0.00030875872
466910,鞍部,2026-07-25,25.182586,121.529731,1.856325e-08
C1I230,九份二山,2026-07-25,23.961944,120.845,2.4590103e-05
C2M810,里佳,2026-07-25,23.389125,120.716647,1.9589429e-08
C2A660,瑞芳,2026-07-25,25.113169,121.801147,0.48710373
C0R270,琉球嶼,2026-07-25,22.332244,120.362236,0.00038254732
C2V580,瑞山,2026-07-25,22.90304,120.43424,0.09237001
C1T990,高寮,2026-07-25,23.394239,121.356808,0.5787424
C0G620,芬園,2026-07-25,24.015678,120.6213,0.90328
C1Z140,荖溪,2026-07-25,23.890575,121.45964,0.0033202828
C1I201,中心崙,2026-07-25,23.728722,120.712097,3.369861e-05
C1I400,凌霄,2026-07-25,24.018778,121.004456,6.0421885e-09
C1M640,十字,2026-07-25,23.492153,120.753683,1.1263197e-08
G2P820,農試鳳山分所,2026-07-25,22.646611,120.356083,0.15974556
C0Z270,蕃薯寮,2026-07-25,23.73835,121.540108,0.5309853
C2E420,竹南,2026-07-25,24.70898,120.88897,0.99701184
C2D480,打鐵坑,2026-07-25,24.849664,121.150789,0.8137454
C0FB10,出雲山苗圃,2026-07-25,24.23105,120.90475,2.1357108e-07
C0F9Q0,外埔,2026-07-25,24.347817,120.705686,0.7320308
C0K580,高鐵雲林,2026-07-25,23.737456,120.417944,0.14815389
C2I090,鳳凰,2026-07-25,23.728081,120.787347,2.7569104e-07
C0U990,員山,2026-07-25,24.74435,121.72247,0.08648631
C0V770,大社,2026-07-25,22.730306,120.346639,0.09049489
C0X120,麻豆,2026-07-25,23.183289,120.248611,0.025349153
C0C670,龍潭,2026-07-25,24.870056,121.221389,0.58019334
C0D680,香山濕地,2026-07-25,24.783581,120.914988,0.9585963
C0S980,勝林山,2026-07-25,22.430439,120.8938,1.539291e-08
C0V730,大寮,2026-07-25,22.605614,120.395717,0.017310401
C0R570,麟洛,2026-07-25,22.65078,120.52719,0.025320679
C2M930,石卓,2026-07-25,23.478744,120.702264,1.1487928e-08
C0G9B0,和美,2026-07-25,24.105169,120.492131,0.017203834
C2I240,外大坪,2026-07-25,23.9587,120.91788,4.926647e-06
CAG100,王功漁港,2026-07-25,23.96824,120.32586,0.023309207
C0X290,北門,2026-07-25,23.267772,120.125481,0.018299054
C2F930,大甲,2026-07-25,24.347667,120.640403,0.29811287
C0D650,湖口,2026-07-25,24.904794,121.043628,0.99477434
C0U780,五結,2026-07-25,24.68637,121.79794,0.12383721
C1I250,鯉潭,2026-07-25,23.961922,120.991131,0.34727305
C0R130,阿禮,2026-07-25,22.742908,120.743678,4.7911858e-08
C0X100,臺南市北區,2026-07-25,23.010394,120.194228,0.03416048
C0S920,金峰嘉蘭,2026-07-25,22.594789,120.960825,0.3031493
C0V490,新興,2026-07-25,22.627422,120.298803,0.06089716
C0F9K0,大安,2026-07-25,24.345061,120.588025,0.2247064
C2E970,八甲,2026-07-25,24.535811,120.795983,0.99678034
C0V440,鳳山,2026-07-25,22.646653,120.356122,0.15974562
C1T940,大觀,2026-07-25,23.714206,121.373133,0.9854113
C0E740,造橋,2026-07-25,24.637056,120.864778,0.9976448
C0R100,尾寮山,2026-07-25,22.833111,120.683889,2.6553122e-08
A2K630,臺大雲林校區,2026-07-25,23.730628,120.423903,0.14586388
467990,馬祖,2026-07-25,26.169467,119.923158,0.010923508
C0D580,寶山,2026-07-25,24.735006,121.025192,0.9000235
E2P990,林試扇平站,2026-07-25,22.9677,120.6857,0.0038568527
C0AI30,三重,2026-07-25,25.057328,121.500629,0.53913915
C0AH00,汐止,2026-07-25,25.066881,121.658778,0.22684507
C1Z040,立山,2026-07-25,23.443356,121.327375,0.65020293
466881,新北,2026-07-25,24.959207,121.525196,0.24895091
C0W130,花嶼,2026-07-25,23.40007,119.32276,0.44274658
C0A950,鼻頭角,2026-07-25,25.129036,121.923372,0.02184921
C0K470,林內,2026-07-25,23.748675,120.609642,0.054124985
C2F990,摩天嶺,2026-07-25,24.322458,120.936819,1.24231e-07
C2E430,南庄,2026-07-25,24.601775,121.000214,0.9981867
82C160,茶改場,2026-07-25,24.908472,121.185333,0.9278108
C2TB60,南安,2026-07-25,23.29818,121.26157,0.2672256
C0Z320,清水林道,2026-07-25,23.27125,121.188272,0.9988311
C0R760,南仁湖,2026-07-25,22.084681,120.863353,1.3121489e-05
C0M670,大林,2026-07-25,23.600616,120.45841,0.03337336
C0M800,茶山,2026-07-25,23.299075,120.664767,0.0012459098
C0A9C0,天母,2026-07-25,25.117494,121.537169,0.47142825
72K220,南改斗南分場,2026-07-25,23.634556,120.477333,0.051982917
72AI40,桃改樹林分場,2026-07-25,24.944503,121.386972,0.318655
C0S910,蘭嶼燈塔,2026-07-25,22.081197,121.503117,0.00038026992
C0B050,八斗子,2026-07-25,25.144754,121.79167,0.25321165
C0U900,內城,2026-07-25,24.71813,121.68766,0.079848014
C0X320,柳營,2026-07-25,23.253328,120.375253,0.2325229
C0M790,新港,2026-07-25,23.553269,120.345728,0.025312359
C0F9T0,西屯,2026-07-25,24.179494,120.641275,0.078394786
C0E950,松安,2026-07-25,24.39792,120.98599,4.4450963e-09
C0SA30,都歷,2026-07-25,23.020333,121.323642,0.3751177
C0C620,蘆竹,2026-07-25,25.084275,121.265767,0.9743456
C0R730,大坪頂,2026-07-25,22.024633,120.69355,0.0005843544
C0AJ40,石門,2026-07-25,25.273672,121.601198,0.61978745
C0E750,苗栗,2026-07-25,24.564569,120.824575,0.996415
C0T870,鯉魚潭,2026-07-25,23.935639,121.508944,0.24798714
C1V170,排雲,2026-07-25,23.463619,120.954147,1.2194062e-08
C2H950,中寮,2026-07-25,23.884447,120.766406,0.6123154
C0R350,貓鼻頭,2026-07-25,21.921774,120.7358,0.012271704
C0V660,岡山,2026-07-25,22.797078,120.294958,0.023149526
C1H941,雙冬,2026-07-25,23.967378,120.802189,0.78621465
C0AJ70,田寮,2026-07-25,25.2698,121.4886,0.55730796
C0AI00,五股,2026-07-25,25.07445,121.42728,0.8362209
C0Z280,德武,2026-07-25,23.47426,121.41071,0.7791226
C2RA10,大新,2026-07-25,22.67558,120.57788,0.032591198
C0C460,復興,2026-07-25,24.820208,121.352281,0.67929834
C2AA10,中八仙,2026-07-25,25.11576,121.49199,0.43803984
E2H360,蓮華池,2026-07-25,23.918333,120.885278,0.0008263077
C0M640,中埔,2026-07-25,23.42538,120.5229,0.22088853
C2C810,八德蔬果,2026-07-25,24.97858,121.28187,0.44658437
C2M9F0,安溪寮,2026-07-25,23.350334,120.208039,0.018531961
C0W140,金沙,2026-07-25,24.488292,118.408778,0.092948414
C2A540,四堵,2026-07-25,24.8926,121.745736,0.9815353
C0ACA0,新莊,2026-07-25,25.051478,121.446756,0.47295487
C0R220,潮州,2026-07-25,22.534361,120.54,0.0016310891
U2HA40,臺大內茅埔,2026-07-25,23.689722,120.851117,0.4864428
467490,臺中,2026-07-25,24.145736,120.684075,0.29435286
C0UB60,明池,2026-07-25,24.650688,121.475277,0.00017038193
C0U960,翠峰湖,2026-07-25,24.510856,121.608044,1.5278045e-08
E2HA20,林試畢祿溪站,2026-07-25,24.226944,121.308522,1.7320408e-09
C2M9A0,大華,2026-07-25,23.4824,120.67491,5.3245017e-08
C0V890,前鎮,2026-07-25,22.5718,120.3117,0.13630854
C1F941,雪嶺,2026-07-25,24.280586,121.026642,7.038682e-09
C2H9E0,國姓南港,2026-07-25,23.911108,120.846556,4.620073e-08
C0AC80,文山,2026-07-25,25.00235,121.575728,0.2750056
C0F9R0,龍井,2026-07-25,24.184536,120.528972,0.027056264
C0M760,民雄,2026-07-25,23.551754,120.428457,0.03337336
C0UA40,西德山,2026-07-25,24.560647,121.752608,0.00045452773
C2TA70,赤科坪,2026-07-25,23.39885,121.39168,0.6269339
C1T920,中興,2026-07-25,23.769503,121.498653,0.17125948
C0D550,雪霸,2026-07-25,24.526972,121.11605,4.3648694e-09
C2F860,梨山,2026-07-25,24.247522,121.243669,3.8263472e-09
C0R320,車城,2026-07-25,22.0744,120.716247,0.0064679347
C1S870,南美山,2026-07-25,23.15025,121.382333,0.28197122
C0B020,基隆嶼,2026-07-25,25.19141,121.78391,0.29294568
C1U501,牛鬥,2026-07-25,24.637836,121.573656,0.80334795
C0M730,嘉義市東區,2026-07-25,23.457673,120.460531,0.07909952
C2R990,泰武,2026-07-25,22.60686,120.69765,2.4611314e-08
C0S700,知本,2026-07-25,22.684866,121.005642,0.010289694
C1N001,沙崙,2026-07-25,22.935472,120.309406,0.19649963
C0V760,橋頭,2026-07-25,22.757806,120.30575,0.08894853
C2V570,吉東,2026-07-25,22.85418,120.54539,0.0791423
C0G960,福寶,2026-07-25,24.0443,120.3814,0.012135349
C0X210,白河,2026-07-25,23.347466,120.414427,0.11502858
C0S810,東河,2026-07-25,22.972672,121.303986,0.48358434
C2R170,屏東,2026-07-25,22.66027,120.49403,0.025320679
C0R670,楓港,2026-07-25,22.190131,120.692156,0.0012949742
C0FA50,霧峰,2026-07-25,24.0419,120.6995,0.8339505
C0UB10,蘇澳,2026-07-25,24.5969,121.8571,0.104476005
C0G950,防潮門,2026-07-25,24.1835,120.4871,0.016319763
C0M740,六腳,2026-07-25,23.492871,120.290625,0.01852153
C1R250,力里,2026-07-25,22.428117,120.629228,0.009910637
C0K330,虎尾,2026-07-25,23.719183,120.442036,0.1470049
C2FA00,烏石坑,2026-07-25,24.273503,120.947617,1.2738754e-07
C0V620,永安,2026-07-25,22.82315,120.236856,0.022794249
C1I330,楓樹林,2026-07-25,23.986803,121.076117,1.9214566e-08
C0W200,湖西,2026-07-25,23.596314,119.67275,0.99592596
72Q010,高雄農改場,2026-07-25,22.709333,120.525889,0.01721731
C2K301,鹿南,2026-07-25,23.643341,120.3683,0.04139946
C0C680,龜山,2026-07-25,25.02846,121.38656,0.67720944
C2V260,月眉,2026-07-25,22.971003,120.539853,0.14309734
C0V450,鳳森,2026-07-25,22.545064,120.392592,0.0017875264
C0FA90,小雪山林道,2026-07-25,24.29515,121.03651,9.042554e-09
C0U720,南山,2026-07-25,24.43742,121.38167,0.00014981668
A2N290,臺南蘭花園區,2026-07-25,23.340258,120.379661,0.3696424
C0R560,新園,2026-07-25,22.5434,120.461558,0.0017763916
C0U890,三星,2026-07-25,24.66812,121.65302,0.09569821
C1V300,御油山,2026-07-25,23.001983,120.715364,4.466922e-09
C0U600,礁溪,2026-07-25,24.817539,121.765608,0.10854008
C1T980,龍澗,2026-07-25,24.023289,121.411328,1.6996583e-07
C0R700,枋山,2026-07-25,22.247814,120.660794,0.023099318
C0D670,海天一線,2026-07-25,24.831986,120.914438,0.9392703
C0SA00,歷坵,2026-07-25,22.520969,120.89185,0.0014099819
C0M710,東石,2026-07-25,23.458927,120.15385,0.011240941
C0M780,鹿草,2026-07-25,23.41134,120.30835,0.018155167
C0U520,雙連埤,2026-07-25,24.753033,121.641303,0.2908316
C0B010,七堵,2026-07-25,25.094819,121.71713,0.3059683
C0R480,長治,2026-07-25,22.693128,120.542622,0.0360524
C1V830,國三S383K,2026-07-25,22.781967,120.426475,0.049014717
12Q980,恆春工作站,2026-07-25,22.079678,120.714425,0.0064679347
C1O940,東山服務區,2026-07-25,23.286016,120.398472,0.37889326
C1U840,東澳嶺,2026-07-25,24.5378,121.8485,0.20754574
C1D630,飛鳳山,2026-07-25,24.766464,121.119178,0.5994259
C0S940,石寧山,2026-07-25,23.223772,121.406639,0.09139113
C0K410,北港,2026-07-25,23.573957,120.292802,0.009036914
C2M620,瑞里,2026-07-25,23.545133,120.675197,1.3930067e-08
C0SB70,小港漁港,2026-07-25,23.158558,121.400431,0.12842467
C2O950,安南,2026-07-25,23.076694,120.144861,0.08877584
C0F0E0,南湖圈谷,2026-07-25,24.363714,121.444667,1.12076926e-08
467610,成功,2026-07-25,23.097486,121.373428,0.24305886
C0G890,伸港,2026-07-25,24.148933,120.484403,0.0165662
C2E540,龍溪,2026-07-25,24.606489,120.783933,0.9962118
C1V200,梅山,2026-07-25,23.268447,120.823556,5.326346e-07
C0T9H0,加路蘭山,2026-07-25,23.682947,121.5274,0.9994429
C2O930,玉井,2026-07-25,23.126042,120.46055,0.3360585
C1F911,新伯公,2026-07-25,24.221361,120.841069,0.9661661
C0X200,左鎮,2026-07-25,23.056758,120.408522,0.27168864
C2TB50,麻汝,2026-07-25,23.42554,121.39358,0.8054151
C0FA60,鞍馬山工作站,2026-07-25,24.267064,121.000793,8.212198e-09
C0SB50,叭嗡嗡,2026-07-25,23.047062,121.343223,0.22183026
C2R550,新埤,2026-07-25,22.467947,120.582894,0.011816783
C1F891,稍來,2026-07-25,24.265689,121.001142,8.128979e-09
C2M9C0,紫雲,2026-07-25,23.494914,120.540253,0.1608904
72N240,七股研究中心,2026-07-25,23.081672,120.062894,0.069697075
C0C700,中壢,2026-07-25,24.977661,121.256375,0.4427329
C0M690,水上,2026-07-25,23.419734,120.388909,0.02576919
C0V690,鼓山,2026-07-25,22.623325,120.275575,0.06089716
C0O860,大內,2026-07-25,23.11885,120.36083,0.057849307
C0Z200,萬榮,2026-07-25,23.709219,121.420106,0.2590826
C0T9D0,和中,2026-07-25,24.26676,121.74103,0.10647789
C2S9A0,北份子寮,2026-07-25,22.78561,121.07813,0.52348083
C1O921,楠西,2026-07-25,23.183511,120.484083,0.35933492
C0AJ30,淡水觀海,2026-07-25,25.184591,121.408616,0.673741
C0V810,左營,2026-07-25,22.67491,120.28491,0.0795631
C0UA70,桃源谷,2026-07-25,24.962606,121.888875,0.99565387
C0X130,官田,2026-07-25,23.193217,120.315422,0.061162516
C1H000,翠峰,2026-07-25,24.109397,121.205211,3.0013299e-09
C0UA90,石城,2026-07-25,24.980444,121.951214,0.07716534
C1E681,南勢山,2026-07-25,24.421669,120.923831,0.0011294726
C0A9F0,內湖,2026-07-25,25.079422,121.57545,0.4585905
C0K291,宜梧,2026-07-25,23.536281,120.169329,0.01057658
C1K540,口湖,2026-07-25,23.585344,120.180517,0.009992708
C0R780,滿州,2026-07-25,22.024403,120.839892,0.18935944
C0V870,文安,2026-07-25,22.8025,120.2164,0.022426272
C0U650,玉蘭,2026-07-25,24.675286,121.587061,0.9301725
C0R640,東港,2026-07-25,22.46247,120.44074,0.0016992748
C0AJ80,板橋,2026-07-25,25.0107,121.4489,0.25474158
C0S660,下馬,2026-07-25,23.150427,121.070312,0.18683644
C2N190,烏樹,2026-07-25,23.32393,120.36989,0.64576167
C1H9B1,阿眉,2026-07-25,24.1263,120.994672,1.2939674e-08
C0UA20,多加屯,2026-07-25,24.368614,121.373189,3.4004983e-09
C0E730,頭份,2026-07-25,24.688247,120.912206,0.99698085
72V140,高改旗南分場,2026-07-25,22.857861,120.516667,0.073725976
C2R490,九如,2026-07-25,22.74049,120.490555,0.01721731
C0K480,莿桐,2026-07-25,23.761192,120.502372,0.10773997
C0U980,坪林石牌,2026-07-25,24.86478,121.77396,0.55662924
C0T900,西林,2026-07-25,23.8119,121.441458,0.19632764
C1I150,青雲,2026-07-25,23.793361,120.949378,0.6311769
C2E980,和興,2026-07-25,24.505319,120.923016,0.99245113
467350,澎湖,2026-07-25,23.565503,119.563094,0.99261034
C0G800,埔鹽,2026-07-25,24.000394,120.431683,0.012517318
C0H960,草屯,2026-07-25,23.973672,120.68085,0.99225104
C1V780,多納林道,2026-07-25,22.888028,120.737917,7.456043e-09
C0E920,通霄漁港,2026-07-25,24.498589,120.673876,0.82191914
C0Z330,安通山,2026-07-25,23.290728,121.348528,0.9725048
C0AH10,永和,2026-07-25,25.01125,121.508111,0.2547501
C0AK10,太平里,2026-07-25,25.134937,121.364899,0.51276845
C2G640,鹿港,2026-07-25,24.0753,120.430481,0.01704821
C1E890,國三N149K,2026-07-25,24.463414,120.680019,0.8372401
C1M870,國三N285K,2026-07-25,23.550319,120.505833,0.17354783
C1E480,鳳美,2026-07-25,24.554803,121.034747,0.9983541
C0T9M0,靜浦,2026-07-25,23.455167,121.495028,0.096924864
C2H9M0,發祥,2026-07-25,24.154094,121.164517,7.590497e-08
C2G9C0,埔南,2026-07-25,23.99124,120.46969,0.012517318
C0AI40,石牌,2026-07-25,25.115597,121.513139,0.4585904
C1F871,上谷關,2026-07-25,24.203483,121.018644,1.2713085e-07
C2H9G0,百勝,2026-07-25,24.051142,120.909361,0.13523705
C0G880,二水,2026-07-25,23.810742,120.6173,0.26588026
C0R940,加祿堂,2026-07-25,22.3363,120.6217,0.05967823
C0W220,北竿,2026-07-25,26.220358,119.974881,0.36698928
C0O960,崎頂,2026-07-25,22.959547,120.369317,0.26816043
C0TA40,秀林,2026-07-25,24.302864,121.731144,0.71110517
C0S750,向陽,2026-07-25,23.248397,120.986133,7.75646e-09
C0T9F0,水璉,2026-07-25,23.797131,121.542514,0.24068993
C1M600,頭凍,2026-07-25,23.406364,120.603339,3.4539777e-08
467660,臺東,2026-07-25,22.752211,121.154586,0.2945959
C1D380,新埔,2026-07-25,24.84745,121.03834,0.99704224
C2G980,田頭村,2026-07-25,23.8263,120.444175,0.13791472
C0V750,路竹,2026-07-25,22.854997,120.259439,0.023975417
C0N050,蚵寮,2026-07-25,23.301,120.1104,0.018299054
C2X060,下營,2026-07-25,23.226806,120.256291,0.025623647
72M700,南改鹿草分場,2026-07-25,23.416869,120.283061,0.01700895
C1SA50,利嘉林道,2026-07-25,22.82325,121.009389,1.4856186e-09
C0UB70,太平山中間站,2026-07-25,24.542003,121.513453,0.07817624
C0A940,金山,2026-07-25,25.223628,121.643967,0.6317069
C1V340,大津,2026-07-25,22.888322,120.645986,0.92124397
C0W180,七美,2026-07-25,23.219333,119.444892,0.81331384
C1F9C1,白冷,2026-07-25,24.182844,120.929889,0.0010109064
K2E710,苗改生物防治研究中心,2026-07-25,24.422861,120.871833,0.95960695
C0N040,蘆竹溝,2026-07-25,23.2344,120.0961,0.017818496
C0TB40,崇德,2026-07-25,24.166144,121.657414,0.65819657
C0D760,大坪苗圃,2026-07-25,24.5362,121.1108,2.7163258e-09
C2D430,峨眉,2026-07-25,24.6905,121.017189,0.9951204
C2W230,畜試所澎湖,2026-07-25,23.628342,119.513206,0.93911195
C0R880,後壁湖,2026-07-25,21.9457,120.7457,0.014095663
C1I280,埔中,2026-07-25,23.820778,120.642594,0.04163765
467790,墾丁雷達站,2026-07-25,21.948235,120.808028,0.016854487
C0W190,望安,2026-07-25,23.380564,119.494075,0.9233716
C0Z170,卓溪,2026-07-25,23.3443,121.3029,0.32240802
C0F850,東勢,2026-07-25,24.246428,120.833047,0.96958387
466900,淡水,2026-07-25,25.164889,121.448906,0.3112229
C0I370,魚池,2026-07-25,23.895703,120.94135,0.00017470168
C0C630,大溪,2026-07-25,24.882853,121.265547,0.34893283
C0A520,山佳,2026-07-25,24.974944,121.402008,0.30448282
C0I110,竹山,2026-07-25,23.761225,120.688156,0.2534753
82H840,茶改南部分場,2026-07-25,23.762528,120.7405,0.10264848
C2SD80,再來山,2026-07-25,23.34371,121.44122,0.7778837
C0G660,溪湖,2026-07-25,23.94835,120.479122,0.011592849
C1T800,洛韶,2026-07-25,24.204558,121.453956,2.8324723e-06
C1T810,慈恩,2026-07-25,24.192044,121.388386,3.002916e-09
C1E451,象鼻,2026-07-25,24.368617,120.940228,0.0011294726
C0AC60,三峽,2026-07-25,24.939025,121.369728,0.2269777
C0I490,萬大林道,2026-07-25,23.928228,121.091411,6.9836537e-09
C1I290,豐丘,2026-07-25,23.668178,120.887417,1.0540974e-07
C1I320,奧萬大,2026-07-25,23.952956,121.178556,2.734191e-07
C2M910,嘉義大學,2026-07-25,23.471325,120.485903,0.092645824
C0U770,南澳,2026-07-25,24.44935,121.81022,0.18057562
C2TB30,吉安,2026-07-25,23.94538,121.54803,0.21457818
C0A980,社子,2026-07-25,25.109508,121.469681,0.41378397
C0V800,六龜,2026-07-25,22.997889,120.633583,0.94920516
C1G9D0,國一S218K,2026-07-25,23.890641,120.493253,0.030410433
C0E570,白沙屯,2026-07-25,24.549447,120.696803,0.9821514
C2F9A0,中竹林,2026-07-25,24.103556,120.751061,0.8798189
C0FA40,臺中電廠,2026-07-25,24.2146,120.4907,0.020806603
C2G9A0,畜試所彰化,2026-07-25,23.86045,120.557964,0.36932445
C0H9C0,合歡山,2026-07-25,24.143442,121.272547,9.392122e-09
G2M350,農試溪口農場,2026-07-25,23.58565,120.408111,0.031995323
C0U860,頭城,2026-07-25,24.85323,121.8308,0.76064414
C0R580,南州,2026-07-25,22.48591,120.50274,0.0013988301
C0G780,秀水,2026-07-25,24.03405,120.503869,0.017643256
72N100,臺南農改場,2026-07-25,23.0605,120.342194,0.040439304
C0S900,蘭嶼高中,2026-07-25,22.04909,121.51214,0.011150815
C2TA60,六十石,2026-07-25,23.22477,121.31861,0.0045778737
C1F9W0,德基,2026-07-25,24.254783,121.190261,5.7409384e-09
C2M980,安和,2026-07-25,23.51377,120.31593,0.01852153
C1Z120,壽豐,2026-07-25,23.870853,121.508081,0.16894285
C0W160,烏坵,2026-07-25,24.9944,119.44956,0.08303889
C1I550,國六W023K,2026-07-25,23.979067,120.867742,0.7277489
C0R870,興海,2026-07-25,21.9752,120.8439,0.026771413
C0R140,瑪家,2026-07-25,22.682903,120.686639,0.0018006818
C0A530,坪林,2026-07-25,24.938183,121.70975,0.7895813
C0X260,後壁,2026-07-25,23.366358,120.362326,0.023141082
C0Z230,和平,2026-07-25,24.30717,121.77007,0.06788458
C0G770,福興,2026-07-25,24.041289,120.437669,0.012517318
C0H9A0,神木村,2026-07-25,23.532742,120.843667,1.0595173e-08
C0I460,南投,2026-07-25,23.911469,120.687331,0.9923198
C0I480,梅峰,2026-07-25,24.085272,121.173572,4.284954e-09
C2D770,巨埔,2026-07-25,24.84435,121.11442,0.9739174
C2A560,福山,2026-07-25,24.776203,121.502811,0.9270249
C0AH30,五分山,2026-07-25,25.07125,121.780794,0.9963562
C0FA10,松柏,2026-07-25,24.429115,120.617482,0.8414977
72S200,東改班鳩分場,2026-07-25,22.829528,121.077694,0.35560933
72HA00,中改埔里分場,2026-07-25,23.903208,120.963364,0.00094419485
C2H9W0,大坪頂農水,2026-07-25,24.043122,120.932781,7.738233e-05
C0C650,平鎮,2026-07-25,24.897503,121.214636,0.43770632
C0S930,延平,2026-07-25,22.902581,121.084058,0.9635258
C0UA60,樟樹山,2026-07-25,24.41393,121.78325,0.85140425
C2UC10,出水溪,2026-07-25,24.615822,121.652253,0.70104146
C1S670,摩天,2026-07-25,23.199503,121.027,2.0909075e-08
C2C590,觀音,2026-07-25,25.027072,121.153317,0.9948347
C0V630,茄萣,2026-07-25,22.906642,120.182608,0.014031551
466940,基隆,2026-07-25,25.133314,121.740475,0.26712874
C0X050,東河,2026-07-25,23.296598,120.385608,0.3696426
C0R770,保力,2026-07-25,22.071122,120.764111,0.0019908291
G2L020,農試嘉義分所,2026-07-25,23.485028,120.473806,0.09435386
C0X240,關子嶺,2026-07-25,23.331169,120.508025,0.7134909
C0I380,集集,2026-07-25,23.828206,120.801467,0.3705186
466990,花蓮,2026-07-25,23.975128,121.613275,0.14130127
C1V220,小關山,2026-07-25,23.154217,120.813603,8.201554e-09
C1F9G1,慶福山,2026-07-25,24.180853,120.848378,1.3179515e-06
C0FB20,雪山橋,2026-07-25,24.23192,120.9786,8.259292e-09
C0Z250,瑞穗林道,2026-07-25,23.49284,121.30688,1.1020779e-05
C0D590,新豐,2026-07-25,24.87068,120.97721,0.9305012
C2N200,口宵里,2026-07-25,23.15987,120.45988,0.7736389
C0A870,五指山,2026-07-25,25.132153,121.608692,6.250475e-07
C0UA50,西帽山,2026-07-25,24.555361,121.802628,0.28569472
C2R980,竹田國中,2026-07-25,22.61532,120.52412,0.0028793104
C0X160,仁德,2026-07-25,22.968258,120.257689,0.029358668
C1H971,六分寮,2026-07-25,23.92507,120.6378,0.53258866
C2D790,石鹿,2026-07-25,24.56551,121.15841,7.015565e-08
C0W120,西嶼,2026-07-25,23.5626,119.468436,0.9610127
C0G650,員林,2026-07-25,23.946503,120.585597,0.7105723
C0AD50,鶯歌,2026-07-25,24.951533,121.346294,0.2570292
C2H9Q0,北東眼山,2026-07-25,24.120939,121.189303,4.088194e-09
C2H9T0,名間竹圍,2026-07-25,23.859914,120.637572,0.4876208
C0S990,山豬窟,2026-07-25,22.318619,120.857372,0.50486696
C0X190,安平,2026-07-25,22.993161,120.152181,0.032345735
C0K400,斗六,2026-07-25,23.720583,120.541127,0.10870531
12J990,口湖工作站,2026-07-25,23.589978,120.180394,0.009992708
C0O830,北寮,2026-07-25,23.079561,120.495008,0.23300415
C1D410,白蘭,2026-07-25,24.579364,121.079947,6.513157e-09
C0S970,加津林,2026-07-25,22.416211,120.926942,0.92105776
C0D700,關西,2026-07-25,24.7977,121.1732,0.54326904
C0U750,龜山島,2026-07-25,24.841667,121.953133,0.9918549
C0R810,內獅,2026-07-25,22.305064,120.642986,0.023099318
C2EA10,拉庫斯,2026-07-25,24.53637,121.02137,3.2081395e-08
C1M390,龍美,2026-07-25,23.406728,120.654417,1.0364931e-07
C2K290,崙內,2026-07-25,23.69525,120.35601,0.04139946
C2FB60,頭櫃山,2026-07-25,24.129842,120.858925,1.3364844e-08
C1H840,國三N238K,2026-07-25,23.841008,120.707711,0.17495544
CAQ030,崎峰國小,2026-07-25,22.42565,120.49521,0.0013988301
C2E520,大湖,2026-07-25,24.414939,120.870872,0.9608943
467530,阿里山,2026-07-25,23.508208,120.813242,5.0392504e-09
C1E691,南湖,2026-07-25,24.40135,120.837533,0.0024362435
C0FA30,梧棲,2026-07-25,24.256003,120.523381,0.027056264
C1V231,高中,2026-07-25,23.134911,120.716711,8.750893e-06
C0AK30,硬漢嶺,2026-07-25,25.136097,121.426372,3.6386085e-05
C0F9V0,新社,2026-07-25,24.200172,120.815806,0.755772
C0H890,埔里,2026-07-25,23.972169,120.952425,0.5590581
C0R690,墾丁,2026-07-25,21.966756,120.810269,2.710684e-05
C0SD20,富山,2026-07-25,22.822383,121.190825,0.12998506
C0F0D0,審馬陣,2026-07-25,24.381675,121.4203,6.586753e-09
C2W030,金門農試所,2026-07-25,24.448431,118.451786,0.01682228
C0R820,白鷺,2026-07-25,22.454275,120.666219,1.2945254e-05
C0FB00,大雪山,2026-07-25,24.254668,121.007374,8.195549e-09
C2O880,南化,2026-07-25,23.17332,120.59413,0.31870785
C1V190,南天池,2026-07-25,23.27403,120.91176,6.802712e-09
C0E940,雪見,2026-07-25,24.42595,121.01347,2.417476e-09
K2E360,苗栗農改場,2026-07-25,24.495722,120.829111,0.95577043
CAJ050,海口故事園區,2026-07-25,23.57543,120.14121,0.009992708
C2K280,四湖,2026-07-25,23.6304,120.22717,0.007847859
C2H9D0,三隻寮,2026-07-25,24.093078,120.861578,3.5404526e-06
C0O990,媽廟,2026-07-25,22.99175,120.293525,0.030821295
C0Z220,和平林道,2026-07-25,24.343922,121.656317,0.981741
C0TA10,花蓮漁港,2026-07-25,23.995322,121.638331,0.58213705
72C440,桃園農改場,2026-07-25,24.950944,121.030583,0.9949108
C1E711,馬拉邦山,2026-07-25,24.367306,120.901656,2.2348528e-05
C0SB20,富岡,2026-07-25,22.792467,121.192669,0.13319947
C0D560,竹東,2026-07-25,24.767147,121.057881,0.92044085
C0F9U0,南屯,2026-07-25,24.137006,120.637969,0.06719817
C2SD60,明峰,2026-07-25,22.8671,121.11825,0.87515754
C0M720,番路,2026-07-25,23.464657,120.554156,0.32763767
C0F0A0,雪山圈谷,2026-07-25,24.388594,121.236339,1.3103445e-08
C1A9N0,四十份,2026-07-25,24.934158,121.593283,0.9792712
C0U760,東澳,2026-07-25,24.52196,121.83318,0.20145087
C0X230,鹽水,2026-07-25,23.272621,120.247641,0.018531961
C2H9H0,苗改南投蜂場,2026-07-25,23.852589,120.693481,0.83111376
C2TB70,達谷寮,2026-07-25,23.38,121.35968,0.7224446
C0R950,萬隆國小,2026-07-25,22.507667,120.587817,0.012152178
467540,大武,2026-07-25,22.35572,120.90374,0.8611757
C0V370,古亭坑,2026-07-25,22.893178,120.401947,0.08511939
C1I340,新興橋,2026-07-25,23.563333,120.868728,2.648467e-07
C2C480,桃園,2026-07-25,24.992425,121.323172,0.44658437
C0SA80,土坂,2026-07-25,22.453108,120.887572,0.9736683
C0R160,鹽埔,2026-07-25,22.739558,120.530778,0.017217305
C0AC40,大屯山,2026-07-25,25.175675,121.522408,1.4032033e-09
466850,五分山雷達站,2026-07-25,25.071182,121.781205,0.9953291
C2H9L0,馬烈霸,2026-07-25,24.1512,121.201772,4.147278e-09
C1AI50,國三N016K,2026-07-25,25.034164,121.619664,0.6524138
C2V920,匏子寮,2026-07-25,23.04905,120.55319,0.056033734
C1V600,藤枝,2026-07-25,23.071961,120.757042,4.633299e-09
C1E601,南勢,2026-07-25,24.572486,120.734842,0.98456943
C0O980,新市,2026-07-25,23.061614,120.298197,0.039438095
C0K420,西螺,2026-07-25,23.800407,120.467394,0.13616756
C0Z050,佳心,2026-07-25,23.34567,121.21316,0.638724
C0AD30,蘆洲,2026-07-25,25.086594,121.472331,0.42088845
C0V610,梓官,2026-07-25,22.760558,120.267211,0.02317159
K2F750,種苗改良場,2026-07-25,24.225972,120.800917,0.8312504
C0UA80,大溪漁港,2026-07-25,24.941801,121.902955,0.887108
C1AI60,國一39K邊坡,2026-07-25,25.064361,121.383836,0.86384803
C0W150,金寧,2026-07-25,24.457703,118.328989,0.16259085
C0R960,內埔,2026-07-25,22.608483,120.570714,0.0027012457
C2H9S0,龍南,2026-07-25,23.953536,120.833183,6.8063365e-08
C0AH40,平等,2026-07-25,25.129142,121.577086,0.8083942
C0R540,佳冬,2026-07-25,22.419456,120.552375,0.00079453323
466950,彭佳嶼,2026-07-25,25.627975,122.079744,1.4345519e-05
C0A890,雙溪,2026-07-25,25.036003,121.864242,0.9415133
C0AH50,林口,2026-07-25,25.072181,121.38084,0.88580364
A2K360,水試臺西試驗場,2026-07-25,23.717231,120.190522,0.009289331
C2M960,外寮,2026-07-25,23.562643,120.665688,2.3105157e-08
C0F9S0,烏日,2026-07-25,24.107058,120.624103,0.10526619
C2N180,鹿陶洋,2026-07-25,23.14325,120.48352,0.35933495
C0C490,八德,2026-07-25,24.928708,121.283289,0.405116
C0R190,赤山,2026-07-25,22.592333,120.614306,0.0023238237
C0T820,天祥,2026-07-25,24.179597,121.495639,0.9566027
C1F9E1,龍安,2026-07-25,24.1605,120.831961,0.56077117
C2SD50,順那,2026-07-25,23.04166,121.29332,0.612383
C0V820,小林,2026-07-25,23.148408,120.63325,0.122655384
C2G870,芳苑,2026-07-25,23.922303,120.320025,0.050869595
C0E850,大河,2026-07-25,24.618069,120.948578,0.9968676
C1U670,寒溪,2026-07-25,24.634,121.71691,0.09325491
C0N020,城西,2026-07-25,23.0568,120.0956,0.089312315
C1Z110,三棧,2026-07-25,24.11557,121.60501,0.9527742
C0R280,檳榔,2026-07-25,22.076078,120.836777,0.007720583
C2H9J0,中台,2026-07-25,23.9996,120.938739,0.08864184
C0F9L0,后里,2026-07-25,24.310436,120.729725,0.6841304
467441,高雄,2026-07-25,22.730432,120.312516,0.09049489
C2N210,岩坑,2026-07-25,23.24614,120.47458,0.7893251
C0Z180,新城,2026-07-25,24.040486,121.604878,0.13961957
C0D540,橫山,2026-07-25,24.71116,121.11693,0.8990442
C1D420,太閣南,2026-07-25,24.632808,121.160575,5.830308e-07
C1E770,公館,2026-07-25,24.526914,120.830806,0.9961098
CAN130,水試所海水繁養殖中心,2026-07-25,23.120802,120.07968,0.06965902
C1I430,翠華,2026-07-25,24.191961,121.224339,4.5277733e-09
C1M400,菜瓜坪,2026-07-25,23.251928,120.576103,0.083098866
C0G730,二林,2026-07-25,23.903325,120.376081,0.020255823
72M360,南改義竹分場,2026-07-25,23.360694,120.279361,0.015548559
V2K620,麥寮合作社,2026-07-25,23.753836,120.294783,0.022865979
C0Z070,舞鶴,2026-07-25,23.46811,121.37407,0.84112495
C0B040,大武崙,2026-07-25,25.166676,121.706993,0.18871087
C1Z030,紅葉,2026-07-25,23.493119,121.338806,0.7981532
C1I050,丹大,2026-07-25,23.753747,121.141147,8.376997e-09
C0I080,信義,2026-07-25,23.689694,120.851036,0.4864428
C2TB80,庄子底,2026-07-25,23.71794,121.49438,0.15755889
C0D750,樂山林道6k,2026-07-25,24.49999,121.08773,1.0154511e-08
C2M920,朴子農改,2026-07-25,23.469889,120.259383,0.015845234
C2A880,福隆,2026-07-25,25.017842,121.942083,0.07551167
C0Z160,鳳林,2026-07-25,23.746114,121.453411,0.1622447
C0UB80,翠峰林道6K,2026-07-25,24.49773,121.568625,1.366285e-08
C0V210,復興,2026-07-25,23.222403,120.806089,0.000108775064
C0H990,昆陽,2026-07-25,24.121322,121.273642,6.345374e-09
C0R741,獅子,2026-07-25,22.202308,120.705236,0.022542236
C0S710,鹿野,2026-07-25,22.917711,121.122994,0.98132527
C0I530,小奇萊,2026-07-25,24.131764,121.295717,7.328039e-09
C0FA70,大雪山埡口,2026-07-25,24.26867,121.03062,6.545362e-09
C2K630,荷苞,2026-07-25,23.657717,120.595144,0.046997115
C0Z080,富源,2026-07-25,23.587642,121.378225,0.30943713
C2M9E0,旺來山,2026-07-25,23.555153,120.486463,0.1852334
C0SB10,美和,2026-07-25,22.682078,121.060236,0.47519207
C2K620,馬光農場,2026-07-25,23.721453,120.378864,0.14815389
C1I140,卡奈托灣,2026-07-25,23.754364,121.087872,9.327478e-09
C0I520,玉山風口,2026-07-25,23.470489,120.955994,1.4567126e-08
C1G691,下水埔,2026-07-25,23.816114,120.5676,0.29473573
C0X110,臺南市南區,2026-07-25,22.961189,120.188378,0.030661717
C0V680,仁武,2026-07-25,22.701083,120.347722,0.09049489
C2G840,北斗,2026-07-25,23.877586,120.514222,0.030656757
C2TB90,長橋,2026-07-25,23.6874,121.46186,0.1670596
C0R900,竹坑,2026-07-25,22.1385,120.7022,0.0012949742
C0G860,社頭,2026-07-25,23.897647,120.5862,0.39313364
C0X150,安定,2026-07-25,23.102614,120.227839,0.020163469
C0R590,里港,2026-07-25,22.77919,120.49459,0.014677904
C0E610,馬都安,2026-07-25,24.451272,120.930192,0.42258242
C0E550,明德,2026-07-25,24.583486,120.885411,0.9952696
C0R150,三地門,2026-07-25,22.709889,120.639944,0.028603494
C0G910,花壇,2026-07-25,24.032076,120.549461,0.018085865
C1D400,鳥嘴山,2026-07-25,24.71909,121.28387,0.00024256358
C0F0B0,石岡,2026-07-25,24.276061,120.777644,0.7384518
C2V250,甲仙,2026-07-25,23.080106,120.591758,0.47683176
C0SA20,金崙山,2026-07-25,22.567419,120.959667,2.5799865e-08
C0V350,溪埔,2026-07-25,22.738578,120.446797,0.040470805
C0M660,溪口,2026-07-25,23.604131,120.403569,0.031995323
C1S880,壽卡,2026-07-25,22.238911,120.858903,0.07093001
72D680,桃改新埔分場,2026-07-25,24.834444,121.066111,0.99703765
