站號,站名,日期,lat,lon,BLBTSLS
C0R710,龍磐,2026-02-22,21.931672,120.838942,0.8735171
C1F9D1,白毛台,2026-02-22,24.158325,120.886933,1.5076568e-08
C0G940,竹塘,2026-02-22,23.848253,120.386764,7.6105016e-07
467590,恆春,2026-02-22,22.003897,120.746339,0.59696364
C1O850,環湖,2026-02-22,23.148617,120.418633,4.7237793e-07
C0U710,太平山,2026-02-22,24.505486,121.525656,3.3299614e-08
C0E820,獅潭,2026-02-22,24.539133,120.920042,6.852526e-07
C2SD70,二層坪,2026-02-22,22.94105,121.16838,1.8850764e-07
C0V880,興達,2026-02-22,22.8778,120.2127,0.9991576
C0S890,關山,2026-02-22,23.0395,121.175017,1.6843515e-07
C0SB30,新蘭,2026-02-22,22.869214,121.223228,9.050656e-07
C2R970,屏科大,2026-02-22,22.648275,120.619247,0.9537092
C1Z130,銅門,2026-02-22,23.965694,121.492842,3.5457738e-08
C0AD40,土城,2026-02-22,24.973208,121.445169,5.056187e-06
CAN140,六官養殖協會,2026-02-22,23.22881,120.29962,0.99586225
C0X180,山上,2026-02-22,23.0757,120.363253,0.9934078
C0F9Z0,雪山東峰,2026-02-22,24.388792,121.268675,4.527007e-08
C1M480,獨立山,2026-02-22,23.537022,120.607797,1.9296607e-09
C0X220,學甲,2026-02-22,23.230367,120.182187,0.99586225
467650,日月潭,2026-02-22,23.881325,120.90805,4.8849635e-09
A2K570,古坑(花卉中心),2026-02-22,23.633531,120.552392,7.485314e-08
C0K600,箔子寮,2026-02-22,23.6197,120.14,0.6470276
C0G830,埤頭,2026-02-22,23.866003,120.452806,7.6105016e-07
C0S950,七塊厝,2026-02-22,22.954453,121.229922,6.746056e-08
467110,金門,2026-02-22,24.407306,118.289281,2.3194077e-06
C0AH80,深坑,2026-02-22,25.002703,121.628328,8.97656e-06
C0A970,三貂角,2026-02-22,25.007606,122.002058,5.2688047e-06
C2D730,寶山農場,2026-02-22,24.732444,120.976153,0.7634245
C0K430,褒忠,2026-02-22,23.690938,120.303634,1.4382863e-06
467480,嘉義,2026-02-22,23.495925,120.432906,0.00017938629
C0V400,阿公店,2026-02-22,22.804194,120.355528,0.99365103
C0E960,觀霧分站,2026-02-22,24.505781,121.113921,2.2910095e-08
467550,玉山,2026-02-22,23.48718,120.95943,5.6039323e-08
C0R440,大漢山,2026-02-22,22.405264,120.753181,2.6385056e-08
C0SD30,東清國小,2026-02-22,22.057128,121.564922,0.9919463
C1F9B1,桐林,2026-02-22,24.066172,120.735194,0.15606472
C2H9U0,鳳鵬,2026-02-22,23.763919,120.788061,3.162157e-08
C0K390,土庫,2026-02-22,23.679029,120.395574,7.6105016e-07
C1I450,望鄉山,2026-02-22,23.594153,120.944286,3.5940285e-08
C0E910,海埔,2026-02-22,24.648767,120.772435,0.011045528
B2E890,畜試北區分所,2026-02-22,24.527806,120.770972,9.736986e-05
C0R750,四林格山,2026-02-22,22.076989,120.802439,0.99996215
C0F0C0,中坑,2026-02-22,24.248517,120.903319,8.081673e-09
C1I121,大鞍,2026-02-22,23.678381,120.760017,6.1017977e-09
C2G9E0,移民庄,2026-02-22,23.9784,120.40283,1.6233867e-05
72U480,花改蘭陽分場,2026-02-22,24.686306,121.716583,5.6197095e-08
C0A770,科教館,2026-02-22,25.096356,121.516507,7.003217e-06
C0AJ60,六塊厝,2026-02-22,25.24,121.4481,0.9999567
C0R620,墾雷,2026-02-22,21.900836,120.855269,0.63427556
467420,永康,2026-02-22,23.038386,120.2367,0.9988748
C2M530,奮起湖,2026-02-22,23.493903,120.699253,5.00938e-09
C0I410,名間,2026-02-22,23.837053,120.701447,2.1584592e-05
A2C560,農工中心,2026-02-22,24.985917,121.239833,0.9876144
C0V740,旗山,2026-02-22,22.888614,120.483597,0.12053342
C0Z061,玉里,2026-02-22,23.3215,121.339656,1.0206826e-07
C0S840,南田,2026-02-22,22.279725,120.889208,0.99995226
C1I470,杉林溪,2026-02-22,23.639517,120.786444,7.632946e-09
C1X040,東原,2026-02-22,23.291597,120.463822,7.939839e-09
C0R660,枋寮,2026-02-22,22.367722,120.590647,0.999794
C1R120,上德文,2026-02-22,22.763272,120.704442,5.120033e-09
C0K450,大埤,2026-02-22,23.646074,120.431537,4.8602357e-07
C0UA00,土場,2026-02-22,24.576533,121.495333,2.3433316e-08
467080,宜蘭,2026-02-22,24.763975,121.756528,5.9627496e-08
C0N030,四草,2026-02-22,23.0235,120.1116,0.9991576
467410,臺南,2026-02-22,22.99328,120.20492,0.99861765
C0V650,彌陀,2026-02-22,22.783806,120.246361,0.9984063
C0D660,新竹市東區,2026-02-22,24.798681,120.986942,0.9342866
82S580,茶改東部分場,2026-02-22,22.907694,121.130139,2.1259991e-07
C0SB40,興隆,2026-02-22,22.913661,121.257469,8.130182e-07
467050,新屋,2026-02-22,25.006725,121.047492,0.99873954
C0C710,大溪永福,2026-02-22,24.892936,121.324975,0.9814519
C0FA20,溫寮,2026-02-22,24.372177,120.583125,8.444378e-05
C0V640,湖內,2026-02-22,22.887139,120.2445,0.9988748
C0R910,下寮,2026-02-22,22.3929,120.5548,0.999794
C0Z020,明里,2026-02-22,23.208717,121.262342,8.0898964e-08
C0M770,嘉義梅山,2026-02-22,23.585398,120.555587,1.16590186e-07
C0C660,楊梅,2026-02-22,24.912375,121.143047,0.9656126
C0SD40,牛頭山,2026-02-22,22.676661,121.506944,0.99997497
C1E511,新開,2026-02-22,24.347703,120.827019,4.7363923e-05
G2F820,農試所(霧峰),2026-02-22,24.031261,120.688133,0.4397208
C2M990,大巃頂,2026-02-22,23.5547,120.61439,2.6355016e-09
C1I070,和社,2026-02-22,23.591131,120.888861,4.3494777e-09
C2E990,新坪頂,2026-02-22,24.30201,120.8574,6.07055e-08
C0TA80,立霧山,2026-02-22,24.183258,121.641899,4.2244583e-08
C2F000,大肚,2026-02-22,24.15295,120.572117,1.0234918e-07
C1S850,豐南,2026-02-22,23.122139,121.262389,5.614802e-08
C2M9B0,西興,2026-02-22,23.2428,120.57617,1.964877e-09
C2A920,富貴角,2026-02-22,25.263783,121.565258,0.99906
C0T960,光復,2026-02-22,23.660694,121.424964,3.8242625e-08
C0F9M0,豐原,2026-02-22,24.254322,120.720692,0.0077013997
C0R720,旭海,2026-02-22,22.205403,120.887614,0.9999523
C0V710,苓雅,2026-02-22,22.622742,120.330669,0.9976998
C0C740,觀音工業區,2026-02-22,25.064764,121.114856,0.99894756
CAC040,拉拉山,2026-02-22,24.699317,121.427133,3.6082398e-08
C0V790,萬山,2026-02-22,22.905944,120.688056,4.016208e-09
U2HA30,臺大和社,2026-02-22,23.590856,120.888864,4.3494777e-09
C2H9K0,屯原,2026-02-22,24.067969,121.209389,1.8993536e-08
C0AJ90,澳底,2026-02-22,25.0552,121.9253,4.0337032e-05
C0Z100,東華,2026-02-22,23.89525,121.549833,4.6060304e-08
C0G970,三豐,2026-02-22,23.882,120.2895,1.9452766e-06
C0V900,汕尾,2026-02-22,22.4782,120.4151,0.9998042
C1R630,龍泉,2026-02-22,22.66701,120.59091,0.9889828
C1AC50,關渡,2026-02-22,25.133486,121.469331,0.9998319
C0C800,四稜,2026-02-22,24.64733,121.4293,2.9528731e-08
C0F9I0,神岡,2026-02-22,24.272481,120.658314,0.033979863
C0K460,斗南,2026-02-22,23.678734,120.478359,4.232261e-07
C2O810,曾文,2026-02-22,23.219681,120.497328,2.450489e-08
467280,後龍,2026-02-22,24.648563,120.831834,0.001495592
C1F9J1,清水林,2026-02-22,24.071242,120.820419,1.5395933e-08
C2A650,火燒寮,2026-02-22,25.002719,121.742892,3.725129e-07
466930,竹子湖,2026-02-22,25.162078,121.544547,0.00023451631
C1I220,樟湖,2026-02-22,23.905333,120.846983,5.4813234e-09
C0I390,仁愛,2026-02-22,24.022122,121.132206,5.64967e-09
C0Z300,東里,2026-02-22,23.26853,121.30547,9.6451224e-08
C1V590,新發,2026-02-22,23.057019,120.646064,3.6014722e-09
C0K510,水林,2026-02-22,23.572924,120.24597,0.6470276
72S590,東改賓朗果園,2026-02-22,22.813889,121.071278,1.8637078e-06
82A750,茶改北部分場,2026-02-22,24.955778,121.631222,1.4579197e-07
C1A750,石碇服務區,2026-02-22,25.00872,121.646242,5.963562e-06
C0X300,鹿寮,2026-02-22,23.386047,120.477331,4.276455e-06
C0K590,雲林東勢,2026-02-22,23.674192,120.255721,1.4382863e-06
C2K310,港尾布雞,2026-02-22,23.74834,120.38439,7.6105016e-07
C0A570,桶後,2026-02-22,24.848222,121.597992,3.680782e-08
C1S800,華源,2026-02-22,22.657883,121.02325,0.00014541764
C0G720,溪州,2026-02-22,23.851589,120.499093,4.2322532e-07
C1V160,達卡努瓦,2026-02-22,23.279811,120.705319,3.7082477e-09
C2M410,馬頭山,2026-02-22,23.324361,120.582017,3.760363e-09
C0V850,蚵仔寮,2026-02-22,22.7256,120.2527,0.9984063
C0S740,池上,2026-02-22,23.119628,121.209469,1.14744104e-07
C1V390,尖山,2026-02-22,22.813153,120.367789,0.9714664
C0AH70,松山,2026-02-22,25.04871,121.55042,5.966839e-06
C0N010,鯤鯓國小,2026-02-22,23.1879,120.0889,0.99586225
C0R550,新埤,2026-02-22,22.467947,120.582894,0.99977064
C0SA60,知本（水試所）,2026-02-22,22.702394,121.082761,0.0067413934
C0T9I0,豐濱,2026-02-22,23.583897,121.514806,3.7673576e-08
C0UB00,淡江大學蘭陽校園,2026-02-22,24.823239,121.730383,2.835226e-08
C0W240,九宮,2026-02-22,24.423753,118.240186,0.0005576478
C0T9N0,富里,2026-02-22,23.171639,121.249378,7.552185e-08
U2HA50,臺大竹山,2026-02-22,23.756972,120.681556,2.1584592e-05
C0V840,鳳鼻頭,2026-02-22,22.5083,120.3591,0.9998042
C0X140,西港,2026-02-22,23.125608,120.203108,0.99586225
72D080,桃改五峰分場,2026-02-22,24.612194,121.157167,1.04032125e-08
C2H9P0,伊拿谷,2026-02-22,23.963211,121.088264,4.611021e-09
C2K250,崙背,2026-02-22,23.75553,120.31893,1.4382863e-06
C2H9F0,柑林,2026-02-22,24.018658,120.847072,0.00019891383
C0TA20,加灣,2026-02-22,24.082025,121.608944,1.930713e-07
C0V530,阿蓮,2026-02-22,22.883208,120.327508,0.99810845
C0FB30,八仙山苗圃,2026-02-22,24.192719,121.001366,8.156469e-09
C1O880,關山,2026-02-22,23.173397,120.594092,3.6278847e-09
C0E791,卓蘭,2026-02-22,24.3126,120.8244,3.1520816e-05
C1I030,武界,2026-02-22,23.913225,121.052483,4.668276e-09
C0R520,崁頂,2026-02-22,22.514781,120.506914,0.999794
C0R341,牡丹,2026-02-22,22.130036,120.792639,0.99979913
C0R930,萬丹,2026-02-22,22.5885,120.4851,0.99977064
C0S760,紅石,2026-02-22,23.069131,121.126219,2.4955867e-08
C2C410,中央大學,2026-02-22,24.967652,121.185165,0.9814519
C1M610,石磐龍,2026-02-22,23.496606,120.663506,3.6374326e-09
C0C790,東眼山,2026-02-22,24.8284,121.40888,2.7665068e-08
C0UA10,鴛鴦湖,2026-02-22,24.590269,121.412228,3.0292593e-08
C0R800,丹路,2026-02-22,22.204481,120.750989,0.99994063
C0G920,永靖,2026-02-22,23.924703,120.547533,4.191458e-06
C2M950,太和,2026-02-22,23.538372,120.702961,4.9384563e-09
C1A630,下盆,2026-02-22,24.771003,121.538622,2.8956988e-08
B2N890,畜產試驗所,2026-02-22,23.058972,120.336406,0.99761724
C0UA30,白嶺,2026-02-22,24.527819,121.519031,2.5953163e-08
467571,新竹,2026-02-22,24.828575,121.01455,0.95648825
C1V580,溪南(特生中心),2026-02-22,23.084972,120.788475,9.594094e-09
C1T970,大農,2026-02-22,23.615233,121.413331,3.5005694e-08
C0R650,竹田,2026-02-22,22.58486,120.54344,0.9997832
C1H900,清流,2026-02-22,24.080775,120.962997,4.6416666e-09
C1C510,水尾,2026-02-22,24.940081,121.087161,0.9931866
C2N170,茅港尾,2026-02-22,23.2061,120.2624,0.99586225
C0F9X0,大雅(中科園區),2026-02-22,24.21528,120.62445,7.508757e-07
C0SB60,白守蓮,2026-02-22,23.126769,121.401914,0.9925306
C0O970,虎頭埤,2026-02-22,23.021375,120.347878,0.9909349
C0C730,中大臨海站,2026-02-22,24.966126,121.008581,0.9793485
C0X250,新營,2026-02-22,23.310689,120.316681,0.9910561
C0V700,三民,2026-02-22,22.645017,120.311233,0.9976998
C0U870,大礁溪,2026-02-22,24.791042,121.675047,2.658956e-08
C0E870,高鐵苗栗,2026-02-22,24.60725,120.826094,0.0035910697
C0TA30,鹽寮,2026-02-22,23.845606,121.592664,4.9067516e-08
C0M860,新美,2026-02-22,23.338017,120.683169,2.3178728e-09
C1E701,八卦,2026-02-22,24.491756,120.927619,2.9725213e-08
C2TA90,加納納,2026-02-22,23.466421,121.359867,3.293634e-08
C0I420,國姓,2026-02-22,24.037803,120.855072,4.6907408e-05
C2D720,關西工作站,2026-02-22,24.757275,121.184792,7.6419207e-07
C0S960,香蘭,2026-02-22,22.587569,120.993375,0.74309856
467620,蘭嶼,2026-02-22,22.0369,121.55843,0.99933773
C0R260,春日,2026-02-22,22.370361,120.628306,0.999685
72G600,臺中農改場,2026-02-22,24.003028,120.534389,1.2095695e-05
C0Z210,瑞穗,2026-02-22,23.5239,121.39021,3.874489e-08
C0M820,達邦,2026-02-22,23.453994,120.749517,2.9919962e-09
C0V860,南寮,2026-02-22,22.7616,120.2339,0.9987495
C0G740,大城,2026-02-22,23.852487,120.320935,1.4382863e-06
C0R920,塭仔,2026-02-22,22.4169,120.5197,0.9998042
C0R470,高樹,2026-02-22,22.826389,120.600806,0.97481215
C0R680,佳樂水,2026-02-22,21.993578,120.861633,0.5889639
C1O870,大棟山,2026-02-22,23.31157,120.52226,3.583007e-09
C0D360,梅花,2026-02-22,24.678347,121.208558,3.8659923e-08
C0Z190,富世,2026-02-22,24.14743,121.6297,1.604013e-07
C0AI10,屈尺,2026-02-22,24.92184,121.54475,2.5399233e-06
B2U990,畜試東區分所,2026-02-22,24.669039,121.832561,6.07858e-08
C0SB80,長濱漁港,2026-02-22,23.313644,121.459994,0.9866273
C0TA50,和仁,2026-02-22,24.241394,121.712472,2.1500507e-07
C0V910,大樹,2026-02-22,22.684645,120.432803,0.9943044
C1R610,西大武山,2026-02-22,22.617719,120.7322,2.7111149e-08
C0G900,線西,2026-02-22,24.143358,120.443536,8.444378e-05
C0M700,竹崎,2026-02-22,23.526178,120.555508,1.9042638e-07
C2E880,三義,2026-02-22,24.405478,120.749819,3.4250796e-08
C0C720,竹圍,2026-02-22,25.112692,121.239824,0.9991052
C0F9P0,清水,2026-02-22,24.312297,120.562242,8.144358e-05
C0Z150,吉安光華,2026-02-22,23.930925,121.595153,4.9067516e-08
C0FA80,小雪山天池,2026-02-22,24.28025,121.02627,2.9081136e-08
467300,東吉島,2026-02-22,23.25727,119.66762,0.9994625
C1D640,外坪(五指山),2026-02-22,24.644447,121.090961,1.18653674e-07
C2R9A0,高士國小,2026-02-22,22.12553,120.84653,0.9999042
C0F9O0,潭子,2026-02-22,24.213106,120.703933,0.045633387
C2H9R0,卓社,2026-02-22,23.887894,121.000086,6.5507573e-09
72T250,花蓮農改場,2026-02-22,23.975222,121.563889,4.6060304e-08
C0E780,銅鑼,2026-02-22,24.489681,120.790853,3.020498e-06
C1T950,太安,2026-02-22,23.666719,121.370128,1.1949315e-08
C0E830,苑裡,2026-02-22,24.439714,120.653053,0.0035910697
467270,田中,2026-02-22,23.873803,120.581286,2.8433502e-07
C0SA10,檳榔四格山,2026-02-22,22.810031,121.109308,5.891129e-07
C1T830,布洛灣,2026-02-22,24.17184,121.57127,7.183811e-08
C0F970,大坑,2026-02-22,24.173142,120.722289,0.20169324
C1U920,思源,2026-02-22,24.393125,121.347214,2.2536115e-08
C2H9Y0,松茗,2026-02-22,23.8167,120.650765,1.3292796e-08
C0A931,三和,2026-02-22,25.233153,121.595236,0.9975472
C0I010,廬山,2026-02-22,24.033311,121.181808,1.2686834e-08
C2M940,日野賀,2026-02-22,23.434056,120.727169,3.739828e-09
C0R860,鼻頭,2026-02-22,22.1043,120.8979,0.74163896
C0UB20,壯圍,2026-02-22,24.7359,121.8163,6.07858e-08
C0R790,九棚,2026-02-22,22.14195,120.889281,0.9999652
C0W110,東莒,2026-02-22,25.9652,119.98069,4.068771e-05
C1U930,粉鳥林,2026-02-22,24.497088,121.842479,5.117438e-08
C1I211,蘆竹湳,2026-02-22,23.934019,120.811994,4.0681737e-08
C0S830,長濱,2026-02-22,23.286817,121.411975,7.552185e-08
C1F9F1,伯公龍,2026-02-22,24.272392,120.849047,1.5865584e-07
C0UB90,太平山莊,2026-02-22,24.494171,121.536209,3.3557395e-08
C0E810,西湖,2026-02-22,24.562947,120.7485,0.0013131078
C1I440,新高口,2026-02-22,23.478744,120.878939,2.612939e-08
C0O840,王爺宮,2026-02-22,23.222064,120.40085,2.450489e-08
C0T9G0,鳳林山,2026-02-22,23.735269,121.420131,2.708195e-08
C0X080,佳里,2026-02-22,23.173039,120.145086,0.9965789
C0FB70,大甲溪埔,2026-02-22,24.370625,120.620067,4.2786545e-05
C0Z310,清水斷崖,2026-02-22,24.218294,121.689142,1.2166026e-07
C0M680,太保,2026-02-22,23.455062,120.331455,0.5014265
C1S820,金峰,2026-02-22,22.590969,120.933236,0.003093094
C0AD10,八里,2026-02-22,25.150211,121.403947,0.9999542
C2K240,草嶺,2026-02-22,23.59555,120.693461,3.7146473e-09
C1SA70,都蘭,2026-02-22,22.87794,121.226881,8.130182e-07
C0K440,二崙,2026-02-22,23.772797,120.408944,7.6105016e-07
C1A760,坪林交控,2026-02-22,24.94284,121.713442,5.8223844e-07
C0F9N0,大里,2026-02-22,24.092464,120.701378,0.59832436
C0SA90,達仁林場,2026-02-22,22.264347,120.823972,2.0869017e-07
C1R290,石門山,2026-02-22,22.112611,120.756597,0.9999458
42HA10,萬大發電廠,2026-02-22,23.978875,121.139639,5.050557e-09
C0R890,山海,2026-02-22,21.9878,120.7091,0.5638064
C0T9A0,月眉山,2026-02-22,23.809928,121.539828,2.7602189e-08
C0AC70,信義,2026-02-22,25.037822,121.564597,5.966839e-06
C0K560,棋山,2026-02-22,23.68645,120.603417,5.2451636e-08
C2FB50,出雲,2026-02-22,24.206469,120.902794,8.083693e-09
C1Z240,中平林道,2026-02-22,23.42115,121.26763,3.2107533e-08
U2H480,溪頭,2026-02-22,23.670306,120.798194,5.437454e-09
C0M880,好美里,2026-02-22,23.3364,120.138,0.9965789
C0T9E0,大坑,2026-02-22,23.880628,121.581981,6.3194214e-08
C0K530,臺西,2026-02-22,23.701547,120.197559,1.9452766e-06
C1E900,國一N128K,2026-02-22,24.560997,120.844186,0.00022060804
C0AJ50,水湳洞,2026-02-22,25.123695,121.862238,3.3694625e-05
C0AI20,白沙灣,2026-02-22,25.283128,121.519058,0.99995005
C2V310,美濃,2026-02-22,22.898792,120.51907,0.15264896
C0A860,大坪,2026-02-22,25.165914,121.632969,1.7556543e-07
C1U850,觀音海岸,2026-02-22,24.38319,121.77856,2.182626e-08
C2K610,草嶺石壁,2026-02-22,23.602469,120.707731,3.8197845e-09
C0U950,鶯子嶺,2026-02-22,24.89754,121.79244,5.859634e-08
C0O900,善化,2026-02-22,23.112883,120.297219,0.9988748
C0K550,蔦松,2026-02-22,23.514319,120.229736,0.6470276
E2P980,林試六龜中心,2026-02-22,22.991703,120.645722,1.7609458e-05
C0E590,通霄,2026-02-22,24.471892,120.704622,0.0005556902
C1I310,西巒,2026-02-22,23.754486,120.883956,5.787941e-09
C0A550,泰平,2026-02-22,24.971197,121.823711,1.4579197e-07
C0I360,水里,2026-02-22,23.812553,120.849792,1.3272344e-07
C0R830,高士,2026-02-22,22.121825,120.836781,0.99996585
C1I101,溪頭,2026-02-22,23.661789,120.807647,8.915345e-09
C0AJ20,野柳,2026-02-22,25.20703,121.690021,0.99995005
C0B060,暖暖,2026-02-22,25.0957,121.7403,5.963562e-06
C1H920,長豐,2026-02-22,24.102039,120.879897,4.7111217e-09
C2S9B0,利吉,2026-02-22,22.86246,121.15486,2.7737622e-07
C0V360,內門,2026-02-22,22.975481,120.466769,0.047358472
C0R850,林邊,2026-02-22,22.4634,120.5339,0.999794
C0E930,龍鳳,2026-02-22,24.700034,120.859125,0.9793485
C0U910,冬山,2026-02-22,24.63373,121.7937,6.07858e-08
C1E721,泰安,2026-02-22,24.489017,120.968036,2.2456135e-08
82H320,茶改中部分場,2026-02-22,23.875611,120.913583,4.573131e-09
C0M750,布袋,2026-02-22,23.380878,120.167789,0.7669518
C1S860,利嘉,2026-02-22,22.809417,121.050528,1.3454908e-07
E2S980,林試太麻里1,2026-02-22,22.598922,120.980044,0.07402192
C0X170,關廟,2026-02-22,22.963017,120.327797,0.996586
C0V720,林園,2026-02-22,22.507747,120.394511,0.9997832
C1I510,線浸林道,2026-02-22,23.761508,120.832956,5.712735e-09
C0D690,外湖,2026-02-22,24.917735,120.968711,0.9793485
C0C750,新興坑尾,2026-02-22,25.0061,121.0971,0.99688447
B2Q810,畜試南區分所,2026-02-22,21.945583,120.802167,0.5889639
C0S790,金崙,2026-02-22,22.538122,120.966875,0.001228233
C0AH90,福山植物園,2026-02-22,24.760717,121.58135,2.8099766e-08
C0I540,奇萊稜線,2026-02-22,24.109231,121.326456,4.3694108e-08
C0M850,表湖,2026-02-22,23.24186,120.64166,2.4864915e-09
C0S770,大溪山,2026-02-22,22.478475,120.943325,1.6282693e-05
C0AG80,中和,2026-02-22,24.991622,121.491792,5.056187e-06
C0T790,大禹嶺,2026-02-22,24.186117,121.316086,3.314829e-08
C0T9B0,水源,2026-02-22,23.991861,121.537169,5.2210286e-08
C0R840,牡丹池山,2026-02-22,22.168389,120.841225,2.2385686e-07
C1I131,桶頭,2026-02-22,23.641944,120.654117,6.406828e-08
CAL110,布袋國中,2026-02-22,23.35893,120.18026,0.99725926
C2M9D0,何竹子腳,2026-02-22,23.53641,120.38203,0.00029486997
C0Z290,赤柯山,2026-02-22,23.36893,121.38293,3.6526185e-08
C0X280,將軍,2026-02-22,23.214999,120.13577,0.99586225
C0S690,太麻里,2026-02-22,22.60902,120.98533,9.069111e-07
C0U880,北關,2026-02-22,24.9072,121.8734,4.0337032e-05
CAW010,東引,2026-02-22,26.3588,120.4836,0.003957984
C0G810,埔心,2026-02-22,23.947633,120.525456,5.446904e-06
C0U970,大福,2026-02-22,24.80064,121.81389,6.07858e-08
C2H9N0,仁愛東眼,2026-02-22,24.026875,121.1205,7.677859e-09
C1E670,南礦,2026-02-22,24.538278,121.002836,2.1347267e-08
C0M520,東後寮,2026-02-22,23.369908,120.248065,0.99586225
C1E461,松安,2026-02-22,24.397972,120.986022,2.1803583e-08
C2N160,西拉雅風管處,2026-02-22,23.189481,120.335297,0.98729694
C2M970,碧湖,2026-02-22,23.568632,120.624165,2.6074514e-09
C0A640,石碇,2026-02-22,24.993969,121.662917,5.8223844e-07
E2S960,林試太麻里2,2026-02-22,22.598,120.99775,0.8061471
C0F9Y0,桃山,2026-02-22,24.432739,121.303808,4.784136e-08
C1I020,萬大,2026-02-22,23.979817,121.132261,5.667543e-09
C2UC20,長嶺,2026-02-22,24.70894,121.61162,3.1583898e-08
C0U940,羅東,2026-02-22,24.68184,121.74934,5.7214944e-08
C0M650,朴子,2026-02-22,23.43463,120.23902,0.6470276
C1I500,大尖山,2026-02-22,23.858572,120.994889,1.4414285e-08
C0FB40,中橫21.6k,2026-02-22,24.2499,121.1455,9.37351e-09
C0G820,田尾,2026-02-22,23.901669,120.509389,4.191458e-06
E2K600,四湖植物園,2026-02-22,23.676986,120.163433,1.4382863e-06
C0S730,綠島,2026-02-22,22.6672,121.47533,0.9999841
12Q970,東港工作站,2026-02-22,22.479997,120.466058,0.999794
C1TA00,太魯閣,2026-02-22,24.15773,121.6236,3.684357e-08
466920,臺北,2026-02-22,25.037658,121.514853,5.966839e-06
C0R600,舊泰武,2026-02-22,22.588194,120.664944,4.3409766e-08
C1I260,北坑,2026-02-22,23.9246,121.006903,5.6082277e-09
466910,鞍部,2026-02-22,25.182586,121.529731,3.6267252e-06
C1I230,九份二山,2026-02-22,23.961944,120.845,1.0506807e-08
C2M810,里佳,2026-02-22,23.389125,120.716647,5.00938e-09
C2A660,瑞芳,2026-02-22,25.113169,121.801147,3.6894064e-06
C0R270,琉球嶼,2026-02-22,22.332244,120.362236,0.999685
C2V580,瑞山,2026-02-22,22.90304,120.43424,0.0378764
C1T990,高寮,2026-02-22,23.394239,121.356808,1.2803854e-07
C0G620,芬園,2026-02-22,24.015678,120.6213,1.3576364e-07
C1Z140,荖溪,2026-02-22,23.890575,121.45964,4.280847e-08
C1I201,中心崙,2026-02-22,23.728722,120.712097,5.103098e-09
C1I400,凌霄,2026-02-22,24.018778,121.004456,7.44131e-09
C1M640,十字,2026-02-22,23.492153,120.753683,6.627723e-09
G2P820,農試鳳山分所,2026-02-22,22.646611,120.356083,0.9954317
C0Z270,蕃薯寮,2026-02-22,23.73835,121.540108,2.997287e-08
C2E420,竹南,2026-02-22,24.70898,120.88897,0.95648825
C0FB10,出雲山苗圃,2026-02-22,24.23105,120.90475,8.149129e-09
C0F9Q0,外埔,2026-02-22,24.347817,120.705686,0.15388413
C0K580,高鐵雲林,2026-02-22,23.737456,120.417944,7.6105016e-07
C2I090,鳳凰,2026-02-22,23.728081,120.787347,4.3827635e-09
C0U990,員山,2026-02-22,24.74435,121.72247,5.9627496e-08
C0V770,大社,2026-02-22,22.730306,120.346639,0.99698955
C0X120,麻豆,2026-02-22,23.183289,120.248611,0.99586225
C0C670,龍潭,2026-02-22,24.870056,121.221389,2.3892883e-07
C0D680,香山濕地,2026-02-22,24.783581,120.914988,0.9793485
C0S980,勝林山,2026-02-22,22.430439,120.8938,8.091486e-08
C0V730,大寮,2026-02-22,22.605614,120.395717,0.99977064
C0R570,麟洛,2026-02-22,22.65078,120.52719,0.9937272
C2M930,石卓,2026-02-22,23.478744,120.702264,6.492964e-09
C0G9B0,和美,2026-02-22,24.105169,120.492131,1.6233867e-05
CAG100,王功漁港,2026-02-22,23.96824,120.32586,4.0896997e-05
C0X290,北門,2026-02-22,23.267772,120.125481,0.99725926
C2F930,大甲,2026-02-22,24.347667,120.640403,0.56842923
C0D650,湖口,2026-02-22,24.904794,121.043628,0.82944614
C0U780,五結,2026-02-22,24.68637,121.79794,6.07858e-08
C1I250,鯉潭,2026-02-22,23.961922,120.991131,4.7111217e-09
C0R130,阿禮,2026-02-22,22.742908,120.743678,5.788504e-09
C0X100,臺南市北區,2026-02-22,23.010394,120.194228,0.9991576
C0S920,金峰嘉蘭,2026-02-22,22.594789,120.960825,0.07402192
C0V490,新興,2026-02-22,22.627422,120.298803,0.9976998
C0F9K0,大安,2026-02-22,24.345061,120.588025,4.2786545e-05
467290,古坑,2026-02-22,23.633639,120.551889,7.485314e-08
C2E970,八甲,2026-02-22,24.535811,120.795983,1.8193584e-06
C0V440,鳳山,2026-02-22,22.646653,120.356122,0.9954317
C1T940,大觀,2026-02-22,23.714206,121.373133,2.758519e-08
C0E740,造橋,2026-02-22,24.637056,120.864778,0.0041025295
C0R100,尾寮山,2026-02-22,22.833111,120.683889,5.761858e-09
A2K630,臺大雲林校區,2026-02-22,23.730628,120.423903,4.8602357e-07
467990,馬祖,2026-02-22,26.169467,119.923158,9.0333407e-07
C0D580,寶山,2026-02-22,24.735006,121.025192,0.31395283
E2P990,林試扇平站,2026-02-22,22.9677,120.6857,3.5112064e-09
C0AI30,三重,2026-02-22,25.057328,121.500629,7.003217e-06
C0AH00,汐止,2026-02-22,25.066881,121.658778,3.3694625e-05
C1Z040,立山,2026-02-22,23.443356,121.327375,4.873677e-08
466881,新北,2026-02-22,24.959207,121.525196,3.7601358e-06
C0W130,花嶼,2026-02-22,23.40007,119.32276,0.9998619
C0A950,鼻頭角,2026-02-22,25.129036,121.923372,4.0337032e-05
C0K470,林內,2026-02-22,23.748675,120.609642,7.485314e-08
C2F990,摩天嶺,2026-02-22,24.322458,120.936819,8.118644e-09
C2E430,南庄,2026-02-22,24.601775,121.000214,0.0044779973
82C160,茶改場,2026-02-22,24.908472,121.185333,0.886379
C2TB60,南安,2026-02-22,23.29818,121.26157,8.682702e-08
C0Z320,清水林道,2026-02-22,23.27125,121.188272,4.0304833e-08
C0R760,南仁湖,2026-02-22,22.084681,120.863353,0.9999458
C0M670,大林,2026-02-22,23.600616,120.45841,0.00011094075
C0M800,茶山,2026-02-22,23.299075,120.664767,2.057701e-09
C0A9C0,天母,2026-02-22,25.117494,121.537169,5.056187e-06
72K220,南改斗南分場,2026-02-22,23.634556,120.477333,4.232261e-07
72AI40,桃改樹林分場,2026-02-22,24.944503,121.386972,4.375134e-06
C0S910,蘭嶼燈塔,2026-02-22,22.081197,121.503117,0.96795243
C0B050,八斗子,2026-02-22,25.144754,121.79167,6.0274953e-05
C0U900,內城,2026-02-22,24.71813,121.68766,5.315096e-08
C0X320,柳營,2026-02-22,23.253328,120.375253,3.0239912e-06
C0M790,新港,2026-02-22,23.553269,120.345728,0.5014265
C0F9T0,西屯,2026-02-22,24.179494,120.641275,0.56842923
C0E950,松安,2026-02-22,24.39792,120.98599,2.1803583e-08
C0SA30,都歷,2026-02-22,23.020333,121.323642,6.563892e-07
C0C620,蘆竹,2026-02-22,25.084275,121.265767,0.998509
C0R730,大坪頂,2026-02-22,22.024633,120.69355,0.9733913
C0AJ40,石門,2026-02-22,25.273672,121.601198,0.9996265
C0E750,苗栗,2026-02-22,24.564569,120.824575,0.00049136835
C0T870,鯉魚潭,2026-02-22,23.935639,121.508944,3.7233104e-08
C1V170,排雲,2026-02-22,23.463619,120.954147,5.0451675e-08
C2H950,中寮,2026-02-22,23.884447,120.766406,0.011513483
C0R350,貓鼻頭,2026-02-22,21.921774,120.7358,0.6215041
C0V660,岡山,2026-02-22,22.797078,120.294958,0.9976998
C1H941,雙冬,2026-02-22,23.967378,120.802189,2.6595496e-08
C0AJ70,田寮,2026-02-22,25.2698,121.4886,0.99995005
C0AI00,五股,2026-02-22,25.07445,121.42728,6.6023335e-07
C0Z280,德武,2026-02-22,23.47426,121.41071,3.4677146e-08
C2RA10,大新,2026-02-22,22.67558,120.57788,0.99124074
C0R700,枋山,2026-02-22,22.246844,120.661086,0.99996316
C0C460,復興,2026-02-22,24.820208,121.352281,4.9644772e-08
C2K300,鹿南,2026-02-22,23.63855,120.3636,1.2955118e-06
E2H360,蓮華池,2026-02-22,23.918333,120.885278,4.9175144e-09
C0M640,中埔,2026-02-22,23.42538,120.5229,1.9042638e-07
C0W140,金沙,2026-02-22,24.488292,118.408778,0.010763508
C2A540,四堵,2026-02-22,24.8926,121.745736,1.9432818e-07
C0ACA0,新莊,2026-02-22,25.051478,121.446756,7.003217e-06
C0R220,潮州,2026-02-22,22.534361,120.54,0.9997832
U2HA40,臺大內茅埔,2026-02-22,23.689722,120.851117,7.2200312e-09
467490,臺中,2026-02-22,24.145736,120.684075,0.6411866
C0UB60,明池,2026-02-22,24.650688,121.475277,2.9460773e-08
C0U960,翠峰湖,2026-02-22,24.510856,121.608044,3.254747e-08
E2HA20,林試畢祿溪站,2026-02-22,24.226944,121.308522,2.1946905e-08
C2M9A0,大華,2026-02-22,23.4824,120.67491,3.3020613e-09
C0V890,前鎮,2026-02-22,22.5718,120.3117,0.9984063
C1F941,雪嶺,2026-02-22,24.280586,121.026642,2.9081136e-08
C2H9E0,國姓南港,2026-02-22,23.911108,120.846556,5.64967e-09
C0AC80,文山,2026-02-22,25.00235,121.575728,2.8666204e-06
C0F9R0,龍井,2026-02-22,24.184536,120.528972,8.444378e-05
C0M760,民雄,2026-02-22,23.551754,120.428457,0.00011094075
C0UA40,西德山,2026-02-22,24.560647,121.752608,2.545963e-08
C2TA70,赤科坪,2026-02-22,23.39885,121.39168,3.6772523e-08
C1T920,中興,2026-02-22,23.769503,121.498653,4.2724125e-08
C0D550,雪霸,2026-02-22,24.526972,121.11605,1.985326e-08
C2F860,梨山,2026-02-22,24.247522,121.243669,2.243811e-08
C0R320,車城,2026-02-22,22.0744,120.716247,0.5638064
C1S870,南美山,2026-02-22,23.15025,121.382333,1.4430466e-07
C0B020,基隆嶼,2026-02-22,25.19141,121.78391,3.3694625e-05
C1U501,牛鬥,2026-02-22,24.637836,121.573656,4.044715e-08
C0M730,嘉義市東區,2026-02-22,23.457673,120.460531,0.00011094075
C2R990,泰武,2026-02-22,22.60686,120.69765,2.765415e-08
C0S700,知本,2026-02-22,22.684866,121.005642,1.420822e-07
C1N001,沙崙,2026-02-22,22.935472,120.309406,0.99761724
C0V760,橋頭,2026-02-22,22.757806,120.30575,0.9976998
C0G960,福寶,2026-02-22,24.0443,120.3814,4.0896997e-05
C0X210,白河,2026-02-22,23.347466,120.414427,1.5359628e-06
C0S810,東河,2026-02-22,22.972672,121.303986,1.0208e-06
C2R170,屏東,2026-02-22,22.66027,120.49403,0.9943044
C0R670,楓港,2026-02-22,22.190131,120.692156,0.99996316
C0FA50,霧峰,2026-02-22,24.0419,120.6995,0.37316412
C0UB10,蘇澳,2026-02-22,24.5969,121.8571,5.117438e-08
C0G950,防潮門,2026-02-22,24.1835,120.4871,8.444378e-05
C0M740,六腳,2026-02-22,23.492871,120.290625,0.64702797
C1R250,力里,2026-02-22,22.428117,120.629228,0.045783106
C0K330,虎尾,2026-02-22,23.719183,120.442036,4.8602357e-07
C2FA00,烏石坑,2026-02-22,24.273503,120.947617,8.129166e-09
C0V620,永安,2026-02-22,22.82315,120.236856,0.9984063
C1I330,楓樹林,2026-02-22,23.986803,121.076117,6.330674e-09
C0W200,湖西,2026-02-22,23.596314,119.67275,0.9994557
72Q010,高雄農改場,2026-02-22,22.709333,120.525889,0.99218595
C0SA40,瑞和,2026-02-22,22.974361,121.156697,2.1259991e-07
C0C680,龜山,2026-02-22,25.02846,121.38656,3.9097998e-07
C2V260,月眉,2026-02-22,22.971003,120.539853,0.018372368
C0V450,鳳森,2026-02-22,22.545064,120.392592,0.99970573
C0FA90,小雪山林道,2026-02-22,24.29515,121.03651,3.5714507e-08
C0U720,南山,2026-02-22,24.43742,121.38167,2.3882647e-08
A2N290,臺南蘭花園區,2026-02-22,23.340258,120.379661,3.0239912e-06
C0R560,新園,2026-02-22,22.5434,120.461558,0.9997832
C0U890,三星,2026-02-22,24.66812,121.65302,4.4428944e-08
C1V300,御油山,2026-02-22,23.001983,120.715364,9.343486e-09
C0U600,礁溪,2026-02-22,24.817539,121.765608,5.7214944e-08
C1T980,龍澗,2026-02-22,24.023289,121.411328,4.282562e-08
C0D670,海天一線,2026-02-22,24.831986,120.914438,0.9793485
C0SA00,歷坵,2026-02-22,22.520969,120.89185,3.248894e-06
C0M710,東石,2026-02-22,23.458927,120.15385,0.7669518
C0M780,鹿草,2026-02-22,23.41134,120.30835,0.5014265
C0U520,雙連埤,2026-02-22,24.753033,121.641303,2.6423734e-08
C0B010,七堵,2026-02-22,25.094819,121.71713,2.3173221e-05
C0R480,長治,2026-02-22,22.693128,120.542622,0.99124074
C1V830,國三S383K,2026-02-22,22.781967,120.426475,0.96376675
12Q980,恆春工作站,2026-02-22,22.079678,120.714425,0.56930125
C1O940,東山服務區,2026-02-22,23.286016,120.398472,1.5359628e-06
C1U840,東澳嶺,2026-02-22,24.5378,121.8485,2.2307233e-08
C1D630,飛鳳山,2026-02-22,24.766464,121.119178,7.1061794e-07
C0S940,石寧山,2026-02-22,23.223772,121.406639,0.42612988
C0K410,北港,2026-02-22,23.573957,120.292802,0.5014265
C2M620,瑞里,2026-02-22,23.545133,120.675197,4.342059e-09
C0SB70,小港漁港,2026-02-22,23.158558,121.400431,0.98924667
C2O950,安南,2026-02-22,23.076694,120.144861,0.9991576
C0F0E0,南湖圈谷,2026-02-22,24.363714,121.444667,6.970296e-08
467610,成功,2026-02-22,23.097486,121.373428,1.2995408e-06
C0G890,伸港,2026-02-22,24.148933,120.484403,8.444378e-05
C2E540,龍溪,2026-02-22,24.606489,120.783933,0.0041025295
C1V200,梅山,2026-02-22,23.268447,120.823556,2.8898486e-09
C0T9H0,加路蘭山,2026-02-22,23.682947,121.5274,2.7183278e-08
C2O930,玉井,2026-02-22,23.126042,120.46055,4.7237793e-07
C1F911,新伯公,2026-02-22,24.221361,120.841069,1.1339771e-06
C0R490,九如,2026-02-22,22.7405,120.490503,0.9937272
C0X200,左鎮,2026-02-22,23.056758,120.408522,0.12205289
C2TB50,麻汝,2026-02-22,23.42554,121.39358,3.2353803e-08
C0FA60,鞍馬山工作站,2026-02-22,24.267064,121.000793,2.2686544e-08
C0SB50,叭嗡嗡,2026-02-22,23.047062,121.343223,1.8999623e-06
C1F891,稍來,2026-02-22,24.265689,121.001142,2.219155e-08
C2M9C0,紫雲,2026-02-22,23.494914,120.540253,6.4159934e-07
72N240,七股研究中心,2026-02-22,23.081672,120.062894,0.99930376
C0C700,中壢,2026-02-22,24.977661,121.256375,0.9814519
C0M690,水上,2026-02-22,23.419734,120.388909,0.00017938629
C0V690,鼓山,2026-02-22,22.623325,120.275575,0.9984063
C0O860,大內,2026-02-22,23.11885,120.36083,0.99810845
C0Z200,萬榮,2026-02-22,23.709219,121.420106,3.7233104e-08
C0T9D0,和中,2026-02-22,24.26676,121.74103,2.2812232e-07
C2S9A0,北份子寮,2026-02-22,22.78561,121.07813,0.00023382217
C1O921,楠西,2026-02-22,23.183511,120.484083,1.6034349e-07
C0AJ30,淡水觀海,2026-02-22,25.184591,121.408616,0.9999567
C0V810,左營,2026-02-22,22.67491,120.28491,0.9976998
C0UA70,桃源谷,2026-02-22,24.962606,121.888875,1.00594576e-07
C0X130,官田,2026-02-22,23.193217,120.315422,0.9910561
C1H000,翠峰,2026-02-22,24.109397,121.205211,2.5513737e-08
C0UA90,石城,2026-02-22,24.980444,121.951214,2.3173221e-05
C1E681,南勢山,2026-02-22,24.421669,120.923831,2.2665654e-08
C0A9F0,內湖,2026-02-22,25.079422,121.57545,5.966839e-06
C0K291,宜梧,2026-02-22,23.536281,120.169329,0.7669518
C1K540,口湖,2026-02-22,23.585344,120.180517,0.7669518
C0R780,滿州,2026-02-22,22.024403,120.839892,0.63427556
C0V870,文安,2026-02-22,22.8025,120.2164,0.9984063
C0U650,玉蘭,2026-02-22,24.675286,121.587061,3.135437e-08
C0R640,東港,2026-02-22,22.46247,120.44074,0.999794
C0AJ80,板橋,2026-02-22,25.0107,121.4489,5.966839e-06
C0S660,下馬,2026-02-22,23.150427,121.070312,3.809331e-08
C2N190,烏樹,2026-02-22,23.32393,120.36989,0.9910561
C1H9B1,阿眉,2026-02-22,24.1263,120.994672,1.2497291e-08
C0UA20,多加屯,2026-02-22,24.368614,121.373189,3.0863795e-08
C0E730,頭份,2026-02-22,24.688247,120.912206,0.9617452
72V140,高改旗南分場,2026-02-22,22.857861,120.516667,0.99124074
C0K480,莿桐,2026-02-22,23.761192,120.502372,2.8433502e-07
C0U980,坪林石牌,2026-02-22,24.86478,121.77396,2.5868701e-08
C0T900,西林,2026-02-22,23.8119,121.441458,3.5005694e-08
C1I150,青雲,2026-02-22,23.793361,120.949378,1.1400051e-08
C2E980,和興,2026-02-22,24.505319,120.923016,5.4943683e-08
467350,澎湖,2026-02-22,23.565503,119.563094,0.99974126
C0G800,埔鹽,2026-02-22,24.000394,120.431683,1.6233867e-05
C0H960,草屯,2026-02-22,23.973672,120.68085,0.24659315
C1V780,多納林道,2026-02-22,22.888028,120.737917,5.0173643e-09
C0E920,通霄漁港,2026-02-22,24.498589,120.673876,0.011045528
C0Z330,安通山,2026-02-22,23.290728,121.348528,4.8151882e-08
C0AH10,永和,2026-02-22,25.01125,121.508111,5.966839e-06
C0AK10,太平里,2026-02-22,25.134937,121.364899,0.99995005
C2G640,鹿港,2026-02-22,24.0753,120.430481,4.0897074e-05
C1E890,國三N149K,2026-02-22,24.463414,120.680019,0.00022060804
C1R110,口社,2026-02-22,22.770111,120.645222,0.9537092
C1M870,國三N285K,2026-02-22,23.550319,120.505833,3.3302922e-07
C1E480,鳳美,2026-02-22,24.554803,121.034747,7.4437125e-08
C0T9M0,靜浦,2026-02-22,23.455167,121.495028,4.2724125e-08
C2H9M0,發祥,2026-02-22,24.154094,121.164517,8.877505e-09
C2G9C0,埔南,2026-02-22,23.99124,120.46969,1.6233867e-05
C0AI40,石牌,2026-02-22,25.115597,121.513139,5.966839e-06
C1F871,上谷關,2026-02-22,24.203483,121.018644,8.048154e-09
C2H9G0,百勝,2026-02-22,24.051142,120.909361,8.926388e-09
C0G880,二水,2026-02-22,23.810742,120.6173,1.0122742e-07
C0R940,加祿堂,2026-02-22,22.3363,120.6217,0.9997832
C0W220,北竿,2026-02-22,26.220358,119.974881,1.3130388e-06
C0O960,崎頂,2026-02-22,22.959547,120.369317,0.8989841
C0TA40,秀林,2026-02-22,24.302864,121.731144,2.3189838e-08
C0S750,向陽,2026-02-22,23.248397,120.986133,2.7324878e-08
C0T9F0,水璉,2026-02-22,23.797131,121.542514,3.1334643e-08
C1M600,頭凍,2026-02-22,23.406364,120.603339,2.384172e-09
467660,臺東,2026-02-22,22.752211,121.154586,0.08909641
C1D380,新埔,2026-02-22,24.84745,121.03834,0.72465014
C2G980,田頭村,2026-02-22,23.8263,120.444175,7.6105016e-07
C0V750,路竹,2026-02-22,22.854997,120.259439,0.99698955
C0N050,蚵寮,2026-02-22,23.301,120.1104,0.99725926
C2X060,下營,2026-02-22,23.226806,120.256291,0.99586225
72M700,南改鹿草分場,2026-02-22,23.416869,120.283061,0.6470276
C1SA50,利嘉林道,2026-02-22,22.82325,121.009389,2.814085e-08
C0UB70,太平山中間站,2026-02-22,24.542003,121.513453,2.226804e-08
C0A940,金山,2026-02-22,25.223628,121.643967,0.99994206
C1V340,大津,2026-02-22,22.888322,120.645986,0.8988856
C0W180,七美,2026-02-22,23.219333,119.444892,0.99983895
C1F9C1,白冷,2026-02-22,24.182844,120.929889,1.6253285e-08
K2E710,苗改生物防治研究中心,2026-02-22,24.422861,120.871833,1.5373477e-07
C0N040,蘆竹溝,2026-02-22,23.2344,120.0961,0.99725926
C0TB40,崇德,2026-02-22,24.166144,121.657414,2.2812232e-07
C0D760,大坪苗圃,2026-02-22,24.5362,121.1108,2.2456135e-08
C2W230,畜試所澎湖,2026-02-22,23.628342,119.513206,0.99968094
C0R880,後壁湖,2026-02-22,21.9457,120.7457,0.5579327
C1I280,埔中,2026-02-22,23.820778,120.642594,1.290598e-08
467790,墾丁雷達站,2026-02-22,21.948235,120.808028,0.66524565
C0W190,望安,2026-02-22,23.380564,119.494075,0.9996852
C0Z170,卓溪,2026-02-22,23.3443,121.3029,9.409625e-08
C0F850,東勢,2026-02-22,24.246428,120.833047,3.8570365e-06
466900,淡水,2026-02-22,25.164889,121.448906,0.99995005
C0I370,魚池,2026-02-22,23.895703,120.94135,5.014944e-09
C0C630,大溪,2026-02-22,24.882853,121.265547,0.9093041
C0A520,山佳,2026-02-22,24.974944,121.402008,4.375134e-06
C0I110,竹山,2026-02-22,23.761225,120.688156,6.027242e-05
82H840,茶改南部分場,2026-02-22,23.762528,120.7405,1.7764469e-08
C2SD80,再來山,2026-02-22,23.34371,121.44122,0.017006366
C0G660,溪湖,2026-02-22,23.94835,120.479122,1.2095695e-05
C1T800,洛韶,2026-02-22,24.204558,121.453956,2.9705943e-08
C1T810,慈恩,2026-02-22,24.192044,121.388386,3.842556e-08
C1E451,象鼻,2026-02-22,24.368617,120.940228,8.179308e-09
C0AC60,三峽,2026-02-22,24.939025,121.369728,0.99786425
C0I490,萬大林道,2026-02-22,23.928228,121.091411,9.188178e-09
C1I290,豐丘,2026-02-22,23.668178,120.887417,6.747958e-09
C1I320,奧萬大,2026-02-22,23.952956,121.178556,1.0311019e-08
C2M910,嘉義大學,2026-02-22,23.471325,120.485903,8.586434e-06
C0U770,南澳,2026-02-22,24.44935,121.81022,4.9983587e-08
C2TB30,吉安,2026-02-22,23.94538,121.54803,4.2036408e-08
C0A980,社子,2026-02-22,25.109508,121.469681,8.406005e-06
C0V800,六龜,2026-02-22,22.997889,120.633583,2.572713e-05
C1G9D0,國一S218K,2026-02-22,23.890641,120.493253,5.446904e-06
C0E570,白沙屯,2026-02-22,24.549447,120.696803,0.011045528
C2F9A0,中竹林,2026-02-22,24.103556,120.751061,5.965019e-07
C0FA40,臺中電廠,2026-02-22,24.2146,120.4907,8.444378e-05
C2G9A0,畜試所彰化,2026-02-22,23.86045,120.557964,2.8433502e-07
C0H9C0,合歡山,2026-02-22,24.143442,121.272547,4.6192625e-08
G2M350,農試溪口農場,2026-02-22,23.58565,120.408111,0.00029486997
C0U860,頭城,2026-02-22,24.85323,121.8308,5.9627496e-08
C0R580,南州,2026-02-22,22.48591,120.50274,0.999794
C0D430,峨眉,2026-02-22,24.6905,121.017189,0.72465014
C0G780,秀水,2026-02-22,24.03405,120.503869,1.2095695e-05
72N100,臺南農改場,2026-02-22,23.0605,120.342194,0.99761724
C0S900,蘭嶼高中,2026-02-22,22.04909,121.51214,0.9925288
C2TA60,六十石,2026-02-22,23.22477,121.31861,3.6657813e-08
C1F9W0,德基,2026-02-22,24.254783,121.190261,1.8726693e-08
C2M980,安和,2026-02-22,23.51377,120.31593,0.5014265
C1Z120,壽豐,2026-02-22,23.870853,121.508081,4.6060304e-08
C0W160,烏坵,2026-02-22,24.9944,119.44956,0.42339993
C1I240,外大坪,2026-02-22,23.958697,120.917931,4.6759756e-09
C1I550,國六W023K,2026-02-22,23.979067,120.867742,2.0552386e-06
C0R870,興海,2026-02-22,21.9752,120.8439,0.5889639
C0R140,瑪家,2026-02-22,22.682903,120.686639,5.069802e-09
C0A530,坪林,2026-02-22,24.938183,121.70975,2.9027282e-07
C0X260,後壁,2026-02-22,23.366358,120.362326,0.9910561
C0Z230,和平,2026-02-22,24.30717,121.77007,4.9983683e-08
C0G770,福興,2026-02-22,24.041289,120.437669,1.6233867e-05
C0H9A0,神木村,2026-02-22,23.532742,120.843667,6.7646977e-09
C0I460,南投,2026-02-22,23.911469,120.687331,0.29922888
C0I480,梅峰,2026-02-22,24.085272,121.173572,2.083781e-08
C1V570,吉東,2026-02-22,22.85422,120.5454,0.9876235
C2A560,福山,2026-02-22,24.776203,121.502811,3.2249496e-08
C0AH30,五分山,2026-02-22,25.07125,121.780794,6.935815e-08
C0FA10,松柏,2026-02-22,24.429115,120.617482,0.011045528
72S200,東改班鳩分場,2026-02-22,22.829528,121.077694,4.9886526e-06
72HA00,中改埔里分場,2026-02-22,23.903208,120.963364,5.1299445e-09
C2H9W0,大坪頂農水,2026-02-22,24.043122,120.932781,4.6759756e-09
C0C650,平鎮,2026-02-22,24.897503,121.214636,0.8641193
C0S930,延平,2026-02-22,22.902581,121.084058,1.515784e-07
C0UA60,樟樹山,2026-02-22,24.41393,121.78325,2.1848876e-08
C2UC10,出水溪,2026-02-22,24.615822,121.652253,2.1848876e-08
C1S670,摩天,2026-02-22,23.199503,121.027,1.6374795e-08
C2C590,觀音,2026-02-22,25.027072,121.153317,0.99541193
C0V630,茄萣,2026-02-22,22.906642,120.182608,0.9991576
466940,基隆,2026-02-22,25.133314,121.740475,6.0274953e-05
C0X050,東河,2026-02-22,23.296598,120.385608,3.0239912e-06
C0R770,保力,2026-02-22,22.071122,120.764111,0.734998
G2L020,農試嘉義分所,2026-02-22,23.485028,120.473806,4.276455e-06
C0X240,關子嶺,2026-02-22,23.331169,120.508025,2.3131779e-09
C0I380,集集,2026-02-22,23.828206,120.801467,1.9406224e-07
466990,花蓮,2026-02-22,23.975128,121.613275,1.930713e-07
C1V220,小關山,2026-02-22,23.154217,120.813603,9.709594e-09
C1F9G1,慶福山,2026-02-22,24.180853,120.848378,1.9164423e-08
C0FB20,雪山橋,2026-02-22,24.23192,120.9786,1.8290379e-08
C0Z250,瑞穗林道,2026-02-22,23.49284,121.30688,3.216748e-08
C0D590,新豐,2026-02-22,24.87068,120.97721,0.31395283
C0A870,五指山,2026-02-22,25.132153,121.608692,3.997809e-05
C0UA50,西帽山,2026-02-22,24.555361,121.802628,2.2222851e-08
C2R980,竹田國中,2026-02-22,22.61532,120.52412,0.99977064
C0X160,仁德,2026-02-22,22.968258,120.257689,0.9988748
C1H971,六分寮,2026-02-22,23.92507,120.6378,3.3112337e-07
C0W120,西嶼,2026-02-22,23.5626,119.468436,0.99974126
C0G650,員林,2026-02-22,23.946503,120.585597,4.191458e-06
C0AD50,鶯歌,2026-02-22,24.951533,121.346294,0.99621993
C2H9Q0,北東眼山,2026-02-22,24.120939,121.189303,1.8771324e-08
C2H9T0,名間竹圍,2026-02-22,23.859914,120.637572,6.406828e-08
C0S990,山豬窟,2026-02-22,22.318619,120.857372,1.0131752e-06
C0X190,安平,2026-02-22,22.993161,120.152181,0.9991576
C0K400,斗六,2026-02-22,23.720583,120.541127,2.5091688e-07
12J990,口湖工作站,2026-02-22,23.589978,120.180394,0.6470276
C0O830,北寮,2026-02-22,23.079561,120.495008,0.018372368
C1D410,白蘭,2026-02-22,24.579364,121.079947,2.1803583e-08
C0S970,加津林,2026-02-22,22.416211,120.926942,0.74309856
C0D700,關西,2026-02-22,24.7977,121.1732,9.3343397e-07
C0U750,龜山島,2026-02-22,24.841667,121.953133,2.9114547e-08
C0R810,內獅,2026-02-22,22.305064,120.642986,0.9997832
C1M390,龍美,2026-02-22,23.406728,120.654417,3.7146473e-09
C2K290,崙內,2026-02-22,23.69525,120.35601,1.2955118e-06
C2FB60,頭櫃山,2026-02-22,24.129842,120.858925,5.3387157e-09
C1H840,國三N238K,2026-02-22,23.841008,120.707711,1.9406224e-07
CAQ030,崎峰國小,2026-02-22,22.42565,120.49521,0.999794
C2E520,大湖,2026-02-22,24.414939,120.870872,1.1014194e-07
467530,阿里山,2026-02-22,23.508208,120.813242,2.4522611e-08
C1E691,南湖,2026-02-22,24.40135,120.837533,2.2857588e-08
C0FA30,梧棲,2026-02-22,24.256003,120.523381,8.144358e-05
C1V231,高中,2026-02-22,23.134911,120.716711,2.5173519e-09
C0AK30,硬漢嶺,2026-02-22,25.136097,121.426372,0.0006195147
C0F9V0,新社,2026-02-22,24.200172,120.815806,8.8214875e-08
C0H890,埔里,2026-02-22,23.972169,120.952425,1.08471125e-08
C0R690,墾丁,2026-02-22,21.966756,120.810269,0.9997784
C0SD20,富山,2026-02-22,22.822383,121.190825,1.8999623e-06
C0F0D0,審馬陣,2026-02-22,24.381675,121.4203,5.8365e-08
C2W030,金門農試所,2026-02-22,24.448431,118.451786,0.0012620637
C0R820,白鷺,2026-02-22,22.454275,120.666219,1.0476993e-07
C0FB00,大雪山,2026-02-22,24.254668,121.007374,2.2936854e-08
C1V190,南天池,2026-02-22,23.27403,120.91176,3.0148144e-08
C0E940,雪見,2026-02-22,24.42595,121.01347,2.0087132e-08
K2E360,苗栗農改場,2026-02-22,24.495722,120.829111,2.2539361e-05
CAJ050,海口故事園區,2026-02-22,23.57543,120.14121,0.7669518
C2K280,四湖,2026-02-22,23.6304,120.22717,1.4382863e-06
C2H9D0,三隻寮,2026-02-22,24.093078,120.861578,1.3556111e-08
C0O990,媽廟,2026-02-22,22.99175,120.293525,0.99810845
C0D480,打鐵坑,2026-02-22,24.849664,121.150789,2.1510742e-07
C0Z220,和平林道,2026-02-22,24.343922,121.656317,2.1864969e-08
C0TA10,花蓮漁港,2026-02-22,23.995322,121.638331,0.0019368394
72C440,桃園農改場,2026-02-22,24.950944,121.030583,0.9430529
C1E711,馬拉邦山,2026-02-22,24.367306,120.901656,8.060137e-09
C0SB20,富岡,2026-02-22,22.792467,121.192669,0.0687424
C0D560,竹東,2026-02-22,24.767147,121.057881,0.31395283
C0F9U0,南屯,2026-02-22,24.137006,120.637969,0.872836
C2SD60,明峰,2026-02-22,22.8671,121.11825,1.102567e-07
C0M720,番路,2026-02-22,23.464657,120.554156,3.115871e-08
C0F0A0,雪山圈谷,2026-02-22,24.388594,121.236339,5.6460426e-08
C1A9N0,四十份,2026-02-22,24.934158,121.593283,1.4105828e-07
C0U760,東澳,2026-02-22,24.52196,121.83318,4.6937863e-08
C0X230,鹽水,2026-02-22,23.272621,120.247641,0.99586225
C2H9H0,苗改南投蜂場,2026-02-22,23.852589,120.693481,6.027242e-05
C2TB70,達谷寮,2026-02-22,23.38,121.35968,1.0832623e-07
C0R950,萬隆國小,2026-02-22,22.507667,120.587817,0.99972516
467540,大武,2026-02-22,22.35572,120.90374,0.9999478
C0V370,古亭坑,2026-02-22,22.893178,120.401947,0.075641066
C1I340,新興橋,2026-02-22,23.563333,120.868728,2.8153881e-09
C0SA80,土坂,2026-02-22,22.453108,120.887572,0.018952996
C0R160,鹽埔,2026-02-22,22.739558,120.530778,0.99218595
C0AC40,大屯山,2026-02-22,25.175675,121.522408,6.411149e-07
466850,五分山雷達站,2026-02-22,25.071182,121.781205,6.89369e-08
C2H9L0,馬烈霸,2026-02-22,24.1512,121.201772,1.9162961e-08
C1AI50,國三N016K,2026-02-22,25.034164,121.619664,3.2956848e-06
C2V920,匏子寮,2026-02-22,23.04905,120.55319,0.00052363717
C1V600,藤枝,2026-02-22,23.071961,120.757042,8.504583e-09
C1E601,南勢,2026-02-22,24.572486,120.734842,2.0737258e-05
C0O980,新市,2026-02-22,23.061614,120.298197,0.9988748
C0K420,西螺,2026-02-22,23.800407,120.467394,4.232261e-07
C0Z050,佳心,2026-02-22,23.34567,121.21316,3.731614e-08
C0AD30,蘆洲,2026-02-22,25.086594,121.472331,7.003224e-06
C0V610,梓官,2026-02-22,22.760558,120.267211,0.9984063
K2F750,種苗改良場,2026-02-22,24.225972,120.800917,2.1535496e-07
C0UA80,大溪漁港,2026-02-22,24.941801,121.902955,3.3694625e-05
C1AI60,國一39K邊坡,2026-02-22,25.064361,121.383836,5.0042877e-07
C0W150,金寧,2026-02-22,24.457703,118.328989,3.968897e-06
C0R960,內埔,2026-02-22,22.608483,120.570714,0.99977064
C2H9S0,龍南,2026-02-22,23.953536,120.833183,4.9396527e-09
C0AH40,平等,2026-02-22,25.129142,121.577086,0.40003234
C0R540,佳冬,2026-02-22,22.419456,120.552375,0.999794
466950,彭佳嶼,2026-02-22,25.627975,122.079744,0.9999941
C0A890,雙溪,2026-02-22,25.036003,121.864242,1.2147054e-05
C0C480,桃園,2026-02-22,24.992425,121.323172,0.98981684
C0AH50,林口,2026-02-22,25.072181,121.38084,3.2949794e-07
A2K360,水試臺西試驗場,2026-02-22,23.717231,120.190522,1.9452766e-06
C2M960,外寮,2026-02-22,23.562643,120.665688,3.4400047e-09
C0F9S0,烏日,2026-02-22,24.107058,120.624103,4.191458e-06
C2N180,鹿陶洋,2026-02-22,23.14325,120.48352,1.6034349e-07
C0C490,八德,2026-02-22,24.928708,121.283289,0.9656126
C0R190,赤山,2026-02-22,22.592333,120.614306,0.99975735
C0T820,天祥,2026-02-22,24.179597,121.495639,5.570534e-08
C1F9E1,龍安,2026-02-22,24.1605,120.831961,6.07055e-08
C2SD50,順那,2026-02-22,23.04166,121.29332,3.2128153e-07
C0V820,小林,2026-02-22,23.148408,120.63325,2.0351134e-09
C2G870,芳苑,2026-02-22,23.922303,120.320025,1.6020196e-06
C0E850,大河,2026-02-22,24.618069,120.948578,0.7634245
C1U670,寒溪,2026-02-22,24.634,121.71691,4.5830877e-08
C0N020,城西,2026-02-22,23.0568,120.0956,0.9991576
C1Z110,三棧,2026-02-22,24.11557,121.60501,4.723072e-08
C0R280,檳榔,2026-02-22,22.076078,120.836777,0.99963194
C2H9J0,中台,2026-02-22,23.9996,120.938739,6.724792e-09
C0F9L0,后里,2026-02-22,24.310436,120.729725,0.003110951
467441,高雄,2026-02-22,22.730432,120.312516,0.9976998
C0Z180,新城,2026-02-22,24.040486,121.604878,1.8885366e-07
C0D540,橫山,2026-02-22,24.71116,121.11693,0.0068425983
C1D420,太閣南,2026-02-22,24.632808,121.160575,2.7697276e-08
C1E770,公館,2026-02-22,24.526914,120.830806,9.736986e-05
CAN130,水試所海水繁養殖中心,2026-02-22,23.120802,120.07968,0.9991576
C1I430,翠華,2026-02-22,24.191961,121.224339,2.5703399e-08
C1M400,菜瓜坪,2026-02-22,23.251928,120.576103,2.1118525e-09
C0G730,二林,2026-02-22,23.903325,120.376081,1.2095695e-05
72M360,南改義竹分場,2026-02-22,23.360694,120.279361,0.99454314
V2K620,麥寮合作社,2026-02-22,23.753836,120.294783,1.4382863e-06
C0Z070,舞鶴,2026-02-22,23.46811,121.37407,3.2691688e-08
C0B040,大武崙,2026-02-22,25.166676,121.706993,1.967837e-05
C1Z030,紅葉,2026-02-22,23.493119,121.338806,3.4257393e-08
C1I050,丹大,2026-02-22,23.753747,121.141147,3.2484706e-08
C0I080,信義,2026-02-22,23.689694,120.851036,7.2200312e-09
C2TB80,庄子底,2026-02-22,23.71794,121.49438,4.1276063e-08
C0D750,樂山林道6k,2026-02-22,24.49999,121.08773,2.7563784e-08
C2M920,朴子農改,2026-02-22,23.469889,120.259383,0.6470276
C2A880,福隆,2026-02-22,25.017842,121.942083,3.3694625e-05
C0Z160,鳳林,2026-02-22,23.746114,121.453411,3.9953974e-08
C0UB80,翠峰林道6K,2026-02-22,24.49773,121.568625,3.475137e-08
C0V210,復興,2026-02-22,23.222403,120.806089,2.5503653e-09
C0H990,昆陽,2026-02-22,24.121322,121.273642,3.8339905e-08
C0R741,獅子,2026-02-22,22.202308,120.705236,0.9999585
C0S710,鹿野,2026-02-22,22.917711,121.122994,7.527162e-08
C0I530,小奇萊,2026-02-22,24.131764,121.295717,4.044175e-08
C0FA70,大雪山埡口,2026-02-22,24.26867,121.03062,2.890859e-08
C2K630,荷苞,2026-02-22,23.657717,120.595144,2.162413e-08
C0Z080,富源,2026-02-22,23.587642,121.378225,3.033445e-08
C2M9E0,旺來山,2026-02-22,23.555153,120.486463,2.521335e-07
C0SB10,美和,2026-02-22,22.682078,121.060236,0.0067413934
C2K620,馬光農場,2026-02-22,23.721453,120.378864,7.6105016e-07
C1I140,卡奈托灣,2026-02-22,23.754364,121.087872,1.1516317e-08
C0I520,玉山風口,2026-02-22,23.470489,120.955994,5.6459886e-08
C1G691,下水埔,2026-02-22,23.816114,120.5676,1.7445703e-07
C0X110,臺南市南區,2026-02-22,22.961189,120.188378,0.9988748
C0V680,仁武,2026-02-22,22.701083,120.347722,0.99698955
C2G840,北斗,2026-02-22,23.877586,120.514222,4.191458e-06
C2TB90,長橋,2026-02-22,23.6874,121.46186,3.9390553e-08
C0R900,竹坑,2026-02-22,22.1385,120.7022,0.99996316
C0G860,社頭,2026-02-22,23.897647,120.5862,2.0846137e-06
C0X150,安定,2026-02-22,23.102614,120.227839,0.9991576
C0R590,里港,2026-02-22,22.77919,120.49459,0.99218595
C0E610,馬都安,2026-02-22,24.451272,120.930192,2.6478727e-08
C0E550,明德,2026-02-22,24.583486,120.885411,0.00019817098
C0R150,三地門,2026-02-22,22.709889,120.639944,0.96376675
C0G910,花壇,2026-02-22,24.032076,120.549461,5.446904e-06
C1D400,鳥嘴山,2026-02-22,24.71909,121.28387,2.7094814e-08
C0K500,元長,2026-02-22,23.64981,120.315024,1.4382863e-06
C0F0B0,石岡,2026-02-22,24.276061,120.777644,0.0002634176
C2V250,甲仙,2026-02-22,23.080106,120.591758,7.652702e-06
C0SA20,金崙山,2026-02-22,22.567419,120.959667,8.3640366e-08
C0V350,溪埔,2026-02-22,22.738578,120.446797,0.9937272
C0M660,溪口,2026-02-22,23.604131,120.403569,0.00029486997
C1S880,壽卡,2026-02-22,22.238911,120.858903,2.485057e-07
72D680,桃改新埔分場,2026-02-22,24.834444,121.066111,0.82944614
