站號,站名,日期,lat,lon,BLBTSLS
C0R710,龍磐,2026-04-15,21.931672,120.838942,8.007114e-06
C1F9D1,白毛台,2026-04-15,24.158325,120.886933,1.0678414e-08
C0G940,竹塘,2026-04-15,23.848253,120.386764,1.548773e-07
467590,恆春,2026-04-15,22.003897,120.746339,0.00056563865
C0U710,太平山,2026-04-15,24.505486,121.525656,6.753675e-09
C0E820,獅潭,2026-04-15,24.539133,120.920042,1.3337927e-08
C2SD70,二層坪,2026-04-15,22.94105,121.16838,2.1505837e-05
C0V880,興達,2026-04-15,22.8778,120.2127,5.103512e-06
C0SB30,新蘭,2026-04-15,22.869214,121.223228,7.932597e-06
C2R970,屏科大,2026-04-15,22.648275,120.619247,0.010509303
C1Z130,銅門,2026-04-15,23.965694,121.492842,3.703778e-05
C0AD40,土城,2026-04-15,24.973208,121.445169,8.377907e-09
CAN140,六官養殖協會,2026-04-15,23.22881,120.29962,8.4663094e-05
C0X180,山上,2026-04-15,23.0757,120.363253,7.350215e-07
C0F9Z0,雪山東峰,2026-04-15,24.388792,121.268675,2.4785425e-08
C1M480,獨立山,2026-04-15,23.537022,120.607797,1.4722451e-09
C0X220,學甲,2026-04-15,23.230367,120.182187,5.3265086e-07
467650,日月潭,2026-04-15,23.881325,120.90805,4.176156e-09
A2K570,古坑(花卉中心),2026-04-15,23.633531,120.552392,2.0913658e-06
C0K600,箔子寮,2026-04-15,23.6197,120.14,2.4866262e-07
C0G830,埤頭,2026-04-15,23.866003,120.452806,6.33598e-08
C0S950,七塊厝,2026-04-15,22.954453,121.229922,3.84164e-08
467110,金門,2026-04-15,24.407306,118.289281,5.387499e-09
C0AH80,深坑,2026-04-15,25.002703,121.628328,0.0001007262
C0A970,三貂角,2026-04-15,25.007606,122.002058,7.780413e-07
C2D730,寶山農場,2026-04-15,24.732444,120.976153,1.8574195e-08
C0K430,褒忠,2026-04-15,23.690938,120.303634,1.1129114e-07
467480,嘉義,2026-04-15,23.495925,120.432906,4.3669866e-07
C0V400,阿公店,2026-04-15,22.804194,120.355528,4.0277642e-05
C2S800,華源,2026-04-15,22.65783,121.0232,3.1883177e-05
C2SA40,瑞和,2026-04-15,22.974361,121.156697,2.8586912e-05
C0E960,觀霧分站,2026-04-15,24.505781,121.113921,1.13265335e-08
467550,玉山,2026-04-15,23.48718,120.95943,3.4761513e-08
C0R440,大漢山,2026-04-15,22.405264,120.753181,2.0866515e-09
C0SD30,東清國小,2026-04-15,22.057128,121.564922,1.3523365e-08
C1F9B1,桐林,2026-04-15,24.066172,120.735194,8.502085e-09
C2I210,蘆竹湳,2026-04-15,23.93398,120.81209,2.1251787e-09
C2H9U0,鳳鵬,2026-04-15,23.763919,120.788061,5.496163e-06
C0K390,土庫,2026-04-15,23.679029,120.395574,4.8603283e-07
C1I450,望鄉山,2026-04-15,23.594153,120.944286,1.2573706e-08
C0E910,海埔,2026-04-15,24.648767,120.772435,2.3377691e-08
B2E890,畜試北區分所,2026-04-15,24.527806,120.770972,3.3198376e-07
C0R750,四林格山,2026-04-15,22.076989,120.802439,6.7489236e-09
C0F0C0,中坑,2026-04-15,24.248517,120.903319,2.0071658e-08
C1I121,大鞍,2026-04-15,23.678381,120.760017,5.0092273e-09
C2G9E0,移民庄,2026-04-15,23.9784,120.40283,5.558694e-07
72U480,花改蘭陽分場,2026-04-15,24.686306,121.716583,5.2212577e-08
C0A770,科教館,2026-04-15,25.096356,121.516507,7.970443e-09
C0AJ60,六塊厝,2026-04-15,25.24,121.4481,1.0439647e-08
C0R620,墾雷,2026-04-15,21.900836,120.855269,3.2583044e-05
467420,永康,2026-04-15,23.038386,120.2367,6.3707557e-06
C2M530,奮起湖,2026-04-15,23.493903,120.699253,3.4724317e-09
C0I410,名間,2026-04-15,23.837053,120.701447,6.5425525e-06
A2C560,農工中心,2026-04-15,24.985917,121.239833,3.2796343e-09
C0V740,旗山,2026-04-15,22.888614,120.483597,7.658075e-06
C0Z061,玉里,2026-04-15,23.3215,121.339656,6.7711235e-06
C0S840,南田,2026-04-15,22.279725,120.889208,0.90394247
C1I470,杉林溪,2026-04-15,23.639517,120.786444,3.8924344e-09
C1X040,東原,2026-04-15,23.291597,120.463822,2.7003192e-05
C0R660,枋寮,2026-04-15,22.367722,120.590647,0.6125972
C1R120,上德文,2026-04-15,22.763272,120.704442,0.9970594
C0K450,大埤,2026-04-15,23.646074,120.431537,7.861667e-07
C0UA00,土場,2026-04-15,24.576533,121.495333,3.3763263e-07
467080,宜蘭,2026-04-15,24.763975,121.756528,6.3200844e-08
C0N030,四草,2026-04-15,23.0235,120.1116,6.088076e-06
467410,臺南,2026-04-15,22.99328,120.20492,1.2587344e-06
C0V650,彌陀,2026-04-15,22.783806,120.246361,0.00024617487
C0D660,新竹市東區,2026-04-15,24.798681,120.986942,1.775125e-09
82S580,茶改東部分場,2026-04-15,22.907694,121.130139,1.6811717e-05
C0SB40,興隆,2026-04-15,22.913661,121.257469,4.518507e-06
467050,新屋,2026-04-15,25.006725,121.047492,2.1045141e-09
C0C710,大溪永福,2026-04-15,24.892936,121.324975,1.9794455e-09
C0FA20,溫寮,2026-04-15,24.372177,120.583125,3.6221172e-07
C0V640,湖內,2026-04-15,22.887139,120.2445,4.9819064e-06
C0R910,下寮,2026-04-15,22.3929,120.5548,0.16910511
C0Z020,明里,2026-04-15,23.208717,121.262342,5.4461407e-06
C0M770,嘉義梅山,2026-04-15,23.585398,120.555587,6.445339e-08
C0C660,楊梅,2026-04-15,24.912375,121.143047,1.2420719e-09
C0SD40,牛頭山,2026-04-15,22.676661,121.506944,2.9195958e-08
C1E511,新開,2026-04-15,24.347703,120.827019,5.7426497e-08
G2F820,農試所(霧峰),2026-04-15,24.031261,120.688133,1.0652684e-07
C2M990,大巃頂,2026-04-15,23.5547,120.61439,2.2764686e-09
C1I070,和社,2026-04-15,23.591131,120.888861,8.914478e-09
C2E990,新坪頂,2026-04-15,24.30201,120.8574,1.886378e-08
C0TA80,立霧山,2026-04-15,24.183258,121.641899,4.7480624e-09
C2F000,大肚,2026-04-15,24.15295,120.572117,7.592119e-08
C1S850,豐南,2026-04-15,23.122139,121.262389,1.6504474e-07
C2M9B0,西興,2026-04-15,23.2428,120.57617,1.2439413e-07
C2A920,富貴角,2026-04-15,25.263783,121.565258,4.6655075e-09
C0T960,光復,2026-04-15,23.660694,121.424964,2.7546291e-06
C0F9M0,豐原,2026-04-15,24.254322,120.720692,3.105328e-08
C0R720,旭海,2026-04-15,22.205403,120.887614,0.0019616915
C0V710,苓雅,2026-04-15,22.622742,120.330669,4.9443397e-06
C0C740,觀音工業區,2026-04-15,25.064764,121.114856,2.3167854e-09
CAC040,拉拉山,2026-04-15,24.699317,121.427133,5.135221e-09
C0V790,萬山,2026-04-15,22.905944,120.688056,0.010549281
U2HA30,臺大和社,2026-04-15,23.590856,120.888864,8.914478e-09
C2H9K0,屯原,2026-04-15,24.067969,121.209389,4.9304374e-09
C0AJ90,澳底,2026-04-15,25.0552,121.9253,1.3141884e-07
C0Z100,東華,2026-04-15,23.89525,121.549833,3.89202e-05
C0G970,三豐,2026-04-15,23.882,120.2895,1.5502744e-07
C0V900,汕尾,2026-04-15,22.4782,120.4151,0.0066394014
C1R630,龍泉,2026-04-15,22.66701,120.59091,0.11744651
C1AC50,關渡,2026-04-15,25.133486,121.469331,4.113599e-09
C0C800,四稜,2026-04-15,24.64733,121.4293,4.081758e-09
C0F9I0,神岡,2026-04-15,24.272481,120.658314,1.38352e-07
C0K460,斗南,2026-04-15,23.678734,120.478359,7.3922956e-07
C2O810,曾文,2026-04-15,23.219681,120.497328,0.00014076881
467280,後龍,2026-04-15,24.648563,120.831834,1.9313296e-08
C1F9J1,清水林,2026-04-15,24.071242,120.820419,2.411011e-09
C2A650,火燒寮,2026-04-15,25.002719,121.742892,2.1514386e-06
466930,竹子湖,2026-04-15,25.162078,121.544547,1.921353e-09
C1I220,樟湖,2026-04-15,23.905333,120.846983,2.4977236e-09
C0I390,仁愛,2026-04-15,24.022122,121.132206,4.7792454e-09
C0Z300,東里,2026-04-15,23.26853,121.30547,4.9839687e-06
C1V590,新發,2026-04-15,23.057019,120.646064,1.3718804e-07
C0K510,水林,2026-04-15,23.572924,120.24597,3.1278816e-07
72S590,東改賓朗果園,2026-04-15,22.813889,121.071278,2.3319313e-07
82A750,茶改北部分場,2026-04-15,24.955778,121.631222,8.482053e-08
C1A750,石碇服務區,2026-04-15,25.00872,121.646242,9.269801e-05
C0X300,鹿寮,2026-04-15,23.386047,120.477331,4.420811e-07
C0K590,雲林東勢,2026-04-15,23.674192,120.255721,9.819779e-08
C2K310,港尾布雞,2026-04-15,23.74834,120.38439,0.00011009996
C0A570,桶後,2026-04-15,24.848222,121.597992,4.4607917e-09
C0G720,溪州,2026-04-15,23.851589,120.499093,6.064174e-08
C1V160,達卡努瓦,2026-04-15,23.279811,120.705319,5.312742e-09
C2M410,馬頭山,2026-04-15,23.324361,120.582017,3.191261e-06
C0V850,蚵仔寮,2026-04-15,22.7256,120.2527,0.00026665046
C0S740,池上,2026-04-15,23.119628,121.209469,3.5430398e-07
C1V390,尖山,2026-04-15,22.813153,120.367789,0.0009207144
C0AH70,松山,2026-04-15,25.04871,121.55042,7.186412e-09
C0N010,鯤鯓國小,2026-04-15,23.1879,120.0889,1.7608854e-06
C0SA60,知本（水試所）,2026-04-15,22.702394,121.082761,0.00014350789
C0T9I0,豐濱,2026-04-15,23.583897,121.514806,0.00016389
C0UB00,淡江大學蘭陽校園,2026-04-15,24.823239,121.730383,9.171894e-09
C0W240,九宮,2026-04-15,24.423753,118.240186,5.118695e-09
C0T9N0,富里,2026-04-15,23.171639,121.249378,2.952614e-06
U2HA50,臺大竹山,2026-04-15,23.756972,120.681556,0.61747056
C0V840,鳳鼻頭,2026-04-15,22.5083,120.3591,0.0037222854
C0X140,西港,2026-04-15,23.125608,120.203108,1.7208364e-06
72D080,桃改五峰分場,2026-04-15,24.612194,121.157167,5.175813e-09
C2H9P0,伊拿谷,2026-04-15,23.963211,121.088264,9.73758e-09
C2K250,崙背,2026-04-15,23.75553,120.31893,1.5237265e-07
C2H9F0,柑林,2026-04-15,24.018658,120.847072,6.342001e-08
C0TA20,加灣,2026-04-15,24.082025,121.608944,0.00017387922
C0V530,阿蓮,2026-04-15,22.883208,120.327508,1.3994407e-05
C0FB30,八仙山苗圃,2026-04-15,24.192719,121.001366,2.4033994e-08
C0E791,卓蘭,2026-04-15,24.3126,120.8244,4.9721056e-08
C2R260,春日,2026-04-15,22.370361,120.628306,0.045650464
C1I030,武界,2026-04-15,23.913225,121.052483,6.086791e-09
C0R520,崁頂,2026-04-15,22.514781,120.506914,0.6620605
C0R341,牡丹,2026-04-15,22.130036,120.792639,0.0017343194
C0R930,萬丹,2026-04-15,22.5885,120.4851,0.27233458
C0S760,紅石,2026-04-15,23.069131,121.126219,3.5798784e-09
C2C410,中央大學,2026-04-15,24.967652,121.185165,2.9715959e-09
C1M610,石磐龍,2026-04-15,23.496606,120.663506,5.168957e-09
C2C830,中德,2026-04-15,24.981862,121.291344,3.4355263e-09
C0C790,東眼山,2026-04-15,24.8284,121.40888,5.024576e-09
C0UA10,鴛鴦湖,2026-04-15,24.590269,121.412228,7.022443e-09
C0R800,丹路,2026-04-15,22.204481,120.750989,0.10863859
C2R240,萬巒,2026-04-15,22.527306,120.625111,0.011439927
C0G920,永靖,2026-04-15,23.924703,120.547533,5.525402e-08
C2M950,太和,2026-04-15,23.538372,120.702961,3.4495318e-09
C1A630,下盆,2026-04-15,24.771003,121.538622,3.3722467e-09
B2N890,畜產試驗所,2026-04-15,23.058972,120.336406,0.0002047309
C0UA30,白嶺,2026-04-15,24.527819,121.519031,6.5434644e-09
467571,新竹,2026-04-15,24.828575,121.01455,3.3236398e-09
C1V580,溪南(特生中心),2026-04-15,23.084972,120.788475,3.2263012e-09
C1T970,大農,2026-04-15,23.615233,121.413331,0.0053584245
C0R650,竹田,2026-04-15,22.58486,120.54344,0.7463008
C1H900,清流,2026-04-15,24.080775,120.962997,8.845425e-09
C1C510,水尾,2026-04-15,24.940081,121.087161,1.3829434e-09
C2N170,茅港尾,2026-04-15,23.2061,120.2624,8.4663094e-05
C0F9X0,大雅(中科園區),2026-04-15,24.21528,120.62445,9.4207415e-08
C0SB60,白守蓮,2026-04-15,23.126769,121.401914,2.6443167e-05
C0O970,虎頭埤,2026-04-15,23.021375,120.347878,2.4582496e-06
C0C730,中大臨海站,2026-04-15,24.966126,121.008581,4.297444e-09
C0X250,新營,2026-04-15,23.310689,120.316681,5.877459e-07
C0V700,三民,2026-04-15,22.645017,120.311233,9.999751e-06
C0U870,大礁溪,2026-04-15,24.791042,121.675047,8.177187e-09
C0E870,高鐵苗栗,2026-04-15,24.60725,120.826094,1.962638e-08
C2S890,關山,2026-04-15,23.0395,121.175017,1.7574313e-05
C0TA30,鹽寮,2026-04-15,23.845606,121.592664,7.092736e-05
C0M860,新美,2026-04-15,23.338017,120.683169,2.8868183e-07
C1E701,八卦,2026-04-15,24.491756,120.927619,4.2477602e-08
C2TA90,加納納,2026-04-15,23.466421,121.359867,0.0069941613
C0I420,國姓,2026-04-15,24.037803,120.855072,4.669291e-09
C2D720,關西工作站,2026-04-15,24.757275,121.184792,8.612927e-09
C2AK30,信賢,2026-04-15,24.84108,121.53492,3.4107964e-07
C0S960,香蘭,2026-04-15,22.587569,120.993375,6.0265386e-08
467620,蘭嶼,2026-04-15,22.0369,121.55843,3.2505822e-09
C2UC40,中城,2026-04-15,24.62865,121.74745,6.2747894e-08
72G600,臺中農改場,2026-04-15,24.003028,120.534389,8.625245e-08
C0Z210,瑞穗,2026-04-15,23.5239,121.39021,0.00020852013
C0M820,達邦,2026-04-15,23.453994,120.749517,4.977894e-08
C0V860,南寮,2026-04-15,22.7616,120.2339,0.00026665046
C0G740,大城,2026-04-15,23.852487,120.320935,1.4412656e-07
C0R920,塭仔,2026-04-15,22.4169,120.5197,0.19901218
C0R470,高樹,2026-04-15,22.826389,120.600806,0.00017393444
C0R680,佳樂水,2026-04-15,21.993578,120.861633,3.2129705e-05
C1O870,大棟山,2026-04-15,23.31157,120.52226,4.1774464e-09
C0D360,梅花,2026-04-15,24.678347,121.208558,2.637533e-09
C0Z190,富世,2026-04-15,24.14743,121.6297,0.00012225301
C0AI10,屈尺,2026-04-15,24.92184,121.54475,6.4511534e-09
B2U990,畜試東區分所,2026-04-15,24.669039,121.832561,1.0167829e-07
C0SB80,長濱漁港,2026-04-15,23.313644,121.459994,0.0051273345
C0TA50,和仁,2026-04-15,24.241394,121.712472,0.0002508314
C2AK40,漁光,2026-04-15,24.96875,121.72132,1.17016885e-08
C0V910,大樹,2026-04-15,22.684645,120.432803,0.00028821026
C1R610,西大武山,2026-04-15,22.617719,120.7322,3.0461702e-09
C0G900,線西,2026-04-15,24.143358,120.443536,4.0706465e-07
C0M700,竹崎,2026-04-15,23.526178,120.555508,1.2665623e-07
C2E880,三義,2026-04-15,24.405478,120.749819,5.4284386e-09
C0C720,竹圍,2026-04-15,25.112692,121.239824,2.7295644e-09
C0F9P0,清水,2026-04-15,24.312297,120.562242,6.7773126e-06
C0Z150,吉安光華,2026-04-15,23.930925,121.595153,8.946503e-05
C0FA80,小雪山天池,2026-04-15,24.28025,121.02627,1.9561053e-08
467300,東吉島,2026-04-15,23.25727,119.66762,1.0647678e-05
C1D640,外坪(五指山),2026-04-15,24.644447,121.090961,1.7111177e-09
C2R9A0,高士國小,2026-04-15,22.12553,120.84653,4.971506e-05
C0F9O0,潭子,2026-04-15,24.213106,120.703933,3.265766e-08
C2H9R0,卓社,2026-04-15,23.887894,121.000086,4.672053e-09
72T250,花蓮農改場,2026-04-15,23.975222,121.563889,0.005257796
C0E780,銅鑼,2026-04-15,24.489681,120.790853,2.2548756e-08
C1T950,太安,2026-04-15,23.666719,121.370128,1.7875443e-08
C0E830,苑裡,2026-04-15,24.439714,120.653053,2.1114813e-07
467270,田中,2026-04-15,23.873803,120.581286,1.2650196e-07
C0SA10,檳榔四格山,2026-04-15,22.810031,121.109308,3.507119e-08
C1T830,布洛灣,2026-04-15,24.17184,121.57127,4.588e-06
C0F970,大坑,2026-04-15,24.173142,120.722289,2.4526729e-08
C1U920,思源,2026-04-15,24.393125,121.347214,5.860324e-09
C2H9Y0,松茗,2026-04-15,23.8167,120.650765,7.5024576e-07
C0A931,三和,2026-04-15,25.233153,121.595236,4.8142588e-09
C0I010,廬山,2026-04-15,24.033311,121.181808,5.1217617e-09
C2M940,日野賀,2026-04-15,23.434056,120.727169,4.858046e-09
C0R860,鼻頭,2026-04-15,22.1043,120.8979,6.7495566e-05
C2I260,北坑,2026-04-15,23.92463,121.00683,4.4770744e-08
C0UB20,壯圍,2026-04-15,24.7359,121.8163,8.462258e-08
C0R790,九棚,2026-04-15,22.14195,120.889281,2.886705e-06
C0W110,東莒,2026-04-15,25.9652,119.98069,9.431166e-09
C1U930,粉鳥林,2026-04-15,24.497088,121.842479,0.9151602
C0S830,長濱,2026-04-15,23.286817,121.411975,3.4748432e-06
C1F9F1,伯公龍,2026-04-15,24.272392,120.849047,6.4769615e-08
C0UB90,太平山莊,2026-04-15,24.494171,121.536209,6.864991e-09
C0E810,西湖,2026-04-15,24.562947,120.7485,3.9411145e-08
C1I440,新高口,2026-04-15,23.478744,120.878939,8.150435e-09
C0O840,王爺宮,2026-04-15,23.222064,120.40085,2.051915e-06
C0T9G0,鳳林山,2026-04-15,23.735269,121.420131,1.0890377e-08
C0X080,佳里,2026-04-15,23.173039,120.145086,1.4597535e-06
C0FB70,大甲溪埔,2026-04-15,24.370625,120.620067,2.937278e-07
C0Z310,清水斷崖,2026-04-15,24.218294,121.689142,3.1744617e-05
C0M680,太保,2026-04-15,23.455062,120.331455,2.9416145e-07
C1S820,金峰,2026-04-15,22.590969,120.933236,8.220316e-06
C0AD10,八里,2026-04-15,25.150211,121.403947,6.2486665e-09
C2K240,草嶺,2026-04-15,23.59555,120.693461,7.5928694e-09
C1SA70,都蘭,2026-04-15,22.87794,121.226881,0.0003040785
C0K440,二崙,2026-04-15,23.772797,120.408944,2.4217837e-07
C1A760,坪林交控,2026-04-15,24.94284,121.713442,3.3048416e-08
C0F9N0,大里,2026-04-15,24.092464,120.701378,8.839961e-09
C0SA90,達仁林場,2026-04-15,22.264347,120.823972,3.5849678e-07
C1R290,石門山,2026-04-15,22.112611,120.756597,2.3941071e-08
42HA10,萬大發電廠,2026-04-15,23.978875,121.139639,5.1091944e-09
C0R890,山海,2026-04-15,21.9878,120.7091,0.0006733635
C0T9A0,月眉山,2026-04-15,23.809928,121.539828,9.260489e-09
C0AC70,信義,2026-04-15,25.037822,121.564597,7.77852e-09
C0K560,棋山,2026-04-15,23.68645,120.603417,9.755467e-08
C2FB50,出雲,2026-04-15,24.206469,120.902794,1.956277e-08
C1Z240,中平林道,2026-04-15,23.42115,121.26763,1.1503847e-08
U2H480,溪頭,2026-04-15,23.670306,120.798194,3.48448e-09
C0M880,好美里,2026-04-15,23.3364,120.138,1.9938365e-07
C0T9E0,大坑,2026-04-15,23.880628,121.581981,1.5600422e-07
C0K530,臺西,2026-04-15,23.701547,120.197559,1.4929873e-07
C1E900,國一N128K,2026-04-15,24.560997,120.844186,2.5735186e-08
C0AJ50,水湳洞,2026-04-15,25.123695,121.862238,1.2294711e-07
C0AI20,白沙灣,2026-04-15,25.283128,121.519058,6.7454358e-09
C2V310,美濃,2026-04-15,22.898792,120.51907,0.001967785
C0A860,大坪,2026-04-15,25.165914,121.632969,2.2817018e-07
C1U850,觀音海岸,2026-04-15,24.38319,121.77856,5.074729e-07
C2K610,草嶺石壁,2026-04-15,23.602469,120.707731,6.325979e-09
C0U950,鶯子嶺,2026-04-15,24.89754,121.79244,6.048242e-09
C0O900,善化,2026-04-15,23.112883,120.297219,2.472724e-06
C0K550,蔦松,2026-04-15,23.514319,120.229736,5.23924e-07
E2P980,林試六龜中心,2026-04-15,22.991703,120.645722,9.333413e-06
C0E590,通霄,2026-04-15,24.471892,120.704622,6.0143776e-08
C1I310,西巒,2026-04-15,23.754486,120.883956,1.320176e-08
C0A550,泰平,2026-04-15,24.971197,121.823711,8.9852e-09
C2UC30,金洋,2026-04-15,24.42465,121.74573,0.067929804
C0I360,水里,2026-04-15,23.812553,120.849792,3.6649915e-08
C0R830,高士,2026-04-15,22.121825,120.836781,5.7129995e-08
C1I101,溪頭,2026-04-15,23.661789,120.807647,4.3492787e-09
C0AJ20,野柳,2026-04-15,25.20703,121.690021,9.134237e-09
C0B060,暖暖,2026-04-15,25.0957,121.7403,1.4987482e-05
C1H920,長豐,2026-04-15,24.102039,120.879897,1.1161209e-08
C2S9B0,利吉,2026-04-15,22.86246,121.15486,2.8636246e-05
C0V360,內門,2026-04-15,22.975481,120.466769,3.084534e-06
C0R850,林邊,2026-04-15,22.4634,120.5339,0.25764054
C0E930,龍鳳,2026-04-15,24.700034,120.859125,4.5230952e-09
C0U910,冬山,2026-04-15,24.63373,121.7937,1.0278387e-07
C1E721,泰安,2026-04-15,24.489017,120.968036,4.156377e-09
82H320,茶改中部分場,2026-04-15,23.875611,120.913583,6.9366455e-09
C0M750,布袋,2026-04-15,23.380878,120.167789,4.2526688e-07
C1S860,利嘉,2026-04-15,22.809417,121.050528,1.17898e-08
E2S980,林試太麻里1,2026-04-15,22.598922,120.980044,0.0001692895
C0X170,關廟,2026-04-15,22.963017,120.327797,8.249325e-06
C0V720,林園,2026-04-15,22.507747,120.394511,0.0055116233
C2M9G0,沄水,2026-04-15,23.38293,120.52666,3.7742154e-07
C1I510,線浸林道,2026-04-15,23.761508,120.832956,3.4720078e-09
C0D690,外湖,2026-04-15,24.917735,120.968711,3.7376315e-09
C0C750,新興坑尾,2026-04-15,25.0061,121.0971,1.6501923e-09
B2Q810,畜試南區分所,2026-04-15,21.945583,120.802167,1.8628442e-06
C0S790,金崙,2026-04-15,22.538122,120.966875,7.6647217e-07
C0AH90,福山植物園,2026-04-15,24.760717,121.58135,2.8519893e-09
C0I540,奇萊稜線,2026-04-15,24.109231,121.326456,2.1913065e-08
C0M850,表湖,2026-04-15,23.24186,120.64166,5.6228508e-08
C0S770,大溪山,2026-04-15,22.478475,120.943325,2.7242579e-05
C0AG80,中和,2026-04-15,24.991622,121.491792,8.377907e-09
C0T790,大禹嶺,2026-04-15,24.186117,121.316086,2.085785e-08
C0T9B0,水源,2026-04-15,23.991861,121.537169,2.4183626e-08
C0R840,牡丹池山,2026-04-15,22.168389,120.841225,2.2749488e-07
C1I131,桶頭,2026-04-15,23.641944,120.654117,0.009881362
CAL110,布袋國中,2026-04-15,23.35893,120.18026,2.8901324e-05
C2M9D0,何竹子腳,2026-04-15,23.53641,120.38203,1.7276856e-05
C0Z290,赤柯山,2026-04-15,23.36893,121.38293,3.5458325e-09
C0X280,將軍,2026-04-15,23.214999,120.13577,5.4890467e-07
C0S690,太麻里,2026-04-15,22.60902,120.98533,8.7570085e-09
C0U880,北關,2026-04-15,24.9072,121.8734,3.431902e-05
CAW010,東引,2026-04-15,26.3588,120.4836,7.974442e-09
C0G810,埔心,2026-04-15,23.947633,120.525456,6.122821e-08
C0U970,大福,2026-04-15,24.80064,121.81389,7.662326e-08
C2H9N0,仁愛東眼,2026-04-15,24.026875,121.1205,5.1913354e-09
C1E670,南礦,2026-04-15,24.538278,121.002836,3.844306e-09
C0M520,東後寮,2026-04-15,23.369908,120.248065,1.4556052e-07
C1E461,松安,2026-04-15,24.397972,120.986022,3.837559e-09
C2N160,西拉雅風管處,2026-04-15,23.189481,120.335297,4.5525805e-05
C2O850,環湖,2026-04-15,23.148665,120.4186,0.0007928504
C2M970,碧湖,2026-04-15,23.568632,120.624165,2.276169e-09
C0A640,石碇,2026-04-15,24.993969,121.662917,3.3048416e-08
E2S960,林試太麻里2,2026-04-15,22.598,120.99775,1.1862833e-07
C0F9Y0,桃山,2026-04-15,24.432739,121.303808,2.6813343e-08
C1I020,萬大,2026-04-15,23.979817,121.132261,4.635217e-09
C2UC20,長嶺,2026-04-15,24.70894,121.61162,2.1200891e-07
C0U940,羅東,2026-04-15,24.68184,121.74934,7.0746225e-08
C0M650,朴子,2026-04-15,23.43463,120.23902,1.7096887e-07
C1I500,大尖山,2026-04-15,23.858572,120.994889,7.215571e-09
C0FB40,中橫21.6k,2026-04-15,24.2499,121.1455,6.1324714e-09
C0G820,田尾,2026-04-15,23.901669,120.509389,6.122821e-08
E2K600,四湖植物園,2026-04-15,23.676986,120.163433,2.47564e-07
C0S730,綠島,2026-04-15,22.6672,121.47533,3.4393373e-08
12Q970,東港工作站,2026-04-15,22.479997,120.466058,0.07976593
C1TA00,太魯閣,2026-04-15,24.15773,121.6236,0.0009223994
466920,臺北,2026-04-15,25.037658,121.514853,7.186412e-09
C0R600,舊泰武,2026-04-15,22.588194,120.664944,0.0001659508
466910,鞍部,2026-04-15,25.182586,121.529731,1.8261471e-09
C1I230,九份二山,2026-04-15,23.961944,120.845,1.9728907e-09
C2M810,里佳,2026-04-15,23.389125,120.716647,3.6145267e-09
C2A660,瑞芳,2026-04-15,25.113169,121.801147,5.0466868e-05
C0R270,琉球嶼,2026-04-15,22.332244,120.362236,1.6979649e-06
C2V580,瑞山,2026-04-15,22.90304,120.43424,0.00043963938
C1T990,高寮,2026-04-15,23.394239,121.356808,0.6978574
C0G620,芬園,2026-04-15,24.015678,120.6213,8.843721e-09
C1Z140,荖溪,2026-04-15,23.890575,121.45964,6.9022916e-09
C1I201,中心崙,2026-04-15,23.728722,120.712097,8.496056e-07
C1I400,凌霄,2026-04-15,24.018778,121.004456,5.029082e-09
C1M640,十字,2026-04-15,23.492153,120.753683,4.0911265e-09
G2P820,農試鳳山分所,2026-04-15,22.646611,120.356083,0.00072158896
C0Z270,蕃薯寮,2026-04-15,23.73835,121.540108,5.581435e-08
C2E420,竹南,2026-04-15,24.70898,120.88897,1.4041491e-08
C2D480,打鐵坑,2026-04-15,24.849664,121.150789,5.9359017e-08
C0FB10,出雲山苗圃,2026-04-15,24.23105,120.90475,2.0071658e-08
C0F9Q0,外埔,2026-04-15,24.347817,120.705686,2.5934813e-07
C0K580,高鐵雲林,2026-04-15,23.737456,120.417944,5.70892e-07
C2I090,鳳凰,2026-04-15,23.728081,120.787347,4.7112834e-09
C0U990,員山,2026-04-15,24.74435,121.72247,7.411228e-08
C0V770,大社,2026-04-15,22.730306,120.346639,0.00013953558
C0X120,麻豆,2026-04-15,23.183289,120.248611,6.71898e-07
C0C670,龍潭,2026-04-15,24.870056,121.221389,5.371738e-09
C0D680,香山濕地,2026-04-15,24.783581,120.914988,3.7376315e-09
C0S980,勝林山,2026-04-15,22.430439,120.8938,3.1094802e-07
C0V730,大寮,2026-04-15,22.605614,120.395717,0.0002234626
C0R570,麟洛,2026-04-15,22.65078,120.52719,0.057725143
C2M930,石卓,2026-04-15,23.478744,120.702264,4.121138e-09
C0G9B0,和美,2026-04-15,24.105169,120.492131,3.0533968e-07
C2I240,外大坪,2026-04-15,23.9587,120.91788,6.124383e-09
CAG100,王功漁港,2026-04-15,23.96824,120.32586,1.3056241e-06
C0X290,北門,2026-04-15,23.267772,120.125481,5.4890467e-07
C2F930,大甲,2026-04-15,24.347667,120.640403,0.00036293486
C0D650,湖口,2026-04-15,24.904794,121.043628,2.4808116e-09
C0U780,五結,2026-04-15,24.68637,121.79794,1.0278387e-07
C1I250,鯉潭,2026-04-15,23.961922,120.991131,1.2889621e-08
C0R130,阿禮,2026-04-15,22.742908,120.743678,5.4400395e-08
C0X100,臺南市北區,2026-04-15,23.010394,120.194228,1.3750648e-06
C0S920,金峰嘉蘭,2026-04-15,22.594789,120.960825,2.070035e-08
C0V490,新興,2026-04-15,22.627422,120.298803,2.871626e-05
C0F9K0,大安,2026-04-15,24.345061,120.588025,5.2352116e-06
467290,古坑,2026-04-15,23.633639,120.551889,0.98508704
C2E970,八甲,2026-04-15,24.535811,120.795983,7.633531e-08
C0V440,鳳山,2026-04-15,22.646653,120.356122,4.337788e-06
C1T940,大觀,2026-04-15,23.714206,121.373133,3.639544e-08
C0E740,造橋,2026-04-15,24.637056,120.864778,6.1228875e-09
C0R100,尾寮山,2026-04-15,22.833111,120.683889,5.045706e-08
A2K630,臺大雲林校區,2026-04-15,23.730628,120.423903,7.864963e-05
467990,馬祖,2026-04-15,26.169467,119.923158,1.6163662e-08
C0D580,寶山,2026-04-15,24.735006,121.025192,2.8172522e-09
E2P990,林試扇平站,2026-04-15,22.9677,120.6857,9.571194e-07
C0AI30,三重,2026-04-15,25.057328,121.500629,7.970443e-09
C0AH00,汐止,2026-04-15,25.066881,121.658778,0.00024008256
C1Z040,立山,2026-04-15,23.443356,121.327375,1.7055829e-06
466881,新北,2026-04-15,24.959207,121.525196,7.605247e-09
C0W130,花嶼,2026-04-15,23.40007,119.32276,6.346034e-06
C0A950,鼻頭角,2026-04-15,25.129036,121.923372,5.220325e-06
C0K470,林內,2026-04-15,23.748675,120.609642,1.2700748e-07
C2F990,摩天嶺,2026-04-15,24.322458,120.936819,4.0080373e-08
C2E430,南庄,2026-04-15,24.601775,121.000214,6.325629e-09
82C160,茶改場,2026-04-15,24.908472,121.185333,2.026518e-09
C2TB60,南安,2026-04-15,23.29818,121.26157,3.9710212e-05
C0Z320,清水林道,2026-04-15,23.27125,121.188272,8.141734e-09
C0R760,南仁湖,2026-04-15,22.084681,120.863353,1.4628067e-07
C0M670,大林,2026-04-15,23.600616,120.45841,3.5825926e-07
C0M800,茶山,2026-04-15,23.299075,120.664767,3.6118685e-08
C0A9C0,天母,2026-04-15,25.117494,121.537169,7.703266e-09
72K220,南改斗南分場,2026-04-15,23.634556,120.477333,7.054267e-05
72AI40,桃改樹林分場,2026-04-15,24.944503,121.386972,3.1620047e-09
C0S910,蘭嶼燈塔,2026-04-15,22.081197,121.503117,9.951175e-09
C0B050,八斗子,2026-04-15,25.144754,121.79167,0.00022157162
C0U900,內城,2026-04-15,24.71813,121.68766,5.271501e-08
C0X320,柳營,2026-04-15,23.253328,120.375253,1.294681e-05
C0M790,新港,2026-04-15,23.553269,120.345728,1.7642192e-07
C0F9T0,西屯,2026-04-15,24.179494,120.641275,1.11419425e-07
C0E950,松安,2026-04-15,24.39792,120.98599,3.837559e-09
C0SA30,都歷,2026-04-15,23.020333,121.323642,3.1948146e-06
C0C620,蘆竹,2026-04-15,25.084275,121.265767,2.1285824e-09
C0R730,大坪頂,2026-04-15,22.024633,120.69355,1.428421e-05
C0AJ40,石門,2026-04-15,25.273672,121.601198,3.0374616e-09
C0E750,苗栗,2026-04-15,24.564569,120.824575,2.6187715e-08
C0T870,鯉魚潭,2026-04-15,23.935639,121.508944,4.5646775e-06
C1V170,排雲,2026-04-15,23.463619,120.954147,2.5486061e-08
C2H950,中寮,2026-04-15,23.884447,120.766406,4.0339256e-07
C0R350,貓鼻頭,2026-04-15,21.921774,120.7358,0.0005667736
C0V660,岡山,2026-04-15,22.797078,120.294958,0.00019375759
C1H941,雙冬,2026-04-15,23.967378,120.802189,2.4506703e-09
C0AJ70,田寮,2026-04-15,25.2698,121.4886,6.8204074e-09
C0AI00,五股,2026-04-15,25.07445,121.42728,2.4179834e-09
C0Z280,德武,2026-04-15,23.47426,121.41071,8.6074826e-05
C2RA10,大新,2026-04-15,22.67558,120.57788,0.11744651
C0R700,枋山,2026-04-15,22.246844,120.661086,0.95177686
C0C460,復興,2026-04-15,24.820208,121.352281,5.1046456e-09
C2AA10,中八仙,2026-04-15,25.11576,121.49199,4.15763e-09
C2K300,鹿南,2026-04-15,23.63855,120.3636,2.1277354e-07
E2H360,蓮華池,2026-04-15,23.918333,120.885278,9.970021e-09
C0M640,中埔,2026-04-15,23.42538,120.5229,2.6306924e-07
C2C810,八德蔬果,2026-04-15,24.97858,121.28187,3.4355263e-09
C2M9F0,安溪寮,2026-04-15,23.350334,120.208039,2.7797476e-05
C0W140,金沙,2026-04-15,24.488292,118.408778,4.6965423e-09
C2A540,四堵,2026-04-15,24.8926,121.745736,3.5608406e-07
C0ACA0,新莊,2026-04-15,25.051478,121.446756,5.5515765e-09
C0R220,潮州,2026-04-15,22.534361,120.54,0.59344834
U2HA40,臺大內茅埔,2026-04-15,23.689722,120.851117,1.2339996e-07
467490,臺中,2026-04-15,24.145736,120.684075,2.534287e-08
C0UB60,明池,2026-04-15,24.650688,121.475277,3.3759022e-09
C0U960,翠峰湖,2026-04-15,24.510856,121.608044,6.434085e-09
E2HA20,林試畢祿溪站,2026-04-15,24.226944,121.308522,9.073151e-09
C2M9A0,大華,2026-04-15,23.4824,120.67491,1.5207803e-08
C0V890,前鎮,2026-04-15,22.5718,120.3117,1.812337e-05
C1F941,雪嶺,2026-04-15,24.280586,121.026642,1.9561053e-08
C2H9E0,國姓南港,2026-04-15,23.911108,120.846556,2.5594828e-09
C0AC80,文山,2026-04-15,25.00235,121.575728,5.870191e-09
C0F9R0,龍井,2026-04-15,24.184536,120.528972,6.427936e-07
C0M760,民雄,2026-04-15,23.551754,120.428457,3.5825926e-07
C0UA40,西德山,2026-04-15,24.560647,121.752608,8.808487e-09
C2TA70,赤科坪,2026-04-15,23.39885,121.39168,1.4446295e-08
C1T920,中興,2026-04-15,23.769503,121.498653,0.0010252158
C0D550,雪霸,2026-04-15,24.526972,121.11605,5.9175065e-09
C2F860,梨山,2026-04-15,24.247522,121.243669,1.0888902e-08
C0R320,車城,2026-04-15,22.0744,120.716247,0.0018717689
C1S870,南美山,2026-04-15,23.15025,121.382333,4.065842e-06
C0B020,基隆嶼,2026-04-15,25.19141,121.78391,0.00014580891
C1U501,牛鬥,2026-04-15,24.637836,121.573656,1.4365382e-05
C0M730,嘉義市東區,2026-04-15,23.457673,120.460531,1.5575417e-06
C2R990,泰武,2026-04-15,22.60686,120.69765,3.0681582e-07
C0S700,知本,2026-04-15,22.684866,121.005642,9.405693e-09
C1N001,沙崙,2026-04-15,22.935472,120.309406,0.0005647848
C0V760,橋頭,2026-04-15,22.757806,120.30575,0.00014074532
C2V570,吉東,2026-04-15,22.85418,120.54539,0.003402032
C0G960,福寶,2026-04-15,24.0443,120.3814,2.5667032e-07
C0X210,白河,2026-04-15,23.347466,120.414427,3.489583e-05
C0S810,東河,2026-04-15,22.972672,121.303986,4.381071e-06
C2R170,屏東,2026-04-15,22.66027,120.49403,0.10891406
C0R670,楓港,2026-04-15,22.190131,120.692156,0.89888036
C0FA50,霧峰,2026-04-15,24.0419,120.6995,8.672884e-09
C0UB10,蘇澳,2026-04-15,24.5969,121.8571,3.3194715e-06
C0G950,防潮門,2026-04-15,24.1835,120.4871,3.945037e-07
C0M740,六腳,2026-04-15,23.492871,120.290625,1.554141e-07
C1R250,力里,2026-04-15,22.428117,120.629228,0.008741606
C0K330,虎尾,2026-04-15,23.719183,120.442036,4.7752616e-07
C2FA00,烏石坑,2026-04-15,24.273503,120.947617,4.182447e-08
C0V620,永安,2026-04-15,22.82315,120.236856,0.00023291325
C1I330,楓樹林,2026-04-15,23.986803,121.076117,4.8391153e-09
C0W200,湖西,2026-04-15,23.596314,119.67275,1.8226743e-05
72Q010,高雄農改場,2026-04-15,22.709333,120.525889,0.20267087
C0C680,龜山,2026-04-15,25.02846,121.38656,1.9384956e-09
C2V260,月眉,2026-04-15,22.971003,120.539853,0.00021818545
C0V450,鳳森,2026-04-15,22.545064,120.392592,0.001071267
C0FA90,小雪山林道,2026-04-15,24.29515,121.03651,2.9880685e-08
C0U720,南山,2026-04-15,24.43742,121.38167,8.456671e-09
A2N290,臺南蘭花園區,2026-04-15,23.340258,120.379661,0.009212899
C0R560,新園,2026-04-15,22.5434,120.461558,0.0055116233
C0U890,三星,2026-04-15,24.66812,121.65302,3.005009e-08
C1V300,御油山,2026-04-15,23.001983,120.715364,3.142812e-09
C0U600,礁溪,2026-04-15,24.817539,121.765608,6.000628e-08
C1T980,龍澗,2026-04-15,24.023289,121.411328,4.764446e-09
C0D670,海天一線,2026-04-15,24.831986,120.914438,3.3054073e-09
C0SA00,歷坵,2026-04-15,22.520969,120.89185,0.004536498
C0M710,東石,2026-04-15,23.458927,120.15385,3.857055e-07
C0M780,鹿草,2026-04-15,23.41134,120.30835,1.5249331e-07
C0U520,雙連埤,2026-04-15,24.753033,121.641303,7.657093e-09
C0B010,七堵,2026-04-15,25.094819,121.71713,0.00012971071
C0R480,長治,2026-04-15,22.693128,120.542622,0.08289178
C1V830,國三S383K,2026-04-15,22.781967,120.426475,0.0002305329
12Q980,恆春工作站,2026-04-15,22.079678,120.714425,1.1584353e-05
C1O940,東山服務區,2026-04-15,23.286016,120.398472,0.007202017
C1U840,東澳嶺,2026-04-15,24.5378,121.8485,6.595971e-08
C1D630,飛鳳山,2026-04-15,24.766464,121.119178,2.335856e-09
C0S940,石寧山,2026-04-15,23.223772,121.406639,2.9496416e-05
C0K410,北港,2026-04-15,23.573957,120.292802,3.0580918e-07
C2M620,瑞里,2026-04-15,23.545133,120.675197,4.1313695e-09
C0SB70,小港漁港,2026-04-15,23.158558,121.400431,2.2234328e-05
C2O950,安南,2026-04-15,23.076694,120.144861,0.0012092746
C0F0E0,南湖圈谷,2026-04-15,24.363714,121.444667,3.4607304e-08
467610,成功,2026-04-15,23.097486,121.373428,4.7740756e-05
C0G890,伸港,2026-04-15,24.148933,120.484403,3.8182716e-07
C2E540,龍溪,2026-04-15,24.606489,120.783933,4.0612238e-07
C1V200,梅山,2026-04-15,23.268447,120.823556,9.777631e-09
C0T9H0,加路蘭山,2026-04-15,23.682947,121.5274,4.6383124e-09
C2O930,玉井,2026-04-15,23.126042,120.46055,0.0007928504
C1F911,新伯公,2026-04-15,24.221361,120.841069,3.219357e-08
C0X200,左鎮,2026-04-15,23.056758,120.408522,5.743702e-06
C2TB50,麻汝,2026-04-15,23.42554,121.39358,0.0071658143
C0FA60,鞍馬山工作站,2026-04-15,24.267064,121.000793,1.2387508e-08
C0SB50,叭嗡嗡,2026-04-15,23.047062,121.343223,7.72245e-05
C2R550,新埤,2026-04-15,22.467947,120.582894,0.08509997
C1F891,稍來,2026-04-15,24.265689,121.001142,1.1962952e-08
C2M9C0,紫雲,2026-04-15,23.494914,120.540253,1.4933177e-06
72N240,七股研究中心,2026-04-15,23.081672,120.062894,0.0016480985
C0C700,中壢,2026-04-15,24.977661,121.256375,1.3396637e-09
C0M690,水上,2026-04-15,23.419734,120.388909,7.292786e-07
C0V690,鼓山,2026-04-15,22.623325,120.275575,2.871626e-05
C0O860,大內,2026-04-15,23.11885,120.36083,1.2627369e-06
C0Z200,萬榮,2026-04-15,23.709219,121.420106,9.805543e-07
C0T9D0,和中,2026-04-15,24.26676,121.74103,0.00030691185
C2S9A0,北份子寮,2026-04-15,22.78561,121.07813,5.77859e-05
C1O921,楠西,2026-04-15,23.183511,120.484083,0.00044031217
C0AJ30,淡水觀海,2026-04-15,25.184591,121.408616,6.4492958e-09
C0V810,左營,2026-04-15,22.67491,120.28491,9.999751e-06
C0UA70,桃源谷,2026-04-15,24.962606,121.888875,7.288994e-09
C0X130,官田,2026-04-15,23.193217,120.315422,6.582027e-07
C1H000,翠峰,2026-04-15,24.109397,121.205211,7.507416e-09
C0UA90,石城,2026-04-15,24.980444,121.951214,2.9899127e-06
C1E681,南勢山,2026-04-15,24.421669,120.923831,1.46153845e-08
C0A9F0,內湖,2026-04-15,25.079422,121.57545,7.77852e-09
C0K291,宜梧,2026-04-15,23.536281,120.169329,2.605542e-07
C1K540,口湖,2026-04-15,23.585344,120.180517,3.0857461e-06
C0R780,滿州,2026-04-15,22.024403,120.839892,1.8955692e-05
C0V870,文安,2026-04-15,22.8025,120.2164,0.00026665046
C0U650,玉蘭,2026-04-15,24.675286,121.587061,4.5488445e-08
C0R640,東港,2026-04-15,22.46247,120.44074,0.0037222854
C0AJ80,板橋,2026-04-15,25.0107,121.4489,8.377907e-09
C0S660,下馬,2026-04-15,23.150427,121.070312,9.389417e-09
C2N190,烏樹,2026-04-15,23.32393,120.36989,5.258574e-05
C1H9B1,阿眉,2026-04-15,24.1263,120.994672,5.3978875e-09
C0UA20,多加屯,2026-04-15,24.368614,121.373189,1.5734155e-08
C0E730,頭份,2026-04-15,24.688247,120.912206,4.204264e-09
72V140,高改旗南分場,2026-04-15,22.857861,120.516667,0.0003900666
C2R490,九如,2026-04-15,22.74049,120.490555,0.20267087
C0K480,莿桐,2026-04-15,23.761192,120.502372,6.13969e-07
C0U980,坪林石牌,2026-04-15,24.86478,121.77396,6.673032e-09
C0T900,西林,2026-04-15,23.8119,121.441458,1.1217605e-06
C1I150,青雲,2026-04-15,23.793361,120.949378,7.0033956e-09
C2E980,和興,2026-04-15,24.505319,120.923016,7.6400624e-07
467350,澎湖,2026-04-15,23.565503,119.563094,2.7580343e-05
C0G800,埔鹽,2026-04-15,24.000394,120.431683,2.2461474e-07
C0H960,草屯,2026-04-15,23.973672,120.68085,3.3235146e-08
C1V780,多納林道,2026-04-15,22.888028,120.737917,3.3586767e-09
C0E920,通霄漁港,2026-04-15,24.498589,120.673876,7.1610884e-08
C0Z330,安通山,2026-04-15,23.290728,121.348528,4.5740578e-08
C0AH10,永和,2026-04-15,25.01125,121.508111,8.955515e-09
C0AK10,太平里,2026-04-15,25.134937,121.364899,2.987474e-09
C2G640,鹿港,2026-04-15,24.0753,120.430481,6.9653447e-07
C1E890,國三N149K,2026-04-15,24.463414,120.680019,5.667081e-08
C1R110,口社,2026-04-15,22.770111,120.645222,0.0077191326
C1M870,國三N285K,2026-04-15,23.550319,120.505833,1.0548855e-06
C1E480,鳳美,2026-04-15,24.554803,121.034747,1.9025664e-07
C0T9M0,靜浦,2026-04-15,23.455167,121.495028,0.0007365096
C2H9M0,發祥,2026-04-15,24.154094,121.164517,4.2845456e-09
C2G9C0,埔南,2026-04-15,23.99124,120.46969,5.330676e-07
C0AI40,石牌,2026-04-15,25.115597,121.513139,7.77852e-09
C1F871,上谷關,2026-04-15,24.203483,121.018644,1.7518001e-08
C2H9G0,百勝,2026-04-15,24.051142,120.909361,3.608006e-08
C0G880,二水,2026-04-15,23.810742,120.6173,2.539056e-07
C0R940,加祿堂,2026-04-15,22.3363,120.6217,0.047291826
C0W220,北竿,2026-04-15,26.220358,119.974881,1.1796436e-08
C0O960,崎頂,2026-04-15,22.959547,120.369317,2.5116062e-06
C0TA40,秀林,2026-04-15,24.302864,121.731144,1.1251709e-08
C0S750,向陽,2026-04-15,23.248397,120.986133,7.659664e-09
C0T9F0,水璉,2026-04-15,23.797131,121.542514,1.7610893e-07
C1M600,頭凍,2026-04-15,23.406364,120.603339,2.2957547e-09
467660,臺東,2026-04-15,22.752211,121.154586,1.5422584e-05
C1D380,新埔,2026-04-15,24.84745,121.03834,2.6156604e-09
C2G980,田頭村,2026-04-15,23.8263,120.444175,1.5858543e-05
C0V750,路竹,2026-04-15,22.854997,120.259439,0.00015801031
C0N050,蚵寮,2026-04-15,23.301,120.1104,5.4890467e-07
C2X060,下營,2026-04-15,23.226806,120.256291,8.4663094e-05
72M700,南改鹿草分場,2026-04-15,23.416869,120.283061,1.2489176e-06
C1SA50,利嘉林道,2026-04-15,22.82325,121.009389,2.4404596e-09
C0UB70,太平山中間站,2026-04-15,24.542003,121.513453,1.0967065e-08
C0A940,金山,2026-04-15,25.223628,121.643967,2.8109683e-08
C1V340,大津,2026-04-15,22.888322,120.645986,0.00043414335
C0W180,七美,2026-04-15,23.219333,119.444892,7.447472e-05
C1F9C1,白冷,2026-04-15,24.182844,120.929889,1.1663163e-08
K2E710,苗改生物防治研究中心,2026-04-15,24.422861,120.871833,6.8419745e-08
C0N040,蘆竹溝,2026-04-15,23.2344,120.0961,5.728406e-07
C0TB40,崇德,2026-04-15,24.166144,121.657414,0.00040413864
C0D760,大坪苗圃,2026-04-15,24.5362,121.1108,3.8482897e-09
C2D430,峨眉,2026-04-15,24.6905,121.017189,1.658125e-08
C2W230,畜試所澎湖,2026-04-15,23.628342,119.513206,9.012483e-06
C0R880,後壁湖,2026-04-15,21.9457,120.7457,0.0006733635
C1I280,埔中,2026-04-15,23.820778,120.642594,6.167548e-07
467790,墾丁雷達站,2026-04-15,21.948235,120.808028,2.079116e-05
C0W190,望安,2026-04-15,23.380564,119.494075,1.9070922e-05
C0Z170,卓溪,2026-04-15,23.3443,121.3029,4.2017553e-05
C0F850,東勢,2026-04-15,24.246428,120.833047,4.1139934e-08
466900,淡水,2026-04-15,25.164889,121.448906,1.0979686e-08
C0I370,魚池,2026-04-15,23.895703,120.94135,5.578399e-09
C0C630,大溪,2026-04-15,24.882853,121.265547,1.1134074e-09
C0A520,山佳,2026-04-15,24.974944,121.402008,4.413483e-09
C0I110,竹山,2026-04-15,23.761225,120.688156,0.007986057
82H840,茶改南部分場,2026-04-15,23.762528,120.7405,4.119111e-06
C2SD80,再來山,2026-04-15,23.34371,121.44122,0.0078916
C0G660,溪湖,2026-04-15,23.94835,120.479122,6.348076e-08
C1T800,洛韶,2026-04-15,24.204558,121.453956,1.0036801e-08
C1T810,慈恩,2026-04-15,24.192044,121.388386,7.647678e-09
C1E451,象鼻,2026-04-15,24.368617,120.940228,1.46153845e-08
C0AC60,三峽,2026-04-15,24.939025,121.369728,3.975843e-09
C0I490,萬大林道,2026-04-15,23.928228,121.091411,5.694361e-09
C1I290,豐丘,2026-04-15,23.668178,120.887417,8.446919e-09
C1I320,奧萬大,2026-04-15,23.952956,121.178556,4.3967043e-09
C2M910,嘉義大學,2026-04-15,23.471325,120.485903,9.904707e-06
C0U770,南澳,2026-04-15,24.44935,121.81022,0.00048163297
C2TB30,吉安,2026-04-15,23.94538,121.54803,0.001192435
C0A980,社子,2026-04-15,25.109508,121.469681,4.3004778e-09
C0V800,六龜,2026-04-15,22.997889,120.633583,7.12215e-07
C1G9D0,國一S218K,2026-04-15,23.890641,120.493253,3.1650842e-07
C0E570,白沙屯,2026-04-15,24.549447,120.696803,4.6666933e-08
C2F9A0,中竹林,2026-04-15,24.103556,120.751061,7.2369066e-09
C0FA40,臺中電廠,2026-04-15,24.2146,120.4907,9.862808e-07
C2G9A0,畜試所彰化,2026-04-15,23.86045,120.557964,3.3813703e-06
C0H9C0,合歡山,2026-04-15,24.143442,121.272547,3.5943373e-08
G2M350,農試溪口農場,2026-04-15,23.58565,120.408111,1.694483e-05
C0U860,頭城,2026-04-15,24.85323,121.8308,1.2540073e-07
C0R580,南州,2026-04-15,22.48591,120.50274,0.26942182
C0G780,秀水,2026-04-15,24.03405,120.503869,2.7715984e-08
72N100,臺南農改場,2026-04-15,23.0605,120.342194,0.00018415523
C0S900,蘭嶼高中,2026-04-15,22.04909,121.51214,1.4456576e-08
C2TA60,六十石,2026-04-15,23.22477,121.31861,8.160312e-09
C1F9W0,德基,2026-04-15,24.254783,121.190261,1.0238176e-08
C2M980,安和,2026-04-15,23.51377,120.31593,1.3694689e-06
C1Z120,壽豐,2026-04-15,23.870853,121.508081,0.003622119
C0W160,烏坵,2026-04-15,24.9944,119.44956,2.0279304e-08
C1I550,國六W023K,2026-04-15,23.979067,120.867742,1.759445e-08
C0R870,興海,2026-04-15,21.9752,120.8439,3.2129676e-05
C0R140,瑪家,2026-04-15,22.682903,120.686639,0.00043603274
C0A530,坪林,2026-04-15,24.938183,121.70975,1.7943181e-08
C0X260,後壁,2026-04-15,23.366358,120.362326,9.74742e-07
C0Z230,和平,2026-04-15,24.30717,121.77007,0.00031551058
C0G770,福興,2026-04-15,24.041289,120.437669,2.2461474e-07
C0H9A0,神木村,2026-04-15,23.532742,120.843667,4.6658903e-09
C0I460,南投,2026-04-15,23.911469,120.687331,3.3283296e-08
C0I480,梅峰,2026-04-15,24.085272,121.173572,7.050708e-09
C2D770,巨埔,2026-04-15,24.84435,121.11442,7.152417e-09
C2A560,福山,2026-04-15,24.776203,121.502811,3.014743e-07
C0AH30,五分山,2026-04-15,25.07125,121.780794,5.852304e-09
C0FA10,松柏,2026-04-15,24.429115,120.617482,2.551518e-07
72S200,東改班鳩分場,2026-04-15,22.829528,121.077694,4.8958145e-07
72HA00,中改埔里分場,2026-04-15,23.903208,120.963364,8.8665395e-09
C2H9W0,大坪頂農水,2026-04-15,24.043122,120.932781,1.2104776e-08
C0C650,平鎮,2026-04-15,24.897503,121.214636,1.3267764e-09
C0S930,延平,2026-04-15,22.902581,121.084058,1.904567e-07
C0UA60,樟樹山,2026-04-15,24.41393,121.78325,1.0532393e-07
C2UC10,出水溪,2026-04-15,24.615822,121.652253,1.3331437e-05
C1S670,摩天,2026-04-15,23.199503,121.027,1.0250564e-08
C2C590,觀音,2026-04-15,25.027072,121.153317,4.661238e-09
C0V630,茄萣,2026-04-15,22.906642,120.182608,5.103512e-06
466940,基隆,2026-04-15,25.133314,121.740475,0.00019029334
C0X050,東河,2026-04-15,23.296598,120.385608,2.4162448e-05
C0R770,保力,2026-04-15,22.071122,120.764111,7.891551e-05
G2L020,農試嘉義分所,2026-04-15,23.485028,120.473806,8.927428e-06
C0X240,關子嶺,2026-04-15,23.331169,120.508025,5.637423e-08
C0I380,集集,2026-04-15,23.828206,120.801467,4.2563244e-08
466990,花蓮,2026-04-15,23.975128,121.613275,0.00017593858
C1V220,小關山,2026-04-15,23.154217,120.813603,5.42731e-09
C1F9G1,慶福山,2026-04-15,24.180853,120.848378,3.6651013e-09
C0FB20,雪山橋,2026-04-15,24.23192,120.9786,1.03621405e-08
C0Z250,瑞穗林道,2026-04-15,23.49284,121.30688,1.5268723e-08
C0D590,新豐,2026-04-15,24.87068,120.97721,2.4117468e-09
C2N200,口宵里,2026-04-15,23.15987,120.45988,5.1049433e-06
C0A870,五指山,2026-04-15,25.132153,121.608692,2.2740947e-09
C0UA50,西帽山,2026-04-15,24.555361,121.802628,1.258443e-08
C2R980,竹田國中,2026-04-15,22.61532,120.52412,0.07549401
C0X160,仁德,2026-04-15,22.968258,120.257689,6.9862067e-06
C1H971,六分寮,2026-04-15,23.92507,120.6378,1.92644e-08
C2D790,石鹿,2026-04-15,24.56551,121.15841,5.3235953e-09
C0W120,西嶼,2026-04-15,23.5626,119.468436,2.5755826e-05
C0G650,員林,2026-04-15,23.946503,120.585597,2.0720773e-08
C0AD50,鶯歌,2026-04-15,24.951533,121.346294,3.8153063e-09
C2H9Q0,北東眼山,2026-04-15,24.120939,121.189303,5.5053384e-09
C2H9T0,名間竹圍,2026-04-15,23.859914,120.637572,1.6575483e-05
C0S990,山豬窟,2026-04-15,22.318619,120.857372,7.0560645e-06
C0X190,安平,2026-04-15,22.993161,120.152181,1.7668605e-06
C0K400,斗六,2026-04-15,23.720583,120.541127,5.7678585e-07
12J990,口湖工作站,2026-04-15,23.589978,120.180394,3.0857461e-06
C0O830,北寮,2026-04-15,23.079561,120.495008,5.0172235e-07
C1D410,白蘭,2026-04-15,24.579364,121.079947,3.6174166e-09
C0S970,加津林,2026-04-15,22.416211,120.926942,5.2359376e-08
C0D700,關西,2026-04-15,24.7977,121.1732,4.423115e-09
C0U750,龜山島,2026-04-15,24.841667,121.953133,3.7566878e-08
C0R810,內獅,2026-04-15,22.305064,120.642986,0.95177686
C2EA10,拉庫斯,2026-04-15,24.53637,121.02137,4.7132427e-09
C1M390,龍美,2026-04-15,23.406728,120.654417,4.8536744e-09
C2K290,崙內,2026-04-15,23.69525,120.35601,2.1277354e-07
C2FB60,頭櫃山,2026-04-15,24.129842,120.858925,4.0644488e-09
C1H840,國三N238K,2026-04-15,23.841008,120.707711,8.1445825e-05
CAQ030,崎峰國小,2026-04-15,22.42565,120.49521,0.07976593
C2E520,大湖,2026-04-15,24.414939,120.870872,5.8934276e-08
467530,阿里山,2026-04-15,23.508208,120.813242,1.076348e-08
C1E691,南湖,2026-04-15,24.40135,120.837533,3.009447e-09
C0FA30,梧棲,2026-04-15,24.256003,120.523381,6.427936e-07
C1V231,高中,2026-04-15,23.134911,120.716711,3.5188982e-08
C0AK30,硬漢嶺,2026-04-15,25.136097,121.426372,1.3158263e-09
C0F9V0,新社,2026-04-15,24.200172,120.815806,9.989875e-09
C0H890,埔里,2026-04-15,23.972169,120.952425,2.4917673e-08
C0R690,墾丁,2026-04-15,21.966756,120.810269,1.7151154e-07
C0SD20,富山,2026-04-15,22.822383,121.190825,9.411684e-06
C0F0D0,審馬陣,2026-04-15,24.381675,121.4203,2.131354e-08
C2W030,金門農試所,2026-04-15,24.448431,118.451786,2.118385e-08
C0R820,白鷺,2026-04-15,22.454275,120.666219,0.00016615694
C0FB00,大雪山,2026-04-15,24.254668,121.007374,1.26076145e-08
C2O880,南化,2026-04-15,23.17332,120.59413,3.8474554e-06
C1V190,南天池,2026-04-15,23.27403,120.91176,6.748473e-09
C0E940,雪見,2026-04-15,24.42595,121.01347,7.926946e-09
K2E360,苗栗農改場,2026-04-15,24.495722,120.829111,2.479468e-07
CAJ050,海口故事園區,2026-04-15,23.57543,120.14121,3.0857461e-06
C2K280,四湖,2026-04-15,23.6304,120.22717,2.47564e-07
C2H9D0,三隻寮,2026-04-15,24.093078,120.861578,2.340195e-09
C0O990,媽廟,2026-04-15,22.99175,120.293525,5.253777e-06
C0Z220,和平林道,2026-04-15,24.343922,121.656317,3.200381e-07
C0TA10,花蓮漁港,2026-04-15,23.995322,121.638331,0.06380983
72C440,桃園農改場,2026-04-15,24.950944,121.030583,1.0709846e-08
C1E711,馬拉邦山,2026-04-15,24.367306,120.901656,1.2436892e-08
C0SB20,富岡,2026-04-15,22.792467,121.192669,6.5456793e-06
C0D560,竹東,2026-04-15,24.767147,121.057881,1.7478309e-09
C0F9U0,南屯,2026-04-15,24.137006,120.637969,2.1549754e-07
C2SD60,明峰,2026-04-15,22.8671,121.11825,3.3486205e-07
C0M720,番路,2026-04-15,23.464657,120.554156,3.516765e-08
C0F0A0,雪山圈谷,2026-04-15,24.388594,121.236339,3.778389e-08
C1A9N0,四十份,2026-04-15,24.934158,121.593283,2.8721272e-09
C0U760,東澳,2026-04-15,24.52196,121.83318,0.00025921286
C0X230,鹽水,2026-04-15,23.272621,120.247641,1.9365494e-07
C2H9H0,苗改南投蜂場,2026-04-15,23.852589,120.693481,0.004084874
C2TB70,達谷寮,2026-04-15,23.38,121.35968,0.048653454
C0R950,萬隆國小,2026-04-15,22.507667,120.587817,0.35666135
467540,大武,2026-04-15,22.35572,120.90374,0.92650837
C0V370,古亭坑,2026-04-15,22.893178,120.401947,6.9632065e-06
C1I340,新興橋,2026-04-15,23.563333,120.868728,7.131755e-08
C2C480,桃園,2026-04-15,24.992425,121.323172,3.4355263e-09
C0SA80,土坂,2026-04-15,22.453108,120.887572,0.95039815
C0R160,鹽埔,2026-04-15,22.739558,120.530778,0.13814662
C0AC40,大屯山,2026-04-15,25.175675,121.522408,2.4909392e-09
466850,五分山雷達站,2026-04-15,25.071182,121.781205,5.828676e-09
C2H9L0,馬烈霸,2026-04-15,24.1512,121.201772,8.6463245e-09
C1AI50,國三N016K,2026-04-15,25.034164,121.619664,6.247153e-09
C2V920,匏子寮,2026-04-15,23.04905,120.55319,4.151505e-06
C1V600,藤枝,2026-04-15,23.071961,120.757042,2.9477396e-09
C1E601,南勢,2026-04-15,24.572486,120.734842,3.0105106e-08
C0O980,新市,2026-04-15,23.061614,120.298197,2.3843063e-06
C0K420,西螺,2026-04-15,23.800407,120.467394,2.0153604e-07
C0Z050,佳心,2026-04-15,23.34567,121.21316,4.477704e-09
C0AD30,蘆洲,2026-04-15,25.086594,121.472331,5.7748295e-09
C0V610,梓官,2026-04-15,22.760558,120.267211,0.00020428456
K2F750,種苗改良場,2026-04-15,24.225972,120.800917,3.268645e-08
C0UA80,大溪漁港,2026-04-15,24.941801,121.902955,5.2949193e-08
C1AI60,國一39K邊坡,2026-04-15,25.064361,121.383836,2.2542468e-09
C0W150,金寧,2026-04-15,24.457703,118.328989,9.431328e-09
C0R960,內埔,2026-04-15,22.608483,120.570714,0.68619895
C2H9S0,龍南,2026-04-15,23.953536,120.833183,2.1430646e-09
C0AH40,平等,2026-04-15,25.129142,121.577086,2.3108144e-09
C0R540,佳冬,2026-04-15,22.419456,120.552375,0.15973307
466950,彭佳嶼,2026-04-15,25.627975,122.079744,3.3326366e-08
C0A890,雙溪,2026-04-15,25.036003,121.864242,7.868803e-08
C0AH50,林口,2026-04-15,25.072181,121.38084,1.95196e-09
A2K360,水試臺西試驗場,2026-04-15,23.717231,120.190522,3.452052e-07
C2M960,外寮,2026-04-15,23.562643,120.665688,6.892188e-09
C0F9S0,烏日,2026-04-15,24.107058,120.624103,4.096368e-08
C2N180,鹿陶洋,2026-04-15,23.14325,120.48352,0.00044031217
C0C490,八德,2026-04-15,24.928708,121.283289,1.2027511e-09
C0R190,赤山,2026-04-15,22.592333,120.614306,0.5668162
C0T820,天祥,2026-04-15,24.179597,121.495639,8.471463e-08
C1F9E1,龍安,2026-04-15,24.1605,120.831961,7.5991275e-09
C2SD50,順那,2026-04-15,23.04166,121.29332,1.5235058e-05
C0V820,小林,2026-04-15,23.148408,120.63325,3.010861e-08
C2G870,芳苑,2026-04-15,23.922303,120.320025,1.0528296e-07
C0E850,大河,2026-04-15,24.618069,120.948578,4.7694377e-09
C1U670,寒溪,2026-04-15,24.634,121.71691,2.5815124e-08
C0N020,城西,2026-04-15,23.0568,120.0956,5.1076704e-06
C1Z110,三棧,2026-04-15,24.11557,121.60501,1.8253193e-08
C0R280,檳榔,2026-04-15,22.076078,120.836777,1.2148768e-06
C2H9J0,中台,2026-04-15,23.9996,120.938739,1.902624e-08
C0F9L0,后里,2026-04-15,24.310436,120.729725,1.03858284e-07
467441,高雄,2026-04-15,22.730432,120.312516,0.00013953558
C2N210,岩坑,2026-04-15,23.24614,120.47458,9.6586315e-05
C0Z180,新城,2026-04-15,24.040486,121.604878,0.00014951201
C0D540,橫山,2026-04-15,24.71116,121.11693,2.4925408e-09
C1D420,太閣南,2026-04-15,24.632808,121.160575,3.0340859e-09
C1E770,公館,2026-04-15,24.526914,120.830806,2.4371115e-08
CAN130,水試所海水繁養殖中心,2026-04-15,23.120802,120.07968,0.0016480985
C1I430,翠華,2026-04-15,24.191961,121.224339,1.3348693e-08
C1M400,菜瓜坪,2026-04-15,23.251928,120.576103,2.0197513e-07
C0G730,二林,2026-04-15,23.903325,120.376081,2.6013362e-07
72M360,南改義竹分場,2026-04-15,23.360694,120.279361,1.16779365e-05
V2K620,麥寮合作社,2026-04-15,23.753836,120.294783,1.5849206e-07
C0Z070,舞鶴,2026-04-15,23.46811,121.37407,3.3816785e-05
C0B040,大武崙,2026-04-15,25.166676,121.706993,7.700636e-09
C1Z030,紅葉,2026-04-15,23.493119,121.338806,0.016069425
C1I050,丹大,2026-04-15,23.753747,121.141147,1.2900049e-08
467290,古坑,2026-04-15,23.380729,120.336861,2.772633e-07
C0I080,信義,2026-04-15,23.689694,120.851036,1.8201844e-08
C2TB80,庄子底,2026-04-15,23.71794,121.49438,0.0004808339
C0D750,樂山林道6k,2026-04-15,24.49999,121.08773,1.07836176e-08
C2M920,朴子農改,2026-04-15,23.469889,120.259383,1.4371606e-06
C2A880,福隆,2026-04-15,25.017842,121.942083,0.00013946828
C0Z160,鳳林,2026-04-15,23.746114,121.453411,4.601869e-06
C0UB80,翠峰林道6K,2026-04-15,24.49773,121.568625,7.336892e-09
C0V210,復興,2026-04-15,23.222403,120.806089,7.138491e-08
C0H990,昆陽,2026-04-15,24.121322,121.273642,1.9341348e-08
C0R741,獅子,2026-04-15,22.202308,120.705236,0.9230816
C0S710,鹿野,2026-04-15,22.917711,121.122994,3.3667988e-08
C0I530,小奇萊,2026-04-15,24.131764,121.295717,2.9234798e-08
C0FA70,大雪山埡口,2026-04-15,24.26867,121.03062,2.1454621e-08
C2K630,荷苞,2026-04-15,23.657717,120.595144,3.7662477e-07
C0Z080,富源,2026-04-15,23.587642,121.378225,3.6088877e-06
C2M9E0,旺來山,2026-04-15,23.555153,120.486463,8.150281e-07
C0SB10,美和,2026-04-15,22.682078,121.060236,9.762023e-05
C2K620,馬光農場,2026-04-15,23.721453,120.378864,0.00011009996
C1I140,卡奈托灣,2026-04-15,23.754364,121.087872,5.6316813e-09
C0I520,玉山風口,2026-04-15,23.470489,120.955994,3.5046178e-08
C1G691,下水埔,2026-04-15,23.816114,120.5676,7.906519e-06
C0X110,臺南市南區,2026-04-15,22.961189,120.188378,6.9167845e-06
C0V680,仁武,2026-04-15,22.701083,120.347722,0.00013953558
C2G840,北斗,2026-04-15,23.877586,120.514222,2.5744154e-07
C2TB90,長橋,2026-04-15,23.6874,121.46186,0.00025519225
C0R900,竹坑,2026-04-15,22.1385,120.7022,0.89888036
C0G860,社頭,2026-04-15,23.897647,120.5862,1.9521215e-07
C0X150,安定,2026-04-15,23.102614,120.227839,4.634111e-06
C0R590,里港,2026-04-15,22.77919,120.49459,0.000118243035
C0E610,馬都安,2026-04-15,24.451272,120.930192,4.043998e-08
C0E550,明德,2026-04-15,24.583486,120.885411,3.251843e-08
C0R150,三地門,2026-04-15,22.709889,120.639944,0.001542313
C0G910,花壇,2026-04-15,24.032076,120.549461,2.7007564e-08
C1D400,鳥嘴山,2026-04-15,24.71909,121.28387,3.8258507e-09
C0K500,元長,2026-04-15,23.64981,120.315024,1.02613065e-07
C0F0B0,石岡,2026-04-15,24.276061,120.777644,7.7859006e-08
C2V250,甲仙,2026-04-15,23.080106,120.591758,9.2465723e-07
C0SA20,金崙山,2026-04-15,22.567419,120.959667,2.8355218e-09
C0V350,溪埔,2026-04-15,22.738578,120.446797,0.0027431846
C0M660,溪口,2026-04-15,23.604131,120.403569,4.5879855e-07
C1S880,壽卡,2026-04-15,22.238911,120.858903,1.6859072e-07
72D680,桃改新埔分場,2026-04-15,24.834444,121.066111,1.0360856e-08
