站號,站名,日期,lat,lon,BLBTSLS
C0R710,龍磐,2026-02-04,21.931672,120.838942,0.9999838
C1F9D1,白毛台,2026-02-04,24.158325,120.886933,2.2767248e-09
C0G940,竹塘,2026-02-04,23.848253,120.386764,7.857053e-10
467590,恆春,2026-02-04,22.003897,120.746339,0.9997189
C1O850,環湖,2026-02-04,23.148617,120.418633,1.4488922e-09
C0U710,太平山,2026-02-04,24.505486,121.525656,3.4603012e-08
C0E820,獅潭,2026-02-04,24.539133,120.920042,6.5201675e-09
C2SD70,二層坪,2026-02-04,22.94105,121.16838,2.8599274e-08
C0V880,興達,2026-02-04,22.8778,120.2127,0.69719756
C0S890,關山,2026-02-04,23.0395,121.175017,2.7977245e-08
C0SB30,新蘭,2026-02-04,22.869214,121.223228,5.777763e-08
C2R970,屏科大,2026-02-04,22.648275,120.619247,0.00041251665
C1Z130,銅門,2026-02-04,23.965694,121.492842,2.13445e-08
C0AD40,土城,2026-02-04,24.973208,121.445169,3.530785e-08
CAN140,六官養殖協會,2026-02-04,23.22881,120.29962,0.0038705915
C0X180,山上,2026-02-04,23.0757,120.363253,0.13293466
C0F9Z0,雪山東峰,2026-02-04,24.388792,121.268675,2.8710605e-08
C1M480,獨立山,2026-02-04,23.537022,120.607797,9.2444247e-10
C0X220,學甲,2026-02-04,23.230367,120.182187,0.0009955632
467650,日月潭,2026-02-04,23.881325,120.90805,2.4999112e-09
A2K570,古坑(花卉中心),2026-02-04,23.633531,120.552392,3.1020349e-09
C0K600,箔子寮,2026-02-04,23.6197,120.14,2.6866977e-07
C0G830,埤頭,2026-02-04,23.866003,120.452806,5.453355e-09
C0S950,七塊厝,2026-02-04,22.954453,121.229922,1.799054e-08
467110,金門,2026-02-04,24.407306,118.289281,1.3060048e-07
C0AH80,深坑,2026-02-04,25.002703,121.628328,4.9617224e-08
C0A970,三貂角,2026-02-04,25.007606,122.002058,9.786123e-08
C2D730,寶山農場,2026-02-04,24.732444,120.976153,6.1934085e-09
C0K430,褒忠,2026-02-04,23.690938,120.303634,7.1027856e-08
467480,嘉義,2026-02-04,23.495925,120.432906,4.879637e-09
C0V400,阿公店,2026-02-04,22.804194,120.355528,0.003573469
C0E960,觀霧分站,2026-02-04,24.505781,121.113921,1.7981003e-08
467550,玉山,2026-02-04,23.48718,120.95943,4.1945825e-08
C0R440,大漢山,2026-02-04,22.405264,120.753181,3.37185e-08
C0SD30,東清國小,2026-02-04,22.057128,121.564922,0.99661916
C1F9B1,桐林,2026-02-04,24.066172,120.735194,3.676656e-08
C2H9U0,鳳鵬,2026-02-04,23.763919,120.788061,6.9880474e-10
C0K390,土庫,2026-02-04,23.679029,120.395574,6.5692003e-09
C1I450,望鄉山,2026-02-04,23.594153,120.944286,2.4723102e-08
C0E910,海埔,2026-02-04,24.648767,120.772435,1.1815148e-08
B2E890,畜試北區分所,2026-02-04,24.527806,120.770972,9.556964e-09
C0R750,四林格山,2026-02-04,22.076989,120.802439,0.9921501
C0F0C0,中坑,2026-02-04,24.248517,120.903319,3.442985e-09
C1I121,大鞍,2026-02-04,23.678381,120.760017,5.5953313e-09
C2G9E0,移民庄,2026-02-04,23.9784,120.40283,2.5557815e-08
72U480,花改蘭陽分場,2026-02-04,24.686306,121.716583,1.9832596e-08
C0A770,科教館,2026-02-04,25.096356,121.516507,4.3317048e-08
C0AJ60,六塊厝,2026-02-04,25.24,121.4481,8.79158e-06
C0R620,墾雷,2026-02-04,21.900836,120.855269,0.999973
467420,永康,2026-02-04,23.038386,120.2367,0.7771103
C2M530,奮起湖,2026-02-04,23.493903,120.699253,4.440139e-09
C0I410,名間,2026-02-04,23.837053,120.701447,1.418864e-09
A2C560,農工中心,2026-02-04,24.985917,121.239833,7.989579e-08
C0V740,旗山,2026-02-04,22.888614,120.483597,4.4570095e-07
C0Z061,玉里,2026-02-04,23.3215,121.339656,2.8665518e-08
C0S840,南田,2026-02-04,22.279725,120.889208,0.9994937
C1I470,杉林溪,2026-02-04,23.639517,120.786444,7.458048e-09
C1X040,東原,2026-02-04,23.291597,120.463822,8.045188e-10
C0R660,枋寮,2026-02-04,22.367722,120.590647,0.119572364
C1R120,上德文,2026-02-04,22.763272,120.704442,3.0816953e-09
C0K450,大埤,2026-02-04,23.646074,120.431537,1.3718444e-08
C0UA00,土場,2026-02-04,24.576533,121.495333,3.2982108e-08
467080,宜蘭,2026-02-04,24.763975,121.756528,2.0324029e-08
C0N030,四草,2026-02-04,23.0235,120.1116,0.14918727
467410,臺南,2026-02-04,22.99328,120.20492,0.40307584
C0V650,彌陀,2026-02-04,22.783806,120.246361,0.12897187
C0D660,新竹市東區,2026-02-04,24.798681,120.986942,9.144539e-09
82S580,茶改東部分場,2026-02-04,22.907694,121.130139,3.0234006e-08
C0SB40,興隆,2026-02-04,22.913661,121.257469,6.296201e-08
467050,新屋,2026-02-04,25.006725,121.047492,2.2240137e-07
C0C710,大溪永福,2026-02-04,24.892936,121.324975,4.5094954e-08
C0FA20,溫寮,2026-02-04,24.372177,120.583125,7.0662264e-07
C0V640,湖內,2026-02-04,22.887139,120.2445,0.6742679
C0R910,下寮,2026-02-04,22.3929,120.5548,0.29549602
C0Z020,明里,2026-02-04,23.208717,121.262342,3.0767286e-08
C0M770,嘉義梅山,2026-02-04,23.585398,120.555587,7.7592377e-10
C0C660,楊梅,2026-02-04,24.912375,121.143047,5.3826845e-08
C0SD40,牛頭山,2026-02-04,22.676661,121.506944,0.9990696
C1E511,新開,2026-02-04,24.347703,120.827019,3.73513e-09
G2F820,農試所(霧峰),2026-02-04,24.031261,120.688133,1.15917445e-07
C2M990,大巃頂,2026-02-04,23.5547,120.61439,1.9004616e-09
C1I070,和社,2026-02-04,23.591131,120.888861,1.5329936e-09
C2E990,新坪頂,2026-02-04,24.30201,120.8574,2.564883e-09
C0TA80,立霧山,2026-02-04,24.183258,121.641899,5.4249842e-08
C2F000,大肚,2026-02-04,24.15295,120.572117,5.1465663e-09
C1S850,豐南,2026-02-04,23.122139,121.262389,2.0306398e-08
C2M9B0,西興,2026-02-04,23.2428,120.57617,8.1036794e-10
C2A920,富貴角,2026-02-04,25.263783,121.565258,2.3189257e-06
CAH030,茶改場竹圍站,2026-02-04,23.860083,120.637528,8.938735e-10
C0T960,光復,2026-02-04,23.660694,121.424964,3.1756297e-08
C0F9M0,豐原,2026-02-04,24.254322,120.720692,3.3729994e-09
C0R720,旭海,2026-02-04,22.205403,120.887614,0.99868655
C0V710,苓雅,2026-02-04,22.622742,120.330669,0.037324015
C0C740,觀音工業區,2026-02-04,25.064764,121.114856,3.134203e-07
CAC040,拉拉山,2026-02-04,24.699317,121.427133,3.25224e-08
C0V790,萬山,2026-02-04,22.905944,120.688056,1.4137881e-09
U2HA30,臺大和社,2026-02-04,23.590856,120.888864,1.5329936e-09
C2H9K0,屯原,2026-02-04,24.067969,121.209389,1.2519861e-08
C0AJ90,澳底,2026-02-04,25.0552,121.9253,1.152055e-07
C0Z100,東華,2026-02-04,23.89525,121.549833,2.628204e-08
C0G970,三豐,2026-02-04,23.882,120.2895,5.75985e-07
V2K610,大庄合作社,2026-02-04,23.8068,120.367939,7.8453795e-08
C0V900,汕尾,2026-02-04,22.4782,120.4151,0.050462417
C1R630,龍泉,2026-02-04,22.66701,120.59091,0.0016760796
C1AC50,關渡,2026-02-04,25.133486,121.469331,9.707048e-07
C0C800,四稜,2026-02-04,24.64733,121.4293,2.3207448e-08
C0F9I0,神岡,2026-02-04,24.272481,120.658314,7.1912933e-09
C0K460,斗南,2026-02-04,23.678734,120.478359,1.1020389e-08
C2O810,曾文,2026-02-04,23.219681,120.497328,9.55572e-10
467280,後龍,2026-02-04,24.648563,120.831834,1.0389035e-08
C1F9J1,清水林,2026-02-04,24.071242,120.820419,1.5179684e-09
C2A650,火燒寮,2026-02-04,25.002719,121.742892,5.3318495e-08
466930,竹子湖,2026-02-04,25.162078,121.544547,1.0966609e-07
C1I220,樟湖,2026-02-04,23.905333,120.846983,3.0613723e-09
C0I390,仁愛,2026-02-04,24.022122,121.132206,3.2815741e-09
C0Z300,東里,2026-02-04,23.26853,121.30547,2.7711437e-08
C1V590,新發,2026-02-04,23.057019,120.646064,2.19164e-09
C0K510,水林,2026-02-04,23.572924,120.24597,2.706564e-07
72S590,東改賓朗果園,2026-02-04,22.813889,121.071278,5.4781072e-08
82A750,茶改北部分場,2026-02-04,24.955778,121.631222,5.701058e-08
C1A750,石碇服務區,2026-02-04,25.00872,121.646242,6.044347e-08
C0X300,鹿寮,2026-02-04,23.386047,120.477331,1.394641e-09
G2AI50,關渡,2026-02-04,25.11575,121.492,4.5071307e-08
C0K590,雲林東勢,2026-02-04,23.674192,120.255721,8.5818236e-08
C2K310,港尾布雞,2026-02-04,23.74834,120.38439,3.9936507e-09
C0A570,桶後,2026-02-04,24.848222,121.597992,3.6304687e-08
C1S800,華源,2026-02-04,22.657883,121.02325,2.2289207e-07
C0G720,溪州,2026-02-04,23.851589,120.499093,4.8659934e-09
C1V160,達卡努瓦,2026-02-04,23.279811,120.705319,2.9808942e-09
C2M410,馬頭山,2026-02-04,23.324361,120.582017,6.7071243e-10
C0V850,蚵仔寮,2026-02-04,22.7256,120.2527,0.13760717
C0S740,池上,2026-02-04,23.119628,121.209469,2.9738766e-08
C1V390,尖山,2026-02-04,22.813153,120.367789,0.0014298136
C0AH70,松山,2026-02-04,25.04871,121.55042,4.2675424e-08
C0N010,鯤鯓國小,2026-02-04,23.1879,120.0889,0.0009322575
C0R550,新埤,2026-02-04,22.467947,120.582894,0.09601384
C0SA60,知本（水試所）,2026-02-04,22.702394,121.082761,2.1324292e-06
C0T9I0,豐濱,2026-02-04,23.583897,121.514806,1.7869647e-08
C0UB00,淡江大學蘭陽校園,2026-02-04,24.823239,121.730383,3.6981703e-08
C0W240,九宮,2026-02-04,24.423753,118.240186,3.154663e-08
C0T9N0,富里,2026-02-04,23.171639,121.249378,2.9270284e-08
U2HA50,臺大竹山,2026-02-04,23.756972,120.681556,1.5319063e-09
C0V840,鳳鼻頭,2026-02-04,22.5083,120.3591,0.04925359
C0X140,西港,2026-02-04,23.125608,120.203108,0.0045789317
72D080,桃改五峰分場,2026-02-04,24.612194,121.157167,6.8401182e-09
C2H9P0,伊拿谷,2026-02-04,23.963211,121.088264,1.9911197e-09
C2K250,崙背,2026-02-04,23.75553,120.31893,7.1027856e-08
C2H9F0,柑林,2026-02-04,24.018658,120.847072,2.7281173e-09
C0TA20,加灣,2026-02-04,24.082025,121.608944,7.473815e-08
C0V530,阿蓮,2026-02-04,22.883208,120.327508,0.36021227
C0FB30,八仙山苗圃,2026-02-04,24.192719,121.001366,3.3066179e-09
C1O880,關山,2026-02-04,23.173397,120.594092,6.4938405e-10
C0E791,卓蘭,2026-02-04,24.3126,120.8244,3.836944e-09
C1I030,武界,2026-02-04,23.913225,121.052483,1.9668491e-09
C0R520,崁頂,2026-02-04,22.514781,120.506914,0.19119251
C0R341,牡丹,2026-02-04,22.130036,120.792639,0.24824709
C0R930,萬丹,2026-02-04,22.5885,120.4851,0.049170554
C0S760,紅石,2026-02-04,23.069131,121.126219,3.3081147e-08
C2C410,中央大學,2026-02-04,24.967652,121.185165,7.560184e-08
C1M610,石磐龍,2026-02-04,23.496606,120.663506,3.1498935e-09
C0C790,東眼山,2026-02-04,24.8284,121.40888,2.0579218e-08
C0UA10,鴛鴦湖,2026-02-04,24.590269,121.412228,2.9079027e-08
V2C260,八德蔬果,2026-02-04,24.978508,121.281819,6.9807804e-08
C0R800,丹路,2026-02-04,22.204481,120.750989,0.9093928
C0G920,永靖,2026-02-04,23.924703,120.547533,1.1931601e-07
C2M950,太和,2026-02-04,23.538372,120.702961,4.384971e-09
C1A630,下盆,2026-02-04,24.771003,121.538622,2.8861319e-08
B2N890,畜產試驗所,2026-02-04,23.058972,120.336406,0.4965427
C0UA30,白嶺,2026-02-04,24.527819,121.519031,2.570134e-08
467571,新竹,2026-02-04,24.828575,121.01455,1.6479506e-08
C1V580,溪南(特生中心),2026-02-04,23.084972,120.788475,8.488458e-09
C1T970,大農,2026-02-04,23.615233,121.413331,2.9708946e-08
C0R650,竹田,2026-02-04,22.58486,120.54344,0.19697809
C1H900,清流,2026-02-04,24.080775,120.962997,2.1265372e-09
C1C510,水尾,2026-02-04,24.940081,121.087161,1.0835144e-07
C2N170,茅港尾,2026-02-04,23.2061,120.2624,0.0038705915
C0F9X0,大雅(中科園區),2026-02-04,24.21528,120.62445,1.3774711e-08
C0SB60,白守蓮,2026-02-04,23.126769,121.401914,3.4037848e-06
C0O970,虎頭埤,2026-02-04,23.021375,120.347878,0.22658677
C0C730,中大臨海站,2026-02-04,24.966126,121.008581,3.353788e-08
C0X250,新營,2026-02-04,23.310689,120.316681,0.0013703391
C0V700,三民,2026-02-04,22.645017,120.311233,0.20457223
C0U870,大礁溪,2026-02-04,24.791042,121.675047,3.362871e-08
C0E870,高鐵苗栗,2026-02-04,24.60725,120.826094,1.0978157e-08
C0TA30,鹽寮,2026-02-04,23.845606,121.592664,2.735622e-08
C0M860,新美,2026-02-04,23.338017,120.683169,1.7190537e-09
C1E701,八卦,2026-02-04,24.491756,120.927619,5.1716684e-09
C2TA90,加納納,2026-02-04,23.466421,121.359867,1.4659105e-08
C0I420,國姓,2026-02-04,24.037803,120.855072,2.415439e-09
C2D720,關西工作站,2026-02-04,24.757275,121.184792,3.8601033e-09
C0S960,香蘭,2026-02-04,22.587569,120.993375,0.00020928918
467620,蘭嶼,2026-02-04,22.0369,121.55843,0.9999726
C0R260,春日,2026-02-04,22.370361,120.628306,0.0664948
72G600,臺中農改場,2026-02-04,24.003028,120.534389,1.1520023e-07
C0Z210,瑞穗,2026-02-04,23.5239,121.39021,1.7849821e-08
C0M820,達邦,2026-02-04,23.453994,120.749517,2.1764102e-09
C0V860,南寮,2026-02-04,22.7616,120.2339,0.16838954
C0G740,大城,2026-02-04,23.852487,120.320935,5.7961796e-07
C0R920,塭仔,2026-02-04,22.4169,120.5197,0.3315582
C0R470,高樹,2026-02-04,22.826389,120.600806,0.00061425735
C0R680,佳樂水,2026-02-04,21.993578,120.861633,0.9999715
C1O870,大棟山,2026-02-04,23.31157,120.52226,2.7064533e-09
C0D360,梅花,2026-02-04,24.678347,121.208558,4.315671e-09
C0Z190,富世,2026-02-04,24.14743,121.6297,3.2514154e-07
C0AI10,屈尺,2026-02-04,24.92184,121.54475,3.2841367e-08
B2U990,畜試東區分所,2026-02-04,24.669039,121.832561,2.2511543e-08
C0SB80,長濱漁港,2026-02-04,23.313644,121.459994,6.4568746e-07
C0TA50,和仁,2026-02-04,24.241394,121.712472,4.083886e-08
C0V910,大樹,2026-02-04,22.684645,120.432803,0.0009756572
C1R610,西大武山,2026-02-04,22.617719,120.7322,2.2320854e-08
C0G900,線西,2026-02-04,24.143358,120.443536,2.6107753e-07
C0M700,竹崎,2026-02-04,23.526178,120.555508,8.8389945e-10
C2E880,三義,2026-02-04,24.405478,120.749819,6.6700037e-09
C0C720,竹圍,2026-02-04,25.112692,121.239824,1.5340788e-07
C0F9P0,清水,2026-02-04,24.312297,120.562242,4.5028472e-07
C0Z150,吉安光華,2026-02-04,23.930925,121.595153,2.5888495e-08
C0FA80,小雪山天池,2026-02-04,24.28025,121.02627,2.6187966e-08
467300,東吉島,2026-02-04,23.25727,119.66762,0.9966363
C1D640,外坪(五指山),2026-02-04,24.644447,121.090961,7.552758e-09
C2R9A0,高士國小,2026-02-04,22.12553,120.84653,0.3437372
C0F9O0,潭子,2026-02-04,24.213106,120.703933,4.1975095e-09
C2H9R0,卓社,2026-02-04,23.887894,121.000086,3.694911e-09
72T250,花蓮農改場,2026-02-04,23.975222,121.563889,2.480122e-08
C0E780,銅鑼,2026-02-04,24.489681,120.790853,7.797519e-09
C1T950,太安,2026-02-04,23.666719,121.370128,2.145634e-08
C0E830,苑裡,2026-02-04,24.439714,120.653053,3.2499393e-08
467270,田中,2026-02-04,23.873803,120.581286,8.963769e-09
C0SA10,檳榔四格山,2026-02-04,22.810031,121.109308,3.7098417e-08
C1T830,布洛灣,2026-02-04,24.17184,121.57127,1.7870865e-07
C0F970,大坑,2026-02-04,24.173142,120.722289,4.653927e-09
C1U920,思源,2026-02-04,24.393125,121.347214,2.0044764e-08
C2H9Y0,松茗,2026-02-04,23.8167,120.650765,6.7583367e-10
C0A931,三和,2026-02-04,25.233153,121.595236,4.3231086e-07
C0I010,廬山,2026-02-04,24.033311,121.181808,8.75215e-09
C2M940,日野賀,2026-02-04,23.434056,120.727169,3.1858138e-09
C0R860,鼻頭,2026-02-04,22.1043,120.8979,0.9999398
C0UB20,壯圍,2026-02-04,24.7359,121.8163,2.0515024e-08
C0R790,九棚,2026-02-04,22.14195,120.889281,0.9989901
C0W110,東莒,2026-02-04,25.9652,119.98069,0.00013123374
C1U930,粉鳥林,2026-02-04,24.497088,121.842479,5.275937e-08
C1I211,蘆竹湳,2026-02-04,23.934019,120.811994,1.480301e-09
C0S830,長濱,2026-02-04,23.286817,121.411975,2.4183073e-08
C1F9F1,伯公龍,2026-02-04,24.272392,120.849047,2.3091842e-09
C0UB90,太平山莊,2026-02-04,24.494171,121.536209,3.4819507e-08
C0E810,西湖,2026-02-04,24.562947,120.7485,3.8792585e-08
C1I440,新高口,2026-02-04,23.478744,120.878939,1.8754218e-08
C0O840,王爺宮,2026-02-04,23.222064,120.40085,1.4561174e-09
C0T9G0,鳳林山,2026-02-04,23.735269,121.420131,4.478945e-08
C0X080,佳里,2026-02-04,23.173039,120.145086,0.00069311715
C0FB70,大甲溪埔,2026-02-04,24.370625,120.620067,5.5468956e-07
C0Z310,清水斷崖,2026-02-04,24.218294,121.689142,3.412579e-08
C0M680,太保,2026-02-04,23.455062,120.331455,7.980994e-07
C1S820,金峰,2026-02-04,22.590969,120.933236,3.093398e-06
C0AD10,八里,2026-02-04,25.150211,121.403947,3.9400397e-06
C2K240,草嶺,2026-02-04,23.59555,120.693461,3.2877012e-09
C1SA70,都蘭,2026-02-04,22.87794,121.226881,5.486598e-08
C0K440,二崙,2026-02-04,23.772797,120.408944,4.0808237e-09
C1A760,坪林交控,2026-02-04,24.94284,121.713442,6.768237e-08
C0F9N0,大里,2026-02-04,24.092464,120.701378,1.7711427e-07
C0SA90,達仁林場,2026-02-04,22.264347,120.823972,1.0010669e-07
C1R290,石門山,2026-02-04,22.112611,120.756597,0.9997032
42HA10,萬大發電廠,2026-02-04,23.978875,121.139639,2.6961333e-09
C0R890,山海,2026-02-04,21.9878,120.7091,0.9996407
C0T9A0,月眉山,2026-02-04,23.809928,121.539828,1.999375e-08
C0AC70,信義,2026-02-04,25.037822,121.564597,4.3413657e-08
C0K560,棋山,2026-02-04,23.68645,120.603417,4.149628e-09
C2FB50,出雲,2026-02-04,24.206469,120.902794,3.9761767e-09
C1Z240,中平林道,2026-02-04,23.42115,121.26763,4.590419e-08
U2H480,溪頭,2026-02-04,23.670306,120.798194,2.814685e-09
C0M880,好美里,2026-02-04,23.3364,120.138,0.001452185
C0T9E0,大坑,2026-02-04,23.880628,121.581981,2.8996615e-08
C0K530,臺西,2026-02-04,23.701547,120.197559,2.143053e-06
C1E900,國一N128K,2026-02-04,24.560997,120.844186,9.233346e-09
C0AJ50,水湳洞,2026-02-04,25.123695,121.862238,1.1529233e-07
C0AI20,白沙灣,2026-02-04,25.283128,121.519058,1.9932137e-05
C2V310,美濃,2026-02-04,22.898792,120.51907,9.613759e-07
C0A860,大坪,2026-02-04,25.165914,121.632969,3.6418776e-08
C1U850,觀音海岸,2026-02-04,24.38319,121.77856,1.9781028e-08
C2K610,草嶺石壁,2026-02-04,23.602469,120.707731,3.3989613e-09
C0U950,鶯子嶺,2026-02-04,24.89754,121.79244,5.5312437e-08
C0O900,善化,2026-02-04,23.112883,120.297219,0.61117387
C0K550,蔦松,2026-02-04,23.514319,120.229736,6.465378e-07
E2P980,林試六龜中心,2026-02-04,22.991703,120.645722,4.8630984e-09
C0E590,通霄,2026-02-04,24.471892,120.704622,4.50873e-08
C1I310,西巒,2026-02-04,23.754486,120.883956,3.968903e-09
C0A550,泰平,2026-02-04,24.971197,121.823711,6.737081e-08
C0I360,水里,2026-02-04,23.812553,120.849792,8.503459e-10
C0R830,高士,2026-02-04,22.121825,120.836781,0.99927455
C1I101,溪頭,2026-02-04,23.661789,120.807647,8.606112e-09
C0AJ20,野柳,2026-02-04,25.20703,121.690021,2.3421555e-06
C0B060,暖暖,2026-02-04,25.0957,121.7403,6.978876e-08
C1H920,長豐,2026-02-04,24.102039,120.879897,1.6037102e-09
C2S9B0,利吉,2026-02-04,22.86246,121.15486,3.425099e-08
C0V360,內門,2026-02-04,22.975481,120.466769,6.7424416e-08
C0R850,林邊,2026-02-04,22.4634,120.5339,0.4330079
C0E930,龍鳳,2026-02-04,24.700034,120.859125,1.3375861e-08
C0U910,冬山,2026-02-04,24.63373,121.7937,2.2511543e-08
C1E721,泰安,2026-02-04,24.489017,120.968036,1.0244817e-08
82H320,茶改中部分場,2026-02-04,23.875611,120.913583,2.0187136e-09
C0M750,布袋,2026-02-04,23.380878,120.167789,1.0302545e-06
C1S860,利嘉,2026-02-04,22.809417,121.050528,5.483376e-08
E2S980,林試太麻里1,2026-02-04,22.598922,120.980044,2.4115465e-05
C0X170,關廟,2026-02-04,22.963017,120.327797,0.36678243
C0V720,林園,2026-02-04,22.507747,120.394511,0.046855636
C1I510,線浸林道,2026-02-04,23.761508,120.832956,3.0294887e-09
C0D690,外湖,2026-02-04,24.917735,120.968711,4.5135226e-07
C0C750,新興坑尾,2026-02-04,25.0061,121.0971,1.6331165e-07
B2Q810,畜試南區分所,2026-02-04,21.945583,120.802167,0.9999715
C0S790,金崙,2026-02-04,22.538122,120.966875,3.8683384e-06
C0AH90,福山植物園,2026-02-04,24.760717,121.58135,2.8982074e-08
C0I540,奇萊稜線,2026-02-04,24.109231,121.326456,3.444248e-08
C0M850,表湖,2026-02-04,23.24186,120.64166,1.6521323e-09
C0S770,大溪山,2026-02-04,22.478475,120.943325,4.564271e-07
C0AG80,中和,2026-02-04,24.991622,121.491792,3.530785e-08
C0T790,大禹嶺,2026-02-04,24.186117,121.316086,2.265243e-08
C0T9B0,水源,2026-02-04,23.991861,121.537169,3.0415794e-08
C0R840,牡丹池山,2026-02-04,22.168389,120.841225,9.02204e-08
C1I131,桶頭,2026-02-04,23.641944,120.654117,7.167558e-10
CAL110,布袋國中,2026-02-04,23.35893,120.18026,0.0020554967
C2M9D0,何竹子腳,2026-02-04,23.53641,120.38203,5.5295217e-09
C0Z290,赤柯山,2026-02-04,23.36893,121.38293,2.4665875e-08
C0X280,將軍,2026-02-04,23.214999,120.13577,0.0010598601
C0S690,太麻里,2026-02-04,22.60902,120.98533,1.3359244e-07
C0U880,北關,2026-02-04,24.9072,121.8734,1.3208452e-07
CAW010,東引,2026-02-04,26.3588,120.4836,0.00020769626
C0G810,埔心,2026-02-04,23.947633,120.525456,1.3958359e-07
C0U970,大福,2026-02-04,24.80064,121.81389,2.044791e-08
C2H9N0,仁愛東眼,2026-02-04,24.026875,121.1205,4.828227e-09
C1E670,南礦,2026-02-04,24.538278,121.002836,9.676223e-09
C0M520,東後寮,2026-02-04,23.369908,120.248065,0.0012441463
C1E461,松安,2026-02-04,24.397972,120.986022,8.118459e-09
C2N160,西拉雅風管處,2026-02-04,23.189481,120.335297,0.0024863358
C2M970,碧湖,2026-02-04,23.568632,120.624165,1.8748414e-09
C0A640,石碇,2026-02-04,24.993969,121.662917,6.768237e-08
E2S960,林試太麻里2,2026-02-04,22.598,120.99775,0.0002917509
C0F9Y0,桃山,2026-02-04,24.432739,121.303808,3.331016e-08
C1I020,萬大,2026-02-04,23.979817,121.132261,3.3003171e-09
C2UC20,長嶺,2026-02-04,24.70894,121.61162,2.3120762e-08
C0U940,羅東,2026-02-04,24.68184,121.74934,1.9938037e-08
C0M650,朴子,2026-02-04,23.43463,120.23902,6.917417e-07
C1I500,大尖山,2026-02-04,23.858572,120.994889,1.0665753e-08
C0FB40,中橫21.6k,2026-02-04,24.2499,121.1455,6.790229e-09
C0G820,田尾,2026-02-04,23.901669,120.509389,1.1931601e-07
E2K600,四湖植物園,2026-02-04,23.676986,120.163433,2.650319e-06
C0S730,綠島,2026-02-04,22.6672,121.47533,0.99028635
12Q970,東港工作站,2026-02-04,22.479997,120.466058,0.4330079
C1TA00,太魯閣,2026-02-04,24.15773,121.6236,1.9555705e-07
466920,臺北,2026-02-04,25.037658,121.514853,4.2675424e-08
C0R600,舊泰武,2026-02-04,22.588194,120.664944,7.2927206e-09
C1I260,北坑,2026-02-04,23.9246,121.006903,1.2876469e-09
466910,鞍部,2026-02-04,25.182586,121.529731,1.05124634e-07
C1I230,九份二山,2026-02-04,23.961944,120.845,1.866382e-09
C2M810,里佳,2026-02-04,23.389125,120.716647,4.3521418e-09
C2A660,瑞芳,2026-02-04,25.113169,121.801147,7.209356e-08
C0R270,琉球嶼,2026-02-04,22.332244,120.362236,0.0029218437
C2V580,瑞山,2026-02-04,22.90304,120.43424,7.353567e-08
C1T990,高寮,2026-02-04,23.394239,121.356808,2.8684825e-08
C0G620,芬園,2026-02-04,24.015678,120.6213,1.3713578e-08
C1Z140,荖溪,2026-02-04,23.890575,121.45964,5.052939e-08
C1I201,中心崙,2026-02-04,23.728722,120.712097,7.8999846e-10
C1I400,凌霄,2026-02-04,24.018778,121.004456,4.808862e-09
C1M640,十字,2026-02-04,23.492153,120.753683,6.448361e-09
G2P820,農試鳳山分所,2026-02-04,22.646611,120.356083,0.027813893
C0Z270,蕃薯寮,2026-02-04,23.73835,121.540108,2.2869624e-08
C2E420,竹南,2026-02-04,24.70898,120.88897,1.2126637e-08
C0FB10,出雲山苗圃,2026-02-04,24.23105,120.90475,3.457423e-09
C0F9Q0,外埔,2026-02-04,24.347817,120.705686,1.13108385e-08
C0K580,高鐵雲林,2026-02-04,23.737456,120.417944,3.9936507e-09
C2I090,鳳凰,2026-02-04,23.728081,120.787347,1.5163827e-09
C0U990,員山,2026-02-04,24.74435,121.72247,2.0110823e-08
C0V770,大社,2026-02-04,22.730306,120.346639,0.02204996
C0X120,麻豆,2026-02-04,23.183289,120.248611,0.0038223788
C0C670,龍潭,2026-02-04,24.870056,121.221389,5.7769887e-09
C0D680,香山濕地,2026-02-04,24.783581,120.914988,4.5135226e-07
C0S980,勝林山,2026-02-04,22.430439,120.8938,7.4705945e-08
C0V730,大寮,2026-02-04,22.605614,120.395717,0.059526168
C0R570,麟洛,2026-02-04,22.65078,120.52719,0.0015202956
C2M930,石卓,2026-02-04,23.478744,120.702264,6.319611e-09
C0G9B0,和美,2026-02-04,24.105169,120.492131,1.246126e-07
CAG100,王功漁港,2026-02-04,23.96824,120.32586,4.0790792e-07
C0X290,北門,2026-02-04,23.267772,120.125481,0.0015621664
C2F930,大甲,2026-02-04,24.347667,120.640403,2.6413002e-08
C0D650,湖口,2026-02-04,24.904794,121.043628,2.4598314e-08
C0U780,五結,2026-02-04,24.68637,121.79794,2.2511543e-08
C1I250,鯉潭,2026-02-04,23.961922,120.991131,1.4730485e-09
C0R130,阿禮,2026-02-04,22.742908,120.743678,3.635865e-09
C0X100,臺南市北區,2026-02-04,23.010394,120.194228,0.4673445
C0S920,金峰嘉蘭,2026-02-04,22.594789,120.960825,2.2168355e-05
C0V490,新興,2026-02-04,22.627422,120.298803,0.34775615
C0F9K0,大安,2026-02-04,24.345061,120.588025,5.5468956e-07
467290,古坑,2026-02-04,23.633639,120.551889,3.1020349e-09
C2E970,八甲,2026-02-04,24.535811,120.795983,6.946827e-09
C0V440,鳳山,2026-02-04,22.646653,120.356122,0.027813893
C1T940,大觀,2026-02-04,23.714206,121.373133,2.4640858e-08
C0E740,造橋,2026-02-04,24.637056,120.864778,1.1039765e-08
C0R100,尾寮山,2026-02-04,22.833111,120.683889,3.8159396e-09
A2K630,臺大雲林校區,2026-02-04,23.730628,120.423903,3.9605546e-09
467990,馬祖,2026-02-04,26.169467,119.923158,8.6751675e-07
C0D580,寶山,2026-02-04,24.735006,121.025192,5.3442477e-09
E2P990,林試扇平站,2026-02-04,22.9677,120.6857,1.8364231e-09
C0AI30,三重,2026-02-04,25.057328,121.500629,4.3317048e-08
C0AH00,汐止,2026-02-04,25.066881,121.658778,6.981872e-08
C1Z040,立山,2026-02-04,23.443356,121.327375,3.4632727e-08
466881,新北,2026-02-04,24.959207,121.525196,3.4306826e-08
C0W130,花嶼,2026-02-04,23.40007,119.32276,0.99878615
C0A950,鼻頭角,2026-02-04,25.129036,121.923372,1.152055e-07
C0K470,林內,2026-02-04,23.748675,120.609642,4.957265e-09
C2F990,摩天嶺,2026-02-04,24.322458,120.936819,3.6009502e-09
C2E430,南庄,2026-02-04,24.601775,121.000214,5.2423204e-09
82C160,茶改場,2026-02-04,24.908472,121.185333,4.6909133e-08
C2TB60,南安,2026-02-04,23.29818,121.26157,2.6156517e-08
C0Z320,清水林道,2026-02-04,23.27125,121.188272,2.732785e-08
C0R760,南仁湖,2026-02-04,22.084681,120.863353,0.9997032
C0M670,大林,2026-02-04,23.600616,120.45841,2.9262957e-09
C0M800,茶山,2026-02-04,23.299075,120.664767,8.715895e-10
C0A9C0,天母,2026-02-04,25.117494,121.537169,4.2967084e-08
72K220,南改斗南分場,2026-02-04,23.634556,120.477333,1.1020389e-08
72AI40,桃改樹林分場,2026-02-04,24.944503,121.386972,2.7114563e-08
C0S910,蘭嶼燈塔,2026-02-04,22.081197,121.503117,0.99986094
C0B050,八斗子,2026-02-04,25.144754,121.79167,9.362595e-08
C0U900,內城,2026-02-04,24.71813,121.68766,1.9413568e-08
C0X320,柳營,2026-02-04,23.253328,120.375253,3.1483438e-09
C0M790,新港,2026-02-04,23.553269,120.345728,3.5736423e-07
C0F9T0,西屯,2026-02-04,24.179494,120.641275,8.6613445e-09
C0E950,松安,2026-02-04,24.39792,120.98599,8.118474e-09
C0SA30,都歷,2026-02-04,23.020333,121.323642,5.7358626e-08
C0C620,蘆竹,2026-02-04,25.084275,121.265767,1.23568e-07
C0R730,大坪頂,2026-02-04,22.024633,120.69355,0.99995095
C0AJ40,石門,2026-02-04,25.273672,121.601198,3.3196836e-06
C0E750,苗栗,2026-02-04,24.564569,120.824575,9.68978e-09
C0T870,鯉魚潭,2026-02-04,23.935639,121.508944,2.1937948e-08
C1V170,排雲,2026-02-04,23.463619,120.954147,3.7463767e-08
C2H950,中寮,2026-02-04,23.884447,120.766406,5.933171e-09
C0R350,貓鼻頭,2026-02-04,21.921774,120.7358,0.9997302
C0V660,岡山,2026-02-04,22.797078,120.294958,0.10581465
C1H941,雙冬,2026-02-04,23.967378,120.802189,1.6142825e-09
C0AJ70,田寮,2026-02-04,25.2698,121.4886,2.0390058e-05
C0AI00,五股,2026-02-04,25.07445,121.42728,2.9385069e-08
C0Z280,德武,2026-02-04,23.47426,121.41071,1.4910587e-08
C2RA10,大新,2026-02-04,22.67558,120.57788,0.0022037064
C0R700,枋山,2026-02-04,22.246844,120.661086,0.9623074
C0C460,復興,2026-02-04,24.820208,121.352281,6.709354e-09
C2K300,鹿南,2026-02-04,23.63855,120.3636,4.7722335e-08
E2H360,蓮華池,2026-02-04,23.918333,120.885278,1.4620536e-09
C0M640,中埔,2026-02-04,23.42538,120.5229,1.0267172e-09
C0W140,金沙,2026-02-04,24.488292,118.408778,6.0647984e-08
C2A540,四堵,2026-02-04,24.8926,121.745736,7.075283e-08
C0ACA0,新莊,2026-02-04,25.051478,121.446756,3.7935973e-08
C0R220,潮州,2026-02-04,22.534361,120.54,0.18311122
U2HA40,臺大內茅埔,2026-02-04,23.689722,120.851117,9.221496e-10
467490,臺中,2026-02-04,24.145736,120.684075,6.808034e-09
C0UB60,明池,2026-02-04,24.650688,121.475277,2.58332e-08
C0U960,翠峰湖,2026-02-04,24.510856,121.608044,3.3964877e-08
E2HA20,林試畢祿溪站,2026-02-04,24.226944,121.308522,1.4166311e-08
C2M9A0,大華,2026-02-04,23.4824,120.67491,2.4853772e-09
C0V890,前鎮,2026-02-04,22.5718,120.3117,0.06665199
C1F941,雪嶺,2026-02-04,24.280586,121.026642,2.6187966e-08
C2H9E0,國姓南港,2026-02-04,23.911108,120.846556,3.2143055e-09
C0AC80,文山,2026-02-04,25.00235,121.575728,4.6210246e-08
C0F9R0,龍井,2026-02-04,24.184536,120.528972,3.388733e-07
C0M760,民雄,2026-02-04,23.551754,120.428457,2.9262957e-09
C0UA40,西德山,2026-02-04,24.560647,121.752608,4.0455948e-08
C2TA70,赤科坪,2026-02-04,23.39885,121.39168,2.8396638e-08
C1T920,中興,2026-02-04,23.769503,121.498653,2.5706242e-08
C0D550,雪霸,2026-02-04,24.526972,121.11605,1.513875e-08
C2F860,梨山,2026-02-04,24.247522,121.243669,1.8088222e-08
C0R320,車城,2026-02-04,22.0744,120.716247,0.9981429
C1S870,南美山,2026-02-04,23.15025,121.382333,7.5950595e-08
C0B020,基隆嶼,2026-02-04,25.19141,121.78391,8.91222e-08
C1U501,牛鬥,2026-02-04,24.637836,121.573656,2.1677897e-08
C0M730,嘉義市東區,2026-02-04,23.457673,120.460531,2.0909066e-09
C2R990,泰武,2026-02-04,22.60686,120.69765,1.4646584e-08
C0S700,知本,2026-02-04,22.684866,121.005642,4.6093348e-08
C1N001,沙崙,2026-02-04,22.935472,120.309406,0.39860255
C0V760,橋頭,2026-02-04,22.757806,120.30575,0.027205674
C0G960,福寶,2026-02-04,24.0443,120.3814,8.979584e-08
C0X210,白河,2026-02-04,23.347466,120.414427,2.0302438e-09
C0S810,東河,2026-02-04,22.972672,121.303986,6.621825e-08
C2R170,屏東,2026-02-04,22.66027,120.49403,0.0015807587
C0R670,楓港,2026-02-04,22.190131,120.692156,0.9719309
C0FA50,霧峰,2026-02-04,24.0419,120.6995,8.4473086e-08
C0UB10,蘇澳,2026-02-04,24.5969,121.8571,3.174043e-08
C0G950,防潮門,2026-02-04,24.1835,120.4871,2.5935555e-07
C0M740,六腳,2026-02-04,23.492871,120.290625,7.663823e-07
C1R250,力里,2026-02-04,22.428117,120.629228,3.073802e-07
C0K330,虎尾,2026-02-04,23.719183,120.442036,3.9605546e-09
C2FA00,烏石坑,2026-02-04,24.273503,120.947617,3.5338483e-09
C0V620,永安,2026-02-04,22.82315,120.236856,0.119523674
C1I330,楓樹林,2026-02-04,23.986803,121.076117,3.3856777e-09
C0W200,湖西,2026-02-04,23.596314,119.67275,0.99402213
72Q010,高雄農改場,2026-02-04,22.709333,120.525889,0.002311126
C0SA40,瑞和,2026-02-04,22.974361,121.156697,3.0250558e-08
C0C680,龜山,2026-02-04,25.02846,121.38656,2.1752118e-08
C2V260,月眉,2026-02-04,22.971003,120.539853,4.5875044e-08
C0V450,鳳森,2026-02-04,22.545064,120.392592,0.030345367
C0FA90,小雪山林道,2026-02-04,24.29515,121.03651,3.205161e-08
C0U720,南山,2026-02-04,24.43742,121.38167,2.2177248e-08
A2N290,臺南蘭花園區,2026-02-04,23.340258,120.379661,2.3487137e-09
C0R560,新園,2026-02-04,22.5434,120.461558,0.046855573
C0U890,三星,2026-02-04,24.66812,121.65302,1.8797836e-08
C1V300,御油山,2026-02-04,23.001983,120.715364,8.270705e-09
C0U600,礁溪,2026-02-04,24.817539,121.765608,2.012479e-08
C1T980,龍澗,2026-02-04,24.023289,121.411328,5.3810933e-08
C0D670,海天一線,2026-02-04,24.831986,120.914438,3.3943934e-07
C0SA00,歷坵,2026-02-04,22.520969,120.89185,2.7766126e-07
C0M710,東石,2026-02-04,23.458927,120.15385,9.924913e-07
C0M780,鹿草,2026-02-04,23.41134,120.30835,5.122043e-07
C0U520,雙連埤,2026-02-04,24.753033,121.641303,2.9264925e-08
C0B010,七堵,2026-02-04,25.094819,121.71713,8.627779e-08
C0R480,長治,2026-02-04,22.693128,120.542622,0.003428711
C1V830,國三S383K,2026-02-04,22.781967,120.426475,0.00013856898
12Q980,恆春工作站,2026-02-04,22.079678,120.714425,0.99821776
C1O940,東山服務區,2026-02-04,23.286016,120.398472,2.1938733e-09
C1U840,東澳嶺,2026-02-04,24.5378,121.8485,4.1302997e-08
C1D630,飛鳳山,2026-02-04,24.766464,121.119178,5.2164673e-09
C0S940,石寧山,2026-02-04,23.223772,121.406639,7.6300864e-07
C0K410,北港,2026-02-04,23.573957,120.292802,2.2367611e-07
C2M620,瑞里,2026-02-04,23.545133,120.675197,3.6434735e-09
C0SB70,小港漁港,2026-02-04,23.158558,121.400431,2.992537e-06
C2O950,安南,2026-02-04,23.076694,120.144861,0.09224364
C0F0E0,南湖圈谷,2026-02-04,24.363714,121.444667,4.473839e-08
467610,成功,2026-02-04,23.097486,121.373428,2.2619018e-07
C0G890,伸港,2026-02-04,24.148933,120.484403,2.5935555e-07
C2E540,龍溪,2026-02-04,24.606489,120.783933,1.0880743e-08
C1V200,梅山,2026-02-04,23.268447,120.823556,2.234376e-09
C0T9H0,加路蘭山,2026-02-04,23.682947,121.5274,2.4423187e-08
C2O930,玉井,2026-02-04,23.126042,120.46055,1.4488895e-09
C1F911,新伯公,2026-02-04,24.221361,120.841069,2.1703703e-09
C0R490,九如,2026-02-04,22.7405,120.490503,0.003081169
C0X200,左鎮,2026-02-04,23.056758,120.408522,3.8830822e-07
C2TB50,麻汝,2026-02-04,23.42554,121.39358,1.42380685e-08
C0FA60,鞍馬山工作站,2026-02-04,24.267064,121.000793,2.036454e-08
C0SB50,叭嗡嗡,2026-02-04,23.047062,121.343223,2.827248e-07
C1F891,稍來,2026-02-04,24.265689,121.001142,1.9866821e-08
C2M9C0,紫雲,2026-02-04,23.494914,120.540253,1.0524291e-09
72N240,七股研究中心,2026-02-04,23.081672,120.062894,0.16894466
C0C700,中壢,2026-02-04,24.977661,121.256375,6.3833596e-08
C0M690,水上,2026-02-04,23.419734,120.388909,3.6104684e-09
C0V690,鼓山,2026-02-04,22.623325,120.275575,0.37860718
C0O860,大內,2026-02-04,23.11885,120.36083,0.36835298
C0Z200,萬榮,2026-02-04,23.709219,121.420106,2.6772101e-08
C0T9D0,和中,2026-02-04,24.26676,121.74103,4.160916e-08
C2S9A0,北份子寮,2026-02-04,22.78561,121.07813,2.8153934e-07
C1O921,楠西,2026-02-04,23.183511,120.484083,1.2516894e-09
C0AJ30,淡水觀海,2026-02-04,25.184591,121.408616,4.5469596e-06
C0V810,左營,2026-02-04,22.67491,120.28491,0.20457223
C0UA70,桃源谷,2026-02-04,24.962606,121.888875,5.8894724e-08
C0X130,官田,2026-02-04,23.193217,120.315422,0.0031386544
C1H000,翠峰,2026-02-04,24.109397,121.205211,1.7612447e-08
C0UA90,石城,2026-02-04,24.980444,121.951214,1.1250726e-07
C1E681,南勢山,2026-02-04,24.421669,120.923831,4.8687134e-09
C0A9F0,內湖,2026-02-04,25.079422,121.57545,4.3413657e-08
C0K291,宜梧,2026-02-04,23.536281,120.169329,2.2992904e-07
C1K540,口湖,2026-02-04,23.585344,120.180517,2.7585017e-07
C0R780,滿州,2026-02-04,22.024403,120.839892,0.9999675
C0V870,文安,2026-02-04,22.8025,120.2164,0.13760717
C0U650,玉蘭,2026-02-04,24.675286,121.587061,2.2980732e-08
C0R640,東港,2026-02-04,22.46247,120.44074,0.043961998
C0AJ80,板橋,2026-02-04,25.0107,121.4489,3.578788e-08
C0S660,下馬,2026-02-04,23.150427,121.070312,2.907986e-08
C2N190,烏樹,2026-02-04,23.32393,120.36989,0.00038853954
C1H9B1,阿眉,2026-02-04,24.1263,120.994672,1.0029606e-08
C0UA20,多加屯,2026-02-04,24.368614,121.373189,2.083312e-08
C0E730,頭份,2026-02-04,24.688247,120.912206,1.2267546e-08
72V140,高改旗南分場,2026-02-04,22.857861,120.516667,0.0005987589
C0K480,莿桐,2026-02-04,23.761192,120.502372,7.612721e-09
C0U980,坪林石牌,2026-02-04,24.86478,121.77396,5.1415746e-08
C0T900,西林,2026-02-04,23.8119,121.441458,2.2709576e-08
C1I150,青雲,2026-02-04,23.793361,120.949378,8.9624647e-10
C2E980,和興,2026-02-04,24.505319,120.923016,4.232005e-09
467350,澎湖,2026-02-04,23.565503,119.563094,0.99267906
C0G800,埔鹽,2026-02-04,24.000394,120.431683,7.034216e-08
C0H960,草屯,2026-02-04,23.973672,120.68085,4.346005e-08
C1V780,多納林道,2026-02-04,22.888028,120.737917,4.2569392e-09
C0E920,通霄漁港,2026-02-04,24.498589,120.673876,4.9269804e-08
C0Z330,安通山,2026-02-04,23.290728,121.348528,1.9440394e-08
C0AH10,永和,2026-02-04,25.01125,121.508111,3.578788e-08
C0AK10,太平里,2026-02-04,25.134937,121.364899,2.8989846e-06
C2G640,鹿港,2026-02-04,24.0753,120.430481,1.3999846e-07
C1E890,國三N149K,2026-02-04,24.463414,120.680019,4.380008e-08
C1R110,口社,2026-02-04,22.770111,120.645222,0.0001569897
C1M870,國三N285K,2026-02-04,23.550319,120.505833,9.734455e-10
C1E480,鳳美,2026-02-04,24.554803,121.034747,4.22415e-09
C0T9M0,靜浦,2026-02-04,23.455167,121.495028,1.8742952e-08
C2H9M0,發祥,2026-02-04,24.154094,121.164517,5.6605747e-09
C2G9C0,埔南,2026-02-04,23.99124,120.46969,7.034216e-08
C0AI40,石牌,2026-02-04,25.115597,121.513139,4.3413657e-08
C1F871,上谷關,2026-02-04,24.203483,121.018644,3.5608447e-09
C2H9G0,百勝,2026-02-04,24.051142,120.909361,1.1998824e-09
C0G880,二水,2026-02-04,23.810742,120.6173,6.6881953e-09
C0R940,加祿堂,2026-02-04,22.3363,120.6217,0.15181443
C0W220,北竿,2026-02-04,26.220358,119.974881,3.739691e-06
C0O960,崎頂,2026-02-04,22.959547,120.369317,0.0932481
C0TA40,秀林,2026-02-04,24.302864,121.731144,3.8507807e-08
C0S750,向陽,2026-02-04,23.248397,120.986133,1.9705112e-08
C0T9F0,水璉,2026-02-04,23.797131,121.542514,2.1244421e-08
C1M600,頭凍,2026-02-04,23.406364,120.603339,1.4917234e-09
467660,臺東,2026-02-04,22.752211,121.154586,1.0754608e-05
C1D380,新埔,2026-02-04,24.84745,121.03834,1.4256194e-08
C2G980,田頭村,2026-02-04,23.8263,120.444175,4.0808237e-09
C0V750,路竹,2026-02-04,22.854997,120.259439,0.085005745
C0N050,蚵寮,2026-02-04,23.301,120.1104,0.0015621664
C2X060,下營,2026-02-04,23.226806,120.256291,0.0038705915
72M700,南改鹿草分場,2026-02-04,23.416869,120.283061,6.917417e-07
C1SA50,利嘉林道,2026-02-04,22.82325,121.009389,4.2420034e-08
C0UB70,太平山中間站,2026-02-04,24.542003,121.513453,2.0963144e-08
C0A940,金山,2026-02-04,25.223628,121.643967,1.8740094e-06
C1V340,大津,2026-02-04,22.888322,120.645986,0.00013890647
C0W180,七美,2026-02-04,23.219333,119.444892,0.9986241
C1F9C1,白冷,2026-02-04,24.182844,120.929889,2.2499083e-09
K2E710,苗改生物防治研究中心,2026-02-04,24.422861,120.871833,4.5328195e-09
C0N040,蘆竹溝,2026-02-04,23.2344,120.0961,0.0015621664
C0TB40,崇德,2026-02-04,24.166144,121.657414,2.789839e-07
C0D760,大坪苗圃,2026-02-04,24.5362,121.1108,1.1216782e-08
C2W230,畜試所澎湖,2026-02-04,23.628342,119.513206,0.99633867
C0R880,後壁湖,2026-02-04,21.9457,120.7457,0.99960583
C1I280,埔中,2026-02-04,23.820778,120.642594,6.845087e-10
467790,墾丁雷達站,2026-02-04,21.948235,120.808028,0.99997735
C0W190,望安,2026-02-04,23.380564,119.494075,0.99693495
C0Z170,卓溪,2026-02-04,23.3443,121.3029,2.3773119e-08
C0F850,東勢,2026-02-04,24.246428,120.833047,2.208252e-09
466900,淡水,2026-02-04,25.164889,121.448906,3.172175e-06
C0I370,魚池,2026-02-04,23.895703,120.94135,1.5450407e-09
C0C630,大溪,2026-02-04,24.882853,121.265547,4.3197495e-08
C0A520,山佳,2026-02-04,24.974944,121.402008,2.708195e-08
C0I110,竹山,2026-02-04,23.761225,120.688156,1.6649377e-09
82H840,茶改南部分場,2026-02-04,23.762528,120.7405,6.597475e-10
C2SD80,再來山,2026-02-04,23.34371,121.44122,1.3913517e-07
C0G660,溪湖,2026-02-04,23.94835,120.479122,1.6503184e-07
C1T800,洛韶,2026-02-04,24.204558,121.453956,5.1885465e-08
C1T810,慈恩,2026-02-04,24.192044,121.388386,2.1769093e-08
C1E451,象鼻,2026-02-04,24.368617,120.940228,3.465828e-09
C0AC60,三峽,2026-02-04,24.939025,121.369728,6.6594176e-08
C0I490,萬大林道,2026-02-04,23.928228,121.091411,5.6039293e-09
C1I290,豐丘,2026-02-04,23.668178,120.887417,5.4175158e-09
C1I320,奧萬大,2026-02-04,23.952956,121.178556,4.963689e-09
C2M910,嘉義大學,2026-02-04,23.471325,120.485903,1.6579471e-09
C0U770,南澳,2026-02-04,24.44935,121.81022,5.2196246e-08
C2TB30,吉安,2026-02-04,23.94538,121.54803,2.365872e-08
C0A980,社子,2026-02-04,25.109508,121.469681,5.8424586e-08
C0V800,六龜,2026-02-04,22.997889,120.633583,5.1477147e-09
C1G9D0,國一S218K,2026-02-04,23.890641,120.493253,1.9165323e-07
C0E570,白沙屯,2026-02-04,24.549447,120.696803,4.6620226e-08
C2F9A0,中竹林,2026-02-04,24.103556,120.751061,1.972033e-09
C0FA40,臺中電廠,2026-02-04,24.2146,120.4907,4.0627464e-07
C2G9A0,畜試所彰化,2026-02-04,23.86045,120.557964,8.963769e-09
C0H9C0,合歡山,2026-02-04,24.143442,121.272547,3.4585725e-08
G2M350,農試溪口農場,2026-02-04,23.58565,120.408111,3.3505125e-09
C0U860,頭城,2026-02-04,24.85323,121.8308,5.0979537e-08
C0R580,南州,2026-02-04,22.48591,120.50274,0.4330079
C0D430,峨眉,2026-02-04,24.6905,121.017189,6.269212e-09
C0G780,秀水,2026-02-04,24.03405,120.503869,1.15200116e-07
72N100,臺南農改場,2026-02-04,23.0605,120.342194,0.4965427
C0S900,蘭嶼高中,2026-02-04,22.04909,121.51214,0.99761915
C2TA60,六十石,2026-02-04,23.22477,121.31861,2.9353027e-08
C1F9W0,德基,2026-02-04,24.254783,121.190261,1.746169e-08
C2M980,安和,2026-02-04,23.51377,120.31593,5.661571e-07
C1Z120,壽豐,2026-02-04,23.870853,121.508081,2.628204e-08
C0W160,烏坵,2026-02-04,24.9944,119.44956,0.24990511
C1I240,外大坪,2026-02-04,23.958697,120.917931,1.6824538e-09
C1I550,國六W023K,2026-02-04,23.979067,120.867742,1.8335007e-09
C0R870,興海,2026-02-04,21.9752,120.8439,0.9999715
C0R140,瑪家,2026-02-04,22.682903,120.686639,2.490849e-09
C0A530,坪林,2026-02-04,24.938183,121.70975,6.063018e-08
C0X260,後壁,2026-02-04,23.366358,120.362326,0.0010568147
C0Z230,和平,2026-02-04,24.30717,121.77007,3.0340818e-08
C0G770,福興,2026-02-04,24.041289,120.437669,7.034216e-08
C0H9A0,神木村,2026-02-04,23.532742,120.843667,6.623085e-09
C0I460,南投,2026-02-04,23.911469,120.687331,5.04535e-08
C0I480,梅峰,2026-02-04,24.085272,121.173572,1.3883727e-08
C1V570,吉東,2026-02-04,22.85422,120.5454,0.0011859925
C2A560,福山,2026-02-04,24.776203,121.502811,2.306069e-08
C0AH30,五分山,2026-02-04,25.07125,121.780794,5.7757248e-08
C0FA10,松柏,2026-02-04,24.429115,120.617482,3.6040028e-08
72S200,東改班鳩分場,2026-02-04,22.829528,121.077694,7.4126135e-08
72HA00,中改埔里分場,2026-02-04,23.903208,120.963364,1.5157725e-09
C2H9W0,大坪頂農水,2026-02-04,24.043122,120.932781,1.4603451e-09
C0C650,平鎮,2026-02-04,24.897503,121.214636,2.9563052e-08
C0S930,延平,2026-02-04,22.902581,121.084058,2.5956084e-08
C0UA60,樟樹山,2026-02-04,24.41393,121.78325,1.9838232e-08
C2UC10,出水溪,2026-02-04,24.615822,121.652253,3.02238e-08
C1S670,摩天,2026-02-04,23.199503,121.027,2.2831706e-08
C2C590,觀音,2026-02-04,25.027072,121.153317,2.1733814e-07
C0V630,茄萣,2026-02-04,22.906642,120.182608,0.69719756
466940,基隆,2026-02-04,25.133314,121.740475,9.320208e-08
C0X050,東河,2026-02-04,23.296598,120.385608,2.3487137e-09
C0R770,保力,2026-02-04,22.071122,120.764111,0.9999728
G2L020,農試嘉義分所,2026-02-04,23.485028,120.473806,1.5314184e-09
C0X240,關子嶺,2026-02-04,23.331169,120.508025,6.4073724e-10
C0I380,集集,2026-02-04,23.828206,120.801467,8.734534e-10
466990,花蓮,2026-02-04,23.975128,121.613275,7.473815e-08
C1V220,小關山,2026-02-04,23.154217,120.813603,8.545999e-09
C1F9G1,慶福山,2026-02-04,24.180853,120.848378,2.963807e-09
C0FB20,雪山橋,2026-02-04,24.23192,120.9786,1.540413e-08
C0Z250,瑞穗林道,2026-02-04,23.49284,121.30688,5.1675002e-08
C0D590,新豐,2026-02-04,24.87068,120.97721,2.1943937e-07
C0A870,五指山,2026-02-04,25.132153,121.608692,9.797815e-08
C0UA50,西帽山,2026-02-04,24.555361,121.802628,4.129772e-08
C2R980,竹田國中,2026-02-04,22.61532,120.52412,0.17161311
C0X160,仁德,2026-02-04,22.968258,120.257689,0.7841494
C1H971,六分寮,2026-02-04,23.92507,120.6378,1.9285789e-09
C0W120,西嶼,2026-02-04,23.5626,119.468436,0.9961726
C0G650,員林,2026-02-04,23.946503,120.585597,8.4950216e-08
C0AD50,鶯歌,2026-02-04,24.951533,121.346294,5.9944846e-08
C2H9Q0,北東眼山,2026-02-04,24.120939,121.189303,1.4393241e-08
C2H9T0,名間竹圍,2026-02-04,23.859914,120.637572,8.938735e-10
C0S990,山豬窟,2026-02-04,22.318619,120.857372,1.8381085e-07
C0X190,安平,2026-02-04,22.993161,120.152181,0.501801
C0K400,斗六,2026-02-04,23.720583,120.541127,6.387632e-09
12J990,口湖工作站,2026-02-04,23.589978,120.180394,2.6866977e-07
C0O830,北寮,2026-02-04,23.079561,120.495008,1.5699712e-08
C1D410,白蘭,2026-02-04,24.579364,121.079947,1.0032284e-08
C0S970,加津林,2026-02-04,22.416211,120.926942,0.0045110537
C0D700,關西,2026-02-04,24.7977,121.1732,3.8831502e-09
C0U750,龜山島,2026-02-04,24.841667,121.953133,5.415473e-08
C0R810,內獅,2026-02-04,22.305064,120.642986,0.15159301
C1M390,龍美,2026-02-04,23.406728,120.654417,3.1585567e-09
C2K290,崙內,2026-02-04,23.69525,120.35601,4.7722335e-08
C2FB60,頭櫃山,2026-02-04,24.129842,120.858925,3.0793275e-09
C1H840,國三N238K,2026-02-04,23.841008,120.707711,8.048426e-10
CAQ030,崎峰國小,2026-02-04,22.42565,120.49521,0.4330079
C2E520,大湖,2026-02-04,24.414939,120.870872,4.3718265e-09
467530,阿里山,2026-02-04,23.508208,120.813242,1.96024e-08
C1E691,南湖,2026-02-04,24.40135,120.837533,4.027277e-09
C0FA30,梧棲,2026-02-04,24.256003,120.523381,3.136371e-07
C1V231,高中,2026-02-04,23.134911,120.716711,1.5976224e-09
C0AK30,硬漢嶺,2026-02-04,25.136097,121.426372,1.1568442e-07
C0F9V0,新社,2026-02-04,24.200172,120.815806,2.187009e-09
C0H890,埔里,2026-02-04,23.972169,120.952425,1.2280229e-09
C0R690,墾丁,2026-02-04,21.966756,120.810269,0.99995345
C0SD20,富山,2026-02-04,22.822383,121.190825,6.837969e-08
C0F0D0,審馬陣,2026-02-04,24.381675,121.4203,3.4393636e-08
C2W030,金門農試所,2026-02-04,24.448431,118.451786,4.6409386e-07
C0R820,白鷺,2026-02-04,22.454275,120.666219,1.454303e-08
C0FB00,大雪山,2026-02-04,24.254668,121.007374,2.0517332e-08
C1V190,南天池,2026-02-04,23.27403,120.91176,2.1390715e-08
C0E940,雪見,2026-02-04,24.42595,121.01347,1.5045513e-08
K2E360,苗栗農改場,2026-02-04,24.495722,120.829111,8.568686e-09
CAJ050,海口故事園區,2026-02-04,23.57543,120.14121,2.7585017e-07
C2K280,四湖,2026-02-04,23.6304,120.22717,2.650319e-06
C2H9D0,三隻寮,2026-02-04,24.093078,120.861578,1.5705004e-09
C0O990,媽廟,2026-02-04,22.99175,120.293525,0.721006
C0D480,打鐵坑,2026-02-04,24.849664,121.150789,6.744561e-09
C0Z220,和平林道,2026-02-04,24.343922,121.656317,1.7583513e-08
C0TA10,花蓮漁港,2026-02-04,23.995322,121.638331,7.5846924e-07
72C440,桃園農改場,2026-02-04,24.950944,121.030583,2.6618892e-08
C1E711,馬拉邦山,2026-02-04,24.367306,120.901656,3.3664758e-09
C0SB20,富岡,2026-02-04,22.792467,121.192669,8.008695e-06
C0D560,竹東,2026-02-04,24.767147,121.057881,6.4798376e-09
C0F9U0,南屯,2026-02-04,24.137006,120.637969,1.0094858e-08
C2SD60,明峰,2026-02-04,22.8671,121.11825,2.1464526e-08
C0M720,番路,2026-02-04,23.464657,120.554156,6.665676e-10
C0F0A0,雪山圈谷,2026-02-04,24.388594,121.236339,4.0286004e-08
C1A9N0,四十份,2026-02-04,24.934158,121.593283,3.439836e-08
C0U760,東澳,2026-02-04,24.52196,121.83318,5.022135e-08
C0X230,鹽水,2026-02-04,23.272621,120.247641,0.0013151799
C2H9H0,苗改南投蜂場,2026-02-04,23.852589,120.693481,1.5300695e-09
C2TB70,達谷寮,2026-02-04,23.38,121.35968,2.6082287e-08
C0R950,萬隆國小,2026-02-04,22.507667,120.587817,0.08029358
467540,大武,2026-02-04,22.35572,120.90374,0.9994874
C0V370,古亭坑,2026-02-04,22.893178,120.401947,1.3001554e-07
C1I340,新興橋,2026-02-04,23.563333,120.868728,2.3136721e-09
C0SA80,土坂,2026-02-04,22.453108,120.887572,6.80203e-05
C0R160,鹽埔,2026-02-04,22.739558,120.530778,0.002311126
C0AC40,大屯山,2026-02-04,25.175675,121.522408,8.424798e-08
466850,五分山雷達站,2026-02-04,25.071182,121.781205,5.790417e-08
C2H9L0,馬烈霸,2026-02-04,24.1512,121.201772,1.564286e-08
C1AI50,國三N016K,2026-02-04,25.034164,121.619664,5.8462486e-08
C2V920,匏子寮,2026-02-04,23.04905,120.55319,6.8581594e-09
C1V600,藤枝,2026-02-04,23.071961,120.757042,7.511985e-09
C1E601,南勢,2026-02-04,24.572486,120.734842,2.7192716e-08
C0O980,新市,2026-02-04,23.061614,120.298197,0.61117387
C0K420,西螺,2026-02-04,23.800407,120.467394,3.7196597e-09
C0Z050,佳心,2026-02-04,23.34567,121.21316,2.598065e-08
C0AD30,蘆洲,2026-02-04,25.086594,121.472331,3.833654e-08
C0V610,梓官,2026-02-04,22.760558,120.267211,0.12897187
K2F750,種苗改良場,2026-02-04,24.225972,120.800917,2.2531765e-09
C0UA80,大溪漁港,2026-02-04,24.941801,121.902955,1.1906174e-07
C1AI60,國一39K邊坡,2026-02-04,25.064361,121.383836,2.8209476e-08
C0W150,金寧,2026-02-04,24.457703,118.328989,1.4174805e-07
C0R960,內埔,2026-02-04,22.608483,120.570714,0.17161311
V2C250,八德合作社,2026-02-04,24.93775,121.266389,4.8545374e-08
C2H9S0,龍南,2026-02-04,23.953536,120.833183,2.5861437e-09
C0AH40,平等,2026-02-04,25.129142,121.577086,1.7580687e-07
C0R540,佳冬,2026-02-04,22.419456,120.552375,0.28919664
466950,彭佳嶼,2026-02-04,25.627975,122.079744,0.99386835
C0A890,雙溪,2026-02-04,25.036003,121.864242,1.0584935e-07
C0C480,桃園,2026-02-04,24.992425,121.323172,6.9807804e-08
C0AH50,林口,2026-02-04,25.072181,121.38084,2.6784512e-08
A2K360,水試臺西試驗場,2026-02-04,23.717231,120.190522,2.143053e-06
C2M960,外寮,2026-02-04,23.562643,120.665688,2.8784888e-09
C0F9S0,烏日,2026-02-04,24.107058,120.624103,1.3550262e-07
C2N180,鹿陶洋,2026-02-04,23.14325,120.48352,1.2516894e-09
C0C490,八德,2026-02-04,24.928708,121.283289,4.779922e-08
C0R190,赤山,2026-02-04,22.592333,120.614306,0.14330019
C0T820,天祥,2026-02-04,24.179597,121.495639,1.18509824e-07
C1F9E1,龍安,2026-02-04,24.1605,120.831961,2.1795217e-09
C2SD50,順那,2026-02-04,23.04166,121.29332,4.0928846e-08
C0V820,小林,2026-02-04,23.148408,120.63325,6.911813e-10
C2G870,芳苑,2026-02-04,23.922303,120.320025,3.1958903e-06
C0E850,大河,2026-02-04,24.618069,120.948578,5.9753043e-09
C1U670,寒溪,2026-02-04,24.634,121.71691,1.8925405e-08
C0N020,城西,2026-02-04,23.0568,120.0956,0.12828144
C1Z110,三棧,2026-02-04,24.11557,121.60501,8.905101e-08
C0R280,檳榔,2026-02-04,22.076078,120.836777,0.99992996
C2H9J0,中台,2026-02-04,23.9996,120.938739,1.390089e-09
C0F9L0,后里,2026-02-04,24.310436,120.729725,4.1766817e-09
467441,高雄,2026-02-04,22.730432,120.312516,0.027205674
C0Z180,新城,2026-02-04,24.040486,121.604878,7.230315e-08
C0D540,橫山,2026-02-04,24.71116,121.11693,4.945988e-09
C1D420,太閣南,2026-02-04,24.632808,121.160575,1.0101099e-08
C1E770,公館,2026-02-04,24.526914,120.830806,8.702678e-09
CAN130,水試所海水繁養殖中心,2026-02-04,23.120802,120.07968,0.14918727
C1I430,翠華,2026-02-04,24.191961,121.224339,2.0848782e-08
C1M400,菜瓜坪,2026-02-04,23.251928,120.576103,8.134217e-10
C0G730,二林,2026-02-04,23.903325,120.376081,2.5541587e-08
72M360,南改義竹分場,2026-02-04,23.360694,120.279361,0.001009649
V2K620,麥寮合作社,2026-02-04,23.753836,120.294783,7.1027856e-08
C0Z070,舞鶴,2026-02-04,23.46811,121.37407,1.4703713e-08
C0B040,大武崙,2026-02-04,25.166676,121.706993,8.5403975e-08
C1Z030,紅葉,2026-02-04,23.493119,121.338806,1.4888191e-08
C1I050,丹大,2026-02-04,23.753747,121.141147,2.2965528e-08
C0I080,信義,2026-02-04,23.689694,120.851036,9.221496e-10
C2TB80,庄子底,2026-02-04,23.71794,121.49438,2.8943349e-08
C0D750,樂山林道6k,2026-02-04,24.49999,121.08773,2.0968102e-08
C2M920,朴子農改,2026-02-04,23.469889,120.259383,6.917424e-07
C2A880,福隆,2026-02-04,25.017842,121.942083,1.1643452e-07
C0Z160,鳳林,2026-02-04,23.746114,121.453411,2.814842e-08
C0UB80,翠峰林道6K,2026-02-04,24.49773,121.568625,3.562912e-08
C0V210,復興,2026-02-04,23.222403,120.806089,1.71989e-09
C0H990,昆陽,2026-02-04,24.121322,121.273642,2.7719738e-08
C0R741,獅子,2026-02-04,22.202308,120.705236,0.9163115
C0S710,鹿野,2026-02-04,22.917711,121.122994,1.9024862e-08
C0I530,小奇萊,2026-02-04,24.131764,121.295717,3.0135496e-08
C0FA70,大雪山埡口,2026-02-04,24.26867,121.03062,2.5939949e-08
C2K630,荷苞,2026-02-04,23.657717,120.595144,1.7381699e-09
C0Z080,富源,2026-02-04,23.587642,121.378225,2.9078363e-08
C2M9E0,旺來山,2026-02-04,23.555153,120.486463,9.559183e-10
C0SB10,美和,2026-02-04,22.682078,121.060236,2.08948e-06
C2K620,馬光農場,2026-02-04,23.721453,120.378864,3.9936507e-09
C1I140,卡奈托灣,2026-02-04,23.754364,121.087872,8.104998e-09
C0I520,玉山風口,2026-02-04,23.470489,120.955994,4.2178158e-08
C1G691,下水埔,2026-02-04,23.816114,120.5676,6.6264967e-09
C0X110,臺南市南區,2026-02-04,22.961189,120.188378,0.7682105
C0V680,仁武,2026-02-04,22.701083,120.347722,0.02204996
C2G840,北斗,2026-02-04,23.877586,120.514222,1.6580151e-07
C2TB90,長橋,2026-02-04,23.6874,121.46186,2.7870989e-08
C0R900,竹坑,2026-02-04,22.1385,120.7022,0.9719309
C0G860,社頭,2026-02-04,23.897647,120.5862,1.5840743e-07
C0X150,安定,2026-02-04,23.102614,120.227839,0.3966483
C0R590,里港,2026-02-04,22.77919,120.49459,0.000648111
C0E610,馬都安,2026-02-04,24.451272,120.930192,3.973372e-09
C0E550,明德,2026-02-04,24.583486,120.885411,8.001394e-09
C0R150,三地門,2026-02-04,22.709889,120.639944,0.0005067799
C0G910,花壇,2026-02-04,24.032076,120.549461,9.5540145e-08
C1D400,鳥嘴山,2026-02-04,24.71909,121.28387,7.1424786e-09
C0K500,元長,2026-02-04,23.64981,120.315024,8.5818236e-08
C0F0B0,石岡,2026-02-04,24.276061,120.777644,3.4195877e-09
C2V250,甲仙,2026-02-04,23.080106,120.591758,2.7914335e-09
C0SA20,金崙山,2026-02-04,22.567419,120.959667,5.124021e-08
C0V350,溪埔,2026-02-04,22.738578,120.446797,0.0007053885
C0M660,溪口,2026-02-04,23.604131,120.403569,3.3505125e-09
C1S880,壽卡,2026-02-04,22.238911,120.858903,9.3615775e-08
72D680,桃改新埔分場,2026-02-04,24.834444,121.066111,1.47348755e-08
