站號,站名,日期,lat,lon,BLBTSLS
C0R710,龍磐,2026-01-04,21.931672,120.838942,0.9996298
C1F9D1,白毛台,2026-01-04,24.158325,120.886933,3.3327554e-09
C0G940,竹塘,2026-01-04,23.848253,120.386764,5.342882e-09
467590,恆春,2026-01-04,22.003897,120.746339,0.9959023
C1O850,環湖,2026-01-04,23.148617,120.418633,2.7431655e-09
C0U710,太平山,2026-01-04,24.505486,121.525656,3.1781685e-08
C0E820,獅潭,2026-01-04,24.539133,120.920042,6.3684475e-09
C2SD70,二層坪,2026-01-04,22.94105,121.16838,1.2524154e-07
C0V880,興達,2026-01-04,22.8778,120.2127,4.180581e-08
C0S890,關山,2026-01-04,23.0395,121.175017,1.02280104e-07
C0SB30,新蘭,2026-01-04,22.869214,121.223228,3.998263e-06
C2R970,屏科大,2026-01-04,22.648275,120.619247,4.6166504e-10
C1Z130,銅門,2026-01-04,23.965694,121.492842,9.551789e-09
C0AD40,土城,2026-01-04,24.973208,121.445169,5.3942307e-07
CAN140,六官養殖協會,2026-01-04,23.22881,120.29962,2.8589932e-07
C0X180,山上,2026-01-04,23.0757,120.363253,1.264835e-07
C0F9Z0,雪山東峰,2026-01-04,24.388792,121.268675,4.0601353e-08
C1M480,獨立山,2026-01-04,23.537022,120.607797,1.8349982e-09
C0X220,學甲,2026-01-04,23.230367,120.182187,2.0350896e-07
467650,日月潭,2026-01-04,23.881325,120.90805,3.3985725e-09
A2K570,古坑(花卉中心),2026-01-04,23.633531,120.552392,8.679498e-10
C0K600,箔子寮,2026-01-04,23.6197,120.14,6.319433e-07
C0G830,埤頭,2026-01-04,23.866003,120.452806,2.771523e-09
C0S950,七塊厝,2026-01-04,22.954453,121.229922,2.8329124e-08
467110,金門,2026-01-04,24.407306,118.289281,2.2219955e-07
C0AH80,深坑,2026-01-04,25.002703,121.628328,2.4109391e-07
C0A970,三貂角,2026-01-04,25.007606,122.002058,1.9070025e-07
C2D730,寶山農場,2026-01-04,24.732444,120.976153,4.3598206e-08
C0K430,褒忠,2026-01-04,23.690938,120.303634,8.905814e-08
467480,嘉義,2026-01-04,23.495925,120.432906,1.2389516e-08
C0V400,阿公店,2026-01-04,22.804194,120.355528,0.00057643594
C0E960,觀霧分站,2026-01-04,24.505781,121.113921,2.2654547e-08
467550,玉山,2026-01-04,23.48718,120.95943,4.4548504e-08
C0R440,大漢山,2026-01-04,22.405264,120.753181,1.46571475e-08
C0SD30,東清國小,2026-01-04,22.057128,121.564922,0.57352555
C1F9B1,桐林,2026-01-04,24.066172,120.735194,9.771548e-10
C2H9U0,鳳鵬,2026-01-04,23.763919,120.788061,9.99595e-10
C0K390,土庫,2026-01-04,23.679029,120.395574,4.8491864e-09
C1I450,望鄉山,2026-01-04,23.594153,120.944286,2.6614677e-08
C0E910,海埔,2026-01-04,24.648767,120.772435,3.5600113e-08
B2E890,畜試北區分所,2026-01-04,24.527806,120.770972,1.5078061e-08
C0R750,四林格山,2026-01-04,22.076989,120.802439,1.9250995e-06
C0F0C0,中坑,2026-01-04,24.248517,120.903319,5.1033022e-09
C1I121,大鞍,2026-01-04,23.678381,120.760017,7.782126e-09
C2G9E0,移民庄,2026-01-04,23.9784,120.40283,2.885477e-08
72U480,花改蘭陽分場,2026-01-04,24.686306,121.716583,1.9593166e-08
C0A770,科教館,2026-01-04,25.096356,121.516507,6.343507e-07
C0AJ60,六塊厝,2026-01-04,25.24,121.4481,0.1855491
C0R620,墾雷,2026-01-04,21.900836,120.855269,0.99902487
467420,永康,2026-01-04,23.038386,120.2367,1.4009868e-05
C2M530,奮起湖,2026-01-04,23.493903,120.699253,6.663366e-09
C0I410,名間,2026-01-04,23.837053,120.701447,6.6867123e-10
A2C560,農工中心,2026-01-04,24.985917,121.239833,9.073395e-06
C0V740,旗山,2026-01-04,22.888614,120.483597,4.6328044e-09
C0Z061,玉里,2026-01-04,23.3215,121.339656,1.3855025e-08
C0S840,南田,2026-01-04,22.279725,120.889208,0.9997769
C1I470,杉林溪,2026-01-04,23.639517,120.786444,9.296645e-09
C1X040,東原,2026-01-04,23.291597,120.463822,5.3619603e-10
C0R660,枋寮,2026-01-04,22.367722,120.590647,2.6413793e-09
C1R120,上德文,2026-01-04,22.763272,120.704442,2.2065638e-09
C0K450,大埤,2026-01-04,23.646074,120.431537,3.516206e-09
C0UA00,土場,2026-01-04,24.576533,121.495333,2.548893e-08
467080,宜蘭,2026-01-04,24.763975,121.756528,2.2007644e-08
C0N030,四草,2026-01-04,23.0235,120.1116,2.1143298e-06
467410,臺南,2026-01-04,22.99328,120.20492,1.6709073e-06
C0V650,彌陀,2026-01-04,22.783806,120.246361,0.006097276
C0D660,新竹市東區,2026-01-04,24.798681,120.986942,1.226134e-07
82S580,茶改東部分場,2026-01-04,22.907694,121.130139,1.7926885e-07
C0SB40,興隆,2026-01-04,22.913661,121.257469,0.00012703262
467050,新屋,2026-01-04,25.006725,121.047492,0.02182645
C0C710,大溪永福,2026-01-04,24.892936,121.324975,1.2236884e-06
C0FA20,溫寮,2026-01-04,24.372177,120.583125,1.7705703e-07
C0V640,湖內,2026-01-04,22.887139,120.2445,3.9701238e-08
C0R910,下寮,2026-01-04,22.3929,120.5548,2.008125e-06
C0Z020,明里,2026-01-04,23.208717,121.262342,1.2201274e-08
C0M770,嘉義梅山,2026-01-04,23.585398,120.555587,1.8790658e-09
C0C660,楊梅,2026-01-04,24.912375,121.143047,2.2475263e-06
C0SD40,牛頭山,2026-01-04,22.676661,121.506944,0.9896604
C1E511,新開,2026-01-04,24.347703,120.827019,2.417356e-09
G2F820,農試所(霧峰),2026-01-04,24.031261,120.688133,9.452177e-10
C2M990,大巃頂,2026-01-04,23.5547,120.61439,2.672301e-09
C1I070,和社,2026-01-04,23.591131,120.888861,2.2595847e-09
C2E990,新坪頂,2026-01-04,24.30201,120.8574,3.1524539e-09
C0TA80,立霧山,2026-01-04,24.183258,121.641899,1.4551686e-08
C2F000,大肚,2026-01-04,24.15295,120.572117,1.7234836e-08
C1S850,豐南,2026-01-04,23.122139,121.262389,1.7359213e-08
C2M9B0,西興,2026-01-04,23.2428,120.57617,8.1323864e-10
C2A920,富貴角,2026-01-04,25.263783,121.565258,0.00072531943
CAH030,茶改場竹圍站,2026-01-04,23.860083,120.637528,8.593822e-10
C0T960,光復,2026-01-04,23.660694,121.424964,1.3705132e-08
C0F9M0,豐原,2026-01-04,24.254322,120.720692,1.970484e-09
C0R720,旭海,2026-01-04,22.205403,120.887614,0.99854517
C0V710,苓雅,2026-01-04,22.622742,120.330669,0.00011251786
C0C740,觀音工業區,2026-01-04,25.064764,121.114856,0.490308
CAC040,拉拉山,2026-01-04,24.699317,121.427133,4.807434e-08
C0V790,萬山,2026-01-04,22.905944,120.688056,2.5270068e-09
U2HA30,臺大和社,2026-01-04,23.590856,120.888864,2.2595847e-09
C2H9K0,屯原,2026-01-04,24.067969,121.209389,1.13710374e-08
C0AJ90,澳底,2026-01-04,25.0552,121.9253,3.029332e-07
C0Z100,東華,2026-01-04,23.89525,121.549833,1.2190038e-08
C0G970,三豐,2026-01-04,23.882,120.2895,0.024114821
V2K610,大庄合作社,2026-01-04,23.8068,120.367939,1.2311209e-07
C0V900,汕尾,2026-01-04,22.4782,120.4151,1.5010572e-08
C1R630,龍泉,2026-01-04,22.66701,120.59091,4.4559167e-10
C1AC50,關渡,2026-01-04,25.133486,121.469331,8.7654415e-05
C0C800,四稜,2026-01-04,24.64733,121.4293,4.5245468e-08
C0F9I0,神岡,2026-01-04,24.272481,120.658314,4.169653e-09
C0K460,斗南,2026-01-04,23.678734,120.478359,3.4875853e-09
C2O810,曾文,2026-01-04,23.219681,120.497328,7.099393e-10
467280,後龍,2026-01-04,24.648563,120.831834,3.0301493e-08
C1F9J1,清水林,2026-01-04,24.071242,120.820419,1.6779385e-09
C2A650,火燒寮,2026-01-04,25.002719,121.742892,1.5163985e-07
466930,竹子湖,2026-01-04,25.162078,121.544547,2.917515e-07
C1I220,樟湖,2026-01-04,23.905333,120.846983,4.229116e-09
C0I390,仁愛,2026-01-04,24.022122,121.132206,3.9349985e-09
C0Z300,東里,2026-01-04,23.26853,121.30547,1.3094351e-08
C1V590,新發,2026-01-04,23.057019,120.646064,2.2693243e-09
C0K510,水林,2026-01-04,23.572924,120.24597,1.4794916e-08
72S590,東改賓朗果園,2026-01-04,22.813889,121.071278,1.9471345e-06
82A750,茶改北部分場,2026-01-04,24.955778,121.631222,7.456103e-08
C1A750,石碇服務區,2026-01-04,25.00872,121.646242,4.185348e-07
C0X300,鹿寮,2026-01-04,23.386047,120.477331,3.2677643e-09
G2AI50,關渡,2026-01-04,25.11575,121.492,8.02077e-07
C0K590,雲林東勢,2026-01-04,23.674192,120.255721,9.237189e-08
C2K310,港尾布雞,2026-01-04,23.74834,120.38439,3.6081278e-09
C0A570,桶後,2026-01-04,24.848222,121.597992,6.1724315e-08
C1S800,華源,2026-01-04,22.657883,121.02325,0.063929126
C0G720,溪州,2026-01-04,23.851589,120.499093,2.7303402e-09
C1V160,達卡努瓦,2026-01-04,23.279811,120.705319,4.360018e-09
C2M410,馬頭山,2026-01-04,23.324361,120.582017,5.76002e-10
C0V850,蚵仔寮,2026-01-04,22.7256,120.2527,0.008686488
C0S740,池上,2026-01-04,23.119628,121.209469,3.8497895e-08
C1V390,尖山,2026-01-04,22.813153,120.367789,0.0003476307
C0AH70,松山,2026-01-04,25.04871,121.55042,6.093328e-07
C0N010,鯤鯓國小,2026-01-04,23.1879,120.0889,2.2714217e-07
C0R550,新埤,2026-01-04,22.467947,120.582894,2.3509321e-09
C0SA60,知本（水試所）,2026-01-04,22.702394,121.082761,0.71014977
C0T9I0,豐濱,2026-01-04,23.583897,121.514806,8.892249e-09
C0UB00,淡江大學蘭陽校園,2026-01-04,24.823239,121.730383,3.235275e-08
C0W240,九宮,2026-01-04,24.423753,118.240186,3.5218125e-08
C0T9N0,富里,2026-01-04,23.171639,121.249378,1.1062487e-08
U2HA50,臺大竹山,2026-01-04,23.756972,120.681556,7.642906e-10
C0V840,鳳鼻頭,2026-01-04,22.5083,120.3591,1.271023e-08
C0X140,西港,2026-01-04,23.125608,120.203108,2.0862012e-07
72D080,桃改五峰分場,2026-01-04,24.612194,121.157167,1.0870558e-08
C2H9P0,伊拿谷,2026-01-04,23.963211,121.088264,2.477648e-09
C2K250,崙背,2026-01-04,23.75553,120.31893,8.875274e-08
C2H9F0,柑林,2026-01-04,24.018658,120.847072,7.897574e-10
C0TA20,加灣,2026-01-04,24.082025,121.608944,1.7458461e-08
C0V530,阿蓮,2026-01-04,22.883208,120.327508,3.702229e-06
C0FB30,八仙山苗圃,2026-01-04,24.192719,121.001366,4.891509e-09
C1O880,關山,2026-01-04,23.173397,120.594092,7.5773554e-10
C0E791,卓蘭,2026-01-04,24.3126,120.8244,2.46369e-09
C1I030,武界,2026-01-04,23.913225,121.052483,2.689877e-09
C0R520,崁頂,2026-01-04,22.514781,120.506914,3.6717363e-08
C0R341,牡丹,2026-01-04,22.130036,120.792639,0.00062803837
C0R930,萬丹,2026-01-04,22.5885,120.4851,1.1335956e-08
C0S760,紅石,2026-01-04,23.069131,121.126219,1.2683494e-08
C2C410,中央大學,2026-01-04,24.967652,121.185165,8.346255e-06
C1M610,石磐龍,2026-01-04,23.496606,120.663506,5.518385e-09
C0C790,東眼山,2026-01-04,24.8284,121.40888,3.9326817e-08
C0UA10,鴛鴦湖,2026-01-04,24.590269,121.412228,3.4931528e-08
V2C260,八德蔬果,2026-01-04,24.978508,121.281819,6.020133e-06
C0R800,丹路,2026-01-04,22.204481,120.750989,0.91012365
C0G920,永靖,2026-01-04,23.924703,120.547533,6.1453282e-09
C2M950,太和,2026-01-04,23.538372,120.702961,6.615346e-09
C1A630,下盆,2026-01-04,24.771003,121.538622,5.3982095e-08
B2N890,畜產試驗所,2026-01-04,23.058972,120.336406,1.3538843e-05
C0UA30,白嶺,2026-01-04,24.527819,121.519031,2.4832698e-08
C1V580,溪南(特生中心),2026-01-04,23.084972,120.788475,6.1056626e-09
C1T970,大農,2026-01-04,23.615233,121.413331,1.2346653e-08
C0R650,竹田,2026-01-04,22.58486,120.54344,4.261141e-08
C1H900,清流,2026-01-04,24.080775,120.962997,3.0083507e-09
C1C510,水尾,2026-01-04,24.940081,121.087161,4.7083002e-05
C2N170,茅港尾,2026-01-04,23.2061,120.2624,3.372632e-07
C0F9X0,大雅(中科園區),2026-01-04,24.21528,120.62445,1.9427125e-08
C0SB60,白守蓮,2026-01-04,23.126769,121.401914,0.006951757
C0O970,虎頭埤,2026-01-04,23.021375,120.347878,4.3563378e-07
C0C730,中大臨海站,2026-01-04,24.966126,121.008581,5.176703e-06
C0X250,新營,2026-01-04,23.310689,120.316681,1.8787607e-07
C0V700,三民,2026-01-04,22.645017,120.311233,0.012207896
C0U870,大礁溪,2026-01-04,24.791042,121.675047,2.8578716e-08
C0E870,高鐵苗栗,2026-01-04,24.60725,120.826094,3.040721e-08
A2K570,古坑花卉中心,2026-01-04,23.63353,120.55239,7.391757e-09
C0TA30,鹽寮,2026-01-04,23.845606,121.592664,1.304156e-08
C0M860,新美,2026-01-04,23.338017,120.683169,2.3175413e-09
C1E701,八卦,2026-01-04,24.491756,120.927619,7.1328943e-09
C2TA90,加納納,2026-01-04,23.466421,121.359867,7.914966e-09
C0I420,國姓,2026-01-04,24.037803,120.855072,8.2494e-10
C2D720,關西工作站,2026-01-04,24.757275,121.184792,5.1323546e-08
C0S960,香蘭,2026-01-04,22.587569,120.993375,4.5813397e-07
467620,蘭嶼,2026-01-04,22.0369,121.55843,0.8914023
C0R260,春日,2026-01-04,22.370361,120.628306,1.8537446e-09
72G600,臺中農改場,2026-01-04,24.003028,120.534389,5.8302994e-09
C0Z210,瑞穗,2026-01-04,23.5239,121.39021,1.2716681e-08
C0M820,達邦,2026-01-04,23.453994,120.749517,4.6802224e-09
C0V860,南寮,2026-01-04,22.7616,120.2339,0.00572554
C0G740,大城,2026-01-04,23.852487,120.320935,0.024353761
C0R920,塭仔,2026-01-04,22.4169,120.5197,2.041977e-06
C0R470,高樹,2026-01-04,22.826389,120.600806,4.92211e-10
C0R680,佳樂水,2026-01-04,21.993578,120.861633,0.9992511
C1O870,大棟山,2026-01-04,23.31157,120.52226,3.4361751e-09
C0D360,梅花,2026-01-04,24.678347,121.208558,2.1373669e-08
C0Z190,富世,2026-01-04,24.14743,121.6297,1.2197475e-07
C0AI10,屈尺,2026-01-04,24.92184,121.54475,4.0310914e-07
B2U990,畜試東區分所,2026-01-04,24.669039,121.832561,1.80796e-08
C0SB80,長濱漁港,2026-01-04,23.313644,121.459994,1.3013246e-05
C0TA50,和仁,2026-01-04,24.241394,121.712472,3.972101e-08
C0V910,大樹,2026-01-04,22.684645,120.432803,2.0209184e-08
C1R610,西大武山,2026-01-04,22.617719,120.7322,1.0180633e-08
C0G900,線西,2026-01-04,24.143358,120.443536,1.5862346e-06
C0M700,竹崎,2026-01-04,23.526178,120.555508,2.639098e-09
C2E880,三義,2026-01-04,24.405478,120.749819,1.0748442e-08
C0C720,竹圍,2026-01-04,25.112692,121.239824,0.006082415
C0F9P0,清水,2026-01-04,24.312297,120.562242,2.5700834e-07
C0Z150,吉安光華,2026-01-04,23.930925,121.595153,1.47902615e-08
C0FA80,小雪山天池,2026-01-04,24.28025,121.02627,2.7585505e-08
467300,東吉島,2026-01-04,23.25727,119.66762,0.99695164
C1D640,外坪(五指山),2026-01-04,24.644447,121.090961,1.826695e-08
C2R9A0,高士國小,2026-01-04,22.12553,120.84653,0.0009372178
C0F9O0,潭子,2026-01-04,24.213106,120.703933,1.8853197e-09
C2H9R0,卓社,2026-01-04,23.887894,121.000086,4.9121804e-09
72T250,花蓮農改場,2026-01-04,23.975222,121.563889,1.3802036e-08
C0E780,銅鑼,2026-01-04,24.489681,120.790853,1.4622133e-08
C1T950,太安,2026-01-04,23.666719,121.370128,8.038949e-09
C0E830,苑裡,2026-01-04,24.439714,120.653053,6.629913e-08
467270,田中,2026-01-04,23.873803,120.581286,1.2168592e-09
C0SA10,檳榔四格山,2026-01-04,22.810031,121.109308,3.305627e-07
C1T830,布洛灣,2026-01-04,24.17184,121.57127,1.2019559e-08
C0F970,大坑,2026-01-04,24.173142,120.722289,1.8711297e-09
C1U920,思源,2026-01-04,24.393125,121.347214,2.4817735e-08
C2H9Y0,松茗,2026-01-04,23.8167,120.650765,1.1187078e-09
C0A931,三和,2026-01-04,25.233153,121.595236,1.5979842e-05
C0I010,廬山,2026-01-04,24.033311,121.181808,6.6051333e-09
C2M940,日野賀,2026-01-04,23.434056,120.727169,5.3826303e-09
C0R860,鼻頭,2026-01-04,22.1043,120.8979,0.99947435
C0UB20,壯圍,2026-01-04,24.7359,121.8163,2.2853316e-08
C0R790,九棚,2026-01-04,22.14195,120.889281,0.9978888
C0W110,東莒,2026-01-04,25.9652,119.98069,0.3422156
C1U930,粉鳥林,2026-01-04,24.497088,121.842479,3.260426e-08
C1I211,蘆竹湳,2026-01-04,23.934019,120.811994,1.3027035e-09
C0S830,長濱,2026-01-04,23.286817,121.411975,1.0240656e-08
C1F9F1,伯公龍,2026-01-04,24.272392,120.849047,2.8980953e-09
C0UB90,太平山莊,2026-01-04,24.494171,121.536209,3.2068854e-08
C0E810,西湖,2026-01-04,24.562947,120.7485,1.7912271e-06
C1I440,新高口,2026-01-04,23.478744,120.878939,2.0855822e-08
C0O840,王爺宮,2026-01-04,23.222064,120.40085,4.7472746e-09
C0T9G0,鳳林山,2026-01-04,23.735269,121.420131,1.3705603e-08
C0X080,佳里,2026-01-04,23.173039,120.145086,1.9678338e-07
C0FB70,大甲溪埔,2026-01-04,24.370625,120.620067,1.6811227e-07
C0Z310,清水斷崖,2026-01-04,24.218294,121.689142,2.8000255e-08
C0M680,太保,2026-01-04,23.455062,120.331455,3.072518e-08
C1S820,金峰,2026-01-04,22.590969,120.933236,7.6984804e-08
C0AD10,八里,2026-01-04,25.150211,121.403947,0.11050341
C2K240,草嶺,2026-01-04,23.59555,120.693461,4.8719833e-09
C1SA70,都蘭,2026-01-04,22.87794,121.226881,2.6569721e-06
C0K440,二崙,2026-01-04,23.772797,120.408944,3.2349465e-09
C1A760,坪林交控,2026-01-04,24.94284,121.713442,1.7262676e-07
C0F9N0,大里,2026-01-04,24.092464,120.701378,9.048812e-10
C0SA90,達仁林場,2026-01-04,22.264347,120.823972,1.0010494e-08
C1R290,石門山,2026-01-04,22.112611,120.756597,0.00032274314
42HA10,萬大發電廠,2026-01-04,23.978875,121.139639,3.2634229e-09
C0R890,山海,2026-01-04,21.9878,120.7091,0.995337
C0T9A0,月眉山,2026-01-04,23.809928,121.539828,8.1120035e-09
C0AC70,信義,2026-01-04,25.037822,121.564597,7.130897e-07
C0K560,棋山,2026-01-04,23.68645,120.603417,7.255119e-10
C2FB50,出雲,2026-01-04,24.206469,120.902794,5.8376437e-09
C1Z240,中平林道,2026-01-04,23.42115,121.26763,1.2539577e-08
U2H480,溪頭,2026-01-04,23.670306,120.798194,4.075332e-09
C0M880,好美里,2026-01-04,23.3364,120.138,1.9217889e-07
C0T9E0,大坑,2026-01-04,23.880628,121.581981,7.230836e-09
C0K530,臺西,2026-01-04,23.701547,120.197559,8.137387e-06
C1E900,國一N128K,2026-01-04,24.560997,120.844186,9.273038e-09
C0AJ50,水湳洞,2026-01-04,25.123695,121.862238,2.9528462e-07
C0AI20,白沙灣,2026-01-04,25.283128,121.519058,0.5299401
C2V310,美濃,2026-01-04,22.898792,120.51907,4.789018e-09
C0A860,大坪,2026-01-04,25.165914,121.632969,2.2537519e-07
C1U850,觀音海岸,2026-01-04,24.38319,121.77856,1.2497291e-08
C2K610,草嶺石壁,2026-01-04,23.602469,120.707731,4.9809215e-09
C0U950,鶯子嶺,2026-01-04,24.89754,121.79244,4.6168314e-08
C0O900,善化,2026-01-04,23.112883,120.297219,3.1930613e-05
C0K550,蔦松,2026-01-04,23.514319,120.229736,1.1887959e-08
E2P980,林試六龜中心,2026-01-04,22.991703,120.645722,5.2283483e-10
C0E590,通霄,2026-01-04,24.471892,120.704622,4.3865919e-07
C1I310,西巒,2026-01-04,23.754486,120.883956,4.1274943e-09
C0A550,泰平,2026-01-04,24.971197,121.823711,8.6367685e-08
C0I360,水里,2026-01-04,23.812553,120.849792,7.8451323e-10
C0R830,高士,2026-01-04,22.121825,120.836781,5.03819e-05
C1I101,溪頭,2026-01-04,23.661789,120.807647,1.0475951e-08
C0AJ20,野柳,2026-01-04,25.20703,121.690021,0.011878463
C0B060,暖暖,2026-01-04,25.0957,121.7403,4.2989586e-07
C1H920,長豐,2026-01-04,24.102039,120.879897,1.8256874e-09
C2S9B0,利吉,2026-01-04,22.86246,121.15486,2.9644966e-07
C0V360,內門,2026-01-04,22.975481,120.466769,2.1530944e-09
C0R850,林邊,2026-01-04,22.4634,120.5339,6.601599e-06
C0E930,龍鳳,2026-01-04,24.700034,120.859125,2.2519658e-05
C0U910,冬山,2026-01-04,24.63373,121.7937,1.80796e-08
C1E721,泰安,2026-01-04,24.489017,120.968036,1.2165673e-08
82H320,茶改中部分場,2026-01-04,23.875611,120.913583,2.6747793e-09
C0M750,布袋,2026-01-04,23.380878,120.167789,4.8322278e-08
C1S860,利嘉,2026-01-04,22.809417,121.050528,1.1385079e-08
E2S980,林試太麻里1,2026-01-04,22.598922,120.980044,1.7483428e-07
C0X170,關廟,2026-01-04,22.963017,120.327797,4.1956227e-07
C0V720,林園,2026-01-04,22.507747,120.394511,1.853332e-08
C1I510,線浸林道,2026-01-04,23.761508,120.832956,4.6091566e-09
C0D690,外湖,2026-01-04,24.917735,120.968711,0.99951345
C0C750,新興坑尾,2026-01-04,25.0061,121.0971,0.0019696315
B2Q810,畜試南區分所,2026-01-04,21.945583,120.802167,0.9992258
C0S790,金崙,2026-01-04,22.538122,120.966875,5.382058e-08
C0AH90,福山植物園,2026-01-04,24.760717,121.58135,5.195756e-08
C0I540,奇萊稜線,2026-01-04,24.109231,121.326456,3.4311995e-08
C0M850,表湖,2026-01-04,23.24186,120.64166,3.9338954e-09
C0S770,大溪山,2026-01-04,22.478475,120.943325,2.330299e-08
C0AG80,中和,2026-01-04,24.991622,121.491792,5.3877426e-07
C0T790,大禹嶺,2026-01-04,24.186117,121.316086,2.8115581e-08
C0T9B0,水源,2026-01-04,23.991861,121.537169,8.085528e-09
C0R840,牡丹池山,2026-01-04,22.168389,120.841225,3.049067e-07
C1I131,桶頭,2026-01-04,23.641944,120.654117,1.003783e-09
CAL110,布袋國中,2026-01-04,23.35893,120.18026,1.9280229e-07
C2M9D0,何竹子腳,2026-01-04,23.53641,120.38203,1.3922603e-08
467571,新竹,2026-01-04,24.827853,121.014219,4.9534447e-07
C0Z290,赤柯山,2026-01-04,23.36893,121.38293,1.1601749e-08
C0X280,將軍,2026-01-04,23.214999,120.13577,2.3791155e-07
C0S690,太麻里,2026-01-04,22.60902,120.98533,1.6747547e-08
C0U880,北關,2026-01-04,24.9072,121.8734,3.075312e-07
CAW010,東引,2026-01-04,26.3588,120.4836,0.3965885
C0G810,埔心,2026-01-04,23.947633,120.525456,6.155628e-09
C0U970,大福,2026-01-04,24.80064,121.81389,2.2455279e-08
C2H9N0,仁愛東眼,2026-01-04,24.026875,121.1205,5.9834817e-09
C1E670,南礦,2026-01-04,24.538278,121.002836,1.1416871e-08
C0M520,東後寮,2026-01-04,23.369908,120.248065,4.1366384e-08
C1E461,松安,2026-01-04,24.397972,120.986022,9.5574375e-09
C2N160,西拉雅風管處,2026-01-04,23.189481,120.335297,8.276563e-08
C2M970,碧湖,2026-01-04,23.568632,120.624165,2.6493616e-09
C0A640,石碇,2026-01-04,24.993969,121.662917,1.7249626e-07
E2S960,林試太麻里2,2026-01-04,22.598,120.99775,4.913228e-07
C0F9Y0,桃山,2026-01-04,24.432739,121.303808,4.402236e-08
C1I020,萬大,2026-01-04,23.979817,121.132261,3.9961727e-09
C2UC20,長嶺,2026-01-04,24.70894,121.61162,4.0305757e-08
C0U940,羅東,2026-01-04,24.68184,121.74934,2.0007866e-08
C0M650,朴子,2026-01-04,23.43463,120.23902,3.2159814e-08
C1I500,大尖山,2026-01-04,23.858572,120.994889,1.1561721e-08
C0FB40,中橫21.6k,2026-01-04,24.2499,121.1455,8.593728e-09
C0G820,田尾,2026-01-04,23.901669,120.509389,6.1407586e-09
E2K600,四湖植物園,2026-01-04,23.676986,120.163433,3.4346058e-06
C0S730,綠島,2026-01-04,22.6672,121.47533,0.9936412
12Q970,東港工作站,2026-01-04,22.479997,120.466058,9.357912e-06
C1TA00,太魯閣,2026-01-04,24.15773,121.6236,5.224037e-08
466920,臺北,2026-01-04,25.037658,121.514853,6.093328e-07
C0R600,舊泰武,2026-01-04,22.588194,120.664944,2.743312e-09
C1I260,北坑,2026-01-04,23.9246,121.006903,1.614532e-09
466910,鞍部,2026-01-04,25.182586,121.529731,2.4488617e-07
C1I230,九份二山,2026-01-04,23.961944,120.845,2.1960294e-09
C2M810,里佳,2026-01-04,23.389125,120.716647,6.6465344e-09
C2A660,瑞芳,2026-01-04,25.113169,121.801147,4.317361e-07
C0R270,琉球嶼,2026-01-04,22.332244,120.362236,9.218353e-09
C2V580,瑞山,2026-01-04,22.90304,120.43424,5.0116356e-09
C1T990,高寮,2026-01-04,23.394239,121.356808,1.9181245e-08
C0G620,芬園,2026-01-04,24.015678,120.6213,2.7817442e-09
C1Z140,荖溪,2026-01-04,23.890575,121.45964,1.7973598e-08
C1I201,中心崙,2026-01-04,23.728722,120.712097,1.7272638e-09
C1I400,凌霄,2026-01-04,24.018778,121.004456,5.914392e-09
C1M640,十字,2026-01-04,23.492153,120.753683,8.576846e-09
G2P820,農試鳳山分所,2026-01-04,22.646611,120.356083,9.666223e-05
C0Z270,蕃薯寮,2026-01-04,23.73835,121.540108,9.364271e-09
C2E420,竹南,2026-01-04,24.70898,120.88897,1.4563243e-05
C0FB10,出雲山苗圃,2026-01-04,24.23105,120.90475,5.1025917e-09
C0F9Q0,外埔,2026-01-04,24.347817,120.705686,4.1344674e-09
C0K580,高鐵雲林,2026-01-04,23.737456,120.417944,3.5571859e-09
C2I090,鳳凰,2026-01-04,23.728081,120.787347,2.6344662e-09
C0U990,員山,2026-01-04,24.74435,121.72247,2.0023212e-08
C0V770,大社,2026-01-04,22.730306,120.346639,0.014654102
C0X120,麻豆,2026-01-04,23.183289,120.248611,2.0429768e-07
C0C670,龍潭,2026-01-04,24.870056,121.221389,4.4733525e-08
C0D680,香山濕地,2026-01-04,24.783581,120.914988,0.9995063
C0S980,勝林山,2026-01-04,22.430439,120.8938,1.442669e-08
C0V730,大寮,2026-01-04,22.605614,120.395717,6.585655e-05
C0R570,麟洛,2026-01-04,22.65078,120.52719,8.067884e-10
C2M930,石卓,2026-01-04,23.478744,120.702264,8.408485e-09
C0G9B0,和美,2026-01-04,24.105169,120.492131,1.7598948e-08
CAG100,王功漁港,2026-01-04,23.96824,120.32586,0.0056130667
C0X290,北門,2026-01-04,23.267772,120.125481,2.3884544e-07
C2F930,大甲,2026-01-04,24.347667,120.640403,1.3508568e-08
C0D650,湖口,2026-01-04,24.904794,121.043628,9.927375e-07
C0U780,五結,2026-01-04,24.68637,121.79794,1.80796e-08
C1I250,鯉潭,2026-01-04,23.961922,120.991131,1.9707358e-09
C0R130,阿禮,2026-01-04,22.742908,120.743678,2.7597544e-09
C0X100,臺南市北區,2026-01-04,23.010394,120.194228,2.448012e-06
C0S920,金峰嘉蘭,2026-01-04,22.594789,120.960825,1.5535896e-07
C0V490,新興,2026-01-04,22.627422,120.298803,0.0469655
C0F9K0,大安,2026-01-04,24.345061,120.588025,1.7219284e-07
467290,古坑,2026-01-04,23.633639,120.551889,8.679498e-10
C2E970,八甲,2026-01-04,24.535811,120.795983,1.021475e-08
C0V440,鳳山,2026-01-04,22.646653,120.356122,9.666223e-05
C1T940,大觀,2026-01-04,23.714206,121.373133,1.0535102e-08
C0E740,造橋,2026-01-04,24.637056,120.864778,3.07192e-08
C0R100,尾寮山,2026-01-04,22.833111,120.683889,2.8916571e-09
A2K630,臺大雲林校區,2026-01-04,23.730628,120.423903,3.5253052e-09
467990,馬祖,2026-01-04,26.169467,119.923158,1.7950816e-06
C0D580,寶山,2026-01-04,24.735006,121.025192,2.633945e-08
E2P990,林試扇平站,2026-01-04,22.9677,120.6857,1.4967566e-09
C0AI30,三重,2026-01-04,25.057328,121.500629,6.343507e-07
C0AH00,汐止,2026-01-04,25.066881,121.658778,6.969132e-07
C1Z040,立山,2026-01-04,23.443356,121.327375,1.0845933e-08
466881,新北,2026-01-04,24.959207,121.525196,4.9344055e-07
C0W130,花嶼,2026-01-04,23.40007,119.32276,0.99524015
C0A950,鼻頭角,2026-01-04,25.129036,121.923372,3.0765673e-07
C0K470,林內,2026-01-04,23.748675,120.609642,7.113069e-10
C2F990,摩天嶺,2026-01-04,24.322458,120.936819,5.2952904e-09
C2E430,南庄,2026-01-04,24.601775,121.000214,2.2547294e-08
82C160,茶改場,2026-01-04,24.908472,121.185333,1.7242763e-06
C2TB60,南安,2026-01-04,23.29818,121.26157,1.17870576e-08
C0Z320,清水林道,2026-01-04,23.27125,121.188272,9.940798e-09
C0R760,南仁湖,2026-01-04,22.084681,120.863353,0.0003148213
C0M670,大林,2026-01-04,23.600616,120.45841,1.0071876e-08
C0M800,茶山,2026-01-04,23.299075,120.664767,7.9373513e-10
C0A9C0,天母,2026-01-04,25.117494,121.537169,6.728162e-07
72K220,南改斗南分場,2026-01-04,23.634556,120.477333,3.4631518e-09
72AI40,桃改樹林分場,2026-01-04,24.944503,121.386972,4.3907437e-07
C0S910,蘭嶼燈塔,2026-01-04,22.081197,121.503117,0.5209136
C0B050,八斗子,2026-01-04,25.144754,121.79167,1.0175537e-06
C0U900,內城,2026-01-04,24.71813,121.68766,1.929886e-08
C0X320,柳營,2026-01-04,23.253328,120.375253,1.35842715e-08
C0M790,新港,2026-01-04,23.553269,120.345728,3.296808e-08
C0F9T0,西屯,2026-01-04,24.179494,120.641275,3.4764873e-09
C0E950,松安,2026-01-04,24.39792,120.98599,9.5574375e-09
C0SA30,都歷,2026-01-04,23.020333,121.323642,5.6699308e-05
C0C620,蘆竹,2026-01-04,25.084275,121.265767,0.0013310919
C0R730,大坪頂,2026-01-04,22.024633,120.69355,0.9995687
C0AJ40,石門,2026-01-04,25.273672,121.601198,0.00336813
C0E750,苗栗,2026-01-04,24.564569,120.824575,9.36211e-09
C0T870,鯉魚潭,2026-01-04,23.935639,121.508944,1.0096361e-08
C1V170,排雲,2026-01-04,23.463619,120.954147,4.002201e-08
C2H950,中寮,2026-01-04,23.884447,120.766406,6.621882e-10
C0R350,貓鼻頭,2026-01-04,21.921774,120.7358,0.99586594
C0V660,岡山,2026-01-04,22.797078,120.294958,0.005518745
C1H941,雙冬,2026-01-04,23.967378,120.802189,1.4938133e-09
C0AJ70,田寮,2026-01-04,25.2698,121.4886,0.6512589
C0AI00,五股,2026-01-04,25.07445,121.42728,2.081049e-07
C0Z280,德武,2026-01-04,23.47426,121.41071,8.488701e-09
C2RA10,大新,2026-01-04,22.67558,120.57788,4.459658e-10
C0R700,枋山,2026-01-04,22.246844,120.661086,0.99658257
C0C460,復興,2026-01-04,24.820208,121.352281,3.1491684e-08
C2K300,鹿南,2026-01-04,23.63855,120.3636,7.307539e-08
E2H360,蓮華池,2026-01-04,23.918333,120.885278,2.0000033e-09
C0M640,中埔,2026-01-04,23.42538,120.5229,2.4119953e-09
C0W140,金沙,2026-01-04,24.488292,118.408778,9.7885874e-08
C2A540,四堵,2026-01-04,24.8926,121.745736,8.105001e-08
C0ACA0,新莊,2026-01-04,25.051478,121.446756,6.363138e-07
C0R220,潮州,2026-01-04,22.534361,120.54,3.3403495e-08
U2HA40,臺大內茅埔,2026-01-04,23.689722,120.851117,1.3938326e-09
467490,臺中,2026-01-04,24.145736,120.684075,1.790734e-09
C0UB60,明池,2026-01-04,24.650688,121.475277,4.4287734e-08
C0U960,翠峰湖,2026-01-04,24.510856,121.608044,3.1145518e-08
E2HA20,林試畢祿溪站,2026-01-04,24.226944,121.308522,1.7626427e-08
C2M9A0,大華,2026-01-04,23.4824,120.67491,5.011425e-09
C0V890,前鎮,2026-01-04,22.5718,120.3117,0.0005524997
C1F941,雪嶺,2026-01-04,24.280586,121.026642,2.758561e-08
C2H9E0,國姓南港,2026-01-04,23.911108,120.846556,4.393192e-09
C0AC80,文山,2026-01-04,25.00235,121.575728,7.410422e-07
C0F9R0,龍井,2026-01-04,24.184536,120.528972,1.217707e-06
C0M760,民雄,2026-01-04,23.551754,120.428457,1.0586748e-08
C0UA40,西德山,2026-01-04,24.560647,121.752608,2.688437e-08
C2TA70,赤科坪,2026-01-04,23.39885,121.39168,1.1687235e-08
C1T920,中興,2026-01-04,23.769503,121.498653,1.1862591e-08
C0D550,雪霸,2026-01-04,24.526972,121.11605,1.9464956e-08
C2F860,梨山,2026-01-04,24.247522,121.243669,2.0317401e-08
C0R320,車城,2026-01-04,22.0744,120.716247,0.99947673
C1S870,南美山,2026-01-04,23.15025,121.382333,1.10486795e-07
C0B020,基隆嶼,2026-01-04,25.19141,121.78391,8.1914163e-07
C1U501,牛鬥,2026-01-04,24.637836,121.573656,5.5747428e-08
C0M730,嘉義市東區,2026-01-04,23.457673,120.460531,4.257776e-09
C2R990,泰武,2026-01-04,22.60686,120.69765,5.1268536e-09
C0S700,知本,2026-01-04,22.684866,121.005642,1.2109279e-08
C1N001,沙崙,2026-01-04,22.935472,120.309406,5.5990864e-07
C0V760,橋頭,2026-01-04,22.757806,120.30575,0.015975852
C0G960,福寶,2026-01-04,24.0443,120.3814,2.4705e-08
C0X210,白河,2026-01-04,23.347466,120.414427,5.0189435e-09
C0S810,東河,2026-01-04,22.972672,121.303986,0.000119456796
C2R170,屏東,2026-01-04,22.66027,120.49403,8.159312e-10
C0R670,楓港,2026-01-04,22.190131,120.692156,0.99965507
C0FA50,霧峰,2026-01-04,24.0419,120.6995,9.195186e-10
C0UB10,蘇澳,2026-01-04,24.5969,121.8571,1.6029373e-08
C0G950,防潮門,2026-01-04,24.1835,120.4871,1.5771269e-06
C0M740,六腳,2026-01-04,23.492871,120.290625,2.799043e-08
C1R250,力里,2026-01-04,22.428117,120.629228,1.0516572e-08
C0K330,虎尾,2026-01-04,23.719183,120.442036,3.5123653e-09
C2FA00,烏石坑,2026-01-04,24.273503,120.947617,5.2611924e-09
C0V620,永安,2026-01-04,22.82315,120.236856,0.005770461
C1I330,楓樹林,2026-01-04,23.986803,121.076117,4.485936e-09
C0W200,湖西,2026-01-04,23.596314,119.67275,0.99529195
72Q010,高雄農改場,2026-01-04,22.709333,120.525889,7.9724155e-10
C0SA40,瑞和,2026-01-04,22.974361,121.156697,1.4721272e-07
C0C680,龜山,2026-01-04,25.02846,121.38656,1.2593176e-07
C2V260,月眉,2026-01-04,22.971003,120.539853,1.0046564e-09
C0V450,鳳森,2026-01-04,22.545064,120.392592,1.3795982e-08
C0FA90,小雪山林道,2026-01-04,24.29515,121.03651,3.4159456e-08
C0U720,南山,2026-01-04,24.43742,121.38167,2.3581906e-08
A2N290,臺南蘭花園區,2026-01-04,23.340258,120.379661,7.990352e-09
C0R560,新園,2026-01-04,22.5434,120.461558,1.853332e-08
C0U890,三星,2026-01-04,24.66812,121.65302,1.819983e-08
C1V300,御油山,2026-01-04,23.001983,120.715364,5.8896603e-09
C0U600,礁溪,2026-01-04,24.817539,121.765608,2.1769509e-08
C1T980,龍澗,2026-01-04,24.023289,121.411328,1.8533814e-08
C0D670,海天一線,2026-01-04,24.831986,120.914438,0.99927163
C0SA00,歷坵,2026-01-04,22.520969,120.89185,1.9521359e-08
C0M710,東石,2026-01-04,23.458927,120.15385,4.7433307e-08
C0M780,鹿草,2026-01-04,23.41134,120.30835,2.980771e-08
C0U520,雙連埤,2026-01-04,24.753033,121.641303,2.7609772e-08
C0B010,七堵,2026-01-04,25.094819,121.71713,7.6071854e-07
C0R480,長治,2026-01-04,22.693128,120.542622,5.084228e-10
C1V830,國三S383K,2026-01-04,22.781967,120.426475,4.9406985e-09
12Q980,恆春工作站,2026-01-04,22.079678,120.714425,0.9994772
C1O940,東山服務區,2026-01-04,23.286016,120.398472,7.293277e-09
C1U840,東澳嶺,2026-01-04,24.5378,121.8485,2.389741e-08
C1D630,飛鳳山,2026-01-04,24.766464,121.119178,2.4446676e-08
C0S940,石寧山,2026-01-04,23.223772,121.406639,0.000109500856
C0K410,北港,2026-01-04,23.573957,120.292802,1.47509045e-08
C2M620,瑞里,2026-01-04,23.545133,120.675197,5.8776974e-09
C0SB70,小港漁港,2026-01-04,23.158558,121.400431,0.0048699565
C2O950,安南,2026-01-04,23.076694,120.144861,1.1508279e-06
C0F0E0,南湖圈谷,2026-01-04,24.363714,121.444667,4.363448e-08
467610,成功,2026-01-04,23.097486,121.373428,1.450085e-05
C0G890,伸港,2026-01-04,24.148933,120.484403,1.4853072e-06
C2E540,龍溪,2026-01-04,24.606489,120.783933,9.123164e-09
C1V200,梅山,2026-01-04,23.268447,120.823556,3.7325023e-09
C0T9H0,加路蘭山,2026-01-04,23.682947,121.5274,1.1164786e-08
C2O930,玉井,2026-01-04,23.126042,120.46055,2.7482716e-09
C1F911,新伯公,2026-01-04,24.221361,120.841069,2.474465e-09
C0R490,九如,2026-01-04,22.7405,120.490503,7.967414e-10
C0X200,左鎮,2026-01-04,23.056758,120.408522,1.5228848e-08
C2TB50,麻汝,2026-01-04,23.42554,121.39358,7.683104e-09
C0FA60,鞍馬山工作站,2026-01-04,24.267064,121.000793,1.8433585e-08
C0SB50,叭嗡嗡,2026-01-04,23.047062,121.343223,2.6804893e-05
C1F891,稍來,2026-01-04,24.265689,121.001142,1.7814143e-08
C2M9C0,紫雲,2026-01-04,23.494914,120.540253,3.084918e-09
72N240,七股研究中心,2026-01-04,23.081672,120.062894,2.1143298e-06
C0C700,中壢,2026-01-04,24.977661,121.256375,5.3202302e-06
C0M690,水上,2026-01-04,23.419734,120.388909,1.0173568e-08
C0V690,鼓山,2026-01-04,22.623325,120.275575,0.047129244
C0O860,大內,2026-01-04,23.11885,120.36083,1.109739e-05
C0Z200,萬榮,2026-01-04,23.709219,121.420106,1.0686911e-08
C0T9D0,和中,2026-01-04,24.26676,121.74103,3.9824787e-08
C2S9A0,北份子寮,2026-01-04,22.78561,121.07813,0.11648496
C1O921,楠西,2026-01-04,23.183511,120.484083,2.4641318e-09
C0AJ30,淡水觀海,2026-01-04,25.184591,121.408616,0.1147573
C0V810,左營,2026-01-04,22.67491,120.28491,0.012200412
C0UA70,桃源谷,2026-01-04,24.962606,121.888875,5.9071237e-08
C0X130,官田,2026-01-04,23.193217,120.315422,9.7700095e-08
C1H000,翠峰,2026-01-04,24.109397,121.205211,1.8739843e-08
C0UA90,石城,2026-01-04,24.980444,121.951214,2.7790605e-07
C1E681,南勢山,2026-01-04,24.421669,120.923831,7.650334e-09
C0A9F0,內湖,2026-01-04,25.079422,121.57545,7.298992e-07
C0K291,宜梧,2026-01-04,23.536281,120.169329,6.0476566e-07
C1K540,口湖,2026-01-04,23.585344,120.180517,6.324419e-07
C0R780,滿州,2026-01-04,22.024403,120.839892,0.99990284
C0V870,文安,2026-01-04,22.8025,120.2164,0.008686488
C0U650,玉蘭,2026-01-04,24.675286,121.587061,4.0176275e-08
C0R640,東港,2026-01-04,22.46247,120.44074,1.270737e-08
C0AJ80,板橋,2026-01-04,25.0107,121.4489,5.4977437e-07
C0S660,下馬,2026-01-04,23.150427,121.070312,1.0241555e-08
C2N190,烏樹,2026-01-04,23.32393,120.36989,9.499934e-09
C1H9B1,阿眉,2026-01-04,24.1263,120.994672,1.2639879e-08
C0UA20,多加屯,2026-01-04,24.368614,121.373189,2.457496e-08
C0E730,頭份,2026-01-04,24.688247,120.912206,1.5104136e-05
72V140,高改旗南分場,2026-01-04,22.857861,120.516667,2.3648288e-09
C0K480,莿桐,2026-01-04,23.761192,120.502372,1.8295288e-09
C0U980,坪林石牌,2026-01-04,24.86478,121.77396,4.0871353e-08
C0T900,西林,2026-01-04,23.8119,121.441458,9.589337e-09
C1I150,青雲,2026-01-04,23.793361,120.949378,1.172644e-09
C2E980,和興,2026-01-04,24.505319,120.923016,6.003796e-09
467350,澎湖,2026-01-04,23.565503,119.563094,0.995002
C0G800,埔鹽,2026-01-04,24.000394,120.431683,2.2193793e-08
C0H960,草屯,2026-01-04,23.973672,120.68085,6.1842925e-10
C1V780,多納林道,2026-01-04,22.888028,120.737917,2.5910516e-09
C0E920,通霄漁港,2026-01-04,24.498589,120.673876,4.5294252e-07
C0Z330,安通山,2026-01-04,23.290728,121.348528,7.76912e-09
C0AH10,永和,2026-01-04,25.01125,121.508111,5.7177357e-07
C0AK10,太平里,2026-01-04,25.134937,121.364899,0.039035745
C2G640,鹿港,2026-01-04,24.0753,120.430481,1.767086e-08
C1E890,國三N149K,2026-01-04,24.463414,120.680019,4.2907504e-07
C1R110,口社,2026-01-04,22.770111,120.645222,3.6064127e-10
C1M870,國三N285K,2026-01-04,23.550319,120.505833,2.9011593e-09
C1E480,鳳美,2026-01-04,24.554803,121.034747,5.849525e-09
C0T9M0,靜浦,2026-01-04,23.455167,121.495028,1.4174636e-08
C2H9M0,發祥,2026-01-04,24.154094,121.164517,8.262695e-09
C2G9C0,埔南,2026-01-04,23.99124,120.46969,2.2080677e-08
C0AI40,石牌,2026-01-04,25.115597,121.513139,7.298992e-07
C1F871,上谷關,2026-01-04,24.203483,121.018644,5.2626175e-09
C2H9G0,百勝,2026-01-04,24.051142,120.909361,1.2440635e-09
C0G880,二水,2026-01-04,23.810742,120.6173,7.426687e-10
C0R940,加祿堂,2026-01-04,22.3363,120.6217,0.9986475
C0W220,北竿,2026-01-04,26.220358,119.974881,0.00033776637
C0O960,崎頂,2026-01-04,22.959547,120.369317,1.337445e-07
C0TA40,秀林,2026-01-04,24.302864,121.731144,2.4025791e-08
C0S750,向陽,2026-01-04,23.248397,120.986133,1.811802e-08
C0T9F0,水璉,2026-01-04,23.797131,121.542514,8.700304e-09
C1M600,頭凍,2026-01-04,23.406364,120.603339,2.4942246e-09
467660,臺東,2026-01-04,22.752211,121.154586,0.9002967
C1D380,新埔,2026-01-04,24.84745,121.03834,4.257774e-07
C2G980,田頭村,2026-01-04,23.8263,120.444175,3.2353968e-09
C0V750,路竹,2026-01-04,22.854997,120.259439,0.004593975
C0N050,蚵寮,2026-01-04,23.301,120.1104,2.3884522e-07
C2X060,下營,2026-01-04,23.226806,120.256291,3.5126828e-07
72M700,南改鹿草分場,2026-01-04,23.416869,120.283061,3.1938892e-08
C1SA50,利嘉林道,2026-01-04,22.82325,121.009389,1.2721387e-08
C0UB70,太平山中間站,2026-01-04,24.542003,121.513453,2.1492466e-08
C0A940,金山,2026-01-04,25.223628,121.643967,0.0028169064
C1V340,大津,2026-01-04,22.888322,120.645986,4.2475612e-10
C0W180,七美,2026-01-04,23.219333,119.444892,0.99742275
C1F9C1,白冷,2026-01-04,24.182844,120.929889,3.3060883e-09
K2E710,苗改生物防治研究中心,2026-01-04,24.422861,120.871833,6.6619297e-09
C0N040,蘆竹溝,2026-01-04,23.2344,120.0961,2.3947885e-07
C0TB40,崇德,2026-01-04,24.166144,121.657414,1.6706956e-07
C0D760,大坪苗圃,2026-01-04,24.5362,121.1108,1.3076431e-08
C2W230,畜試所澎湖,2026-01-04,23.628342,119.513206,0.99369115
C0R880,後壁湖,2026-01-04,21.9457,120.7457,0.9951606
C1I280,埔中,2026-01-04,23.820778,120.642594,1.1332211e-09
467790,墾丁雷達站,2026-01-04,21.948235,120.808028,0.99940586
C0W190,望安,2026-01-04,23.380564,119.494075,0.99754786
C0Z170,卓溪,2026-01-04,23.3443,121.3029,1.3696065e-08
C0F850,東勢,2026-01-04,24.246428,120.833047,2.3788076e-09
466900,淡水,2026-01-04,25.164889,121.448906,0.0049832175
C0I370,魚池,2026-01-04,23.895703,120.94135,1.9660615e-09
C0C630,大溪,2026-01-04,24.882853,121.265547,1.5109189e-06
C0A520,山佳,2026-01-04,24.974944,121.402008,4.4560278e-07
C0I110,竹山,2026-01-04,23.761225,120.688156,7.630729e-10
82H840,茶改南部分場,2026-01-04,23.762528,120.7405,1.0596805e-09
C2SD80,再來山,2026-01-04,23.34371,121.44122,8.649286e-07
C0G660,溪湖,2026-01-04,23.94835,120.479122,6.2345946e-09
C1T800,洛韶,2026-01-04,24.204558,121.453956,1.833194e-08
C1T810,慈恩,2026-01-04,24.192044,121.388386,1.8233429e-08
C1E451,象鼻,2026-01-04,24.368617,120.940228,5.8730913e-09
C0AC60,三峽,2026-01-04,24.939025,121.369728,3.2720174e-05
C0I490,萬大林道,2026-01-04,23.928228,121.091411,7.148789e-09
C1I290,豐丘,2026-01-04,23.668178,120.887417,5.449508e-09
C1I320,奧萬大,2026-01-04,23.952956,121.178556,3.9548174e-09
C2M910,嘉義大學,2026-01-04,23.471325,120.485903,3.5781171e-09
C0U770,南澳,2026-01-04,24.44935,121.81022,3.281313e-08
C2TB30,吉安,2026-01-04,23.94538,121.54803,1.1835538e-08
C0A980,社子,2026-01-04,25.109508,121.469681,1.8455769e-06
C0V800,六龜,2026-01-04,22.997889,120.633583,5.28672e-10
C1G9D0,國一S218K,2026-01-04,23.890641,120.493253,7.438273e-09
C0E570,白沙屯,2026-01-04,24.549447,120.696803,2.4194276e-06
C2F9A0,中竹林,2026-01-04,24.103556,120.751061,9.417662e-10
C0FA40,臺中電廠,2026-01-04,24.2146,120.4907,2.150374e-06
C2G9A0,畜試所彰化,2026-01-04,23.86045,120.557964,1.2173792e-09
C0H9C0,合歡山,2026-01-04,24.143442,121.272547,3.9562e-08
G2M350,農試溪口農場,2026-01-04,23.58565,120.408111,1.16910925e-08
C0U860,頭城,2026-01-04,24.85323,121.8308,5.965377e-08
C0R580,南州,2026-01-04,22.48591,120.50274,1.0034802e-05
C0D430,峨眉,2026-01-04,24.6905,121.017189,3.7337003e-08
C0G780,秀水,2026-01-04,24.03405,120.503869,5.9075376e-09
72N100,臺南農改場,2026-01-04,23.0605,120.342194,1.0373826e-05
C0S900,蘭嶼高中,2026-01-04,22.04909,121.51214,0.57105726
C2TA60,六十石,2026-01-04,23.22477,121.31861,1.1072409e-08
C1F9W0,德基,2026-01-04,24.254783,121.190261,1.656535e-08
C2M980,安和,2026-01-04,23.51377,120.31593,2.618337e-08
C1Z120,壽豐,2026-01-04,23.870853,121.508081,1.2190038e-08
C0W160,烏坵,2026-01-04,24.9944,119.44956,0.81170434
C1I240,外大坪,2026-01-04,23.958697,120.917931,2.2151618e-09
C1I550,國六W023K,2026-01-04,23.979067,120.867742,9.327011e-10
C0R870,興海,2026-01-04,21.9752,120.8439,0.9992266
C0R140,瑪家,2026-01-04,22.682903,120.686639,1.8736617e-09
C0A530,坪林,2026-01-04,24.938183,121.70975,1.3224131e-07
C0X260,後壁,2026-01-04,23.366358,120.362326,7.890791e-08
C0Z230,和平,2026-01-04,24.30717,121.77007,2.7273487e-08
C0G770,福興,2026-01-04,24.041289,120.437669,2.2157925e-08
C0H9A0,神木村,2026-01-04,23.532742,120.843667,8.486888e-09
C0I460,南投,2026-01-04,23.911469,120.687331,6.10055e-10
C0I480,梅峰,2026-01-04,24.085272,121.173572,1.3528112e-08
C1V570,吉東,2026-01-04,22.85422,120.5454,4.8337717e-10
C2A560,福山,2026-01-04,24.776203,121.502811,4.1235854e-08
C0AH30,五分山,2026-01-04,25.07125,121.780794,5.930956e-08
C0FA10,松柏,2026-01-04,24.429115,120.617482,6.9290984e-08
72S200,東改班鳩分場,2026-01-04,22.829528,121.077694,1.0969023e-05
72HA00,中改埔里分場,2026-01-04,23.903208,120.963364,1.9036686e-09
C2H9W0,大坪頂農水,2026-01-04,24.043122,120.932781,2.0882243e-09
C0C650,平鎮,2026-01-04,24.897503,121.214636,6.215031e-07
C0S930,延平,2026-01-04,22.902581,121.084058,9.613239e-08
C0UA60,樟樹山,2026-01-04,24.41393,121.78325,1.2460304e-08
C2UC10,出水溪,2026-01-04,24.615822,121.652253,2.3129584e-08
C1S670,摩天,2026-01-04,23.199503,121.027,1.4844015e-08
C2C590,觀音,2026-01-04,25.027072,121.153317,0.07638796
C0V630,茄萣,2026-01-04,22.906642,120.182608,4.1830614e-08
466940,基隆,2026-01-04,25.133314,121.740475,9.577968e-07
C0X050,東河,2026-01-04,23.296598,120.385608,7.9628455e-09
C0R770,保力,2026-01-04,22.071122,120.764111,0.9997512
G2L020,農試嘉義分所,2026-01-04,23.485028,120.473806,3.4711933e-09
C0X240,關子嶺,2026-01-04,23.331169,120.508025,6.9231204e-10
C0I380,集集,2026-01-04,23.828206,120.801467,7.692572e-10
466990,花蓮,2026-01-04,23.975128,121.613275,1.7696562e-08
C1V220,小關山,2026-01-04,23.154217,120.813603,8.603437e-09
C1F9G1,慶福山,2026-01-04,24.180853,120.848378,3.7044232e-09
C0FB20,雪山橋,2026-01-04,24.23192,120.9786,1.886612e-08
C0Z250,瑞穗林道,2026-01-04,23.49284,121.30688,1.311885e-08
C0D590,新豐,2026-01-04,24.87068,120.97721,0.997319
C0A870,五指山,2026-01-04,25.132153,121.608692,2.7718505e-07
C0UA50,西帽山,2026-01-04,24.555361,121.802628,2.3884834e-08
C2R980,竹田國中,2026-01-04,22.61532,120.52412,4.2392937e-08
C0X160,仁德,2026-01-04,22.968258,120.257689,6.880842e-06
C1H971,六分寮,2026-01-04,23.92507,120.6378,1.0615173e-09
C0W120,西嶼,2026-01-04,23.5626,119.468436,0.99571484
C0G650,員林,2026-01-04,23.946503,120.585597,3.30752e-09
C0AD50,鶯歌,2026-01-04,24.951533,121.346294,3.8864937e-06
C2H9Q0,北東眼山,2026-01-04,24.120939,121.189303,1.2594035e-08
C2H9T0,名間竹圍,2026-01-04,23.859914,120.637572,8.5981994e-10
C0S990,山豬窟,2026-01-04,22.318619,120.857372,1.30861615e-08
C0X190,安平,2026-01-04,22.993161,120.152181,3.863494e-06
C0K400,斗六,2026-01-04,23.720583,120.541127,1.849443e-09
12J990,口湖工作站,2026-01-04,23.589978,120.180394,6.319433e-07
C0O830,北寮,2026-01-04,23.079561,120.495008,4.4396622e-10
C1D410,白蘭,2026-01-04,24.579364,121.079947,1.1833507e-08
C0S970,加津林,2026-01-04,22.416211,120.926942,9.4543725e-07
C0D700,關西,2026-01-04,24.7977,121.1732,5.458957e-08
C0U750,龜山島,2026-01-04,24.841667,121.953133,4.9987783e-08
C0R810,內獅,2026-01-04,22.305064,120.642986,0.9986575
C1M390,龍美,2026-01-04,23.406728,120.654417,5.3163705e-09
C2K290,崙內,2026-01-04,23.69525,120.35601,7.3075526e-08
C2FB60,頭櫃山,2026-01-04,24.129842,120.858925,3.4567635e-09
C1H840,國三N238K,2026-01-04,23.841008,120.707711,8.5895446e-10
CAQ030,崎峰國小,2026-01-04,22.42565,120.49521,1.0034802e-05
C2E520,大湖,2026-01-04,24.414939,120.870872,6.813828e-09
467530,阿里山,2026-01-04,23.508208,120.813242,2.0760728e-08
C1E691,南湖,2026-01-04,24.40135,120.837533,6.8923196e-09
C0FA30,梧棲,2026-01-04,24.256003,120.523381,1.1815598e-06
C1V231,高中,2026-01-04,23.134911,120.716711,3.4966303e-09
C0AK30,硬漢嶺,2026-01-04,25.136097,121.426372,3.312251e-07
C0F9V0,新社,2026-01-04,24.200172,120.815806,2.8830218e-09
C0H890,埔里,2026-01-04,23.972169,120.952425,1.3984981e-09
C0R690,墾丁,2026-01-04,21.966756,120.810269,0.9999074
C0SD20,富山,2026-01-04,22.822383,121.190825,3.8547056e-05
C0F0D0,審馬陣,2026-01-04,24.381675,121.4203,3.964759e-08
C2W030,金門農試所,2026-01-04,24.448431,118.451786,7.9247553e-07
C0R820,白鷺,2026-01-04,22.454275,120.666219,4.0018784e-09
C0FB00,大雪山,2026-01-04,24.254668,121.007374,1.8595887e-08
C1V190,南天池,2026-01-04,23.27403,120.91176,2.0182528e-08
C0E940,雪見,2026-01-04,24.42595,121.01347,1.8753788e-08
K2E360,苗栗農改場,2026-01-04,24.495722,120.829111,1.6585078e-08
CAJ050,海口故事園區,2026-01-04,23.57543,120.14121,6.324419e-07
C2K280,四湖,2026-01-04,23.6304,120.22717,3.8072174e-06
C2H9D0,三隻寮,2026-01-04,24.093078,120.861578,1.8117043e-09
C0O990,媽廟,2026-01-04,22.99175,120.293525,9.388358e-06
C0D480,打鐵坑,2026-01-04,24.849664,121.150789,5.0198075e-08
C0Z220,和平林道,2026-01-04,24.343922,121.656317,9.069397e-09
C0TA10,花蓮漁港,2026-01-04,23.995322,121.638331,8.576089e-06
72C440,桃園農改場,2026-01-04,24.950944,121.030583,1.1881147e-06
C1E711,馬拉邦山,2026-01-04,24.367306,120.901656,5.6758513e-09
C0SB20,富岡,2026-01-04,22.792467,121.192669,0.14333037
C0D560,竹東,2026-01-04,24.767147,121.057881,3.9213344e-08
C0F9U0,南屯,2026-01-04,24.137006,120.637969,1.1785438e-08
C2SD60,明峰,2026-01-04,22.8671,121.11825,5.9091295e-08
C0M720,番路,2026-01-04,23.464657,120.554156,6.793982e-10
C0F0A0,雪山圈谷,2026-01-04,24.388594,121.236339,5.0557443e-08
C1A9N0,四十份,2026-01-04,24.934158,121.593283,1.12456625e-07
C0U760,東澳,2026-01-04,24.52196,121.83318,3.08145e-08
C0X230,鹽水,2026-01-04,23.272621,120.247641,1.6562971e-07
C2H9H0,苗改南投蜂場,2026-01-04,23.852589,120.693481,6.5656647e-10
C2TB70,達谷寮,2026-01-04,23.38,121.35968,1.5056106e-08
C0R950,萬隆國小,2026-01-04,22.507667,120.587817,2.0755175e-09
467540,大武,2026-01-04,22.35572,120.90374,0.9997718
C0V370,古亭坑,2026-01-04,22.893178,120.401947,6.417588e-09
C1I340,新興橋,2026-01-04,23.563333,120.868728,3.8816177e-09
C0SA80,土坂,2026-01-04,22.453108,120.887572,1.7728682e-07
C0R160,鹽埔,2026-01-04,22.739558,120.530778,8.0133333e-10
C0AC40,大屯山,2026-01-04,25.175675,121.522408,1.39825e-07
466850,五分山雷達站,2026-01-04,25.071182,121.781205,5.873072e-08
C2H9L0,馬烈霸,2026-01-04,24.1512,121.201772,1.5434775e-08
C1AI50,國三N016K,2026-01-04,25.034164,121.619664,1.4943291e-06
C2V920,匏子寮,2026-01-04,23.04905,120.55319,7.5361334e-10
C1V600,藤枝,2026-01-04,23.071961,120.757042,5.261373e-09
C1E601,南勢,2026-01-04,24.572486,120.734842,9.486915e-07
C0O980,新市,2026-01-04,23.061614,120.298197,2.4833043e-05
C0K420,西螺,2026-01-04,23.800407,120.467394,3.1951732e-09
C0Z050,佳心,2026-01-04,23.34567,121.21316,1.0631591e-08
C0AD30,蘆洲,2026-01-04,25.086594,121.472331,6.765197e-07
C0V610,梓官,2026-01-04,22.760558,120.267211,0.0058535226
K2F750,種苗改良場,2026-01-04,24.225972,120.800917,2.6426341e-09
C0UA80,大溪漁港,2026-01-04,24.941801,121.902955,3.2721917e-07
C1AI60,國一39K邊坡,2026-01-04,25.064361,121.383836,1.8452745e-07
C0W150,金寧,2026-01-04,24.457703,118.328989,2.3487891e-07
C0R960,內埔,2026-01-04,22.608483,120.570714,4.1972395e-08
V2C250,八德合作社,2026-01-04,24.93775,121.266389,2.060687e-06
C2H9S0,龍南,2026-01-04,23.953536,120.833183,3.5823373e-09
C0AH40,平等,2026-01-04,25.129142,121.577086,8.990789e-07
C0R540,佳冬,2026-01-04,22.419456,120.552375,1.2284895e-06
466950,彭佳嶼,2026-01-04,25.627975,122.079744,0.9999216
C0A890,雙溪,2026-01-04,25.036003,121.864242,2.3917642e-07
C0C480,桃園,2026-01-04,24.992425,121.323172,6.839215e-06
C0AH50,林口,2026-01-04,25.072181,121.38084,1.4265788e-07
A2K360,水試臺西試驗場,2026-01-04,23.717231,120.190522,8.419652e-06
C2M960,外寮,2026-01-04,23.562643,120.665688,5.190029e-09
C0F9S0,烏日,2026-01-04,24.107058,120.624103,2.3170903e-09
C2N180,鹿陶洋,2026-01-04,23.14325,120.48352,2.4612006e-09
C0C490,八德,2026-01-04,24.928708,121.283289,1.9735764e-06
C0R190,赤山,2026-01-04,22.592333,120.614306,2.5810348e-08
C0T820,天祥,2026-01-04,24.179597,121.495639,1.2230259e-08
C1F9E1,龍安,2026-01-04,24.1605,120.831961,3.0006946e-09
C2SD50,順那,2026-01-04,23.04166,121.29332,6.0687435e-06
C0V820,小林,2026-01-04,23.148408,120.63325,1.1811628e-09
C2G870,芳苑,2026-01-04,23.922303,120.320025,0.036219824
C0E850,大河,2026-01-04,24.618069,120.948578,2.9230616e-08
C1U670,寒溪,2026-01-04,24.634,121.71691,1.8178355e-08
C0N020,城西,2026-01-04,23.0568,120.0956,1.6059478e-06
C1Z110,三棧,2026-01-04,24.11557,121.60501,1.33193945e-08
C0R280,檳榔,2026-01-04,22.076078,120.836777,0.027500968
C2H9J0,中台,2026-01-04,23.9996,120.938739,1.5700361e-09
C0F9L0,后里,2026-01-04,24.310436,120.729725,2.0211564e-09
467441,高雄,2026-01-04,22.730432,120.312516,0.014836107
C0Z180,新城,2026-01-04,24.040486,121.604878,1.7164664e-08
C0D540,橫山,2026-01-04,24.71116,121.11693,2.4585603e-08
C1D420,太閣南,2026-01-04,24.632808,121.160575,2.2664617e-08
C1E770,公館,2026-01-04,24.526914,120.830806,9.909581e-09
CAN130,水試所海水繁養殖中心,2026-01-04,23.120802,120.07968,2.1143298e-06
C1I430,翠華,2026-01-04,24.191961,121.224339,2.362828e-08
C1M400,菜瓜坪,2026-01-04,23.251928,120.576103,7.7968004e-10
C0G730,二林,2026-01-04,23.903325,120.376081,2.31752e-08
72M360,南改義竹分場,2026-01-04,23.360694,120.279361,4.1281183e-08
V2K620,麥寮合作社,2026-01-04,23.753836,120.294783,9.630086e-08
C0Z070,舞鶴,2026-01-04,23.46811,121.37407,7.8501365e-09
C0B040,大武崙,2026-01-04,25.166676,121.706993,7.387327e-07
C1Z030,紅葉,2026-01-04,23.493119,121.338806,8.4069445e-09
C1I050,丹大,2026-01-04,23.753747,121.141147,1.8037406e-08
C0I080,信義,2026-01-04,23.689694,120.851036,1.3938326e-09
C2TB80,庄子底,2026-01-04,23.71794,121.49438,1.2477094e-08
C0D750,樂山林道6k,2026-01-04,24.49999,121.08773,2.59128e-08
C2M920,朴子農改,2026-01-04,23.469889,120.259383,3.3748226e-08
C2A880,福隆,2026-01-04,25.017842,121.942083,3.0270562e-07
C0Z160,鳳林,2026-01-04,23.746114,121.453411,1.2231472e-08
C0UB80,翠峰林道6K,2026-01-04,24.49773,121.568625,3.3195107e-08
C0V210,復興,2026-01-04,23.222403,120.806089,3.1378407e-09
C0H990,昆陽,2026-01-04,24.121322,121.273642,3.042908e-08
C0R741,獅子,2026-01-04,22.202308,120.705236,0.98898125
C0S710,鹿野,2026-01-04,22.917711,121.122994,3.095671e-08
C0I530,小奇萊,2026-01-04,24.131764,121.295717,3.471738e-08
C0FA70,大雪山埡口,2026-01-04,24.26867,121.03062,2.7365719e-08
C2K630,荷苞,2026-01-04,23.657717,120.595144,9.499712e-10
C0Z080,富源,2026-01-04,23.587642,121.378225,1.2790606e-08
C2M9E0,旺來山,2026-01-04,23.555153,120.486463,2.8723355e-09
C0SB10,美和,2026-01-04,22.682078,121.060236,0.66516817
C2K620,馬光農場,2026-01-04,23.721453,120.378864,3.6079695e-09
C1I140,卡奈托灣,2026-01-04,23.754364,121.087872,8.50653e-09
C0I520,玉山風口,2026-01-04,23.470489,120.955994,4.473711e-08
C1G691,下水埔,2026-01-04,23.816114,120.5676,1.4681762e-09
C0X110,臺南市南區,2026-01-04,22.961189,120.188378,7.908684e-06
C0V680,仁武,2026-01-04,22.701083,120.347722,0.014654102
C2G840,北斗,2026-01-04,23.877586,120.514222,7.39249e-09
C2TB90,長橋,2026-01-04,23.6874,121.46186,1.2127261e-08
C0R900,竹坑,2026-01-04,22.1385,120.7022,0.99965507
C0G860,社頭,2026-01-04,23.897647,120.5862,3.0330907e-09
C0X150,安定,2026-01-04,23.102614,120.227839,4.1692172e-05
C0R590,里港,2026-01-04,22.77919,120.49459,8.058753e-09
C0E610,馬都安,2026-01-04,24.451272,120.930192,6.6678028e-09
C0E550,明德,2026-01-04,24.583486,120.885411,6.4957635e-09
C0R150,三地門,2026-01-04,22.709889,120.639944,4.4446274e-10
C0G910,花壇,2026-01-04,24.032076,120.549461,5.635098e-09
C1D400,鳥嘴山,2026-01-04,24.71909,121.28387,2.1655415e-08
C0K500,元長,2026-01-04,23.64981,120.315024,9.302466e-08
C0F0B0,石岡,2026-01-04,24.276061,120.777644,2.1630224e-09
C2V250,甲仙,2026-01-04,23.080106,120.591758,7.2757667e-10
C0SA20,金崙山,2026-01-04,22.567419,120.959667,1.2047262e-08
C0V350,溪埔,2026-01-04,22.738578,120.446797,1.23236426e-08
C0M660,溪口,2026-01-04,23.604131,120.403569,1.1665743e-08
C1S880,壽卡,2026-01-04,22.238911,120.858903,1.1691688e-05
72D680,桃改新埔分場,2026-01-04,24.834444,121.066111,4.247971e-07
