站號,站名,日期,lat,lon,BLBTSLS
C0R710,龍磐,2026-05-01,21.931672,120.838942,0.11686491
C1F9D1,白毛台,2026-05-01,24.158325,120.886933,1.32443e-09
C0G940,竹塘,2026-05-01,23.848253,120.386764,3.8678624e-07
467590,恆春,2026-05-01,22.003897,120.746339,0.22167936
C0U710,太平山,2026-05-01,24.505486,121.525656,1.1998921e-08
C0E820,獅潭,2026-05-01,24.539133,120.920042,0.0012106698
C2SD70,二層坪,2026-05-01,22.94105,121.16838,0.0001520426
C0V880,興達,2026-05-01,22.8778,120.2127,0.05790555
C0SB30,新蘭,2026-05-01,22.869214,121.223228,0.114317544
C2R970,屏科大,2026-05-01,22.648275,120.619247,3.3955875e-08
C1Z130,銅門,2026-05-01,23.965694,121.492842,1.9051417e-05
C0AD40,土城,2026-05-01,24.973208,121.445169,1.0905971e-07
CAN140,六官養殖協會,2026-05-01,23.22881,120.29962,0.5132413
C0X180,山上,2026-05-01,23.0757,120.363253,0.0006514474
C0F9Z0,雪山東峰,2026-05-01,24.388792,121.268675,1.3053057e-08
C1M480,獨立山,2026-05-01,23.537022,120.607797,1.1630058e-09
C0X220,學甲,2026-05-01,23.230367,120.182187,0.5132413
467650,日月潭,2026-05-01,23.881325,120.90805,1.5230379e-09
A2K570,古坑(花卉中心),2026-05-01,23.633531,120.552392,7.357243e-08
C0K600,箔子寮,2026-05-01,23.6197,120.14,0.58004224
C0G830,埤頭,2026-05-01,23.866003,120.452806,2.8491453e-07
C0S950,七塊厝,2026-05-01,22.954453,121.229922,4.898056e-07
467110,金門,2026-05-01,24.407306,118.289281,0.4484994
C0AH80,深坑,2026-05-01,25.002703,121.628328,0.7940305
C0A970,三貂角,2026-05-01,25.007606,122.002058,0.99760526
C2D730,寶山農場,2026-05-01,24.732444,120.976153,0.0062997662
C0K430,褒忠,2026-05-01,23.690938,120.303634,0.993452
467480,嘉義,2026-05-01,23.495925,120.432906,9.156879e-09
C0V400,阿公店,2026-05-01,22.804194,120.355528,0.10132729
C2S800,華源,2026-05-01,22.65783,121.0232,0.00032953767
C2SA40,瑞和,2026-05-01,22.974361,121.156697,0.00029495714
C0E960,觀霧分站,2026-05-01,24.505781,121.113921,3.573677e-09
467550,玉山,2026-05-01,23.48718,120.95943,2.4045274e-08
C0R440,大漢山,2026-05-01,22.405264,120.753181,1.0252148e-08
C0SD30,東清國小,2026-05-01,22.057128,121.564922,0.68601453
C1F9B1,桐林,2026-05-01,24.066172,120.735194,5.677868e-08
C2I210,蘆竹湳,2026-05-01,23.93398,120.81209,1.6333392e-09
C2H9U0,鳳鵬,2026-05-01,23.763919,120.788061,7.625713e-09
C0K390,土庫,2026-05-01,23.679029,120.395574,3.8678624e-07
C1I450,望鄉山,2026-05-01,23.594153,120.944286,1.0574297e-08
C0E910,海埔,2026-05-01,24.648767,120.772435,0.94685364
B2E890,畜試北區分所,2026-05-01,24.527806,120.770972,0.4025196
C0R750,四林格山,2026-05-01,22.076989,120.802439,0.99814373
C0F0C0,中坑,2026-05-01,24.248517,120.903319,2.0532003e-09
C1I121,大鞍,2026-05-01,23.678381,120.760017,1.5195849e-09
C2G9E0,移民庄,2026-05-01,23.9784,120.40283,0.96277404
72U480,花改蘭陽分場,2026-05-01,24.686306,121.716583,4.5440316e-08
C0A770,科教館,2026-05-01,25.096356,121.516507,1.2823455e-07
C0AJ60,六塊厝,2026-05-01,25.24,121.4481,0.9969885
C0R620,墾雷,2026-05-01,21.900836,120.855269,0.18519185
467420,永康,2026-05-01,23.038386,120.2367,0.023851583
C2M530,奮起湖,2026-05-01,23.493903,120.699253,1.302793e-09
C0I410,名間,2026-05-01,23.837053,120.701447,1.2008485e-07
A2C560,農工中心,2026-05-01,24.985917,121.239833,0.9335976
C0V740,旗山,2026-05-01,22.888614,120.483597,2.3010958e-07
C0Z061,玉里,2026-05-01,23.3215,121.339656,0.0007659457
C0S840,南田,2026-05-01,22.279725,120.889208,0.084362864
C1I470,杉林溪,2026-05-01,23.639517,120.786444,1.9185664e-09
C1X040,東原,2026-05-01,23.291597,120.463822,4.5522988e-08
C0R660,枋寮,2026-05-01,22.367722,120.590647,0.0005461903
C0K450,大埤,2026-05-01,23.646074,120.431537,2.8491453e-07
C0UA00,土場,2026-05-01,24.576533,121.495333,7.953969e-08
467080,宜蘭,2026-05-01,24.763975,121.756528,5.0116473e-08
C0N030,四草,2026-05-01,23.0235,120.1116,0.07062694
467410,臺南,2026-05-01,22.99328,120.20492,0.019136569
C0V650,彌陀,2026-05-01,22.783806,120.246361,0.41777363
C0D660,新竹市東區,2026-05-01,24.798681,120.986942,0.023327814
82S580,茶改東部分場,2026-05-01,22.907694,121.130139,0.00029495714
C0SB40,興隆,2026-05-01,22.913661,121.257469,0.08610545
467050,新屋,2026-05-01,25.006725,121.047492,0.969597
C0C710,大溪永福,2026-05-01,24.892936,121.324975,0.91420096
C0FA20,溫寮,2026-05-01,24.372177,120.583125,0.94685364
C0V640,湖內,2026-05-01,22.887139,120.2445,0.023851583
C0R910,下寮,2026-05-01,22.3929,120.5548,0.0005461903
C0Z020,明里,2026-05-01,23.208717,121.262342,3.3106644e-05
C0M770,嘉義梅山,2026-05-01,23.585398,120.555587,3.1204725e-09
C0C660,楊梅,2026-05-01,24.912375,121.143047,0.87069297
C0SD40,牛頭山,2026-05-01,22.676661,121.506944,0.9821172
C1E511,新開,2026-05-01,24.347703,120.827019,5.056417e-09
G2F820,農試所(霧峰),2026-05-01,24.031261,120.688133,1.3813367e-07
C2M990,大巃頂,2026-05-01,23.5547,120.61439,1.5518808e-09
C1I070,和社,2026-05-01,23.591131,120.888861,1.1085125e-09
C2E990,新坪頂,2026-05-01,24.30201,120.8574,2.2890954e-09
C0TA80,立霧山,2026-05-01,24.183258,121.641899,2.2647116e-08
C2F000,大肚,2026-05-01,24.15295,120.572117,6.6099477e-09
C1S850,豐南,2026-05-01,23.122139,121.262389,2.2544913e-07
C2M9B0,西興,2026-05-01,23.2428,120.57617,3.2729979e-09
C2A920,富貴角,2026-05-01,25.263783,121.565258,0.998783
C0T960,光復,2026-05-01,23.660694,121.424964,1.0295179e-06
C0F9M0,豐原,2026-05-01,24.254322,120.720692,1.1293829e-08
C0R720,旭海,2026-05-01,22.205403,120.887614,0.3050542
C0V710,苓雅,2026-05-01,22.622742,120.330669,0.22208257
C0C740,觀音工業區,2026-05-01,25.064764,121.114856,0.9706415
CAC040,拉拉山,2026-05-01,24.699317,121.427133,9.382883e-09
C0V790,萬山,2026-05-01,22.905944,120.688056,1.8927811e-07
U2HA30,臺大和社,2026-05-01,23.590856,120.888864,1.1085125e-09
C2H9K0,屯原,2026-05-01,24.067969,121.209389,3.5560528e-09
C0AJ90,澳底,2026-05-01,25.0552,121.9253,0.8823816
C0Z100,東華,2026-05-01,23.89525,121.549833,1.1825962e-05
C0G970,三豐,2026-05-01,23.882,120.2895,0.9948624
C0V900,汕尾,2026-05-01,22.4782,120.4151,0.0008936887
C1R630,龍泉,2026-05-01,22.66701,120.59091,8.164722e-08
C1AC50,關渡,2026-05-01,25.133486,121.469331,0.99859244
C0C800,四稜,2026-05-01,24.64733,121.4293,7.819949e-09
C0F9I0,神岡,2026-05-01,24.272481,120.658314,1.538425e-08
C0K460,斗南,2026-05-01,23.678734,120.478359,2.562472e-07
C2O810,曾文,2026-05-01,23.219681,120.497328,1.482112e-07
467280,後龍,2026-05-01,24.648563,120.831834,0.85892206
C1F9J1,清水林,2026-05-01,24.071242,120.820419,1.2842571e-09
C2A650,火燒寮,2026-05-01,25.002719,121.742892,0.0350952
466930,竹子湖,2026-05-01,25.162078,121.544547,0.13117062
C1I220,樟湖,2026-05-01,23.905333,120.846983,1.4839817e-09
C0I390,仁愛,2026-05-01,24.022122,121.132206,1.8318858e-09
C0Z300,東里,2026-05-01,23.26853,121.30547,0.00037707892
C1V590,新發,2026-05-01,23.057019,120.646064,4.309461e-09
C0K510,水林,2026-05-01,23.572924,120.24597,0.58004224
72S590,東改賓朗果園,2026-05-01,22.813889,121.071278,1.0692283e-06
82A750,茶改北部分場,2026-05-01,24.955778,121.631222,6.715902e-05
C1A750,石碇服務區,2026-05-01,25.00872,121.646242,0.73915446
C0X300,鹿寮,2026-05-01,23.386047,120.477331,5.9775958e-09
C0K590,雲林東勢,2026-05-01,23.674192,120.255721,0.9897091
C2K310,港尾布雞,2026-05-01,23.74834,120.38439,3.8678624e-07
C0A570,桶後,2026-05-01,24.848222,121.597992,3.8786152e-07
C0G720,溪州,2026-05-01,23.851589,120.499093,2.562467e-07
C1V160,達卡努瓦,2026-05-01,23.279811,120.705319,1.7442242e-09
C2M410,馬頭山,2026-05-01,23.324361,120.582017,1.4822937e-08
C0V850,蚵仔寮,2026-05-01,22.7256,120.2527,0.41777363
C0S740,池上,2026-05-01,23.119628,121.209469,8.015105e-06
C1V390,尖山,2026-05-01,22.813153,120.367789,0.016987817
C0AH70,松山,2026-05-01,25.04871,121.55042,1.0905971e-07
C0N010,鯤鯓國小,2026-05-01,23.1879,120.0889,0.5132413
C0SA60,知本（水試所）,2026-05-01,22.702394,121.082761,0.17208228
C0T9I0,豐濱,2026-05-01,23.583897,121.514806,0.99881077
C0UB00,淡江大學蘭陽校園,2026-05-01,24.823239,121.730383,1.5045025e-08
C0W240,九宮,2026-05-01,24.423753,118.240186,0.5356028
C0T9N0,富里,2026-05-01,23.171639,121.249378,1.3458438e-05
U2HA50,臺大竹山,2026-05-01,23.756972,120.681556,1.3056388e-07
C0V840,鳳鼻頭,2026-05-01,22.5083,120.3591,0.0005461903
C0X140,西港,2026-05-01,23.125608,120.203108,0.39273256
72D080,桃改五峰分場,2026-05-01,24.612194,121.157167,2.4962519e-09
C2H9P0,伊拿谷,2026-05-01,23.963211,121.088264,1.3841996e-09
C2K250,崙背,2026-05-01,23.75553,120.31893,0.9897091
C2H9F0,柑林,2026-05-01,24.018658,120.847072,8.047832e-09
C0TA20,加灣,2026-05-01,24.082025,121.608944,0.02514674
C0V530,阿蓮,2026-05-01,22.883208,120.327508,0.007495756
C0FB30,八仙山苗圃,2026-05-01,24.192719,121.001366,2.25389e-09
C0E791,卓蘭,2026-05-01,24.3126,120.8244,4.638693e-09
C2R260,春日,2026-05-01,22.370361,120.628306,0.063858256
C1I030,武界,2026-05-01,23.913225,121.052483,1.414654e-09
C0R520,崁頂,2026-05-01,22.514781,120.506914,0.0005461903
C0R341,牡丹,2026-05-01,22.130036,120.792639,0.41988376
C0R930,萬丹,2026-05-01,22.5885,120.4851,0.0002715701
C0S760,紅石,2026-05-01,23.069131,121.126219,6.484041e-09
C2C410,中央大學,2026-05-01,24.967652,121.185165,0.91420096
C1M610,石磐龍,2026-05-01,23.496606,120.663506,1.2440493e-09
C2C830,中德,2026-05-01,24.981862,121.291344,0.94188493
C0C790,東眼山,2026-05-01,24.8284,121.40888,1.00828315e-08
C0UA10,鴛鴦湖,2026-05-01,24.590269,121.412228,1.028258e-08
C0R800,丹路,2026-05-01,22.204481,120.750989,0.08033605
C2R240,萬巒,2026-05-01,22.527306,120.625111,1.1811006e-05
C0G920,永靖,2026-05-01,23.924703,120.547533,0.84698814
C2M950,太和,2026-05-01,23.538372,120.702961,1.2884551e-09
C1A630,下盆,2026-05-01,24.771003,121.538622,2.9854593e-08
B2N890,畜產試驗所,2026-05-01,23.058972,120.336406,0.007495756
C0UA30,白嶺,2026-05-01,24.527819,121.519031,8.2889455e-09
467571,新竹,2026-05-01,24.828575,121.01455,0.037564814
C1V580,溪南(特生中心),2026-05-01,23.084972,120.788475,3.1033074e-09
C1T970,大農,2026-05-01,23.615233,121.413331,0.9937888
C0R650,竹田,2026-05-01,22.58486,120.54344,0.00045541965
C1H900,清流,2026-05-01,24.080775,120.962997,1.3841996e-09
C1C510,水尾,2026-05-01,24.940081,121.087161,0.9521634
C2N170,茅港尾,2026-05-01,23.2061,120.2624,0.5132413
C0F9X0,大雅(中科園區),2026-05-01,24.21528,120.62445,2.0729312e-08
C0SB60,白守蓮,2026-05-01,23.126769,121.401914,0.53995234
C0O970,虎頭埤,2026-05-01,23.021375,120.347878,0.0006514474
C0C730,中大臨海站,2026-05-01,24.966126,121.008581,0.091894574
C0X250,新營,2026-05-01,23.310689,120.316681,0.22352993
C0V700,三民,2026-05-01,22.645017,120.311233,0.22208257
C0U870,大礁溪,2026-05-01,24.791042,121.675047,1.3326204e-08
C0E870,高鐵苗栗,2026-05-01,24.60725,120.826094,0.9036819
C2S890,關山,2026-05-01,23.0395,121.175017,7.969709e-05
C0TA30,鹽寮,2026-05-01,23.845606,121.592664,3.015654e-05
C0M860,新美,2026-05-01,23.338017,120.683169,3.0000078e-09
C1E701,八卦,2026-05-01,24.491756,120.927619,3.5912173e-09
C2TA90,加納納,2026-05-01,23.466421,121.359867,0.96578103
C0I420,國姓,2026-05-01,24.037803,120.855072,6.0675034e-09
C2D720,關西工作站,2026-05-01,24.757275,121.184792,1.4652389e-07
C2AK30,信賢,2026-05-01,24.84108,121.53492,1.2939618e-07
C0S960,香蘭,2026-05-01,22.587569,120.993375,1.4283133e-05
467620,蘭嶼,2026-05-01,22.0369,121.55843,0.15325794
C2UC40,中城,2026-05-01,24.62865,121.74745,4.4335486e-08
72G600,臺中農改場,2026-05-01,24.003028,120.534389,0.93679434
C0Z210,瑞穗,2026-05-01,23.5239,121.39021,0.99912965
C0M820,達邦,2026-05-01,23.453994,120.749517,1.521145e-09
C0V860,南寮,2026-05-01,22.7616,120.2339,0.41777363
C0G740,大城,2026-05-01,23.852487,120.320935,0.9897091
C0R920,塭仔,2026-05-01,22.4169,120.5197,0.0008936887
C0R470,高樹,2026-05-01,22.826389,120.600806,4.4473285e-08
C0R680,佳樂水,2026-05-01,21.993578,120.861633,0.25224295
C1O870,大棟山,2026-05-01,23.31157,120.52226,1.9762953e-09
C0D360,梅花,2026-05-01,24.678347,121.208558,6.2488454e-09
C0Z190,富世,2026-05-01,24.14743,121.6297,0.038274873
C0AI10,屈尺,2026-05-01,24.92184,121.54475,7.263641e-08
B2U990,畜試東區分所,2026-05-01,24.669039,121.832561,5.4097224e-08
C0SB80,長濱漁港,2026-05-01,23.313644,121.459994,0.9996727
C0TA50,和仁,2026-05-01,24.241394,121.712472,0.21262914
C2AK40,漁光,2026-05-01,24.96875,121.72132,1.3985301e-07
C0V910,大樹,2026-05-01,22.684645,120.432803,1.146579e-07
C1R610,西大武山,2026-05-01,22.617719,120.7322,1.0126969e-08
C0G900,線西,2026-05-01,24.143358,120.443536,0.9717403
C0M700,竹崎,2026-05-01,23.526178,120.555508,3.5739018e-09
C2E880,三義,2026-05-01,24.405478,120.749819,5.196549e-08
C0C720,竹圍,2026-05-01,25.112692,121.239824,0.9706415
C0F9P0,清水,2026-05-01,24.312297,120.562242,2.7683026e-07
C0Z150,吉安光華,2026-05-01,23.930925,121.595153,3.015654e-05
C0FA80,小雪山天池,2026-05-01,24.28025,121.02627,7.840649e-09
467300,東吉島,2026-05-01,23.25727,119.66762,0.9969408
C1D640,外坪(五指山),2026-05-01,24.644447,121.090961,1.221613e-08
C2R9A0,高士國小,2026-05-01,22.12553,120.84653,0.17613909
C0F9O0,潭子,2026-05-01,24.213106,120.703933,1.7327952e-08
C2H9R0,卓社,2026-05-01,23.887894,121.000086,2.2271258e-09
72T250,花蓮農改場,2026-05-01,23.975222,121.563889,1.1353394e-05
C0E780,銅鑼,2026-05-01,24.489681,120.790853,0.011186573
C1T950,太安,2026-05-01,23.666719,121.370128,2.9415559e-09
C0E830,苑裡,2026-05-01,24.439714,120.653053,0.9036819
467270,田中,2026-05-01,23.873803,120.581286,1.931282e-07
C0SA10,檳榔四格山,2026-05-01,22.810031,121.109308,3.687208e-07
C1T830,布洛灣,2026-05-01,24.17184,121.57127,6.4606934e-07
C0F970,大坑,2026-05-01,24.173142,120.722289,2.6857565e-08
C1U920,思源,2026-05-01,24.393125,121.347214,3.4879244e-09
C2H9Y0,松茗,2026-05-01,23.8167,120.650765,4.0095873e-09
C0A931,三和,2026-05-01,25.233153,121.595236,0.9986
C0I010,廬山,2026-05-01,24.033311,121.181808,2.2162903e-09
C2M940,日野賀,2026-05-01,23.434056,120.727169,1.2348884e-09
C0R860,鼻頭,2026-05-01,22.1043,120.8979,0.22167936
C2I260,北坑,2026-05-01,23.92463,121.00683,1.3756167e-09
C0UB20,壯圍,2026-05-01,24.7359,121.8163,5.4097224e-08
C0R790,九棚,2026-05-01,22.14195,120.889281,0.13345763
C0W110,東莒,2026-05-01,25.9652,119.98069,0.96777874
C1U930,粉鳥林,2026-05-01,24.497088,121.842479,0.97412354
C0S830,長濱,2026-05-01,23.286817,121.411975,0.8297213
C1F9F1,伯公龍,2026-05-01,24.272392,120.849047,2.6772191e-09
C0UB90,太平山莊,2026-05-01,24.494171,121.536209,1.2146892e-08
C0E810,西湖,2026-05-01,24.562947,120.7485,0.83825046
C1I440,新高口,2026-05-01,23.478744,120.878939,5.5595555e-09
C0O840,王爺宮,2026-05-01,23.222064,120.40085,1.482112e-07
C0T9G0,鳳林山,2026-05-01,23.735269,121.420131,1.8859463e-08
C0X080,佳里,2026-05-01,23.173039,120.145086,0.5132413
C0FB70,大甲溪埔,2026-05-01,24.370625,120.620067,0.85892206
C0Z310,清水斷崖,2026-05-01,24.218294,121.689142,0.0065788836
C0M680,太保,2026-05-01,23.455062,120.331455,0.31158948
C1S820,金峰,2026-05-01,22.590969,120.933236,2.3069564e-05
C0AD10,八里,2026-05-01,25.150211,121.403947,0.99719214
C2K240,草嶺,2026-05-01,23.59555,120.693461,1.2428967e-09
C1SA70,都蘭,2026-05-01,22.87794,121.226881,0.08610545
C0K440,二崙,2026-05-01,23.772797,120.408944,3.066944e-07
C1A760,坪林交控,2026-05-01,24.94284,121.713442,0.11786314
C0F9N0,大里,2026-05-01,24.092464,120.701378,1.5226516e-07
C0SA90,達仁林場,2026-05-01,22.264347,120.823972,0.55386823
C1R290,石門山,2026-05-01,22.112611,120.756597,0.97528225
42HA10,萬大發電廠,2026-05-01,23.978875,121.139639,1.5743362e-09
C0R890,山海,2026-05-01,21.9878,120.7091,0.30414426
C0T9A0,月眉山,2026-05-01,23.809928,121.539828,2.6230257e-08
C0AC70,信義,2026-05-01,25.037822,121.564597,1.0905971e-07
C0K560,棋山,2026-05-01,23.68645,120.603417,5.1826813e-08
C2FB50,出雲,2026-05-01,24.206469,120.902794,1.6751979e-09
C1Z240,中平林道,2026-05-01,23.42115,121.26763,1.00360165e-08
U2H480,溪頭,2026-05-01,23.670306,120.798194,1.2659827e-09
C0M880,好美里,2026-05-01,23.3364,120.138,0.5132413
C0T9E0,大坑,2026-05-01,23.880628,121.581981,2.8229158e-07
C0K530,臺西,2026-05-01,23.701547,120.197559,0.993452
C1E900,國一N128K,2026-05-01,24.560997,120.844186,0.5909319
C0AJ50,水湳洞,2026-05-01,25.123695,121.862238,0.8630901
C0AI20,白沙灣,2026-05-01,25.283128,121.519058,0.9973381
C2V310,美濃,2026-05-01,22.898792,120.51907,2.6926742e-07
C0A860,大坪,2026-05-01,25.165914,121.632969,0.00050018163
C1U850,觀音海岸,2026-05-01,24.38319,121.77856,3.090807e-07
C2K610,草嶺石壁,2026-05-01,23.602469,120.707731,1.2294572e-09
C0U950,鶯子嶺,2026-05-01,24.89754,121.79244,4.531793e-08
C0O900,善化,2026-05-01,23.112883,120.297219,0.05790555
C0K550,蔦松,2026-05-01,23.514319,120.229736,0.58004224
E2P980,林試六龜中心,2026-05-01,22.991703,120.645722,8.745575e-09
C0E590,通霄,2026-05-01,24.471892,120.704622,0.7541938
C1I310,西巒,2026-05-01,23.754486,120.883956,1.5594829e-09
C0A550,泰平,2026-05-01,24.971197,121.823711,6.715902e-05
C2UC30,金洋,2026-05-01,24.42465,121.74573,0.95435464
C0I360,水里,2026-05-01,23.812553,120.849792,1.9844629e-08
C0R830,高士,2026-05-01,22.121825,120.836781,0.99542403
C1I101,溪頭,2026-05-01,23.661789,120.807647,2.2831825e-09
C0AJ20,野柳,2026-05-01,25.20703,121.690021,0.9973381
C0B060,暖暖,2026-05-01,25.0957,121.7403,0.73915446
C1H920,長豐,2026-05-01,24.102039,120.879897,1.2961306e-09
C2S9B0,利吉,2026-05-01,22.86246,121.15486,0.001144028
C0V360,內門,2026-05-01,22.975481,120.466769,1.1880268e-07
C0R850,林邊,2026-05-01,22.4634,120.5339,0.00045541965
C0E930,龍鳳,2026-05-01,24.700034,120.859125,0.091894574
C0U910,冬山,2026-05-01,24.63373,121.7937,5.4097224e-08
C1E721,泰安,2026-05-01,24.489017,120.968036,3.0750371e-09
82H320,茶改中部分場,2026-05-01,23.875611,120.913583,1.3563682e-09
C0M750,布袋,2026-05-01,23.380878,120.167789,0.6775472
C1S860,利嘉,2026-05-01,22.809417,121.050528,8.4380495e-08
E2S980,林試太麻里1,2026-05-01,22.598922,120.980044,0.0012112603
C0X170,關廟,2026-05-01,22.963017,120.327797,0.0022160693
C0V720,林園,2026-05-01,22.507747,120.394511,0.00045541965
C2M9G0,沄水,2026-05-01,23.38293,120.52666,2.9060605e-09
C1I510,線浸林道,2026-05-01,23.761508,120.832956,1.3315781e-09
C0D690,外湖,2026-05-01,24.917735,120.968711,0.091894574
C0C750,新興坑尾,2026-05-01,25.0061,121.0971,0.96340686
B2Q810,畜試南區分所,2026-05-01,21.945583,120.802167,0.25224295
C0S790,金崙,2026-05-01,22.538122,120.966875,7.514691e-06
C0AH90,福山植物園,2026-05-01,24.760717,121.58135,1.8840876e-08
C0I540,奇萊稜線,2026-05-01,24.109231,121.326456,1.5685224e-08
C0M850,表湖,2026-05-01,23.24186,120.64166,1.977472e-09
C0S770,大溪山,2026-05-01,22.478475,120.943325,0.6515232
C0AG80,中和,2026-05-01,24.991622,121.491792,1.0905971e-07
C0T790,大禹嶺,2026-05-01,24.186117,121.316086,1.179097e-08
C0T9B0,水源,2026-05-01,23.991861,121.537169,8.5429555e-08
C0R840,牡丹池山,2026-05-01,22.168389,120.841225,0.5581498
C1I131,桶頭,2026-05-01,23.641944,120.654117,1.1100236e-08
CAL110,布袋國中,2026-05-01,23.35893,120.18026,0.5132413
C2M9D0,何竹子腳,2026-05-01,23.53641,120.38203,1.0913437e-08
C0Z290,赤柯山,2026-05-01,23.36893,121.38293,2.3913689e-08
C0X280,將軍,2026-05-01,23.214999,120.13577,0.5132413
C0S690,太麻里,2026-05-01,22.60902,120.98533,7.590324e-08
C0U880,北關,2026-05-01,24.9072,121.8734,0.8843262
CAW010,東引,2026-05-01,26.3588,120.4836,0.9994145
C0G810,埔心,2026-05-01,23.947633,120.525456,0.91346544
C0U970,大福,2026-05-01,24.80064,121.81389,5.4097224e-08
C2H9N0,仁愛東眼,2026-05-01,24.026875,121.1205,2.7456257e-09
C1E670,南礦,2026-05-01,24.538278,121.002836,2.6766624e-09
C0M520,東後寮,2026-05-01,23.369908,120.248065,0.5132413
C1E461,松安,2026-05-01,24.397972,120.986022,2.8565297e-09
C2N160,西拉雅風管處,2026-05-01,23.189481,120.335297,0.14811952
C2O850,環湖,2026-05-01,23.148665,120.4186,1.6308813e-06
C2M970,碧湖,2026-05-01,23.568632,120.624165,1.5311702e-09
C0A640,石碇,2026-05-01,24.993969,121.662917,0.11786314
E2S960,林試太麻里2,2026-05-01,22.598,120.99775,1.8375933e-05
C0F9Y0,桃山,2026-05-01,24.432739,121.303808,1.4470425e-08
C1I020,萬大,2026-05-01,23.979817,121.132261,1.85784e-09
C2UC20,長嶺,2026-05-01,24.70894,121.61162,7.558684e-08
C0U940,羅東,2026-05-01,24.68184,121.74934,4.881259e-08
C0M650,朴子,2026-05-01,23.43463,120.23902,0.58004224
C1I500,大尖山,2026-05-01,23.858572,120.994889,4.7481166e-09
C0FB40,中橫21.6k,2026-05-01,24.2499,121.1455,1.4714058e-09
C0G820,田尾,2026-05-01,23.901669,120.509389,0.91346544
E2K600,四湖植物園,2026-05-01,23.676986,120.163433,0.993452
C0S730,綠島,2026-05-01,22.6672,121.47533,0.97209394
12Q970,東港工作站,2026-05-01,22.479997,120.466058,0.0005461903
C1TA00,太魯閣,2026-05-01,24.15773,121.6236,0.000712938
466920,臺北,2026-05-01,25.037658,121.514853,1.0905971e-07
C0R600,舊泰武,2026-05-01,22.588194,120.664944,1.8770661e-05
466910,鞍部,2026-05-01,25.182586,121.529731,5.9851045e-05
C1I230,九份二山,2026-05-01,23.961944,120.845,1.2146307e-09
C2M810,里佳,2026-05-01,23.389125,120.716647,1.3031086e-09
C2A660,瑞芳,2026-05-01,25.113169,121.801147,0.6187443
C0R270,琉球嶼,2026-05-01,22.332244,120.362236,5.0066366e-05
C2V580,瑞山,2026-05-01,22.90304,120.43424,1.0022629e-07
C1T990,高寮,2026-05-01,23.394239,121.356808,0.99940413
C0G620,芬園,2026-05-01,24.015678,120.6213,0.014504923
C1Z140,荖溪,2026-05-01,23.890575,121.45964,2.6013625e-08
C1I201,中心崙,2026-05-01,23.728722,120.712097,1.4362547e-09
C1I400,凌霄,2026-05-01,24.018778,121.004456,2.6590918e-09
C1M640,十字,2026-05-01,23.492153,120.753683,1.6182223e-09
G2P820,農試鳳山分所,2026-05-01,22.646611,120.356083,0.101327255
C0Z270,蕃薯寮,2026-05-01,23.73835,121.540108,6.784432e-08
C2E420,竹南,2026-05-01,24.70898,120.88897,0.037564814
C2D480,打鐵坑,2026-05-01,24.849664,121.150789,5.038109e-08
C0FB10,出雲山苗圃,2026-05-01,24.23105,120.90475,2.0532003e-09
C0F9Q0,外埔,2026-05-01,24.347817,120.705686,2.5209808e-08
C0K580,高鐵雲林,2026-05-01,23.737456,120.417944,3.066944e-07
C2I090,鳳凰,2026-05-01,23.728081,120.787347,1.0726421e-09
C0U990,員山,2026-05-01,24.74435,121.72247,5.0116473e-08
C0V770,大社,2026-05-01,22.730306,120.346639,0.22208257
C0X120,麻豆,2026-05-01,23.183289,120.248611,0.39273256
C0C670,龍潭,2026-05-01,24.870056,121.221389,5.038109e-08
C0D680,香山濕地,2026-05-01,24.783581,120.914988,0.091894574
C0S980,勝林山,2026-05-01,22.430439,120.8938,7.3819604e-07
C0V730,大寮,2026-05-01,22.605614,120.395717,0.00027156985
C0R570,麟洛,2026-05-01,22.65078,120.52719,1.146579e-07
C2M930,石卓,2026-05-01,23.478744,120.702264,1.611271e-09
C0G9B0,和美,2026-05-01,24.105169,120.492131,0.96277404
C2I240,外大坪,2026-05-01,23.9587,120.91788,1.2975827e-09
CAG100,王功漁港,2026-05-01,23.96824,120.32586,0.9717403
C0X290,北門,2026-05-01,23.267772,120.125481,0.5132413
C2F930,大甲,2026-05-01,24.347667,120.640403,5.0077965e-08
C0D650,湖口,2026-05-01,24.904794,121.043628,0.008807362
C0U780,五結,2026-05-01,24.68637,121.79794,5.4097224e-08
C1I250,鯉潭,2026-05-01,23.961922,120.991131,1.2961306e-09
C0R130,阿禮,2026-05-01,22.742908,120.743678,9.626961e-09
C0X100,臺南市北區,2026-05-01,23.010394,120.194228,0.05790555
C0S920,金峰嘉蘭,2026-05-01,22.594789,120.960825,2.5887541e-06
C0V490,新興,2026-05-01,22.627422,120.298803,0.257818
C0F9K0,大安,2026-05-01,24.345061,120.588025,1.8703959e-07
C2E970,八甲,2026-05-01,24.535811,120.795983,0.0063234307
C0V440,鳳山,2026-05-01,22.646653,120.356122,0.10132729
C1T940,大觀,2026-05-01,23.714206,121.373133,2.5551186e-08
C0E740,造橋,2026-05-01,24.637056,120.864778,0.043448888
C0R100,尾寮山,2026-05-01,22.833111,120.683889,9.626961e-09
A2K630,臺大雲林校區,2026-05-01,23.730628,120.423903,2.8491453e-07
467990,馬祖,2026-05-01,26.169467,119.923158,0.1404041
C0D580,寶山,2026-05-01,24.735006,121.025192,0.0013413535
E2P990,林試扇平站,2026-05-01,22.9677,120.6857,6.5909127e-09
C0AI30,三重,2026-05-01,25.057328,121.500629,1.2823455e-07
C0AH00,汐止,2026-05-01,25.066881,121.658778,0.8823816
C1Z040,立山,2026-05-01,23.443356,121.327375,0.0007716075
466881,新北,2026-05-01,24.959207,121.525196,9.371886e-08
C0W130,花嶼,2026-05-01,23.40007,119.32276,0.96421057
C0A950,鼻頭角,2026-05-01,25.129036,121.923372,0.99952537
C0K470,林內,2026-05-01,23.748675,120.609642,7.357243e-08
C2F990,摩天嶺,2026-05-01,24.322458,120.936819,1.895849e-09
C2E430,南庄,2026-05-01,24.601775,121.000214,5.4441633e-05
82C160,茶改場,2026-05-01,24.908472,121.185333,0.64314896
C2TB60,南安,2026-05-01,23.29818,121.26157,9.280521e-05
C0Z320,清水林道,2026-05-01,23.27125,121.188272,5.2813938e-08
C0R760,南仁湖,2026-05-01,22.084681,120.863353,0.9825419
C0M670,大林,2026-05-01,23.600616,120.45841,9.156879e-09
C0M800,茶山,2026-05-01,23.299075,120.664767,4.0006496e-09
C0A9C0,天母,2026-05-01,25.117494,121.537169,1.0905971e-07
72K220,南改斗南分場,2026-05-01,23.634556,120.477333,1.931282e-07
72AI40,桃改樹林分場,2026-05-01,24.944503,121.386972,9.371886e-08
C0S910,蘭嶼燈塔,2026-05-01,22.081197,121.503117,0.4364612
C0B050,八斗子,2026-05-01,25.144754,121.79167,0.90008926
C0U900,內城,2026-05-01,24.71813,121.68766,4.14588e-08
C0X320,柳營,2026-05-01,23.253328,120.375253,6.446897e-06
C0M790,新港,2026-05-01,23.553269,120.345728,0.3878481
C0F9T0,西屯,2026-05-01,24.179494,120.641275,5.0077965e-08
C0E950,松安,2026-05-01,24.39792,120.98599,2.8565297e-09
C0SA30,都歷,2026-05-01,23.020333,121.323642,0.041525114
C0C620,蘆竹,2026-05-01,25.084275,121.265767,0.969597
C0R730,大坪頂,2026-05-01,22.024633,120.69355,0.11998195
C0AJ40,石門,2026-05-01,25.273672,121.601198,0.99876773
C0E750,苗栗,2026-05-01,24.564569,120.824575,0.71752113
C0T870,鯉魚潭,2026-05-01,23.935639,121.508944,6.310971e-07
C1V170,排雲,2026-05-01,23.463619,120.954147,2.0139343e-08
C2H950,中寮,2026-05-01,23.884447,120.766406,1.908665e-08
C0R350,貓鼻頭,2026-05-01,21.921774,120.7358,0.20812736
C0V660,岡山,2026-05-01,22.797078,120.294958,0.257818
C1H941,雙冬,2026-05-01,23.967378,120.802189,1.4352962e-09
C0AJ70,田寮,2026-05-01,25.2698,121.4886,0.9973381
C0AI00,五股,2026-05-01,25.07445,121.42728,3.427955e-08
C0Z280,德武,2026-05-01,23.47426,121.41071,0.9920958
C2RA10,大新,2026-05-01,22.67558,120.57788,8.164722e-08
C0R700,枋山,2026-05-01,22.246844,120.661086,0.08759823
C0C460,復興,2026-05-01,24.820208,121.352281,8.74244e-09
C2AA10,中八仙,2026-05-01,25.11576,121.49199,1.2823455e-07
C2K300,鹿南,2026-05-01,23.63855,120.3636,0.9897091
E2H360,蓮華池,2026-05-01,23.918333,120.885278,1.3106489e-09
C0M640,中埔,2026-05-01,23.42538,120.5229,3.5739087e-09
C2C810,八德蔬果,2026-05-01,24.97858,121.28187,0.94188493
C2M9F0,安溪寮,2026-05-01,23.350334,120.208039,0.5132413
C0W140,金沙,2026-05-01,24.488292,118.408778,0.98563486
C2A540,四堵,2026-05-01,24.8926,121.745736,0.0010108189
C0ACA0,新莊,2026-05-01,25.051478,121.446756,1.1196651e-07
C0R220,潮州,2026-05-01,22.534361,120.54,0.00027156985
U2HA40,臺大內茅埔,2026-05-01,23.689722,120.851117,2.2186886e-09
467490,臺中,2026-05-01,24.145736,120.684075,5.422553e-08
C0UB60,明池,2026-05-01,24.650688,121.475277,7.850061e-09
C0U960,翠峰湖,2026-05-01,24.510856,121.608044,1.1568383e-08
E2HA20,林試畢祿溪站,2026-05-01,24.226944,121.308522,5.42702e-09
C2M9A0,大華,2026-05-01,23.4824,120.67491,1.333268e-09
C0V890,前鎮,2026-05-01,22.5718,120.3117,0.41777363
C1F941,雪嶺,2026-05-01,24.280586,121.026642,7.840649e-09
C2H9E0,國姓南港,2026-05-01,23.911108,120.846556,1.5372333e-09
C0AC80,文山,2026-05-01,25.00235,121.575728,7.263641e-08
C0F9R0,龍井,2026-05-01,24.184536,120.528972,0.96277404
C0M760,民雄,2026-05-01,23.551754,120.428457,9.156879e-09
C0UA40,西德山,2026-05-01,24.560647,121.752608,2.1939286e-08
C2TA70,赤科坪,2026-05-01,23.39885,121.39168,2.1016774e-07
C1T920,中興,2026-05-01,23.769503,121.498653,3.595363e-06
C0D550,雪霸,2026-05-01,24.526972,121.11605,5.8239644e-09
C2F860,梨山,2026-05-01,24.247522,121.243669,5.6575526e-09
C0R320,車城,2026-05-01,22.0744,120.716247,0.26860926
C1S870,南美山,2026-05-01,23.15025,121.382333,3.090651e-05
C0B020,基隆嶼,2026-05-01,25.19141,121.78391,0.8630901
C1U501,牛鬥,2026-05-01,24.637836,121.573656,1.2431377e-06
C0M730,嘉義市東區,2026-05-01,23.457673,120.460531,9.156879e-09
C2R990,泰武,2026-05-01,22.60686,120.69765,1.2611576e-07
C0S700,知本,2026-05-01,22.684866,121.005642,9.124211e-08
C1N001,沙崙,2026-05-01,22.935472,120.309406,0.007495756
C0V760,橋頭,2026-05-01,22.757806,120.30575,0.257818
C2V570,吉東,2026-05-01,22.85418,120.54539,6.946963e-08
C0G960,福寶,2026-05-01,24.0443,120.3814,0.9717403
C0X210,白河,2026-05-01,23.347466,120.414427,4.8808633e-06
C0S810,東河,2026-05-01,22.972672,121.303986,0.16692947
C2R170,屏東,2026-05-01,22.66027,120.49403,1.146579e-07
C0R670,楓港,2026-05-01,22.190131,120.692156,0.08759823
C0FA50,霧峰,2026-05-01,24.0419,120.6995,1.0954421e-07
C0UB10,蘇澳,2026-05-01,24.5969,121.8571,0.97412354
C0G950,防潮門,2026-05-01,24.1835,120.4871,0.9717403
C0M740,六腳,2026-05-01,23.492871,120.290625,0.3878481
C1R250,力里,2026-05-01,22.428117,120.629228,1.4323593e-05
C0K330,虎尾,2026-05-01,23.719183,120.442036,2.562467e-07
C2FA00,烏石坑,2026-05-01,24.273503,120.947617,1.927902e-09
C0V620,永安,2026-05-01,22.82315,120.236856,0.41777363
C1I330,楓樹林,2026-05-01,23.986803,121.076117,2.160837e-09
C0W200,湖西,2026-05-01,23.596314,119.67275,0.9929746
72Q010,高雄農改場,2026-05-01,22.709333,120.525889,1.0511962e-07
C0C680,龜山,2026-05-01,25.02846,121.38656,2.5519771e-08
C2V260,月眉,2026-05-01,22.971003,120.539853,6.744358e-08
C0V450,鳳森,2026-05-01,22.545064,120.392592,6.164443e-05
C0FA90,小雪山林道,2026-05-01,24.29515,121.03651,1.3509186e-08
C0U720,南山,2026-05-01,24.43742,121.38167,7.931287e-09
A2N290,臺南蘭花園區,2026-05-01,23.340258,120.379661,6.4468845e-06
C0R560,新園,2026-05-01,22.5434,120.461558,0.00045541965
C0U890,三星,2026-05-01,24.66812,121.65302,3.195565e-08
C1V300,御油山,2026-05-01,23.001983,120.715364,3.0056952e-09
C0U600,礁溪,2026-05-01,24.817539,121.765608,4.881259e-08
C1T980,龍澗,2026-05-01,24.023289,121.411328,2.0929903e-08
C0D670,海天一線,2026-05-01,24.831986,120.914438,0.091894574
C0SA00,歷坵,2026-05-01,22.520969,120.89185,0.3959089
C0M710,東石,2026-05-01,23.458927,120.15385,0.58004224
C0M780,鹿草,2026-05-01,23.41134,120.30835,0.29357976
C0U520,雙連埤,2026-05-01,24.753033,121.641303,1.3304109e-08
C0B010,七堵,2026-05-01,25.094819,121.71713,0.8604728
C0R480,長治,2026-05-01,22.693128,120.542622,8.856976e-08
C1V830,國三S383K,2026-05-01,22.781967,120.426475,3.6214434e-08
12Q980,恆春工作站,2026-05-01,22.079678,120.714425,0.26860926
C1O940,東山服務區,2026-05-01,23.286016,120.398472,4.8808633e-06
C1U840,東澳嶺,2026-05-01,24.5378,121.8485,8.938591e-08
C1D630,飛鳳山,2026-05-01,24.766464,121.119178,4.8911843e-08
C0S940,石寧山,2026-05-01,23.223772,121.406639,0.99902534
C0K410,北港,2026-05-01,23.573957,120.292802,0.3878481
C2M620,瑞里,2026-05-01,23.545133,120.675197,1.2286695e-09
C0SB70,小港漁港,2026-05-01,23.158558,121.400431,0.46617356
C2O950,安南,2026-05-01,23.076694,120.144861,0.07062694
C0F0E0,南湖圈谷,2026-05-01,24.363714,121.444667,3.53706e-08
467610,成功,2026-05-01,23.097486,121.373428,0.29549098
C0G890,伸港,2026-05-01,24.148933,120.484403,0.96277404
C2E540,龍溪,2026-05-01,24.606489,120.783933,0.91507727
C1V200,梅山,2026-05-01,23.268447,120.823556,1.6652649e-09
C0T9H0,加路蘭山,2026-05-01,23.682947,121.5274,1.492578e-08
C2O930,玉井,2026-05-01,23.126042,120.46055,1.6308813e-06
C1F911,新伯公,2026-05-01,24.221361,120.841069,3.4285417e-09
C0X200,左鎮,2026-05-01,23.056758,120.408522,2.3010958e-07
C2TB50,麻汝,2026-05-01,23.42554,121.39358,0.9218027
C0FA60,鞍馬山工作站,2026-05-01,24.267064,121.000793,4.643792e-09
C0SB50,叭嗡嗡,2026-05-01,23.047062,121.343223,0.53995234
C2R550,新埤,2026-05-01,22.467947,120.582894,0.00027156985
C1F891,稍來,2026-05-01,24.265689,121.001142,4.432363e-09
C2M9C0,紫雲,2026-05-01,23.494914,120.540253,4.534722e-09
72N240,七股研究中心,2026-05-01,23.081672,120.062894,0.07062694
C0C700,中壢,2026-05-01,24.977661,121.256375,0.91420096
C0M690,水上,2026-05-01,23.419734,120.388909,9.627108e-09
C0V690,鼓山,2026-05-01,22.623325,120.275575,0.257818
C0O860,大內,2026-05-01,23.11885,120.36083,0.007495756
C0Z200,萬榮,2026-05-01,23.709219,121.420106,6.310971e-07
C0T9D0,和中,2026-05-01,24.26676,121.74103,0.2635438
C2S9A0,北份子寮,2026-05-01,22.78561,121.07813,0.00067785353
C1O921,楠西,2026-05-01,23.183511,120.484083,7.5993324e-07
C0AJ30,淡水觀海,2026-05-01,25.184591,121.408616,0.9969885
C0V810,左營,2026-05-01,22.67491,120.28491,0.22208257
C0UA70,桃源谷,2026-05-01,24.962606,121.888875,1.8073448e-06
C0X130,官田,2026-05-01,23.193217,120.315422,0.22352993
C1H000,翠峰,2026-05-01,24.109397,121.205211,5.929392e-09
C0UA90,石城,2026-05-01,24.980444,121.951214,0.9983652
C1E681,南勢山,2026-05-01,24.421669,120.923831,2.576656e-09
C0A9F0,內湖,2026-05-01,25.079422,121.57545,1.0905971e-07
C0K291,宜梧,2026-05-01,23.536281,120.169329,0.6775472
C1K540,口湖,2026-05-01,23.585344,120.180517,0.58004224
C0R780,滿州,2026-05-01,22.024403,120.839892,0.18519185
C0V870,文安,2026-05-01,22.8025,120.2164,0.41777363
C0U650,玉蘭,2026-05-01,24.675286,121.587061,6.8401995e-08
C0R640,東港,2026-05-01,22.46247,120.44074,0.0005461903
C0AJ80,板橋,2026-05-01,25.0107,121.4489,1.090595e-07
C0S660,下馬,2026-05-01,23.150427,121.070312,3.5058548e-08
C2N190,烏樹,2026-05-01,23.32393,120.36989,0.22352993
C1H9B1,阿眉,2026-05-01,24.1263,120.994672,2.0148594e-09
C0UA20,多加屯,2026-05-01,24.368614,121.373189,1.0329679e-08
C0E730,頭份,2026-05-01,24.688247,120.912206,0.043448888
72V140,高改旗南分場,2026-05-01,22.857861,120.516667,8.856976e-08
C2R490,九如,2026-05-01,22.74049,120.490555,1.0511962e-07
C0K480,莿桐,2026-05-01,23.761192,120.502372,1.931282e-07
C0U980,坪林石牌,2026-05-01,24.86478,121.77396,1.2776001e-08
C0T900,西林,2026-05-01,23.8119,121.441458,3.2312056e-07
C1I150,青雲,2026-05-01,23.793361,120.949378,3.4818626e-09
C2E980,和興,2026-05-01,24.505319,120.923016,7.1977837e-09
467350,澎湖,2026-05-01,23.565503,119.563094,0.9734366
C0G800,埔鹽,2026-05-01,24.000394,120.431683,0.96277404
C0H960,草屯,2026-05-01,23.973672,120.68085,7.4808895e-08
C1V780,多納林道,2026-05-01,22.888028,120.737917,2.0047162e-09
C0E920,通霄漁港,2026-05-01,24.498589,120.673876,0.94685364
C0Z330,安通山,2026-05-01,23.290728,121.348528,1.8620932e-07
C0AH10,永和,2026-05-01,25.01125,121.508111,1.1196651e-07
C0AK10,太平里,2026-05-01,25.134937,121.364899,1.1196651e-07
C2G640,鹿港,2026-05-01,24.0753,120.430481,0.9717403
C1E890,國三N149K,2026-05-01,24.463414,120.680019,0.5909319
C1R110,口社,2026-05-01,22.770111,120.645222,3.3955875e-08
C1M870,國三N285K,2026-05-01,23.550319,120.505833,4.0049173e-09
C1E480,鳳美,2026-05-01,24.554803,121.034747,1.0466264e-08
C0T9M0,靜浦,2026-05-01,23.455167,121.495028,0.9995404
C2H9M0,發祥,2026-05-01,24.154094,121.164517,1.4559702e-09
C2G9C0,埔南,2026-05-01,23.99124,120.46969,0.96277404
C0AI40,石牌,2026-05-01,25.115597,121.513139,1.090595e-07
C1F871,上谷關,2026-05-01,24.203483,121.018644,1.927902e-09
C2H9G0,百勝,2026-05-01,24.051142,120.909361,1.667213e-09
C0G880,二水,2026-05-01,23.810742,120.6173,7.357243e-08
C0R940,加祿堂,2026-05-01,22.3363,120.6217,0.00045541965
C0W220,北竿,2026-05-01,26.220358,119.974881,0.5406305
C0O960,崎頂,2026-05-01,22.959547,120.369317,2.9845152e-05
C0TA40,秀林,2026-05-01,24.302864,121.731144,4.1975838e-08
C0S750,向陽,2026-05-01,23.248397,120.986133,5.916378e-09
C0T9F0,水璉,2026-05-01,23.797131,121.542514,1.02130194e-07
C1M600,頭凍,2026-05-01,23.406364,120.603339,1.4283513e-09
467660,臺東,2026-05-01,22.752211,121.154586,0.995895
C1D380,新埔,2026-05-01,24.84745,121.03834,0.0062997662
C2G980,田頭村,2026-05-01,23.8263,120.444175,3.8678624e-07
C0V750,路竹,2026-05-01,22.854997,120.259439,0.12119186
C0N050,蚵寮,2026-05-01,23.301,120.1104,0.5132413
C2X060,下營,2026-05-01,23.226806,120.256291,0.5132412
72M700,南改鹿草分場,2026-05-01,23.416869,120.283061,0.3878481
C1SA50,利嘉林道,2026-05-01,22.82325,121.009389,1.5929679e-08
C0UB70,太平山中間站,2026-05-01,24.542003,121.513453,9.354613e-09
C0A940,金山,2026-05-01,25.223628,121.643967,0.99763674
C1V340,大津,2026-05-01,22.888322,120.645986,4.0799076e-08
C0W180,七美,2026-05-01,23.219333,119.444892,0.9897876
C1F9C1,白冷,2026-05-01,24.182844,120.929889,1.3380959e-09
K2E710,苗改生物防治研究中心,2026-05-01,24.422861,120.871833,8.199231e-06
C0N040,蘆竹溝,2026-05-01,23.2344,120.0961,0.6658916
C0TB40,崇德,2026-05-01,24.166144,121.657414,0.2635438
C0D760,大坪苗圃,2026-05-01,24.5362,121.1108,3.0853535e-09
C2D430,峨眉,2026-05-01,24.6905,121.017189,0.0053650034
C2W230,畜試所澎湖,2026-05-01,23.628342,119.513206,0.9415259
C0R880,後壁湖,2026-05-01,21.9457,120.7457,0.30414426
C1I280,埔中,2026-05-01,23.820778,120.642594,3.8818917e-09
467790,墾丁雷達站,2026-05-01,21.948235,120.808028,0.17574365
C0W190,望安,2026-05-01,23.380564,119.494075,0.9911439
C0Z170,卓溪,2026-05-01,23.3443,121.3029,0.0002583843
C0F850,東勢,2026-05-01,24.246428,120.833047,3.9050163e-09
466900,淡水,2026-05-01,25.164889,121.448906,0.9973381
C0I370,魚池,2026-05-01,23.895703,120.94135,1.3174385e-09
C0C630,大溪,2026-05-01,24.882853,121.265547,0.6913619
C0A520,山佳,2026-05-01,24.974944,121.402008,9.371886e-08
C0I110,竹山,2026-05-01,23.761225,120.688156,1.3056388e-07
82H840,茶改南部分場,2026-05-01,23.762528,120.7405,5.149571e-09
C2SD80,再來山,2026-05-01,23.34371,121.44122,0.96578103
C0G660,溪湖,2026-05-01,23.94835,120.479122,0.93679434
C1T800,洛韶,2026-05-01,24.204558,121.453956,8.714753e-09
C1T810,慈恩,2026-05-01,24.192044,121.388386,1.2331026e-08
C1E451,象鼻,2026-05-01,24.368617,120.940228,2.576656e-09
C0AC60,三峽,2026-05-01,24.939025,121.369728,0.9666365
C0I490,萬大林道,2026-05-01,23.928228,121.091411,3.4850716e-09
C1I290,豐丘,2026-05-01,23.668178,120.887417,1.6878504e-09
C1I320,奧萬大,2026-05-01,23.952956,121.178556,2.3608582e-09
C2M910,嘉義大學,2026-05-01,23.471325,120.485903,6.6444303e-09
C0U770,南澳,2026-05-01,24.44935,121.81022,0.97412354
C2TB30,吉安,2026-05-01,23.94538,121.54803,2.8245092e-06
C0A980,社子,2026-05-01,25.109508,121.469681,1.2823455e-07
C0V800,六龜,2026-05-01,22.997889,120.633583,1.024513e-08
C1G9D0,國一S218K,2026-05-01,23.890641,120.493253,0.91346544
C0E570,白沙屯,2026-05-01,24.549447,120.696803,0.94685364
C2F9A0,中竹林,2026-05-01,24.103556,120.751061,2.8884104e-09
C0FA40,臺中電廠,2026-05-01,24.2146,120.4907,0.96277404
C2G9A0,畜試所彰化,2026-05-01,23.86045,120.557964,1.931282e-07
C0H9C0,合歡山,2026-05-01,24.143442,121.272547,2.1033152e-08
G2M350,農試溪口農場,2026-05-01,23.58565,120.408111,1.0913416e-08
C0U860,頭城,2026-05-01,24.85323,121.8308,5.0116473e-08
C0R580,南州,2026-05-01,22.48591,120.50274,0.0005461903
C0G780,秀水,2026-05-01,24.03405,120.503869,0.93679434
72N100,臺南農改場,2026-05-01,23.0605,120.342194,0.005895142
C0S900,蘭嶼高中,2026-05-01,22.04909,121.51214,0.69132346
C2TA60,六十石,2026-05-01,23.22477,121.31861,2.4098396e-08
C1F9W0,德基,2026-05-01,24.254783,121.190261,4.0527905e-09
C2M980,安和,2026-05-01,23.51377,120.31593,0.3878481
C1Z120,壽豐,2026-05-01,23.870853,121.508081,1.1825962e-05
C0W160,烏坵,2026-05-01,24.9944,119.44956,0.9996933
C1I550,國六W023K,2026-05-01,23.979067,120.867742,3.710335e-09
C0R870,興海,2026-05-01,21.9752,120.8439,0.25224283
C0R140,瑪家,2026-05-01,22.682903,120.686639,1.6248598e-05
C0A530,坪林,2026-05-01,24.938183,121.70975,0.013065491
C0X260,後壁,2026-05-01,23.366358,120.362326,0.22352993
C0Z230,和平,2026-05-01,24.30717,121.77007,0.2635438
C0G770,福興,2026-05-01,24.041289,120.437669,0.96277404
C0H9A0,神木村,2026-05-01,23.532742,120.843667,1.6793921e-09
C0I460,南投,2026-05-01,23.911469,120.687331,8.106439e-08
C0I480,梅峰,2026-05-01,24.085272,121.173572,4.1445896e-09
C2D770,巨埔,2026-05-01,24.84435,121.11442,0.0038087112
C2A560,福山,2026-05-01,24.776203,121.502811,9.217407e-08
C0AH30,五分山,2026-05-01,25.07125,121.780794,1.4464513e-07
C0FA10,松柏,2026-05-01,24.429115,120.617482,0.94685364
72S200,東改班鳩分場,2026-05-01,22.829528,121.077694,2.763918e-06
72HA00,中改埔里分場,2026-05-01,23.903208,120.963364,1.32443e-09
C2H9W0,大坪頂農水,2026-05-01,24.043122,120.932781,1.3026961e-09
C0C650,平鎮,2026-05-01,24.897503,121.214636,0.64314896
C0S930,延平,2026-05-01,22.902581,121.084058,4.2759864e-05
C0UA60,樟樹山,2026-05-01,24.41393,121.78325,1.995603e-06
C2UC10,出水溪,2026-05-01,24.615822,121.652253,1.995603e-06
C1S670,摩天,2026-05-01,23.199503,121.027,4.3034727e-09
C2C590,觀音,2026-05-01,25.027072,121.153317,0.95865786
C0V630,茄萣,2026-05-01,22.906642,120.182608,0.05790555
466940,基隆,2026-05-01,25.133314,121.740475,0.8843262
C0X050,東河,2026-05-01,23.296598,120.385608,6.4468845e-06
C0R770,保力,2026-05-01,22.071122,120.764111,0.14004768
G2L020,農試嘉義分所,2026-05-01,23.485028,120.473806,5.9775958e-09
C0X240,關子嶺,2026-05-01,23.331169,120.508025,5.2829323e-09
C0I380,集集,2026-05-01,23.828206,120.801467,2.4657737e-08
466990,花蓮,2026-05-01,23.975128,121.613275,0.028729655
C1V220,小關山,2026-05-01,23.154217,120.813603,4.7304987e-09
C1F9G1,慶福山,2026-05-01,24.180853,120.848378,2.0115263e-09
C0FB20,雪山橋,2026-05-01,24.23192,120.9786,3.6223256e-09
C0Z250,瑞穗林道,2026-05-01,23.49284,121.30688,1.01303685e-08
C0D590,新豐,2026-05-01,24.87068,120.97721,0.0013413535
C2N200,口宵里,2026-05-01,23.15987,120.45988,1.9597502e-08
C0A870,五指山,2026-05-01,25.132153,121.608692,0.0175791
C0UA50,西帽山,2026-05-01,24.555361,121.802628,9.754983e-08
C2R980,竹田國中,2026-05-01,22.61532,120.52412,0.00027156985
C0X160,仁德,2026-05-01,22.968258,120.257689,0.023851583
C1H971,六分寮,2026-05-01,23.92507,120.6378,2.6046878e-09
C2D790,石鹿,2026-05-01,24.56551,121.15841,2.5494413e-09
C0W120,西嶼,2026-05-01,23.5626,119.468436,0.9734366
C0G650,員林,2026-05-01,23.946503,120.585597,0.84698814
C0AD50,鶯歌,2026-05-01,24.951533,121.346294,0.960977
C2H9Q0,北東眼山,2026-05-01,24.120939,121.189303,3.4899874e-09
C2H9T0,名間竹圍,2026-05-01,23.859914,120.637572,1.2675417e-08
C0S990,山豬窟,2026-05-01,22.318619,120.857372,0.6599724
C0X190,安平,2026-05-01,22.993161,120.152181,0.05790555
C0K400,斗六,2026-05-01,23.720583,120.541127,1.7487113e-07
12J990,口湖工作站,2026-05-01,23.589978,120.180394,0.58004224
C0O830,北寮,2026-05-01,23.079561,120.495008,6.744358e-08
C1D410,白蘭,2026-05-01,24.579364,121.079947,2.8565297e-09
C0S970,加津林,2026-05-01,22.416211,120.926942,1.4283133e-05
C0D700,關西,2026-05-01,24.7977,121.1732,2.0248022e-07
C0U750,龜山島,2026-05-01,24.841667,121.953133,0.001245084
C0R810,內獅,2026-05-01,22.305064,120.642986,0.08759823
C2EA10,拉庫斯,2026-05-01,24.53637,121.02137,2.5311264e-09
C1M390,龍美,2026-05-01,23.406728,120.654417,1.2333231e-09
C2K290,崙內,2026-05-01,23.69525,120.35601,0.9897091
C2FB60,頭櫃山,2026-05-01,24.129842,120.858925,2.6084164e-09
C1H840,國三N238K,2026-05-01,23.841008,120.707711,2.3307614e-08
CAQ030,崎峰國小,2026-05-01,22.42565,120.49521,0.0005461903
C2E520,大湖,2026-05-01,24.414939,120.870872,2.4893197e-06
467530,阿里山,2026-05-01,23.508208,120.813242,4.9144018e-09
C1E691,南湖,2026-05-01,24.40135,120.837533,1.1620706e-08
C0FA30,梧棲,2026-05-01,24.256003,120.523381,0.96277404
C1V231,高中,2026-05-01,23.134911,120.716711,1.9231277e-09
C0AK30,硬漢嶺,2026-05-01,25.136097,121.426372,0.27260023
C0F9V0,新社,2026-05-01,24.200172,120.815806,2.4203735e-09
C0H890,埔里,2026-05-01,23.972169,120.952425,1.8210793e-09
C0R690,墾丁,2026-05-01,21.966756,120.810269,0.554746
C0SD20,富山,2026-05-01,22.822383,121.190825,0.53995234
C0F0D0,審馬陣,2026-05-01,24.381675,121.4203,1.20363755e-08
C2W030,金門農試所,2026-05-01,24.448431,118.451786,0.9997883
C0R820,白鷺,2026-05-01,22.454275,120.666219,0.0415107
C0FB00,大雪山,2026-05-01,24.254668,121.007374,4.752892e-09
C2O880,南化,2026-05-01,23.17332,120.59413,1.6001698e-08
C1V190,南天池,2026-05-01,23.27403,120.91176,7.0497936e-09
C0E940,雪見,2026-05-01,24.42595,121.01347,5.9431606e-09
K2E360,苗栗農改場,2026-05-01,24.495722,120.829111,0.12909345
CAJ050,海口故事園區,2026-05-01,23.57543,120.14121,0.58004224
C2K280,四湖,2026-05-01,23.6304,120.22717,0.993452
C2H9D0,三隻寮,2026-05-01,24.093078,120.861578,1.2423846e-09
C0O990,媽廟,2026-05-01,22.99175,120.293525,0.019136569
C0Z220,和平林道,2026-05-01,24.343922,121.656317,1.995603e-06
C0TA10,花蓮漁港,2026-05-01,23.995322,121.638331,0.99944246
72C440,桃園農改場,2026-05-01,24.950944,121.030583,0.027174493
C1E711,馬拉邦山,2026-05-01,24.367306,120.901656,2.5215663e-09
C0SB20,富岡,2026-05-01,22.792467,121.192669,0.36119878
C0D560,竹東,2026-05-01,24.767147,121.057881,0.0019246076
C0F9U0,南屯,2026-05-01,24.137006,120.637969,9.545963e-08
C2SD60,明峰,2026-05-01,22.8671,121.11825,1.0692283e-06
C0M720,番路,2026-05-01,23.464657,120.554156,2.2331235e-09
C0F0A0,雪山圈谷,2026-05-01,24.388594,121.236339,1.9555458e-08
C1A9N0,四十份,2026-05-01,24.934158,121.593283,1.44070285e-08
C0U760,東澳,2026-05-01,24.52196,121.83318,0.9748381
C0X230,鹽水,2026-05-01,23.272621,120.247641,0.5132413
C2H9H0,苗改南投蜂場,2026-05-01,23.852589,120.693481,1.738127e-07
C2TB70,達谷寮,2026-05-01,23.38,121.35968,0.9986079
C0R950,萬隆國小,2026-05-01,22.507667,120.587817,0.000106446736
467540,大武,2026-05-01,22.35572,120.90374,0.08759823
C0V370,古亭坑,2026-05-01,22.893178,120.401947,1.6233076e-07
C1I340,新興橋,2026-05-01,23.563333,120.868728,1.7476809e-09
C2C480,桃園,2026-05-01,24.992425,121.323172,0.94188493
C0SA80,土坂,2026-05-01,22.453108,120.887572,0.09172353
C0R160,鹽埔,2026-05-01,22.739558,120.530778,1.0511962e-07
C0AC40,大屯山,2026-05-01,25.175675,121.522408,1.2913106e-06
466850,五分山雷達站,2026-05-01,25.071182,121.781205,1.2898542e-07
C2H9L0,馬烈霸,2026-05-01,24.1512,121.201772,4.280698e-09
C1AI50,國三N016K,2026-05-01,25.034164,121.619664,8.13103e-08
C2V920,匏子寮,2026-05-01,23.04905,120.55319,1.7390795e-08
C1V600,藤枝,2026-05-01,23.071961,120.757042,2.7128826e-09
C1E601,南勢,2026-05-01,24.572486,120.734842,0.12909345
C0O980,新市,2026-05-01,23.061614,120.298197,0.023851583
C0K420,西螺,2026-05-01,23.800407,120.467394,2.562467e-07
C0Z050,佳心,2026-05-01,23.34567,121.21316,2.8936062e-08
C0AD30,蘆洲,2026-05-01,25.086594,121.472331,1.1196651e-07
C0V610,梓官,2026-05-01,22.760558,120.267211,0.257818
K2F750,種苗改良場,2026-05-01,24.225972,120.800917,2.7906295e-09
C0UA80,大溪漁港,2026-05-01,24.941801,121.902955,5.0116473e-08
C1AI60,國一39K邊坡,2026-05-01,25.064361,121.383836,2.9571623e-08
C0W150,金寧,2026-05-01,24.457703,118.328989,0.951407
C0R960,內埔,2026-05-01,22.608483,120.570714,0.00022358024
C2H9S0,龍南,2026-05-01,23.953536,120.833183,1.3224586e-09
C0AH40,平等,2026-05-01,25.129142,121.577086,0.9759062
C0R540,佳冬,2026-05-01,22.419456,120.552375,0.0005461903
466950,彭佳嶼,2026-05-01,25.627975,122.079744,0.9999566
C0A890,雙溪,2026-05-01,25.036003,121.864242,0.82699543
C0AH50,林口,2026-05-01,25.072181,121.38084,2.3962041e-08
A2K360,水試臺西試驗場,2026-05-01,23.717231,120.190522,0.9948624
C2M960,外寮,2026-05-01,23.562643,120.665688,1.2878361e-09
C0F9S0,烏日,2026-05-01,24.107058,120.624103,0.84698814
C2N180,鹿陶洋,2026-05-01,23.14325,120.48352,7.599325e-07
C0C490,八德,2026-05-01,24.928708,121.283289,0.8706929
C0R190,赤山,2026-05-01,22.592333,120.614306,0.00021257416
C0T820,天祥,2026-05-01,24.179597,121.495639,1.2655022e-07
C1F9E1,龍安,2026-05-01,24.1605,120.831961,2.2890954e-09
C2SD50,順那,2026-05-01,23.04166,121.29332,0.0022500749
C0V820,小林,2026-05-01,23.148408,120.63325,3.755604e-09
C2G870,芳苑,2026-05-01,23.922303,120.320025,0.993452
C0E850,大河,2026-05-01,24.618069,120.948578,0.0062997662
C1U670,寒溪,2026-05-01,24.634,121.71691,3.2558336e-08
C0N020,城西,2026-05-01,23.0568,120.0956,0.05790555
C1Z110,三棧,2026-05-01,24.11557,121.60501,4.6927568e-08
C0R280,檳榔,2026-05-01,22.076078,120.836777,0.3865331
C2H9J0,中台,2026-05-01,23.9996,120.938739,1.4836393e-09
C0F9L0,后里,2026-05-01,24.310436,120.729725,8.622297e-09
467441,高雄,2026-05-01,22.730432,120.312516,0.22208257
C2N210,岩坑,2026-05-01,23.24614,120.47458,1.07225844e-07
C0Z180,新城,2026-05-01,24.040486,121.604878,0.019332204
C0D540,橫山,2026-05-01,24.71116,121.11693,6.731084e-05
C1D420,太閣南,2026-05-01,24.632808,121.160575,4.559796e-09
C1E770,公館,2026-05-01,24.526914,120.830806,0.4025196
CAN130,水試所海水繁養殖中心,2026-05-01,23.120802,120.07968,0.07062694
C1I430,翠華,2026-05-01,24.191961,121.224339,7.3183455e-09
C1M400,菜瓜坪,2026-05-01,23.251928,120.576103,4.0006496e-09
C0G730,二林,2026-05-01,23.903325,120.376081,0.93679434
72M360,南改義竹分場,2026-05-01,23.360694,120.279361,0.39273256
V2K620,麥寮合作社,2026-05-01,23.753836,120.294783,0.993452
C0Z070,舞鶴,2026-05-01,23.46811,121.37407,0.9218027
C0B040,大武崙,2026-05-01,25.166676,121.706993,0.99763674
C1Z030,紅葉,2026-05-01,23.493119,121.338806,0.98753846
C1I050,丹大,2026-05-01,23.753747,121.141147,8.247014e-09
467290,古坑,2026-05-01,23.380729,120.336861,0.29357976
C0I080,信義,2026-05-01,23.689694,120.851036,2.2186886e-09
C2TB80,庄子底,2026-05-01,23.71794,121.49438,2.2612858e-06
C0D750,樂山林道6k,2026-05-01,24.49999,121.08773,4.9638027e-09
C2M920,朴子農改,2026-05-01,23.469889,120.259383,0.58004224
C2A880,福隆,2026-05-01,25.017842,121.942083,0.99836123
C0Z160,鳳林,2026-05-01,23.746114,121.453411,1.4923025e-06
C0UB80,翠峰林道6K,2026-05-01,24.49773,121.568625,1.2873552e-08
C0V210,復興,2026-05-01,23.222403,120.806089,1.8753206e-09
C0H990,昆陽,2026-05-01,24.121322,121.273642,1.240155e-08
C0R741,獅子,2026-05-01,22.202308,120.705236,0.063858256
C0S710,鹿野,2026-05-01,22.917711,121.122994,7.997184e-07
C0I530,小奇萊,2026-05-01,24.131764,121.295717,1.6851912e-08
C0FA70,大雪山埡口,2026-05-01,24.26867,121.03062,9.137914e-09
C2K630,荷苞,2026-05-01,23.657717,120.595144,2.5095675e-08
C0Z080,富源,2026-05-01,23.587642,121.378225,0.17157628
C2M9E0,旺來山,2026-05-01,23.555153,120.486463,3.8744354e-09
C0SB10,美和,2026-05-01,22.682078,121.060236,0.095376365
C2K620,馬光農場,2026-05-01,23.721453,120.378864,3.8678624e-07
C1I140,卡奈托灣,2026-05-01,23.754364,121.087872,3.416576e-09
C0I520,玉山風口,2026-05-01,23.470489,120.955994,2.4351275e-08
C1G691,下水埔,2026-05-01,23.816114,120.5676,1.3555147e-07
C0X110,臺南市南區,2026-05-01,22.961189,120.188378,0.05790555
C0V680,仁武,2026-05-01,22.701083,120.347722,0.22208257
C2G840,北斗,2026-05-01,23.877586,120.514222,0.84698814
C2TB90,長橋,2026-05-01,23.6874,121.46186,1.2308278e-06
C0R900,竹坑,2026-05-01,22.1385,120.7022,0.08759823
C0G860,社頭,2026-05-01,23.897647,120.5862,0.7899443
C0X150,安定,2026-05-01,23.102614,120.227839,0.05790555
C0R590,里港,2026-05-01,22.77919,120.49459,1.0511962e-07
C0E610,馬都安,2026-05-01,24.451272,120.930192,3.0704714e-09
C0E550,明德,2026-05-01,24.583486,120.885411,0.5416081
C0R150,三地門,2026-05-01,22.709889,120.639944,3.6214434e-08
C0G910,花壇,2026-05-01,24.032076,120.549461,0.91346544
C1D400,鳥嘴山,2026-05-01,24.71909,121.28387,4.004039e-09
C0K500,元長,2026-05-01,23.64981,120.315024,0.993452
C0F0B0,石岡,2026-05-01,24.276061,120.777644,6.1250955e-09
C2V250,甲仙,2026-05-01,23.080106,120.591758,8.061751e-09
C0SA20,金崙山,2026-05-01,22.567419,120.959667,2.1239114e-08
C0V350,溪埔,2026-05-01,22.738578,120.446797,1.146579e-07
C0M660,溪口,2026-05-01,23.604131,120.403569,1.0913416e-08
C1S880,壽卡,2026-05-01,22.238911,120.858903,0.5931703
72D680,桃改新埔分場,2026-05-01,24.834444,121.066111,0.008807362
