站號,站名,日期,lat,lon,BlastGRU-TW
C0R710,龍磐,2026-07-11,21.931672,120.838942,0.08132844
C1F9D1,白毛台,2026-07-11,24.158325,120.886933,0.88143
C0G940,竹塘,2026-07-11,23.848253,120.386764,0.09198293
467590,恆春,2026-07-11,22.003897,120.746339,0.04337753
C0U710,太平山,2026-07-11,24.505486,121.525656,0.064025156
C0E820,獅潭,2026-07-11,24.539133,120.920042,0.5501021
C2SD70,二層坪,2026-07-11,22.94105,121.16838,0.5085944
C0V880,興達,2026-07-11,22.8778,120.2127,0.19365028
C0SB30,新蘭,2026-07-11,22.869214,121.223228,0.16127877
C2R970,屏科大,2026-07-11,22.648275,120.619247,0.3359762
C1Z130,銅門,2026-07-11,23.965694,121.492842,0.09696972
C0AD40,土城,2026-07-11,24.973208,121.445169,0.11773386
CAN140,六官養殖協會,2026-07-11,23.22881,120.29962,0.15269835
C0X180,山上,2026-07-11,23.0757,120.363253,0.17967443
C0F9Z0,雪山東峰,2026-07-11,24.388792,121.268675,0.0006186088
C1M480,獨立山,2026-07-11,23.537022,120.607797,0.943793
C0X220,學甲,2026-07-11,23.230367,120.182187,0.17181946
467650,日月潭,2026-07-11,23.881325,120.90805,0.88581234
A2K570,古坑(花卉中心),2026-07-11,23.633531,120.552392,0.14047803
C0K600,箔子寮,2026-07-11,23.6197,120.14,0.1243727
C0G830,埤頭,2026-07-11,23.866003,120.452806,0.06644909
C0S950,七塊厝,2026-07-11,22.954453,121.229922,0.8831171
467110,金門,2026-07-11,24.407306,118.289281,0.16744594
C0AH80,深坑,2026-07-11,25.002703,121.628328,0.09764675
C0A970,三貂角,2026-07-11,25.007606,122.002058,0.4280312
C2D730,寶山農場,2026-07-11,24.732444,120.976153,0.28644326
C0K430,褒忠,2026-07-11,23.690938,120.303634,0.0811233
467480,嘉義,2026-07-11,23.495925,120.432906,0.092450015
C0V400,阿公店,2026-07-11,22.804194,120.355528,0.17901987
C2S800,華源,2026-07-11,22.65783,121.0232,0.3280693
C2SA40,瑞和,2026-07-11,22.974361,121.156697,0.49058777
C0E960,觀霧分站,2026-07-11,24.505781,121.113921,0.1350896
467550,玉山,2026-07-11,23.48718,120.95943,0.000265203
C0R440,大漢山,2026-07-11,22.405264,120.753181,0.94323653
C0SD30,東清國小,2026-07-11,22.057128,121.564922,0.65417767
C1F9B1,桐林,2026-07-11,24.066172,120.735194,0.07407005
C2I210,蘆竹湳,2026-07-11,23.93398,120.81209,0.7777762
C2H9U0,鳳鵬,2026-07-11,23.763919,120.788061,0.042616162
C0K390,土庫,2026-07-11,23.679029,120.395574,0.08087515
C1I450,望鄉山,2026-07-11,23.594153,120.944286,0.0005377519
C0E910,海埔,2026-07-11,24.648767,120.772435,0.59923697
B2E890,畜試北區分所,2026-07-11,24.527806,120.770972,0.69465584
C0R750,四林格山,2026-07-11,22.076989,120.802439,0.36384755
C0F0C0,中坑,2026-07-11,24.248517,120.903319,0.7321161
C1I121,大鞍,2026-07-11,23.678381,120.760017,0.83846694
C2G9E0,移民庄,2026-07-11,23.9784,120.40283,0.19175561
72U480,花改蘭陽分場,2026-07-11,24.686306,121.716583,0.09394748
C0A770,科教館,2026-07-11,25.096356,121.516507,0.0869409
C0AJ60,六塊厝,2026-07-11,25.24,121.4481,0.16375501
C0R620,墾雷,2026-07-11,21.900836,120.855269,0.08030387
467290,古坑,2026-07-11,23.633536,120.551906,0.14047803
467420,永康,2026-07-11,23.038386,120.2367,0.18877077
C2M530,奮起湖,2026-07-11,23.493903,120.699253,0.92107254
C0I410,名間,2026-07-11,23.837053,120.701447,0.042022444
A2C560,農工中心,2026-07-11,24.985917,121.239833,0.39857605
C0V740,旗山,2026-07-11,22.888614,120.483597,0.20632882
C0Z061,玉里,2026-07-11,23.3215,121.339656,0.9661285
C0S840,南田,2026-07-11,22.279725,120.889208,0.07829744
C1I470,杉林溪,2026-07-11,23.639517,120.786444,0.57007295
C1X040,東原,2026-07-11,23.291597,120.463822,0.19289939
C0R660,枋寮,2026-07-11,22.367722,120.590647,0.14809364
C0K450,大埤,2026-07-11,23.646074,120.431537,0.08237278
C0UA00,土場,2026-07-11,24.576533,121.495333,0.015755039
467080,宜蘭,2026-07-11,24.763975,121.756528,0.071768165
C0N030,四草,2026-07-11,23.0235,120.1116,0.23530366
467410,臺南,2026-07-11,22.99328,120.20492,0.18074268
C0V650,彌陀,2026-07-11,22.783806,120.246361,0.1848903
C0D660,新竹市東區,2026-07-11,24.798681,120.986942,0.46894544
82S580,茶改東部分場,2026-07-11,22.907694,121.130139,0.38456744
C0SB40,興隆,2026-07-11,22.913661,121.257469,0.16329047
467050,新屋,2026-07-11,25.006725,121.047492,0.60155016
C0C710,大溪永福,2026-07-11,24.892936,121.324975,0.357023
C0FA20,溫寮,2026-07-11,24.372177,120.583125,0.5829416
C0V640,湖內,2026-07-11,22.887139,120.2445,0.19434416
C0R910,下寮,2026-07-11,22.3929,120.5548,0.22869493
C0Z020,明里,2026-07-11,23.208717,121.262342,0.19531797
C0M770,嘉義梅山,2026-07-11,23.585398,120.555587,0.2864722
C0C660,楊梅,2026-07-11,24.912375,121.143047,0.3603752
C0SD40,牛頭山,2026-07-11,22.676661,121.506944,0.4236103
C1E511,新開,2026-07-11,24.347703,120.827019,0.80834067
G2F820,農試所(霧峰),2026-07-11,24.031261,120.688133,0.062478065
C2M990,大巃頂,2026-07-11,23.5547,120.61439,0.8618987
C1I070,和社,2026-07-11,23.591131,120.888861,0.798009
C2E990,新坪頂,2026-07-11,24.30201,120.8574,0.9595329
C0TA80,立霧山,2026-07-11,24.183258,121.641899,0.92178845
C2F000,大肚,2026-07-11,24.15295,120.572117,0.62542456
C1S850,豐南,2026-07-11,23.122139,121.262389,0.73556554
C2M9B0,西興,2026-07-11,23.2428,120.57617,0.8409085
C2A920,富貴角,2026-07-11,25.263783,121.565258,0.3918892
C0T960,光復,2026-07-11,23.660694,121.424964,0.5587979
C0F9M0,豐原,2026-07-11,24.254322,120.720692,0.42247912
C0R720,旭海,2026-07-11,22.205403,120.887614,0.11696801
C0V710,苓雅,2026-07-11,22.622742,120.330669,0.21700944
C0C740,觀音工業區,2026-07-11,25.064764,121.114856,0.6813412
CAC040,拉拉山,2026-07-11,24.699317,121.427133,0.20244998
C0V790,萬山,2026-07-11,22.905944,120.688056,0.37270653
U2HA30,臺大和社,2026-07-11,23.590856,120.888864,0.798009
C2H9K0,屯原,2026-07-11,24.067969,121.209389,0.7038626
C0AJ90,澳底,2026-07-11,25.0552,121.9253,0.24932761
C0Z100,東華,2026-07-11,23.89525,121.549833,0.21284209
C0G970,三豐,2026-07-11,23.882,120.2895,0.17247586
C0V900,汕尾,2026-07-11,22.4782,120.4151,0.13101569
C1R630,龍泉,2026-07-11,22.66701,120.59091,0.3254126
C1AC50,關渡,2026-07-11,25.133486,121.469331,0.20921682
C0C800,四稜,2026-07-11,24.64733,121.4293,0.8049384
C0F9I0,神岡,2026-07-11,24.272481,120.658314,0.44551387
C0K460,斗南,2026-07-11,23.678734,120.478359,0.082937084
C2O810,曾文,2026-07-11,23.219681,120.497328,0.15099517
467280,後龍,2026-07-11,24.648563,120.831834,0.62513334
C1F9J1,清水林,2026-07-11,24.071242,120.820419,0.93911237
C2A650,火燒寮,2026-07-11,25.002719,121.742892,0.17320493
466930,竹子湖,2026-07-11,25.162078,121.544547,0.9511975
C1I220,樟湖,2026-07-11,23.905333,120.846983,0.908921
C0I390,仁愛,2026-07-11,24.022122,121.132206,0.7540395
C0Z300,東里,2026-07-11,23.26853,121.30547,0.96559477
C1V590,新發,2026-07-11,23.057019,120.646064,0.95588607
C0K510,水林,2026-07-11,23.572924,120.24597,0.07973538
72S590,東改賓朗果園,2026-07-11,22.813889,121.071278,0.6367778
82A750,茶改北部分場,2026-07-11,24.955778,121.631222,0.21787807
C1A750,石碇服務區,2026-07-11,25.00872,121.646242,0.20472522
C0X300,鹿寮,2026-07-11,23.386047,120.477331,0.18138874
C0K590,雲林東勢,2026-07-11,23.674192,120.255721,0.077881135
C2K310,港尾布雞,2026-07-11,23.74834,120.38439,0.080335006
C0A570,桶後,2026-07-11,24.848222,121.597992,0.01445139
C0G720,溪州,2026-07-11,23.851589,120.499093,0.066788144
C1V160,達卡努瓦,2026-07-11,23.279811,120.705319,0.93271214
C2M410,馬頭山,2026-07-11,23.324361,120.582017,0.23507762
C0V850,蚵仔寮,2026-07-11,22.7256,120.2527,0.18097767
C0S740,池上,2026-07-11,23.119628,121.209469,0.4826125
C1V390,尖山,2026-07-11,22.813153,120.367789,0.18145394
C0AH70,松山,2026-07-11,25.04871,121.55042,0.08731871
C0N010,鯤鯓國小,2026-07-11,23.1879,120.0889,0.20109089
C0SA60,知本（水試所）,2026-07-11,22.702394,121.082761,0.121343836
C0T9I0,豐濱,2026-07-11,23.583897,121.514806,0.6591383
C0UB00,淡江大學蘭陽校園,2026-07-11,24.823239,121.730383,0.63769746
C0W240,九宮,2026-07-11,24.423753,118.240186,0.17844814
C0T9N0,富里,2026-07-11,23.171639,121.249378,0.22811016
U2HA50,臺大竹山,2026-07-11,23.756972,120.681556,0.052043527
C0V840,鳳鼻頭,2026-07-11,22.5083,120.3591,0.13424268
C0X140,西港,2026-07-11,23.125608,120.203108,0.16488369
72D080,桃改五峰分場,2026-07-11,24.612194,121.157167,0.93017507
C2H9P0,伊拿谷,2026-07-11,23.963211,121.088264,0.95511514
C2K250,崙背,2026-07-11,23.75553,120.31893,0.081637636
C2H9F0,柑林,2026-07-11,24.018658,120.847072,0.08348471
C0TA20,加灣,2026-07-11,24.082025,121.608944,0.04399716
C0V530,阿蓮,2026-07-11,22.883208,120.327508,0.20881635
C0FB30,八仙山苗圃,2026-07-11,24.192719,121.001366,0.64704984
C0E791,卓蘭,2026-07-11,24.3126,120.8244,0.8601617
C2R260,春日,2026-07-11,22.370361,120.628306,0.13857307
C1I030,武界,2026-07-11,23.913225,121.052483,0.90815586
C0R520,崁頂,2026-07-11,22.514781,120.506914,0.16392647
C0R341,牡丹,2026-07-11,22.130036,120.792639,0.0673317
C0R930,萬丹,2026-07-11,22.5885,120.4851,0.13094084
C0S760,紅石,2026-07-11,23.069131,121.126219,0.8743111
C2C410,中央大學,2026-07-11,24.967652,121.185165,0.40622512
C1M610,石磐龍,2026-07-11,23.496606,120.663506,0.95516396
C2C830,中德,2026-07-11,24.981862,121.291344,0.22570361
C0C790,東眼山,2026-07-11,24.8284,121.40888,0.48582542
C0UA10,鴛鴦湖,2026-07-11,24.590269,121.412228,0.1428672
C0R800,丹路,2026-07-11,22.204481,120.750989,0.042218804
C2R240,萬巒,2026-07-11,22.527306,120.625111,0.1238979
C0G920,永靖,2026-07-11,23.924703,120.547533,0.1122001
C2M950,太和,2026-07-11,23.538372,120.702961,0.9228443
C1A630,下盆,2026-07-11,24.771003,121.538622,0.025620395
B2N890,畜產試驗所,2026-07-11,23.058972,120.336406,0.16295439
C0UA30,白嶺,2026-07-11,24.527819,121.519031,0.55668086
467571,新竹,2026-07-11,24.828575,121.01455,0.55463475
C1V580,溪南(特生中心),2026-07-11,23.084972,120.788475,0.77839756
C1T970,大農,2026-07-11,23.615233,121.413331,0.9808267
C0R650,竹田,2026-07-11,22.58486,120.54344,0.1806722
C1H900,清流,2026-07-11,24.080775,120.962997,0.91827506
C1C510,水尾,2026-07-11,24.940081,121.087161,0.69244623
C2N170,茅港尾,2026-07-11,23.2061,120.2624,0.15269843
C0F9X0,大雅(中科園區),2026-07-11,24.21528,120.62445,0.20716971
C0SB60,白守蓮,2026-07-11,23.126769,121.401914,0.41944715
C0O970,虎頭埤,2026-07-11,23.021375,120.347878,0.23658186
C0C730,中大臨海站,2026-07-11,24.966126,121.008581,0.5458039
C0X250,新營,2026-07-11,23.310689,120.316681,0.20468709
C0V700,三民,2026-07-11,22.645017,120.311233,0.25072125
C0U870,大礁溪,2026-07-11,24.791042,121.675047,0.8432181
C0E870,高鐵苗栗,2026-07-11,24.60725,120.826094,0.6244754
C2S890,關山,2026-07-11,23.0395,121.175017,0.41062325
C0TA30,鹽寮,2026-07-11,23.845606,121.592664,0.2013597
C0M860,新美,2026-07-11,23.338017,120.683169,0.83978415
C1E701,八卦,2026-07-11,24.491756,120.927619,0.8103097
C2TA90,加納納,2026-07-11,23.466421,121.359867,0.9736844
C0I420,國姓,2026-07-11,24.037803,120.855072,0.12925167
C2D720,關西工作站,2026-07-11,24.757275,121.184792,0.08963329
C2AK30,信賢,2026-07-11,24.84108,121.53492,0.015267859
C0S960,香蘭,2026-07-11,22.587569,120.993375,0.17436118
467620,蘭嶼,2026-07-11,22.0369,121.55843,0.7793978
C2UC40,中城,2026-07-11,24.62865,121.74745,0.10613671
72G600,臺中農改場,2026-07-11,24.003028,120.534389,0.110580936
C0Z210,瑞穗,2026-07-11,23.5239,121.39021,0.8991676
C0M820,達邦,2026-07-11,23.453994,120.749517,0.967423
C0V860,南寮,2026-07-11,22.7616,120.2339,0.18097767
C0G740,大城,2026-07-11,23.852487,120.320935,0.17826617
C0R920,塭仔,2026-07-11,22.4169,120.5197,0.22854415
C0R470,高樹,2026-07-11,22.826389,120.600806,0.2904048
C0R680,佳樂水,2026-07-11,21.993578,120.861633,0.08336547
C1O870,大棟山,2026-07-11,23.31157,120.52226,0.887579
C0D360,梅花,2026-07-11,24.678347,121.208558,0.36753383
C0Z190,富世,2026-07-11,24.14743,121.6297,0.4144859
C0AI10,屈尺,2026-07-11,24.92184,121.54475,0.1294985
B2U990,畜試東區分所,2026-07-11,24.669039,121.832561,0.09047477
C0SB80,長濱漁港,2026-07-11,23.313644,121.459994,0.8344577
C0TA50,和仁,2026-07-11,24.241394,121.712472,0.86720526
C2AK40,漁光,2026-07-11,24.96875,121.72132,0.8597408
C0V910,大樹,2026-07-11,22.684645,120.432803,0.21480738
C1R610,西大武山,2026-07-11,22.617719,120.7322,0.95839345
C0K500,元長,2026-07-11,23.642858,120.31966,0.077881135
C0G900,線西,2026-07-11,24.143358,120.443536,0.15194361
C0M700,竹崎,2026-07-11,23.526178,120.555508,0.26572797
C2E880,三義,2026-07-11,24.405478,120.749819,0.988911
C0C720,竹圍,2026-07-11,25.112692,121.239824,0.33761638
C0F9P0,清水,2026-07-11,24.312297,120.562242,0.2309983
C0Z150,吉安光華,2026-07-11,23.930925,121.595153,0.20112547
C0FA80,小雪山天池,2026-07-11,24.28025,121.02627,0.0029072561
467300,東吉島,2026-07-11,23.25727,119.66762,0.7085766
C1D640,外坪(五指山),2026-07-11,24.644447,121.090961,0.8456492
C2R9A0,高士國小,2026-07-11,22.12553,120.84653,0.06728493
C0F9O0,潭子,2026-07-11,24.213106,120.703933,0.35496315
C2H9R0,卓社,2026-07-11,23.887894,121.000086,0.5645649
72T250,花蓮農改場,2026-07-11,23.975222,121.563889,0.21598604
C0E780,銅鑼,2026-07-11,24.489681,120.790853,0.73845553
C1T950,太安,2026-07-11,23.666719,121.370128,0.96845204
C0E830,苑裡,2026-07-11,24.439714,120.653053,0.76172054
467270,田中,2026-07-11,23.873803,120.581286,0.07667416
C0SA10,檳榔四格山,2026-07-11,22.810031,121.109308,0.7534796
C1T830,布洛灣,2026-07-11,24.17184,121.57127,0.13956949
C0F970,大坑,2026-07-11,24.173142,120.722289,0.13196681
C1U920,思源,2026-07-11,24.393125,121.347214,0.18383552
C2H9Y0,松茗,2026-07-11,23.8167,120.650765,0.10997207
C0A931,三和,2026-07-11,25.233153,121.595236,0.27696112
C0I010,廬山,2026-07-11,24.033311,121.181808,0.9157465
C2M940,日野賀,2026-07-11,23.434056,120.727169,0.95880854
C0R860,鼻頭,2026-07-11,22.1043,120.8979,0.06134867
C2I260,北坑,2026-07-11,23.92463,121.00683,0.8294549
C0UB20,壯圍,2026-07-11,24.7359,121.8163,0.054620188
C0R790,九棚,2026-07-11,22.14195,120.889281,0.056153506
C0W110,東莒,2026-07-11,25.9652,119.98069,0.9294319
C1U930,粉鳥林,2026-07-11,24.497088,121.842479,0.058121163
C0S830,長濱,2026-07-11,23.286817,121.411975,0.9569744
C1F9F1,伯公龍,2026-07-11,24.272392,120.849047,0.8508916
C0UB90,太平山莊,2026-07-11,24.494171,121.536209,0.05913657
C0E810,西湖,2026-07-11,24.562947,120.7485,0.8966174
C1I440,新高口,2026-07-11,23.478744,120.878939,0.011333292
C0O840,王爺宮,2026-07-11,23.222064,120.40085,0.13000761
C0T9G0,鳳林山,2026-07-11,23.735269,121.420131,0.9770231
C0X080,佳里,2026-07-11,23.173039,120.145086,0.20861469
C0FB70,大甲溪埔,2026-07-11,24.370625,120.620067,0.61294395
C0Z310,清水斷崖,2026-07-11,24.218294,121.689142,0.944468
C0M680,太保,2026-07-11,23.455062,120.331455,0.15537302
C1S820,金峰,2026-07-11,22.590969,120.933236,0.30480433
C0AD10,八里,2026-07-11,25.150211,121.403947,0.2148103
C2K240,草嶺,2026-07-11,23.59555,120.693461,0.93870646
C1SA70,都蘭,2026-07-11,22.87794,121.226881,0.17384276
C0K440,二崙,2026-07-11,23.772797,120.408944,0.07170778
C1A760,坪林交控,2026-07-11,24.94284,121.713442,0.12971593
C0F9N0,大里,2026-07-11,24.092464,120.701378,0.07007921
C0SA90,達仁林場,2026-07-11,22.264347,120.823972,0.5186061
C1R290,石門山,2026-07-11,22.112611,120.756597,0.071061
42HA10,萬大發電廠,2026-07-11,23.978875,121.139639,0.8712911
C0R890,山海,2026-07-11,21.9878,120.7091,0.043916643
C0T9A0,月眉山,2026-07-11,23.809928,121.539828,0.9615611
C0AC70,信義,2026-07-11,25.037822,121.564597,0.073964514
C0K560,棋山,2026-07-11,23.68645,120.603417,0.08950768
C2FB50,出雲,2026-07-11,24.206469,120.902794,0.89630073
C1Z240,中平林道,2026-07-11,23.42115,121.26763,0.9793762
U2H480,溪頭,2026-07-11,23.670306,120.798194,0.6781235
C0M880,好美里,2026-07-11,23.3364,120.138,0.2000041
C0T9E0,大坑,2026-07-11,23.880628,121.581981,0.34720895
C0K530,臺西,2026-07-11,23.701547,120.197559,0.12064591
C1E900,國一N128K,2026-07-11,24.560997,120.844186,0.7090746
C0AJ50,水湳洞,2026-07-11,25.123695,121.862238,0.25380638
C0AI20,白沙灣,2026-07-11,25.283128,121.519058,0.18347879
C2V310,美濃,2026-07-11,22.898792,120.51907,0.20646793
C0A860,大坪,2026-07-11,25.165914,121.632969,0.39808935
C1U850,觀音海岸,2026-07-11,24.38319,121.77856,0.9938599
C2K610,草嶺石壁,2026-07-11,23.602469,120.707731,0.9329433
C0U950,鶯子嶺,2026-07-11,24.89754,121.79244,0.9404085
C0O900,善化,2026-07-11,23.112883,120.297219,0.16299875
C0K550,蔦松,2026-07-11,23.514319,120.229736,0.10516355
E2P980,林試六龜中心,2026-07-11,22.991703,120.645722,0.5038718
C0E590,通霄,2026-07-11,24.471892,120.704622,0.7756758
C1I310,西巒,2026-07-11,23.754486,120.883956,0.8650367
C0A550,泰平,2026-07-11,24.971197,121.823711,0.31537455
C2UC30,金洋,2026-07-11,24.42465,121.74573,0.40342513
C0I360,水里,2026-07-11,23.812553,120.849792,0.026704635
C0R830,高士,2026-07-11,22.121825,120.836781,0.10216608
C1I101,溪頭,2026-07-11,23.661789,120.807647,0.34971356
C0AJ20,野柳,2026-07-11,25.20703,121.690021,0.10948937
C0B060,暖暖,2026-07-11,25.0957,121.7403,0.18992347
C1H920,長豐,2026-07-11,24.102039,120.879897,0.923104
C2S9B0,利吉,2026-07-11,22.86246,121.15486,0.35509932
C0V360,內門,2026-07-11,22.975481,120.466769,0.16200277
C0R850,林邊,2026-07-11,22.4634,120.5339,0.18031076
C0E930,龍鳳,2026-07-11,24.700034,120.859125,0.63276714
C0U910,冬山,2026-07-11,24.63373,121.7937,0.09047477
C1E721,泰安,2026-07-11,24.489017,120.968036,0.85843164
82H320,茶改中部分場,2026-07-11,23.875611,120.913583,0.93097275
C0M750,布袋,2026-07-11,23.380878,120.167789,0.16089684
C1S860,利嘉,2026-07-11,22.809417,121.050528,0.9311441
E2S980,林試太麻里1,2026-07-11,22.598922,120.980044,0.17341416
C0X170,關廟,2026-07-11,22.963017,120.327797,0.25325325
C0V720,林園,2026-07-11,22.507747,120.394511,0.12350526
C2M9G0,沄水,2026-07-11,23.38293,120.52666,0.16707581
C1I510,線浸林道,2026-07-11,23.761508,120.832956,0.75108814
C0D690,外湖,2026-07-11,24.917735,120.968711,0.82041407
C0C750,新興坑尾,2026-07-11,25.0061,121.0971,0.6891181
B2Q810,畜試南區分所,2026-07-11,21.945583,120.802167,0.08336547
C0S790,金崙,2026-07-11,22.538122,120.966875,0.32747412
C0AH90,福山植物園,2026-07-11,24.760717,121.58135,0.04073592
C0I540,奇萊稜線,2026-07-11,24.109231,121.326456,0.0005819289
C0M850,表湖,2026-07-11,23.24186,120.64166,0.9674664
C0S770,大溪山,2026-07-11,22.478475,120.943325,0.10883559
C0AG80,中和,2026-07-11,24.991622,121.491792,0.11773386
C0T790,大禹嶺,2026-07-11,24.186117,121.316086,0.0010815036
C0T9B0,水源,2026-07-11,23.991861,121.537169,0.81001306
C0R840,牡丹池山,2026-07-11,22.168389,120.841225,0.36433396
C1I131,桶頭,2026-07-11,23.641944,120.654117,0.03191751
CAL110,布袋國中,2026-07-11,23.35893,120.18026,0.2000041
C2M9D0,何竹子腳,2026-07-11,23.53641,120.38203,0.08584147
C0Z290,赤柯山,2026-07-11,23.36893,121.38293,0.99629116
C0X280,將軍,2026-07-11,23.214999,120.13577,0.16953282
C0S690,太麻里,2026-07-11,22.60902,120.98533,0.85837245
C0U880,北關,2026-07-11,24.9072,121.8734,0.07451847
CAW010,東引,2026-07-11,26.3588,120.4836,0.86881214
C0G810,埔心,2026-07-11,23.947633,120.525456,0.11027862
C0U970,大福,2026-07-11,24.80064,121.81389,0.0693347
C2H9N0,仁愛東眼,2026-07-11,24.026875,121.1205,0.5166789
C1E670,南礦,2026-07-11,24.538278,121.002836,0.9132349
C0M520,東後寮,2026-07-11,23.369908,120.248065,0.17892368
C1E461,松安,2026-07-11,24.397972,120.986022,0.9225743
C2N160,西拉雅風管處,2026-07-11,23.189481,120.335297,0.20073973
C2O850,環湖,2026-07-11,23.148665,120.4186,0.11508028
C2M970,碧湖,2026-07-11,23.568632,120.624165,0.86564493
C0A640,石碇,2026-07-11,24.993969,121.662917,0.12971593
E2S960,林試太麻里2,2026-07-11,22.598,120.99775,0.16750488
C0F9Y0,桃山,2026-07-11,24.432739,121.303808,0.0006050063
C1I020,萬大,2026-07-11,23.979817,121.132261,0.74610764
C2UC20,長嶺,2026-07-11,24.70894,121.61162,0.025591912
C0U940,羅東,2026-07-11,24.68184,121.74934,0.09227403
C0M650,朴子,2026-07-11,23.43463,120.23902,0.09539198
C1I500,大尖山,2026-07-11,23.858572,120.994889,0.055422753
C0FB40,中橫21.6k,2026-07-11,24.2499,121.1455,0.94580173
C0G820,田尾,2026-07-11,23.901669,120.509389,0.11027862
E2K600,四湖植物園,2026-07-11,23.676986,120.163433,0.11385294
C0S730,綠島,2026-07-11,22.6672,121.47533,0.48401925
12Q970,東港工作站,2026-07-11,22.479997,120.466058,0.18040007
C1TA00,太魯閣,2026-07-11,24.15773,121.6236,0.056178663
466920,臺北,2026-07-11,25.037658,121.514853,0.08731871
C0R600,舊泰武,2026-07-11,22.588194,120.664944,0.66713744
466910,鞍部,2026-07-11,25.182586,121.529731,0.96779704
C1I230,九份二山,2026-07-11,23.961944,120.845,0.9542432
C2M810,里佳,2026-07-11,23.389125,120.716647,0.9370069
C2A660,瑞芳,2026-07-11,25.113169,121.801147,0.16835128
C0R270,琉球嶼,2026-07-11,22.332244,120.362236,0.1799773
C2V580,瑞山,2026-07-11,22.90304,120.43424,0.17610626
C1T990,高寮,2026-07-11,23.394239,121.356808,0.90944767
C0G620,芬園,2026-07-11,24.015678,120.6213,0.14986008
C1Z140,荖溪,2026-07-11,23.890575,121.45964,0.9235402
C1I201,中心崙,2026-07-11,23.728722,120.712097,0.85572815
C1I400,凌霄,2026-07-11,24.018778,121.004456,0.5323925
C1M640,十字,2026-07-11,23.492153,120.753683,0.7860684
G2P820,農試鳳山分所,2026-07-11,22.646611,120.356083,0.21633512
C0Z270,蕃薯寮,2026-07-11,23.73835,121.540108,0.93196243
C2E420,竹南,2026-07-11,24.70898,120.88897,0.6374951
C2D480,打鐵坑,2026-07-11,24.849664,121.150789,0.15683766
C0FB10,出雲山苗圃,2026-07-11,24.23105,120.90475,0.7321161
C0F9Q0,外埔,2026-07-11,24.347817,120.705686,0.5812599
C0K580,高鐵雲林,2026-07-11,23.737456,120.417944,0.080335006
C2I090,鳳凰,2026-07-11,23.728081,120.787347,0.87736005
C0U990,員山,2026-07-11,24.74435,121.72247,0.09068341
C0V770,大社,2026-07-11,22.730306,120.346639,0.19497798
C0X120,麻豆,2026-07-11,23.183289,120.248611,0.14059468
C0C670,龍潭,2026-07-11,24.870056,121.221389,0.16123556
C0D680,香山濕地,2026-07-11,24.783581,120.914988,0.82041407
C0S980,勝林山,2026-07-11,22.430439,120.8938,0.8985655
C0V730,大寮,2026-07-11,22.605614,120.395717,0.21627909
C0R570,麟洛,2026-07-11,22.65078,120.52719,0.13699271
C2M930,石卓,2026-07-11,23.478744,120.702264,0.7971603
C0G9B0,和美,2026-07-11,24.105169,120.492131,0.18784069
C2I240,外大坪,2026-07-11,23.9587,120.91788,0.93967205
CAG100,王功漁港,2026-07-11,23.96824,120.32586,0.32740465
C0X290,北門,2026-07-11,23.267772,120.125481,0.16953282
C2F930,大甲,2026-07-11,24.347667,120.640403,0.5498177
C0D650,湖口,2026-07-11,24.904794,121.043628,0.7256885
C0U780,五結,2026-07-11,24.68637,121.79794,0.09047477
C1I250,鯉潭,2026-07-11,23.961922,120.991131,0.92965364
C0R130,阿禮,2026-07-11,22.742908,120.743678,0.9356685
C0X100,臺南市北區,2026-07-11,23.010394,120.194228,0.18047172
C0S920,金峰嘉蘭,2026-07-11,22.594789,120.960825,0.2499836
C0V490,新興,2026-07-11,22.627422,120.298803,0.22463767
C0F9K0,大安,2026-07-11,24.345061,120.588025,0.4581874
C2E970,八甲,2026-07-11,24.535811,120.795983,0.74239075
C0V440,鳳山,2026-07-11,22.646653,120.356122,0.21633512
C1T940,大觀,2026-07-11,23.714206,121.373133,0.98799366
C0E740,造橋,2026-07-11,24.637056,120.864778,0.6518844
C0R100,尾寮山,2026-07-11,22.833111,120.683889,0.9485686
A2K630,臺大雲林校區,2026-07-11,23.730628,120.423903,0.080517225
467990,馬祖,2026-07-11,26.169467,119.923158,0.9488684
C0D580,寶山,2026-07-11,24.735006,121.025192,0.23320462
E2P990,林試扇平站,2026-07-11,22.9677,120.6857,0.87549514
C0AI30,三重,2026-07-11,25.057328,121.500629,0.0869409
C0AH00,汐止,2026-07-11,25.066881,121.658778,0.1709507
C1Z040,立山,2026-07-11,23.443356,121.327375,0.99620026
466881,新北,2026-07-11,24.959207,121.525196,0.11728111
C0W130,花嶼,2026-07-11,23.40007,119.32276,0.5811569
C0A950,鼻頭角,2026-07-11,25.129036,121.923372,0.31232545
C0K470,林內,2026-07-11,23.748675,120.609642,0.085819475
C2F990,摩天嶺,2026-07-11,24.322458,120.936819,0.79870284
C2E430,南庄,2026-07-11,24.601775,121.000214,0.47923896
82C160,茶改場,2026-07-11,24.908472,121.185333,0.3882184
C2TB60,南安,2026-07-11,23.29818,121.26157,0.9651406
C0Z320,清水林道,2026-07-11,23.27125,121.188272,0.9890781
C0R760,南仁湖,2026-07-11,22.084681,120.863353,0.07164442
C0M670,大林,2026-07-11,23.600616,120.45841,0.094273865
C0M800,茶山,2026-07-11,23.299075,120.664767,0.5648335
C0A9C0,天母,2026-07-11,25.117494,121.537169,0.075886264
72K220,南改斗南分場,2026-07-11,23.634556,120.477333,0.08353631
72AI40,桃改樹林分場,2026-07-11,24.944503,121.386972,0.13181598
C0S910,蘭嶼燈塔,2026-07-11,22.081197,121.503117,0.69691944
C0B050,八斗子,2026-07-11,25.144754,121.79167,0.14113155
C0U900,內城,2026-07-11,24.71813,121.68766,0.08636062
C0X320,柳營,2026-07-11,23.253328,120.375253,0.1310325
C0M790,新港,2026-07-11,23.553269,120.345728,0.078461334
C0F9T0,西屯,2026-07-11,24.179494,120.641275,0.15099674
C0E950,松安,2026-07-11,24.39792,120.98599,0.9225743
C0SA30,都歷,2026-07-11,23.020333,121.323642,0.18120363
C0C620,蘆竹,2026-07-11,25.084275,121.265767,0.44753435
C0R730,大坪頂,2026-07-11,22.024633,120.69355,0.03454975
C0AJ40,石門,2026-07-11,25.273672,121.601198,0.3358309
C0E750,苗栗,2026-07-11,24.564569,120.824575,0.7064712
C0T870,鯉魚潭,2026-07-11,23.935639,121.508944,0.30254176
C1V170,排雲,2026-07-11,23.463619,120.954147,0.00029457323
C2H950,中寮,2026-07-11,23.884447,120.766406,0.040914033
C0R350,貓鼻頭,2026-07-11,21.921774,120.7358,0.042685598
C0V660,岡山,2026-07-11,22.797078,120.294958,0.18668072
C1H941,雙冬,2026-07-11,23.967378,120.802189,0.8719373
C0AJ70,田寮,2026-07-11,25.2698,121.4886,0.17809457
C0AI00,五股,2026-07-11,25.07445,121.42728,0.22729413
C0Z280,德武,2026-07-11,23.47426,121.41071,0.96624035
C2RA10,大新,2026-07-11,22.67558,120.57788,0.3254126
C0C460,復興,2026-07-11,24.820208,121.352281,0.39285934
C2AA10,中八仙,2026-07-11,25.11576,121.49199,0.0703978
E2H360,蓮華池,2026-07-11,23.918333,120.885278,0.8798367
C0M640,中埔,2026-07-11,23.42538,120.5229,0.23629667
C2C810,八德蔬果,2026-07-11,24.97858,121.28187,0.22570361
C2M9F0,安溪寮,2026-07-11,23.350334,120.208039,0.2038102
C0W140,金沙,2026-07-11,24.488292,118.408778,0.20395811
C2A540,四堵,2026-07-11,24.8926,121.745736,0.17551136
C0ACA0,新莊,2026-07-11,25.051478,121.446756,0.104180545
C0R220,潮州,2026-07-11,22.534361,120.54,0.16449855
U2HA40,臺大內茅埔,2026-07-11,23.689722,120.851117,0.18699194
467490,臺中,2026-07-11,24.145736,120.684075,0.10797129
C0UB60,明池,2026-07-11,24.650688,121.475277,0.8546138
C0U960,翠峰湖,2026-07-11,24.510856,121.608044,0.07779043
E2HA20,林試畢祿溪站,2026-07-11,24.226944,121.308522,0.04105312
C2M9A0,大華,2026-07-11,23.4824,120.67491,0.96246135
C0V890,前鎮,2026-07-11,22.5718,120.3117,0.18574448
C1F941,雪嶺,2026-07-11,24.280586,121.026642,0.0029072573
C2H9E0,國姓南港,2026-07-11,23.911108,120.846556,0.9011534
C0AC80,文山,2026-07-11,25.00235,121.575728,0.055477295
C0F9R0,龍井,2026-07-11,24.184536,120.528972,0.2018494
C0M760,民雄,2026-07-11,23.551754,120.428457,0.094273865
C0UA40,西德山,2026-07-11,24.560647,121.752608,0.98043585
C2TA70,赤科坪,2026-07-11,23.39885,121.39168,0.9967435
C1T920,中興,2026-07-11,23.769503,121.498653,0.24715339
C0D550,雪霸,2026-07-11,24.526972,121.11605,0.6789935
C2F860,梨山,2026-07-11,24.247522,121.243669,0.026215123
C0R320,車城,2026-07-11,22.0744,120.716247,0.02421771
C1S870,南美山,2026-07-11,23.15025,121.382333,0.9617973
C0B020,基隆嶼,2026-07-11,25.19141,121.78391,0.14773189
C1U501,牛鬥,2026-07-11,24.637836,121.573656,0.016531983
C0M730,嘉義市東區,2026-07-11,23.457673,120.460531,0.14411333
C2R990,泰武,2026-07-11,22.60686,120.69765,0.97502464
C0S700,知本,2026-07-11,22.684866,121.005642,0.8606698
C1N001,沙崙,2026-07-11,22.935472,120.309406,0.24958268
C0V760,橋頭,2026-07-11,22.757806,120.30575,0.19444613
C2V570,吉東,2026-07-11,22.85418,120.54539,0.28843227
C0G960,福寶,2026-07-11,24.0443,120.3814,0.19629431
C0X210,白河,2026-07-11,23.347466,120.414427,0.15468942
C0S810,東河,2026-07-11,22.972672,121.303986,0.20510605
C2R170,屏東,2026-07-11,22.66027,120.49403,0.13699271
C0R670,楓港,2026-07-11,22.190131,120.692156,0.033578206
C0FA50,霧峰,2026-07-11,24.0419,120.6995,0.071072035
C0UB10,蘇澳,2026-07-11,24.5969,121.8571,0.043264154
C0G950,防潮門,2026-07-11,24.1835,120.4871,0.15319008
C0M740,六腳,2026-07-11,23.492871,120.290625,0.0713722
C1R250,力里,2026-07-11,22.428117,120.629228,0.19145359
C0K330,虎尾,2026-07-11,23.719183,120.442036,0.08070779
C2FA00,烏石坑,2026-07-11,24.273503,120.947617,0.7841524
C0V620,永安,2026-07-11,22.82315,120.236856,0.18645947
C1I330,楓樹林,2026-07-11,23.986803,121.076117,0.5632628
C0W200,湖西,2026-07-11,23.596314,119.67275,0.77208453
72Q010,高雄農改場,2026-07-11,22.709333,120.525889,0.19967768
C2K301,鹿南,2026-07-11,23.643341,120.3683,0.08868457
C0C680,龜山,2026-07-11,25.02846,121.38656,0.47290993
C2V260,月眉,2026-07-11,22.971003,120.539853,0.19693068
C0V450,鳳森,2026-07-11,22.545064,120.392592,0.12319747
C0FA90,小雪山林道,2026-07-11,24.29515,121.03651,0.0012646967
C0U720,南山,2026-07-11,24.43742,121.38167,0.7232873
A2N290,臺南蘭花園區,2026-07-11,23.340258,120.379661,0.16168857
C0R560,新園,2026-07-11,22.5434,120.461558,0.12350526
C0U890,三星,2026-07-11,24.66812,121.65302,0.12027299
C1V300,御油山,2026-07-11,23.001983,120.715364,0.79873335
C0U600,礁溪,2026-07-11,24.817539,121.765608,0.07427395
C1T980,龍澗,2026-07-11,24.023289,121.411328,0.86974156
C0R700,枋山,2026-07-11,22.247814,120.660794,0.041011814
C0D670,海天一線,2026-07-11,24.831986,120.914438,0.860249
C0SA00,歷坵,2026-07-11,22.520969,120.89185,0.06376173
C0M710,東石,2026-07-11,23.458927,120.15385,0.1681706
C0M780,鹿草,2026-07-11,23.41134,120.30835,0.099058226
C0U520,雙連埤,2026-07-11,24.753033,121.641303,0.912173
C0B010,七堵,2026-07-11,25.094819,121.71713,0.14977914
C0R480,長治,2026-07-11,22.693128,120.542622,0.27589077
C1V830,國三S383K,2026-07-11,22.781967,120.426475,0.17571713
12Q980,恆春工作站,2026-07-11,22.079678,120.714425,0.02421771
C1O940,東山服務區,2026-07-11,23.286016,120.398472,0.16194417
C1U840,東澳嶺,2026-07-11,24.5378,121.8485,0.95475304
C1D630,飛鳳山,2026-07-11,24.766464,121.119178,0.695011
C0S940,石寧山,2026-07-11,23.223772,121.406639,0.8583863
C0K410,北港,2026-07-11,23.573957,120.292802,0.080038175
C2M620,瑞里,2026-07-11,23.545133,120.675197,0.93714213
C0SB70,小港漁港,2026-07-11,23.158558,121.400431,0.44136477
C2O950,安南,2026-07-11,23.076694,120.144861,0.24904563
C0F0E0,南湖圈谷,2026-07-11,24.363714,121.444667,0.00029359668
467610,成功,2026-07-11,23.097486,121.373428,0.15716043
C0G890,伸港,2026-07-11,24.148933,120.484403,0.15494932
C2E540,龍溪,2026-07-11,24.606489,120.783933,0.69965106
C1V200,梅山,2026-07-11,23.268447,120.823556,0.9623261
C0T9H0,加路蘭山,2026-07-11,23.682947,121.5274,0.98813146
C2O930,玉井,2026-07-11,23.126042,120.46055,0.11508028
C1F911,新伯公,2026-07-11,24.221361,120.841069,0.7932728
C0X200,左鎮,2026-07-11,23.056758,120.408522,0.15523963
C2TB50,麻汝,2026-07-11,23.42554,121.39358,0.97176087
C0FA60,鞍馬山工作站,2026-07-11,24.267064,121.000793,0.016755015
C0SB50,叭嗡嗡,2026-07-11,23.047062,121.343223,0.13842803
C2R550,新埤,2026-07-11,22.467947,120.582894,0.15876807
C1F891,稍來,2026-07-11,24.265689,121.001142,0.022123279
C2M9C0,紫雲,2026-07-11,23.494914,120.540253,0.2019938
72N240,七股研究中心,2026-07-11,23.081672,120.062894,0.23530366
C0C700,中壢,2026-07-11,24.977661,121.256375,0.23667361
C0M690,水上,2026-07-11,23.419734,120.388909,0.12870567
C0V690,鼓山,2026-07-11,22.623325,120.275575,0.22463767
C0O860,大內,2026-07-11,23.11885,120.36083,0.20175776
C0Z200,萬榮,2026-07-11,23.709219,121.420106,0.5433227
C0T9D0,和中,2026-07-11,24.26676,121.74103,0.8645868
C2S9A0,北份子寮,2026-07-11,22.78561,121.07813,0.2825866
C1O921,楠西,2026-07-11,23.183511,120.484083,0.116072685
C0AJ30,淡水觀海,2026-07-11,25.184591,121.408616,0.21383834
C0V810,左營,2026-07-11,22.67491,120.28491,0.25072125
C0UA70,桃源谷,2026-07-11,24.962606,121.888875,0.73306245
C0X130,官田,2026-07-11,23.193217,120.315422,0.20085226
C1H000,翠峰,2026-07-11,24.109397,121.205211,0.017060991
C0UA90,石城,2026-07-11,24.980444,121.951214,0.33640513
C1E681,南勢山,2026-07-11,24.421669,120.923831,0.9778985
C0A9F0,內湖,2026-07-11,25.079422,121.57545,0.073964514
C0K291,宜梧,2026-07-11,23.536281,120.169329,0.12513287
C1K540,口湖,2026-07-11,23.585344,120.180517,0.1243727
C0R780,滿州,2026-07-11,22.024403,120.839892,0.06975604
C0V870,文安,2026-07-11,22.8025,120.2164,0.18097767
C0U650,玉蘭,2026-07-11,24.675286,121.587061,0.026469491
C0R640,東港,2026-07-11,22.46247,120.44074,0.13424268
C0AJ80,板橋,2026-07-11,25.0107,121.4489,0.11773386
C0S660,下馬,2026-07-11,23.150427,121.070312,0.97897285
C2N190,烏樹,2026-07-11,23.32393,120.36989,0.22309005
C1H9B1,阿眉,2026-07-11,24.1263,120.994672,0.70063967
C0UA20,多加屯,2026-07-11,24.368614,121.373189,0.0012777081
C0E730,頭份,2026-07-11,24.688247,120.912206,0.6358751
72V140,高改旗南分場,2026-07-11,22.857861,120.516667,0.23362541
C2R490,九如,2026-07-11,22.74049,120.490555,0.19967768
C0K480,莿桐,2026-07-11,23.761192,120.502372,0.07441974
C0U980,坪林石牌,2026-07-11,24.86478,121.77396,0.84430194
C0T900,西林,2026-07-11,23.8119,121.441458,0.4258465
C1I150,青雲,2026-07-11,23.793361,120.949378,0.11553044
C2E980,和興,2026-07-11,24.505319,120.923016,0.4935608
467350,澎湖,2026-07-11,23.565503,119.563094,0.6968568
C0G800,埔鹽,2026-07-11,24.000394,120.431683,0.20766555
C0H960,草屯,2026-07-11,23.973672,120.68085,0.0677636
C1V780,多納林道,2026-07-11,22.888028,120.737917,0.92802024
C0E920,通霄漁港,2026-07-11,24.498589,120.673876,0.75587016
C0Z330,安通山,2026-07-11,23.290728,121.348528,0.975802
C0AH10,永和,2026-07-11,25.01125,121.508111,0.117402524
C0AK10,太平里,2026-07-11,25.134937,121.364899,0.2455356
C2G640,鹿港,2026-07-11,24.0753,120.430481,0.18498707
C1E890,國三N149K,2026-07-11,24.463414,120.680019,0.7832003
C1M870,國三N285K,2026-07-11,23.550319,120.505833,0.21343
C1E480,鳳美,2026-07-11,24.554803,121.034747,0.29947627
C0T9M0,靜浦,2026-07-11,23.455167,121.495028,0.8255385
C2H9M0,發祥,2026-07-11,24.154094,121.164517,0.9633916
C2G9C0,埔南,2026-07-11,23.99124,120.46969,0.20766555
C0AI40,石牌,2026-07-11,25.115597,121.513139,0.073964514
C1F871,上谷關,2026-07-11,24.203483,121.018644,0.7841524
C2H9G0,百勝,2026-07-11,24.051142,120.909361,0.74259263
C0G880,二水,2026-07-11,23.810742,120.6173,0.06738888
C0R940,加祿堂,2026-07-11,22.3363,120.6217,0.049944893
C0W220,北竿,2026-07-11,26.220358,119.974881,0.949411
C0O960,崎頂,2026-07-11,22.959547,120.369317,0.2722331
C0TA40,秀林,2026-07-11,24.302864,121.731144,0.9808328
C0S750,向陽,2026-07-11,23.248397,120.986133,0.48743924
C0T9F0,水璉,2026-07-11,23.797131,121.542514,0.65924054
C1M600,頭凍,2026-07-11,23.406364,120.603339,0.88113475
467660,臺東,2026-07-11,22.752211,121.154586,0.14347412
C1D380,新埔,2026-07-11,24.84745,121.03834,0.599445
C2G980,田頭村,2026-07-11,23.8263,120.444175,0.07170778
C0V750,路竹,2026-07-11,22.854997,120.259439,0.18778831
C0N050,蚵寮,2026-07-11,23.301,120.1104,0.16953282
C2X060,下營,2026-07-11,23.226806,120.256291,0.15269835
72M700,南改鹿草分場,2026-07-11,23.416869,120.283061,0.09707955
C1SA50,利嘉林道,2026-07-11,22.82325,121.009389,0.8979051
C0UB70,太平山中間站,2026-07-11,24.542003,121.513453,0.32017544
C0A940,金山,2026-07-11,25.223628,121.643967,0.112153314
C1V340,大津,2026-07-11,22.888322,120.645986,0.34933418
C0W180,七美,2026-07-11,23.219333,119.444892,0.6638363
C1F9C1,白冷,2026-07-11,24.182844,120.929889,0.86759096
K2E710,苗改生物防治研究中心,2026-07-11,24.422861,120.871833,0.7606973
C0N040,蘆竹溝,2026-07-11,23.2344,120.0961,0.16862582
C0TB40,崇德,2026-07-11,24.166144,121.657414,0.420077
C0D760,大坪苗圃,2026-07-11,24.5362,121.1108,0.8951478
C2D430,峨眉,2026-07-11,24.6905,121.017189,0.32512817
C2W230,畜試所澎湖,2026-07-11,23.628342,119.513206,0.73169917
C0R880,後壁湖,2026-07-11,21.9457,120.7457,0.043916643
C1I280,埔中,2026-07-11,23.820778,120.642594,0.12630565
467790,墾丁雷達站,2026-07-11,21.948235,120.808028,0.08265277
C0W190,望安,2026-07-11,23.380564,119.494075,0.74992204
C0Z170,卓溪,2026-07-11,23.3443,121.3029,0.95749545
C0F850,東勢,2026-07-11,24.246428,120.833047,0.7291729
466900,淡水,2026-07-11,25.164889,121.448906,0.13380454
C0I370,魚池,2026-07-11,23.895703,120.94135,0.9168146
C0C630,大溪,2026-07-11,24.882853,121.265547,0.33870044
C0A520,山佳,2026-07-11,24.974944,121.402008,0.12616923
C0I110,竹山,2026-07-11,23.761225,120.688156,0.051456284
82H840,茶改南部分場,2026-07-11,23.762528,120.7405,0.05738751
C2SD80,再來山,2026-07-11,23.34371,121.44122,0.96678776
C0G660,溪湖,2026-07-11,23.94835,120.479122,0.10836319
C1T800,洛韶,2026-07-11,24.204558,121.453956,0.9581485
C1T810,慈恩,2026-07-11,24.192044,121.388386,0.09022504
C1E451,象鼻,2026-07-11,24.368617,120.940228,0.9778985
C0AC60,三峽,2026-07-11,24.939025,121.369728,0.19536802
C0I490,萬大林道,2026-07-11,23.928228,121.091411,0.22669148
C1I290,豐丘,2026-07-11,23.668178,120.887417,0.65933794
C1I320,奧萬大,2026-07-11,23.952956,121.178556,0.9263607
C2M910,嘉義大學,2026-07-11,23.471325,120.485903,0.15530609
C0U770,南澳,2026-07-11,24.44935,121.81022,0.058121163
C2TB30,吉安,2026-07-11,23.94538,121.54803,0.24204206
C0A980,社子,2026-07-11,25.109508,121.469681,0.084221736
C0V800,六龜,2026-07-11,22.997889,120.633583,0.45646784
C1G9D0,國一S218K,2026-07-11,23.890641,120.493253,0.08568292
C0E570,白沙屯,2026-07-11,24.549447,120.696803,0.894271
C2F9A0,中竹林,2026-07-11,24.103556,120.751061,0.7227161
C0FA40,臺中電廠,2026-07-11,24.2146,120.4907,0.17622918
C2G9A0,畜試所彰化,2026-07-11,23.86045,120.557964,0.07667416
C0H9C0,合歡山,2026-07-11,24.143442,121.272547,0.00045289207
G2M350,農試溪口農場,2026-07-11,23.58565,120.408111,0.0875367
C0U860,頭城,2026-07-11,24.85323,121.8308,0.0689751
C0R580,南州,2026-07-11,22.48591,120.50274,0.18039997
C0G780,秀水,2026-07-11,24.03405,120.503869,0.110580936
72N100,臺南農改場,2026-07-11,23.0605,120.342194,0.16279836
C0S900,蘭嶼高中,2026-07-11,22.04909,121.51214,0.6364698
C2TA60,六十石,2026-07-11,23.22477,121.31861,0.97778934
C1F9W0,德基,2026-07-11,24.254783,121.190261,0.2469838
C2M980,安和,2026-07-11,23.51377,120.31593,0.0713722
C1Z120,壽豐,2026-07-11,23.870853,121.508081,0.21284209
C0W160,烏坵,2026-07-11,24.9944,119.44956,0.8955249
C1I550,國六W023K,2026-07-11,23.979067,120.867742,0.37427348
C0R870,興海,2026-07-11,21.9752,120.8439,0.08336547
C0R140,瑪家,2026-07-11,22.682903,120.686639,0.27728677
C0A530,坪林,2026-07-11,24.938183,121.70975,0.16376798
C0X260,後壁,2026-07-11,23.366358,120.362326,0.19285522
C0Z230,和平,2026-07-11,24.30717,121.77007,0.94959724
C0G770,福興,2026-07-11,24.041289,120.437669,0.20766555
C0H9A0,神木村,2026-07-11,23.532742,120.843667,0.7187723
C0I460,南投,2026-07-11,23.911469,120.687331,0.06675869
C0I480,梅峰,2026-07-11,24.085272,121.173572,0.29112157
C2D770,巨埔,2026-07-11,24.84435,121.11442,0.36049604
C2A560,福山,2026-07-11,24.776203,121.502811,0.023111563
C0AH30,五分山,2026-07-11,25.07125,121.780794,0.9089727
C0FA10,松柏,2026-07-11,24.429115,120.617482,0.756741
72S200,東改班鳩分場,2026-07-11,22.829528,121.077694,0.5483186
72HA00,中改埔里分場,2026-07-11,23.903208,120.963364,0.90681815
C2H9W0,大坪頂農水,2026-07-11,24.043122,120.932781,0.93085295
C0C650,平鎮,2026-07-11,24.897503,121.214636,0.4212127
C0S930,延平,2026-07-11,22.902581,121.084058,0.49514896
C0UA60,樟樹山,2026-07-11,24.41393,121.78325,0.9920199
C2UC10,出水溪,2026-07-11,24.615822,121.652253,0.44795975
C1S670,摩天,2026-07-11,23.199503,121.027,0.9766726
C2C590,觀音,2026-07-11,25.027072,121.153317,0.7014021
C0V630,茄萣,2026-07-11,22.906642,120.182608,0.19365044
466940,基隆,2026-07-11,25.133314,121.740475,0.14340262
C0X050,東河,2026-07-11,23.296598,120.385608,0.16168857
C0R770,保力,2026-07-11,22.071122,120.764111,0.034737762
G2L020,農試嘉義分所,2026-07-11,23.485028,120.473806,0.15794888
C0X240,關子嶺,2026-07-11,23.331169,120.508025,0.3662125
C0I380,集集,2026-07-11,23.828206,120.801467,0.025722634
466990,花蓮,2026-07-11,23.975128,121.613275,0.04399716
C1V220,小關山,2026-07-11,23.154217,120.813603,0.3046692
C1F9G1,慶福山,2026-07-11,24.180853,120.848378,0.94667256
C0FB20,雪山橋,2026-07-11,24.23192,120.9786,0.06419304
C0Z250,瑞穗林道,2026-07-11,23.49284,121.30688,0.9663133
C0D590,新豐,2026-07-11,24.87068,120.97721,0.9183282
C2N200,口宵里,2026-07-11,23.15987,120.45988,0.2480268
C0A870,五指山,2026-07-11,25.132153,121.608692,0.9651466
C0UA50,西帽山,2026-07-11,24.555361,121.802628,0.9515756
C2R980,竹田國中,2026-07-11,22.61532,120.52412,0.18139522
C0X160,仁德,2026-07-11,22.968258,120.257689,0.24123947
C1H971,六分寮,2026-07-11,23.92507,120.6378,0.7641541
C2D790,石鹿,2026-07-11,24.56551,121.15841,0.66023713
C0W120,西嶼,2026-07-11,23.5626,119.468436,0.6269429
C0G650,員林,2026-07-11,23.946503,120.585597,0.114051856
C0AD50,鶯歌,2026-07-11,24.951533,121.346294,0.21722911
C2H9Q0,北東眼山,2026-07-11,24.120939,121.189303,0.43516243
C2H9T0,名間竹圍,2026-07-11,23.859914,120.637572,0.09060766
C0S990,山豬窟,2026-07-11,22.318619,120.857372,0.22222409
C0X190,安平,2026-07-11,22.993161,120.152181,0.17497025
C0K400,斗六,2026-07-11,23.720583,120.541127,0.074776925
12J990,口湖工作站,2026-07-11,23.589978,120.180394,0.1243727
C0O830,北寮,2026-07-11,23.079561,120.495008,0.1694144
C1D410,白蘭,2026-07-11,24.579364,121.079947,0.89964974
C0S970,加津林,2026-07-11,22.416211,120.926942,0.1649859
C0D700,關西,2026-07-11,24.7977,121.1732,0.08743621
C0U750,龜山島,2026-07-11,24.841667,121.953133,0.25319493
C0R810,內獅,2026-07-11,22.305064,120.642986,0.041011814
C2EA10,拉庫斯,2026-07-11,24.53637,121.02137,0.9254248
C1M390,龍美,2026-07-11,23.406728,120.654417,0.9594161
C2K290,崙內,2026-07-11,23.69525,120.35601,0.08868457
C2FB60,頭櫃山,2026-07-11,24.129842,120.858925,0.8972089
C1H840,國三N238K,2026-07-11,23.841008,120.707711,0.02642912
CAQ030,崎峰國小,2026-07-11,22.42565,120.49521,0.18040007
C2E520,大湖,2026-07-11,24.414939,120.870872,0.77872235
467530,阿里山,2026-07-11,23.508208,120.813242,0.0071504596
C1E691,南湖,2026-07-11,24.40135,120.837533,0.976879
C0FA30,梧棲,2026-07-11,24.256003,120.523381,0.2018494
C1V231,高中,2026-07-11,23.134911,120.716711,0.96593845
C0AK30,硬漢嶺,2026-07-11,25.136097,121.426372,0.92935556
C0F9V0,新社,2026-07-11,24.200172,120.815806,0.935535
C0H890,埔里,2026-07-11,23.972169,120.952425,0.5631875
C0R690,墾丁,2026-07-11,21.966756,120.810269,0.121780485
C0SD20,富山,2026-07-11,22.822383,121.190825,0.1087616
C0F0D0,審馬陣,2026-07-11,24.381675,121.4203,0.0007781843
C2W030,金門農試所,2026-07-11,24.448431,118.451786,0.5214151
C0R820,白鷺,2026-07-11,22.454275,120.666219,0.38143477
C0FB00,大雪山,2026-07-11,24.254668,121.007374,0.015350906
C2O880,南化,2026-07-11,23.17332,120.59413,0.2645914
C1V190,南天池,2026-07-11,23.27403,120.91176,0.12241897
C0E940,雪見,2026-07-11,24.42595,121.01347,0.30797616
K2E360,苗栗農改場,2026-07-11,24.495722,120.829111,0.66404486
CAJ050,海口故事園區,2026-07-11,23.57543,120.14121,0.1243727
C2K280,四湖,2026-07-11,23.6304,120.22717,0.11385294
C2H9D0,三隻寮,2026-07-11,24.093078,120.861578,0.9452779
C0O990,媽廟,2026-07-11,22.99175,120.293525,0.18949367
C0Z220,和平林道,2026-07-11,24.343922,121.656317,0.98424405
C0TA10,花蓮漁港,2026-07-11,23.995322,121.638331,0.4349217
72C440,桃園農改場,2026-07-11,24.950944,121.030583,0.6959046
C1E711,馬拉邦山,2026-07-11,24.367306,120.901656,0.98053795
C0SB20,富岡,2026-07-11,22.792467,121.192669,0.122527435
C0D560,竹東,2026-07-11,24.767147,121.057881,0.2753553
C0F9U0,南屯,2026-07-11,24.137006,120.637969,0.08722574
C2SD60,明峰,2026-07-11,22.8671,121.11825,0.538934
C0M720,番路,2026-07-11,23.464657,120.554156,0.26027396
C0F0A0,雪山圈谷,2026-07-11,24.388594,121.236339,0.0004290438
C1A9N0,四十份,2026-07-11,24.934158,121.593283,0.33469638
C0U760,東澳,2026-07-11,24.52196,121.83318,0.061569903
C0X230,鹽水,2026-07-11,23.272621,120.247641,0.2038102
C2H9H0,苗改南投蜂場,2026-07-11,23.852589,120.693481,0.042154625
C2TB70,達谷寮,2026-07-11,23.38,121.35968,0.9581732
C0R950,萬隆國小,2026-07-11,22.507667,120.587817,0.16719079
467540,大武,2026-07-11,22.35572,120.90374,0.04088074
C0V370,古亭坑,2026-07-11,22.893178,120.401947,0.1755607
C1I340,新興橋,2026-07-11,23.563333,120.868728,0.8234389
C2C480,桃園,2026-07-11,24.992425,121.323172,0.22570361
C0SA80,土坂,2026-07-11,22.453108,120.887572,0.03791859
C0R160,鹽埔,2026-07-11,22.739558,120.530778,0.19967768
C0AC40,大屯山,2026-07-11,25.175675,121.522408,0.96023256
466850,五分山雷達站,2026-07-11,25.071182,121.781205,0.9163662
C2H9L0,馬烈霸,2026-07-11,24.1512,121.201772,0.16093734
C1AI50,國三N016K,2026-07-11,25.034164,121.619664,0.1067135
C2V920,匏子寮,2026-07-11,23.04905,120.55319,0.305278
C1V600,藤枝,2026-07-11,23.071961,120.757042,0.8472364
C1E601,南勢,2026-07-11,24.572486,120.734842,0.9031129
C0O980,新市,2026-07-11,23.061614,120.298197,0.16307016
C0K420,西螺,2026-07-11,23.800407,120.467394,0.072018586
C0Z050,佳心,2026-07-11,23.34567,121.21316,0.9924449
C0AD30,蘆洲,2026-07-11,25.086594,121.472331,0.092661306
C0V610,梓官,2026-07-11,22.760558,120.267211,0.18509704
K2F750,種苗改良場,2026-07-11,24.225972,120.800917,0.9192853
C0UA80,大溪漁港,2026-07-11,24.941801,121.902955,0.124753736
C1AI60,國一39K邊坡,2026-07-11,25.064361,121.383836,0.27989745
C0W150,金寧,2026-07-11,24.457703,118.328989,0.19239175
C0R960,內埔,2026-07-11,22.608483,120.570714,0.18201393
C2H9S0,龍南,2026-07-11,23.953536,120.833183,0.9532076
C0AH40,平等,2026-07-11,25.129142,121.577086,0.6889451
C0R540,佳冬,2026-07-11,22.419456,120.552375,0.23333295
466950,彭佳嶼,2026-07-11,25.627975,122.079744,0.14932252
C0A890,雙溪,2026-07-11,25.036003,121.864242,0.270714
C0AH50,林口,2026-07-11,25.072181,121.38084,0.43521675
A2K360,水試臺西試驗場,2026-07-11,23.717231,120.190522,0.11878289
C2M960,外寮,2026-07-11,23.562643,120.665688,0.95962125
C0F9S0,烏日,2026-07-11,24.107058,120.624103,0.10813553
C2N180,鹿陶洋,2026-07-11,23.14325,120.48352,0.116072685
C0C490,八德,2026-07-11,24.928708,121.283289,0.3191461
C0R190,赤山,2026-07-11,22.592333,120.614306,0.2022551
C0T820,天祥,2026-07-11,24.179597,121.495639,0.44999
C1F9E1,龍安,2026-07-11,24.1605,120.831961,0.94908285
C2SD50,順那,2026-07-11,23.04166,121.29332,0.26951376
C0V820,小林,2026-07-11,23.148408,120.63325,0.80243355
C2G870,芳苑,2026-07-11,23.922303,120.320025,0.29976487
C0E850,大河,2026-07-11,24.618069,120.948578,0.31190163
C1U670,寒溪,2026-07-11,24.634,121.71691,0.11480362
C0N020,城西,2026-07-11,23.0568,120.0956,0.24024488
C1Z110,三棧,2026-07-11,24.11557,121.60501,0.93192565
C0R280,檳榔,2026-07-11,22.076078,120.836777,0.04903958
C2H9J0,中台,2026-07-11,23.9996,120.938739,0.9109171
C0F9L0,后里,2026-07-11,24.310436,120.729725,0.6220477
467441,高雄,2026-07-11,22.730432,120.312516,0.19497798
C2N210,岩坑,2026-07-11,23.24614,120.47458,0.15586853
C0Z180,新城,2026-07-11,24.040486,121.604878,0.04430975
C0D540,橫山,2026-07-11,24.71116,121.11693,0.29092607
C1D420,太閣南,2026-07-11,24.632808,121.160575,0.52290213
C1E770,公館,2026-07-11,24.526914,120.830806,0.68202806
CAN130,水試所海水繁養殖中心,2026-07-11,23.120802,120.07968,0.23530366
C1I430,翠華,2026-07-11,24.191961,121.224339,0.0061410074
C1M400,菜瓜坪,2026-07-11,23.251928,120.576103,0.80382663
C0G730,二林,2026-07-11,23.903325,120.376081,0.11959864
72M360,南改義竹分場,2026-07-11,23.360694,120.279361,0.18152954
V2K620,麥寮合作社,2026-07-11,23.753836,120.294783,0.0811233
C0Z070,舞鶴,2026-07-11,23.46811,121.37407,0.9762534
C0B040,大武崙,2026-07-11,25.166676,121.706993,0.1143772
C1Z030,紅葉,2026-07-11,23.493119,121.338806,0.968709
C1I050,丹大,2026-07-11,23.753747,121.141147,0.011237602
C0I080,信義,2026-07-11,23.689694,120.851036,0.18699194
C2TB80,庄子底,2026-07-11,23.71794,121.49438,0.3088703
C0D750,樂山林道6k,2026-07-11,24.49999,121.08773,0.029694596
C2M920,朴子農改,2026-07-11,23.469889,120.259383,0.09539198
C2A880,福隆,2026-07-11,25.017842,121.942083,0.3214501
C0Z160,鳳林,2026-07-11,23.746114,121.453411,0.3419352
C0UB80,翠峰林道6K,2026-07-11,24.49773,121.568625,0.039336577
C0V210,復興,2026-07-11,23.222403,120.806089,0.93405163
C0H990,昆陽,2026-07-11,24.121322,121.273642,0.0010279425
C0R741,獅子,2026-07-11,22.202308,120.705236,0.043819215
C0S710,鹿野,2026-07-11,22.917711,121.122994,0.8086381
C0I530,小奇萊,2026-07-11,24.131764,121.295717,0.00059878954
C0FA70,大雪山埡口,2026-07-11,24.26867,121.03062,0.0035557398
C2K630,荷苞,2026-07-11,23.657717,120.595144,0.196701
C0Z080,富源,2026-07-11,23.587642,121.378225,0.99465925
C2M9E0,旺來山,2026-07-11,23.555153,120.486463,0.22011605
C0SB10,美和,2026-07-11,22.682078,121.060236,0.13109238
C2K620,馬光農場,2026-07-11,23.721453,120.378864,0.080335006
C1I140,卡奈托灣,2026-07-11,23.754364,121.087872,0.0644086
C0I520,玉山風口,2026-07-11,23.470489,120.955994,0.00026410285
C1G691,下水埔,2026-07-11,23.816114,120.5676,0.062493224
C0X110,臺南市南區,2026-07-11,22.961189,120.188378,0.24209176
C0V680,仁武,2026-07-11,22.701083,120.347722,0.19497798
C2G840,北斗,2026-07-11,23.877586,120.514222,0.08677402
C2TB90,長橋,2026-07-11,23.6874,121.46186,0.3592987
C0R900,竹坑,2026-07-11,22.1385,120.7022,0.033578206
C0G860,社頭,2026-07-11,23.897647,120.5862,0.11227637
C0X150,安定,2026-07-11,23.102614,120.227839,0.16497801
C0R590,里港,2026-07-11,22.77919,120.49459,0.18988712
C0E610,馬都安,2026-07-11,24.451272,120.930192,0.9549283
C0E550,明德,2026-07-11,24.583486,120.885411,0.29425138
C0R150,三地門,2026-07-11,22.709889,120.639944,0.35381535
C0G910,花壇,2026-07-11,24.032076,120.549461,0.111810364
C1D400,鳥嘴山,2026-07-11,24.71909,121.28387,0.8661856
C0F0B0,石岡,2026-07-11,24.276061,120.777644,0.66447574
C2V250,甲仙,2026-07-11,23.080106,120.591758,0.41444647
C0SA20,金崙山,2026-07-11,22.567419,120.959667,0.91397744
C0V350,溪埔,2026-07-11,22.738578,120.446797,0.17625755
C0M660,溪口,2026-07-11,23.604131,120.403569,0.0875367
C1S880,壽卡,2026-07-11,22.238911,120.858903,0.4232554
72D680,桃改新埔分場,2026-07-11,24.834444,121.066111,0.59252656
