站號,站名,日期,lat,lon,BLBTSLS
C0R710,龍磐,2026-02-05,21.931672,120.838942,0.99992406
C1F9D1,白毛台,2026-02-05,24.158325,120.886933,3.5230803e-09
C0G940,竹塘,2026-02-05,23.848253,120.386764,1.120117e-09
467590,恆春,2026-02-05,22.003897,120.746339,0.9973574
C1O850,環湖,2026-02-05,23.148617,120.418633,3.4501504e-09
C0U710,太平山,2026-02-05,24.505486,121.525656,3.558742e-08
C0E820,獅潭,2026-02-05,24.539133,120.920042,1.6238225e-08
C2SD70,二層坪,2026-02-05,22.94105,121.16838,7.617343e-08
C0V880,興達,2026-02-05,22.8778,120.2127,0.1808137
C0S890,關山,2026-02-05,23.0395,121.175017,6.607316e-08
C0SB30,新蘭,2026-02-05,22.869214,121.223228,3.2065464e-07
C2R970,屏科大,2026-02-05,22.648275,120.619247,0.00032118478
C1Z130,銅門,2026-02-05,23.965694,121.492842,5.5451558e-08
C0AD40,土城,2026-02-05,24.973208,121.445169,6.482782e-08
CAN140,六官養殖協會,2026-02-05,23.22881,120.29962,0.00027969718
C0X180,山上,2026-02-05,23.0757,120.363253,0.010551783
C0F9Z0,雪山東峰,2026-02-05,24.388792,121.268675,3.702052e-08
C1M480,獨立山,2026-02-05,23.537022,120.607797,1.40143e-09
C0X220,學甲,2026-02-05,23.230367,120.182187,0.00044030335
467650,日月潭,2026-02-05,23.881325,120.90805,3.670278e-09
A2K570,古坑(花卉中心),2026-02-05,23.633531,120.552392,5.8170785e-10
C0K600,箔子寮,2026-02-05,23.6197,120.14,6.368936e-07
C0G830,埤頭,2026-02-05,23.866003,120.452806,1.0336001e-09
C0S950,七塊厝,2026-02-05,22.954453,121.229922,3.4127417e-08
467110,金門,2026-02-05,24.407306,118.289281,1.8129485e-07
C0AH80,深坑,2026-02-05,25.002703,121.628328,4.8780574e-08
C0A970,三貂角,2026-02-05,25.007606,122.002058,8.837975e-08
C2D730,寶山農場,2026-02-05,24.732444,120.976153,2.602911e-08
C0K430,褒忠,2026-02-05,23.690938,120.303634,8.51863e-08
467480,嘉義,2026-02-05,23.495925,120.432906,2.2288809e-09
C0V400,阿公店,2026-02-05,22.804194,120.355528,0.0027584617
C0E960,觀霧分站,2026-02-05,24.505781,121.113921,2.2003237e-08
467550,玉山,2026-02-05,23.48718,120.95943,5.0264568e-08
C0R440,大漢山,2026-02-05,22.405264,120.753181,2.9510264e-08
C0SD30,東清國小,2026-02-05,22.057128,121.564922,0.9993791
C1F9B1,桐林,2026-02-05,24.066172,120.735194,2.212354e-09
C2H9U0,鳳鵬,2026-02-05,23.763919,120.788061,7.8090345e-10
C0K390,土庫,2026-02-05,23.679029,120.395574,1.1416865e-09
C1I450,望鄉山,2026-02-05,23.594153,120.944286,3.124262e-08
C0E910,海埔,2026-02-05,24.648767,120.772435,4.0829903e-08
B2E890,畜試北區分所,2026-02-05,24.527806,120.770972,2.9398242e-08
C0R750,四林格山,2026-02-05,22.076989,120.802439,0.99137527
C0F0C0,中坑,2026-02-05,24.248517,120.903319,5.0203415e-09
C1I121,大鞍,2026-02-05,23.678381,120.760017,6.8941866e-09
C2G9E0,移民庄,2026-02-05,23.9784,120.40283,2.7808863e-08
72U480,花改蘭陽分場,2026-02-05,24.686306,121.716583,3.0959367e-08
C0A770,科教館,2026-02-05,25.096356,121.516507,8.972958e-08
C0AJ60,六塊厝,2026-02-05,25.24,121.4481,2.9790344e-06
C0R620,墾雷,2026-02-05,21.900836,120.855269,0.99972665
467420,永康,2026-02-05,23.038386,120.2367,0.28894737
C2M530,奮起湖,2026-02-05,23.493903,120.699253,6.2141154e-09
C0I410,名間,2026-02-05,23.837053,120.701447,1.0818202e-09
A2C560,農工中心,2026-02-05,24.985917,121.239833,1.8233904e-07
C0V740,旗山,2026-02-05,22.888614,120.483597,3.1179957e-06
C0Z061,玉里,2026-02-05,23.3215,121.339656,1.285176e-07
C0S840,南田,2026-02-05,22.279725,120.889208,0.99927735
C1I470,杉林溪,2026-02-05,23.639517,120.786444,9.538425e-09
C1X040,東原,2026-02-05,23.291597,120.463822,1.3098892e-09
C0R660,枋寮,2026-02-05,22.367722,120.590647,0.1134612
C1R120,上德文,2026-02-05,22.763272,120.704442,4.4468176e-09
C0K450,大埤,2026-02-05,23.646074,120.431537,9.9581e-10
C0UA00,土場,2026-02-05,24.576533,121.495333,3.36314e-08
467080,宜蘭,2026-02-05,24.763975,121.756528,3.1028236e-08
C0N030,四草,2026-02-05,23.0235,120.1116,0.36647058
467410,臺南,2026-02-05,22.99328,120.20492,0.116747074
C0V650,彌陀,2026-02-05,22.783806,120.246361,0.02464409
C0D660,新竹市東區,2026-02-05,24.798681,120.986942,3.5202408e-08
82S580,茶改東部分場,2026-02-05,22.907694,121.130139,9.8583065e-08
C0SB40,興隆,2026-02-05,22.913661,121.257469,3.5143816e-07
467050,新屋,2026-02-05,25.006725,121.047492,4.890168e-07
C0C710,大溪永福,2026-02-05,24.892936,121.324975,9.889645e-08
C0FA20,溫寮,2026-02-05,24.372177,120.583125,2.477686e-06
C0V640,湖內,2026-02-05,22.887139,120.2445,0.15229058
C0R910,下寮,2026-02-05,22.3929,120.5548,0.12627852
C0Z020,明里,2026-02-05,23.208717,121.262342,1.0067308e-07
C0M770,嘉義梅山,2026-02-05,23.585398,120.555587,7.714039e-10
C0C660,楊梅,2026-02-05,24.912375,121.143047,1.1131938e-07
C0SD40,牛頭山,2026-02-05,22.676661,121.506944,0.9549269
C1E511,新開,2026-02-05,24.347703,120.827019,4.1058854e-09
G2F820,農試所(霧峰),2026-02-05,24.031261,120.688133,3.0450373e-09
C2M990,大巃頂,2026-02-05,23.5547,120.61439,2.771285e-09
C1I070,和社,2026-02-05,23.591131,120.888861,2.1026163e-09
C2E990,新坪頂,2026-02-05,24.30201,120.8574,3.8651575e-09
C0TA80,立霧山,2026-02-05,24.183258,121.641899,6.67427e-08
C2F000,大肚,2026-02-05,24.15295,120.572117,3.5166707e-08
C1S850,豐南,2026-02-05,23.122139,121.262389,3.114047e-08
C2M9B0,西興,2026-02-05,23.2428,120.57617,1.1400588e-09
C2A920,富貴角,2026-02-05,25.263783,121.565258,6.802734e-07
CAH030,茶改場竹圍站,2026-02-05,23.860083,120.637528,9.291517e-10
C0T960,光復,2026-02-05,23.660694,121.424964,9.165759e-08
C0F9M0,豐原,2026-02-05,24.254322,120.720692,4.157725e-09
C0R720,旭海,2026-02-05,22.205403,120.887614,0.99910384
C0V710,苓雅,2026-02-05,22.622742,120.330669,0.004000153
C0C740,觀音工業區,2026-02-05,25.064764,121.114856,6.0817865e-07
CAC040,拉拉山,2026-02-05,24.699317,121.427133,3.2721196e-08
C0V790,萬山,2026-02-05,22.905944,120.688056,3.954139e-09
U2HA30,臺大和社,2026-02-05,23.590856,120.888864,2.1026163e-09
C2H9K0,屯原,2026-02-05,24.067969,121.209389,1.6134276e-08
C0AJ90,澳底,2026-02-05,25.0552,121.9253,1.03451804e-07
C0Z100,東華,2026-02-05,23.89525,121.549833,8.422934e-08
C0G970,三豐,2026-02-05,23.882,120.2895,9.3497255e-07
V2K610,大庄合作社,2026-02-05,23.8068,120.367939,1.02283614e-07
C0V900,汕尾,2026-02-05,22.4782,120.4151,0.089275524
C1R630,龍泉,2026-02-05,22.66701,120.59091,0.0018068848
C1AC50,關渡,2026-02-05,25.133486,121.469331,7.6627265e-07
C0C800,四稜,2026-02-05,24.64733,121.4293,2.5304228e-08
C0F9I0,神岡,2026-02-05,24.272481,120.658314,5.760627e-09
C0K460,斗南,2026-02-05,23.678734,120.478359,9.83775e-10
C2O810,曾文,2026-02-05,23.219681,120.497328,1.7660473e-09
467280,後龍,2026-02-05,24.648563,120.831834,3.423486e-08
C1F9J1,清水林,2026-02-05,24.071242,120.820419,1.7766154e-09
C2A650,火燒寮,2026-02-05,25.002719,121.742892,3.8135987e-08
466930,竹子湖,2026-02-05,25.162078,121.544547,8.839138e-08
C1I220,樟湖,2026-02-05,23.905333,120.846983,4.303095e-09
C0I390,仁愛,2026-02-05,24.022122,121.132206,5.0027342e-09
C0Z300,東里,2026-02-05,23.26853,121.30547,1.1926346e-07
C1V590,新發,2026-02-05,23.057019,120.646064,3.848209e-09
C0K510,水林,2026-02-05,23.572924,120.24597,9.728264e-08
72S590,東改賓朗果園,2026-02-05,22.813889,121.071278,2.5038332e-07
82A750,茶改北部分場,2026-02-05,24.955778,121.631222,4.8296936e-08
C1A750,石碇服務區,2026-02-05,25.00872,121.646242,4.886261e-08
C0X300,鹿寮,2026-02-05,23.386047,120.477331,1.2496809e-09
G2AI50,關渡,2026-02-05,25.11575,121.492,9.265298e-08
C0K590,雲林東勢,2026-02-05,23.674192,120.255721,8.320581e-08
C2K310,港尾布雞,2026-02-05,23.74834,120.38439,1.0653265e-09
C0A570,桶後,2026-02-05,24.848222,121.597992,4.919168e-08
C1S800,華源,2026-02-05,22.657883,121.02325,4.892831e-06
C0G720,溪州,2026-02-05,23.851589,120.499093,9.956049e-10
C1V160,達卡努瓦,2026-02-05,23.279811,120.705319,4.428104e-09
C2M410,馬頭山,2026-02-05,23.324361,120.582017,1.0416172e-09
C0V850,蚵仔寮,2026-02-05,22.7256,120.2527,0.02494686
C0S740,池上,2026-02-05,23.119628,121.209469,5.2719333e-08
C1V390,尖山,2026-02-05,22.813153,120.367789,0.0008690746
C0AH70,松山,2026-02-05,25.04871,121.55042,8.827766e-08
C0N010,鯤鯓國小,2026-02-05,23.1879,120.0889,0.0007515688
C0R550,新埤,2026-02-05,22.467947,120.582894,0.07699802
C0SA60,知本（水試所）,2026-02-05,22.702394,121.082761,0.0002728012
C0T9I0,豐濱,2026-02-05,23.583897,121.514806,8.2631715e-08
C0UB00,淡江大學蘭陽校園,2026-02-05,24.823239,121.730383,3.5384705e-08
C0W240,九宮,2026-02-05,24.423753,118.240186,4.666818e-08
C0T9N0,富里,2026-02-05,23.171639,121.249378,9.1658464e-08
U2HA50,臺大竹山,2026-02-05,23.756972,120.681556,1.0425574e-09
C0V840,鳳鼻頭,2026-02-05,22.5083,120.3591,0.08643978
C0X140,西港,2026-02-05,23.125608,120.203108,0.00041522353
72D080,桃改五峰分場,2026-02-05,24.612194,121.157167,9.100397e-09
C2H9P0,伊拿谷,2026-02-05,23.963211,121.088264,3.0878144e-09
C2K250,崙背,2026-02-05,23.75553,120.31893,8.51863e-08
C2H9F0,柑林,2026-02-05,24.018658,120.847072,1.3313419e-09
C0TA20,加灣,2026-02-05,24.082025,121.608944,2.8294303e-07
C0V530,阿蓮,2026-02-05,22.883208,120.327508,0.059832666
C0FB30,八仙山苗圃,2026-02-05,24.192719,121.001366,4.8598623e-09
C1O880,關山,2026-02-05,23.173397,120.594092,1.034827e-09
C0E791,卓蘭,2026-02-05,24.3126,120.8244,4.214557e-09
C1I030,武界,2026-02-05,23.913225,121.052483,3.1401397e-09
C0R520,崁頂,2026-02-05,22.514781,120.506914,0.098434955
C0R341,牡丹,2026-02-05,22.130036,120.792639,0.4896669
C0R930,萬丹,2026-02-05,22.5885,120.4851,0.072020896
C0S760,紅石,2026-02-05,23.069131,121.126219,3.539375e-08
C2C410,中央大學,2026-02-05,24.967652,121.185165,1.6511464e-07
C1M610,石磐龍,2026-02-05,23.496606,120.663506,4.6467954e-09
C0C790,東眼山,2026-02-05,24.8284,121.40888,1.8753108e-08
C0UA10,鴛鴦湖,2026-02-05,24.590269,121.412228,2.8876737e-08
V2C260,八德蔬果,2026-02-05,24.978508,121.281819,1.801051e-07
C0R800,丹路,2026-02-05,22.204481,120.750989,0.9820408
C0G920,永靖,2026-02-05,23.924703,120.547533,1.01338085e-08
C2M950,太和,2026-02-05,23.538372,120.702961,6.1242895e-09
C1A630,下盆,2026-02-05,24.771003,121.538622,3.623696e-08
B2N890,畜產試驗所,2026-02-05,23.058972,120.336406,0.09099758
C0UA30,白嶺,2026-02-05,24.527819,121.519031,2.6085022e-08
467571,新竹,2026-02-05,24.828575,121.01455,5.0544717e-08
C1V580,溪南(特生中心),2026-02-05,23.084972,120.788475,1.0080736e-08
C1T970,大農,2026-02-05,23.615233,121.413331,7.810472e-08
C0R650,竹田,2026-02-05,22.58486,120.54344,0.08644622
C1H900,清流,2026-02-05,24.080775,120.962997,3.2896519e-09
C1C510,水尾,2026-02-05,24.940081,121.087161,2.3641157e-07
C2N170,茅港尾,2026-02-05,23.2061,120.2624,0.00027969718
C0F9X0,大雅(中科園區),2026-02-05,24.21528,120.62445,1.1788715e-07
C0SB60,白守蓮,2026-02-05,23.126769,121.401914,9.9009776e-05
C0O970,虎頭埤,2026-02-05,23.021375,120.347878,0.013342286
C0C730,中大臨海站,2026-02-05,24.966126,121.008581,8.067815e-08
C0X250,新營,2026-02-05,23.310689,120.316681,9.31924e-05
C0V700,三民,2026-02-05,22.645017,120.311233,0.022023775
C0U870,大礁溪,2026-02-05,24.791042,121.675047,3.074124e-08
C0E870,高鐵苗栗,2026-02-05,24.60725,120.826094,3.4826815e-08
C0TA30,鹽寮,2026-02-05,23.845606,121.592664,9.225181e-08
C0M860,新美,2026-02-05,23.338017,120.683169,3.2326457e-09
C1E701,八卦,2026-02-05,24.491756,120.927619,7.732943e-09
C2TA90,加納納,2026-02-05,23.466421,121.359867,6.0430445e-08
C0I420,國姓,2026-02-05,24.037803,120.855072,1.3063511e-09
C2D720,關西工作站,2026-02-05,24.757275,121.184792,1.0052262e-08
C0S960,香蘭,2026-02-05,22.587569,120.993375,0.00030196586
467620,蘭嶼,2026-02-05,22.0369,121.55843,0.99993545
C0R260,春日,2026-02-05,22.370361,120.628306,0.029717626
72G600,臺中農改場,2026-02-05,24.003028,120.534389,8.2007405e-09
C0Z210,瑞穗,2026-02-05,23.5239,121.39021,9.2852886e-08
C0M820,達邦,2026-02-05,23.453994,120.749517,3.533855e-09
C0V860,南寮,2026-02-05,22.7616,120.2339,0.030444143
C0G740,大城,2026-02-05,23.852487,120.320935,9.0430206e-07
C0R920,塭仔,2026-02-05,22.4169,120.5197,0.13871333
C0R470,高樹,2026-02-05,22.826389,120.600806,0.0006347177
C0R680,佳樂水,2026-02-05,21.993578,120.861633,0.9996313
C1O870,大棟山,2026-02-05,23.31157,120.52226,3.4591776e-09
C0D360,梅花,2026-02-05,24.678347,121.208558,8.901989e-09
C0Z190,富世,2026-02-05,24.14743,121.6297,2.978865e-07
C0AI10,屈尺,2026-02-05,24.92184,121.54475,5.8662877e-08
B2U990,畜試東區分所,2026-02-05,24.669039,121.832561,2.8463932e-08
C0SB80,長濱漁港,2026-02-05,23.313644,121.459994,6.872078e-05
C0TA50,和仁,2026-02-05,24.241394,121.712472,1.1365068e-07
C0V910,大樹,2026-02-05,22.684645,120.432803,0.003898069
C1R610,西大武山,2026-02-05,22.617719,120.7322,2.472975e-08
C0G900,線西,2026-02-05,24.143358,120.443536,1.6616463e-06
C0M700,竹崎,2026-02-05,23.526178,120.555508,8.5522395e-10
C2E880,三義,2026-02-05,24.405478,120.749819,1.3509237e-08
C0C720,竹圍,2026-02-05,25.112692,121.239824,5.178013e-07
C0F9P0,清水,2026-02-05,24.312297,120.562242,2.110794e-06
C0Z150,吉安光華,2026-02-05,23.930925,121.595153,9.118418e-08
C0FA80,小雪山天池,2026-02-05,24.28025,121.02627,2.8455464e-08
467300,東吉島,2026-02-05,23.25727,119.66762,0.9969254
C1D640,外坪(五指山),2026-02-05,24.644447,121.090961,1.3459265e-08
C2R9A0,高士國小,2026-02-05,22.12553,120.84653,0.89702034
C0F9O0,潭子,2026-02-05,24.213106,120.703933,4.7015796e-09
C2H9R0,卓社,2026-02-05,23.887894,121.000086,5.4405556e-09
72T250,花蓮農改場,2026-02-05,23.975222,121.563889,8.316282e-08
C0E780,銅鑼,2026-02-05,24.489681,120.790853,2.0949194e-08
C1T950,太安,2026-02-05,23.666719,121.370128,1.8534875e-08
C0E830,苑裡,2026-02-05,24.439714,120.653053,6.323484e-08
467270,田中,2026-02-05,23.873803,120.581286,8.1924345e-10
C0SA10,檳榔四格山,2026-02-05,22.810031,121.109308,1.2374443e-07
C1T830,布洛灣,2026-02-05,24.17184,121.57127,2.4747902e-07
C0F970,大坑,2026-02-05,24.173142,120.722289,5.11766e-09
C1U920,思源,2026-02-05,24.393125,121.347214,2.396597e-08
C2H9Y0,松茗,2026-02-05,23.8167,120.650765,8.1895285e-10
C0A931,三和,2026-02-05,25.233153,121.595236,3.4691274e-07
C0I010,廬山,2026-02-05,24.033311,121.181808,1.1809696e-08
C2M940,日野賀,2026-02-05,23.434056,120.727169,4.6857247e-09
C0R860,鼻頭,2026-02-05,22.1043,120.8979,0.99995136
C0UB20,壯圍,2026-02-05,24.7359,121.8163,3.1349828e-08
C0R790,九棚,2026-02-05,22.14195,120.889281,0.9995207
C0W110,東莒,2026-02-05,25.9652,119.98069,0.0144301625
C1U930,粉鳥林,2026-02-05,24.497088,121.842479,1.0056657e-07
C1I211,蘆竹湳,2026-02-05,23.934019,120.811994,1.4860891e-09
C0S830,長濱,2026-02-05,23.286817,121.411975,8.652267e-08
C1F9F1,伯公龍,2026-02-05,24.272392,120.849047,3.5393526e-09
C0UB90,太平山莊,2026-02-05,24.494171,121.536209,3.5792933e-08
C0E810,西湖,2026-02-05,24.562947,120.7485,5.4394068e-08
C1I440,新高口,2026-02-05,23.478744,120.878939,2.2805983e-08
C0O840,王爺宮,2026-02-05,23.222064,120.40085,2.4473212e-09
C0T9G0,鳳林山,2026-02-05,23.735269,121.420131,6.4148615e-08
C0X080,佳里,2026-02-05,23.173039,120.145086,0.0007910671
C0FB70,大甲溪埔,2026-02-05,24.370625,120.620067,1.9316042e-06
C0Z310,清水斷崖,2026-02-05,24.218294,121.689142,8.1306105e-08
C0M680,太保,2026-02-05,23.455062,120.331455,6.4308246e-08
C1S820,金峰,2026-02-05,22.590969,120.933236,1.7287382e-06
C0AD10,八里,2026-02-05,25.150211,121.403947,1.988475e-06
C2K240,草嶺,2026-02-05,23.59555,120.693461,4.6775632e-09
C1SA70,都蘭,2026-02-05,22.87794,121.226881,2.977655e-07
C0K440,二崙,2026-02-05,23.772797,120.408944,1.048514e-09
C1A760,坪林交控,2026-02-05,24.94284,121.713442,5.355046e-08
C0F9N0,大里,2026-02-05,24.092464,120.701378,3.484294e-09
C0SA90,達仁林場,2026-02-05,22.264347,120.823972,8.683232e-08
C1R290,石門山,2026-02-05,22.112611,120.756597,0.99997544
42HA10,萬大發電廠,2026-02-05,23.978875,121.139639,4.3046877e-09
C0R890,山海,2026-02-05,21.9878,120.7091,0.99597746
C0T9A0,月眉山,2026-02-05,23.809928,121.539828,3.6128263e-08
C0AC70,信義,2026-02-05,25.037822,121.564597,8.7938524e-08
C0K560,棋山,2026-02-05,23.68645,120.603417,5.8802063e-10
C2FB50,出雲,2026-02-05,24.206469,120.902794,5.6101537e-09
C1Z240,中平林道,2026-02-05,23.42115,121.26763,4.39053e-08
U2H480,溪頭,2026-02-05,23.670306,120.798194,3.8318757e-09
C0M880,好美里,2026-02-05,23.3364,120.138,0.00035916266
C0T9E0,大坑,2026-02-05,23.880628,121.581981,5.9056593e-08
C0K530,臺西,2026-02-05,23.701547,120.197559,9.006674e-07
C1E900,國一N128K,2026-02-05,24.560997,120.844186,2.8552346e-08
C0AJ50,水湳洞,2026-02-05,25.123695,121.862238,1.0572143e-07
C0AI20,白沙灣,2026-02-05,25.283128,121.519058,3.640718e-06
C2V310,美濃,2026-02-05,22.898792,120.51907,7.056596e-06
C0A860,大坪,2026-02-05,25.165914,121.632969,3.990074e-08
C1U850,觀音海岸,2026-02-05,24.38319,121.77856,3.1398418e-08
C2K610,草嶺石壁,2026-02-05,23.602469,120.707731,4.783632e-09
C0U950,鶯子嶺,2026-02-05,24.89754,121.79244,4.5441098e-08
C0O900,善化,2026-02-05,23.112883,120.297219,0.24478224
C0K550,蔦松,2026-02-05,23.514319,120.229736,1.0595197e-07
E2P980,林試六龜中心,2026-02-05,22.991703,120.645722,5.051183e-09
C0E590,通霄,2026-02-05,24.471892,120.704622,1.0427432e-07
C1I310,西巒,2026-02-05,23.754486,120.883956,5.11444e-09
C0A550,泰平,2026-02-05,24.971197,121.823711,5.2733913e-08
C0I360,水里,2026-02-05,23.812553,120.849792,8.626914e-10
C0R830,高士,2026-02-05,22.121825,120.836781,0.999931
C1I101,溪頭,2026-02-05,23.661789,120.807647,1.0883338e-08
C0AJ20,野柳,2026-02-05,25.20703,121.690021,1.9361946e-06
C0B060,暖暖,2026-02-05,25.0957,121.7403,5.6198058e-08
C1H920,長豐,2026-02-05,24.102039,120.879897,2.8804277e-09
C2S9B0,利吉,2026-02-05,22.86246,121.15486,1.1990382e-07
C0V360,內門,2026-02-05,22.975481,120.466769,3.5638607e-07
C0R850,林邊,2026-02-05,22.4634,120.5339,0.17867735
C0E930,龍鳳,2026-02-05,24.700034,120.859125,5.7575875e-08
C0U910,冬山,2026-02-05,24.63373,121.7937,2.8463932e-08
C1E721,泰安,2026-02-05,24.489017,120.968036,1.3780703e-08
82H320,茶改中部分場,2026-02-05,23.875611,120.913583,3.11983e-09
C0M750,布袋,2026-02-05,23.380878,120.167789,1.6227597e-07
C1S860,利嘉,2026-02-05,22.809417,121.050528,5.603355e-08
E2S980,林試太麻里1,2026-02-05,22.598922,120.980044,2.006015e-05
C0X170,關廟,2026-02-05,22.963017,120.327797,0.046352632
C0V720,林園,2026-02-05,22.507747,120.394511,0.071065255
C1I510,線浸林道,2026-02-05,23.761508,120.832956,3.8626222e-09
C0D690,外湖,2026-02-05,24.917735,120.968711,1.6642346e-07
C0C750,新興坑尾,2026-02-05,25.0061,121.0971,3.3125826e-07
B2Q810,畜試南區分所,2026-02-05,21.945583,120.802167,0.9996313
C0S790,金崙,2026-02-05,22.538122,120.966875,2.575653e-06
C0AH90,福山植物園,2026-02-05,24.760717,121.58135,3.497613e-08
C0I540,奇萊稜線,2026-02-05,24.109231,121.326456,4.2889052e-08
C0M850,表湖,2026-02-05,23.24186,120.64166,3.0749667e-09
C0S770,大溪山,2026-02-05,22.478475,120.943325,2.473759e-07
C0AG80,中和,2026-02-05,24.991622,121.491792,6.482782e-08
C0T790,大禹嶺,2026-02-05,24.186117,121.316086,2.9331312e-08
C0T9B0,水源,2026-02-05,23.991861,121.537169,5.0209472e-08
C0R840,牡丹池山,2026-02-05,22.168389,120.841225,9.583983e-08
C1I131,桶頭,2026-02-05,23.641944,120.654117,8.286949e-10
CAL110,布袋國中,2026-02-05,23.35893,120.18026,0.0005380756
C2M9D0,何竹子腳,2026-02-05,23.53641,120.38203,2.424629e-09
C0Z290,赤柯山,2026-02-05,23.36893,121.38293,3.7870905e-08
C0X280,將軍,2026-02-05,23.214999,120.13577,0.00045148924
C0S690,太麻里,2026-02-05,22.60902,120.98533,7.074865e-08
C0U880,北關,2026-02-05,24.9072,121.8734,1.20445e-07
CAW010,東引,2026-02-05,26.3588,120.4836,0.10530698
C0G810,埔心,2026-02-05,23.947633,120.525456,1.1324092e-08
C0U970,大福,2026-02-05,24.80064,121.81389,3.135808e-08
C2H9N0,仁愛東眼,2026-02-05,24.026875,121.1205,6.9564003e-09
C1E670,南礦,2026-02-05,24.538278,121.002836,1.2399871e-08
C0M520,東後寮,2026-02-05,23.369908,120.248065,0.00023676005
C1E461,松安,2026-02-05,24.397972,120.986022,1.2715322e-08
C2N160,西拉雅風管處,2026-02-05,23.189481,120.335297,9.434362e-05
C2M970,碧湖,2026-02-05,23.568632,120.624165,2.7436469e-09
C0A640,石碇,2026-02-05,24.993969,121.662917,5.355046e-08
E2S960,林試太麻里2,2026-02-05,22.598,120.99775,0.00041135272
C0F9Y0,桃山,2026-02-05,24.432739,121.303808,4.2035527e-08
C1I020,萬大,2026-02-05,23.979817,121.132261,5.056282e-09
C2UC20,長嶺,2026-02-05,24.70894,121.61162,3.3674215e-08
C0U940,羅東,2026-02-05,24.68184,121.74934,3.126724e-08
C0M650,朴子,2026-02-05,23.43463,120.23902,9.442454e-08
C1I500,大尖山,2026-02-05,23.858572,120.994889,1.3285496e-08
C0FB40,中橫21.6k,2026-02-05,24.2499,121.1455,8.608378e-09
C0G820,田尾,2026-02-05,23.901669,120.509389,1.01338085e-08
E2K600,四湖植物園,2026-02-05,23.676986,120.163433,6.441572e-07
C0S730,綠島,2026-02-05,22.6672,121.47533,0.76357347
12Q970,東港工作站,2026-02-05,22.479997,120.466058,0.17867735
C1TA00,太魯閣,2026-02-05,24.15773,121.6236,2.2716318e-07
466920,臺北,2026-02-05,25.037658,121.514853,8.827766e-08
C0R600,舊泰武,2026-02-05,22.588194,120.664944,1.0285385e-08
C1I260,北坑,2026-02-05,23.9246,121.006903,2.3850226e-09
466910,鞍部,2026-02-05,25.182586,121.529731,7.23106e-08
C1I230,九份二山,2026-02-05,23.961944,120.845,2.2307054e-09
C2M810,里佳,2026-02-05,23.389125,120.716647,6.1312084e-09
C2A660,瑞芳,2026-02-05,25.113169,121.801147,5.470975e-08
C0R270,琉球嶼,2026-02-05,22.332244,120.362236,0.004458979
C2V580,瑞山,2026-02-05,22.90304,120.43424,2.9237123e-07
C1T990,高寮,2026-02-05,23.394239,121.356808,1.5520303e-07
C0G620,芬園,2026-02-05,24.015678,120.6213,2.8902951e-09
C1Z140,荖溪,2026-02-05,23.890575,121.45964,5.7622344e-08
C1I201,中心崙,2026-02-05,23.728722,120.712097,1.1400894e-09
C1I400,凌霄,2026-02-05,24.018778,121.004456,6.86558e-09
C1M640,十字,2026-02-05,23.492153,120.753683,8.49458e-09
G2P820,農試鳳山分所,2026-02-05,22.646611,120.356083,0.002123841
C0Z270,蕃薯寮,2026-02-05,23.73835,121.540108,4.650087e-08
C2E420,竹南,2026-02-05,24.70898,120.88897,4.7750106e-08
C0FB10,出雲山苗圃,2026-02-05,24.23105,120.90475,5.0563784e-09
C0F9Q0,外埔,2026-02-05,24.347817,120.705686,7.816534e-09
C0K580,高鐵雲林,2026-02-05,23.737456,120.417944,1.0653265e-09
C2I090,鳳凰,2026-02-05,23.728081,120.787347,2.0747775e-09
C0U990,員山,2026-02-05,24.74435,121.72247,3.171671e-08
C0V770,大社,2026-02-05,22.730306,120.346639,0.0075191883
C0X120,麻豆,2026-02-05,23.183289,120.248611,0.00035360528
C0C670,龍潭,2026-02-05,24.870056,121.221389,1.0230933e-08
C0D680,香山濕地,2026-02-05,24.783581,120.914988,1.6642346e-07
C0S980,勝林山,2026-02-05,22.430439,120.8938,4.279345e-08
C0V730,大寮,2026-02-05,22.605614,120.395717,0.06890603
C0R570,麟洛,2026-02-05,22.65078,120.52719,0.0034317835
C2M930,石卓,2026-02-05,23.478744,120.702264,8.347872e-09
C0G9B0,和美,2026-02-05,24.105169,120.492131,2.1134895e-08
CAG100,王功漁港,2026-02-05,23.96824,120.32586,4.9856e-08
C0X290,北門,2026-02-05,23.267772,120.125481,0.0007981236
C2F930,大甲,2026-02-05,24.347667,120.640403,1.3550217e-08
C0D650,湖口,2026-02-05,24.904794,121.043628,5.2345897e-08
C0U780,五結,2026-02-05,24.68637,121.79794,2.8463932e-08
C1I250,鯉潭,2026-02-05,23.961922,120.991131,2.5500444e-09
C0R130,阿禮,2026-02-05,22.742908,120.743678,5.057594e-09
C0X100,臺南市北區,2026-02-05,23.010394,120.194228,0.20584674
C0S920,金峰嘉蘭,2026-02-05,22.594789,120.960825,1.760516e-05
C0V490,新興,2026-02-05,22.627422,120.298803,0.03763935
C0F9K0,大安,2026-02-05,24.345061,120.588025,1.9316042e-06
467290,古坑,2026-02-05,23.633639,120.551889,5.8170785e-10
C2E970,八甲,2026-02-05,24.535811,120.795983,1.9030887e-08
C0V440,鳳山,2026-02-05,22.646653,120.356122,0.002123841
C1T940,大觀,2026-02-05,23.714206,121.373133,4.6208836e-08
C0E740,造橋,2026-02-05,24.637056,120.864778,3.7346545e-08
C0R100,尾寮山,2026-02-05,22.833111,120.683889,5.154278e-09
A2K630,臺大雲林校區,2026-02-05,23.730628,120.423903,1.0364883e-09
467990,馬祖,2026-02-05,26.169467,119.923158,3.8789544e-06
C0D580,寶山,2026-02-05,24.735006,121.025192,1.9371623e-08
E2P990,林試扇平站,2026-02-05,22.9677,120.6857,3.6487657e-09
C0AI30,三重,2026-02-05,25.057328,121.500629,8.972958e-08
C0AH00,汐止,2026-02-05,25.066881,121.658778,5.7096443e-08
C1Z040,立山,2026-02-05,23.443356,121.327375,6.6329484e-08
466881,新北,2026-02-05,24.959207,121.525196,6.206845e-08
C0W130,花嶼,2026-02-05,23.40007,119.32276,0.9974712
C0A950,鼻頭角,2026-02-05,25.129036,121.923372,1.03451804e-07
C0K470,林內,2026-02-05,23.748675,120.609642,5.953868e-10
C2F990,摩天嶺,2026-02-05,24.322458,120.936819,5.225639e-09
C2E430,南庄,2026-02-05,24.601775,121.000214,1.8574548e-08
82C160,茶改場,2026-02-05,24.908472,121.185333,8.750885e-08
C2TB60,南安,2026-02-05,23.29818,121.26157,1.0367897e-07
C0Z320,清水林道,2026-02-05,23.27125,121.188272,4.977362e-08
C0R760,南仁湖,2026-02-05,22.084681,120.863353,0.99997544
C0M670,大林,2026-02-05,23.600616,120.45841,1.9525521e-09
C0M800,茶山,2026-02-05,23.299075,120.664767,1.1775659e-09
C0A9C0,天母,2026-02-05,25.117494,121.537169,8.537889e-08
72K220,南改斗南分場,2026-02-05,23.634556,120.477333,9.83775e-10
72AI40,桃改樹林分場,2026-02-05,24.944503,121.386972,5.2052684e-08
C0S910,蘭嶼燈塔,2026-02-05,22.081197,121.503117,0.9996971
C0B050,八斗子,2026-02-05,25.144754,121.79167,7.1699716e-08
C0U900,內城,2026-02-05,24.71813,121.68766,3.0236425e-08
C0X320,柳營,2026-02-05,23.253328,120.375253,6.734573e-09
C0M790,新港,2026-02-05,23.553269,120.345728,7.5212924e-08
C0F9T0,西屯,2026-02-05,24.179494,120.641275,7.047696e-09
C0E950,松安,2026-02-05,24.39792,120.98599,1.2715322e-08
C0SA30,都歷,2026-02-05,23.020333,121.323642,2.9699692e-07
C0C620,蘆竹,2026-02-05,25.084275,121.265767,3.9577893e-07
C0R730,大坪頂,2026-02-05,22.024633,120.69355,0.9999791
C0AJ40,石門,2026-02-05,25.273672,121.601198,9.2074674e-07
C0E750,苗栗,2026-02-05,24.564569,120.824575,2.8965438e-08
C0T870,鯉魚潭,2026-02-05,23.935639,121.508944,6.00096e-08
C1V170,排雲,2026-02-05,23.463619,120.954147,4.5384276e-08
C2H950,中寮,2026-02-05,23.884447,120.766406,1.5154632e-09
C0R350,貓鼻頭,2026-02-05,21.921774,120.7358,0.9977876
C0V660,岡山,2026-02-05,22.797078,120.294958,0.0133924205
C1H941,雙冬,2026-02-05,23.967378,120.802189,1.5981192e-09
C0AJ70,田寮,2026-02-05,25.2698,121.4886,3.6350634e-06
C0AI00,五股,2026-02-05,25.07445,121.42728,6.179346e-08
C0Z280,德武,2026-02-05,23.47426,121.41071,6.5987145e-08
C2RA10,大新,2026-02-05,22.67558,120.57788,0.002217531
C0R700,枋山,2026-02-05,22.246844,120.661086,0.9973268
C0C460,復興,2026-02-05,24.820208,121.352281,1.0140498e-08
C2K300,鹿南,2026-02-05,23.63855,120.3636,6.7553785e-08
E2H360,蓮華池,2026-02-05,23.918333,120.885278,2.6593656e-09
C0M640,中埔,2026-02-05,23.42538,120.5229,9.472897e-10
C0W140,金沙,2026-02-05,24.488292,118.408778,5.0283937e-08
C2A540,四堵,2026-02-05,24.8926,121.745736,6.042767e-08
C0ACA0,新莊,2026-02-05,25.051478,121.446756,9.4466515e-08
C0R220,潮州,2026-02-05,22.534361,120.54,0.08070175
U2HA40,臺大內茅埔,2026-02-05,23.689722,120.851117,1.1276604e-09
467490,臺中,2026-02-05,24.145736,120.684075,6.351222e-09
C0UB60,明池,2026-02-05,24.650688,121.475277,2.6910689e-08
C0U960,翠峰湖,2026-02-05,24.510856,121.608044,3.4973993e-08
E2HA20,林試畢祿溪站,2026-02-05,24.226944,121.308522,1.9565345e-08
C2M9A0,大華,2026-02-05,23.4824,120.67491,3.9160333e-09
C0V890,前鎮,2026-02-05,22.5718,120.3117,0.0106737185
C1F941,雪嶺,2026-02-05,24.280586,121.026642,2.8455464e-08
C2H9E0,國姓南港,2026-02-05,23.911108,120.846556,4.4794466e-09
C0AC80,文山,2026-02-05,25.00235,121.575728,7.392931e-08
C0F9R0,龍井,2026-02-05,24.184536,120.528972,1.876463e-06
C0M760,民雄,2026-02-05,23.551754,120.428457,1.9525521e-09
C0UA40,西德山,2026-02-05,24.560647,121.752608,4.0105455e-08
C2TA70,赤科坪,2026-02-05,23.39885,121.39168,4.1992415e-08
C1T920,中興,2026-02-05,23.769503,121.498653,7.6927115e-08
C0D550,雪霸,2026-02-05,24.526972,121.11605,1.9158467e-08
C2F860,梨山,2026-02-05,24.247522,121.243669,2.1963068e-08
C0R320,車城,2026-02-05,22.0744,120.716247,0.9995086
C1S870,南美山,2026-02-05,23.15025,121.382333,8.532078e-08
C0B020,基隆嶼,2026-02-05,25.19141,121.78391,6.843645e-08
C1U501,牛鬥,2026-02-05,24.637836,121.573656,3.661442e-08
C0M730,嘉義市東區,2026-02-05,23.457673,120.460531,1.4637417e-09
C2R990,泰武,2026-02-05,22.60686,120.69765,1.3043401e-08
C0S700,知本,2026-02-05,22.684866,121.005642,5.0082356e-08
C1N001,沙崙,2026-02-05,22.935472,120.309406,0.056160383
C0V760,橋頭,2026-02-05,22.757806,120.30575,0.009077593
C0G960,福寶,2026-02-05,24.0443,120.3814,2.4917055e-08
C0X210,白河,2026-02-05,23.347466,120.414427,4.8808473e-09
C0S810,東河,2026-02-05,22.972672,121.303986,3.7284735e-07
C2R170,屏東,2026-02-05,22.66027,120.49403,0.0040092138
C0R670,楓港,2026-02-05,22.190131,120.692156,0.999309
C0FA50,霧峰,2026-02-05,24.0419,120.6995,2.7588807e-09
C0UB10,蘇澳,2026-02-05,24.5969,121.8571,5.5302312e-08
C0G950,防潮門,2026-02-05,24.1835,120.4871,1.6515856e-06
C0M740,六腳,2026-02-05,23.492871,120.290625,9.924944e-08
C1R250,力里,2026-02-05,22.428117,120.629228,1.9394952e-06
C0K330,虎尾,2026-02-05,23.719183,120.442036,1.0364883e-09
C2FA00,烏石坑,2026-02-05,24.273503,120.947617,5.145094e-09
C0V620,永安,2026-02-05,22.82315,120.236856,0.022937266
C1I330,楓樹林,2026-02-05,23.986803,121.076117,5.123286e-09
C0W200,湖西,2026-02-05,23.596314,119.67275,0.99538475
72Q010,高雄農改場,2026-02-05,22.709333,120.525889,0.0031210957
C0SA40,瑞和,2026-02-05,22.974361,121.156697,8.2903874e-08
C0C680,龜山,2026-02-05,25.02846,121.38656,3.5278564e-08
C2V260,月眉,2026-02-05,22.971003,120.539853,1.11656846e-07
C0V450,鳳森,2026-02-05,22.545064,120.392592,0.035557117
C0FA90,小雪山林道,2026-02-05,24.29515,121.03651,3.458289e-08
C0U720,南山,2026-02-05,24.43742,121.38167,2.2195572e-08
A2N290,臺南蘭花園區,2026-02-05,23.340258,120.379661,5.927854e-09
C0R560,新園,2026-02-05,22.5434,120.461558,0.071065255
C0U890,三星,2026-02-05,24.66812,121.65302,2.8172483e-08
C1V300,御油山,2026-02-05,23.001983,120.715364,9.879066e-09
C0U600,礁溪,2026-02-05,24.817539,121.765608,3.0574817e-08
C1T980,龍澗,2026-02-05,24.023289,121.411328,5.8622607e-08
C0D670,海天一線,2026-02-05,24.831986,120.914438,1.6111603e-07
C0SA00,歷坵,2026-02-05,22.520969,120.89185,1.4239569e-07
C0M710,東石,2026-02-05,23.458927,120.15385,1.6198776e-07
C0M780,鹿草,2026-02-05,23.41134,120.30835,7.817924e-08
C0U520,雙連埤,2026-02-05,24.753033,121.641303,2.7814432e-08
C0B010,七堵,2026-02-05,25.094819,121.71713,6.5412465e-08
C0R480,長治,2026-02-05,22.693128,120.542622,0.0027754572
C1V830,國三S383K,2026-02-05,22.781967,120.426475,0.0003992801
12Q980,恆春工作站,2026-02-05,22.079678,120.714425,0.99956644
C1O940,東山服務區,2026-02-05,23.286016,120.398472,5.2317124e-09
C1U840,東澳嶺,2026-02-05,24.5378,121.8485,4.2115456e-08
C1D630,飛鳳山,2026-02-05,24.766464,121.119178,1.2171383e-08
C0S940,石寧山,2026-02-05,23.223772,121.406639,4.075252e-06
C0K410,北港,2026-02-05,23.573957,120.292802,8.05662e-08
C2M620,瑞里,2026-02-05,23.545133,120.675197,5.363855e-09
C0SB70,小港漁港,2026-02-05,23.158558,121.400431,8.809493e-05
C2O950,安南,2026-02-05,23.076694,120.144861,0.3059997
C0F0E0,南湖圈谷,2026-02-05,24.363714,121.444667,5.6309002e-08
467610,成功,2026-02-05,23.097486,121.373428,5.018549e-07
C0G890,伸港,2026-02-05,24.148933,120.484403,1.6515856e-06
C2E540,龍溪,2026-02-05,24.606489,120.783933,3.623986e-08
C1V200,梅山,2026-02-05,23.268447,120.823556,3.6321357e-09
C0T9H0,加路蘭山,2026-02-05,23.682947,121.5274,4.0294076e-08
C2O930,玉井,2026-02-05,23.126042,120.46055,3.4501504e-09
C1F911,新伯公,2026-02-05,24.221361,120.841069,3.3345104e-09
C0R490,九如,2026-02-05,22.7405,120.490503,0.003821747
C0X200,左鎮,2026-02-05,23.056758,120.408522,3.2755406e-06
C2TB50,麻汝,2026-02-05,23.42554,121.39358,5.9378493e-08
C0FA60,鞍馬山工作站,2026-02-05,24.267064,121.000793,2.2550822e-08
C0SB50,叭嗡嗡,2026-02-05,23.047062,121.343223,6.600092e-07
C1F891,稍來,2026-02-05,24.265689,121.001142,2.2047978e-08
C2M9C0,紫雲,2026-02-05,23.494914,120.540253,9.471813e-10
72N240,七股研究中心,2026-02-05,23.081672,120.062894,0.4864027
C0C700,中壢,2026-02-05,24.977661,121.256375,1.5619418e-07
C0M690,水上,2026-02-05,23.419734,120.388909,2.1437718e-09
C0V690,鼓山,2026-02-05,22.623325,120.275575,0.064934544
C0O860,大內,2026-02-05,23.11885,120.36083,0.05902296
C0Z200,萬榮,2026-02-05,23.709219,121.420106,6.69481e-08
C0T9D0,和中,2026-02-05,24.26676,121.74103,1.17678105e-07
C2S9A0,北份子寮,2026-02-05,22.78561,121.07813,7.70859e-06
C1O921,楠西,2026-02-05,23.183511,120.484083,2.736654e-09
C0AJ30,淡水觀海,2026-02-05,25.184591,121.408616,2.1276637e-06
C0V810,左營,2026-02-05,22.67491,120.28491,0.022023775
C0UA70,桃源谷,2026-02-05,24.962606,121.888875,4.9252986e-08
C0X130,官田,2026-02-05,23.193217,120.315422,0.00012310123
C1H000,翠峰,2026-02-05,24.109397,121.205211,2.2394714e-08
C0UA90,石城,2026-02-05,24.980444,121.951214,1.0096537e-07
C1E681,南勢山,2026-02-05,24.421669,120.923831,8.237345e-09
C0A9F0,內湖,2026-02-05,25.079422,121.57545,8.7938524e-08
C0K291,宜梧,2026-02-05,23.536281,120.169329,6.2015494e-07
C1K540,口湖,2026-02-05,23.585344,120.180517,6.7804984e-07
C0R780,滿州,2026-02-05,22.024403,120.839892,0.9999774
C0V870,文安,2026-02-05,22.8025,120.2164,0.024946846
C0U650,玉蘭,2026-02-05,24.675286,121.587061,3.3480866e-08
C0R640,東港,2026-02-05,22.46247,120.44074,0.07914432
C0AJ80,板橋,2026-02-05,25.0107,121.4489,6.696955e-08
C0S660,下馬,2026-02-05,23.150427,121.070312,4.8689106e-08
C2N190,烏樹,2026-02-05,23.32393,120.36989,3.5885314e-05
C1H9B1,阿眉,2026-02-05,24.1263,120.994672,1.2140777e-08
C0UA20,多加屯,2026-02-05,24.368614,121.373189,2.7219698e-08
C0E730,頭份,2026-02-05,24.688247,120.912206,4.9965e-08
72V140,高改旗南分場,2026-02-05,22.857861,120.516667,0.0016989561
C0K480,莿桐,2026-02-05,23.761192,120.502372,8.504611e-10
C0U980,坪林石牌,2026-02-05,24.86478,121.77396,3.8850636e-08
C0T900,西林,2026-02-05,23.8119,121.441458,5.6018376e-08
C1I150,青雲,2026-02-05,23.793361,120.949378,1.0666542e-09
C2E980,和興,2026-02-05,24.505319,120.923016,6.790423e-09
467350,澎湖,2026-02-05,23.565503,119.563094,0.9953439
C0G800,埔鹽,2026-02-05,24.000394,120.431683,2.3159338e-08
C0H960,草屯,2026-02-05,23.973672,120.68085,2.5731886e-09
C1V780,多納林道,2026-02-05,22.888028,120.737917,5.4985696e-09
C0E920,通霄漁港,2026-02-05,24.498589,120.673876,1.4261572e-07
C0Z330,安通山,2026-02-05,23.290728,121.348528,4.8321446e-08
C0AH10,永和,2026-02-05,25.01125,121.508111,6.696955e-08
C0AK10,太平里,2026-02-05,25.134937,121.364899,1.6675199e-06
C2G640,鹿港,2026-02-05,24.0753,120.430481,2.2290902e-08
C1E890,國三N149K,2026-02-05,24.463414,120.680019,9.499303e-08
C1R110,口社,2026-02-05,22.770111,120.645222,0.0002971689
C1M870,國三N285K,2026-02-05,23.550319,120.505833,9.057498e-10
C1E480,鳳美,2026-02-05,24.554803,121.034747,6.3091092e-09
C0T9M0,靜浦,2026-02-05,23.455167,121.495028,1.0944981e-07
C2H9M0,發祥,2026-02-05,24.154094,121.164517,7.1162884e-09
C2G9C0,埔南,2026-02-05,23.99124,120.46969,2.3159338e-08
C0AI40,石牌,2026-02-05,25.115597,121.513139,8.7938524e-08
C1F871,上谷關,2026-02-05,24.203483,121.018644,5.1704947e-09
C2H9G0,百勝,2026-02-05,24.051142,120.909361,2.525022e-09
C0G880,二水,2026-02-05,23.810742,120.6173,6.3617067e-10
C0R940,加祿堂,2026-02-05,22.3363,120.6217,0.86048865
C0W220,北竿,2026-02-05,26.220358,119.974881,2.7997485e-05
C0O960,崎頂,2026-02-05,22.959547,120.369317,0.0019364975
C0TA40,秀林,2026-02-05,24.302864,121.731144,4.4280977e-08
C0S750,向陽,2026-02-05,23.248397,120.986133,2.6220953e-08
C0T9F0,水璉,2026-02-05,23.797131,121.542514,4.6384564e-08
C1M600,頭凍,2026-02-05,23.406364,120.603339,2.3076432e-09
467660,臺東,2026-02-05,22.752211,121.154586,0.0002077434
C1D380,新埔,2026-02-05,24.84745,121.03834,3.7417703e-08
C2G980,田頭村,2026-02-05,23.8263,120.444175,1.048514e-09
C0V750,路竹,2026-02-05,22.854997,120.259439,0.011031134
C0N050,蚵寮,2026-02-05,23.301,120.1104,0.0007981236
C2X060,下營,2026-02-05,23.226806,120.256291,0.00027969718
72M700,南改鹿草分場,2026-02-05,23.416869,120.283061,9.442454e-08
C1SA50,利嘉林道,2026-02-05,22.82325,121.009389,3.2067998e-08
C0UB70,太平山中間站,2026-02-05,24.542003,121.513453,2.2516394e-08
C0A940,金山,2026-02-05,25.223628,121.643967,1.6864584e-06
C1V340,大津,2026-02-05,22.888322,120.645986,0.00014209123
C0W180,七美,2026-02-05,23.219333,119.444892,0.99817544
C1F9C1,白冷,2026-02-05,24.182844,120.929889,3.4906131e-09
K2E710,苗改生物防治研究中心,2026-02-05,24.422861,120.871833,1.2570925e-08
C0N040,蘆竹溝,2026-02-05,23.2344,120.0961,0.0007981236
C0TB40,崇德,2026-02-05,24.166144,121.657414,3.768601e-07
C0D760,大坪苗圃,2026-02-05,24.5362,121.1108,1.4102176e-08
C2W230,畜試所澎湖,2026-02-05,23.628342,119.513206,0.9951011
C0R880,後壁湖,2026-02-05,21.9457,120.7457,0.9954059
C1I280,埔中,2026-02-05,23.820778,120.642594,8.3295765e-10
467790,墾丁雷達站,2026-02-05,21.948235,120.808028,0.9998001
C0W190,望安,2026-02-05,23.380564,119.494075,0.99692404
C0Z170,卓溪,2026-02-05,23.3443,121.3029,1.0535065e-07
C0F850,東勢,2026-02-05,24.246428,120.833047,3.338386e-09
466900,淡水,2026-02-05,25.164889,121.448906,2.025837e-06
C0I370,魚池,2026-02-05,23.895703,120.94135,2.71602e-09
C0C630,大溪,2026-02-05,24.882853,121.265547,7.827981e-08
C0A520,山佳,2026-02-05,24.974944,121.402008,5.1853508e-08
C0I110,竹山,2026-02-05,23.761225,120.688156,1.0776766e-09
82H840,茶改南部分場,2026-02-05,23.762528,120.7405,7.904989e-10
C2SD80,再來山,2026-02-05,23.34371,121.44122,7.984968e-07
C0G660,溪湖,2026-02-05,23.94835,120.479122,1.1909769e-08
C1T800,洛韶,2026-02-05,24.204558,121.453956,4.766566e-08
C1T810,慈恩,2026-02-05,24.192044,121.388386,3.2299912e-08
C1E451,象鼻,2026-02-05,24.368617,120.940228,4.5134776e-09
C0AC60,三峽,2026-02-05,24.939025,121.369728,2.3302685e-07
C0I490,萬大林道,2026-02-05,23.928228,121.091411,7.72351e-09
C1I290,豐丘,2026-02-05,23.668178,120.887417,6.545899e-09
C1I320,奧萬大,2026-02-05,23.952956,121.178556,7.4528295e-09
C2M910,嘉義大學,2026-02-05,23.471325,120.485903,1.2654685e-09
C0U770,南澳,2026-02-05,24.44935,121.81022,9.874867e-08
C2TB30,吉安,2026-02-05,23.94538,121.54803,7.250837e-08
C0A980,社子,2026-02-05,25.109508,121.469681,1.1794675e-07
C0V800,六龜,2026-02-05,22.997889,120.633583,5.5170903e-09
C1G9D0,國一S218K,2026-02-05,23.890641,120.493253,1.7110533e-08
C0E570,白沙屯,2026-02-05,24.549447,120.696803,7.2210675e-08
C2F9A0,中竹林,2026-02-05,24.103556,120.751061,1.1379994e-09
C0FA40,臺中電廠,2026-02-05,24.2146,120.4907,2.0874522e-06
C2G9A0,畜試所彰化,2026-02-05,23.86045,120.557964,8.1924345e-10
C0H9C0,合歡山,2026-02-05,24.143442,121.272547,4.1975117e-08
G2M350,農試溪口農場,2026-02-05,23.58565,120.408111,2.1486226e-09
C0U860,頭城,2026-02-05,24.85323,121.8308,5.089249e-08
C0R580,南州,2026-02-05,22.48591,120.50274,0.17867735
C0D430,峨眉,2026-02-05,24.6905,121.017189,2.5672628e-08
C0G780,秀水,2026-02-05,24.03405,120.503869,8.2007405e-09
72N100,臺南農改場,2026-02-05,23.0605,120.342194,0.09099758
C0S900,蘭嶼高中,2026-02-05,22.04909,121.51214,0.9994099
C2TA60,六十石,2026-02-05,23.22477,121.31861,4.2969297e-08
C1F9W0,德基,2026-02-05,24.254783,121.190261,1.9914548e-08
C2M980,安和,2026-02-05,23.51377,120.31593,8.213173e-08
C1Z120,壽豐,2026-02-05,23.870853,121.508081,8.422934e-08
C0W160,烏坵,2026-02-05,24.9944,119.44956,0.47159377
C1I240,外大坪,2026-02-05,23.958697,120.917931,2.8624363e-09
C1I550,國六W023K,2026-02-05,23.979067,120.867742,1.250029e-09
C0R870,興海,2026-02-05,21.9752,120.8439,0.9996313
C0R140,瑪家,2026-02-05,22.682903,120.686639,3.974956e-09
C0A530,坪林,2026-02-05,24.938183,121.70975,4.7592078e-08
C0X260,後壁,2026-02-05,23.366358,120.362326,7.4377924e-05
C0Z230,和平,2026-02-05,24.30717,121.77007,8.882963e-08
C0G770,福興,2026-02-05,24.041289,120.437669,2.3159338e-08
C0H9A0,神木村,2026-02-05,23.532742,120.843667,8.6005665e-09
C0I460,南投,2026-02-05,23.911469,120.687331,2.7916252e-09
C0I480,梅峰,2026-02-05,24.085272,121.173572,1.8101062e-08
C1V570,吉東,2026-02-05,22.85422,120.5454,0.0014353441
C2A560,福山,2026-02-05,24.776203,121.502811,3.4169883e-08
C0AH30,五分山,2026-02-05,25.07125,121.780794,4.3909488e-08
C0FA10,松柏,2026-02-05,24.429115,120.617482,7.684573e-08
72S200,東改班鳩分場,2026-02-05,22.829528,121.077694,4.7039273e-07
72HA00,中改埔里分場,2026-02-05,23.903208,120.963364,2.6909701e-09
C2H9W0,大坪頂農水,2026-02-05,24.043122,120.932781,2.61907e-09
C0C650,平鎮,2026-02-05,24.897503,121.214636,5.952557e-08
C0S930,延平,2026-02-05,22.902581,121.084058,7.38632e-08
C0UA60,樟樹山,2026-02-05,24.41393,121.78325,3.284143e-08
C2UC10,出水溪,2026-02-05,24.615822,121.652253,2.9806742e-08
C1S670,摩天,2026-02-05,23.199503,121.027,2.4261752e-08
C2C590,觀音,2026-02-05,25.027072,121.153317,3.578164e-07
C0V630,茄萣,2026-02-05,22.906642,120.182608,0.1808137
466940,基隆,2026-02-05,25.133314,121.740475,7.1716954e-08
C0X050,東河,2026-02-05,23.296598,120.385608,5.927843e-09
C0R770,保力,2026-02-05,22.071122,120.764111,0.999976
G2L020,農試嘉義分所,2026-02-05,23.485028,120.473806,1.2005326e-09
C0X240,關子嶺,2026-02-05,23.331169,120.508025,9.899582e-10
C0I380,集集,2026-02-05,23.828206,120.801467,8.671853e-10
466990,花蓮,2026-02-05,23.975128,121.613275,2.8294303e-07
C1V220,小關山,2026-02-05,23.154217,120.813603,1.04770095e-08
C1F9G1,慶福山,2026-02-05,24.180853,120.848378,4.9034186e-09
C0FB20,雪山橋,2026-02-05,24.23192,120.9786,1.746802e-08
C0Z250,瑞穗林道,2026-02-05,23.49284,121.30688,4.4182524e-08
C0D590,新豐,2026-02-05,24.87068,120.97721,8.342718e-08
C0A870,五指山,2026-02-05,25.132153,121.608692,6.82136e-08
C0UA50,西帽山,2026-02-05,24.555361,121.802628,4.2211397e-08
C2R980,竹田國中,2026-02-05,22.61532,120.52412,0.078855015
C0X160,仁德,2026-02-05,22.968258,120.257689,0.2276359
C1H971,六分寮,2026-02-05,23.92507,120.6378,1.2338667e-09
C0W120,西嶼,2026-02-05,23.5626,119.468436,0.99579614
C0G650,員林,2026-02-05,23.946503,120.585597,6.0277774e-09
C0AD50,鶯歌,2026-02-05,24.951533,121.346294,1.4603842e-07
C2H9Q0,北東眼山,2026-02-05,24.120939,121.189303,1.7805583e-08
C2H9T0,名間竹圍,2026-02-05,23.859914,120.637572,9.291517e-10
C0S990,山豬窟,2026-02-05,22.318619,120.857372,1.6630796e-07
C0X190,安平,2026-02-05,22.993161,120.152181,0.23076205
C0K400,斗六,2026-02-05,23.720583,120.541127,8.4197616e-10
12J990,口湖工作站,2026-02-05,23.589978,120.180394,6.368918e-07
C0O830,北寮,2026-02-05,23.079561,120.495008,6.65279e-08
C1D410,白蘭,2026-02-05,24.579364,121.079947,1.2915559e-08
C0S970,加津林,2026-02-05,22.416211,120.926942,0.41171208
C0D700,關西,2026-02-05,24.7977,121.1732,1.0047412e-08
C0U750,龜山島,2026-02-05,24.841667,121.953133,4.2183952e-08
C0R810,內獅,2026-02-05,22.305064,120.642986,0.8604885
C1M390,龍美,2026-02-05,23.406728,120.654417,4.6685074e-09
C2K290,崙內,2026-02-05,23.69525,120.35601,6.7553785e-08
C2FB60,頭櫃山,2026-02-05,24.129842,120.858925,4.5432063e-09
C1H840,國三N238K,2026-02-05,23.841008,120.707711,7.810569e-10
CAQ030,崎峰國小,2026-02-05,22.42565,120.49521,0.17867735
C2E520,大湖,2026-02-05,24.414939,120.870872,1.221224e-08
467530,阿里山,2026-02-05,23.508208,120.813242,2.2662844e-08
C1E691,南湖,2026-02-05,24.40135,120.837533,9.540955e-09
C0FA30,梧棲,2026-02-05,24.256003,120.523381,1.7618362e-06
C1V231,高中,2026-02-05,23.134911,120.716711,3.0688847e-09
C0AK30,硬漢嶺,2026-02-05,25.136097,121.426372,1.0019857e-07
C0F9V0,新社,2026-02-05,24.200172,120.815806,3.5346774e-09
C0H890,埔里,2026-02-05,23.972169,120.952425,2.5438796e-09
C0R690,墾丁,2026-02-05,21.966756,120.810269,0.9999617
C0SD20,富山,2026-02-05,22.822383,121.190825,5.009684e-07
C0F0D0,審馬陣,2026-02-05,24.381675,121.4203,4.7137934e-08
C2W030,金門農試所,2026-02-05,24.448431,118.451786,8.080657e-06
C0R820,白鷺,2026-02-05,22.454275,120.666219,1.6416667e-08
C0FB00,大雪山,2026-02-05,24.254668,121.007374,2.272873e-08
C1V190,南天池,2026-02-05,23.27403,120.91176,2.7942315e-08
C0E940,雪見,2026-02-05,24.42595,121.01347,1.8298998e-08
K2E360,苗栗農改場,2026-02-05,24.495722,120.829111,2.5584688e-08
CAJ050,海口故事園區,2026-02-05,23.57543,120.14121,6.7804984e-07
C2K280,四湖,2026-02-05,23.6304,120.22717,6.441572e-07
C2H9D0,三隻寮,2026-02-05,24.093078,120.861578,1.8821829e-09
C0O990,媽廟,2026-02-05,22.99175,120.293525,0.16770859
C0D480,打鐵坑,2026-02-05,24.849664,121.150789,1.2585031e-08
C0Z220,和平林道,2026-02-05,24.343922,121.656317,3.3087836e-08
C0TA10,花蓮漁港,2026-02-05,23.995322,121.638331,1.2198444e-06
72C440,桃園農改場,2026-02-05,24.950944,121.030583,6.333974e-08
C1E711,馬拉邦山,2026-02-05,24.367306,120.901656,4.492538e-09
C0SB20,富岡,2026-02-05,22.792467,121.192669,0.00022949117
C0D560,竹東,2026-02-05,24.767147,121.057881,2.0459536e-08
C0F9U0,南屯,2026-02-05,24.137006,120.637969,8.550058e-09
C2SD60,明峰,2026-02-05,22.8671,121.11825,5.9388462e-08
C0M720,番路,2026-02-05,23.464657,120.554156,7.058132e-10
C0F0A0,雪山圈谷,2026-02-05,24.388594,121.236339,4.8650673e-08
C1A9N0,四十份,2026-02-05,24.934158,121.593283,3.915206e-08
C0U760,東澳,2026-02-05,24.52196,121.83318,9.263743e-08
C0X230,鹽水,2026-02-05,23.272621,120.247641,0.000299931
C2H9H0,苗改南投蜂場,2026-02-05,23.852589,120.693481,1.1166612e-09
C2TB70,達谷寮,2026-02-05,23.38,121.35968,1.196055e-07
C0R950,萬隆國小,2026-02-05,22.507667,120.587817,0.04311445
467540,大武,2026-02-05,22.35572,120.90374,0.99925506
C0V370,古亭坑,2026-02-05,22.893178,120.401947,9.682012e-07
C1I340,新興橋,2026-02-05,23.563333,120.868728,3.56274e-09
C0SA80,土坂,2026-02-05,22.453108,120.887572,0.00011602717
C0R160,鹽埔,2026-02-05,22.739558,120.530778,0.0031210957
C0AC40,大屯山,2026-02-05,25.175675,121.522408,6.1219794e-08
466850,五分山雷達站,2026-02-05,25.071182,121.781205,4.426468e-08
C2H9L0,馬烈霸,2026-02-05,24.1512,121.201772,1.9849171e-08
C1AI50,國三N016K,2026-02-05,25.034164,121.619664,7.942781e-08
C2V920,匏子寮,2026-02-05,23.04905,120.55319,1.14762555e-08
C1V600,藤枝,2026-02-05,23.071961,120.757042,9.041433e-09
C1E601,南勢,2026-02-05,24.572486,120.734842,3.638177e-08
C0O980,新市,2026-02-05,23.061614,120.298197,0.24478224
C0K420,西螺,2026-02-05,23.800407,120.467394,1.0095893e-09
C0Z050,佳心,2026-02-05,23.34567,121.21316,4.2510912e-08
C0AD30,蘆洲,2026-02-05,25.086594,121.472331,9.442778e-08
C0V610,梓官,2026-02-05,22.760558,120.267211,0.024644066
K2F750,種苗改良場,2026-02-05,24.225972,120.800917,3.4727363e-09
C0UA80,大溪漁港,2026-02-05,24.941801,121.902955,1.1998503e-07
C1AI60,國一39K邊坡,2026-02-05,25.064361,121.383836,5.7681504e-08
C0W150,金寧,2026-02-05,24.457703,118.328989,1.9626104e-07
C0R960,內埔,2026-02-05,22.608483,120.570714,0.078855015
V2C250,八德合作社,2026-02-05,24.93775,121.266389,1.0032517e-07
C2H9S0,龍南,2026-02-05,23.953536,120.833183,3.8900296e-09
C0AH40,平等,2026-02-05,25.129142,121.577086,1.4240587e-07
C0R540,佳冬,2026-02-05,22.419456,120.552375,0.12500842
466950,彭佳嶼,2026-02-05,25.627975,122.079744,0.35282502
C0A890,雙溪,2026-02-05,25.036003,121.864242,9.628562e-08
C0C480,桃園,2026-02-05,24.992425,121.323172,1.801051e-07
C0AH50,林口,2026-02-05,25.072181,121.38084,5.192051e-08
A2K360,水試臺西試驗場,2026-02-05,23.717231,120.190522,9.006683e-07
C2M960,外寮,2026-02-05,23.562643,120.665688,4.368909e-09
C0F9S0,烏日,2026-02-05,24.107058,120.624103,8.281755e-09
C2N180,鹿陶洋,2026-02-05,23.14325,120.48352,2.736654e-09
C0C490,八德,2026-02-05,24.928708,121.283289,9.506498e-08
C0R190,赤山,2026-02-05,22.592333,120.614306,0.056970995
C0T820,天祥,2026-02-05,24.179597,121.495639,1.4697453e-07
C1F9E1,龍安,2026-02-05,24.1605,120.831961,3.584285e-09
C2SD50,順那,2026-02-05,23.04166,121.29332,1.6675915e-07
C0V820,小林,2026-02-05,23.148408,120.63325,1.0017823e-09
C2G870,芳苑,2026-02-05,23.922303,120.320025,8.3312665e-07
C0E850,大河,2026-02-05,24.618069,120.948578,2.7670874e-08
C1U670,寒溪,2026-02-05,24.634,121.71691,2.842937e-08
C0N020,城西,2026-02-05,23.0568,120.0956,0.34556034
C1Z110,三棧,2026-02-05,24.11557,121.60501,1.0182404e-07
C0R280,檳榔,2026-02-05,22.076078,120.836777,0.9999891
C2H9J0,中台,2026-02-05,23.9996,120.938739,2.5525748e-09
C0F9L0,后里,2026-02-05,24.310436,120.729725,4.506587e-09
467441,高雄,2026-02-05,22.730432,120.312516,0.009077593
C0Z180,新城,2026-02-05,24.040486,121.604878,2.7716047e-07
C0D540,橫山,2026-02-05,24.71116,121.11693,1.5697974e-08
C1D420,太閣南,2026-02-05,24.632808,121.160575,1.5477491e-08
C1E770,公館,2026-02-05,24.526914,120.830806,2.6501008e-08
CAN130,水試所海水繁養殖中心,2026-02-05,23.120802,120.07968,0.36647058
C1I430,翠華,2026-02-05,24.191961,121.224339,2.4879064e-08
C1M400,菜瓜坪,2026-02-05,23.251928,120.576103,1.1398523e-09
C0G730,二林,2026-02-05,23.903325,120.376081,2.9400766e-08
72M360,南改義竹分場,2026-02-05,23.360694,120.279361,0.00018362919
V2K620,麥寮合作社,2026-02-05,23.753836,120.294783,8.51863e-08
C0Z070,舞鶴,2026-02-05,23.46811,121.37407,5.92554e-08
C0B040,大武崙,2026-02-05,25.166676,121.706993,6.546052e-08
C1Z030,紅葉,2026-02-05,23.493119,121.338806,6.470837e-08
C1I050,丹大,2026-02-05,23.753747,121.141147,3.016425e-08
C0I080,信義,2026-02-05,23.689694,120.851036,1.1276604e-09
C2TB80,庄子底,2026-02-05,23.71794,121.49438,8.228837e-08
C0D750,樂山林道6k,2026-02-05,24.49999,121.08773,2.5521475e-08
C2M920,朴子農改,2026-02-05,23.469889,120.259383,9.442454e-08
C2A880,福隆,2026-02-05,25.017842,121.942083,1.0584128e-07
C0Z160,鳳林,2026-02-05,23.746114,121.453411,7.759097e-08
C0UB80,翠峰林道6K,2026-02-05,24.49773,121.568625,3.6575123e-08
C0V210,復興,2026-02-05,23.222403,120.806089,3.1779608e-09
C0H990,昆陽,2026-02-05,24.121322,121.273642,3.377121e-08
C0R741,獅子,2026-02-05,22.202308,120.705236,0.9918199
C0S710,鹿野,2026-02-05,22.917711,121.122994,4.136946e-08
C0I530,小奇萊,2026-02-05,24.131764,121.295717,3.7000543e-08
C0FA70,大雪山埡口,2026-02-05,24.26867,121.03062,2.82608e-08
C2K630,荷苞,2026-02-05,23.657717,120.595144,5.608835e-10
C0Z080,富源,2026-02-05,23.587642,121.378225,7.0796304e-08
C2M9E0,旺來山,2026-02-05,23.555153,120.486463,9.000118e-10
C0SB10,美和,2026-02-05,22.682078,121.060236,0.00025782446
C2K620,馬光農場,2026-02-05,23.721453,120.378864,1.0653224e-09
C1I140,卡奈托灣,2026-02-05,23.754364,121.087872,1.0583155e-08
C0I520,玉山風口,2026-02-05,23.470489,120.955994,5.058503e-08
C1G691,下水埔,2026-02-05,23.816114,120.5676,8.071932e-10
C0X110,臺南市南區,2026-02-05,22.961189,120.188378,0.21480422
C0V680,仁武,2026-02-05,22.701083,120.347722,0.0075191883
C2G840,北斗,2026-02-05,23.877586,120.514222,1.5478642e-08
C2TB90,長橋,2026-02-05,23.6874,121.46186,7.5608185e-08
C0R900,竹坑,2026-02-05,22.1385,120.7022,0.999309
C0G860,社頭,2026-02-05,23.897647,120.5862,9.073567e-09
C0X150,安定,2026-02-05,23.102614,120.227839,0.1781189
C0R590,里港,2026-02-05,22.77919,120.49459,0.0022492935
C0E610,馬都安,2026-02-05,24.451272,120.930192,7.171856e-09
C0E550,明德,2026-02-05,24.583486,120.885411,2.3444224e-08
C0R150,三地門,2026-02-05,22.709889,120.639944,0.00040266966
C0G910,花壇,2026-02-05,24.032076,120.549461,7.8001365e-09
C1D400,鳥嘴山,2026-02-05,24.71909,121.28387,1.1651712e-08
C0K500,元長,2026-02-05,23.64981,120.315024,8.320581e-08
C0F0B0,石岡,2026-02-05,24.276061,120.777644,4.038392e-09
C2V250,甲仙,2026-02-05,23.080106,120.591758,3.7009626e-09
C0SA20,金崙山,2026-02-05,22.567419,120.959667,3.225694e-08
C0V350,溪埔,2026-02-05,22.738578,120.446797,0.00302717
C0M660,溪口,2026-02-05,23.604131,120.403569,2.1486226e-09
C1S880,壽卡,2026-02-05,22.238911,120.858903,8.470849e-08
72D680,桃改新埔分場,2026-02-05,24.834444,121.066111,4.0038042e-08
