站號,站名,日期,lat,lon,BLBTSLS
C0R710,龍磐,2026-03-10,21.931672,120.838942,0.56245846
C1F9D1,白毛台,2026-03-10,24.158325,120.886933,6.237152e-09
C0G940,竹塘,2026-03-10,23.848253,120.386764,8.388253e-09
467590,恆春,2026-03-10,22.003897,120.746339,0.106066614
C1O850,環湖,2026-03-10,23.148617,120.418633,2.0928226e-08
C0U710,太平山,2026-03-10,24.505486,121.525656,3.42908e-08
C0E820,獅潭,2026-03-10,24.539133,120.920042,2.9676872e-07
C2SD70,二層坪,2026-03-10,22.94105,121.16838,3.9424418e-07
C0V880,興達,2026-03-10,22.8778,120.2127,3.8674824e-07
C0S890,關山,2026-03-10,23.0395,121.175017,3.171151e-07
C0SB30,新蘭,2026-03-10,22.869214,121.223228,4.726033e-06
C2R970,屏科大,2026-03-10,22.648275,120.619247,3.866182e-09
C1Z130,銅門,2026-03-10,23.965694,121.492842,1.9176476e-07
C0AD40,土城,2026-03-10,24.973208,121.445169,9.016449e-08
CAN140,六官養殖協會,2026-03-10,23.22881,120.29962,5.7222195e-07
C0X180,山上,2026-03-10,23.0757,120.363253,1.3185823e-07
C0F9Z0,雪山東峰,2026-03-10,24.388792,121.268675,4.3188432e-08
C1M480,獨立山,2026-03-10,23.537022,120.607797,4.633697e-09
C0X220,學甲,2026-03-10,23.230367,120.182187,7.332362e-07
467650,日月潭,2026-03-10,23.881325,120.90805,8.512064e-09
A2K570,古坑(花卉中心),2026-03-10,23.633531,120.552392,5.3626272e-09
C0K600,箔子寮,2026-03-10,23.6197,120.14,2.4677838e-06
C0G830,埤頭,2026-03-10,23.866003,120.452806,6.6764696e-09
C0S950,七塊厝,2026-03-10,22.954453,121.229922,9.6297924e-08
467110,金門,2026-03-10,24.407306,118.289281,6.329385e-08
C0AH80,深坑,2026-03-10,25.002703,121.628328,4.160238e-07
C0A970,三貂角,2026-03-10,25.007606,122.002058,9.2795227e-07
C2D730,寶山農場,2026-03-10,24.732444,120.976153,7.2611097e-06
C0K430,褒忠,2026-03-10,23.690938,120.303634,4.8507795e-06
467480,嘉義,2026-03-10,23.495925,120.432906,9.867258e-09
C0V400,阿公店,2026-03-10,22.804194,120.355528,6.37705e-07
C0E960,觀霧分站,2026-03-10,24.505781,121.113921,2.6782214e-08
467550,玉山,2026-03-10,23.48718,120.95943,4.077309e-08
C0R440,大漢山,2026-03-10,22.405264,120.753181,1.5657665e-08
C0SD30,東清國小,2026-03-10,22.057128,121.564922,0.18910427
C1F9B1,桐林,2026-03-10,24.066172,120.735194,9.510014e-09
C2H9U0,鳳鵬,2026-03-10,23.763919,120.788061,3.758872e-09
C0K390,土庫,2026-03-10,23.679029,120.395574,1.049459e-08
C1I450,望鄉山,2026-03-10,23.594153,120.944286,2.5944303e-08
C0E910,海埔,2026-03-10,24.648767,120.772435,3.5054381e-06
B2E890,畜試北區分所,2026-03-10,24.527806,120.770972,1.280028e-06
C0R750,四林格山,2026-03-10,22.076989,120.802439,0.27006236
C0F0C0,中坑,2026-03-10,24.248517,120.903319,1.47140655e-08
C1I121,大鞍,2026-03-10,23.678381,120.760017,9.179105e-09
C2G9E0,移民庄,2026-03-10,23.9784,120.40283,4.9645206e-07
72U480,花改蘭陽分場,2026-03-10,24.686306,121.716583,2.2007434e-08
C0A770,科教館,2026-03-10,25.096356,121.516507,9.93864e-08
C0AJ60,六塊厝,2026-03-10,25.24,121.4481,0.0010720311
C0R620,墾雷,2026-03-10,21.900836,120.855269,0.19856867
467420,永康,2026-03-10,23.038386,120.2367,2.9943703e-07
C2M530,奮起湖,2026-03-10,23.493903,120.699253,8.236481e-09
C0I410,名間,2026-03-10,23.837053,120.701447,8.739055e-09
A2C560,農工中心,2026-03-10,24.985917,121.239833,0.00077858486
C0V740,旗山,2026-03-10,22.888614,120.483597,1.2630143e-08
C0Z061,玉里,2026-03-10,23.3215,121.339656,2.2947822e-07
C0S840,南田,2026-03-10,22.279725,120.889208,0.9481417
C1I470,杉林溪,2026-03-10,23.639517,120.786444,1.0059896e-08
C1X040,東原,2026-03-10,23.291597,120.463822,6.9978943e-09
C0R660,枋寮,2026-03-10,22.367722,120.590647,7.763923e-08
C1R120,上德文,2026-03-10,22.763272,120.704442,1.4190596e-08
C0K450,大埤,2026-03-10,23.646074,120.431537,1.1943664e-08
C0UA00,土場,2026-03-10,24.576533,121.495333,6.836991e-08
467080,宜蘭,2026-03-10,24.763975,121.756528,2.3362357e-08
C0N030,四草,2026-03-10,23.0235,120.1116,5.462758e-07
467410,臺南,2026-03-10,22.99328,120.20492,2.9210423e-07
C0V650,彌陀,2026-03-10,22.783806,120.246361,1.2555945e-06
C0D660,新竹市東區,2026-03-10,24.798681,120.986942,1.536461e-05
82S580,茶改東部分場,2026-03-10,22.907694,121.130139,5.767804e-07
C0SB40,興隆,2026-03-10,22.913661,121.257469,1.0866622e-05
467050,新屋,2026-03-10,25.006725,121.047492,0.040103976
C0C710,大溪永福,2026-03-10,24.892936,121.324975,0.00023238531
C0FA20,溫寮,2026-03-10,24.372177,120.583125,5.59564e-06
C0V640,湖內,2026-03-10,22.887139,120.2445,3.3802763e-07
C0R910,下寮,2026-03-10,22.3929,120.5548,8.5088864e-08
C0Z020,明里,2026-03-10,23.208717,121.262342,1.6009275e-07
C0M770,嘉義梅山,2026-03-10,23.585398,120.555587,4.8039763e-09
C0C660,楊梅,2026-03-10,24.912375,121.143047,0.00016273827
C0SD40,牛頭山,2026-03-10,22.676661,121.506944,0.99139273
C1E511,新開,2026-03-10,24.347703,120.827019,2.0039067e-08
G2F820,農試所(霧峰),2026-03-10,24.031261,120.688133,1.1871078e-08
C2M990,大巃頂,2026-03-10,23.5547,120.61439,6.204475e-09
C1I070,和社,2026-03-10,23.591131,120.888861,5.938741e-09
C2E990,新坪頂,2026-03-10,24.30201,120.8574,1.2705092e-08
C0TA80,立霧山,2026-03-10,24.183258,121.641899,3.8655205e-08
C2F000,大肚,2026-03-10,24.15295,120.572117,1.4170905e-08
C1S850,豐南,2026-03-10,23.122139,121.262389,8.4230145e-08
C2M9B0,西興,2026-03-10,23.2428,120.57617,4.3883848e-09
C2A920,富貴角,2026-03-10,25.263783,121.565258,9.959502e-06
C0T960,光復,2026-03-10,23.660694,121.424964,8.115365e-08
C0F9M0,豐原,2026-03-10,24.254322,120.720692,2.2274241e-08
C0R720,旭海,2026-03-10,22.205403,120.887614,0.9977069
C0V710,苓雅,2026-03-10,22.622742,120.330669,5.153868e-07
C0C740,觀音工業區,2026-03-10,25.064764,121.114856,0.07733017
CAC040,拉拉山,2026-03-10,24.699317,121.427133,3.9169464e-08
C0V790,萬山,2026-03-10,22.905944,120.688056,2.6904479e-08
U2HA30,臺大和社,2026-03-10,23.590856,120.888864,5.938741e-09
C2H9K0,屯原,2026-03-10,24.067969,121.209389,1.6048064e-08
C0AJ90,澳底,2026-03-10,25.0552,121.9253,1.0684546e-06
C0Z100,東華,2026-03-10,23.89525,121.549833,8.7244196e-08
C0G970,三豐,2026-03-10,23.882,120.2895,0.00225208
C0V900,汕尾,2026-03-10,22.4782,120.4151,1.0194647e-07
C1R630,龍泉,2026-03-10,22.66701,120.59091,4.583182e-09
C1AC50,關渡,2026-03-10,25.133486,121.469331,2.6796637e-05
C0C800,四稜,2026-03-10,24.64733,121.4293,4.6100908e-08
C0F9I0,神岡,2026-03-10,24.272481,120.658314,2.1648106e-08
C0K460,斗南,2026-03-10,23.678734,120.478359,1.165469e-08
C2O810,曾文,2026-03-10,23.219681,120.497328,1.0338825e-08
467280,後龍,2026-03-10,24.648563,120.831834,2.0607026e-06
C1F9J1,清水林,2026-03-10,24.071242,120.820419,4.732999e-09
C2A650,火燒寮,2026-03-10,25.002719,121.742892,1.0001355e-07
466930,竹子湖,2026-03-10,25.162078,121.544547,1.7978866e-07
C1I220,樟湖,2026-03-10,23.905333,120.846983,7.721108e-09
C0I390,仁愛,2026-03-10,24.022122,121.132206,8.307511e-09
C0Z300,東里,2026-03-10,23.26853,121.30547,2.0066419e-07
C1V590,新發,2026-03-10,23.057019,120.646064,1.0515829e-08
C0K510,水林,2026-03-10,23.572924,120.24597,7.124059e-07
72S590,東改賓朗果園,2026-03-10,22.813889,121.071278,2.3522524e-07
82A750,茶改北部分場,2026-03-10,24.955778,121.631222,6.284407e-08
C1A750,石碇服務區,2026-03-10,25.00872,121.646242,4.2372287e-07
C0X300,鹿寮,2026-03-10,23.386047,120.477331,8.112623e-09
C0K590,雲林東勢,2026-03-10,23.674192,120.255721,4.5598395e-06
C2K310,港尾布雞,2026-03-10,23.74834,120.38439,8.527941e-09
C0A570,桶後,2026-03-10,24.848222,121.597992,1.812691e-07
C1S800,華源,2026-03-10,22.657883,121.02325,1.7568831e-06
C0G720,溪州,2026-03-10,23.851589,120.499093,6.5569576e-09
C1V160,達卡努瓦,2026-03-10,23.279811,120.705319,7.59507e-09
C2M410,馬頭山,2026-03-10,23.324361,120.582017,5.3858447e-09
C0V850,蚵仔寮,2026-03-10,22.7256,120.2527,1.3053452e-06
C0S740,池上,2026-03-10,23.119628,121.209469,2.2830687e-07
C1V390,尖山,2026-03-10,22.813153,120.367789,4.039473e-07
C0AH70,松山,2026-03-10,25.04871,121.55042,9.4333814e-08
C0N010,鯤鯓國小,2026-03-10,23.1879,120.0889,8.6709986e-07
C0R550,新埤,2026-03-10,22.467947,120.582894,6.0831496e-08
C0SA60,知本（水試所）,2026-03-10,22.702394,121.082761,5.008638e-05
C0T9I0,豐濱,2026-03-10,23.583897,121.514806,1.4134959e-05
C0UB00,淡江大學蘭陽校園,2026-03-10,24.823239,121.730383,1.9333456e-08
C0W240,九宮,2026-03-10,24.423753,118.240186,5.7612784e-08
C0T9N0,富里,2026-03-10,23.171639,121.249378,1.3954019e-07
U2HA50,臺大竹山,2026-03-10,23.756972,120.681556,8.503675e-09
C0V840,鳳鼻頭,2026-03-10,22.5083,120.3591,8.7716735e-08
C0X140,西港,2026-03-10,23.125608,120.203108,6.090412e-07
72D080,桃改五峰分場,2026-03-10,24.612194,121.157167,2.5788745e-08
C2H9P0,伊拿谷,2026-03-10,23.963211,121.088264,7.2458293e-09
C2K250,崙背,2026-03-10,23.75553,120.31893,4.250084e-06
C2H9F0,柑林,2026-03-10,24.018658,120.847072,5.1746385e-09
C0TA20,加灣,2026-03-10,24.082025,121.608944,8.6524045e-07
C0V530,阿蓮,2026-03-10,22.883208,120.327508,1.9430742e-07
C0FB30,八仙山苗圃,2026-03-10,24.192719,121.001366,1.5579586e-08
C1O880,關山,2026-03-10,23.173397,120.594092,5.4516707e-09
C0E791,卓蘭,2026-03-10,24.3126,120.8244,1.9233193e-08
C1I030,武界,2026-03-10,23.913225,121.052483,7.889374e-09
C0R520,崁頂,2026-03-10,22.514781,120.506914,1.3555587e-07
C0R341,牡丹,2026-03-10,22.130036,120.792639,0.97877276
C0R930,萬丹,2026-03-10,22.5885,120.4851,9.306778e-08
C0S760,紅石,2026-03-10,23.069131,121.126219,2.52163e-08
C2C410,中央大學,2026-03-10,24.967652,121.185165,0.0004690514
C1M610,石磐龍,2026-03-10,23.496606,120.663506,7.693663e-09
C0C790,東眼山,2026-03-10,24.8284,121.40888,3.703832e-08
C0UA10,鴛鴦湖,2026-03-10,24.590269,121.412228,3.6430098e-08
C0R800,丹路,2026-03-10,22.204481,120.750989,0.9495594
C0G920,永靖,2026-03-10,23.924703,120.547533,1.8028692e-07
C2M950,太和,2026-03-10,23.538372,120.702961,8.194111e-09
C1A630,下盆,2026-03-10,24.771003,121.538622,6.269454e-08
B2N890,畜產試驗所,2026-03-10,23.058972,120.336406,1.9827249e-07
C0UA30,白嶺,2026-03-10,24.527819,121.519031,4.0365613e-08
467571,新竹,2026-03-10,24.828575,121.01455,2.8537666e-05
C1V580,溪南(特生中心),2026-03-10,23.084972,120.788475,8.850792e-09
C1T970,大農,2026-03-10,23.615233,121.413331,3.23048e-06
C0R650,竹田,2026-03-10,22.58486,120.54344,1.00678264e-07
C1H900,清流,2026-03-10,24.080775,120.962997,8.219704e-09
C1C510,水尾,2026-03-10,24.940081,121.087161,0.0022039623
C2N170,茅港尾,2026-03-10,23.2061,120.2624,5.7222195e-07
C0F9X0,大雅(中科園區),2026-03-10,24.21528,120.62445,2.565716e-08
C0SB60,白守蓮,2026-03-10,23.126769,121.401914,0.00011987271
C0O970,虎頭埤,2026-03-10,23.021375,120.347878,1.4699458e-07
C0C730,中大臨海站,2026-03-10,24.966126,121.008581,0.00010099791
C0X250,新營,2026-03-10,23.310689,120.316681,4.2143944e-07
C0V700,三民,2026-03-10,22.645017,120.311233,9.208811e-07
C0U870,大礁溪,2026-03-10,24.791042,121.675047,1.6471557e-08
C0E870,高鐵苗栗,2026-03-10,24.60725,120.826094,2.2232514e-06
C0TA30,鹽寮,2026-03-10,23.845606,121.592664,9.8514455e-08
C0M860,新美,2026-03-10,23.338017,120.683169,8.443696e-09
C1E701,八卦,2026-03-10,24.491756,120.927619,3.950929e-08
C2TA90,加納納,2026-03-10,23.466421,121.359867,2.622919e-06
C0I420,國姓,2026-03-10,24.037803,120.855072,4.95822e-09
C2D720,關西工作站,2026-03-10,24.757275,121.184792,4.1767115e-07
C0S960,香蘭,2026-03-10,22.587569,120.993375,1.3846395e-06
467620,蘭嶼,2026-03-10,22.0369,121.55843,0.7928808
C0R260,春日,2026-03-10,22.370361,120.628306,0.9967615
72G600,臺中農改場,2026-03-10,24.003028,120.534389,1.2499764e-07
C0Z210,瑞穗,2026-03-10,23.5239,121.39021,2.2210063e-05
C0M820,達邦,2026-03-10,23.453994,120.749517,7.3320097e-09
C0V860,南寮,2026-03-10,22.7616,120.2339,1.3053452e-06
C0G740,大城,2026-03-10,23.852487,120.320935,0.0013202267
C0R920,塭仔,2026-03-10,22.4169,120.5197,9.7877844e-08
C0R470,高樹,2026-03-10,22.826389,120.600806,4.2020996e-09
C0R680,佳樂水,2026-03-10,21.993578,120.861633,0.15375376
C1O870,大棟山,2026-03-10,23.31157,120.52226,8.498292e-09
C0D360,梅花,2026-03-10,24.678347,121.208558,6.5142906e-08
C0Z190,富世,2026-03-10,24.14743,121.6297,1.4578309e-06
C0AI10,屈尺,2026-03-10,24.92184,121.54475,7.929596e-08
B2U990,畜試東區分所,2026-03-10,24.669039,121.832561,2.2679536e-08
C0SB80,長濱漁港,2026-03-10,23.313644,121.459994,0.00033733173
C0TA50,和仁,2026-03-10,24.241394,121.712472,8.6541786e-07
C0V910,大樹,2026-03-10,22.684645,120.432803,9.009775e-09
C1R610,西大武山,2026-03-10,22.617719,120.7322,1.3433131e-08
C0G900,線西,2026-03-10,24.143358,120.443536,6.1475293e-07
C0M700,竹崎,2026-03-10,23.526178,120.555508,4.8532853e-09
C2E880,三義,2026-03-10,24.405478,120.749819,6.036939e-08
C0C720,竹圍,2026-03-10,25.112692,121.239824,0.040447168
C0F9P0,清水,2026-03-10,24.312297,120.562242,7.119659e-08
C0Z150,吉安光華,2026-03-10,23.930925,121.595153,9.7753215e-08
C0FA80,小雪山天池,2026-03-10,24.28025,121.02627,3.4331503e-08
467300,東吉島,2026-03-10,23.25727,119.66762,0.99685836
C1D640,外坪(五指山),2026-03-10,24.644447,121.090961,9.9404595e-08
C2R9A0,高士國小,2026-03-10,22.12553,120.84653,0.99460936
C0F9O0,潭子,2026-03-10,24.213106,120.703933,2.549632e-08
C2H9R0,卓社,2026-03-10,23.887894,121.000086,9.109479e-09
72T250,花蓮農改場,2026-03-10,23.975222,121.563889,8.550862e-08
C0E780,銅鑼,2026-03-10,24.489681,120.790853,4.849522e-07
C1T950,太安,2026-03-10,23.666719,121.370128,2.1140902e-08
C0E830,苑裡,2026-03-10,24.439714,120.653053,3.7493364e-06
467270,田中,2026-03-10,23.873803,120.581286,7.396326e-09
C0SA10,檳榔四格山,2026-03-10,22.810031,121.109308,1.3948178e-07
C1T830,布洛灣,2026-03-10,24.17184,121.57127,1.9241362e-07
C0F970,大坑,2026-03-10,24.173142,120.722289,3.237238e-08
C1U920,思源,2026-03-10,24.393125,121.347214,2.5473328e-08
C2H9Y0,松茗,2026-03-10,23.8167,120.650765,3.424542e-09
C0A931,三和,2026-03-10,25.233153,121.595236,3.893067e-06
C0I010,廬山,2026-03-10,24.033311,121.181808,1.3948492e-08
C2M940,日野賀,2026-03-10,23.434056,120.727169,7.247156e-09
C0R860,鼻頭,2026-03-10,22.1043,120.8979,0.45639035
C0UB20,壯圍,2026-03-10,24.7359,121.8163,2.39089e-08
C0R790,九棚,2026-03-10,22.14195,120.889281,0.9817971
C0W110,東莒,2026-03-10,25.9652,119.98069,3.0825695e-06
C1U930,粉鳥林,2026-03-10,24.497088,121.842479,3.122379e-05
C1I211,蘆竹湳,2026-03-10,23.934019,120.811994,4.232691e-09
C0S830,長濱,2026-03-10,23.286817,121.411975,1.7307574e-06
C1F9F1,伯公龍,2026-03-10,24.272392,120.849047,1.351844e-08
C0UB90,太平山莊,2026-03-10,24.494171,121.536209,3.442107e-08
C0E810,西湖,2026-03-10,24.562947,120.7485,3.7235875e-06
C1I440,新高口,2026-03-10,23.478744,120.878939,1.8183695e-08
C0O840,王爺宮,2026-03-10,23.222064,120.40085,1.939939e-08
C0T9G0,鳳林山,2026-03-10,23.735269,121.420131,3.789786e-08
C0X080,佳里,2026-03-10,23.173039,120.145086,8.373939e-07
C0FB70,大甲溪埔,2026-03-10,24.370625,120.620067,3.1862462e-06
C0Z310,清水斷崖,2026-03-10,24.218294,121.689142,3.4504228e-07
C0M680,太保,2026-03-10,23.455062,120.331455,8.993945e-07
C1S820,金峰,2026-03-10,22.590969,120.933236,1.6084753e-06
C0AD10,八里,2026-03-10,25.150211,121.403947,0.0007122675
C2K240,草嶺,2026-03-10,23.59555,120.693461,8.869584e-09
C1SA70,都蘭,2026-03-10,22.87794,121.226881,4.057081e-06
C0K440,二崙,2026-03-10,23.772797,120.408944,7.0487447e-09
C1A760,坪林交控,2026-03-10,24.94284,121.713442,1.4190238e-07
C0F9N0,大里,2026-03-10,24.092464,120.701378,1.1747421e-08
C0SA90,達仁林場,2026-03-10,22.264347,120.823972,8.298486e-05
C1R290,石門山,2026-03-10,22.112611,120.756597,0.94217175
42HA10,萬大發電廠,2026-03-10,23.978875,121.139639,7.670088e-09
C0R890,山海,2026-03-10,21.9878,120.7091,0.0846844
C0T9A0,月眉山,2026-03-10,23.809928,121.539828,3.06678e-08
C0AC70,信義,2026-03-10,25.037822,121.564597,9.5809305e-08
C0K560,棋山,2026-03-10,23.68645,120.603417,4.877143e-09
C2FB50,出雲,2026-03-10,24.206469,120.902794,1.3240089e-08
C1Z240,中平林道,2026-03-10,23.42115,121.26763,3.2634247e-08
U2H480,溪頭,2026-03-10,23.670306,120.798194,7.3388517e-09
C0M880,好美里,2026-03-10,23.3364,120.138,6.086034e-07
C0T9E0,大坑,2026-03-10,23.880628,121.581981,7.039518e-08
C0K530,臺西,2026-03-10,23.701547,120.197559,2.7589946e-05
C1E900,國一N128K,2026-03-10,24.560997,120.844186,1.3956324e-06
C0AJ50,水湳洞,2026-03-10,25.123695,121.862238,9.634842e-07
C0AI20,白沙灣,2026-03-10,25.283128,121.519058,0.00074818695
C2V310,美濃,2026-03-10,22.898792,120.51907,1.3298629e-08
C0A860,大坪,2026-03-10,25.165914,121.632969,6.590375e-08
C1U850,觀音海岸,2026-03-10,24.38319,121.77856,3.354562e-08
C2K610,草嶺石壁,2026-03-10,23.602469,120.707731,8.869736e-09
C0U950,鶯子嶺,2026-03-10,24.89754,121.79244,3.1328188e-08
C0O900,善化,2026-03-10,23.112883,120.297219,2.6146375e-07
C0K550,蔦松,2026-03-10,23.514319,120.229736,9.771293e-07
E2P980,林試六龜中心,2026-03-10,22.991703,120.645722,3.6598062e-09
C0E590,通霄,2026-03-10,24.471892,120.704622,5.64487e-06
C1I310,西巒,2026-03-10,23.754486,120.883956,8.747844e-09
C0A550,泰平,2026-03-10,24.971197,121.823711,5.9837696e-08
C0I360,水里,2026-03-10,23.812553,120.849792,4.4549164e-09
C0R830,高士,2026-03-10,22.121825,120.836781,0.8204261
C1I101,溪頭,2026-03-10,23.661789,120.807647,1.0957488e-08
C0AJ20,野柳,2026-03-10,25.20703,121.690021,0.00037928586
C0B060,暖暖,2026-03-10,25.0957,121.7403,4.2137512e-07
C1H920,長豐,2026-03-10,24.102039,120.879897,6.3027823e-09
C2S9B0,利吉,2026-03-10,22.86246,121.15486,7.938484e-07
C0V360,內門,2026-03-10,22.975481,120.466769,9.878274e-09
C0R850,林邊,2026-03-10,22.4634,120.5339,1.04480975e-07
C0E930,龍鳳,2026-03-10,24.700034,120.859125,8.40567e-05
C0U910,冬山,2026-03-10,24.63373,121.7937,2.2679536e-08
C1E721,泰安,2026-03-10,24.489017,120.968036,2.5330642e-08
82H320,茶改中部分場,2026-03-10,23.875611,120.913583,7.939248e-09
C0M750,布袋,2026-03-10,23.380878,120.167789,1.7663112e-06
C1S860,利嘉,2026-03-10,22.809417,121.050528,8.5563926e-08
E2S980,林試太麻里1,2026-03-10,22.598922,120.980044,9.249014e-06
C0X170,關廟,2026-03-10,22.963017,120.327797,1.8047925e-07
C0V720,林園,2026-03-10,22.507747,120.394511,8.884352e-08
C1I510,線浸林道,2026-03-10,23.761508,120.832956,6.6436576e-09
C0D690,外湖,2026-03-10,24.917735,120.968711,0.00077491935
C0C750,新興坑尾,2026-03-10,25.0061,121.0971,0.009167668
B2Q810,畜試南區分所,2026-03-10,21.945583,120.802167,0.15375376
C0S790,金崙,2026-03-10,22.538122,120.966875,1.0351541e-06
C0AH90,福山植物園,2026-03-10,24.760717,121.58135,5.1205916e-08
C0I540,奇萊稜線,2026-03-10,24.109231,121.326456,3.5584772e-08
C0M850,表湖,2026-03-10,23.24186,120.64166,6.7830315e-09
C0S770,大溪山,2026-03-10,22.478475,120.943325,1.0472085e-06
C0AG80,中和,2026-03-10,24.991622,121.491792,9.016449e-08
C0T790,大禹嶺,2026-03-10,24.186117,121.316086,3.332179e-08
C0T9B0,水源,2026-03-10,23.991861,121.537169,5.293021e-08
C0R840,牡丹池山,2026-03-10,22.168389,120.841225,0.00034822477
C1I131,桶頭,2026-03-10,23.641944,120.654117,5.5644462e-09
CAL110,布袋國中,2026-03-10,23.35893,120.18026,6.086034e-07
C2M9D0,何竹子腳,2026-03-10,23.53641,120.38203,1.0397064e-08
C0Z290,赤柯山,2026-03-10,23.36893,121.38293,3.7060367e-08
C0X280,將軍,2026-03-10,23.214999,120.13577,7.5728605e-07
C0S690,太麻里,2026-03-10,22.60902,120.98533,9.9498685e-08
C0U880,北關,2026-03-10,24.9072,121.8734,1.3032083e-06
CAW010,東引,2026-03-10,26.3588,120.4836,2.4188637e-05
C0G810,埔心,2026-03-10,23.947633,120.525456,2.0677153e-07
C0U970,大福,2026-03-10,24.80064,121.81389,2.3596574e-08
C2H9N0,仁愛東眼,2026-03-10,24.026875,121.1205,1.0298538e-08
C1E670,南礦,2026-03-10,24.538278,121.002836,2.7514094e-08
C0M520,東後寮,2026-03-10,23.369908,120.248065,5.446097e-07
C1E461,松安,2026-03-10,24.397972,120.986022,2.4752497e-08
C2N160,西拉雅風管處,2026-03-10,23.189481,120.335297,4.9358084e-07
C2M970,碧湖,2026-03-10,23.568632,120.624165,6.1442966e-09
C0A640,石碇,2026-03-10,24.993969,121.662917,1.4190238e-07
E2S960,林試太麻里2,2026-03-10,22.598,120.99775,1.509208e-06
C0F9Y0,桃山,2026-03-10,24.432739,121.303808,4.105559e-08
C1I020,萬大,2026-03-10,23.979817,121.132261,8.34359e-09
C2UC20,長嶺,2026-03-10,24.70894,121.61162,9.538083e-08
C0U940,羅東,2026-03-10,24.68184,121.74934,2.2214715e-08
C0M650,朴子,2026-03-10,23.43463,120.23902,8.8047e-07
C1I500,大尖山,2026-03-10,23.858572,120.994889,1.4977884e-08
C0FB40,中橫21.6k,2026-03-10,24.2499,121.1455,1.653596e-08
C0G820,田尾,2026-03-10,23.901669,120.509389,2.0677153e-07
E2K600,四湖植物園,2026-03-10,23.676986,120.163433,2.960302e-05
C0S730,綠島,2026-03-10,22.6672,121.47533,0.9916309
12Q970,東港工作站,2026-03-10,22.479997,120.466058,1.1036653e-07
C1TA00,太魯閣,2026-03-10,24.15773,121.6236,1.043271e-06
466920,臺北,2026-03-10,25.037658,121.514853,9.4333814e-08
C0R600,舊泰武,2026-03-10,22.588194,120.664944,5.4333203e-08
C1I260,北坑,2026-03-10,23.9246,121.006903,7.460055e-09
466910,鞍部,2026-03-10,25.182586,121.529731,1.237429e-07
C1I230,九份二山,2026-03-10,23.961944,120.845,5.4775295e-09
C2M810,里佳,2026-03-10,23.389125,120.716647,7.8923685e-09
C2A660,瑞芳,2026-03-10,25.113169,121.801147,3.494943e-07
C0R270,琉球嶼,2026-03-10,22.332244,120.362236,7.196805e-07
C2V580,瑞山,2026-03-10,22.90304,120.43424,1.0886784e-08
C1T990,高寮,2026-03-10,23.394239,121.356808,3.812946e-05
C0G620,芬園,2026-03-10,24.015678,120.6213,6.604494e-08
C1Z140,荖溪,2026-03-10,23.890575,121.45964,4.4329315e-08
C1I201,中心崙,2026-03-10,23.728722,120.712097,3.5370986e-09
C1I400,凌霄,2026-03-10,24.018778,121.004456,1.0211341e-08
C1M640,十字,2026-03-10,23.492153,120.753683,9.338943e-09
G2P820,農試鳳山分所,2026-03-10,22.646611,120.356083,4.0657696e-07
C0Z270,蕃薯寮,2026-03-10,23.73835,121.540108,4.2245386e-08
C2E420,竹南,2026-03-10,24.70898,120.88897,3.6397993e-05
C0FB10,出雲山苗圃,2026-03-10,24.23105,120.90475,1.4672867e-08
C0F9Q0,外埔,2026-03-10,24.347817,120.705686,2.9210328e-08
C0K580,高鐵雲林,2026-03-10,23.737456,120.417944,8.418771e-09
C2I090,鳳凰,2026-03-10,23.728081,120.787347,5.012572e-09
C0U990,員山,2026-03-10,24.74435,121.72247,2.239702e-08
C0V770,大社,2026-03-10,22.730306,120.346639,7.070244e-07
C0X120,麻豆,2026-03-10,23.183289,120.248611,4.888149e-07
C0C670,龍潭,2026-03-10,24.870056,121.221389,2.4165283e-07
C0D680,香山濕地,2026-03-10,24.783581,120.914988,0.00077491935
C0S980,勝林山,2026-03-10,22.430439,120.8938,2.9220972e-08
C0V730,大寮,2026-03-10,22.605614,120.395717,8.015695e-08
C0R570,麟洛,2026-03-10,22.65078,120.52719,9.6121e-09
C2M930,石卓,2026-03-10,23.478744,120.702264,9.273445e-09
C0G9B0,和美,2026-03-10,24.105169,120.492131,2.9330064e-07
CAG100,王功漁港,2026-03-10,23.96824,120.32586,0.0005701266
C0X290,北門,2026-03-10,23.267772,120.125481,7.5728605e-07
C2F930,大甲,2026-03-10,24.347667,120.640403,4.3175504e-08
C0D650,湖口,2026-03-10,24.904794,121.043628,1.3121314e-05
C0U780,五結,2026-03-10,24.68637,121.79794,2.2679536e-08
C1I250,鯉潭,2026-03-10,23.961922,120.991131,7.4081434e-09
C0R130,阿禮,2026-03-10,22.742908,120.743678,8.4388985e-09
C0X100,臺南市北區,2026-03-10,23.010394,120.194228,3.497697e-07
C0S920,金峰嘉蘭,2026-03-10,22.594789,120.960825,5.8969636e-07
C0V490,新興,2026-03-10,22.627422,120.298803,1.3068699e-06
C0F9K0,大安,2026-03-10,24.345061,120.588025,6.715079e-08
467290,古坑,2026-03-10,23.633639,120.551889,5.3626272e-09
C2E970,八甲,2026-03-10,24.535811,120.795983,4.101861e-07
C0V440,鳳山,2026-03-10,22.646653,120.356122,4.0657696e-07
C1T940,大觀,2026-03-10,23.714206,121.373133,3.4122536e-08
C0E740,造橋,2026-03-10,24.637056,120.864778,3.634766e-05
C0R100,尾寮山,2026-03-10,22.833111,120.683889,8.403001e-09
A2K630,臺大雲林校區,2026-03-10,23.730628,120.423903,8.197269e-09
467990,馬祖,2026-03-10,26.169467,119.923158,1.0112522e-06
C0D580,寶山,2026-03-10,24.735006,121.025192,2.8471293e-06
E2P990,林試扇平站,2026-03-10,22.9677,120.6857,1.0261714e-08
C0AI30,三重,2026-03-10,25.057328,121.500629,9.93864e-08
C0AH00,汐止,2026-03-10,25.066881,121.658778,8.863522e-07
C1Z040,立山,2026-03-10,23.443356,121.327375,2.8346753e-07
466881,新北,2026-03-10,24.959207,121.525196,8.5835104e-08
C0W130,花嶼,2026-03-10,23.40007,119.32276,0.99398047
C0A950,鼻頭角,2026-03-10,25.129036,121.923372,0.0017774962
C0K470,林內,2026-03-10,23.748675,120.609642,5.086704e-09
C2F990,摩天嶺,2026-03-10,24.322458,120.936819,1.4079975e-08
C2E430,南庄,2026-03-10,24.601775,121.000214,1.1091063e-06
82C160,茶改場,2026-03-10,24.908472,121.185333,4.3384443e-05
C2TB60,南安,2026-03-10,23.29818,121.26157,1.6232023e-07
C0Z320,清水林道,2026-03-10,23.27125,121.188272,5.1473638e-08
C0R760,南仁湖,2026-03-10,22.084681,120.863353,0.93696344
C0M670,大林,2026-03-10,23.600616,120.45841,9.048904e-09
C0M800,茶山,2026-03-10,23.299075,120.664767,4.5340043e-09
C0A9C0,天母,2026-03-10,25.117494,121.537169,9.5418855e-08
72K220,南改斗南分場,2026-03-10,23.634556,120.477333,1.1137923e-08
72AI40,桃改樹林分場,2026-03-10,24.944503,121.386972,8.5088054e-08
C0S910,蘭嶼燈塔,2026-03-10,22.081197,121.503117,0.4036944
C0B050,八斗子,2026-03-10,25.144754,121.79167,1.1167139e-06
C0U900,內城,2026-03-10,24.71813,121.68766,2.1785583e-08
C0X320,柳營,2026-03-10,23.253328,120.375253,3.8141806e-08
C0M790,新港,2026-03-10,23.553269,120.345728,5.9633635e-07
C0F9T0,西屯,2026-03-10,24.179494,120.641275,3.4293283e-08
C0E950,松安,2026-03-10,24.39792,120.98599,2.4752497e-08
C0SA30,都歷,2026-03-10,23.020333,121.323642,7.1819177e-06
C0C620,蘆竹,2026-03-10,25.084275,121.265767,0.022130767
C0R730,大坪頂,2026-03-10,22.024633,120.69355,0.92633736
C0AJ40,石門,2026-03-10,25.273672,121.601198,2.4140381e-05
C0E750,苗栗,2026-03-10,24.564569,120.824575,1.4954226e-06
C0T870,鯉魚潭,2026-03-10,23.935639,121.508944,5.5259925e-08
C1V170,排雲,2026-03-10,23.463619,120.954147,3.6525837e-08
C2H950,中寮,2026-03-10,23.884447,120.766406,5.512115e-09
C0R350,貓鼻頭,2026-03-10,21.921774,120.7358,0.11116356
C0V660,岡山,2026-03-10,22.797078,120.294958,1.1023101e-06
C1H941,雙冬,2026-03-10,23.967378,120.802189,4.978727e-09
C0AJ70,田寮,2026-03-10,25.2698,121.4886,0.00076378713
C0AI00,五股,2026-03-10,25.07445,121.42728,6.520767e-08
C0Z280,德武,2026-03-10,23.47426,121.41071,4.864399e-06
C2RA10,大新,2026-03-10,22.67558,120.57788,4.583182e-09
C0R700,枋山,2026-03-10,22.246844,120.661086,0.9831891
C0C460,復興,2026-03-10,24.820208,121.352281,8.668935e-08
C2K300,鹿南,2026-03-10,23.63855,120.3636,5.2340883e-06
E2H360,蓮華池,2026-03-10,23.918333,120.885278,6.525642e-09
C0M640,中埔,2026-03-10,23.42538,120.5229,5.331023e-09
C0W140,金沙,2026-03-10,24.488292,118.408778,5.756149e-08
C2A540,四堵,2026-03-10,24.8926,121.745736,8.6312184e-08
C0ACA0,新莊,2026-03-10,25.051478,121.446756,1.04879696e-07
C0R220,潮州,2026-03-10,22.534361,120.54,1.11099205e-07
U2HA40,臺大內茅埔,2026-03-10,23.689722,120.851117,4.676234e-09
467490,臺中,2026-03-10,24.145736,120.684075,4.1037737e-08
C0UB60,明池,2026-03-10,24.650688,121.475277,4.0517648e-08
C0U960,翠峰湖,2026-03-10,24.510856,121.608044,3.3918784e-08
E2HA20,林試畢祿溪站,2026-03-10,24.226944,121.308522,2.562757e-08
C2M9A0,大華,2026-03-10,23.4824,120.67491,7.247446e-09
C0V890,前鎮,2026-03-10,22.5718,120.3117,8.526633e-07
C1F941,雪嶺,2026-03-10,24.280586,121.026642,3.4331503e-08
C2H9E0,國姓南港,2026-03-10,23.911108,120.846556,7.923334e-09
C0AC80,文山,2026-03-10,25.00235,121.575728,8.484092e-08
C0F9R0,龍井,2026-03-10,24.184536,120.528972,6.808296e-07
C0M760,民雄,2026-03-10,23.551754,120.428457,9.048904e-09
C0UA40,西德山,2026-03-10,24.560647,121.752608,3.1177972e-08
C2TA70,赤科坪,2026-03-10,23.39885,121.39168,6.103267e-08
C1T920,中興,2026-03-10,23.769503,121.498653,8.534779e-08
C0D550,雪霸,2026-03-10,24.526972,121.11605,2.9473869e-08
C2F860,梨山,2026-03-10,24.247522,121.243669,3.406349e-08
C0R320,車城,2026-03-10,22.0744,120.716247,0.0752465
C1S870,南美山,2026-03-10,23.15025,121.382333,5.9093605e-07
C0B020,基隆嶼,2026-03-10,25.19141,121.78391,8.2329086e-07
C1U501,牛鬥,2026-03-10,24.637836,121.573656,3.0316585e-07
C0M730,嘉義市東區,2026-03-10,23.457673,120.460531,6.7806254e-09
C2R990,泰武,2026-03-10,22.60686,120.69765,1.9942107e-08
C0S700,知本,2026-03-10,22.684866,121.005642,8.445182e-08
C1N001,沙崙,2026-03-10,22.935472,120.309406,2.1387477e-07
C0V760,橋頭,2026-03-10,22.757806,120.30575,8.177297e-07
C0G960,福寶,2026-03-10,24.0443,120.3814,3.5264208e-07
C0X210,白河,2026-03-10,23.347466,120.414427,2.038047e-08
C0S810,東河,2026-03-10,22.972672,121.303986,1.0541218e-05
C2R170,屏東,2026-03-10,22.66027,120.49403,9.6121e-09
C0R670,楓港,2026-03-10,22.190131,120.692156,0.7145925
C0FA50,霧峰,2026-03-10,24.0419,120.6995,1.0993915e-08
C0UB10,蘇澳,2026-03-10,24.5969,121.8571,4.0188147e-06
C0G950,防潮門,2026-03-10,24.1835,120.4871,5.9768405e-07
C0M740,六腳,2026-03-10,23.492871,120.290625,6.9755555e-07
C1R250,力里,2026-03-10,22.428117,120.629228,3.203743e-08
C0K330,虎尾,2026-03-10,23.719183,120.442036,8.032558e-09
C2FA00,烏石坑,2026-03-10,24.273503,120.947617,1.41839935e-08
C0V620,永安,2026-03-10,22.82315,120.236856,1.2325135e-06
C1I330,楓樹林,2026-03-10,23.986803,121.076117,8.604012e-09
C0W200,湖西,2026-03-10,23.596314,119.67275,0.9965415
72Q010,高雄農改場,2026-03-10,22.709333,120.525889,7.861449e-09
C0SA40,瑞和,2026-03-10,22.974361,121.156697,4.511031e-07
C0C680,龜山,2026-03-10,25.02846,121.38656,5.191724e-08
C2V260,月眉,2026-03-10,22.971003,120.539853,6.7498247e-09
C0V450,鳳森,2026-03-10,22.545064,120.392592,5.556887e-08
C0FA90,小雪山林道,2026-03-10,24.29515,121.03651,4.5712493e-08
C0U720,南山,2026-03-10,24.43742,121.38167,3.545997e-08
A2N290,臺南蘭花園區,2026-03-10,23.340258,120.379661,2.765051e-08
C0R560,新園,2026-03-10,22.5434,120.461558,8.884352e-08
C0U890,三星,2026-03-10,24.66812,121.65302,2.055768e-08
C1V300,御油山,2026-03-10,23.001983,120.715364,8.681291e-09
C0U600,礁溪,2026-03-10,24.817539,121.765608,2.3149445e-08
C1T980,龍澗,2026-03-10,24.023289,121.411328,2.9113103e-08
C0D670,海天一線,2026-03-10,24.831986,120.914438,0.000673255
C0SA00,歷坵,2026-03-10,22.520969,120.89185,1.080252e-07
C0M710,東石,2026-03-10,23.458927,120.15385,1.6314289e-06
C0M780,鹿草,2026-03-10,23.41134,120.30835,7.051551e-07
C0U520,雙連埤,2026-03-10,24.753033,121.641303,2.0082611e-08
C0B010,七堵,2026-03-10,25.094819,121.71713,7.401353e-07
C0R480,長治,2026-03-10,22.693128,120.542622,5.132186e-09
C1V830,國三S383K,2026-03-10,22.781967,120.426475,7.0638455e-09
12Q980,恆春工作站,2026-03-10,22.079678,120.714425,0.0752465
C1O940,東山服務區,2026-03-10,23.286016,120.398472,2.6694241e-08
C1U840,東澳嶺,2026-03-10,24.5378,121.8485,3.1520045e-08
C1D630,飛鳳山,2026-03-10,24.766464,121.119178,1.6478633e-07
C0S940,石寧山,2026-03-10,23.223772,121.406639,0.00034160443
C0K410,北港,2026-03-10,23.573957,120.292802,6.1122086e-07
C2M620,瑞里,2026-03-10,23.545133,120.675197,7.797876e-09
C0SB70,小港漁港,2026-03-10,23.158558,121.400431,9.13357e-05
C2O950,安南,2026-03-10,23.076694,120.144861,4.927343e-07
C0F0E0,南湖圈谷,2026-03-10,24.363714,121.444667,5.1712764e-08
467610,成功,2026-03-10,23.097486,121.373428,3.5465935e-05
C0G890,伸港,2026-03-10,24.148933,120.484403,5.326219e-07
C2E540,龍溪,2026-03-10,24.606489,120.783933,2.7645692e-06
C1V200,梅山,2026-03-10,23.268447,120.823556,7.1053567e-09
C0T9H0,加路蘭山,2026-03-10,23.682947,121.5274,2.9025776e-08
C2O930,玉井,2026-03-10,23.126042,120.46055,2.0928226e-08
C1F911,新伯公,2026-03-10,24.221361,120.841069,1.2659616e-08
C0R490,九如,2026-03-10,22.7405,120.490503,7.861449e-09
C0X200,左鎮,2026-03-10,23.056758,120.408522,1.3366604e-08
C2TB50,麻汝,2026-03-10,23.42554,121.39358,2.4322856e-06
C0FA60,鞍馬山工作站,2026-03-10,24.267064,121.000793,2.2488797e-08
C0SB50,叭嗡嗡,2026-03-10,23.047062,121.343223,8.2034865e-05
C1F891,稍來,2026-03-10,24.265689,121.001142,2.2099217e-08
C2M9C0,紫雲,2026-03-10,23.494914,120.540253,5.2656195e-09
72N240,七股研究中心,2026-03-10,23.081672,120.062894,5.462758e-07
C0C700,中壢,2026-03-10,24.977661,121.256375,0.0003913133
C0M690,水上,2026-03-10,23.419734,120.388909,1.005393e-08
C0V690,鼓山,2026-03-10,22.623325,120.275575,1.3068699e-06
C0O860,大內,2026-03-10,23.11885,120.36083,1.8961308e-07
C0Z200,萬榮,2026-03-10,23.709219,121.420106,6.657106e-08
C0T9D0,和中,2026-03-10,24.26676,121.74103,9.2229874e-07
C2S9A0,北份子寮,2026-03-10,22.78561,121.07813,2.4846947e-06
C1O921,楠西,2026-03-10,23.183511,120.484083,1.841152e-08
C0AJ30,淡水觀海,2026-03-10,25.184591,121.408616,0.0009838969
C0V810,左營,2026-03-10,22.67491,120.28491,9.208811e-07
C0UA70,桃源谷,2026-03-10,24.962606,121.888875,4.1208022e-08
C0X130,官田,2026-03-10,23.193217,120.315422,5.5386175e-07
C1H000,翠峰,2026-03-10,24.109397,121.205211,2.2463247e-08
C0UA90,石城,2026-03-10,24.980444,121.951214,1.9568258e-06
C1E681,南勢山,2026-03-10,24.421669,120.923831,3.0573887e-08
C0A9F0,內湖,2026-03-10,25.079422,121.57545,9.5809305e-08
C0K291,宜梧,2026-03-10,23.536281,120.169329,2.6738915e-06
C1K540,口湖,2026-03-10,23.585344,120.180517,2.4677838e-06
C0R780,滿州,2026-03-10,22.024403,120.839892,0.59882504
C0V870,文安,2026-03-10,22.8025,120.2164,1.3053452e-06
C0U650,玉蘭,2026-03-10,24.675286,121.587061,9.1228884e-08
C0R640,東港,2026-03-10,22.46247,120.44074,8.7716735e-08
C0AJ80,板橋,2026-03-10,25.0107,121.4489,9.016449e-08
C0S660,下馬,2026-03-10,23.150427,121.070312,3.9264908e-08
C2N190,烏樹,2026-03-10,23.32393,120.36989,8.867457e-08
C1H9B1,阿眉,2026-03-10,24.1263,120.994672,1.6791496e-08
C0UA20,多加屯,2026-03-10,24.368614,121.373189,2.8650705e-08
C0E730,頭份,2026-03-10,24.688247,120.912206,4.6998037e-05
72V140,高改旗南分場,2026-03-10,22.857861,120.516667,8.710549e-09
C0K480,莿桐,2026-03-10,23.761192,120.502372,8.0425835e-09
C0U980,坪林石牌,2026-03-10,24.86478,121.77396,2.095307e-08
C0T900,西林,2026-03-10,23.8119,121.441458,5.616848e-08
C1I150,青雲,2026-03-10,23.793361,120.949378,4.4586144e-09
C2E980,和興,2026-03-10,24.505319,120.923016,6.0785105e-08
467350,澎湖,2026-03-10,23.565503,119.563094,0.99516946
C0G800,埔鹽,2026-03-10,24.000394,120.431683,2.9869034e-07
C0H960,草屯,2026-03-10,23.973672,120.68085,8.685961e-09
C1V780,多納林道,2026-03-10,22.888028,120.737917,7.94452e-09
C0E920,通霄漁港,2026-03-10,24.498589,120.673876,1.3498491e-05
C0Z330,安通山,2026-03-10,23.290728,121.348528,5.317499e-08
C0AH10,永和,2026-03-10,25.01125,121.508111,9.21166e-08
C0AK10,太平里,2026-03-10,25.134937,121.364899,1.3201274e-07
C2G640,鹿港,2026-03-10,24.0753,120.430481,3.255067e-07
C1E890,國三N149K,2026-03-10,24.463414,120.680019,4.357757e-06
C1R110,口社,2026-03-10,22.770111,120.645222,3.2878769e-09
C1M870,國三N285K,2026-03-10,23.550319,120.505833,5.144731e-09
C1E480,鳳美,2026-03-10,24.554803,121.034747,6.313831e-08
C0T9M0,靜浦,2026-03-10,23.455167,121.495028,9.7057185e-05
C2H9M0,發祥,2026-03-10,24.154094,121.164517,1.3792772e-08
C2G9C0,埔南,2026-03-10,23.99124,120.46969,2.9869034e-07
C0AI40,石牌,2026-03-10,25.115597,121.513139,9.5809305e-08
C1F871,上谷關,2026-03-10,24.203483,121.018644,1.41839935e-08
C2H9G0,百勝,2026-03-10,24.051142,120.909361,6.1192686e-09
C0G880,二水,2026-03-10,23.810742,120.6173,5.2728657e-09
C0R940,加祿堂,2026-03-10,22.3363,120.6217,3.2769538e-08
C0W220,北竿,2026-03-10,26.220358,119.974881,1.3534186e-06
C0O960,崎頂,2026-03-10,22.959547,120.369317,9.567454e-08
C0TA40,秀林,2026-03-10,24.302864,121.731144,3.3295994e-08
C0S750,向陽,2026-03-10,23.248397,120.986133,1.9677207e-08
C0T9F0,水璉,2026-03-10,23.797131,121.542514,4.41054e-08
C1M600,頭凍,2026-03-10,23.406364,120.603339,5.6780167e-09
467660,臺東,2026-03-10,22.752211,121.154586,0.9955031
C1D380,新埔,2026-03-10,24.84745,121.03834,9.286374e-06
C2G980,田頭村,2026-03-10,23.8263,120.444175,7.128923e-09
C0V750,路竹,2026-03-10,22.854997,120.259439,8.551405e-07
C0N050,蚵寮,2026-03-10,23.301,120.1104,7.5728605e-07
C2X060,下營,2026-03-10,23.226806,120.256291,5.7222195e-07
72M700,南改鹿草分場,2026-03-10,23.416869,120.283061,7.5514487e-07
C1SA50,利嘉林道,2026-03-10,22.82325,121.009389,2.2189688e-08
C0UB70,太平山中間站,2026-03-10,24.542003,121.513453,3.5852853e-08
C0A940,金山,2026-03-10,25.223628,121.643967,0.00032459362
C1V340,大津,2026-03-10,22.888322,120.645986,4.3372252e-09
C0W180,七美,2026-03-10,23.219333,119.444892,0.99608684
C1F9C1,白冷,2026-03-10,24.182844,120.929889,6.2389605e-09
K2E710,苗改生物防治研究中心,2026-03-10,24.422861,120.871833,1.9514309e-07
C0N040,蘆竹溝,2026-03-10,23.2344,120.0961,7.770054e-07
C0TB40,崇德,2026-03-10,24.166144,121.657414,2.580322e-06
C0D760,大坪苗圃,2026-03-10,24.5362,121.1108,2.7164152e-08
C2W230,畜試所澎湖,2026-03-10,23.628342,119.513206,0.9925166
C0R880,後壁湖,2026-03-10,21.9457,120.7457,0.0846844
C1I280,埔中,2026-03-10,23.820778,120.642594,3.4405427e-09
467790,墾丁雷達站,2026-03-10,21.948235,120.808028,0.23333254
C0W190,望安,2026-03-10,23.380564,119.494075,0.9933544
C0Z170,卓溪,2026-03-10,23.3443,121.3029,1.742949e-07
C0F850,東勢,2026-03-10,24.246428,120.833047,1.3357403e-08
466900,淡水,2026-03-10,25.164889,121.448906,0.00040777522
C0I370,魚池,2026-03-10,23.895703,120.94135,6.51875e-09
C0C630,大溪,2026-03-10,24.882853,121.265547,4.3178567e-05
C0A520,山佳,2026-03-10,24.974944,121.402008,8.5064684e-08
C0I110,竹山,2026-03-10,23.761225,120.688156,8.5965315e-09
82H840,茶改南部分場,2026-03-10,23.762528,120.7405,3.5646162e-09
C2SD80,再來山,2026-03-10,23.34371,121.44122,2.386083e-06
C0G660,溪湖,2026-03-10,23.94835,120.479122,2.280662e-07
C1T800,洛韶,2026-03-10,24.204558,121.453956,3.3584097e-08
C1T810,慈恩,2026-03-10,24.192044,121.388386,2.5180734e-08
C1E451,象鼻,2026-03-10,24.368617,120.940228,3.0573887e-08
C0AC60,三峽,2026-03-10,24.939025,121.369728,0.004563373
C0I490,萬大林道,2026-03-10,23.928228,121.091411,1.1344478e-08
C1I290,豐丘,2026-03-10,23.668178,120.887417,8.768525e-09
C1I320,奧萬大,2026-03-10,23.952956,121.178556,1.137594e-08
C2M910,嘉義大學,2026-03-10,23.471325,120.485903,6.346778e-09
C0U770,南澳,2026-03-10,24.44935,121.81022,3.122382e-05
C2TB30,吉安,2026-03-10,23.94538,121.54803,7.05865e-08
C0A980,社子,2026-03-10,25.109508,121.469681,1.2788136e-07
C0V800,六龜,2026-03-10,22.997889,120.633583,3.755826e-09
C1G9D0,國一S218K,2026-03-10,23.890641,120.493253,3.146188e-07
C0E570,白沙屯,2026-03-10,24.549447,120.696803,7.616312e-06
C2F9A0,中竹林,2026-03-10,24.103556,120.751061,4.6707163e-09
C0FA40,臺中電廠,2026-03-10,24.2146,120.4907,8.575971e-07
C2G9A0,畜試所彰化,2026-03-10,23.86045,120.557964,7.396326e-09
C0H9C0,合歡山,2026-03-10,24.143442,121.272547,4.2550987e-08
G2M350,農試溪口農場,2026-03-10,23.58565,120.408111,9.483079e-09
C0U860,頭城,2026-03-10,24.85323,121.8308,2.3019204e-08
C0R580,南州,2026-03-10,22.48591,120.50274,1.1036653e-07
C0D430,峨眉,2026-03-10,24.6905,121.017189,5.8690857e-06
C0G780,秀水,2026-03-10,24.03405,120.503869,1.2499764e-07
72N100,臺南農改場,2026-03-10,23.0605,120.342194,1.8950767e-07
C0S900,蘭嶼高中,2026-03-10,22.04909,121.51214,0.18918404
C2TA60,六十石,2026-03-10,23.22477,121.31861,3.64961e-08
C1F9W0,德基,2026-03-10,24.254783,121.190261,3.241922e-08
C2M980,安和,2026-03-10,23.51377,120.31593,6.9755555e-07
C1Z120,壽豐,2026-03-10,23.870853,121.508081,8.7244196e-08
C0W160,烏坵,2026-03-10,24.9944,119.44956,0.0022489727
C1I240,外大坪,2026-03-10,23.958697,120.917931,6.626977e-09
C1I550,國六W023K,2026-03-10,23.979067,120.867742,4.582334e-09
C0R870,興海,2026-03-10,21.9752,120.8439,0.15375376
C0R140,瑪家,2026-03-10,22.682903,120.686639,4.43882e-08
C0A530,坪林,2026-03-10,24.938183,121.70975,9.375623e-08
C0X260,後壁,2026-03-10,23.366358,120.362326,4.2866932e-07
C0Z230,和平,2026-03-10,24.30717,121.77007,1.2223738e-06
C0G770,福興,2026-03-10,24.041289,120.437669,2.9869034e-07
C0H9A0,神木村,2026-03-10,23.532742,120.843667,9.40519e-09
C0I460,南投,2026-03-10,23.911469,120.687331,8.917641e-09
C0I480,梅峰,2026-03-10,24.085272,121.173572,1.7400948e-08
C1V570,吉東,2026-03-10,22.85422,120.5454,4.641817e-09
C2A560,福山,2026-03-10,24.776203,121.502811,1.0204549e-07
C0AH30,五分山,2026-03-10,25.07125,121.780794,3.298343e-08
C0FA10,松柏,2026-03-10,24.429115,120.617482,5.9737285e-06
72S200,東改班鳩分場,2026-03-10,22.829528,121.077694,3.3895054e-07
72HA00,中改埔里分場,2026-03-10,23.903208,120.963364,6.5198194e-09
C2H9W0,大坪頂農水,2026-03-10,24.043122,120.932781,7.0435036e-09
C0C650,平鎮,2026-03-10,24.897503,121.214636,3.0271765e-05
C0S930,延平,2026-03-10,22.902581,121.084058,3.5328603e-07
C0UA60,樟樹山,2026-03-10,24.41393,121.78325,4.3178385e-08
C2UC10,出水溪,2026-03-10,24.615822,121.652253,4.3770182e-08
C1S670,摩天,2026-03-10,23.199503,121.027,2.41544e-08
C2C590,觀音,2026-03-10,25.027072,121.153317,0.0075561036
C0V630,茄萣,2026-03-10,22.906642,120.182608,3.8674824e-07
466940,基隆,2026-03-10,25.133314,121.740475,1.0129626e-06
C0X050,東河,2026-03-10,23.296598,120.385608,2.765051e-08
C0R770,保力,2026-03-10,22.071122,120.764111,0.6345036
G2L020,農試嘉義分所,2026-03-10,23.485028,120.473806,6.271281e-09
C0X240,關子嶺,2026-03-10,23.331169,120.508025,5.6784173e-09
C0I380,集集,2026-03-10,23.828206,120.801467,4.623306e-09
466990,花蓮,2026-03-10,23.975128,121.613275,8.724875e-07
C1V220,小關山,2026-03-10,23.154217,120.813603,1.1618401e-08
C1F9G1,慶福山,2026-03-10,24.180853,120.848378,9.710538e-09
C0FB20,雪山橋,2026-03-10,24.23192,120.9786,2.071141e-08
C0Z250,瑞穗林道,2026-03-10,23.49284,121.30688,3.753164e-08
C0D590,新豐,2026-03-10,24.87068,120.97721,2.1282956e-05
C0A870,五指山,2026-03-10,25.132153,121.608692,1.4148779e-07
C0UA50,西帽山,2026-03-10,24.555361,121.802628,3.181207e-08
C2R980,竹田國中,2026-03-10,22.61532,120.52412,8.8166765e-08
C0X160,仁德,2026-03-10,22.968258,120.257689,3.2161813e-07
C1H971,六分寮,2026-03-10,23.92507,120.6378,4.5513766e-09
C0W120,西嶼,2026-03-10,23.5626,119.468436,0.99506795
C0G650,員林,2026-03-10,23.946503,120.585597,2.7055833e-07
C0AD50,鶯歌,2026-03-10,24.951533,121.346294,0.0021259037
C2H9Q0,北東眼山,2026-03-10,24.120939,121.189303,2.1233848e-08
C2H9T0,名間竹圍,2026-03-10,23.859914,120.637572,5.2455014e-09
C0S990,山豬窟,2026-03-10,22.318619,120.857372,0.0040171877
C0X190,安平,2026-03-10,22.993161,120.152181,3.6834228e-07
C0K400,斗六,2026-03-10,23.720583,120.541127,7.896329e-09
12J990,口湖工作站,2026-03-10,23.589978,120.180394,2.4677838e-06
C0O830,北寮,2026-03-10,23.079561,120.495008,5.138298e-09
C1D410,白蘭,2026-03-10,24.579364,121.079947,2.7000045e-08
C0S970,加津林,2026-03-10,22.416211,120.926942,2.2918175e-06
C0D700,關西,2026-03-10,24.7977,121.1732,4.8564874e-07
C0U750,龜山島,2026-03-10,24.841667,121.953133,7.895865e-08
C0R810,內獅,2026-03-10,22.305064,120.642986,0.9831891
C1M390,龍美,2026-03-10,23.406728,120.654417,7.2488704e-09
C2K290,崙內,2026-03-10,23.69525,120.35601,5.2340883e-06
C2FB60,頭櫃山,2026-03-10,24.129842,120.858925,1.241317e-08
C1H840,國三N238K,2026-03-10,23.841008,120.707711,4.5019477e-09
CAQ030,崎峰國小,2026-03-10,22.42565,120.49521,1.1036653e-07
C2E520,大湖,2026-03-10,24.414939,120.870872,1.7285937e-07
467530,阿里山,2026-03-10,23.508208,120.813242,1.8601032e-08
C1E691,南湖,2026-03-10,24.40135,120.837533,3.707387e-08
C0FA30,梧棲,2026-03-10,24.256003,120.523381,6.808296e-07
C1V231,高中,2026-03-10,23.134911,120.716711,8.39243e-09
C0AK30,硬漢嶺,2026-03-10,25.136097,121.426372,2.1207686e-07
C0F9V0,新社,2026-03-10,24.200172,120.815806,1.1028653e-08
C0H890,埔里,2026-03-10,23.972169,120.952425,7.599317e-09
C0R690,墾丁,2026-03-10,21.966756,120.810269,0.9870628
C0SD20,富山,2026-03-10,22.822383,121.190825,1.9800163e-05
C0F0D0,審馬陣,2026-03-10,24.381675,121.4203,3.4938125e-08
C2W030,金門農試所,2026-03-10,24.448431,118.451786,2.3837994e-05
C0R820,白鷺,2026-03-10,22.454275,120.666219,4.3555778e-07
C0FB00,大雪山,2026-03-10,24.254668,121.007374,2.264854e-08
C1V190,南天池,2026-03-10,23.27403,120.91176,2.150928e-08
C0E940,雪見,2026-03-10,24.42595,121.01347,2.966082e-08
K2E360,苗栗農改場,2026-03-10,24.495722,120.829111,9.1213803e-07
CAJ050,海口故事園區,2026-03-10,23.57543,120.14121,2.4677838e-06
C2K280,四湖,2026-03-10,23.6304,120.22717,2.960302e-05
C2H9D0,三隻寮,2026-03-10,24.093078,120.861578,4.8336357e-09
C0O990,媽廟,2026-03-10,22.99175,120.293525,2.8507108e-07
C0D480,打鐵坑,2026-03-10,24.849664,121.150789,3.011786e-07
C0Z220,和平林道,2026-03-10,24.343922,121.656317,3.724347e-08
C0TA10,花蓮漁港,2026-03-10,23.995322,121.638331,0.17855942
72C440,桃園農改場,2026-03-10,24.950944,121.030583,3.3289987e-05
C1E711,馬拉邦山,2026-03-10,24.367306,120.901656,2.6806132e-08
C0SB20,富岡,2026-03-10,22.792467,121.192669,1.2417796e-05
C0D560,竹東,2026-03-10,24.767147,121.057881,3.0217311e-06
C0F9U0,南屯,2026-03-10,24.137006,120.637969,3.6427735e-08
C2SD60,明峰,2026-03-10,22.8671,121.11825,2.6917243e-07
C0M720,番路,2026-03-10,23.464657,120.554156,3.823006e-09
C0F0A0,雪山圈谷,2026-03-10,24.388594,121.236339,4.874839e-08
C1A9N0,四十份,2026-03-10,24.934158,121.593283,4.676067e-08
C0U760,東澳,2026-03-10,24.52196,121.83318,1.52010825e-05
C0X230,鹽水,2026-03-10,23.272621,120.247641,5.852915e-07
C2H9H0,苗改南投蜂場,2026-03-10,23.852589,120.693481,9.295085e-09
C2TB70,達谷寮,2026-03-10,23.38,121.35968,7.2428647e-06
C0R950,萬隆國小,2026-03-10,22.507667,120.587817,4.919318e-08
467540,大武,2026-03-10,22.35572,120.90374,0.9399825
C0V370,古亭坑,2026-03-10,22.893178,120.401947,1.2195667e-08
C1I340,新興橋,2026-03-10,23.563333,120.868728,9.460623e-09
C0SA80,土坂,2026-03-10,22.453108,120.887572,0.14995289
C0R160,鹽埔,2026-03-10,22.739558,120.530778,7.861449e-09
C0AC40,大屯山,2026-03-10,25.175675,121.522408,8.5381984e-08
466850,五分山雷達站,2026-03-10,25.071182,121.781205,3.2421134e-08
C2H9L0,馬烈霸,2026-03-10,24.1512,121.201772,2.6168243e-08
C1AI50,國三N016K,2026-03-10,25.034164,121.619664,1.01685075e-07
C2V920,匏子寮,2026-03-10,23.04905,120.55319,3.779375e-09
C1V600,藤枝,2026-03-10,23.071961,120.757042,8.142666e-09
C1E601,南勢,2026-03-10,24.572486,120.734842,1.3931244e-06
C0O980,新市,2026-03-10,23.061614,120.298197,2.326944e-07
C0K420,西螺,2026-03-10,23.800407,120.467394,6.7589587e-09
C0Z050,佳心,2026-03-10,23.34567,121.21316,4.048466e-08
C0AD30,蘆洲,2026-03-10,25.086594,121.472331,1.0582755e-07
C0V610,梓官,2026-03-10,22.760558,120.267211,1.1227547e-06
K2F750,種苗改良場,2026-03-10,24.225972,120.800917,1.1599425e-08
C0UA80,大溪漁港,2026-03-10,24.941801,121.902955,2.316866e-08
C1AI60,國一39K邊坡,2026-03-10,25.064361,121.383836,6.194238e-08
C0W150,金寧,2026-03-10,24.457703,118.328989,3.5880325e-07
C0R960,內埔,2026-03-10,22.608483,120.570714,8.412049e-08
C2H9S0,龍南,2026-03-10,23.953536,120.833183,6.3348895e-09
C0AH40,平等,2026-03-10,25.129142,121.577086,4.8946475e-07
C0R540,佳冬,2026-03-10,22.419456,120.552375,8.384641e-08
466950,彭佳嶼,2026-03-10,25.627975,122.079744,0.2588913
C0A890,雙溪,2026-03-10,25.036003,121.864242,6.8957934e-07
C0C480,桃園,2026-03-10,24.992425,121.323172,0.00083991955
C0AH50,林口,2026-03-10,25.072181,121.38084,5.6101563e-08
A2K360,水試臺西試驗場,2026-03-10,23.717231,120.190522,3.206258e-05
C2M960,外寮,2026-03-10,23.562643,120.665688,7.613128e-09
C0F9S0,烏日,2026-03-10,24.107058,120.624103,1.3375855e-07
C2N180,鹿陶洋,2026-03-10,23.14325,120.48352,1.8411553e-08
C0C490,八德,2026-03-10,24.928708,121.283289,0.0001298175
C0R190,赤山,2026-03-10,22.592333,120.614306,7.024268e-08
C0T820,天祥,2026-03-10,24.179597,121.495639,9.741781e-08
C1F9E1,龍安,2026-03-10,24.1605,120.831961,1.0787217e-08
C2SD50,順那,2026-03-10,23.04166,121.29332,1.9711727e-06
C0V820,小林,2026-03-10,23.148408,120.63325,3.625028e-09
C2G870,芳苑,2026-03-10,23.922303,120.320025,0.0060997787
C0E850,大河,2026-03-10,24.618069,120.948578,8.355994e-06
C1U670,寒溪,2026-03-10,24.634,121.71691,2.0718995e-08
C0N020,城西,2026-03-10,23.0568,120.0956,4.947213e-07
C1Z110,三棧,2026-03-10,24.11557,121.60501,6.359007e-08
C0R280,檳榔,2026-03-10,22.076078,120.836777,0.97943056
C2H9J0,中台,2026-03-10,23.9996,120.938739,7.156101e-09
C0F9L0,后里,2026-03-10,24.310436,120.729725,2.1067361e-08
467441,高雄,2026-03-10,22.730432,120.312516,7.070244e-07
C0Z180,新城,2026-03-10,24.040486,121.604878,8.453802e-07
C0D540,橫山,2026-03-10,24.71116,121.11693,1.0135074e-06
C1D420,太閣南,2026-03-10,24.632808,121.160575,4.628258e-08
C1E770,公館,2026-03-10,24.526914,120.830806,1.1775608e-06
CAN130,水試所海水繁養殖中心,2026-03-10,23.120802,120.07968,5.462758e-07
C1I430,翠華,2026-03-10,24.191961,121.224339,3.6112418e-08
C1M400,菜瓜坪,2026-03-10,23.251928,120.576103,4.4338595e-09
C0G730,二林,2026-03-10,23.903325,120.376081,5.706949e-07
72M360,南改義竹分場,2026-03-10,23.360694,120.279361,4.7544538e-07
V2K620,麥寮合作社,2026-03-10,23.753836,120.294783,4.8507795e-06
C0Z070,舞鶴,2026-03-10,23.46811,121.37407,2.0510054e-06
C0B040,大武崙,2026-03-10,25.166676,121.706993,0.00022720579
C1Z030,紅葉,2026-03-10,23.493119,121.338806,3.819845e-06
C1I050,丹大,2026-03-10,23.753747,121.141147,2.3743572e-08
C0I080,信義,2026-03-10,23.689694,120.851036,4.676234e-09
C2TB80,庄子底,2026-03-10,23.71794,121.49438,8.517249e-08
C0D750,樂山林道6k,2026-03-10,24.49999,121.08773,2.9881825e-08
C2M920,朴子農改,2026-03-10,23.469889,120.259383,8.8047e-07
C2A880,福隆,2026-03-10,25.017842,121.942083,2.1726842e-06
C0Z160,鳳林,2026-03-10,23.746114,121.453411,7.9735024e-08
C0UB80,翠峰林道6K,2026-03-10,24.49773,121.568625,3.4910613e-08
C0V210,復興,2026-03-10,23.222403,120.806089,7.344201e-09
C0H990,昆陽,2026-03-10,24.121322,121.273642,3.260874e-08
C0R741,獅子,2026-03-10,22.202308,120.705236,0.99080825
C0S710,鹿野,2026-03-10,22.917711,121.122994,1.2420197e-07
C0I530,小奇萊,2026-03-10,24.131764,121.295717,3.7953413e-08
C0FA70,大雪山埡口,2026-03-10,24.26867,121.03062,4.0381785e-08
C2K630,荷苞,2026-03-10,23.657717,120.595144,4.751034e-09
C0Z080,富源,2026-03-10,23.587642,121.378225,9.362798e-07
C2M9E0,旺來山,2026-03-10,23.555153,120.486463,5.0802367e-09
C0SB10,美和,2026-03-10,22.682078,121.060236,3.6296395e-05
C2K620,馬光農場,2026-03-10,23.721453,120.378864,8.527925e-09
C1I140,卡奈托灣,2026-03-10,23.754364,121.087872,1.1172455e-08
C0I520,玉山風口,2026-03-10,23.470489,120.955994,4.1031868e-08
C1G691,下水埔,2026-03-10,23.816114,120.5676,6.8983432e-09
C0X110,臺南市南區,2026-03-10,22.961189,120.188378,3.594509e-07
C0V680,仁武,2026-03-10,22.701083,120.347722,7.070244e-07
C2G840,北斗,2026-03-10,23.877586,120.514222,2.707612e-07
C2TB90,長橋,2026-03-10,23.6874,121.46186,7.781803e-08
C0R900,竹坑,2026-03-10,22.1385,120.7022,0.7145925
C0G860,社頭,2026-03-10,23.897647,120.5862,3.5886896e-07
C0X150,安定,2026-03-10,23.102614,120.227839,2.4252483e-07
C0R590,里港,2026-03-10,22.77919,120.49459,1.1068946e-08
C0E610,馬都安,2026-03-10,24.451272,120.930192,3.6265654e-08
C0E550,明德,2026-03-10,24.583486,120.885411,1.3554336e-06
C0R150,三地門,2026-03-10,22.709889,120.639944,3.860589e-09
C0G910,花壇,2026-03-10,24.032076,120.549461,1.1669498e-07
C1D400,鳥嘴山,2026-03-10,24.71909,121.28387,4.9396174e-08
C0K500,元長,2026-03-10,23.64981,120.315024,5.213658e-06
C0F0B0,石岡,2026-03-10,24.276061,120.777644,1.8651978e-08
C2V250,甲仙,2026-03-10,23.080106,120.591758,2.9568732e-09
C0SA20,金崙山,2026-03-10,22.567419,120.959667,4.2468365e-08
C0V350,溪埔,2026-03-10,22.738578,120.446797,1.0340442e-08
C0M660,溪口,2026-03-10,23.604131,120.403569,9.483079e-09
C1S880,壽卡,2026-03-10,22.238911,120.858903,0.0013546087
72D680,桃改新埔分場,2026-03-10,24.834444,121.066111,1.0400988e-05
