站號,站名,日期,lat,lon,BLBTSLS
C0R710,龍磐,2026-02-05,21.931672,120.838942,0.8619429
C1F9D1,白毛台,2026-02-05,24.158325,120.886933,5.7313626e-10
C0G940,竹塘,2026-02-05,23.848253,120.386764,1.1372681e-09
467590,恆春,2026-02-05,22.003897,120.746339,0.94172996
C1O850,環湖,2026-02-05,23.148617,120.418633,1.7778594e-09
C0U710,太平山,2026-02-05,24.505486,121.525656,2.881506e-08
C0E820,獅潭,2026-02-05,24.539133,120.920042,2.7391136e-09
C2SD70,二層坪,2026-02-05,22.94105,121.16838,2.9704001e-09
C0V880,興達,2026-02-05,22.8778,120.2127,1.8459165e-08
C0S890,關山,2026-02-05,23.0395,121.175017,3.1549983e-09
C0SB30,新蘭,2026-02-05,22.869214,121.223228,5.3900995e-09
C2R970,屏科大,2026-02-05,22.648275,120.619247,7.5729616e-07
C1Z130,銅門,2026-02-05,23.965694,121.492842,1.1438319e-08
C0AD40,土城,2026-02-05,24.973208,121.445169,3.1813265e-09
CAN140,六官養殖協會,2026-02-05,23.22881,120.29962,2.8785124e-08
C0X180,山上,2026-02-05,23.0757,120.363253,1.2097621e-08
C0F9Z0,雪山東峰,2026-02-05,24.388792,121.268675,1.6718314e-08
C1M480,獨立山,2026-02-05,23.537022,120.607797,7.227275e-10
C0X220,學甲,2026-02-05,23.230367,120.182187,5.4062643e-09
467650,日月潭,2026-02-05,23.881325,120.90805,1.0666481e-09
A2K570,古坑(花卉中心),2026-02-05,23.633531,120.552392,8.9201707e-10
C0K600,箔子寮,2026-02-05,23.6197,120.14,7.0858164e-07
C0G830,埤頭,2026-02-05,23.866003,120.452806,9.359998e-10
C0S950,七塊厝,2026-02-05,22.954453,121.229922,3.2381196e-09
467110,金門,2026-02-05,24.407306,118.289281,2.1824262e-08
C0AH80,深坑,2026-02-05,25.002703,121.628328,5.636345e-09
C0A970,三貂角,2026-02-05,25.007606,122.002058,9.037899e-09
C2D730,寶山農場,2026-02-05,24.732444,120.976153,2.1061766e-09
C0K430,褒忠,2026-02-05,23.690938,120.303634,7.765515e-10
467480,嘉義,2026-02-05,23.495925,120.432906,2.0889344e-08
C0V400,阿公店,2026-02-05,22.804194,120.355528,4.801576e-09
C0E960,觀霧分站,2026-02-05,24.505781,121.113921,1.0786004e-08
467550,玉山,2026-02-05,23.48718,120.95943,2.441066e-08
C0R440,大漢山,2026-02-05,22.405264,120.753181,2.9858352e-08
C0SD30,東清國小,2026-02-05,22.057128,121.564922,0.70755553
C1F9B1,桐林,2026-02-05,24.066172,120.735194,6.5172673e-10
C2H9U0,鳳鵬,2026-02-05,23.763919,120.788061,3.9258652e-10
C0K390,土庫,2026-02-05,23.679029,120.395574,1.3084209e-09
C1I450,望鄉山,2026-02-05,23.594153,120.944286,1.1192205e-08
C0E910,海埔,2026-02-05,24.648767,120.772435,2.4284288e-09
B2E890,畜試北區分所,2026-02-05,24.527806,120.770972,2.193162e-09
C0R750,四林格山,2026-02-05,22.076989,120.802439,5.6141826e-06
C0F0C0,中坑,2026-02-05,24.248517,120.903319,1.4572678e-09
C1I121,大鞍,2026-02-05,23.678381,120.760017,4.2331187e-09
C2G9E0,移民庄,2026-02-05,23.9784,120.40283,1.0659749e-09
72U480,花改蘭陽分場,2026-02-05,24.686306,121.716583,3.8232684e-09
C0A770,科教館,2026-02-05,25.096356,121.516507,3.6269299e-09
C0AJ60,六塊厝,2026-02-05,25.24,121.4481,1.6035091e-08
C0R620,墾雷,2026-02-05,21.900836,120.855269,0.858511
467420,永康,2026-02-05,23.038386,120.2367,2.0735836e-06
C2M530,奮起湖,2026-02-05,23.493903,120.699253,2.6387306e-09
C0I410,名間,2026-02-05,23.837053,120.701447,1.2283157e-09
A2C560,農工中心,2026-02-05,24.985917,121.239833,7.614827e-09
C0V740,旗山,2026-02-05,22.888614,120.483597,8.8803835e-09
C0Z061,玉里,2026-02-05,23.3215,121.339656,1.0820848e-08
C0S840,南田,2026-02-05,22.279725,120.889208,0.98267543
C1I470,杉林溪,2026-02-05,23.639517,120.786444,5.905983e-09
C1X040,東原,2026-02-05,23.291597,120.463822,4.7755344e-10
C0R660,枋寮,2026-02-05,22.367722,120.590647,7.810494e-10
C1R120,上德文,2026-02-05,22.763272,120.704442,8.7196533e-10
C0K450,大埤,2026-02-05,23.646074,120.431537,7.63695e-09
C0UA00,土場,2026-02-05,24.576533,121.495333,1.9003355e-08
467080,宜蘭,2026-02-05,24.763975,121.756528,2.9048635e-09
C0N030,四草,2026-02-05,23.0235,120.1116,8.91878e-09
467410,臺南,2026-02-05,22.99328,120.20492,2.1913525e-08
C0V650,彌陀,2026-02-05,22.783806,120.246361,1.2129834e-07
C0D660,新竹市東區,2026-02-05,24.798681,120.986942,2.2384283e-09
82S580,茶改東部分場,2026-02-05,22.907694,121.130139,4.3879496e-09
C0SB40,興隆,2026-02-05,22.913661,121.257469,8.924907e-09
467050,新屋,2026-02-05,25.006725,121.047492,2.1432086e-08
C0C710,大溪永福,2026-02-05,24.892936,121.324975,4.3001824e-09
C0FA20,溫寮,2026-02-05,24.372177,120.583125,5.401101e-09
C0V640,湖內,2026-02-05,22.887139,120.2445,1.8459165e-08
C0R910,下寮,2026-02-05,22.3929,120.5548,2.1985784e-08
C0Z020,明里,2026-02-05,23.208717,121.262342,1.3524629e-08
C0M770,嘉義梅山,2026-02-05,23.585398,120.555587,1.3317635e-09
C0C660,楊梅,2026-02-05,24.912375,121.143047,4.209801e-09
C0SD40,牛頭山,2026-02-05,22.676661,121.506944,0.000288404
C1E511,新開,2026-02-05,24.347703,120.827019,1.0083635e-09
G2F820,農試所(霧峰),2026-02-05,24.031261,120.688133,7.8005047e-10
C2M990,大巃頂,2026-02-05,23.5547,120.61439,1.5380076e-09
C1I070,和社,2026-02-05,23.591131,120.888861,1.3810877e-09
C2E990,新坪頂,2026-02-05,24.30201,120.8574,7.1483763e-10
C0TA80,立霧山,2026-02-05,24.183258,121.641899,5.871672e-08
C2F000,大肚,2026-02-05,24.15295,120.572117,3.6344625e-10
C1S850,豐南,2026-02-05,23.122139,121.262389,5.5972955e-09
C2M9B0,西興,2026-02-05,23.2428,120.57617,6.261322e-10
C2A920,富貴角,2026-02-05,25.263783,121.565258,2.7916265e-08
CAH030,茶改場竹圍站,2026-02-05,23.860083,120.637528,6.82992e-10
C0T960,光復,2026-02-05,23.660694,121.424964,2.3288772e-08
C0F9M0,豐原,2026-02-05,24.254322,120.720692,6.6415634e-10
C0R720,旭海,2026-02-05,22.205403,120.887614,7.180822e-06
C0V710,苓雅,2026-02-05,22.622742,120.330669,5.146358e-07
C0C740,觀音工業區,2026-02-05,25.064764,121.114856,3.3972846e-08
CAC040,拉拉山,2026-02-05,24.699317,121.427133,2.9162177e-08
C0V790,萬山,2026-02-05,22.905944,120.688056,7.7149803e-10
U2HA30,臺大和社,2026-02-05,23.590856,120.888864,1.3810877e-09
C2H9K0,屯原,2026-02-05,24.067969,121.209389,5.256789e-09
C0AJ90,澳底,2026-02-05,25.0552,121.9253,8.614702e-09
C0Z100,東華,2026-02-05,23.89525,121.549833,1.3730145e-08
C0G970,三豐,2026-02-05,23.882,120.2895,0.00095203257
V2K610,大庄合作社,2026-02-05,23.8068,120.367939,9.442339e-10
C0V900,汕尾,2026-02-05,22.4782,120.4151,1.6582453e-08
C1R630,龍泉,2026-02-05,22.66701,120.59091,7.5729616e-07
C1AC50,關渡,2026-02-05,25.133486,121.469331,6.7750148e-09
C0C800,四稜,2026-02-05,24.64733,121.4293,1.9546023e-08
C0F9I0,神岡,2026-02-05,24.272481,120.658314,8.1335033e-10
C0K460,斗南,2026-02-05,23.678734,120.478359,7.63695e-09
C2O810,曾文,2026-02-05,23.219681,120.497328,6.7704514e-10
467280,後龍,2026-02-05,24.648563,120.831834,2.3676903e-09
C1F9J1,清水林,2026-02-05,24.071242,120.820419,4.942591e-10
C2A650,火燒寮,2026-02-05,25.002719,121.742892,9.096631e-09
466930,竹子湖,2026-02-05,25.162078,121.544547,8.770716e-09
C1I220,樟湖,2026-02-05,23.905333,120.846983,1.2995517e-09
C0I390,仁愛,2026-02-05,24.022122,121.132206,1.3893839e-09
C0Z300,東里,2026-02-05,23.26853,121.30547,1.06879705e-08
C1V590,新發,2026-02-05,23.057019,120.646064,8.0793106e-10
C0K510,水林,2026-02-05,23.572924,120.24597,2.9921732e-09
72S590,東改賓朗果園,2026-02-05,22.813889,121.071278,4.737289e-09
82A750,茶改北部分場,2026-02-05,24.955778,121.631222,3.053012e-08
C1A750,石碇服務區,2026-02-05,25.00872,121.646242,5.0451074e-09
C0X300,鹿寮,2026-02-05,23.386047,120.477331,5.2291584e-09
G2AI50,關渡,2026-02-05,25.11575,121.492,3.6204812e-09
C0K590,雲林東勢,2026-02-05,23.674192,120.255721,1.1917172e-09
C2K310,港尾布雞,2026-02-05,23.74834,120.38439,8.546369e-10
C0A570,桶後,2026-02-05,24.848222,121.597992,3.5412118e-08
C1S800,華源,2026-02-05,22.657883,121.02325,4.853461e-09
C0G720,溪州,2026-02-05,23.851589,120.499093,9.359998e-10
C1V160,達卡努瓦,2026-02-05,23.279811,120.705319,1.5053341e-09
C2M410,馬頭山,2026-02-05,23.324361,120.582017,4.0432993e-10
C0V850,蚵仔寮,2026-02-05,22.7256,120.2527,1.5545886e-07
C0S740,池上,2026-02-05,23.119628,121.209469,5.563003e-09
C1V390,尖山,2026-02-05,22.813153,120.367789,4.801576e-09
C0AH70,松山,2026-02-05,25.04871,121.55042,3.6269299e-09
C0N010,鯤鯓國小,2026-02-05,23.1879,120.0889,6.634692e-09
C0R550,新埤,2026-02-05,22.467947,120.582894,6.724532e-10
C0SA60,知本（水試所）,2026-02-05,22.702394,121.082761,7.951766e-09
C0T9I0,豐濱,2026-02-05,23.583897,121.514806,5.822576e-09
C0UB00,淡江大學蘭陽校園,2026-02-05,24.823239,121.730383,2.0549605e-08
C0W240,九宮,2026-02-05,24.423753,118.240186,2.130659e-08
C0T9N0,富里,2026-02-05,23.171639,121.249378,1.3015517e-08
U2HA50,臺大竹山,2026-02-05,23.756972,120.681556,1.5146512e-09
C0V840,鳳鼻頭,2026-02-05,22.5083,120.3591,1.3464426e-08
C0X140,西港,2026-02-05,23.125608,120.203108,5.2783122e-08
72D080,桃改五峰分場,2026-02-05,24.612194,121.157167,7.308372e-09
C2H9P0,伊拿谷,2026-02-05,23.963211,121.088264,7.7864276e-10
C2K250,崙背,2026-02-05,23.75553,120.31893,7.765515e-10
C2H9F0,柑林,2026-02-05,24.018658,120.847072,3.22891e-10
C0TA20,加灣,2026-02-05,24.082025,121.608944,2.2573973e-08
C0V530,阿蓮,2026-02-05,22.883208,120.327508,4.4674692e-08
C0FB30,八仙山苗圃,2026-02-05,24.192719,121.001366,1.3747591e-09
C1O880,關山,2026-02-05,23.173397,120.594092,3.9398176e-10
C0E791,卓蘭,2026-02-05,24.3126,120.8244,1.0445459e-09
C1I030,武界,2026-02-05,23.913225,121.052483,8.465688e-10
C0R520,崁頂,2026-02-05,22.514781,120.506914,6.3595166e-07
C0R341,牡丹,2026-02-05,22.130036,120.792639,0.11551397
C0R930,萬丹,2026-02-05,22.5885,120.4851,1.806086e-05
C0S760,紅石,2026-02-05,23.069131,121.126219,3.491867e-08
C2C410,中央大學,2026-02-05,24.967652,121.185165,7.614827e-09
C1M610,石磐龍,2026-02-05,23.496606,120.663506,1.9494932e-09
C0C790,東眼山,2026-02-05,24.8284,121.40888,1.2384673e-08
C0UA10,鴛鴦湖,2026-02-05,24.590269,121.412228,2.3196383e-08
V2C260,八德蔬果,2026-02-05,24.978508,121.281819,5.198073e-09
C0R800,丹路,2026-02-05,22.204481,120.750989,0.5454632
C0G920,永靖,2026-02-05,23.924703,120.547533,5.816058e-10
C2M950,太和,2026-02-05,23.538372,120.702961,2.5950924e-09
C1A630,下盆,2026-02-05,24.771003,121.538622,3.266738e-08
B2N890,畜產試驗所,2026-02-05,23.058972,120.336406,5.6332146e-07
C0UA30,白嶺,2026-02-05,24.527819,121.519031,2.0153292e-08
467571,新竹,2026-02-05,24.828575,121.01455,3.9721897e-09
C1V580,溪南(特生中心),2026-02-05,23.084972,120.788475,4.0591654e-09
C1T970,大農,2026-02-05,23.615233,121.413331,2.1708102e-08
C0R650,竹田,2026-02-05,22.58486,120.54344,1.7656308e-05
C1H900,清流,2026-02-05,24.080775,120.962997,7.5168394e-10
C1C510,水尾,2026-02-05,24.940081,121.087161,1.0479508e-08
C2N170,茅港尾,2026-02-05,23.2061,120.2624,2.8785124e-08
C0F9X0,大雅(中科園區),2026-02-05,24.21528,120.62445,5.490707e-10
C0SB60,白守蓮,2026-02-05,23.126769,121.401914,1.7786167e-08
C0O970,虎頭埤,2026-02-05,23.021375,120.347878,3.15889e-08
C0C730,中大臨海站,2026-02-05,24.966126,121.008581,1.3048775e-08
C0X250,新營,2026-02-05,23.310689,120.316681,2.6519363e-08
C0V700,三民,2026-02-05,22.645017,120.311233,8.280769e-07
C0U870,大礁溪,2026-02-05,24.791042,121.675047,1.9313148e-08
C0E870,高鐵苗栗,2026-02-05,24.60725,120.826094,2.3676903e-09
C0TA30,鹽寮,2026-02-05,23.845606,121.592664,1.4126862e-08
C0M860,新美,2026-02-05,23.338017,120.683169,7.650373e-10
C1E701,八卦,2026-02-05,24.491756,120.927619,3.3212824e-09
C2TA90,加納納,2026-02-05,23.466421,121.359867,5.8896377e-09
C0I420,國姓,2026-02-05,24.037803,120.855072,3.2501096e-10
C2D720,關西工作站,2026-02-05,24.757275,121.184792,2.5064906e-09
C0S960,香蘭,2026-02-05,22.587569,120.993375,1.0531569e-07
467620,蘭嶼,2026-02-05,22.0369,121.55843,0.99848425
C0R260,春日,2026-02-05,22.370361,120.628306,5.7420196e-10
72G600,臺中農改場,2026-02-05,24.003028,120.534389,4.675777e-10
C0Z210,瑞穗,2026-02-05,23.5239,121.39021,6.352531e-09
C0M820,達邦,2026-02-05,23.453994,120.749517,1.343643e-09
C0V860,南寮,2026-02-05,22.7616,120.2339,1.5545886e-07
C0G740,大城,2026-02-05,23.852487,120.320935,0.00095203257
C0R920,塭仔,2026-02-05,22.4169,120.5197,2.1985784e-08
C0R470,高樹,2026-02-05,22.826389,120.600806,2.0279928e-07
C0R680,佳樂水,2026-02-05,21.993578,120.861633,0.8619429
C1O870,大棟山,2026-02-05,23.31157,120.52226,1.701507e-09
C0D360,梅花,2026-02-05,24.678347,121.208558,3.709415e-09
C0Z190,富世,2026-02-05,24.14743,121.6297,1.2829672e-06
C0AI10,屈尺,2026-02-05,24.92184,121.54475,3.2141276e-09
B2U990,畜試東區分所,2026-02-05,24.669039,121.832561,3.7849657e-09
C0SB80,長濱漁港,2026-02-05,23.313644,121.459994,8.13984e-09
C0TA50,和仁,2026-02-05,24.241394,121.712472,7.558595e-09
C0V910,大樹,2026-02-05,22.684645,120.432803,7.518172e-07
C1R610,西大武山,2026-02-05,22.617719,120.7322,8.466323e-09
C0G900,線西,2026-02-05,24.143358,120.443536,1.3028129e-09
C0M700,竹崎,2026-02-05,23.526178,120.555508,1.1361645e-09
C2E880,三義,2026-02-05,24.405478,120.749819,2.3161535e-09
C0C720,竹圍,2026-02-05,25.112692,121.239824,8.24327e-09
C0F9P0,清水,2026-02-05,24.312297,120.562242,2.7387583e-09
C0Z150,吉安光華,2026-02-05,23.930925,121.595153,1.3647432e-08
C0FA80,小雪山天池,2026-02-05,24.28025,121.02627,1.8875873e-08
467300,東吉島,2026-02-05,23.25727,119.66762,0.9953823
C1D640,外坪(五指山),2026-02-05,24.644447,121.090961,5.324956e-09
C2R9A0,高士國小,2026-02-05,22.12553,120.84653,0.11551397
C0F9O0,潭子,2026-02-05,24.213106,120.703933,6.6415634e-10
C2H9R0,卓社,2026-02-05,23.887894,121.000086,1.7747221e-09
72T250,花蓮農改場,2026-02-05,23.975222,121.563889,1.3094351e-08
C0E780,銅鑼,2026-02-05,24.489681,120.790853,2.193162e-09
C1T950,太安,2026-02-05,23.666719,121.370128,5.3337004e-08
C0E830,苑裡,2026-02-05,24.439714,120.653053,1.07150155e-08
467270,田中,2026-02-05,23.873803,120.581286,3.2188763e-09
C0SA10,檳榔四格山,2026-02-05,22.810031,121.109308,4.610722e-09
C1T830,布洛灣,2026-02-05,24.17184,121.57127,3.1329358e-07
C0F970,大坑,2026-02-05,24.173142,120.722289,8.7411345e-10
C1U920,思源,2026-02-05,24.393125,121.347214,1.5889986e-08
C2H9Y0,松茗,2026-02-05,23.8167,120.650765,3.928e-10
C0A931,三和,2026-02-05,25.233153,121.595236,1.0268508e-08
C0I010,廬山,2026-02-05,24.033311,121.181808,3.6992336e-09
C2M940,日野賀,2026-02-05,23.434056,120.727169,2.6677074e-09
C0R860,鼻頭,2026-02-05,22.1043,120.8979,0.8072425
C0UB20,壯圍,2026-02-05,24.7359,121.8163,2.7815692e-09
C0R790,九棚,2026-02-05,22.14195,120.889281,0.052439954
C0W110,東莒,2026-02-05,25.9652,119.98069,1.39825215e-05
C1U930,粉鳥林,2026-02-05,24.497088,121.842479,7.055228e-09
C1I211,蘆竹湳,2026-02-05,23.934019,120.811994,4.5499332e-10
C0S830,長濱,2026-02-05,23.286817,121.411975,1.0211361e-08
C1F9F1,伯公龍,2026-02-05,24.272392,120.849047,6.05199e-10
C0UB90,太平山莊,2026-02-05,24.494171,121.536209,2.9031424e-08
C0E810,西湖,2026-02-05,24.562947,120.7485,2.4464542e-08
C1I440,新高口,2026-02-05,23.478744,120.878939,9.223277e-09
C0O840,王爺宮,2026-02-05,23.222064,120.40085,2.1349548e-08
C0T9G0,鳳林山,2026-02-05,23.735269,121.420131,6.929495e-08
C0X080,佳里,2026-02-05,23.173039,120.145086,5.933827e-09
C0FB70,大甲溪埔,2026-02-05,24.370625,120.620067,5.401101e-09
C0Z310,清水斷崖,2026-02-05,24.218294,121.689142,7.3008484e-09
C0M680,太保,2026-02-05,23.455062,120.331455,1.6911157e-08
C1S820,金峰,2026-02-05,22.590969,120.933236,4.3543025e-08
C0AD10,八里,2026-02-05,25.150211,121.403947,7.827918e-09
C2K240,草嶺,2026-02-05,23.59555,120.693461,2.5489404e-09
C1SA70,都蘭,2026-02-05,22.87794,121.226881,5.2202993e-09
C0K440,二崙,2026-02-05,23.772797,120.408944,8.640714e-10
C1A760,坪林交控,2026-02-05,24.94284,121.713442,1.8669063e-08
C0F9N0,大里,2026-02-05,24.092464,120.701378,6.466624e-10
C0SA90,達仁林場,2026-02-05,22.264347,120.823972,1.909681e-06
C1R290,石門山,2026-02-05,22.112611,120.756597,0.0043732147
42HA10,萬大發電廠,2026-02-05,23.978875,121.139639,1.1274669e-09
C0R890,山海,2026-02-05,21.9878,120.7091,0.94172996
C0T9A0,月眉山,2026-02-05,23.809928,121.539828,1.212e-08
C0AC70,信義,2026-02-05,25.037822,121.564597,3.642723e-09
C0K560,棋山,2026-02-05,23.68645,120.603417,1.8432028e-09
C2FB50,出雲,2026-02-05,24.206469,120.902794,1.8647521e-09
C1Z240,中平林道,2026-02-05,23.42115,121.26763,5.126944e-08
U2H480,溪頭,2026-02-05,23.670306,120.798194,2.1369746e-09
C0M880,好美里,2026-02-05,23.3364,120.138,6.0497882e-09
C0T9E0,大坑,2026-02-05,23.880628,121.581981,1.0529155e-08
C0K530,臺西,2026-02-05,23.701547,120.197559,1.3143362e-07
C1E900,國一N128K,2026-02-05,24.560997,120.844186,2.3479925e-09
C0AJ50,水湳洞,2026-02-05,25.123695,121.862238,8.875998e-09
C0AI20,白沙灣,2026-02-05,25.283128,121.519058,3.740522e-08
C2V310,美濃,2026-02-05,22.898792,120.51907,8.8803835e-09
C0A860,大坪,2026-02-05,25.165914,121.632969,6.6149926e-09
C1U850,觀音海岸,2026-02-05,24.38319,121.77856,8.247312e-09
C2K610,草嶺石壁,2026-02-05,23.602469,120.707731,2.6175369e-09
C0U950,鶯子嶺,2026-02-05,24.89754,121.79244,3.262124e-08
C0O900,善化,2026-02-05,23.112883,120.297219,5.6332146e-07
C0K550,蔦松,2026-02-05,23.514319,120.229736,3.9591646e-09
E2P980,林試六龜中心,2026-02-05,22.991703,120.645722,1.2142601e-09
C0E590,通霄,2026-02-05,24.471892,120.704622,2.0926275e-07
C1I310,西巒,2026-02-05,23.754486,120.883956,2.065341e-09
C0A550,泰平,2026-02-05,24.971197,121.823711,2.3494405e-08
C0I360,水里,2026-02-05,23.812553,120.849792,3.7808437e-10
C0R830,高士,2026-02-05,22.121825,120.836781,0.00017811076
C1I101,溪頭,2026-02-05,23.661789,120.807647,6.7627886e-09
C0AJ20,野柳,2026-02-05,25.20703,121.690021,5.4444795e-09
C0B060,暖暖,2026-02-05,25.0957,121.7403,5.6941327e-09
C1H920,長豐,2026-02-05,24.102039,120.879897,6.54461e-10
C2S9B0,利吉,2026-02-05,22.86246,121.15486,4.3879496e-09
C0V360,內門,2026-02-05,22.975481,120.466769,2.3832853e-09
C0R850,林邊,2026-02-05,22.4634,120.5339,1.7783054e-07
C0E930,龍鳳,2026-02-05,24.700034,120.859125,3.962428e-09
C0U910,冬山,2026-02-05,24.63373,121.7937,3.7849657e-09
C1E721,泰安,2026-02-05,24.489017,120.968036,5.916559e-09
82H320,茶改中部分場,2026-02-05,23.875611,120.913583,8.594822e-10
C0M750,布袋,2026-02-05,23.380878,120.167789,6.5803865e-09
C1S860,利嘉,2026-02-05,22.809417,121.050528,1.9936628e-08
E2S980,林試太麻里1,2026-02-05,22.598922,120.980044,6.708768e-08
C0X170,關廟,2026-02-05,22.963017,120.327797,5.3447398e-08
C0V720,林園,2026-02-05,22.507747,120.394511,2.4276565e-08
C1I510,線浸林道,2026-02-05,23.761508,120.832956,2.6383533e-09
C0D690,外湖,2026-02-05,24.917735,120.968711,4.3940295e-06
C0C750,新興坑尾,2026-02-05,25.0061,121.0971,1.7301234e-08
B2Q810,畜試南區分所,2026-02-05,21.945583,120.802167,0.8619429
C0S790,金崙,2026-02-05,22.538122,120.966875,9.682762e-08
C0AH90,福山植物園,2026-02-05,24.760717,121.58135,3.2354976e-08
C0I540,奇萊稜線,2026-02-05,24.109231,121.326456,2.1909011e-08
C0M850,表湖,2026-02-05,23.24186,120.64166,6.9845296e-10
C0S770,大溪山,2026-02-05,22.478475,120.943325,4.7280384e-08
C0AG80,中和,2026-02-05,24.991622,121.491792,3.1813265e-09
C0T790,大禹嶺,2026-02-05,24.186117,121.316086,1.178346e-08
C0T9B0,水源,2026-02-05,23.991861,121.537169,1.4824746e-08
C0R840,牡丹池山,2026-02-05,22.168389,120.841225,8.968626e-07
C1I131,桶頭,2026-02-05,23.641944,120.654117,4.00613e-10
CAL110,布袋國中,2026-02-05,23.35893,120.18026,6.0497882e-09
C2M9D0,何竹子腳,2026-02-05,23.53641,120.38203,2.0889344e-08
C0Z290,赤柯山,2026-02-05,23.36893,121.38293,2.2945386e-08
C0X280,將軍,2026-02-05,23.214999,120.13577,5.5310934e-09
C0S690,太麻里,2026-02-05,22.60902,120.98533,2.1173912e-08
C0U880,北關,2026-02-05,24.9072,121.8734,2.4262677e-08
CAW010,東引,2026-02-05,26.3588,120.4836,4.383964e-05
C0G810,埔心,2026-02-05,23.947633,120.525456,5.816058e-10
C0U970,大福,2026-02-05,24.80064,121.81389,2.9048635e-09
C2H9N0,仁愛東眼,2026-02-05,24.026875,121.1205,2.1616615e-09
C1E670,南礦,2026-02-05,24.538278,121.002836,7.817145e-09
C0M520,東後寮,2026-02-05,23.369908,120.248065,6.094354e-09
C1E461,松安,2026-02-05,24.397972,120.986022,3.4387715e-09
C2N160,西拉雅風管處,2026-02-05,23.189481,120.335297,7.6539415e-08
C2M970,碧湖,2026-02-05,23.568632,120.624165,1.5229333e-09
C0A640,石碇,2026-02-05,24.993969,121.662917,1.8669063e-08
E2S960,林試太麻里2,2026-02-05,22.598,120.99775,1.0875747e-07
C0F9Y0,桃山,2026-02-05,24.432739,121.303808,2.0126095e-08
C1I020,萬大,2026-02-05,23.979817,121.132261,1.405716e-09
C2UC20,長嶺,2026-02-05,24.70894,121.61162,1.8957163e-08
C0U940,羅東,2026-02-05,24.68184,121.74934,3.8232684e-09
C0M650,朴子,2026-02-05,23.43463,120.23902,5.8870997e-09
C1I500,大尖山,2026-02-05,23.858572,120.994889,4.4332675e-09
C0FB40,中橫21.6k,2026-02-05,24.2499,121.1455,3.4567966e-09
C0G820,田尾,2026-02-05,23.901669,120.509389,5.816058e-10
E2K600,四湖植物園,2026-02-05,23.676986,120.163433,1.8901619e-07
C0S730,綠島,2026-02-05,22.6672,121.47533,2.764702e-05
12Q970,東港工作站,2026-02-05,22.479997,120.466058,1.7783054e-07
C1TA00,太魯閣,2026-02-05,24.15773,121.6236,9.782883e-07
466920,臺北,2026-02-05,25.037658,121.514853,3.6269299e-09
C0R600,舊泰武,2026-02-05,22.588194,120.664944,6.4751643e-10
C1I260,北坑,2026-02-05,23.9246,121.006903,6.300388e-10
466910,鞍部,2026-02-05,25.182586,121.529731,1.678951e-08
C1I230,九份二山,2026-02-05,23.961944,120.845,7.3022094e-10
C2M810,里佳,2026-02-05,23.389125,120.716647,3.4842609e-09
C2A660,瑞芳,2026-02-05,25.113169,121.801147,5.579644e-09
C0R270,琉球嶼,2026-02-05,22.332244,120.362236,6.171449e-10
C2V580,瑞山,2026-02-05,22.90304,120.43424,4.2066866e-09
C1T990,高寮,2026-02-05,23.394239,121.356808,7.643537e-09
C0G620,芬園,2026-02-05,24.015678,120.6213,7.801888e-10
C1Z140,荖溪,2026-02-05,23.890575,121.45964,6.5443416e-08
C1I201,中心崙,2026-02-05,23.728722,120.712097,4.573556e-10
C1I400,凌霄,2026-02-05,24.018778,121.004456,2.2635014e-09
C1M640,十字,2026-02-05,23.492153,120.753683,5.601984e-09
G2P820,農試鳳山分所,2026-02-05,22.646611,120.356083,5.146358e-07
C0Z270,蕃薯寮,2026-02-05,23.73835,121.540108,1.5383282e-08
C2E420,竹南,2026-02-05,24.70898,120.88897,3.962428e-09
C0FB10,出雲山苗圃,2026-02-05,24.23105,120.90475,1.4572678e-09
C0F9Q0,外埔,2026-02-05,24.347817,120.705686,1.3481252e-09
C0K580,高鐵雲林,2026-02-05,23.737456,120.417944,8.546369e-10
C2I090,鳳凰,2026-02-05,23.728081,120.787347,9.317979e-10
C0U990,員山,2026-02-05,24.74435,121.72247,3.8232684e-09
C0V770,大社,2026-02-05,22.730306,120.346639,5.9119365e-08
C0X120,麻豆,2026-02-05,23.183289,120.248611,4.2376044e-08
C0C670,龍潭,2026-02-05,24.870056,121.221389,2.9169116e-09
C0D680,香山濕地,2026-02-05,24.783581,120.914988,4.3940295e-06
C0S980,勝林山,2026-02-05,22.430439,120.8938,3.3986133e-08
C0V730,大寮,2026-02-05,22.605614,120.395717,5.146358e-07
C0R570,麟洛,2026-02-05,22.65078,120.52719,0.0001928368
C2M930,石卓,2026-02-05,23.478744,120.702264,5.495204e-09
C0G9B0,和美,2026-02-05,24.105169,120.492131,1.0131233e-09
CAG100,王功漁港,2026-02-05,23.96824,120.32586,0.008052852
C0X290,北門,2026-02-05,23.267772,120.125481,5.5310934e-09
C2F930,大甲,2026-02-05,24.347667,120.640403,5.401101e-09
C0D650,湖口,2026-02-05,24.904794,121.043628,1.0479508e-08
C0U780,五結,2026-02-05,24.68637,121.79794,3.7849657e-09
C1I250,鯉潭,2026-02-05,23.961922,120.991131,6.755939e-10
C0R130,阿禮,2026-02-05,22.742908,120.743678,1.081123e-09
C0X100,臺南市北區,2026-02-05,23.010394,120.194228,2.1913525e-08
C0S920,金峰嘉蘭,2026-02-05,22.594789,120.960825,6.346127e-08
C0V490,新興,2026-02-05,22.627422,120.298803,1.2271779e-05
C0F9K0,大安,2026-02-05,24.345061,120.588025,5.401101e-09
467290,古坑,2026-02-05,23.633639,120.551889,8.9201707e-10
C2E970,八甲,2026-02-05,24.535811,120.795983,2.3479925e-09
C0V440,鳳山,2026-02-05,22.646653,120.356122,5.146358e-07
C1T940,大觀,2026-02-05,23.714206,121.373133,1.8238541e-08
C0E740,造橋,2026-02-05,24.637056,120.864778,2.3676903e-09
C0R100,尾寮山,2026-02-05,22.833111,120.683889,1.1750104e-09
A2K630,臺大雲林校區,2026-02-05,23.730628,120.423903,8.546369e-10
467990,馬祖,2026-02-05,26.169467,119.923158,7.7700025e-07
C0D580,寶山,2026-02-05,24.735006,121.025192,2.5330824e-09
E2P990,林試扇平站,2026-02-05,22.9677,120.6857,8.191794e-10
C0AI30,三重,2026-02-05,25.057328,121.500629,3.6269299e-09
C0AH00,汐止,2026-02-05,25.066881,121.658778,5.123579e-09
C1Z040,立山,2026-02-05,23.443356,121.327375,3.4773247e-08
466881,新北,2026-02-05,24.959207,121.525196,3.1528749e-09
C0W130,花嶼,2026-02-05,23.40007,119.32276,0.995095
C0A950,鼻頭角,2026-02-05,25.129036,121.923372,8.6269845e-09
C0K470,林內,2026-02-05,23.748675,120.609642,1.8432028e-09
C2F990,摩天嶺,2026-02-05,24.322458,120.936819,1.5456478e-09
C2E430,南庄,2026-02-05,24.601775,121.000214,2.3668865e-09
82C160,茶改場,2026-02-05,24.908472,121.185333,4.209801e-09
C2TB60,南安,2026-02-05,23.29818,121.26157,1.0458422e-08
C0Z320,清水林道,2026-02-05,23.27125,121.188272,2.3056598e-08
C0R760,南仁湖,2026-02-05,22.084681,120.863353,0.0043732147
C0M670,大林,2026-02-05,23.600616,120.45841,7.472373e-09
C0M800,茶山,2026-02-05,23.299075,120.664767,7.2152645e-10
C0A9C0,天母,2026-02-05,25.117494,121.537169,3.588629e-09
72K220,南改斗南分場,2026-02-05,23.634556,120.477333,7.636965e-09
72AI40,桃改樹林分場,2026-02-05,24.944503,121.386972,2.249608e-09
C0S910,蘭嶼燈塔,2026-02-05,22.081197,121.503117,0.95575553
C0B050,八斗子,2026-02-05,25.144754,121.79167,5.4263993e-09
C0U900,內城,2026-02-05,24.71813,121.68766,3.7429464e-09
C0X320,柳營,2026-02-05,23.253328,120.375253,2.1349548e-08
C0M790,新港,2026-02-05,23.553269,120.345728,2.9649039e-09
C0F9T0,西屯,2026-02-05,24.179494,120.641275,5.490707e-10
C0E950,松安,2026-02-05,24.39792,120.98599,3.4387715e-09
C0SA30,都歷,2026-02-05,23.020333,121.323642,8.865136e-09
C0C620,蘆竹,2026-02-05,25.084275,121.265767,7.598418e-09
C0R730,大坪頂,2026-02-05,22.024633,120.69355,0.60282135
C0AJ40,石門,2026-02-05,25.273672,121.601198,2.934491e-08
C0E750,苗栗,2026-02-05,24.564569,120.824575,2.3479925e-09
C0T870,鯉魚潭,2026-02-05,23.935639,121.508944,1.1685875e-08
C1V170,排雲,2026-02-05,23.463619,120.954147,2.107186e-08
C2H950,中寮,2026-02-05,23.884447,120.766406,3.9715814e-10
C0R350,貓鼻頭,2026-02-05,21.921774,120.7358,0.9323687
C0V660,岡山,2026-02-05,22.797078,120.294958,8.7803606e-08
C1H941,雙冬,2026-02-05,23.967378,120.802189,5.705774e-10
C0AJ70,田寮,2026-02-05,25.2698,121.4886,3.7287258e-08
C0AI00,五股,2026-02-05,25.07445,121.42728,3.6070542e-09
C0Z280,德武,2026-02-05,23.47426,121.41071,5.859698e-09
C2RA10,大新,2026-02-05,22.67558,120.57788,7.5729616e-07
C0R700,枋山,2026-02-05,22.246844,120.661086,0.024146272
C0C460,復興,2026-02-05,24.820208,121.352281,5.3801568e-09
C2K300,鹿南,2026-02-05,23.63855,120.3636,1.3084209e-09
E2H360,蓮華池,2026-02-05,23.918333,120.885278,5.593355e-10
C0M640,中埔,2026-02-05,23.42538,120.5229,4.899352e-09
C0W140,金沙,2026-02-05,24.488292,118.408778,2.185367e-08
C2A540,四堵,2026-02-05,24.8926,121.745736,3.3198653e-08
C0ACA0,新莊,2026-02-05,25.051478,121.446756,3.2325533e-09
C0R220,潮州,2026-02-05,22.534361,120.54,6.3595166e-07
U2HA40,臺大內茅埔,2026-02-05,23.689722,120.851117,6.146521e-10
467490,臺中,2026-02-05,24.145736,120.684075,8.7411345e-10
C0UB60,明池,2026-02-05,24.650688,121.475277,2.3253085e-08
C0U960,翠峰湖,2026-02-05,24.510856,121.608044,2.8261608e-08
E2HA20,林試畢祿溪站,2026-02-05,24.226944,121.308522,6.1709335e-09
C2M9A0,大華,2026-02-05,23.4824,120.67491,1.5559294e-09
C0V890,前鎮,2026-02-05,22.5718,120.3117,4.102771e-06
C1F941,雪嶺,2026-02-05,24.280586,121.026642,1.8875873e-08
C2H9E0,國姓南港,2026-02-05,23.911108,120.846556,1.3721866e-09
C0AC80,文山,2026-02-05,25.00235,121.575728,5.636345e-09
C0F9R0,龍井,2026-02-05,24.184536,120.528972,1.8085073e-09
C0M760,民雄,2026-02-05,23.551754,120.428457,7.472373e-09
C0UA40,西德山,2026-02-05,24.560647,121.752608,3.069583e-08
C2TA70,赤科坪,2026-02-05,23.39885,121.39168,2.8964058e-08
C1T920,中興,2026-02-05,23.769503,121.498653,1.4439712e-08
C0D550,雪霸,2026-02-05,24.526972,121.11605,8.505621e-09
C2F860,梨山,2026-02-05,24.247522,121.243669,1.107638e-08
C0R320,車城,2026-02-05,22.0744,120.716247,0.9799026
C1S870,南美山,2026-02-05,23.15025,121.382333,1.1883946e-08
C0B020,基隆嶼,2026-02-05,25.19141,121.78391,5.507964e-09
C1U501,牛鬥,2026-02-05,24.637836,121.573656,1.9559263e-08
C0M730,嘉義市東區,2026-02-05,23.457673,120.460531,1.3745815e-08
C2R990,泰武,2026-02-05,22.60686,120.69765,2.4297306e-09
C0S700,知本,2026-02-05,22.684866,121.005642,1.7583076e-08
C1N001,沙崙,2026-02-05,22.935472,120.309406,5.3447398e-08
C0V760,橋頭,2026-02-05,22.757806,120.30575,5.9119365e-08
C0G960,福寶,2026-02-05,24.0443,120.3814,1.1481067e-09
C0X210,白河,2026-02-05,23.347466,120.414427,5.2291584e-09
C0S810,東河,2026-02-05,22.972672,121.303986,7.443084e-09
C2R170,屏東,2026-02-05,22.66027,120.49403,0.0001928368
C0R670,楓港,2026-02-05,22.190131,120.692156,0.9781581
C0FA50,霧峰,2026-02-05,24.0419,120.6995,6.466624e-10
C0UB10,蘇澳,2026-02-05,24.5969,121.8571,3.7723313e-09
C0G950,防潮門,2026-02-05,24.1835,120.4871,1.2723953e-09
C0M740,六腳,2026-02-05,23.492871,120.290625,5.2520788e-09
C1R250,力里,2026-02-05,22.428117,120.629228,5.110313e-10
C0K330,虎尾,2026-02-05,23.719183,120.442036,8.546369e-10
C2FA00,烏石坑,2026-02-05,24.273503,120.947617,1.524462e-09
C0V620,永安,2026-02-05,22.82315,120.236856,8.7803606e-08
C1I330,楓樹林,2026-02-05,23.986803,121.076117,1.5803413e-09
C0W200,湖西,2026-02-05,23.596314,119.67275,0.9924344
72Q010,高雄農改場,2026-02-05,22.709333,120.525889,8.72596e-06
C0SA40,瑞和,2026-02-05,22.974361,121.156697,2.9704001e-09
C0C680,龜山,2026-02-05,25.02846,121.38656,2.7191458e-09
C2V260,月眉,2026-02-05,22.971003,120.539853,1.6730298e-09
C0V450,鳳森,2026-02-05,22.545064,120.392592,2.4276565e-08
C0FA90,小雪山林道,2026-02-05,24.29515,121.03651,2.3762873e-08
C0U720,南山,2026-02-05,24.43742,121.38167,1.5712383e-08
A2N290,臺南蘭花園區,2026-02-05,23.340258,120.379661,1.5811864e-08
C0R560,新園,2026-02-05,22.5434,120.461558,2.4276565e-08
C0U890,三星,2026-02-05,24.66812,121.65302,3.76898e-09
C1V300,御油山,2026-02-05,23.001983,120.715364,3.9222896e-09
C0U600,礁溪,2026-02-05,24.817539,121.765608,2.9048635e-09
C1T980,龍澗,2026-02-05,24.023289,121.411328,2.7435854e-08
C0D670,海天一線,2026-02-05,24.831986,120.914438,2.12553e-06
C0SA00,歷坵,2026-02-05,22.520969,120.89185,3.9912386e-08
C0M710,東石,2026-02-05,23.458927,120.15385,6.437227e-09
C0M780,鹿草,2026-02-05,23.41134,120.30835,5.8870997e-09
C0U520,雙連埤,2026-02-05,24.753033,121.641303,1.8941657e-08
C0B010,七堵,2026-02-05,25.094819,121.71713,5.471943e-09
C0R480,長治,2026-02-05,22.693128,120.542622,3.3907318e-06
C1V830,國三S383K,2026-02-05,22.781967,120.426475,3.3591053e-07
12Q980,恆春工作站,2026-02-05,22.079678,120.714425,0.9799026
C1O940,東山服務區,2026-02-05,23.286016,120.398472,1.5811864e-08
C1U840,東澳嶺,2026-02-05,24.5378,121.8485,2.6097563e-08
C1D630,飛鳳山,2026-02-05,24.766464,121.119178,3.429163e-09
C0S940,石寧山,2026-02-05,23.223772,121.406639,1.3948226e-08
C0K410,北港,2026-02-05,23.573957,120.292802,2.9921732e-09
C2M620,瑞里,2026-02-05,23.545133,120.675197,1.9494932e-09
C0SB70,小港漁港,2026-02-05,23.158558,121.400431,1.7364677e-08
C2O950,安南,2026-02-05,23.076694,120.144861,7.2979525e-09
C0F0E0,南湖圈谷,2026-02-05,24.363714,121.444667,2.1823679e-08
467610,成功,2026-02-05,23.097486,121.373428,1.2898081e-08
C0G890,伸港,2026-02-05,24.148933,120.484403,1.2723953e-09
C2E540,龍溪,2026-02-05,24.606489,120.783933,2.3479925e-09
C1V200,梅山,2026-02-05,23.268447,120.823556,1.0864977e-09
C0T9H0,加路蘭山,2026-02-05,23.682947,121.5274,1.8493912e-08
C2O930,玉井,2026-02-05,23.126042,120.46055,1.7778594e-09
C1F911,新伯公,2026-02-05,24.221361,120.841069,5.5753757e-10
C0R490,九如,2026-02-05,22.7405,120.490503,8.72596e-06
C0X200,左鎮,2026-02-05,23.056758,120.408522,1.2097644e-08
C2TB50,麻汝,2026-02-05,23.42554,121.39358,5.859698e-09
C0FA60,鞍馬山工作站,2026-02-05,24.267064,121.000793,1.09955085e-08
C0SB50,叭嗡嗡,2026-02-05,23.047062,121.343223,1.37021265e-08
C1F891,稍來,2026-02-05,24.265689,121.001142,1.0576112e-08
C2M9C0,紫雲,2026-02-05,23.494914,120.540253,1.5744474e-09
72N240,七股研究中心,2026-02-05,23.081672,120.062894,8.91878e-09
C0C700,中壢,2026-02-05,24.977661,121.256375,5.198073e-09
C0M690,水上,2026-02-05,23.419734,120.388909,1.6911157e-08
C0V690,鼓山,2026-02-05,22.623325,120.275575,1.2049824e-05
C0O860,大內,2026-02-05,23.11885,120.36083,7.6539415e-08
C0Z200,萬榮,2026-02-05,23.709219,121.420106,1.6230608e-08
C0T9D0,和中,2026-02-05,24.26676,121.74103,7.558595e-09
C2S9A0,北份子寮,2026-02-05,22.78561,121.07813,5.2120814e-09
C1O921,楠西,2026-02-05,23.183511,120.484083,1.7778594e-09
C0AJ30,淡水觀海,2026-02-05,25.184591,121.408616,7.827918e-09
C0V810,左營,2026-02-05,22.67491,120.28491,8.280761e-07
C0UA70,桃源谷,2026-02-05,24.962606,121.888875,1.8273502e-08
C0X130,官田,2026-02-05,23.193217,120.315422,7.6539415e-08
C1H000,翠峰,2026-02-05,24.109397,121.205211,9.3180015e-09
C0UA90,石城,2026-02-05,24.980444,121.951214,8.907475e-09
C1E681,南勢山,2026-02-05,24.421669,120.923831,1.9624349e-09
C0A9F0,內湖,2026-02-05,25.079422,121.57545,3.642723e-09
C0K291,宜梧,2026-02-05,23.536281,120.169329,5.9936906e-07
C1K540,口湖,2026-02-05,23.585344,120.180517,7.0858164e-07
C0R780,滿州,2026-02-05,22.024403,120.839892,0.19799122
C0V870,文安,2026-02-05,22.8025,120.2164,1.5545886e-07
C0U650,玉蘭,2026-02-05,24.675286,121.587061,1.8962188e-08
C0R640,東港,2026-02-05,22.46247,120.44074,1.3464426e-08
C0AJ80,板橋,2026-02-05,25.0107,121.4489,3.1813265e-09
C0S660,下馬,2026-02-05,23.150427,121.070312,2.6385056e-08
C2N190,烏樹,2026-02-05,23.32393,120.36989,1.5811864e-08
C1H9B1,阿眉,2026-02-05,24.1263,120.994672,5.560054e-09
C0UA20,多加屯,2026-02-05,24.368614,121.373189,9.774666e-09
C0E730,頭份,2026-02-05,24.688247,120.912206,3.962428e-09
72V140,高改旗南分場,2026-02-05,22.857861,120.516667,8.8803835e-09
C0K480,莿桐,2026-02-05,23.761192,120.502372,3.7635566e-09
C0U980,坪林石牌,2026-02-05,24.86478,121.77396,3.181996e-08
C0T900,西林,2026-02-05,23.8119,121.441458,1.3029501e-08
C1I150,青雲,2026-02-05,23.793361,120.949378,5.1768867e-10
C2E980,和興,2026-02-05,24.505319,120.923016,2.6205742e-09
467350,澎湖,2026-02-05,23.565503,119.563094,0.9888111
C0G800,埔鹽,2026-02-05,24.000394,120.431683,1.0990869e-09
C0H960,草屯,2026-02-05,23.973672,120.68085,6.459129e-10
C1V780,多納林道,2026-02-05,22.888028,120.737917,1.7173954e-09
C0E920,通霄漁港,2026-02-05,24.498589,120.673876,2.0926275e-07
C0Z330,安通山,2026-02-05,23.290728,121.348528,9.736707e-09
C0AH10,永和,2026-02-05,25.01125,121.508111,3.1813265e-09
C0AK10,太平里,2026-02-05,25.134937,121.364899,7.499173e-09
C2G640,鹿港,2026-02-05,24.0753,120.430481,1.0131233e-09
C1E890,國三N149K,2026-02-05,24.463414,120.680019,2.0926275e-07
C1R110,口社,2026-02-05,22.770111,120.645222,2.1039734e-08
C1M870,國三N285K,2026-02-05,23.550319,120.505833,1.5744474e-09
C1E480,鳳美,2026-02-05,24.554803,121.034747,4.0423838e-09
C0T9M0,靜浦,2026-02-05,23.455167,121.495028,6.4224617e-09
C2H9M0,發祥,2026-02-05,24.154094,121.164517,1.8916086e-09
C2G9C0,埔南,2026-02-05,23.99124,120.46969,1.0990869e-09
C0AI40,石牌,2026-02-05,25.115597,121.513139,3.642723e-09
C1F871,上谷關,2026-02-05,24.203483,121.018644,1.5237062e-09
C2H9G0,百勝,2026-02-05,24.051142,120.909361,3.4828637e-10
C0G880,二水,2026-02-05,23.810742,120.6173,2.3231486e-09
C0R940,加祿堂,2026-02-05,22.3363,120.6217,0.024146272
C0W220,北竿,2026-02-05,26.220358,119.974881,3.7607526e-06
C0O960,崎頂,2026-02-05,22.959547,120.369317,5.3447398e-08
C0TA40,秀林,2026-02-05,24.302864,121.731144,3.8122312e-08
C0S750,向陽,2026-02-05,23.248397,120.986133,7.046863e-09
C0T9F0,水璉,2026-02-05,23.797131,121.542514,1.2428427e-08
C1M600,頭凍,2026-02-05,23.406364,120.603339,1.3646044e-09
467660,臺東,2026-02-05,22.752211,121.154586,7.643552e-09
C1D380,新埔,2026-02-05,24.84745,121.03834,3.9721897e-09
C2G980,田頭村,2026-02-05,23.8263,120.444175,8.640714e-10
C0V750,路竹,2026-02-05,22.854997,120.259439,8.7803606e-08
C0N050,蚵寮,2026-02-05,23.301,120.1104,5.5310934e-09
C2X060,下營,2026-02-05,23.226806,120.256291,2.8785124e-08
72M700,南改鹿草分場,2026-02-05,23.416869,120.283061,5.8870997e-09
C1SA50,利嘉林道,2026-02-05,22.82325,121.009389,2.5000077e-08
C0UB70,太平山中間站,2026-02-05,24.542003,121.513453,1.6772386e-08
C0A940,金山,2026-02-05,25.223628,121.643967,1.0110197e-08
C1V340,大津,2026-02-05,22.888322,120.645986,1.7241312e-08
C0W180,七美,2026-02-05,23.219333,119.444892,0.99660325
C1F9C1,白冷,2026-02-05,24.182844,120.929889,5.579439e-10
K2E710,苗改生物防治研究中心,2026-02-05,24.422861,120.871833,1.3473462e-09
C0N040,蘆竹溝,2026-02-05,23.2344,120.0961,5.5310934e-09
C0TB40,崇德,2026-02-05,24.166144,121.657414,7.8545776e-07
C0D760,大坪苗圃,2026-02-05,24.5362,121.1108,9.027321e-09
C2W230,畜試所澎湖,2026-02-05,23.628342,119.513206,0.99131423
C0R880,後壁湖,2026-02-05,21.9457,120.7457,0.94172996
C1I280,埔中,2026-02-05,23.820778,120.642594,3.9680983e-10
467790,墾丁雷達站,2026-02-05,21.948235,120.808028,0.8619429
C0W190,望安,2026-02-05,23.380564,119.494075,0.9949577
C0Z170,卓溪,2026-02-05,23.3443,121.3029,7.427966e-09
C0F850,東勢,2026-02-05,24.246428,120.833047,5.6678323e-10
466900,淡水,2026-02-05,25.164889,121.448906,6.704774e-09
C0I370,魚池,2026-02-05,23.895703,120.94135,6.0005423e-10
C0C630,大溪,2026-02-05,24.882853,121.265547,3.3426102e-09
C0A520,山佳,2026-02-05,24.974944,121.402008,2.224027e-09
C0I110,竹山,2026-02-05,23.761225,120.688156,1.5938666e-09
82H840,茶改南部分場,2026-02-05,23.762528,120.7405,3.9338555e-10
C2SD80,再來山,2026-02-05,23.34371,121.44122,7.3797826e-09
C0G660,溪湖,2026-02-05,23.94835,120.479122,5.816058e-10
C1T800,洛韶,2026-02-05,24.204558,121.453956,8.1328906e-08
C1T810,慈恩,2026-02-05,24.192044,121.388386,5.39517e-09
C1E451,象鼻,2026-02-05,24.368617,120.940228,1.96178e-09
C0AC60,三峽,2026-02-05,24.939025,121.369728,2.266292e-09
C0I490,萬大林道,2026-02-05,23.928228,121.091411,2.9018068e-09
C1I290,豐丘,2026-02-05,23.668178,120.887417,2.8852059e-09
C1I320,奧萬大,2026-02-05,23.952956,121.178556,1.6039151e-09
C2M910,嘉義大學,2026-02-05,23.471325,120.485903,1.3745815e-08
C0U770,南澳,2026-02-05,24.44935,121.81022,7.0512596e-09
C2TB30,吉安,2026-02-05,23.94538,121.54803,1.2546899e-08
C0A980,社子,2026-02-05,25.109508,121.469681,6.7263057e-09
C0V800,六龜,2026-02-05,22.997889,120.633583,1.3385297e-09
C1G9D0,國一S218K,2026-02-05,23.890641,120.493253,9.359998e-10
C0E570,白沙屯,2026-02-05,24.549447,120.696803,2.4464542e-08
C2F9A0,中竹林,2026-02-05,24.103556,120.751061,4.713762e-10
C0FA40,臺中電廠,2026-02-05,24.2146,120.4907,2.47693e-09
C2G9A0,畜試所彰化,2026-02-05,23.86045,120.557964,3.2188763e-09
C0H9C0,合歡山,2026-02-05,24.143442,121.272547,2.0895799e-08
G2M350,農試溪口農場,2026-02-05,23.58565,120.408111,7.472373e-09
C0U860,頭城,2026-02-05,24.85323,121.8308,8.774949e-09
C0R580,南州,2026-02-05,22.48591,120.50274,1.7783054e-07
C0D430,峨眉,2026-02-05,24.6905,121.017189,2.1018745e-09
C0G780,秀水,2026-02-05,24.03405,120.503869,4.675777e-10
72N100,臺南農改場,2026-02-05,23.0605,120.342194,5.6332146e-07
C0S900,蘭嶼高中,2026-02-05,22.04909,121.51214,0.5739184
C2TA60,六十石,2026-02-05,23.22477,121.31861,2.8305196e-08
C1F9W0,德基,2026-02-05,24.254783,121.190261,1.1328975e-08
C2M980,安和,2026-02-05,23.51377,120.31593,5.2520788e-09
C1Z120,壽豐,2026-02-05,23.870853,121.508081,1.3730145e-08
C0W160,烏坵,2026-02-05,24.9944,119.44956,0.027373722
C1I240,外大坪,2026-02-05,23.958697,120.917931,6.4525535e-10
C1I550,國六W023K,2026-02-05,23.979067,120.867742,3.3317432e-10
C0R870,興海,2026-02-05,21.9752,120.8439,0.8619429
C0R140,瑪家,2026-02-05,22.682903,120.686639,5.807057e-10
C0A530,坪林,2026-02-05,24.938183,121.70975,1.8170937e-08
C0X260,後壁,2026-02-05,23.366358,120.362326,2.3966612e-08
C0Z230,和平,2026-02-05,24.30717,121.77007,7.3021713e-09
C0G770,福興,2026-02-05,24.041289,120.437669,1.0990869e-09
C0H9A0,神木村,2026-02-05,23.532742,120.843667,5.3374225e-09
C0I460,南投,2026-02-05,23.911469,120.687331,6.459129e-10
C0I480,梅峰,2026-02-05,24.085272,121.173572,6.09368e-09
C1V570,吉東,2026-02-05,22.85422,120.5454,2.0279928e-07
C2A560,福山,2026-02-05,24.776203,121.502811,1.9018694e-08
C0AH30,五分山,2026-02-05,25.07125,121.780794,2.4520835e-08
C0FA10,松柏,2026-02-05,24.429115,120.617482,1.07150155e-08
72S200,東改班鳩分場,2026-02-05,22.829528,121.077694,4.8639053e-09
72HA00,中改埔里分場,2026-02-05,23.903208,120.963364,5.9040656e-10
C2H9W0,大坪頂農水,2026-02-05,24.043122,120.932781,5.623253e-10
C0C650,平鎮,2026-02-05,24.897503,121.214636,2.9169116e-09
C0S930,延平,2026-02-05,22.902581,121.084058,4.375188e-09
C0UA60,樟樹山,2026-02-05,24.41393,121.78325,7.782037e-09
C2UC10,出水溪,2026-02-05,24.615822,121.652253,1.8805512e-08
C1S670,摩天,2026-02-05,23.199503,121.027,3.825386e-08
C2C590,觀音,2026-02-05,25.027072,121.153317,3.3972846e-08
C0V630,茄萣,2026-02-05,22.906642,120.182608,1.8459165e-08
466940,基隆,2026-02-05,25.133314,121.740475,5.4887304e-09
C0X050,東河,2026-02-05,23.296598,120.385608,1.5811864e-08
C0R770,保力,2026-02-05,22.071122,120.764111,0.68704355
G2L020,農試嘉義分所,2026-02-05,23.485028,120.473806,1.3745815e-08
C0X240,關子嶺,2026-02-05,23.331169,120.508025,4.7755344e-10
C0I380,集集,2026-02-05,23.828206,120.801467,3.7860753e-10
466990,花蓮,2026-02-05,23.975128,121.613275,2.2573973e-08
C1V220,小關山,2026-02-05,23.154217,120.813603,4.3088773e-09
C1F9G1,慶福山,2026-02-05,24.180853,120.848378,7.1414125e-10
C0FB20,雪山橋,2026-02-05,24.23192,120.9786,9.348085e-09
C0Z250,瑞穗林道,2026-02-05,23.49284,121.30688,5.4519333e-08
C0D590,新豐,2026-02-05,24.87068,120.97721,2.12553e-06
C0A870,五指山,2026-02-05,25.132153,121.608692,8.733023e-09
C0UA50,西帽山,2026-02-05,24.555361,121.802628,2.6009657e-08
C2R980,竹田國中,2026-02-05,22.61532,120.52412,1.7656308e-05
C0X160,仁德,2026-02-05,22.968258,120.257689,1.8635656e-06
C1H971,六分寮,2026-02-05,23.92507,120.6378,5.2195304e-10
C0W120,西嶼,2026-02-05,23.5626,119.468436,0.99067587
C0G650,員林,2026-02-05,23.946503,120.585597,9.924274e-10
C0AD50,鶯歌,2026-02-05,24.951533,121.346294,4.06752e-09
C2H9Q0,北東眼山,2026-02-05,24.120939,121.189303,9.164847e-09
C2H9T0,名間竹圍,2026-02-05,23.859914,120.637572,6.82992e-10
C0S990,山豬窟,2026-02-05,22.318619,120.857372,8.1347725e-06
C0X190,安平,2026-02-05,22.993161,120.152181,2.6811705e-08
C0K400,斗六,2026-02-05,23.720583,120.541127,3.7635566e-09
12J990,口湖工作站,2026-02-05,23.589978,120.180394,7.0858164e-07
C0O830,北寮,2026-02-05,23.079561,120.495008,4.5305007e-10
C1D410,白蘭,2026-02-05,24.579364,121.079947,7.788348e-09
C0S970,加津林,2026-02-05,22.416211,120.926942,2.5912561e-06
C0D700,關西,2026-02-05,24.7977,121.1732,2.4949096e-09
C0U750,龜山島,2026-02-05,24.841667,121.953133,2.0705484e-08
C0R810,內獅,2026-02-05,22.305064,120.642986,0.024146272
C1M390,龍美,2026-02-05,23.406728,120.654417,2.6498568e-09
C2K290,崙內,2026-02-05,23.69525,120.35601,1.3084209e-09
C2FB60,頭櫃山,2026-02-05,24.129842,120.858925,1.8260844e-09
C1H840,國三N238K,2026-02-05,23.841008,120.707711,4.0753767e-10
CAQ030,崎峰國小,2026-02-05,22.42565,120.49521,1.7783054e-07
C2E520,大湖,2026-02-05,24.414939,120.870872,1.3473462e-09
467530,阿里山,2026-02-05,23.508208,120.813242,1.1270052e-08
C1E691,南湖,2026-02-05,24.40135,120.837533,1.0327114e-09
C0FA30,梧棲,2026-02-05,24.256003,120.523381,1.8085073e-09
C1V231,高中,2026-02-05,23.134911,120.716711,7.9723544e-10
C0AK30,硬漢嶺,2026-02-05,25.136097,121.426372,8.546912e-09
C0F9V0,新社,2026-02-05,24.200172,120.815806,5.996755e-10
C0H890,埔里,2026-02-05,23.972169,120.952425,4.868163e-10
C0R690,墾丁,2026-02-05,21.966756,120.810269,0.74030346
C0SD20,富山,2026-02-05,22.822383,121.190825,8.746926e-09
C0F0D0,審馬陣,2026-02-05,24.381675,121.4203,1.5117974e-08
C2W030,金門農試所,2026-02-05,24.448431,118.451786,2.1523233e-08
C0R820,白鷺,2026-02-05,22.454275,120.666219,1.1643153e-09
C0FB00,大雪山,2026-02-05,24.254668,121.007374,1.105715e-08
C1V190,南天池,2026-02-05,23.27403,120.91176,8.278755e-09
C0E940,雪見,2026-02-05,24.42595,121.01347,8.3276275e-09
K2E360,苗栗農改場,2026-02-05,24.495722,120.829111,2.1954765e-09
CAJ050,海口故事園區,2026-02-05,23.57543,120.14121,7.0858164e-07
C2K280,四湖,2026-02-05,23.6304,120.22717,1.8901619e-07
C2H9D0,三隻寮,2026-02-05,24.093078,120.861578,5.276928e-10
C0O990,媽廟,2026-02-05,22.99175,120.293525,2.0735877e-06
C0D480,打鐵坑,2026-02-05,24.849664,121.150789,3.5296583e-09
C0Z220,和平林道,2026-02-05,24.343922,121.656317,8.247391e-09
C0TA10,花蓮漁港,2026-02-05,23.995322,121.638331,2.3406024e-08
72C440,桃園農改場,2026-02-05,24.950944,121.030583,1.0479508e-08
C1E711,馬拉邦山,2026-02-05,24.367306,120.901656,1.528165e-09
C0SB20,富岡,2026-02-05,22.792467,121.192669,7.630588e-09
C0D560,竹東,2026-02-05,24.767147,121.057881,2.366223e-09
C0F9U0,南屯,2026-02-05,24.137006,120.637969,5.3563587e-10
C2SD60,明峰,2026-02-05,22.8671,121.11825,4.3879496e-09
C0M720,番路,2026-02-05,23.464657,120.554156,3.7027473e-10
C0F0A0,雪山圈谷,2026-02-05,24.388594,121.236339,2.4930555e-08
C1A9N0,四十份,2026-02-05,24.934158,121.593283,1.3744163e-08
C0U760,東澳,2026-02-05,24.52196,121.83318,7.1409665e-09
C0X230,鹽水,2026-02-05,23.272621,120.247641,5.932956e-09
C2H9H0,苗改南投蜂場,2026-02-05,23.852589,120.693481,1.2283157e-09
C2TB70,達谷寮,2026-02-05,23.38,121.35968,7.4049367e-09
C0R950,萬隆國小,2026-02-05,22.507667,120.587817,6.240029e-10
467540,大武,2026-02-05,22.35572,120.90374,0.9843633
C0V370,古亭坑,2026-02-05,22.893178,120.401947,4.2066866e-09
C1I340,新興橋,2026-02-05,23.563333,120.868728,1.8688078e-09
C0SA80,土坂,2026-02-05,22.453108,120.887572,5.761036e-07
C0R160,鹽埔,2026-02-05,22.739558,120.530778,8.72596e-06
C0AC40,大屯山,2026-02-05,25.175675,121.522408,1.9363496e-08
466850,五分山雷達站,2026-02-05,25.071182,121.781205,2.4658725e-08
C2H9L0,馬烈霸,2026-02-05,24.1512,121.201772,9.164847e-09
C1AI50,國三N016K,2026-02-05,25.034164,121.619664,5.0979123e-09
C2V920,匏子寮,2026-02-05,23.04905,120.55319,6.568621e-10
C1V600,藤枝,2026-02-05,23.071961,120.757042,3.4175078e-09
C1E601,南勢,2026-02-05,24.572486,120.734842,2.4464542e-08
C0O980,新市,2026-02-05,23.061614,120.298197,5.6332146e-07
C0K420,西螺,2026-02-05,23.800407,120.467394,8.6406976e-10
C0Z050,佳心,2026-02-05,23.34567,121.21316,2.2287374e-08
C0AD30,蘆洲,2026-02-05,25.086594,121.472331,3.1505543e-09
C0V610,梓官,2026-02-05,22.760558,120.267211,1.2129834e-07
K2F750,種苗改良場,2026-02-05,24.225972,120.800917,5.996755e-10
C0UA80,大溪漁港,2026-02-05,24.941801,121.902955,1.8017257e-08
C1AI60,國一39K邊坡,2026-02-05,25.064361,121.383836,3.7069112e-09
C0W150,金寧,2026-02-05,24.457703,118.328989,2.1824262e-08
C0R960,內埔,2026-02-05,22.608483,120.570714,1.7656308e-05
V2C250,八德合作社,2026-02-05,24.93775,121.266389,3.3426102e-09
C2H9S0,龍南,2026-02-05,23.953536,120.833183,9.680631e-10
C0AH40,平等,2026-02-05,25.129142,121.577086,7.618953e-09
C0R540,佳冬,2026-02-05,22.419456,120.552375,1.9904485e-08
466950,彭佳嶼,2026-02-05,25.627975,122.079744,1.1090082e-07
C0A890,雙溪,2026-02-05,25.036003,121.864242,8.968694e-09
C0C480,桃園,2026-02-05,24.992425,121.323172,5.198073e-09
C0AH50,林口,2026-02-05,25.072181,121.38084,3.835298e-09
A2K360,水試臺西試驗場,2026-02-05,23.717231,120.190522,1.3143362e-07
C2M960,外寮,2026-02-05,23.562643,120.665688,1.6278716e-09
C0F9S0,烏日,2026-02-05,24.107058,120.624103,5.3563587e-10
C2N180,鹿陶洋,2026-02-05,23.14325,120.48352,1.7778594e-09
C0C490,八德,2026-02-05,24.928708,121.283289,3.3426102e-09
C0R190,赤山,2026-02-05,22.592333,120.614306,6.1145565e-06
C0T820,天祥,2026-02-05,24.179597,121.495639,1.8749053e-07
C1F9E1,龍安,2026-02-05,24.1605,120.831961,6.0847105e-10
C2SD50,順那,2026-02-05,23.04166,121.29332,7.311579e-09
C0V820,小林,2026-02-05,23.148408,120.63325,5.3363614e-10
C2G870,芳苑,2026-02-05,23.922303,120.320025,0.008052852
C0E850,大河,2026-02-05,24.618069,120.948578,2.3292848e-09
C1U670,寒溪,2026-02-05,24.634,121.71691,3.743996e-09
C0N020,城西,2026-02-05,23.0568,120.0956,8.302759e-09
C1Z110,三棧,2026-02-05,24.11557,121.60501,1.316553e-07
C0R280,檳榔,2026-02-05,22.076078,120.836777,0.11551397
C2H9J0,中台,2026-02-05,23.9996,120.938739,5.623253e-10
C0F9L0,后里,2026-02-05,24.310436,120.729725,7.837789e-10
467441,高雄,2026-02-05,22.730432,120.312516,5.9119365e-08
C0Z180,新城,2026-02-05,24.040486,121.604878,2.2273603e-08
C0D540,橫山,2026-02-05,24.71116,121.11693,2.5424487e-09
C1D420,太閣南,2026-02-05,24.632808,121.160575,9.353686e-09
C1E770,公館,2026-02-05,24.526914,120.830806,2.3990794e-09
CAN130,水試所海水繁養殖中心,2026-02-05,23.120802,120.07968,8.91878e-09
C1I430,翠華,2026-02-05,24.191961,121.224339,1.3227317e-08
C1M400,菜瓜坪,2026-02-05,23.251928,120.576103,6.261322e-10
C0G730,二林,2026-02-05,23.903325,120.376081,1.1372681e-09
72M360,南改義竹分場,2026-02-05,23.360694,120.279361,6.094354e-09
V2K620,麥寮合作社,2026-02-05,23.753836,120.294783,7.765515e-10
C0Z070,舞鶴,2026-02-05,23.46811,121.37407,5.922181e-09
C0B040,大武崙,2026-02-05,25.166676,121.706993,5.536624e-09
C1Z030,紅葉,2026-02-05,23.493119,121.338806,5.869463e-09
C1I050,丹大,2026-02-05,23.753747,121.141147,9.622371e-09
C0I080,信義,2026-02-05,23.689694,120.851036,6.146521e-10
C2TB80,庄子底,2026-02-05,23.71794,121.49438,1.8934108e-08
C0D750,樂山林道6k,2026-02-05,24.49999,121.08773,1.1738932e-08
C2M920,朴子農改,2026-02-05,23.469889,120.259383,5.8870997e-09
C2A880,福隆,2026-02-05,25.017842,121.942083,8.857581e-09
C0Z160,鳳林,2026-02-05,23.746114,121.453411,1.848076e-08
C0UB80,翠峰林道6K,2026-02-05,24.49773,121.568625,2.9899784e-08
C0V210,復興,2026-02-05,23.222403,120.806089,8.3578566e-10
C0H990,昆陽,2026-02-05,24.121322,121.273642,1.6681078e-08
C0R741,獅子,2026-02-05,22.202308,120.705236,0.0010753395
C0S710,鹿野,2026-02-05,22.917711,121.122994,4.2233848e-09
C0I530,小奇萊,2026-02-05,24.131764,121.295717,1.7546862e-08
C0FA70,大雪山埡口,2026-02-05,24.26867,121.03062,1.8663009e-08
C2K630,荷苞,2026-02-05,23.657717,120.595144,8.9201707e-10
C0Z080,富源,2026-02-05,23.587642,121.378225,3.3935414e-08
C2M9E0,旺來山,2026-02-05,23.555153,120.486463,1.5744474e-09
C0SB10,美和,2026-02-05,22.682078,121.060236,7.643552e-09
C2K620,馬光農場,2026-02-05,23.721453,120.378864,8.546369e-10
C1I140,卡奈托灣,2026-02-05,23.754364,121.087872,3.1036684e-09
C0I520,玉山風口,2026-02-05,23.470489,120.955994,2.4565962e-08
C1G691,下水埔,2026-02-05,23.816114,120.5676,3.8880863e-09
C0X110,臺南市南區,2026-02-05,22.961189,120.188378,1.3592394e-06
C0V680,仁武,2026-02-05,22.701083,120.347722,5.9119365e-08
C2G840,北斗,2026-02-05,23.877586,120.514222,9.359998e-10
C2TB90,長橋,2026-02-05,23.6874,121.46186,1.8365748e-08
C0R900,竹坑,2026-02-05,22.1385,120.7022,0.9781581
C0G860,社頭,2026-02-05,23.897647,120.5862,3.2188763e-09
C0X150,安定,2026-02-05,23.102614,120.227839,5.2783122e-08
C0R590,里港,2026-02-05,22.77919,120.49459,7.749055e-08
C0E610,馬都安,2026-02-05,24.451272,120.930192,1.4685068e-09
C0E550,明德,2026-02-05,24.583486,120.885411,2.5805267e-09
C0R150,三地門,2026-02-05,22.709889,120.639944,4.3723705e-07
C0G910,花壇,2026-02-05,24.032076,120.549461,4.675777e-10
C1D400,鳥嘴山,2026-02-05,24.71909,121.28387,6.7134245e-09
C0K500,元長,2026-02-05,23.64981,120.315024,1.1917172e-09
C0F0B0,石岡,2026-02-05,24.276061,120.777644,7.837789e-10
C2V250,甲仙,2026-02-05,23.080106,120.591758,5.075595e-10
C0SA20,金崙山,2026-02-05,22.567419,120.959667,1.7893283e-08
C0V350,溪埔,2026-02-05,22.738578,120.446797,3.3591053e-07
C0M660,溪口,2026-02-05,23.604131,120.403569,7.472373e-09
C1S880,壽卡,2026-02-05,22.238911,120.858903,1.8708366e-07
72D680,桃改新埔分場,2026-02-05,24.834444,121.066111,3.9721897e-09
