站號,站名,日期,lat,lon,BLBTSLS
C0R710,龍磐,2026-01-08,21.931672,120.838942,0.99990124
C1F9D1,白毛台,2026-01-08,24.158325,120.886933,9.794935e-09
C0G940,竹塘,2026-01-08,23.848253,120.386764,2.479247e-08
467590,恆春,2026-01-08,22.003897,120.746339,0.99957603
C1O850,環湖,2026-01-08,23.148617,120.418633,2.2597279e-08
C0U710,太平山,2026-01-08,24.505486,121.525656,5.966902e-08
C0E820,獅潭,2026-01-08,24.539133,120.920042,0.53921163
C2SD70,二層坪,2026-01-08,22.94105,121.16838,3.20928e-06
C0V880,興達,2026-01-08,22.8778,120.2127,0.999913
C0S890,關山,2026-01-08,23.0395,121.175017,2.4945148e-06
C0SB30,新蘭,2026-01-08,22.869214,121.223228,0.0003023559
C2R970,屏科大,2026-01-08,22.648275,120.619247,1.0804184e-06
C1Z130,銅門,2026-01-08,23.965694,121.492842,5.5664447e-08
C0AD40,土城,2026-01-08,24.973208,121.445169,7.0837214e-06
CAN140,六官養殖協會,2026-01-08,23.22881,120.29962,0.99990076
C0X180,山上,2026-01-08,23.0757,120.363253,0.9998206
C0F9Z0,雪山東峰,2026-01-08,24.388792,121.268675,6.222611e-08
C1M480,獨立山,2026-01-08,23.537022,120.607797,3.2472856e-09
C0X220,學甲,2026-01-08,23.230367,120.182187,0.9999011
467650,日月潭,2026-01-08,23.881325,120.90805,6.8511907e-09
A2K570,古坑(花卉中心),2026-01-08,23.633531,120.552392,1.0383468e-08
C0K600,箔子寮,2026-01-08,23.6197,120.14,0.99932426
C0G830,埤頭,2026-01-08,23.866003,120.452806,2.247979e-08
C0S950,七塊厝,2026-01-08,22.954453,121.229922,3.210365e-07
467110,金門,2026-01-08,24.407306,118.289281,0.18012854
C0AH80,深坑,2026-01-08,25.002703,121.628328,3.798168e-05
C0A970,三貂角,2026-01-08,25.007606,122.002058,1.9932328e-05
C2D730,寶山農場,2026-01-08,24.732444,120.976153,0.28035027
C0K430,褒忠,2026-01-08,23.690938,120.303634,0.99915105
467480,嘉義,2026-01-08,23.495925,120.432906,1.8381062e-08
C0V400,阿公店,2026-01-08,22.804194,120.355528,0.9999207
C0E960,觀霧分站,2026-01-08,24.505781,121.113921,3.9494523e-08
467550,玉山,2026-01-08,23.48718,120.95943,6.02486e-08
C0R440,大漢山,2026-01-08,22.405264,120.753181,1.8153235e-08
C0SD30,東清國小,2026-01-08,22.057128,121.564922,0.9893798
C1F9B1,桐林,2026-01-08,24.066172,120.735194,2.6138164e-08
C2H9U0,鳳鵬,2026-01-08,23.763919,120.788061,3.444259e-09
C0K390,土庫,2026-01-08,23.679029,120.395574,2.3044684e-08
C1I450,望鄉山,2026-01-08,23.594153,120.944286,3.9081034e-08
C0E910,海埔,2026-01-08,24.648767,120.772435,0.9994748
B2E890,畜試北區分所,2026-01-08,24.527806,120.770972,0.9960555
C0R750,四林格山,2026-01-08,22.076989,120.802439,0.9997905
C0F0C0,中坑,2026-01-08,24.248517,120.903319,1.0055522e-08
C1I121,大鞍,2026-01-08,23.678381,120.760017,9.483351e-09
C2G9E0,移民庄,2026-01-08,23.9784,120.40283,0.9885582
72U480,花改蘭陽分場,2026-01-08,24.686306,121.716583,8.2886936e-07
C0A770,科教館,2026-01-08,25.096356,121.516507,8.195236e-06
C0AJ60,六塊厝,2026-01-08,25.24,121.4481,0.9989394
C0R620,墾雷,2026-01-08,21.900836,120.855269,0.9996735
467420,永康,2026-01-08,23.038386,120.2367,0.99990606
C2M530,奮起湖,2026-01-08,23.493903,120.699253,7.998525e-09
C0I410,名間,2026-01-08,23.837053,120.701447,4.492452e-09
A2C560,農工中心,2026-01-08,24.985917,121.239833,0.23208837
C0V740,旗山,2026-01-08,22.888614,120.483597,1.7874825e-05
C0Z061,玉里,2026-01-08,23.3215,121.339656,1.238443e-07
C0S840,南田,2026-01-08,22.279725,120.889208,0.9995829
C1I470,杉林溪,2026-01-08,23.639517,120.786444,1.13389405e-08
C1X040,東原,2026-01-08,23.291597,120.463822,5.0570153e-09
C0R660,枋寮,2026-01-08,22.367722,120.590647,0.98447585
C1R120,上德文,2026-01-08,22.763272,120.704442,5.484461e-09
C0K450,大埤,2026-01-08,23.646074,120.431537,2.164629e-08
C0UA00,土場,2026-01-08,24.576533,121.495333,2.3761564e-07
467080,宜蘭,2026-01-08,24.763975,121.756528,9.514976e-07
C0N030,四草,2026-01-08,23.0235,120.1116,0.99992114
467410,臺南,2026-01-08,22.99328,120.20492,0.9998951
C0V650,彌陀,2026-01-08,22.783806,120.246361,0.99993384
C0D660,新竹市東區,2026-01-08,24.798681,120.986942,0.9065359
82S580,茶改東部分場,2026-01-08,22.907694,121.130139,4.715831e-06
C0SB40,興隆,2026-01-08,22.913661,121.257469,0.00016483596
467050,新屋,2026-01-08,25.006725,121.047492,0.9855536
C0C710,大溪永福,2026-01-08,24.892936,121.324975,0.13360004
C0FA20,溫寮,2026-01-08,24.372177,120.583125,0.99987376
C0V640,湖內,2026-01-08,22.887139,120.2445,0.9999057
C0R910,下寮,2026-01-08,22.3929,120.5548,0.9850639
C0Z020,明里,2026-01-08,23.208717,121.262342,9.440438e-08
C0M770,嘉義梅山,2026-01-08,23.585398,120.555587,5.151909e-09
C0C660,楊梅,2026-01-08,24.912375,121.143047,0.052455854
C0SD40,牛頭山,2026-01-08,22.676661,121.506944,0.9996646
C1E511,新開,2026-01-08,24.347703,120.827019,2.3040109e-06
G2F820,農試所(霧峰),2026-01-08,24.031261,120.688133,5.1211778e-08
C2M990,大巃頂,2026-01-08,23.5547,120.61439,4.502858e-09
C1I070,和社,2026-01-08,23.591131,120.888861,4.4427653e-09
C2E990,新坪頂,2026-01-08,24.30201,120.8574,1.0771185e-07
C0TA80,立霧山,2026-01-08,24.183258,121.641899,4.0783902e-08
C2F000,大肚,2026-01-08,24.15295,120.572117,0.9949001
C1S850,豐南,2026-01-08,23.122139,121.262389,2.0635312e-07
C2M9B0,西興,2026-01-08,23.2428,120.57617,2.695542e-09
C2A920,富貴角,2026-01-08,25.263783,121.565258,0.509325
CAH030,茶改場竹圍站,2026-01-08,23.860083,120.637528,3.4835366e-09
C0T960,光復,2026-01-08,23.660694,121.424964,6.3497595e-08
C0F9M0,豐原,2026-01-08,24.254322,120.720692,2.5045858e-05
C0R720,旭海,2026-01-08,22.205403,120.887614,0.9998784
C0V710,苓雅,2026-01-08,22.622742,120.330669,0.9999301
C0C740,觀音工業區,2026-01-08,25.064764,121.114856,0.99082077
CAC040,拉拉山,2026-01-08,24.699317,121.427133,8.6956796e-08
C0V790,萬山,2026-01-08,22.905944,120.688056,6.2295666e-09
U2HA30,臺大和社,2026-01-08,23.590856,120.888864,4.4427653e-09
C2H9K0,屯原,2026-01-08,24.067969,121.209389,2.0628773e-08
C0AJ90,澳底,2026-01-08,25.0552,121.9253,0.00010333628
C0Z100,東華,2026-01-08,23.89525,121.549833,8.108233e-08
C0G970,三豐,2026-01-08,23.882,120.2895,0.99930435
V2K610,大庄合作社,2026-01-08,23.8068,120.367939,0.999133
C0V900,汕尾,2026-01-08,22.4782,120.4151,0.986511
C1R630,龍泉,2026-01-08,22.66701,120.59091,2.2173494e-05
C1AC50,關渡,2026-01-08,25.133486,121.469331,0.9784691
C0C800,四稜,2026-01-08,24.64733,121.4293,9.388614e-08
C0F9I0,神岡,2026-01-08,24.272481,120.658314,6.146715e-05
C0K460,斗南,2026-01-08,23.678734,120.478359,1.9228498e-08
C2O810,曾文,2026-01-08,23.219681,120.497328,7.767964e-09
467280,後龍,2026-01-08,24.648563,120.831834,0.9987988
C1F9J1,清水林,2026-01-08,24.071242,120.820419,4.9979465e-09
C2A650,火燒寮,2026-01-08,25.002719,121.742892,1.9466963e-06
466930,竹子湖,2026-01-08,25.162078,121.544547,8.550161e-06
C1I220,樟湖,2026-01-08,23.905333,120.846983,7.714455e-09
C0I390,仁愛,2026-01-08,24.022122,121.132206,7.95908e-09
C0Z300,東里,2026-01-08,23.26853,121.30547,1.1570031e-07
C1V590,新發,2026-01-08,23.057019,120.646064,4.826413e-09
C0K510,水林,2026-01-08,23.572924,120.24597,0.9992171
72S590,東改賓朗果園,2026-01-08,22.813889,121.071278,0.0005623853
82A750,茶改北部分場,2026-01-08,24.955778,121.631222,6.1708425e-07
C1A750,石碇服務區,2026-01-08,25.00872,121.646242,2.3723174e-05
C0X300,鹿寮,2026-01-08,23.386047,120.477331,1.0185412e-08
G2AI50,關渡,2026-01-08,25.11575,121.492,8.404971e-06
C0K590,雲林東勢,2026-01-08,23.674192,120.255721,0.9991388
C2K310,港尾布雞,2026-01-08,23.74834,120.38439,2.4744e-08
C0A570,桶後,2026-01-08,24.848222,121.597992,2.8190527e-07
C1S800,華源,2026-01-08,22.657883,121.02325,0.9210096
C0G720,溪州,2026-01-08,23.851589,120.499093,1.9106682e-08
C1V160,達卡努瓦,2026-01-08,23.279811,120.705319,5.9761023e-09
C2M410,馬頭山,2026-01-08,23.324361,120.582017,3.6682835e-09
C0V850,蚵仔寮,2026-01-08,22.7256,120.2527,0.9999377
C0S740,池上,2026-01-08,23.119628,121.209469,9.770202e-07
C1V390,尖山,2026-01-08,22.813153,120.367789,0.99990547
C0AH70,松山,2026-01-08,25.04871,121.55042,7.694575e-06
C0N010,鯤鯓國小,2026-01-08,23.1879,120.0889,0.99991065
C0R550,新埤,2026-01-08,22.467947,120.582894,0.94175845
C0SA60,知本（水試所）,2026-01-08,22.702394,121.082761,0.9997911
C0T9I0,豐濱,2026-01-08,23.583897,121.514806,6.0725306e-08
C0UB00,淡江大學蘭陽校園,2026-01-08,24.823239,121.730383,1.6807508e-07
C0W240,九宮,2026-01-08,24.423753,118.240186,1.9386928e-06
C0T9N0,富里,2026-01-08,23.171639,121.249378,8.4697824e-08
U2HA50,臺大竹山,2026-01-08,23.756972,120.681556,4.5611968e-09
C0V840,鳳鼻頭,2026-01-08,22.5083,120.3591,0.98526603
C0X140,西港,2026-01-08,23.125608,120.203108,0.99990034
72D080,桃改五峰分場,2026-01-08,24.612194,121.157167,2.896113e-08
C2H9P0,伊拿谷,2026-01-08,23.963211,121.088264,6.250824e-09
C2K250,崙背,2026-01-08,23.75553,120.31893,0.999151
C2H9F0,柑林,2026-01-08,24.018658,120.847072,8.387997e-09
C0TA20,加灣,2026-01-08,24.082025,121.608944,1.7677459e-07
C0V530,阿蓮,2026-01-08,22.883208,120.327508,0.999886
C0FB30,八仙山苗圃,2026-01-08,24.192719,121.001366,9.926739e-09
C1O880,關山,2026-01-08,23.173397,120.594092,3.5927519e-09
C0E791,卓蘭,2026-01-08,24.3126,120.8244,1.9065056e-06
C1I030,武界,2026-01-08,23.913225,121.052483,6.3142855e-09
C0R520,崁頂,2026-01-08,22.514781,120.506914,0.98182994
C0R341,牡丹,2026-01-08,22.130036,120.792639,0.5157005
C0R930,萬丹,2026-01-08,22.5885,120.4851,0.9617173
C0S760,紅石,2026-01-08,23.069131,121.126219,1.9659124e-08
C2C410,中央大學,2026-01-08,24.967652,121.185165,0.16504447
C1M610,石磐龍,2026-01-08,23.496606,120.663506,6.2527796e-09
C0C790,東眼山,2026-01-08,24.8284,121.40888,1.1026848e-07
C0UA10,鴛鴦湖,2026-01-08,24.590269,121.412228,5.75143e-08
V2C260,八德蔬果,2026-01-08,24.978508,121.281819,0.33845606
C0R800,丹路,2026-01-08,22.204481,120.750989,0.99878025
C0G920,永靖,2026-01-08,23.924703,120.547533,0.9576102
C2M950,太和,2026-01-08,23.538372,120.702961,7.934344e-09
C1A630,下盆,2026-01-08,24.771003,121.538622,1.5726572e-07
B2N890,畜產試驗所,2026-01-08,23.058972,120.336406,0.9998849
C0UA30,白嶺,2026-01-08,24.527819,121.519031,5.533481e-08
C1V580,溪南(特生中心),2026-01-08,23.084972,120.788475,1.1064513e-08
C1T970,大農,2026-01-08,23.615233,121.413331,5.547525e-08
C0R650,竹田,2026-01-08,22.58486,120.54344,0.9667373
C1H900,清流,2026-01-08,24.080775,120.962997,6.233013e-09
C1C510,水尾,2026-01-08,24.940081,121.087161,0.590645
C2N170,茅港尾,2026-01-08,23.2061,120.2624,0.9999105
C0F9X0,大雅(中科園區),2026-01-08,24.21528,120.62445,0.999474
C0SB60,白守蓮,2026-01-08,23.126769,121.401914,0.9998187
C0O970,虎頭埤,2026-01-08,23.021375,120.347878,0.9998181
C0C730,中大臨海站,2026-01-08,24.966126,121.008581,0.9940819
C0X250,新營,2026-01-08,23.310689,120.316681,0.9998783
C0V700,三民,2026-01-08,22.645017,120.311233,0.9999301
C0U870,大礁溪,2026-01-08,24.791042,121.675047,1.2786295e-07
C0E870,高鐵苗栗,2026-01-08,24.60725,120.826094,0.99887973
A2K570,古坑花卉中心,2026-01-08,23.63353,120.55239,1.0309268e-08
C0TA30,鹽寮,2026-01-08,23.845606,121.592664,8.6819405e-08
C0M860,新美,2026-01-08,23.338017,120.683169,4.883147e-09
C1E701,八卦,2026-01-08,24.491756,120.927619,4.462019e-08
C2TA90,加納納,2026-01-08,23.466421,121.359867,5.0545196e-08
C0I420,國姓,2026-01-08,24.037803,120.855072,7.379473e-09
C2D720,關西工作站,2026-01-08,24.757275,121.184792,1.8243379e-06
C0S960,香蘭,2026-01-08,22.587569,120.993375,0.9996894
467620,蘭嶼,2026-01-08,22.0369,121.55843,0.9976894
C0R260,春日,2026-01-08,22.370361,120.628306,0.67948663
72G600,臺中農改場,2026-01-08,24.003028,120.534389,0.98218906
C0Z210,瑞穗,2026-01-08,23.5239,121.39021,6.418791e-08
C0M820,達邦,2026-01-08,23.453994,120.749517,5.3964255e-09
C0V860,南寮,2026-01-08,22.7616,120.2339,0.99993795
C0G740,大城,2026-01-08,23.852487,120.320935,0.999151
C0R920,塭仔,2026-01-08,22.4169,120.5197,0.986511
C0R470,高樹,2026-01-08,22.826389,120.600806,3.614295e-06
C0R680,佳樂水,2026-01-08,21.993578,120.861633,0.99953926
C1O870,大棟山,2026-01-08,23.31157,120.52226,5.1518207e-09
C0D360,梅花,2026-01-08,24.678347,121.208558,2.0163813e-07
C0Z190,富世,2026-01-08,24.14743,121.6297,0.0043670884
C0AI10,屈尺,2026-01-08,24.92184,121.54475,4.626878e-06
B2U990,畜試東區分所,2026-01-08,24.669039,121.832561,9.87885e-07
C0SB80,長濱漁港,2026-01-08,23.313644,121.459994,0.99980676
C0TA50,和仁,2026-01-08,24.241394,121.712472,0.012442585
C0V910,大樹,2026-01-08,22.684645,120.432803,0.00010664881
C1R610,西大武山,2026-01-08,22.617719,120.7322,1.8736555e-08
C0G900,線西,2026-01-08,24.143358,120.443536,0.99987364
C0M700,竹崎,2026-01-08,23.526178,120.555508,5.9624736e-09
C2E880,三義,2026-01-08,24.405478,120.749819,1.980702e-05
C0C720,竹圍,2026-01-08,25.112692,121.239824,0.9908793
C0F9P0,清水,2026-01-08,24.312297,120.562242,0.99986774
C0Z150,吉安光華,2026-01-08,23.930925,121.595153,8.806089e-08
C0FA80,小雪山天池,2026-01-08,24.28025,121.02627,3.3690213e-08
467300,東吉島,2026-01-08,23.25727,119.66762,0.9991984
C1D640,外坪(五指山),2026-01-08,24.644447,121.090961,1.1077225e-06
C2R9A0,高士國小,2026-01-08,22.12553,120.84653,0.98416036
C0F9O0,潭子,2026-01-08,24.213106,120.703933,8.013018e-05
C2H9R0,卓社,2026-01-08,23.887894,121.000086,9.257134e-09
72T250,花蓮農改場,2026-01-08,23.975222,121.563889,8.0994845e-08
C0E780,銅鑼,2026-01-08,24.489681,120.790853,0.9205702
C1T950,太安,2026-01-08,23.666719,121.370128,1.254429e-08
C0E830,苑裡,2026-01-08,24.439714,120.653053,0.9990702
467270,田中,2026-01-08,23.873803,120.581286,1.764651e-08
C0SA10,檳榔四格山,2026-01-08,22.810031,121.109308,3.6765618e-05
C1T830,布洛灣,2026-01-08,24.17184,121.57127,6.579461e-08
C0F970,大坑,2026-01-08,24.173142,120.722289,0.0003290137
C1U920,思源,2026-01-08,24.393125,121.347214,3.893424e-08
C2H9Y0,松茗,2026-01-08,23.8167,120.650765,3.3929892e-09
C0A931,三和,2026-01-08,25.233153,121.595236,0.116791114
C0I010,廬山,2026-01-08,24.033311,121.181808,1.3445692e-08
C2M940,日野賀,2026-01-08,23.434056,120.727169,6.4447705e-09
C0R860,鼻頭,2026-01-08,22.1043,120.8979,0.9945136
C0UB20,壯圍,2026-01-08,24.7359,121.8163,9.935274e-07
C0R790,九棚,2026-01-08,22.14195,120.889281,0.99987197
C0W110,東莒,2026-01-08,25.9652,119.98069,0.99740666
C1U930,粉鳥林,2026-01-08,24.497088,121.842479,1.800267e-05
C1I211,蘆竹湳,2026-01-08,23.934019,120.811994,4.9354996e-09
C0S830,長濱,2026-01-08,23.286817,121.411975,8.459692e-08
C1F9F1,伯公龍,2026-01-08,24.272392,120.849047,2.0819184e-07
C0UB90,太平山莊,2026-01-08,24.494171,121.536209,5.979286e-08
C0E810,西湖,2026-01-08,24.562947,120.7485,0.9985942
C1I440,新高口,2026-01-08,23.478744,120.878939,2.8357722e-08
C0O840,王爺宮,2026-01-08,23.222064,120.40085,8.096191e-09
C0T9G0,鳳林山,2026-01-08,23.735269,121.420131,3.575397e-08
C0X080,佳里,2026-01-08,23.173039,120.145086,0.9999109
C0FB70,大甲溪埔,2026-01-08,24.370625,120.620067,0.99985784
C0Z310,清水斷崖,2026-01-08,24.218294,121.689142,0.0011483245
C0M680,太保,2026-01-08,23.455062,120.331455,0.99900454
C1S820,金峰,2026-01-08,22.590969,120.933236,0.99894834
C0AD10,八里,2026-01-08,25.150211,121.403947,0.9987552
C2K240,草嶺,2026-01-08,23.59555,120.693461,6.3130092e-09
C1SA70,都蘭,2026-01-08,22.87794,121.226881,0.00016418452
C0K440,二崙,2026-01-08,23.772797,120.408944,2.2885944e-08
C1A760,坪林交控,2026-01-08,24.94284,121.713442,3.0450412e-06
C0F9N0,大里,2026-01-08,24.092464,120.701378,5.946588e-08
C0SA90,達仁林場,2026-01-08,22.264347,120.823972,2.831281e-08
C1R290,石門山,2026-01-08,22.112611,120.756597,0.9999757
42HA10,萬大發電廠,2026-01-08,23.978875,121.139639,7.0364403e-09
C0R890,山海,2026-01-08,21.9878,120.7091,0.9993534
C0T9A0,月眉山,2026-01-08,23.809928,121.539828,3.7694925e-08
C0AC70,信義,2026-01-08,25.037822,121.564597,7.272787e-06
C0K560,棋山,2026-01-08,23.68645,120.603417,8.963991e-09
C2FB50,出雲,2026-01-08,24.206469,120.902794,1.0624819e-08
C1Z240,中平林道,2026-01-08,23.42115,121.26763,3.0721544e-08
U2H480,溪頭,2026-01-08,23.670306,120.798194,6.801532e-09
C0M880,好美里,2026-01-08,23.3364,120.138,0.9999109
C0T9E0,大坑,2026-01-08,23.880628,121.581981,5.777697e-08
C0K530,臺西,2026-01-08,23.701547,120.197559,0.9992581
C1E900,國一N128K,2026-01-08,24.560997,120.844186,0.9974195
C0AJ50,水湳洞,2026-01-08,25.123695,121.862238,9.3830145e-05
C0AI20,白沙灣,2026-01-08,25.283128,121.519058,0.9984883
C2V310,美濃,2026-01-08,22.898792,120.51907,3.060993e-05
C0A860,大坪,2026-01-08,25.165914,121.632969,5.1705274e-07
C1U850,觀音海岸,2026-01-08,24.38319,121.77856,1.04163405e-07
C2K610,草嶺石壁,2026-01-08,23.602469,120.707731,6.5651795e-09
C0U950,鶯子嶺,2026-01-08,24.89754,121.79244,1.3760078e-07
C0O900,善化,2026-01-08,23.112883,120.297219,0.99991065
C0K550,蔦松,2026-01-08,23.514319,120.229736,0.9993213
E2P980,林試六龜中心,2026-01-08,22.991703,120.645722,1.7164599e-08
C0E590,通霄,2026-01-08,24.471892,120.704622,0.9982266
C1I310,西巒,2026-01-08,23.754486,120.883956,8.501048e-09
C0A550,泰平,2026-01-08,24.971197,121.823711,6.2211626e-07
C0I360,水里,2026-01-08,23.812553,120.849792,3.6268952e-09
C0R830,高士,2026-01-08,22.121825,120.836781,0.999972
C1I101,溪頭,2026-01-08,23.661789,120.807647,1.2791924e-08
C0AJ20,野柳,2026-01-08,25.20703,121.690021,0.9986296
C0B060,暖暖,2026-01-08,25.0957,121.7403,2.6069636e-05
C1H920,長豐,2026-01-08,24.102039,120.879897,5.5238925e-09
C2S9B0,利吉,2026-01-08,22.86246,121.15486,1.0087958e-05
C0V360,內門,2026-01-08,22.975481,120.466769,2.5085205e-06
C0R850,林邊,2026-01-08,22.4634,120.5339,0.9796388
C0E930,龍鳳,2026-01-08,24.700034,120.859125,0.99444413
C0U910,冬山,2026-01-08,24.63373,121.7937,9.87885e-07
C1E721,泰安,2026-01-08,24.489017,120.968036,3.338203e-08
82H320,茶改中部分場,2026-01-08,23.875611,120.913583,6.0352434e-09
C0M750,布袋,2026-01-08,23.380878,120.167789,0.99934894
C1S860,利嘉,2026-01-08,22.809417,121.050528,1.2148732e-06
E2S980,林試太麻里1,2026-01-08,22.598922,120.980044,0.9996267
C0X170,關廟,2026-01-08,22.963017,120.327797,0.99985695
C0V720,林園,2026-01-08,22.507747,120.394511,0.9793345
C1I510,線浸林道,2026-01-08,23.761508,120.832956,7.1392643e-09
C0D690,外湖,2026-01-08,24.917735,120.968711,0.99444413
C0C750,新興坑尾,2026-01-08,25.0061,121.0971,0.89611006
B2Q810,畜試南區分所,2026-01-08,21.945583,120.802167,0.9994811
C0S790,金崙,2026-01-08,22.538122,120.966875,0.997814
C0AH90,福山植物園,2026-01-08,24.760717,121.58135,1.3754187e-07
C0I540,奇萊稜線,2026-01-08,24.109231,121.326456,4.724784e-08
C0M850,表湖,2026-01-08,23.24186,120.64166,4.7536988e-09
C0S770,大溪山,2026-01-08,22.478475,120.943325,0.1956793
C0AG80,中和,2026-01-08,24.991622,121.491792,7.0687197e-06
C0T790,大禹嶺,2026-01-08,24.186117,121.316086,3.8007457e-08
C0T9B0,水源,2026-01-08,23.991861,121.537169,4.8849937e-08
C0R840,牡丹池山,2026-01-08,22.168389,120.841225,2.9878176e-08
C1I131,桶頭,2026-01-08,23.641944,120.654117,3.4982715e-09
CAL110,布袋國中,2026-01-08,23.35893,120.18026,0.9999111
C2M9D0,何竹子腳,2026-01-08,23.53641,120.38203,2.2288607e-08
467571,新竹,2026-01-08,24.827853,121.014219,0.9700353
C0Z290,赤柯山,2026-01-08,23.36893,121.38293,3.4750904e-08
C0X280,將軍,2026-01-08,23.214999,120.13577,0.99991065
C0S690,太麻里,2026-01-08,22.60902,120.98533,5.1239324e-05
C0U880,北關,2026-01-08,24.9072,121.8734,0.0001162409
CAW010,東引,2026-01-08,26.3588,120.4836,0.99708325
C0G810,埔心,2026-01-08,23.947633,120.525456,0.9706964
C0U970,大福,2026-01-08,24.80064,121.81389,1.0250934e-06
C2H9N0,仁愛東眼,2026-01-08,24.026875,121.1205,1.0561699e-08
C1E670,南礦,2026-01-08,24.538278,121.002836,3.296563e-08
C0M520,東後寮,2026-01-08,23.369908,120.248065,0.9999011
C1E461,松安,2026-01-08,24.397972,120.986022,3.3014395e-08
C2N160,西拉雅風管處,2026-01-08,23.189481,120.335297,0.9998574
C2M970,碧湖,2026-01-08,23.568632,120.624165,4.4684385e-09
C0A640,石碇,2026-01-08,24.993969,121.662917,3.0039487e-06
E2S960,林試太麻里2,2026-01-08,22.598,120.99775,0.99968785
C0F9Y0,桃山,2026-01-08,24.432739,121.303808,6.509633e-08
C1I020,萬大,2026-01-08,23.979817,121.132261,8.026294e-09
C2UC20,長嶺,2026-01-08,24.70894,121.61162,1.9985214e-07
C0U940,羅東,2026-01-08,24.68184,121.74934,9.0715423e-07
C0M650,朴子,2026-01-08,23.43463,120.23902,0.9992171
C1I500,大尖山,2026-01-08,23.858572,120.994889,1.8743954e-08
C0FB40,中橫21.6k,2026-01-08,24.2499,121.1455,1.2784704e-08
C0G820,田尾,2026-01-08,23.901669,120.509389,0.968855
E2K600,四湖植物園,2026-01-08,23.676986,120.163433,0.9991519
C0S730,綠島,2026-01-08,22.6672,121.47533,0.9995977
12Q970,東港工作站,2026-01-08,22.479997,120.466058,0.98447585
C1TA00,太魯閣,2026-01-08,24.15773,121.6236,2.372602e-06
466920,臺北,2026-01-08,25.037658,121.514853,7.694575e-06
C0R600,舊泰武,2026-01-08,22.588194,120.664944,1.5962101e-08
C1I260,北坑,2026-01-08,23.9246,121.006903,5.318896e-09
466910,鞍部,2026-01-08,25.182586,121.529731,1.1711267e-06
C1I230,九份二山,2026-01-08,23.961944,120.845,5.35149e-09
C2M810,里佳,2026-01-08,23.389125,120.716647,7.999991e-09
C2A660,瑞芳,2026-01-08,25.113169,121.801147,1.5990774e-05
C0R270,琉球嶼,2026-01-08,22.332244,120.362236,0.5935711
C2V580,瑞山,2026-01-08,22.90304,120.43424,1.4413662e-06
C1T990,高寮,2026-01-08,23.394239,121.356808,1.61377e-07
C0G620,芬園,2026-01-08,24.015678,120.6213,0.4287221
C1Z140,荖溪,2026-01-08,23.890575,121.45964,4.1004405e-08
C1I201,中心崙,2026-01-08,23.728722,120.712097,3.8045513e-09
C1I400,凌霄,2026-01-08,24.018778,121.004456,1.0360342e-08
C1M640,十字,2026-01-08,23.492153,120.753683,1.00702815e-08
G2P820,農試鳳山分所,2026-01-08,22.646611,120.356083,0.9999227
C0Z270,蕃薯寮,2026-01-08,23.73835,121.540108,4.3318206e-08
C2E420,竹南,2026-01-08,24.70898,120.88897,0.97037834
C0FB10,出雲山苗圃,2026-01-08,24.23105,120.90475,1.0054486e-08
C0F9Q0,外埔,2026-01-08,24.347817,120.705686,0.00020757609
C0K580,高鐵雲林,2026-01-08,23.737456,120.417944,2.2885944e-08
C2I090,鳳凰,2026-01-08,23.728081,120.787347,4.8786504e-09
C0U990,員山,2026-01-08,24.74435,121.72247,9.260983e-07
C0V770,大社,2026-01-08,22.730306,120.346639,0.9999289
C0X120,麻豆,2026-01-08,23.183289,120.248611,0.99990034
C0C670,龍潭,2026-01-08,24.870056,121.221389,9.879886e-07
C0D680,香山濕地,2026-01-08,24.783581,120.914988,0.99413747
C0S980,勝林山,2026-01-08,22.430439,120.8938,2.682174e-07
C0V730,大寮,2026-01-08,22.605614,120.395717,0.94175845
C0R570,麟洛,2026-01-08,22.65078,120.52719,9.428254e-05
C2M930,石卓,2026-01-08,23.478744,120.702264,9.894585e-09
C0G9B0,和美,2026-01-08,24.105169,120.492131,0.9837118
CAG100,王功漁港,2026-01-08,23.96824,120.32586,0.98991215
C0X290,北門,2026-01-08,23.267772,120.125481,0.9999111
C2F930,大甲,2026-01-08,24.347667,120.640403,0.0016597813
C0D650,湖口,2026-01-08,24.904794,121.043628,0.3704509
C0U780,五結,2026-01-08,24.68637,121.79794,9.87885e-07
C1I250,鯉潭,2026-01-08,23.961922,120.991131,5.5238925e-09
C0R130,阿禮,2026-01-08,22.742908,120.743678,6.2965704e-09
C0X100,臺南市北區,2026-01-08,23.010394,120.194228,0.999913
C0S920,金峰嘉蘭,2026-01-08,22.594789,120.960825,0.99962664
C0V490,新興,2026-01-08,22.627422,120.298803,0.99993354
C0F9K0,大安,2026-01-08,24.345061,120.588025,0.9998611
467290,古坑,2026-01-08,23.633639,120.551889,1.0383488e-08
C2E970,八甲,2026-01-08,24.535811,120.795983,0.85661685
C0V440,鳳山,2026-01-08,22.646653,120.356122,0.9999227
C1T940,大觀,2026-01-08,23.714206,121.373133,3.7375692e-08
C0E740,造橋,2026-01-08,24.637056,120.864778,0.99914306
C0R100,尾寮山,2026-01-08,22.833111,120.683889,6.2961982e-09
A2K630,臺大雲林校區,2026-01-08,23.730628,120.423903,2.226753e-08
467990,馬祖,2026-01-08,26.169467,119.923158,0.5514262
C0D580,寶山,2026-01-08,24.735006,121.025192,0.030697
E2P990,林試扇平站,2026-01-08,22.9677,120.6857,4.761966e-09
C0AI30,三重,2026-01-08,25.057328,121.500629,8.195236e-06
C0AH00,汐止,2026-01-08,25.066881,121.658778,0.000102819555
C1Z040,立山,2026-01-08,23.443356,121.327375,5.068441e-08
466881,新北,2026-01-08,24.959207,121.525196,6.196387e-06
C0W130,花嶼,2026-01-08,23.40007,119.32276,0.99915576
C0A950,鼻頭角,2026-01-08,25.129036,121.923372,0.000115067276
C0K470,林內,2026-01-08,23.748675,120.609642,1.0924392e-08
C2F990,摩天嶺,2026-01-08,24.322458,120.936819,1.0186189e-08
C2E430,南庄,2026-01-08,24.601775,121.000214,0.0021473733
82C160,茶改場,2026-01-08,24.908472,121.185333,0.01179805
C2TB60,南安,2026-01-08,23.29818,121.26157,9.876054e-08
C0Z320,清水林道,2026-01-08,23.27125,121.188272,3.9889784e-08
C0R760,南仁湖,2026-01-08,22.084681,120.863353,0.9999757
C0M670,大林,2026-01-08,23.600616,120.45841,1.6216713e-08
C0M800,茶山,2026-01-08,23.299075,120.664767,2.7374683e-09
C0A9C0,天母,2026-01-08,25.117494,121.537169,7.0687197e-06
72K220,南改斗南分場,2026-01-08,23.634556,120.477333,1.7856156e-08
72AI40,桃改樹林分場,2026-01-08,24.944503,121.386972,6.4257815e-06
C0S910,蘭嶼燈塔,2026-01-08,22.081197,121.503117,0.98919123
C0B050,八斗子,2026-01-08,25.144754,121.79167,0.0001461891
C0U900,內城,2026-01-08,24.71813,121.68766,7.439723e-07
C0X320,柳營,2026-01-08,23.253328,120.375253,3.51761e-08
C0M790,新港,2026-01-08,23.553269,120.345728,0.99916625
C0F9T0,西屯,2026-01-08,24.179494,120.641275,0.0016597797
C0E950,松安,2026-01-08,24.39792,120.98599,3.3014395e-08
C0SA30,都歷,2026-01-08,23.020333,121.323642,8.66976e-05
C0C620,蘆竹,2026-01-08,25.084275,121.265767,0.9834852
C0R730,大坪頂,2026-01-08,22.024633,120.69355,0.99994546
C0AJ40,石門,2026-01-08,25.273672,121.601198,0.90591663
C0E750,苗栗,2026-01-08,24.564569,120.824575,0.99778247
C0T870,鯉魚潭,2026-01-08,23.935639,121.508944,5.983519e-08
C1V170,排雲,2026-01-08,23.463619,120.954147,5.4453963e-08
C2H950,中寮,2026-01-08,23.884447,120.766406,1.32560585e-08
C0R350,貓鼻頭,2026-01-08,21.921774,120.7358,0.99965775
C0V660,岡山,2026-01-08,22.797078,120.294958,0.99993354
C1H941,雙冬,2026-01-08,23.967378,120.802189,4.851388e-09
C0AJ70,田寮,2026-01-08,25.2698,121.4886,0.9986364
C0AI00,五股,2026-01-08,25.07445,121.42728,1.5945096e-06
C0Z280,德武,2026-01-08,23.47426,121.41071,5.433403e-08
C2RA10,大新,2026-01-08,22.67558,120.57788,2.5228017e-05
C0R700,枋山,2026-01-08,22.246844,120.661086,0.99994624
C0C460,復興,2026-01-08,24.820208,121.352281,2.794198e-07
C2K300,鹿南,2026-01-08,23.63855,120.3636,0.9991369
E2H360,蓮華池,2026-01-08,23.918333,120.885278,5.4407012e-09
C0M640,中埔,2026-01-08,23.42538,120.5229,5.6927973e-09
C0W140,金沙,2026-01-08,24.488292,118.408778,0.40866265
C2A540,四堵,2026-01-08,24.8926,121.745736,9.34928e-07
C0ACA0,新莊,2026-01-08,25.051478,121.446756,8.016045e-06
C0R220,潮州,2026-01-08,22.534361,120.54,0.9656742
U2HA40,臺大內茅埔,2026-01-08,23.689722,120.851117,3.5163872e-09
467490,臺中,2026-01-08,24.145736,120.684075,0.0019325635
C0UB60,明池,2026-01-08,24.650688,121.475277,9.438565e-08
C0U960,翠峰湖,2026-01-08,24.510856,121.608044,5.918503e-08
E2HA20,林試畢祿溪站,2026-01-08,24.226944,121.308522,2.586875e-08
C2M9A0,大華,2026-01-08,23.4824,120.67491,5.8260308e-09
C0V890,前鎮,2026-01-08,22.5718,120.3117,0.99993384
C1F941,雪嶺,2026-01-08,24.280586,121.026642,3.3690213e-08
C2H9E0,國姓南港,2026-01-08,23.911108,120.846556,7.962542e-09
C0AC80,文山,2026-01-08,25.00235,121.575728,4.6991754e-06
C0F9R0,龍井,2026-01-08,24.184536,120.528972,0.99986756
C0M760,民雄,2026-01-08,23.551754,120.428457,1.8187615e-08
C0UA40,西德山,2026-01-08,24.560647,121.752608,6.940314e-08
C2TA70,赤科坪,2026-01-08,23.39885,121.39168,3.5469508e-08
C1T920,中興,2026-01-08,23.769503,121.498653,7.359559e-08
C0D550,雪霸,2026-01-08,24.526972,121.11605,3.6507725e-08
C2F860,梨山,2026-01-08,24.247522,121.243669,2.6354174e-08
C0R320,車城,2026-01-08,22.0744,120.716247,0.9993571
C1S870,南美山,2026-01-08,23.15025,121.382333,1.8285846e-06
C0B020,基隆嶼,2026-01-08,25.19141,121.78391,8.370427e-05
C1U501,牛鬥,2026-01-08,24.637836,121.573656,3.2939332e-07
C0M730,嘉義市東區,2026-01-08,23.457673,120.460531,1.7460593e-08
C2R990,泰武,2026-01-08,22.60686,120.69765,1.3934584e-08
C0S700,知本,2026-01-08,22.684866,121.005642,1.4179511e-06
C1N001,沙崙,2026-01-08,22.935472,120.309406,0.99988556
C0V760,橋頭,2026-01-08,22.757806,120.30575,0.99993354
C0G960,福寶,2026-01-08,24.0443,120.3814,0.99000734
C0X210,白河,2026-01-08,23.347466,120.414427,3.163213e-08
C0S810,東河,2026-01-08,22.972672,121.303986,0.00032636203
C2R170,屏東,2026-01-08,22.66027,120.49403,0.000101536556
C0R670,楓港,2026-01-08,22.190131,120.692156,0.9999459
C0FA50,霧峰,2026-01-08,24.0419,120.6995,4.3611514e-08
C0UB10,蘇澳,2026-01-08,24.5969,121.8571,1.7549926e-05
C0G950,防潮門,2026-01-08,24.1835,120.4871,0.9998737
C0M740,六腳,2026-01-08,23.492871,120.290625,0.9992104
C1R250,力里,2026-01-08,22.428117,120.629228,4.989952e-06
C0K330,虎尾,2026-01-08,23.719183,120.442036,2.0043348e-08
C2FA00,烏石坑,2026-01-08,24.273503,120.947617,1.0225101e-08
C0V620,永安,2026-01-08,22.82315,120.236856,0.99993384
C1I330,楓樹林,2026-01-08,23.986803,121.076117,8.921775e-09
C0W200,湖西,2026-01-08,23.596314,119.67275,0.99922407
72Q010,高雄農改場,2026-01-08,22.709333,120.525889,5.4349144e-05
C0SA40,瑞和,2026-01-08,22.974361,121.156697,4.1182393e-06
C0C680,龜山,2026-01-08,25.02846,121.38656,1.0437934e-06
C2V260,月眉,2026-01-08,22.971003,120.539853,7.908704e-07
C0V450,鳳森,2026-01-08,22.545064,120.392592,0.6926522
C0FA90,小雪山林道,2026-01-08,24.29515,121.03651,4.094056e-08
C0U720,南山,2026-01-08,24.43742,121.38167,5.6100067e-08
A2N290,臺南蘭花園區,2026-01-08,23.340258,120.379661,3.9177607e-08
C0R560,新園,2026-01-08,22.5434,120.461558,0.9793345
C0U890,三星,2026-01-08,24.66812,121.65302,5.3316927e-07
C1V300,御油山,2026-01-08,23.001983,120.715364,1.0763911e-08
C0U600,礁溪,2026-01-08,24.817539,121.765608,8.709129e-07
C1T980,龍澗,2026-01-08,24.023289,121.411328,4.1634088e-08
C0D670,海天一線,2026-01-08,24.831986,120.914438,0.99444413
C0SA00,歷坵,2026-01-08,22.520969,120.89185,0.001947756
C0M710,東石,2026-01-08,23.458927,120.15385,0.99932736
C0M780,鹿草,2026-01-08,23.41134,120.30835,0.9989982
C0U520,雙連埤,2026-01-08,24.753033,121.641303,1.2676982e-07
C0B010,七堵,2026-01-08,25.094819,121.71713,6.454818e-05
C0R480,長治,2026-01-08,22.693128,120.542622,3.173387e-05
C1V830,國三S383K,2026-01-08,22.781967,120.426475,1.3949045e-06
12Q980,恆春工作站,2026-01-08,22.079678,120.714425,0.9993599
C1O940,東山服務區,2026-01-08,23.286016,120.398472,3.1452963e-08
C1U840,東澳嶺,2026-01-08,24.5378,121.8485,8.769716e-08
C1D630,飛鳳山,2026-01-08,24.766464,121.119178,1.719254e-05
C0S940,石寧山,2026-01-08,23.223772,121.406639,0.9996722
C0K410,北港,2026-01-08,23.573957,120.292802,0.9991909
C2M620,瑞里,2026-01-08,23.545133,120.675197,7.1906623e-09
C0SB70,小港漁港,2026-01-08,23.158558,121.400431,0.9998123
C2O950,安南,2026-01-08,23.076694,120.144861,0.9999198
C0F0E0,南湖圈谷,2026-01-08,24.363714,121.444667,7.602407e-08
467610,成功,2026-01-08,23.097486,121.373428,0.00061296986
C0G890,伸港,2026-01-08,24.148933,120.484403,0.99986756
C2E540,龍溪,2026-01-08,24.606489,120.783933,0.9992338
C1V200,梅山,2026-01-08,23.268447,120.823556,5.017508e-09
C0T9H0,加路蘭山,2026-01-08,23.682947,121.5274,3.4950453e-08
C2O930,玉井,2026-01-08,23.126042,120.46055,2.3395623e-08
C1F911,新伯公,2026-01-08,24.221361,120.841069,5.109855e-07
C0R490,九如,2026-01-08,22.7405,120.490503,6.5347005e-05
C0X200,左鎮,2026-01-08,23.056758,120.408522,1.8150942e-05
C2TB50,麻汝,2026-01-08,23.42554,121.39358,4.9051046e-08
C0FA60,鞍馬山工作站,2026-01-08,24.267064,121.000793,2.6665997e-08
C0SB50,叭嗡嗡,2026-01-08,23.047062,121.343223,0.0025167167
C1F891,稍來,2026-01-08,24.265689,121.001142,2.5995025e-08
C2M9C0,紫雲,2026-01-08,23.494914,120.540253,7.710027e-09
72N240,七股研究中心,2026-01-08,23.081672,120.062894,0.99992186
C0C700,中壢,2026-01-08,24.977661,121.256375,0.16232212
C0M690,水上,2026-01-08,23.419734,120.388909,1.8527594e-08
C0V690,鼓山,2026-01-08,22.623325,120.275575,0.99993354
C0O860,大內,2026-01-08,23.11885,120.36083,0.999887
C0Z200,萬榮,2026-01-08,23.709219,121.420106,5.991924e-08
C0T9D0,和中,2026-01-08,24.26676,121.74103,0.013436021
C2S9A0,北份子寮,2026-01-08,22.78561,121.07813,0.97260594
C1O921,楠西,2026-01-08,23.183511,120.484083,1.601834e-08
C0AJ30,淡水觀海,2026-01-08,25.184591,121.408616,0.9989038
C0V810,左營,2026-01-08,22.67491,120.28491,0.9999301
C0UA70,桃源谷,2026-01-08,24.962606,121.888875,3.604488e-07
C0X130,官田,2026-01-08,23.193217,120.315422,0.9998727
C1H000,翠峰,2026-01-08,24.109397,121.205211,2.7869023e-08
C0UA90,石城,2026-01-08,24.980444,121.951214,7.9429505e-05
C1E681,南勢山,2026-01-08,24.421669,120.923831,3.625113e-08
C0A9F0,內湖,2026-01-08,25.079422,121.57545,7.694575e-06
C0K291,宜梧,2026-01-08,23.536281,120.169329,0.99934894
C1K540,口湖,2026-01-08,23.585344,120.180517,0.99933183
C0R780,滿州,2026-01-08,22.024403,120.839892,0.9997014
C0V870,文安,2026-01-08,22.8025,120.2164,0.9999377
C0U650,玉蘭,2026-01-08,24.675286,121.587061,1.9544555e-07
C0R640,東港,2026-01-08,22.46247,120.44074,0.9850639
C0AJ80,板橋,2026-01-08,25.0107,121.4489,7.272787e-06
C0S660,下馬,2026-01-08,23.150427,121.070312,3.6988265e-08
C2N190,烏樹,2026-01-08,23.32393,120.36989,0.99987227
C1H9B1,阿眉,2026-01-08,24.1263,120.994672,1.6922224e-08
C0UA20,多加屯,2026-01-08,24.368614,121.373189,3.5624836e-08
C0E730,頭份,2026-01-08,24.688247,120.912206,0.97462595
72V140,高改旗南分場,2026-01-08,22.857861,120.516667,3.2610737e-05
C0K480,莿桐,2026-01-08,23.761192,120.502372,1.7793802e-08
C0U980,坪林石牌,2026-01-08,24.86478,121.77396,1.1065488e-07
C0T900,西林,2026-01-08,23.8119,121.441458,5.4728016e-08
C1I150,青雲,2026-01-08,23.793361,120.949378,3.4104037e-09
C2E980,和興,2026-01-08,24.505319,120.923016,6.451046e-08
467350,澎湖,2026-01-08,23.565503,119.563094,0.9990424
C0G800,埔鹽,2026-01-08,24.000394,120.431683,0.9838547
C0H960,草屯,2026-01-08,23.973672,120.68085,3.1225223e-08
C1V780,多納林道,2026-01-08,22.888028,120.737917,6.17277e-09
C0E920,通霄漁港,2026-01-08,24.498589,120.673876,0.999473
C0Z330,安通山,2026-01-08,23.290728,121.348528,4.9974055e-08
C0AH10,永和,2026-01-08,25.01125,121.508111,7.737417e-06
C0AK10,太平里,2026-01-08,25.134937,121.364899,0.9986364
C2G640,鹿港,2026-01-08,24.0753,120.430481,0.98972464
C1E890,國三N149K,2026-01-08,24.463414,120.680019,0.9970459
C1R110,口社,2026-01-08,22.770111,120.645222,1.0804184e-06
C1M870,國三N285K,2026-01-08,23.550319,120.505833,6.619675e-09
C1E480,鳳美,2026-01-08,24.554803,121.034747,7.8013e-08
C0T9M0,靜浦,2026-01-08,23.455167,121.495028,7.229322e-08
C2H9M0,發祥,2026-01-08,24.154094,121.164517,1.2136193e-08
C2G9C0,埔南,2026-01-08,23.99124,120.46969,0.9834429
C0AI40,石牌,2026-01-08,25.115597,121.513139,7.694575e-06
C1F871,上谷關,2026-01-08,24.203483,121.018644,1.0209218e-08
C2H9G0,百勝,2026-01-08,24.051142,120.909361,5.4615263e-09
C0G880,二水,2026-01-08,23.810742,120.6173,1.1069685e-08
C0R940,加祿堂,2026-01-08,22.3363,120.6217,0.9791722
C0W220,北竿,2026-01-08,26.220358,119.974881,0.85953236
C0O960,崎頂,2026-01-08,22.959547,120.369317,0.99947035
C0TA40,秀林,2026-01-08,24.302864,121.731144,7.7418306e-08
C0S750,向陽,2026-01-08,23.248397,120.986133,2.8760866e-08
C0T9F0,水璉,2026-01-08,23.797131,121.542514,4.6760398e-08
C1M600,頭凍,2026-01-08,23.406364,120.603339,4.12962e-09
467660,臺東,2026-01-08,22.752211,121.154586,0.9998222
C1D380,新埔,2026-01-08,24.84745,121.03834,0.2652836
C2G980,田頭村,2026-01-08,23.8263,120.444175,2.2977883e-08
C0V750,路竹,2026-01-08,22.854997,120.259439,0.9999281
C0N050,蚵寮,2026-01-08,23.301,120.1104,0.9999111
C2X060,下營,2026-01-08,23.226806,120.256291,0.99991065
72M700,南改鹿草分場,2026-01-08,23.416869,120.283061,0.99920774
C1SA50,利嘉林道,2026-01-08,22.82325,121.009389,3.749143e-08
C0UB70,太平山中間站,2026-01-08,24.542003,121.513453,6.012118e-08
C0A940,金山,2026-01-08,25.223628,121.643967,0.9979116
C1V340,大津,2026-01-08,22.888322,120.645986,3.5460855e-07
C0W180,七美,2026-01-08,23.219333,119.444892,0.9995082
C1F9C1,白冷,2026-01-08,24.182844,120.929889,9.905065e-09
K2E710,苗改生物防治研究中心,2026-01-08,24.422861,120.871833,0.027465107
C0N040,蘆竹溝,2026-01-08,23.2344,120.0961,0.9999113
C0TB40,崇德,2026-01-08,24.166144,121.657414,0.013436021
C0D760,大坪苗圃,2026-01-08,24.5362,121.1108,3.3276187e-08
C2W230,畜試所澎湖,2026-01-08,23.628342,119.513206,0.9984715
C0R880,後壁湖,2026-01-08,21.9457,120.7457,0.99919724
C1I280,埔中,2026-01-08,23.820778,120.642594,3.4073997e-09
467790,墾丁雷達站,2026-01-08,21.948235,120.808028,0.99975616
C0W190,望安,2026-01-08,23.380564,119.494075,0.9989413
C0Z170,卓溪,2026-01-08,23.3443,121.3029,1.09424555e-07
C0F850,東勢,2026-01-08,24.246428,120.833047,8.3512094e-07
466900,淡水,2026-01-08,25.164889,121.448906,0.9986296
C0I370,魚池,2026-01-08,23.895703,120.94135,5.432903e-09
C0C630,大溪,2026-01-08,24.882853,121.265547,0.0147052165
C0A520,山佳,2026-01-08,24.974944,121.402008,6.4395967e-06
C0I110,竹山,2026-01-08,23.761225,120.688156,4.580027e-09
82H840,茶改南部分場,2026-01-08,23.762528,120.7405,3.3859748e-09
C2SD80,再來山,2026-01-08,23.34371,121.44122,0.9992667
C0G660,溪湖,2026-01-08,23.94835,120.479122,0.9786622
C1T800,洛韶,2026-01-08,24.204558,121.453956,3.307856e-08
C1T810,慈恩,2026-01-08,24.192044,121.388386,4.33149e-08
C1E451,象鼻,2026-01-08,24.368617,120.940228,1.0044806e-08
C0AC60,三峽,2026-01-08,24.939025,121.369728,0.95054924
C0I490,萬大林道,2026-01-08,23.928228,121.091411,1.235881e-08
C1I290,豐丘,2026-01-08,23.668178,120.887417,9.72366e-09
C1I320,奧萬大,2026-01-08,23.952956,121.178556,1.0733282e-08
C2M910,嘉義大學,2026-01-08,23.471325,120.485903,1.142127e-08
C0U770,南澳,2026-01-08,24.44935,121.81022,1.7205744e-05
C2TB30,吉安,2026-01-08,23.94538,121.54803,7.155586e-08
C0A980,社子,2026-01-08,25.109508,121.469681,8.581096e-06
C0V800,六龜,2026-01-08,22.997889,120.633583,1.991356e-08
C1G9D0,國一S218K,2026-01-08,23.890641,120.493253,0.970421
C0E570,白沙屯,2026-01-08,24.549447,120.696803,0.99947786
C2F9A0,中竹林,2026-01-08,24.103556,120.751061,5.5472262e-09
C0FA40,臺中電廠,2026-01-08,24.2146,120.4907,0.99986756
C2G9A0,畜試所彰化,2026-01-08,23.86045,120.557964,1.7750516e-08
C0H9C0,合歡山,2026-01-08,24.143442,121.272547,5.1650268e-08
G2M350,農試溪口農場,2026-01-08,23.58565,120.408111,2.2430022e-08
C0U860,頭城,2026-01-08,24.85323,121.8308,9.833084e-07
C0R580,南州,2026-01-08,22.48591,120.50274,0.9850639
C0D430,峨眉,2026-01-08,24.6905,121.017189,0.19579828
C0G780,秀水,2026-01-08,24.03405,120.503869,0.9823518
72N100,臺南農改場,2026-01-08,23.0605,120.342194,0.99987495
C0S900,蘭嶼高中,2026-01-08,22.04909,121.51214,0.989242
C2TA60,六十石,2026-01-08,23.22477,121.31861,3.4858715e-08
C1F9W0,德基,2026-01-08,24.254783,121.190261,2.2162617e-08
C2M980,安和,2026-01-08,23.51377,120.31593,0.9990252
C1Z120,壽豐,2026-01-08,23.870853,121.508081,8.108233e-08
C0W160,烏坵,2026-01-08,24.9944,119.44956,0.9972005
C1I240,外大坪,2026-01-08,23.958697,120.917931,5.615228e-09
C1I550,國六W023K,2026-01-08,23.979067,120.867742,6.023433e-09
C0R870,興海,2026-01-08,21.9752,120.8439,0.9994826
C0R140,瑪家,2026-01-08,22.682903,120.686639,5.157464e-09
C0A530,坪林,2026-01-08,24.938183,121.70975,1.4805667e-06
C0X260,後壁,2026-01-08,23.366358,120.362326,0.9998593
C0Z230,和平,2026-01-08,24.30717,121.77007,1.5593352e-05
C0G770,福興,2026-01-08,24.041289,120.437669,0.9885582
C0H9A0,神木村,2026-01-08,23.532742,120.843667,1.0325385e-08
C0I460,南投,2026-01-08,23.911469,120.687331,3.4775702e-08
C0I480,梅峰,2026-01-08,24.085272,121.173572,2.2544972e-08
C1V570,吉東,2026-01-08,22.85422,120.5454,1.353506e-05
C2A560,福山,2026-01-08,24.776203,121.502811,2.0909977e-07
C0AH30,五分山,2026-01-08,25.07125,121.780794,2.0049089e-07
C0FA10,松柏,2026-01-08,24.429115,120.617482,0.999473
72S200,東改班鳩分場,2026-01-08,22.829528,121.077694,0.0038768824
72HA00,中改埔里分場,2026-01-08,23.903208,120.963364,5.376628e-09
C2H9W0,大坪頂農水,2026-01-08,24.043122,120.932781,5.564637e-09
C0C650,平鎮,2026-01-08,24.897503,121.214636,0.011653242
C0S930,延平,2026-01-08,22.902581,121.084058,1.8518939e-06
C0UA60,樟樹山,2026-01-08,24.41393,121.78325,1.2987724e-07
C2UC10,出水溪,2026-01-08,24.615822,121.652253,1.2987724e-07
C1S670,摩天,2026-01-08,23.199503,121.027,1.6978706e-08
C2C590,觀音,2026-01-08,25.027072,121.153317,0.81202596
C0V630,茄萣,2026-01-08,22.906642,120.182608,0.99991226
466940,基隆,2026-01-08,25.133314,121.740475,0.00012247436
C0X050,東河,2026-01-08,23.296598,120.385608,3.51761e-08
C0R770,保力,2026-01-08,22.071122,120.764111,0.9998215
G2L020,農試嘉義分所,2026-01-08,23.485028,120.473806,1.002578e-08
C0X240,關子嶺,2026-01-08,23.331169,120.508025,2.879461e-09
C0I380,集集,2026-01-08,23.828206,120.801467,3.7062537e-09
466990,花蓮,2026-01-08,23.975128,121.613275,1.7966319e-07
C1V220,小關山,2026-01-08,23.154217,120.813603,1.2907581e-08
C1F9G1,慶福山,2026-01-08,24.180853,120.848378,3.875117e-08
C0FB20,雪山橋,2026-01-08,24.23192,120.9786,2.3182452e-08
C0Z250,瑞穗林道,2026-01-08,23.49284,121.30688,3.0674936e-08
C0D590,新豐,2026-01-08,24.87068,120.97721,0.030697
C0A870,五指山,2026-01-08,25.132153,121.608692,3.999094e-06
C0UA50,西帽山,2026-01-08,24.555361,121.802628,8.813196e-08
C2R980,竹田國中,2026-01-08,22.61532,120.52412,0.9617173
C0X160,仁德,2026-01-08,22.968258,120.257689,0.99990606
C1H971,六分寮,2026-01-08,23.92507,120.6378,5.3569025e-09
C0W120,西嶼,2026-01-08,23.5626,119.468436,0.9990486
C0G650,員林,2026-01-08,23.946503,120.585597,0.96612495
C0AD50,鶯歌,2026-01-08,24.951533,121.346294,0.83237565
C2H9Q0,北東眼山,2026-01-08,24.120939,121.189303,2.0202863e-08
C2H9T0,名間竹圍,2026-01-08,23.859914,120.637572,3.4811785e-09
C0S990,山豬窟,2026-01-08,22.318619,120.857372,4.744389e-08
C0X190,安平,2026-01-08,22.993161,120.152181,0.9999116
C0K400,斗六,2026-01-08,23.720583,120.541127,1.6374669e-08
12J990,口湖工作站,2026-01-08,23.589978,120.180394,0.99932426
C0O830,北寮,2026-01-08,23.079561,120.495008,6.0818275e-07
C1D410,白蘭,2026-01-08,24.579364,121.079947,3.299614e-08
C0S970,加津林,2026-01-08,22.416211,120.926942,0.9996894
C0D700,關西,2026-01-08,24.7977,121.1732,2.1314106e-06
C0U750,龜山島,2026-01-08,24.841667,121.953133,1.7959432e-07
C0R810,內獅,2026-01-08,22.305064,120.642986,0.9793345
C1M390,龍美,2026-01-08,23.406728,120.654417,6.383491e-09
C2K290,崙內,2026-01-08,23.69525,120.35601,0.9991369
C2FB60,頭櫃山,2026-01-08,24.129842,120.858925,7.585255e-09
C1H840,國三N238K,2026-01-08,23.841008,120.707711,3.7006522e-09
CAQ030,崎峰國小,2026-01-08,22.42565,120.49521,0.9850639
C2E520,大湖,2026-01-08,24.414939,120.870872,0.010295728
467530,阿里山,2026-01-08,23.508208,120.813242,2.6715735e-08
C1E691,南湖,2026-01-08,24.40135,120.837533,6.5444414e-07
C0FA30,梧棲,2026-01-08,24.256003,120.523381,0.9998677
C1V231,高中,2026-01-08,23.134911,120.716711,4.7821906e-09
C0AK30,硬漢嶺,2026-01-08,25.136097,121.426372,1.3258129e-05
C0F9V0,新社,2026-01-08,24.200172,120.815806,1.364157e-07
C0H890,埔里,2026-01-08,23.972169,120.952425,5.553525e-09
C0R690,墾丁,2026-01-08,21.966756,120.810269,0.9999716
C0SD20,富山,2026-01-08,22.822383,121.190825,0.003152362
C0F0D0,審馬陣,2026-01-08,24.381675,121.4203,8.159149e-08
C2W030,金門農試所,2026-01-08,24.448431,118.451786,0.16511747
C0R820,白鷺,2026-01-08,22.454275,120.666219,2.2146898e-08
C0FB00,大雪山,2026-01-08,24.254668,121.007374,2.6824392e-08
C1V190,南天池,2026-01-08,23.27403,120.91176,3.1675597e-08
C0E940,雪見,2026-01-08,24.42595,121.01347,3.6568427e-08
K2E360,苗栗農改場,2026-01-08,24.495722,120.829111,0.9867208
CAJ050,海口故事園區,2026-01-08,23.57543,120.14121,0.99932736
C2K280,四湖,2026-01-08,23.6304,120.22717,0.999225
C2H9D0,三隻寮,2026-01-08,24.093078,120.861578,5.0994977e-09
C0O990,媽廟,2026-01-08,22.99175,120.293525,0.9998948
C0D480,打鐵坑,2026-01-08,24.849664,121.150789,9.864248e-07
C0Z220,和平林道,2026-01-08,24.343922,121.656317,1.2742836e-07
C0TA10,花蓮漁港,2026-01-08,23.995322,121.638331,0.99980086
72C440,桃園農改場,2026-01-08,24.950944,121.030583,0.9291024
C1E711,馬拉邦山,2026-01-08,24.367306,120.901656,1.0171317e-08
C0SB20,富岡,2026-01-08,22.792467,121.192669,0.9998099
C0D560,竹東,2026-01-08,24.767147,121.057881,0.035952743
C0F9U0,南屯,2026-01-08,24.137006,120.637969,0.009948054
C2SD60,明峰,2026-01-08,22.8671,121.11825,9.4602353e-07
C0M720,番路,2026-01-08,23.464657,120.554156,3.9042494e-09
C0F0A0,雪山圈谷,2026-01-08,24.388594,121.236339,7.377239e-08
C1A9N0,四十份,2026-01-08,24.934158,121.593283,4.1077016e-07
C0U760,東澳,2026-01-08,24.52196,121.83318,1.1057203e-05
C0X230,鹽水,2026-01-08,23.272621,120.247641,0.9999011
C2H9H0,苗改南投蜂場,2026-01-08,23.852589,120.693481,4.591336e-09
C2TB70,達谷寮,2026-01-08,23.38,121.35968,1.2978722e-07
C0R950,萬隆國小,2026-01-08,22.507667,120.587817,0.81655425
467540,大武,2026-01-08,22.35572,120.90374,0.9995667
C0V370,古亭坑,2026-01-08,22.893178,120.401947,6.8230584e-06
C1I340,新興橋,2026-01-08,23.563333,120.868728,5.1710174e-09
C0SA80,土坂,2026-01-08,22.453108,120.887572,0.9994632
C0R160,鹽埔,2026-01-08,22.739558,120.530778,3.4201723e-05
C0AC40,大屯山,2026-01-08,25.175675,121.522408,4.1314428e-07
466850,五分山雷達站,2026-01-08,25.071182,121.781205,1.9571489e-07
C2H9L0,馬烈霸,2026-01-08,24.1512,121.201772,2.2666043e-08
C1AI50,國三N016K,2026-01-08,25.034164,121.619664,5.2895625e-06
C2V920,匏子寮,2026-01-08,23.04905,120.55319,5.0461296e-08
C1V600,藤枝,2026-01-08,23.071961,120.757042,9.925982e-09
C1E601,南勢,2026-01-08,24.572486,120.734842,0.9861075
C0O980,新市,2026-01-08,23.061614,120.298197,0.99990606
C0K420,西螺,2026-01-08,23.800407,120.467394,1.9884222e-08
C0Z050,佳心,2026-01-08,23.34567,121.21316,3.6013503e-08
C0AD30,蘆洲,2026-01-08,25.086594,121.472331,8.049175e-06
C0V610,梓官,2026-01-08,22.760558,120.267211,0.99993354
K2F750,種苗改良場,2026-01-08,24.225972,120.800917,2.501356e-07
C0UA80,大溪漁港,2026-01-08,24.941801,121.902955,0.000102819846
C1AI60,國一39K邊坡,2026-01-08,25.064361,121.383836,1.3234242e-06
C0W150,金寧,2026-01-08,24.457703,118.328989,0.26573244
C0R960,內埔,2026-01-08,22.608483,120.570714,0.93660957
V2C250,八德合作社,2026-01-08,24.93775,121.266389,0.08074168
C2H9S0,龍南,2026-01-08,23.953536,120.833183,6.9373733e-09
C0AH40,平等,2026-01-08,25.129142,121.577086,0.00020055639
C0R540,佳冬,2026-01-08,22.419456,120.552375,0.9819852
466950,彭佳嶼,2026-01-08,25.627975,122.079744,0.9999852
C0A890,雙溪,2026-01-08,25.036003,121.864242,4.4334225e-05
C0C480,桃園,2026-01-08,24.992425,121.323172,0.42731833
C0AH50,林口,2026-01-08,25.072181,121.38084,9.3393794e-07
A2K360,水試臺西試驗場,2026-01-08,23.717231,120.190522,0.9993037
C2M960,外寮,2026-01-08,23.562643,120.665688,5.982021e-09
C0F9S0,烏日,2026-01-08,24.107058,120.624103,0.9576102
C2N180,鹿陶洋,2026-01-08,23.14325,120.48352,1.5983975e-08
C0C490,八德,2026-01-08,24.928708,121.283289,0.072345346
C0R190,赤山,2026-01-08,22.592333,120.614306,0.90699184
C0T820,天祥,2026-01-08,24.179597,121.495639,5.150978e-08
C1F9E1,龍安,2026-01-08,24.1605,120.831961,1.0771185e-07
C2SD50,順那,2026-01-08,23.04166,121.29332,1.30811695e-05
C0V820,小林,2026-01-08,23.148408,120.63325,2.7321843e-09
C2G870,芳苑,2026-01-08,23.922303,120.320025,0.9992388
C0E850,大河,2026-01-08,24.618069,120.948578,0.28203648
C1U670,寒溪,2026-01-08,24.634,121.71691,5.4193214e-07
C0N020,城西,2026-01-08,23.0568,120.0956,0.9999131
C1Z110,三棧,2026-01-08,24.11557,121.60501,4.4336502e-08
C0R280,檳榔,2026-01-08,22.076078,120.836777,0.99996924
C2H9J0,中台,2026-01-08,23.9996,120.938739,5.343942e-09
C0F9L0,后里,2026-01-08,24.310436,120.729725,1.2310672e-05
467441,高雄,2026-01-08,22.730432,120.312516,0.9999301
C0Z180,新城,2026-01-08,24.040486,121.604878,1.7062796e-07
C0D540,橫山,2026-01-08,24.71116,121.11693,0.0023247413
C1D420,太閣南,2026-01-08,24.632808,121.160575,8.1158916e-08
C1E770,公館,2026-01-08,24.526914,120.830806,0.9960555
CAN130,水試所海水繁養殖中心,2026-01-08,23.120802,120.07968,0.99992114
C1I430,翠華,2026-01-08,24.191961,121.224339,3.000805e-08
C1M400,菜瓜坪,2026-01-08,23.251928,120.576103,2.755636e-09
C0G730,二林,2026-01-08,23.903325,120.376081,0.9823518
72M360,南改義竹分場,2026-01-08,23.360694,120.279361,0.9998996
V2K620,麥寮合作社,2026-01-08,23.753836,120.294783,0.99922335
C0Z070,舞鶴,2026-01-08,23.46811,121.37407,4.962158e-08
C0B040,大武崙,2026-01-08,25.166676,121.706993,6.109187e-05
C1Z030,紅葉,2026-01-08,23.493119,121.338806,5.331036e-08
C1I050,丹大,2026-01-08,23.753747,121.141147,3.4404987e-08
C0I080,信義,2026-01-08,23.689694,120.851036,3.5163872e-09
C2TB80,庄子底,2026-01-08,23.71794,121.49438,6.87292e-08
C0D750,樂山林道6k,2026-01-08,24.49999,121.08773,4.40143e-08
C2M920,朴子農改,2026-01-08,23.469889,120.259383,0.9993007
C2A880,福隆,2026-01-08,25.017842,121.942083,0.000102819555
C0Z160,鳳林,2026-01-08,23.746114,121.453411,6.5655705e-08
C0UB80,翠峰林道6K,2026-01-08,24.49773,121.568625,6.064857e-08
C0V210,復興,2026-01-08,23.222403,120.806089,4.7830664e-09
C0H990,昆陽,2026-01-08,24.121322,121.273642,4.1578062e-08
C0R741,獅子,2026-01-08,22.202308,120.705236,0.9999216
C0S710,鹿野,2026-01-08,22.917711,121.122994,3.9984815e-07
C0I530,小奇萊,2026-01-08,24.131764,121.295717,4.5778545e-08
C0FA70,大雪山埡口,2026-01-08,24.26867,121.03062,3.339534e-08
C2K630,荷苞,2026-01-08,23.657717,120.595144,6.7666206e-09
C0Z080,富源,2026-01-08,23.587642,121.378225,4.410254e-08
C2M9E0,旺來山,2026-01-08,23.555153,120.486463,6.2090804e-09
C0SB10,美和,2026-01-08,22.682078,121.060236,0.9997456
C2K620,馬光農場,2026-01-08,23.721453,120.378864,2.479247e-08
C1I140,卡奈托灣,2026-01-08,23.754364,121.087872,1.5522724e-08
C0I520,玉山風口,2026-01-08,23.470489,120.955994,6.0590175e-08
C1G691,下水埔,2026-01-08,23.816114,120.5676,1.5368267e-08
C0X110,臺南市南區,2026-01-08,22.961189,120.188378,0.9999114
C0V680,仁武,2026-01-08,22.701083,120.347722,0.9999289
C2G840,北斗,2026-01-08,23.877586,120.514222,0.9650112
C2TB90,長橋,2026-01-08,23.6874,121.46186,6.550598e-08
C0R900,竹坑,2026-01-08,22.1385,120.7022,0.9999459
C0G860,社頭,2026-01-08,23.897647,120.5862,0.9556112
C0X150,安定,2026-01-08,23.102614,120.227839,0.99991226
C0R590,里港,2026-01-08,22.77919,120.49459,3.523941e-05
C0E610,馬都安,2026-01-08,24.451272,120.930192,4.1158376e-08
C0E550,明德,2026-01-08,24.583486,120.885411,0.9969064
C0R150,三地門,2026-01-08,22.709889,120.639944,1.3949045e-06
C0G910,花壇,2026-01-08,24.032076,120.549461,0.9706964
C1D400,鳥嘴山,2026-01-08,24.71909,121.28387,1.05847334e-07
C0K500,元長,2026-01-08,23.64981,120.315024,0.99915105
C0F0B0,石岡,2026-01-08,24.276061,120.777644,4.2931388e-06
C2V250,甲仙,2026-01-08,23.080106,120.591758,1.5114948e-08
C0SA20,金崙山,2026-01-08,22.567419,120.959667,2.865017e-07
C0V350,溪埔,2026-01-08,22.738578,120.446797,9.428254e-05
C0M660,溪口,2026-01-08,23.604131,120.403569,2.2288607e-08
C1S880,壽卡,2026-01-08,22.238911,120.858903,3.0075146e-08
72D680,桃改新埔分場,2026-01-08,24.834444,121.066111,0.3704509
