站號,站名,日期,lat,lon,BLBTSLS
C0R710,龍磐,2026-02-07,21.931672,120.838942,0.9965221
C1F9D1,白毛台,2026-02-07,24.158325,120.886933,8.364192e-09
C0G940,竹塘,2026-02-07,23.848253,120.386764,7.318977e-05
467590,恆春,2026-02-07,22.003897,120.746339,0.80560124
C1O850,環湖,2026-02-07,23.148617,120.418633,9.229146e-06
C0U710,太平山,2026-02-07,24.505486,121.525656,4.92311e-08
C0E820,獅潭,2026-02-07,24.539133,120.920042,0.000326358
C2SD70,二層坪,2026-02-07,22.94105,121.16838,1.3027969e-06
C0V880,興達,2026-02-07,22.8778,120.2127,0.99919915
C0S890,關山,2026-02-07,23.0395,121.175017,1.0700913e-06
C0SB30,新蘭,2026-02-07,22.869214,121.223228,1.7522483e-05
C2R970,屏科大,2026-02-07,22.648275,120.619247,0.87664884
C1Z130,銅門,2026-02-07,23.965694,121.492842,8.9067996e-08
C0AD40,土城,2026-02-07,24.973208,121.445169,3.1614597e-06
CAN140,六官養殖協會,2026-02-07,23.22881,120.29962,0.99979997
C0X180,山上,2026-02-07,23.0757,120.363253,0.98823607
C0F9Z0,雪山東峰,2026-02-07,24.388792,121.268675,5.0036622e-08
C1M480,獨立山,2026-02-07,23.537022,120.607797,1.483829e-09
C0X220,學甲,2026-02-07,23.230367,120.182187,0.99979997
467650,日月潭,2026-02-07,23.881325,120.90805,4.7424873e-09
A2K570,古坑(花卉中心),2026-02-07,23.633531,120.552392,1.3980622e-06
C0K600,箔子寮,2026-02-07,23.6197,120.14,0.99802023
C0G830,埤頭,2026-02-07,23.866003,120.452806,7.318977e-05
C0S950,七塊厝,2026-02-07,22.954453,121.229922,2.1441086e-07
467110,金門,2026-02-07,24.407306,118.289281,7.12317e-05
C0AH80,深坑,2026-02-07,25.002703,121.628328,1.9682159e-06
C0A970,三貂角,2026-02-07,25.007606,122.002058,1.5703731e-06
C2D730,寶山農場,2026-02-07,24.732444,120.976153,0.001023731
C0K430,褒忠,2026-02-07,23.690938,120.303634,0.8971656
467480,嘉義,2026-02-07,23.495925,120.432906,4.900452e-06
C0V400,阿公店,2026-02-07,22.804194,120.355528,0.7384319
C0E960,觀霧分站,2026-02-07,24.505781,121.113921,2.7932936e-08
467550,玉山,2026-02-07,23.48718,120.95943,5.688708e-08
C0R440,大漢山,2026-02-07,22.405264,120.753181,1.9272449e-08
C0SD30,東清國小,2026-02-07,22.057128,121.564922,0.90660125
C1F9B1,桐林,2026-02-07,24.066172,120.735194,0.012274236
C2H9U0,鳳鵬,2026-02-07,23.763919,120.788061,8.542674e-09
C0K390,土庫,2026-02-07,23.679029,120.395574,7.318977e-05
C1I450,望鄉山,2026-02-07,23.594153,120.944286,3.6840127e-08
C0E910,海埔,2026-02-07,24.648767,120.772435,0.8979672
B2E890,畜試北區分所,2026-02-07,24.527806,120.770972,0.09586524
C0R750,四林格山,2026-02-07,22.076989,120.802439,0.99971443
C0F0C0,中坑,2026-02-07,24.248517,120.903319,7.018707e-09
C1I121,大鞍,2026-02-07,23.678381,120.760017,6.548209e-09
C2G9E0,移民庄,2026-02-07,23.9784,120.40283,0.9900255
72U480,花改蘭陽分場,2026-02-07,24.686306,121.716583,2.3185841e-07
C0A770,科教館,2026-02-07,25.096356,121.516507,3.7333944e-06
C0AJ60,六塊厝,2026-02-07,25.24,121.4481,0.1624252
C0R620,墾雷,2026-02-07,21.900836,120.855269,0.88875717
467420,永康,2026-02-07,23.038386,120.2367,0.99885815
C2M530,奮起湖,2026-02-07,23.493903,120.699253,5.4615996e-09
C0I410,名間,2026-02-07,23.837053,120.701447,2.8734146e-07
A2C560,農工中心,2026-02-07,24.985917,121.239833,0.040793385
C0V740,旗山,2026-02-07,22.888614,120.483597,0.07439589
C0Z061,玉里,2026-02-07,23.3215,121.339656,2.9280204e-07
C0S840,南田,2026-02-07,22.279725,120.889208,0.9999144
C1I470,杉林溪,2026-02-07,23.639517,120.786444,8.082444e-09
C1X040,東原,2026-02-07,23.291597,120.463822,2.3832138e-08
C0R660,枋寮,2026-02-07,22.367722,120.590647,0.99259895
C1R120,上德文,2026-02-07,22.763272,120.704442,4.0909627e-09
C0K450,大埤,2026-02-07,23.646074,120.431537,4.6517234e-05
C0UA00,土場,2026-02-07,24.576533,121.495333,6.935352e-08
467080,宜蘭,2026-02-07,24.763975,121.756528,2.474696e-07
C0N030,四草,2026-02-07,23.0235,120.1116,0.99919915
467410,臺南,2026-02-07,22.99328,120.20492,0.99834096
C0V650,彌陀,2026-02-07,22.783806,120.246361,0.9516562
C0D660,新竹市東區,2026-02-07,24.798681,120.986942,0.0048715146
82S580,茶改東部分場,2026-02-07,22.907694,121.130139,1.6036138e-06
C0SB40,興隆,2026-02-07,22.913661,121.257469,1.5113775e-05
467050,新屋,2026-02-07,25.006725,121.047492,0.60951054
C0C710,大溪永福,2026-02-07,24.892936,121.324975,0.024445118
C0FA20,溫寮,2026-02-07,24.372177,120.583125,0.9982112
C0V640,湖內,2026-02-07,22.887139,120.2445,0.99885815
C0R910,下寮,2026-02-07,22.3929,120.5548,0.99259895
C0Z020,明里,2026-02-07,23.208717,121.262342,1.989115e-07
C0M770,嘉義梅山,2026-02-07,23.585398,120.555587,2.7157988e-08
C0C660,楊梅,2026-02-07,24.912375,121.143047,0.011578143
C0SD40,牛頭山,2026-02-07,22.676661,121.506944,0.9999453
C1E511,新開,2026-02-07,24.347703,120.827019,1.6284569e-06
G2F820,農試所(霧峰),2026-02-07,24.031261,120.688133,0.08410717
C2M990,大巃頂,2026-02-07,23.5547,120.61439,2.2280562e-09
C1I070,和社,2026-02-07,23.591131,120.888861,2.8560283e-09
C2E990,新坪頂,2026-02-07,24.30201,120.8574,3.9959765e-08
C0TA80,立霧山,2026-02-07,24.183258,121.641899,5.9917525e-08
C2F000,大肚,2026-02-07,24.15295,120.572117,0.4021036
C1S850,豐南,2026-02-07,23.122139,121.262389,1.5479948e-07
C2M9B0,西興,2026-02-07,23.2428,120.57617,2.1785325e-09
C2A920,富貴角,2026-02-07,25.263783,121.565258,0.00045425034
CAH030,茶改場竹圍站,2026-02-07,23.860083,120.637528,1.3244914e-08
C0T960,光復,2026-02-07,23.660694,121.424964,1.02092216e-07
C0F9M0,豐原,2026-02-07,24.254322,120.720692,0.00019096535
C0R720,旭海,2026-02-07,22.205403,120.887614,0.99996763
C0V710,苓雅,2026-02-07,22.622742,120.330669,0.933848
C0C740,觀音工業區,2026-02-07,25.064764,121.114856,0.70431316
CAC040,拉拉山,2026-02-07,24.699317,121.427133,6.3373335e-08
C0V790,萬山,2026-02-07,22.905944,120.688056,6.667981e-09
U2HA30,臺大和社,2026-02-07,23.590856,120.888864,2.8560283e-09
C2H9K0,屯原,2026-02-07,24.067969,121.209389,2.0290988e-08
C0AJ90,澳底,2026-02-07,25.0552,121.9253,3.1711375e-06
C0Z100,東華,2026-02-07,23.89525,121.549833,1.3930484e-07
C0G970,三豐,2026-02-07,23.882,120.2895,0.92308694
V2K610,大庄合作社,2026-02-07,23.8068,120.367939,0.8714104
C0V900,汕尾,2026-02-07,22.4782,120.4151,0.9941219
C1R630,龍泉,2026-02-07,22.66701,120.59091,0.9746987
C1AC50,關渡,2026-02-07,25.133486,121.469331,0.004179663
C0C800,四稜,2026-02-07,24.64733,121.4293,6.421264e-08
C0F9I0,神岡,2026-02-07,24.272481,120.658314,0.00097362266
C0K460,斗南,2026-02-07,23.678734,120.478359,2.724089e-05
C2O810,曾文,2026-02-07,23.219681,120.497328,1.365775e-07
467280,後龍,2026-02-07,24.648563,120.831834,0.58789086
C1F9J1,清水林,2026-02-07,24.071242,120.820419,6.6966965e-09
C2A650,火燒寮,2026-02-07,25.002719,121.742892,5.1059146e-07
466930,竹子湖,2026-02-07,25.162078,121.544547,1.7345579e-06
C1I220,樟湖,2026-02-07,23.905333,120.846983,5.309601e-09
C0I390,仁愛,2026-02-07,24.022122,121.132206,5.470941e-09
C0Z300,東里,2026-02-07,23.26853,121.30547,2.6712408e-07
C1V590,新發,2026-02-07,23.057019,120.646064,4.160692e-09
C0K510,水林,2026-02-07,23.572924,120.24597,0.99802023
72S590,東改賓朗果園,2026-02-07,22.813889,121.071278,1.9756046e-05
82A750,茶改北部分場,2026-02-07,24.955778,121.631222,2.7697894e-07
C1A750,石碇服務區,2026-02-07,25.00872,121.646242,1.7145461e-06
C0X300,鹿寮,2026-02-07,23.386047,120.477331,3.6866948e-07
G2AI50,關渡,2026-02-07,25.11575,121.492,4.065784e-06
C0K590,雲林東勢,2026-02-07,23.674192,120.255721,0.8971656
C2K310,港尾布雞,2026-02-07,23.74834,120.38439,7.318977e-05
C0A570,桶後,2026-02-07,24.848222,121.597992,1.6460037e-07
C1S800,華源,2026-02-07,22.657883,121.02325,0.0027064518
C0G720,溪州,2026-02-07,23.851589,120.499093,2.724089e-05
C1V160,達卡努瓦,2026-02-07,23.279811,120.705319,4.2008015e-09
C2M410,馬頭山,2026-02-07,23.324361,120.582017,6.61334e-09
C0V850,蚵仔寮,2026-02-07,22.7256,120.2527,0.9516562
C0S740,池上,2026-02-07,23.119628,121.209469,5.4050963e-07
C1V390,尖山,2026-02-07,22.813153,120.367789,0.4336199
C0AH70,松山,2026-02-07,25.04871,121.55042,3.4383484e-06
C0N010,鯤鯓國小,2026-02-07,23.1879,120.0889,0.99979997
C0R550,新埤,2026-02-07,22.467947,120.582894,0.9884723
C0SA60,知本（水試所）,2026-02-07,22.702394,121.082761,0.36633724
C0T9I0,豐濱,2026-02-07,23.583897,121.514806,9.9951954e-08
C0UB00,淡江大學蘭陽校園,2026-02-07,24.823239,121.730383,9.149934e-08
C0W240,九宮,2026-02-07,24.423753,118.240186,5.0741223e-06
C0T9N0,富里,2026-02-07,23.171639,121.249378,1.7953987e-07
U2HA50,臺大竹山,2026-02-07,23.756972,120.681556,2.8734146e-07
C0V840,鳳鼻頭,2026-02-07,22.5083,120.3591,0.9941219
C0X140,西港,2026-02-07,23.125608,120.203108,0.99979997
72D080,桃改五峰分場,2026-02-07,24.612194,121.157167,1.7141238e-08
C2H9P0,伊拿谷,2026-02-07,23.963211,121.088264,4.455044e-09
C2K250,崙背,2026-02-07,23.75553,120.31893,0.8971656
C2H9F0,柑林,2026-02-07,24.018658,120.847072,5.838827e-06
C0TA20,加灣,2026-02-07,24.082025,121.608944,7.397613e-07
C0V530,阿蓮,2026-02-07,22.883208,120.327508,0.9975908
C0FB30,八仙山苗圃,2026-02-07,24.192719,121.001366,6.9593997e-09
C1O880,關山,2026-02-07,23.173397,120.594092,5.8454876e-09
C0E791,卓蘭,2026-02-07,24.3126,120.8244,1.1169141e-06
C1I030,武界,2026-02-07,23.913225,121.052483,4.5189044e-09
C0R520,崁頂,2026-02-07,22.514781,120.506914,0.99259895
C0R341,牡丹,2026-02-07,22.130036,120.792639,0.9407685
C0R930,萬丹,2026-02-07,22.5885,120.4851,0.9884723
C0S760,紅石,2026-02-07,23.069131,121.126219,2.5944402e-08
C2C410,中央大學,2026-02-07,24.967652,121.185165,0.024445111
C1M610,石磐龍,2026-02-07,23.496606,120.663506,4.1177124e-09
C0C790,東眼山,2026-02-07,24.8284,121.40888,7.2064964e-08
C0UA10,鴛鴦湖,2026-02-07,24.590269,121.412228,4.6987935e-08
V2C260,八德蔬果,2026-02-07,24.978508,121.281819,0.055509705
C0R800,丹路,2026-02-07,22.204481,120.750989,0.9991497
C0G920,永靖,2026-02-07,23.924703,120.547533,0.97852093
C2M950,太和,2026-02-07,23.538372,120.702961,5.391107e-09
C1A630,下盆,2026-02-07,24.771003,121.538622,9.6653984e-08
B2N890,畜產試驗所,2026-02-07,23.058972,120.336406,0.9964702
C0UA30,白嶺,2026-02-07,24.527819,121.519031,4.4619597e-08
467571,新竹,2026-02-07,24.828575,121.01455,0.009473611
C1V580,溪南(特生中心),2026-02-07,23.084972,120.788475,9.687174e-09
C1T970,大農,2026-02-07,23.615233,121.413331,8.7468635e-08
C0R650,竹田,2026-02-07,22.58486,120.54344,0.9908773
C1H900,清流,2026-02-07,24.080775,120.962997,4.4739563e-09
C1C510,水尾,2026-02-07,24.940081,121.087161,0.09222051
C2N170,茅港尾,2026-02-07,23.2061,120.2624,0.99979997
C0F9X0,大雅(中科園區),2026-02-07,24.21528,120.62445,0.95707715
C0SB60,白守蓮,2026-02-07,23.126769,121.401914,0.99951756
C0O970,虎頭埤,2026-02-07,23.021375,120.347878,0.9822922
C0C730,中大臨海站,2026-02-07,24.966126,121.008581,0.03906636
C0X250,新營,2026-02-07,23.310689,120.316681,0.9996879
C0V700,三民,2026-02-07,22.645017,120.311233,0.933848
C0U870,大礁溪,2026-02-07,24.791042,121.675047,7.89332e-08
C0E870,高鐵苗栗,2026-02-07,24.60725,120.826094,0.68668437
C0TA30,鹽寮,2026-02-07,23.845606,121.592664,1.5332948e-07
C0M860,新美,2026-02-07,23.338017,120.683169,3.6918326e-09
C1E701,八卦,2026-02-07,24.491756,120.927619,1.916022e-08
C2TA90,加納納,2026-02-07,23.466421,121.359867,7.791233e-08
C0I420,國姓,2026-02-07,24.037803,120.855072,2.378558e-06
C2D720,關西工作站,2026-02-07,24.757275,121.184792,4.7005102e-07
C0S960,香蘭,2026-02-07,22.587569,120.993375,0.9996251
467620,蘭嶼,2026-02-07,22.0369,121.55843,0.99975127
C0R260,春日,2026-02-07,22.370361,120.628306,0.9631775
72G600,臺中農改場,2026-02-07,24.003028,120.534389,0.98790234
C0Z210,瑞穗,2026-02-07,23.5239,121.39021,1.0495914e-07
C0M820,達邦,2026-02-07,23.453994,120.749517,3.5090708e-09
C0V860,南寮,2026-02-07,22.7616,120.2339,0.9719284
C0G740,大城,2026-02-07,23.852487,120.320935,0.8971656
C0R920,塭仔,2026-02-07,22.4169,120.5197,0.9941219
C0R470,高樹,2026-02-07,22.826389,120.600806,0.9306642
C0R680,佳樂水,2026-02-07,21.993578,120.861633,0.74727577
C1O870,大棟山,2026-02-07,23.31157,120.52226,3.1238252e-09
C0D360,梅花,2026-02-07,24.678347,121.208558,7.693578e-08
C0Z190,富世,2026-02-07,24.14743,121.6297,4.7760176e-07
C0AI10,屈尺,2026-02-07,24.92184,121.54475,2.1498552e-06
B2U990,畜試東區分所,2026-02-07,24.669039,121.832561,2.5390221e-07
C0SB80,長濱漁港,2026-02-07,23.313644,121.459994,0.9993729
C0TA50,和仁,2026-02-07,24.241394,121.712472,6.511899e-07
C0V910,大樹,2026-02-07,22.684645,120.432803,0.98767483
C1R610,西大武山,2026-02-07,22.617719,120.7322,1.9891733e-08
C0G900,線西,2026-02-07,24.143358,120.443536,0.9982112
C0M700,竹崎,2026-02-07,23.526178,120.555508,4.091761e-08
C2E880,三義,2026-02-07,24.405478,120.749819,2.1594356e-07
C0C720,竹圍,2026-02-07,25.112692,121.239824,0.7580144
C0F9P0,清水,2026-02-07,24.312297,120.562242,0.99794346
C0Z150,吉安光華,2026-02-07,23.930925,121.595153,1.5332948e-07
C0FA80,小雪山天池,2026-02-07,24.28025,121.02627,3.1994073e-08
467300,東吉島,2026-02-07,23.25727,119.66762,0.99940854
C1D640,外坪(五指山),2026-02-07,24.644447,121.090961,1.3541917e-07
C2R9A0,高士國小,2026-02-07,22.12553,120.84653,0.9964546
C0F9O0,潭子,2026-02-07,24.213106,120.703933,0.0017013346
C2H9R0,卓社,2026-02-07,23.887894,121.000086,6.324531e-09
72T250,花蓮農改場,2026-02-07,23.975222,121.563889,1.3930484e-07
C0E780,銅鑼,2026-02-07,24.489681,120.790853,0.0016964168
C1T950,太安,2026-02-07,23.666719,121.370128,1.6079868e-08
C0E830,苑裡,2026-02-07,24.439714,120.653053,0.68668437
467270,田中,2026-02-07,23.873803,120.581286,1.7887325e-05
C0SA10,檳榔四格山,2026-02-07,22.810031,121.109308,4.410344e-06
C1T830,布洛灣,2026-02-07,24.17184,121.57127,1.6110037e-07
C0F970,大坑,2026-02-07,24.173142,120.722289,0.0070639765
C1U920,思源,2026-02-07,24.393125,121.347214,2.7532783e-08
C2H9Y0,松茗,2026-02-07,23.8167,120.650765,4.901418e-09
C0A931,三和,2026-02-07,25.233153,121.595236,0.00019019376
C0I010,廬山,2026-02-07,24.033311,121.181808,1.4027143e-08
C2M940,日野賀,2026-02-07,23.434056,120.727169,4.215168e-09
C0R860,鼻頭,2026-02-07,22.1043,120.8979,0.82800245
C0UB20,壯圍,2026-02-07,24.7359,121.8163,2.5390221e-07
C0R790,九棚,2026-02-07,22.14195,120.889281,0.9999751
C0W110,東莒,2026-02-07,25.9652,119.98069,0.28046218
C1U930,粉鳥林,2026-02-07,24.497088,121.842479,2.223227e-07
C1I211,蘆竹湳,2026-02-07,23.934019,120.811994,1.2861649e-08
C0S830,長濱,2026-02-07,23.286817,121.411975,1.7953987e-07
C1F9F1,伯公龍,2026-02-07,24.272392,120.849047,7.693739e-08
C0UB90,太平山莊,2026-02-07,24.494171,121.536209,4.942454e-08
C0E810,西湖,2026-02-07,24.562947,120.7485,0.4673525
C1I440,新高口,2026-02-07,23.478744,120.878939,2.6948236e-08
C0O840,王爺宮,2026-02-07,23.222064,120.40085,1.365775e-07
C0T9G0,鳳林山,2026-02-07,23.735269,121.420131,4.7866003e-08
C0X080,佳里,2026-02-07,23.173039,120.145086,0.99981606
C0FB70,大甲溪埔,2026-02-07,24.370625,120.620067,0.9973728
C0Z310,清水斷崖,2026-02-07,24.218294,121.689142,3.5212994e-07
C0M680,太保,2026-02-07,23.455062,120.331455,0.9972668
C1S820,金峰,2026-02-07,22.590969,120.933236,0.08146526
C0AD10,八里,2026-02-07,25.150211,121.403947,0.13174273
C2K240,草嶺,2026-02-07,23.59555,120.693461,4.192173e-09
C1SA70,都蘭,2026-02-07,22.87794,121.226881,1.5113775e-05
C0K440,二崙,2026-02-07,23.772797,120.408944,7.318977e-05
C1A760,坪林交控,2026-02-07,24.94284,121.713442,6.4913263e-07
C0F9N0,大里,2026-02-07,24.092464,120.701378,0.15485288
C0SA90,達仁林場,2026-02-07,22.264347,120.823972,3.3534935e-08
C1R290,石門山,2026-02-07,22.112611,120.756597,0.99996525
42HA10,萬大發電廠,2026-02-07,23.978875,121.139639,4.891658e-09
C0R890,山海,2026-02-07,21.9878,120.7091,0.6458891
C0T9A0,月眉山,2026-02-07,23.809928,121.539828,5.2013682e-08
C0AC70,信義,2026-02-07,25.037822,121.564597,3.4383484e-06
C0K560,棋山,2026-02-07,23.68645,120.603417,6.7031846e-07
C2FB50,出雲,2026-02-07,24.206469,120.902794,7.31388e-09
C1Z240,中平林道,2026-02-07,23.42115,121.26763,3.9765883e-08
U2H480,溪頭,2026-02-07,23.670306,120.798194,4.233038e-09
C0M880,好美里,2026-02-07,23.3364,120.138,0.99981606
C0T9E0,大坑,2026-02-07,23.880628,121.581981,1.3182755e-07
C0K530,臺西,2026-02-07,23.701547,120.197559,0.92308694
C1E900,國一N128K,2026-02-07,24.560997,120.844186,0.1958999
C0AJ50,水湳洞,2026-02-07,25.123695,121.862238,2.8335746e-06
C0AI20,白沙灣,2026-02-07,25.283128,121.519058,0.09458384
C2V310,美濃,2026-02-07,22.898792,120.51907,0.11137284
C0A860,大坪,2026-02-07,25.165914,121.632969,3.5348555e-07
C1U850,觀音海岸,2026-02-07,24.38319,121.77856,5.1529334e-08
C2K610,草嶺石壁,2026-02-07,23.602469,120.707731,4.292701e-09
C0U950,鶯子嶺,2026-02-07,24.89754,121.79244,1.1242531e-07
C0O900,善化,2026-02-07,23.112883,120.297219,0.99885815
C0K550,蔦松,2026-02-07,23.514319,120.229736,0.99802023
E2P980,林試六龜中心,2026-02-07,22.991703,120.645722,1.9284769e-06
C0E590,通霄,2026-02-07,24.471892,120.704622,0.36684853
C1I310,西巒,2026-02-07,23.754486,120.883956,6.950724e-09
C0A550,泰平,2026-02-07,24.971197,121.823711,2.7697894e-07
C0I360,水里,2026-02-07,23.812553,120.849792,2.2547939e-08
C0R830,高士,2026-02-07,22.121825,120.836781,0.99996257
C1I101,溪頭,2026-02-07,23.661789,120.807647,9.37065e-09
C0AJ20,野柳,2026-02-07,25.20703,121.690021,0.09458384
C0B060,暖暖,2026-02-07,25.0957,121.7403,1.7145461e-06
C1H920,長豐,2026-02-07,24.102039,120.879897,4.4432142e-09
C2S9B0,利吉,2026-02-07,22.86246,121.15486,2.5540626e-06
C0V360,內門,2026-02-07,22.975481,120.466769,0.020401154
C0R850,林邊,2026-02-07,22.4634,120.5339,0.99259895
C0E930,龍鳳,2026-02-07,24.700034,120.859125,0.03906636
C0U910,冬山,2026-02-07,24.63373,121.7937,2.5390221e-07
C1E721,泰安,2026-02-07,24.489017,120.968036,2.0035666e-08
82H320,茶改中部分場,2026-02-07,23.875611,120.913583,4.4077457e-09
C0M750,布袋,2026-02-07,23.380878,120.167789,0.99845564
C1S860,利嘉,2026-02-07,22.809417,121.050528,4.7907565e-07
E2S980,林試太麻里1,2026-02-07,22.598922,120.980044,0.9607181
C0X170,關廟,2026-02-07,22.963017,120.327797,0.99475974
C0V720,林園,2026-02-07,22.507747,120.394511,0.9908773
C1I510,線浸林道,2026-02-07,23.761508,120.832956,4.5032187e-09
C0D690,外湖,2026-02-07,24.917735,120.968711,0.03906636
C0C750,新興坑尾,2026-02-07,25.0061,121.0971,0.24614394
B2Q810,畜試南區分所,2026-02-07,21.945583,120.802167,0.74727577
C0S790,金崙,2026-02-07,22.538122,120.966875,0.022294007
C0AH90,福山植物園,2026-02-07,24.760717,121.58135,8.681957e-08
C0I540,奇萊稜線,2026-02-07,24.109231,121.326456,4.512481e-08
C0M850,表湖,2026-02-07,23.24186,120.64166,3.3848577e-09
C0S770,大溪山,2026-02-07,22.478475,120.943325,0.00011382688
C0AG80,中和,2026-02-07,24.991622,121.491792,3.1614597e-06
C0T790,大禹嶺,2026-02-07,24.186117,121.316086,3.6197306e-08
C0T9B0,水源,2026-02-07,23.991861,121.537169,9.507369e-08
C0R840,牡丹池山,2026-02-07,22.168389,120.841225,3.4941124e-08
C1I131,桶頭,2026-02-07,23.641944,120.654117,1.3244914e-08
CAL110,布袋國中,2026-02-07,23.35893,120.18026,0.99984604
C2M9D0,何竹子腳,2026-02-07,23.53641,120.38203,8.887817e-06
C0Z290,赤柯山,2026-02-07,23.36893,121.38293,4.831094e-08
C0X280,將軍,2026-02-07,23.214999,120.13577,0.99979997
C0S690,太麻里,2026-02-07,22.60902,120.98533,3.519859e-06
C0U880,北關,2026-02-07,24.9072,121.8734,3.1711375e-06
CAW010,東引,2026-02-07,26.3588,120.4836,0.5843658
C0G810,埔心,2026-02-07,23.947633,120.525456,0.98252743
C0U970,大福,2026-02-07,24.80064,121.81389,2.5390221e-07
C2H9N0,仁愛東眼,2026-02-07,24.026875,121.1205,7.3780937e-09
C1E670,南礦,2026-02-07,24.538278,121.002836,1.8680673e-08
C0M520,東後寮,2026-02-07,23.369908,120.248065,0.99979997
C1E461,松安,2026-02-07,24.397972,120.986022,1.9302062e-08
C2N160,西拉雅風管處,2026-02-07,23.189481,120.335297,0.99964076
C2M970,碧湖,2026-02-07,23.568632,120.624165,2.1964608e-09
C0A640,石碇,2026-02-07,24.993969,121.662917,6.4913263e-07
E2S960,林試太麻里2,2026-02-07,22.598,120.99775,0.9997021
C0F9Y0,桃山,2026-02-07,24.432739,121.303808,5.2518505e-08
C1I020,萬大,2026-02-07,23.979817,121.132261,5.5049183e-09
C2UC20,長嶺,2026-02-07,24.70894,121.61162,1.2004203e-07
C0U940,羅東,2026-02-07,24.68184,121.74934,2.3760454e-07
C0M650,朴子,2026-02-07,23.43463,120.23902,0.99802023
C1I500,大尖山,2026-02-07,23.858572,120.994889,1.5267267e-08
C0FB40,中橫21.6k,2026-02-07,24.2499,121.1455,8.964555e-09
C0G820,田尾,2026-02-07,23.901669,120.509389,0.97852093
E2K600,四湖植物園,2026-02-07,23.676986,120.163433,0.8971654
C0S730,綠島,2026-02-07,22.6672,121.47533,0.9999662
12Q970,東港工作站,2026-02-07,22.479997,120.466058,0.99259895
C1TA00,太魯閣,2026-02-07,24.15773,121.6236,1.4552401e-07
466920,臺北,2026-02-07,25.037658,121.514853,3.4383484e-06
C0R600,舊泰武,2026-02-07,22.588194,120.664944,1.7249404e-08
C1I260,北坑,2026-02-07,23.9246,121.006903,5.063665e-09
466910,鞍部,2026-02-07,25.182586,121.529731,6.044843e-07
C1I230,九份二山,2026-02-07,23.961944,120.845,5.4245985e-09
C2M810,里佳,2026-02-07,23.389125,120.716647,5.4615996e-09
C2A660,瑞芳,2026-02-07,25.113169,121.801147,1.3823477e-06
C0R270,琉球嶼,2026-02-07,22.332244,120.362236,0.9631775
C2V580,瑞山,2026-02-07,22.90304,120.43424,0.01602241
C1T990,高寮,2026-02-07,23.394239,121.356808,4.1567915e-07
C0G620,芬園,2026-02-07,24.015678,120.6213,0.59481287
C1Z140,荖溪,2026-02-07,23.890575,121.45964,6.3868555e-08
C1I201,中心崙,2026-02-07,23.728722,120.712097,2.8309124e-09
C1I400,凌霄,2026-02-07,24.018778,121.004456,7.179082e-09
C1M640,十字,2026-02-07,23.492153,120.753683,7.0745787e-09
G2P820,農試鳳山分所,2026-02-07,22.646611,120.356083,0.8420675
C0Z270,蕃薯寮,2026-02-07,23.73835,121.540108,6.359274e-08
C2E420,竹南,2026-02-07,24.70898,120.88897,0.009473611
C0FB10,出雲山苗圃,2026-02-07,24.23105,120.90475,7.062202e-09
C0F9Q0,外埔,2026-02-07,24.347817,120.705686,0.0062577124
C0K580,高鐵雲林,2026-02-07,23.737456,120.417944,7.318977e-05
C2I090,鳳凰,2026-02-07,23.728081,120.787347,3.0266991e-09
C0U990,員山,2026-02-07,24.74435,121.72247,2.474696e-07
C0V770,大社,2026-02-07,22.730306,120.346639,0.8820851
C0X120,麻豆,2026-02-07,23.183289,120.248611,0.99979997
C0C670,龍潭,2026-02-07,24.870056,121.221389,2.7218437e-07
C0D680,香山濕地,2026-02-07,24.783581,120.914988,0.03906636
C0S980,勝林山,2026-02-07,22.430439,120.8938,1.5296246e-07
C0V730,大寮,2026-02-07,22.605614,120.395717,0.9884723
C0R570,麟洛,2026-02-07,22.65078,120.52719,0.9849439
C2M930,石卓,2026-02-07,23.478744,120.702264,6.939623e-09
C0G9B0,和美,2026-02-07,24.105169,120.492131,0.9900255
CAG100,王功漁港,2026-02-07,23.96824,120.32586,0.99306625
C0X290,北門,2026-02-07,23.267772,120.125481,0.99984604
C2F930,大甲,2026-02-07,24.347667,120.640403,0.038918804
C0D650,湖口,2026-02-07,24.904794,121.043628,0.0014012047
C0U780,五結,2026-02-07,24.68637,121.79794,2.5390221e-07
C1I250,鯉潭,2026-02-07,23.961922,120.991131,4.4432142e-09
C0R130,阿禮,2026-02-07,22.742908,120.743678,4.7120654e-09
C0X100,臺南市北區,2026-02-07,23.010394,120.194228,0.99919915
C0S920,金峰嘉蘭,2026-02-07,22.594789,120.960825,0.9607181
C0V490,新興,2026-02-07,22.627422,120.298803,0.933848
C0F9K0,大安,2026-02-07,24.345061,120.588025,0.9973728
467290,古坑,2026-02-07,23.633639,120.551889,1.3980622e-06
C2E970,八甲,2026-02-07,24.535811,120.795983,0.0012261361
C0V440,鳳山,2026-02-07,22.646653,120.356122,0.8420675
C1T940,大觀,2026-02-07,23.714206,121.373133,5.154683e-08
C0E740,造橋,2026-02-07,24.637056,120.864778,0.7834445
C0R100,尾寮山,2026-02-07,22.833111,120.683889,4.730995e-09
A2K630,臺大雲林校區,2026-02-07,23.730628,120.423903,4.6517234e-05
467990,馬祖,2026-02-07,26.169467,119.923158,6.110329e-05
C0D580,寶山,2026-02-07,24.735006,121.025192,0.00018836485
E2P990,林試扇平站,2026-02-07,22.9677,120.6857,4.182142e-09
C0AI30,三重,2026-02-07,25.057328,121.500629,3.7333944e-06
C0AH00,汐止,2026-02-07,25.066881,121.658778,2.8335746e-06
C1Z040,立山,2026-02-07,23.443356,121.327375,8.693457e-08
466881,新北,2026-02-07,24.959207,121.525196,2.6920502e-06
C0W130,花嶼,2026-02-07,23.40007,119.32276,0.99953014
C0A950,鼻頭角,2026-02-07,25.129036,121.923372,3.1711375e-06
C0K470,林內,2026-02-07,23.748675,120.609642,1.3980622e-06
C2F990,摩天嶺,2026-02-07,24.322458,120.936819,7.1459945e-09
C2E430,南庄,2026-02-07,24.601775,121.000214,1.4972854e-05
82C160,茶改場,2026-02-07,24.908472,121.185333,0.0023293698
C2TB60,南安,2026-02-07,23.29818,121.26157,2.2524175e-07
C0Z320,清水林道,2026-02-07,23.27125,121.188272,6.093787e-08
C0R760,南仁湖,2026-02-07,22.084681,120.863353,0.99996525
C0M670,大林,2026-02-07,23.600616,120.45841,3.252025e-06
C0M800,茶山,2026-02-07,23.299075,120.664767,2.4236813e-09
C0A9C0,天母,2026-02-07,25.117494,121.537169,3.1614597e-06
72K220,南改斗南分場,2026-02-07,23.634556,120.477333,2.724089e-05
72AI40,桃改樹林分場,2026-02-07,24.944503,121.386972,2.917748e-06
C0S910,蘭嶼燈塔,2026-02-07,22.081197,121.503117,0.8770981
C0B050,八斗子,2026-02-07,25.144754,121.79167,3.3669255e-06
C0U900,內城,2026-02-07,24.71813,121.68766,2.1783262e-07
C0X320,柳營,2026-02-07,23.253328,120.375253,8.4850035e-05
C0M790,新港,2026-02-07,23.553269,120.345728,0.9972668
C0F9T0,西屯,2026-02-07,24.179494,120.641275,0.038918804
C0E950,松安,2026-02-07,24.39792,120.98599,1.9302062e-08
C0SA30,都歷,2026-02-07,23.020333,121.323642,1.0831527e-05
C0C620,蘆竹,2026-02-07,25.084275,121.265767,0.5440147
C0R730,大坪頂,2026-02-07,22.024633,120.69355,0.99954927
C0AJ40,石門,2026-02-07,25.273672,121.601198,0.0013721876
C0E750,苗栗,2026-02-07,24.564569,120.824575,0.26645473
C0T870,鯉魚潭,2026-02-07,23.935639,121.508944,9.733888e-08
C1V170,排雲,2026-02-07,23.463619,120.954147,5.144007e-08
C2H950,中寮,2026-02-07,23.884447,120.766406,0.0002496987
C0R350,貓鼻頭,2026-02-07,21.921774,120.7358,0.84252393
C0V660,岡山,2026-02-07,22.797078,120.294958,0.933848
C1H941,雙冬,2026-02-07,23.967378,120.802189,9.660033e-09
C0AJ70,田寮,2026-02-07,25.2698,121.4886,0.09458384
C0AI00,五股,2026-02-07,25.07445,121.42728,9.4859286e-07
C0Z280,德武,2026-02-07,23.47426,121.41071,8.5461984e-08
C2RA10,大新,2026-02-07,22.67558,120.57788,0.9781933
C0R700,枋山,2026-02-07,22.246844,120.661086,0.9998283
C0C460,復興,2026-02-07,24.820208,121.352281,9.6857725e-08
C2K300,鹿南,2026-02-07,23.63855,120.3636,0.8714104
E2H360,蓮華池,2026-02-07,23.918333,120.885278,4.5822115e-09
C0M640,中埔,2026-02-07,23.42538,120.5229,4.091761e-08
C0W140,金沙,2026-02-07,24.488292,118.408778,0.007126653
C2A540,四堵,2026-02-07,24.8926,121.745736,3.4260242e-07
C0ACA0,新莊,2026-02-07,25.051478,121.446756,3.7333944e-06
C0R220,潮州,2026-02-07,22.534361,120.54,0.9908773
U2HA40,臺大內茅埔,2026-02-07,23.689722,120.851117,3.3449126e-09
467490,臺中,2026-02-07,24.145736,120.684075,0.043685455
C0UB60,明池,2026-02-07,24.650688,121.475277,6.432002e-08
C0U960,翠峰湖,2026-02-07,24.510856,121.608044,4.866775e-08
E2HA20,林試畢祿溪站,2026-02-07,24.226944,121.308522,2.4824315e-08
C2M9A0,大華,2026-02-07,23.4824,120.67491,3.7960706e-09
C0V890,前鎮,2026-02-07,22.5718,120.3117,0.9516562
C1F941,雪嶺,2026-02-07,24.280586,121.026642,3.1994073e-08
C2H9E0,國姓南港,2026-02-07,23.911108,120.846556,5.470941e-09
C0AC80,文山,2026-02-07,25.00235,121.575728,2.3080308e-06
C0F9R0,龍井,2026-02-07,24.184536,120.528972,0.9982112
C0M760,民雄,2026-02-07,23.551754,120.428457,3.252025e-06
C0UA40,西德山,2026-02-07,24.560647,121.752608,4.715835e-08
C2TA70,赤科坪,2026-02-07,23.39885,121.39168,4.9520317e-08
C1T920,中興,2026-02-07,23.769503,121.498653,1.2336359e-07
C0D550,雪霸,2026-02-07,24.526972,121.11605,2.4886468e-08
C2F860,梨山,2026-02-07,24.247522,121.243669,2.5323445e-08
C0R320,車城,2026-02-07,22.0744,120.716247,0.64588886
C1S870,南美山,2026-02-07,23.15025,121.382333,8.0410433e-07
C0B020,基隆嶼,2026-02-07,25.19141,121.78391,2.8335746e-06
C1U501,牛鬥,2026-02-07,24.637836,121.573656,1.9270027e-07
C0M730,嘉義市東區,2026-02-07,23.457673,120.460531,3.252025e-06
C2R990,泰武,2026-02-07,22.60686,120.69765,1.4854693e-08
C0S700,知本,2026-02-07,22.684866,121.005642,5.3111035e-07
C1N001,沙崙,2026-02-07,22.935472,120.309406,0.9964702
C0V760,橋頭,2026-02-07,22.757806,120.30575,0.933848
C0G960,福寶,2026-02-07,24.0443,120.3814,0.99306625
C0X210,白河,2026-02-07,23.347466,120.414427,6.128139e-05
C0S810,東河,2026-02-07,22.972672,121.303986,2.1178483e-05
C2R170,屏東,2026-02-07,22.66027,120.49403,0.98767483
C0R670,楓港,2026-02-07,22.190131,120.692156,0.9998283
C0FA50,霧峰,2026-02-07,24.0419,120.6995,0.054290425
C0UB10,蘇澳,2026-02-07,24.5969,121.8571,2.223227e-07
C0G950,防潮門,2026-02-07,24.1835,120.4871,0.9982112
C0M740,六腳,2026-02-07,23.492871,120.290625,0.99802023
C1R250,力里,2026-02-07,22.428117,120.629228,1.9006522e-05
C0K330,虎尾,2026-02-07,23.719183,120.442036,4.6517234e-05
C2FA00,烏石坑,2026-02-07,24.273503,120.947617,7.101658e-09
C0V620,永安,2026-02-07,22.82315,120.236856,0.9516562
C1I330,楓樹林,2026-02-07,23.986803,121.076117,6.1172147e-09
C0W200,湖西,2026-02-07,23.596314,119.67275,0.999467
72Q010,高雄農改場,2026-02-07,22.709333,120.525889,0.9825661
C0SA40,瑞和,2026-02-07,22.974361,121.156697,1.6036138e-06
C0C680,龜山,2026-02-07,25.02846,121.38656,6.625166e-07
C2V260,月眉,2026-02-07,22.971003,120.539853,0.004891534
C0V450,鳳森,2026-02-07,22.545064,120.392592,0.9707145
C0FA90,小雪山林道,2026-02-07,24.29515,121.03651,3.8796433e-08
C0U720,南山,2026-02-07,24.43742,121.38167,4.4768097e-08
A2N290,臺南蘭花園區,2026-02-07,23.340258,120.379661,8.4850035e-05
C0R560,新園,2026-02-07,22.5434,120.461558,0.9908773
C0U890,三星,2026-02-07,24.66812,121.65302,1.7743498e-07
C1V300,御油山,2026-02-07,23.001983,120.715364,9.47319e-09
C0U600,礁溪,2026-02-07,24.817539,121.765608,2.3760454e-07
C1T980,龍澗,2026-02-07,24.023289,121.411328,5.7409633e-08
C0D670,海天一線,2026-02-07,24.831986,120.914438,0.03906636
C0SA00,歷坵,2026-02-07,22.520969,120.89185,1.8033204e-05
C0M710,東石,2026-02-07,23.458927,120.15385,0.99845564
C0M780,鹿草,2026-02-07,23.41134,120.30835,0.9972668
C0U520,雙連埤,2026-02-07,24.753033,121.641303,7.8014644e-08
C0B010,七堵,2026-02-07,25.094819,121.71713,2.677114e-06
C0R480,長治,2026-02-07,22.693128,120.542622,0.9781933
C1V830,國三S383K,2026-02-07,22.781967,120.426475,0.8955593
12Q980,恆春工作站,2026-02-07,22.079678,120.714425,0.7071407
C1O940,東山服務區,2026-02-07,23.286016,120.398472,6.128139e-05
C1U840,東澳嶺,2026-02-07,24.5378,121.8485,4.8816688e-08
C1D630,飛鳳山,2026-02-07,24.766464,121.119178,4.540917e-07
C0S940,石寧山,2026-02-07,23.223772,121.406639,0.9964692
C0K410,北港,2026-02-07,23.573957,120.292802,0.9972668
C2M620,瑞里,2026-02-07,23.545133,120.675197,4.8032613e-09
C0SB70,小港漁港,2026-02-07,23.158558,121.400431,0.99945533
C2O950,安南,2026-02-07,23.076694,120.144861,0.99919915
C0F0E0,南湖圈谷,2026-02-07,24.363714,121.444667,7.892913e-08
467610,成功,2026-02-07,23.097486,121.373428,2.9978823e-05
C0G890,伸港,2026-02-07,24.148933,120.484403,0.9982112
C2E540,龍溪,2026-02-07,24.606489,120.783933,0.7834445
C1V200,梅山,2026-02-07,23.268447,120.823556,3.546678e-09
C0T9H0,加路蘭山,2026-02-07,23.682947,121.5274,4.4917602e-08
C2O930,玉井,2026-02-07,23.126042,120.46055,9.229146e-06
C1F911,新伯公,2026-02-07,24.221361,120.841069,2.3369829e-07
C0R490,九如,2026-02-07,22.7405,120.490503,0.9849439
C0X200,左鎮,2026-02-07,23.056758,120.408522,0.08004544
C2TB50,麻汝,2026-02-07,23.42554,121.39358,7.5228854e-08
C0FA60,鞍馬山工作站,2026-02-07,24.267064,121.000793,2.5575956e-08
C0SB50,叭嗡嗡,2026-02-07,23.047062,121.343223,5.048949e-05
C1F891,稍來,2026-02-07,24.265689,121.001142,2.5072902e-08
C2M9C0,紫雲,2026-02-07,23.494914,120.540253,1.06239725e-07
72N240,七股研究中心,2026-02-07,23.081672,120.062894,0.99943453
C0C700,中壢,2026-02-07,24.977661,121.256375,0.024445118
C0M690,水上,2026-02-07,23.419734,120.388909,4.900452e-06
C0V690,鼓山,2026-02-07,22.623325,120.275575,0.9516562
C0O860,大內,2026-02-07,23.11885,120.36083,0.9975908
C0Z200,萬榮,2026-02-07,23.709219,121.420106,9.733888e-08
C0T9D0,和中,2026-02-07,24.26676,121.74103,6.921839e-07
C2S9A0,北份子寮,2026-02-07,22.78561,121.07813,0.004689715
C1O921,楠西,2026-02-07,23.183511,120.484083,2.408598e-06
C0AJ30,淡水觀海,2026-02-07,25.184591,121.408616,0.1624252
C0V810,左營,2026-02-07,22.67491,120.28491,0.933848
C0UA70,桃源谷,2026-02-07,24.962606,121.888875,2.0154162e-07
C0X130,官田,2026-02-07,23.193217,120.315422,0.9996879
C1H000,翠峰,2026-02-07,24.109397,121.205211,2.6885294e-08
C0UA90,石城,2026-02-07,24.980444,121.951214,2.677114e-06
C1E681,南勢山,2026-02-07,24.421669,120.923831,1.7750176e-08
C0A9F0,內湖,2026-02-07,25.079422,121.57545,3.4383484e-06
C0K291,宜梧,2026-02-07,23.536281,120.169329,0.99845564
C1K540,口湖,2026-02-07,23.585344,120.180517,0.99845564
C0R780,滿州,2026-02-07,22.024403,120.839892,0.88875717
C0V870,文安,2026-02-07,22.8025,120.2164,0.9516562
C0U650,玉蘭,2026-02-07,24.675286,121.587061,1.184879e-07
C0R640,東港,2026-02-07,22.46247,120.44074,0.99259895
C0AJ80,板橋,2026-02-07,25.0107,121.4489,3.4383484e-06
C0S660,下馬,2026-02-07,23.150427,121.070312,5.4222532e-08
C2N190,烏樹,2026-02-07,23.32393,120.36989,0.9996879
C1H9B1,阿眉,2026-02-07,24.1263,120.994672,1.2165395e-08
C0UA20,多加屯,2026-02-07,24.368614,121.373189,3.380118e-08
C0E730,頭份,2026-02-07,24.688247,120.912206,0.013244535
72V140,高改旗南分場,2026-02-07,22.857861,120.516667,0.9781933
C0K480,莿桐,2026-02-07,23.761192,120.502372,1.7887325e-05
C0U980,坪林石牌,2026-02-07,24.86478,121.77396,7.241383e-08
C0T900,西林,2026-02-07,23.8119,121.441458,8.7468635e-08
C1I150,青雲,2026-02-07,23.793361,120.949378,4.348756e-09
C2E980,和興,2026-02-07,24.505319,120.923016,2.3837185e-08
467350,澎湖,2026-02-07,23.565503,119.563094,0.99957895
C0G800,埔鹽,2026-02-07,24.000394,120.431683,0.9900255
C0H960,草屯,2026-02-07,23.973672,120.68085,0.02662735
C1V780,多納林道,2026-02-07,22.888028,120.737917,5.2491442e-09
C0E920,通霄漁港,2026-02-07,24.498589,120.673876,0.8979672
C0Z330,安通山,2026-02-07,23.290728,121.348528,8.51517e-08
C0AH10,永和,2026-02-07,25.01125,121.508111,3.4383484e-06
C0AK10,太平里,2026-02-07,25.134937,121.364899,0.094583884
C2G640,鹿港,2026-02-07,24.0753,120.430481,0.99306625
C1E890,國三N149K,2026-02-07,24.463414,120.680019,0.1958999
C1R110,口社,2026-02-07,22.770111,120.645222,0.87664884
C1M870,國三N285K,2026-02-07,23.550319,120.505833,6.436862e-08
C1E480,鳳美,2026-02-07,24.554803,121.034747,2.645616e-08
C0T9M0,靜浦,2026-02-07,23.455167,121.495028,1.2336359e-07
C2H9M0,發祥,2026-02-07,24.154094,121.164517,8.431739e-09
C2G9C0,埔南,2026-02-07,23.99124,120.46969,0.9900255
C0AI40,石牌,2026-02-07,25.115597,121.513139,3.4383484e-06
C1F871,上谷關,2026-02-07,24.203483,121.018644,7.0986244e-09
C2H9G0,百勝,2026-02-07,24.051142,120.909361,7.21286e-09
C0G880,二水,2026-02-07,23.810742,120.6173,2.016596e-06
C0R940,加祿堂,2026-02-07,22.3363,120.6217,0.9908773
C0W220,北竿,2026-02-07,26.220358,119.974881,0.00016520968
C0O960,崎頂,2026-02-07,22.959547,120.369317,0.80629516
C0TA40,秀林,2026-02-07,24.302864,121.731144,4.7455476e-08
C0S750,向陽,2026-02-07,23.248397,120.986133,2.9025388e-08
C0T9F0,水璉,2026-02-07,23.797131,121.542514,7.0472964e-08
C1M600,頭凍,2026-02-07,23.406364,120.603339,1.9726463e-09
467660,臺東,2026-02-07,22.752211,121.154586,0.9983849
C1D380,新埔,2026-02-07,24.84745,121.03834,0.00077263656
C2G980,田頭村,2026-02-07,23.8263,120.444175,7.318977e-05
C0V750,路竹,2026-02-07,22.854997,120.259439,0.8820851
C0N050,蚵寮,2026-02-07,23.301,120.1104,0.99984604
C2X060,下營,2026-02-07,23.226806,120.256291,0.99979997
72M700,南改鹿草分場,2026-02-07,23.416869,120.283061,0.99802023
C1SA50,利嘉林道,2026-02-07,22.82325,121.009389,3.7028006e-08
C0UB70,太平山中間站,2026-02-07,24.542003,121.513453,4.790135e-08
C0A940,金山,2026-02-07,25.223628,121.643967,0.05519301
C1V340,大津,2026-02-07,22.888322,120.645986,0.70999473
C0W180,七美,2026-02-07,23.219333,119.444892,0.9997075
C1F9C1,白冷,2026-02-07,24.182844,120.929889,8.619436e-09
K2E710,苗改生物防治研究中心,2026-02-07,24.422861,120.871833,1.2491661e-05
C0N040,蘆竹溝,2026-02-07,23.2344,120.0961,0.99984604
C0TB40,崇德,2026-02-07,24.166144,121.657414,6.921839e-07
C0D760,大坪苗圃,2026-02-07,24.5362,121.1108,2.0035666e-08
C2W230,畜試所澎湖,2026-02-07,23.628342,119.513206,0.999324
C0R880,後壁湖,2026-02-07,21.9457,120.7457,0.6321589
C1I280,埔中,2026-02-07,23.820778,120.642594,4.6951723e-09
467790,墾丁雷達站,2026-02-07,21.948235,120.808028,0.914392
C0W190,望安,2026-02-07,23.380564,119.494075,0.9995725
C0Z170,卓溪,2026-02-07,23.3443,121.3029,2.5347373e-07
C0F850,東勢,2026-02-07,24.246428,120.833047,4.5066707e-07
466900,淡水,2026-02-07,25.164889,121.448906,0.09458384
C0I370,魚池,2026-02-07,23.895703,120.94135,4.6497743e-09
C0C630,大溪,2026-02-07,24.882853,121.265547,0.002876642
C0A520,山佳,2026-02-07,24.974944,121.402008,2.917748e-06
C0I110,竹山,2026-02-07,23.761225,120.688156,4.0375974e-07
82H840,茶改南部分場,2026-02-07,23.762528,120.7405,5.8698215e-09
C2SD80,再來山,2026-02-07,23.34371,121.44122,0.97896737
C0G660,溪湖,2026-02-07,23.94835,120.479122,0.98790234
C1T800,洛韶,2026-02-07,24.204558,121.453956,4.452854e-08
C1T810,慈恩,2026-02-07,24.192044,121.388386,4.903103e-08
C1E451,象鼻,2026-02-07,24.368617,120.940228,7.0278294e-09
C0AC60,三峽,2026-02-07,24.939025,121.369728,0.38075224
C0I490,萬大林道,2026-02-07,23.928228,121.091411,8.775753e-09
C1I290,豐丘,2026-02-07,23.668178,120.887417,7.803157e-09
C1I320,奧萬大,2026-02-07,23.952956,121.178556,1.1752463e-08
C2M910,嘉義大學,2026-02-07,23.471325,120.485903,5.639757e-07
C0U770,南澳,2026-02-07,24.44935,121.81022,2.16766e-07
C2TB30,吉安,2026-02-07,23.94538,121.54803,1.1951394e-07
C0A980,社子,2026-02-07,25.109508,121.469681,4.065784e-06
C0V800,六龜,2026-02-07,22.997889,120.633583,2.4290591e-06
C1G9D0,國一S218K,2026-02-07,23.890641,120.493253,0.98252743
C0E570,白沙屯,2026-02-07,24.549447,120.696803,0.8979672
C2F9A0,中竹林,2026-02-07,24.103556,120.751061,8.9567315e-08
C0FA40,臺中電廠,2026-02-07,24.2146,120.4907,0.9982112
C2G9A0,畜試所彰化,2026-02-07,23.86045,120.557964,1.7887325e-05
C0H9C0,合歡山,2026-02-07,24.143442,121.272547,4.927018e-08
G2M350,農試溪口農場,2026-02-07,23.58565,120.408111,8.887817e-06
C0U860,頭城,2026-02-07,24.85323,121.8308,2.474696e-07
C0R580,南州,2026-02-07,22.48591,120.50274,0.99259895
C0D430,峨眉,2026-02-07,24.6905,121.017189,0.00077263656
C0G780,秀水,2026-02-07,24.03405,120.503869,0.98790234
72N100,臺南農改場,2026-02-07,23.0605,120.342194,0.9964702
C0S900,蘭嶼高中,2026-02-07,22.04909,121.51214,0.91705793
C2TA60,六十石,2026-02-07,23.22477,121.31861,4.8466827e-08
C1F9W0,德基,2026-02-07,24.254783,121.190261,2.1554497e-08
C2M980,安和,2026-02-07,23.51377,120.31593,0.9972668
C1Z120,壽豐,2026-02-07,23.870853,121.508081,1.3930484e-07
C0W160,烏坵,2026-02-07,24.9944,119.44956,0.9510677
C1I240,外大坪,2026-02-07,23.958697,120.917931,4.4286446e-09
C1I550,國六W023K,2026-02-07,23.979067,120.867742,2.0205391e-07
C0R870,興海,2026-02-07,21.9752,120.8439,0.74727577
C0R140,瑪家,2026-02-07,22.682903,120.686639,4.0106736e-09
C0A530,坪林,2026-02-07,24.938183,121.70975,4.4209628e-07
C0X260,後壁,2026-02-07,23.366358,120.362326,0.9996879
C0Z230,和平,2026-02-07,24.30717,121.77007,2.16766e-07
C0G770,福興,2026-02-07,24.041289,120.437669,0.9900255
C0H9A0,神木村,2026-02-07,23.532742,120.843667,7.2117734e-09
C0I460,南投,2026-02-07,23.911469,120.687331,0.04309723
C0I480,梅峰,2026-02-07,24.085272,121.173572,2.2140478e-08
C1V570,吉東,2026-02-07,22.85422,120.5454,0.9682564
C2A560,福山,2026-02-07,24.776203,121.502811,1.262715e-07
C0AH30,五分山,2026-02-07,25.07125,121.780794,1.4178009e-07
C0FA10,松柏,2026-02-07,24.429115,120.617482,0.8979672
72S200,東改班鳩分場,2026-02-07,22.829528,121.077694,6.340049e-05
72HA00,中改埔里分場,2026-02-07,23.903208,120.963364,4.7300204e-09
C2H9W0,大坪頂農水,2026-02-07,24.043122,120.932781,4.4286446e-09
C0C650,平鎮,2026-02-07,24.897503,121.214636,0.001702596
C0S930,延平,2026-02-07,22.902581,121.084058,8.884087e-07
C0UA60,樟樹山,2026-02-07,24.41393,121.78325,5.5576713e-08
C2UC10,出水溪,2026-02-07,24.615822,121.652253,5.5576713e-08
C1S670,摩天,2026-02-07,23.199503,121.027,1.8710985e-08
C2C590,觀音,2026-02-07,25.027072,121.153317,0.15142603
C0V630,茄萣,2026-02-07,22.906642,120.182608,0.99919915
466940,基隆,2026-02-07,25.133314,121.740475,3.3669223e-06
C0X050,東河,2026-02-07,23.296598,120.385608,8.4850035e-05
C0R770,保力,2026-02-07,22.071122,120.764111,0.97375244
G2L020,農試嘉義分所,2026-02-07,23.485028,120.473806,3.6866948e-07
C0X240,關子嶺,2026-02-07,23.331169,120.508025,2.8635339e-09
C0I380,集集,2026-02-07,23.828206,120.801467,2.9490232e-08
466990,花蓮,2026-02-07,23.975128,121.613275,7.397613e-07
C1V220,小關山,2026-02-07,23.154217,120.813603,9.958409e-09
C1F9G1,慶福山,2026-02-07,24.180853,120.848378,1.6775042e-08
C0FB20,雪山橋,2026-02-07,24.23192,120.9786,1.7733967e-08
C0Z250,瑞穗林道,2026-02-07,23.49284,121.30688,4.0046903e-08
C0D590,新豐,2026-02-07,24.87068,120.97721,0.00018836485
C0A870,五指山,2026-02-07,25.132153,121.608692,1.1542121e-06
C0UA50,西帽山,2026-02-07,24.555361,121.802628,4.9070792e-08
C2R980,竹田國中,2026-02-07,22.61532,120.52412,0.9884723
C0X160,仁德,2026-02-07,22.968258,120.257689,0.99885815
C1H971,六分寮,2026-02-07,23.92507,120.6378,5.4618315e-08
C0W120,西嶼,2026-02-07,23.5626,119.468436,0.99957895
C0G650,員林,2026-02-07,23.946503,120.585597,0.97852093
C0AD50,鶯歌,2026-02-07,24.951533,121.346294,0.18421651
C2H9Q0,北東眼山,2026-02-07,24.120939,121.189303,2.006852e-08
C2H9T0,名間竹圍,2026-02-07,23.859914,120.637572,1.3244914e-08
C0S990,山豬窟,2026-02-07,22.318619,120.857372,6.3546906e-08
C0X190,安平,2026-02-07,22.993161,120.152181,0.99919915
C0K400,斗六,2026-02-07,23.720583,120.541127,1.0835009e-05
12J990,口湖工作站,2026-02-07,23.589978,120.180394,0.99802023
C0O830,北寮,2026-02-07,23.079561,120.495008,0.004891534
C1D410,白蘭,2026-02-07,24.579364,121.079947,1.9302062e-08
C0S970,加津林,2026-02-07,22.416211,120.926942,0.99962515
C0D700,關西,2026-02-07,24.7977,121.1732,4.984417e-07
C0U750,龜山島,2026-02-07,24.841667,121.953133,9.619145e-08
C0R810,內獅,2026-02-07,22.305064,120.642986,0.9908773
C1M390,龍美,2026-02-07,23.406728,120.654417,4.192173e-09
C2K290,崙內,2026-02-07,23.69525,120.35601,0.8714104
C2FB60,頭櫃山,2026-02-07,24.129842,120.858925,5.188277e-09
C1H840,國三N238K,2026-02-07,23.841008,120.707711,2.9490232e-08
CAQ030,崎峰國小,2026-02-07,22.42565,120.49521,0.99259895
C2E520,大湖,2026-02-07,24.414939,120.870872,6.0220386e-06
467530,阿里山,2026-02-07,23.508208,120.813242,2.5353119e-08
C1E691,南湖,2026-02-07,24.40135,120.837533,6.108391e-08
C0FA30,梧棲,2026-02-07,24.256003,120.523381,0.99794346
C1V231,高中,2026-02-07,23.134911,120.716711,3.3829473e-09
C0AK30,硬漢嶺,2026-02-07,25.136097,121.426372,2.144926e-06
C0F9V0,新社,2026-02-07,24.200172,120.815806,5.0694755e-08
C0H890,埔里,2026-02-07,23.972169,120.952425,8.332537e-09
C0R690,墾丁,2026-02-07,21.966756,120.810269,0.9999397
C0SD20,富山,2026-02-07,22.822383,121.190825,5.048949e-05
C0F0D0,審馬陣,2026-02-07,24.381675,121.4203,7.20089e-08
C2W030,金門農試所,2026-02-07,24.448431,118.451786,0.6345344
C0R820,白鷺,2026-02-07,22.454275,120.666219,2.4963292e-08
C0FB00,大雪山,2026-02-07,24.254668,121.007374,2.5830344e-08
C1V190,南天池,2026-02-07,23.27403,120.91176,3.1847403e-08
C0E940,雪見,2026-02-07,24.42595,121.01347,2.5114254e-08
K2E360,苗栗農改場,2026-02-07,24.495722,120.829111,0.021530828
CAJ050,海口故事園區,2026-02-07,23.57543,120.14121,0.99845564
C2K280,四湖,2026-02-07,23.6304,120.22717,0.8971656
C2H9D0,三隻寮,2026-02-07,24.093078,120.861578,6.2027e-09
C0O990,媽廟,2026-02-07,22.99175,120.293525,0.9975908
C0D480,打鐵坑,2026-02-07,24.849664,121.150789,2.6009715e-07
C0Z220,和平林道,2026-02-07,24.343922,121.656317,5.4892148e-08
C0TA10,花蓮漁港,2026-02-07,23.995322,121.638331,0.7805653
72C440,桃園農改場,2026-02-07,24.950944,121.030583,0.0066572917
C1E711,馬拉邦山,2026-02-07,24.367306,120.901656,7.056197e-09
C0SB20,富岡,2026-02-07,22.792467,121.192669,0.9975297
C0D560,竹東,2026-02-07,24.767147,121.057881,0.00018836485
C0F9U0,南屯,2026-02-07,24.137006,120.637969,0.14577308
C2SD60,明峰,2026-02-07,22.8671,121.11825,4.9899955e-07
C0M720,番路,2026-02-07,23.464657,120.554156,9.303688e-09
C0F0A0,雪山圈谷,2026-02-07,24.388594,121.236339,6.098066e-08
C1A9N0,四十份,2026-02-07,24.934158,121.593283,2.9141947e-07
C0U760,東澳,2026-02-07,24.52196,121.83318,2.00458e-07
C0X230,鹽水,2026-02-07,23.272621,120.247641,0.99979997
C2H9H0,苗改南投蜂場,2026-02-07,23.852589,120.693481,4.0375974e-07
C2TB70,達谷寮,2026-02-07,23.38,121.35968,3.2246334e-07
C0R950,萬隆國小,2026-02-07,22.507667,120.587817,0.9773425
467540,大武,2026-02-07,22.35572,120.90374,0.99990195
C0V370,古亭坑,2026-02-07,22.893178,120.401947,0.039533287
C1I340,新興橋,2026-02-07,23.563333,120.868728,3.356781e-09
C0SA80,土坂,2026-02-07,22.453108,120.887572,0.6390882
C0R160,鹽埔,2026-02-07,22.739558,120.530778,0.9825661
C0AC40,大屯山,2026-02-07,25.175675,121.522408,3.230075e-07
466850,五分山雷達站,2026-02-07,25.071182,121.781205,1.3978168e-07
C2H9L0,馬烈霸,2026-02-07,24.1512,121.201772,2.1996984e-08
C1AI50,國三N016K,2026-02-07,25.034164,121.619664,2.4933588e-06
C2V920,匏子寮,2026-02-07,23.04905,120.55319,1.8717998e-05
C1V600,藤枝,2026-02-07,23.071961,120.757042,8.621376e-09
C1E601,南勢,2026-02-07,24.572486,120.734842,0.014536399
C0O980,新市,2026-02-07,23.061614,120.298197,0.99885815
C0K420,西螺,2026-02-07,23.800407,120.467394,2.724089e-05
C0Z050,佳心,2026-02-07,23.34567,121.21316,5.1262496e-08
C0AD30,蘆洲,2026-02-07,25.086594,121.472331,3.7333944e-06
C0V610,梓官,2026-02-07,22.760558,120.267211,0.9516562
K2F750,種苗改良場,2026-02-07,24.225972,120.800917,9.158961e-08
C0UA80,大溪漁港,2026-02-07,24.941801,121.902955,2.8335746e-06
C1AI60,國一39K邊坡,2026-02-07,25.064361,121.383836,7.870729e-07
C0W150,金寧,2026-02-07,24.457703,118.328989,9.80634e-05
C0R960,內埔,2026-02-07,22.608483,120.570714,0.9884723
V2C250,八德合作社,2026-02-07,24.93775,121.266389,0.01435817
C2H9S0,龍南,2026-02-07,23.953536,120.833183,4.797191e-09
C0AH40,平等,2026-02-07,25.129142,121.577086,9.111774e-06
C0R540,佳冬,2026-02-07,22.419456,120.552375,0.99259895
466950,彭佳嶼,2026-02-07,25.627975,122.079744,0.9999585
C0A890,雙溪,2026-02-07,25.036003,121.864242,2.065669e-06
C0C480,桃園,2026-02-07,24.992425,121.323172,0.055509705
C0AH50,林口,2026-02-07,25.072181,121.38084,5.8652523e-07
A2K360,水試臺西試驗場,2026-02-07,23.717231,120.190522,0.923087
C2M960,外寮,2026-02-07,23.562643,120.665688,3.926901e-09
C0F9S0,烏日,2026-02-07,24.107058,120.624103,0.97852093
C2N180,鹿陶洋,2026-02-07,23.14325,120.48352,2.408598e-06
C0C490,八德,2026-02-07,24.928708,121.283289,0.011578154
C0R190,赤山,2026-02-07,22.592333,120.614306,0.9856992
C0T820,天祥,2026-02-07,24.179597,121.495639,1.0672859e-07
C1F9E1,龍安,2026-02-07,24.1605,120.831961,3.9959765e-08
C2SD50,順那,2026-02-07,23.04166,121.29332,3.2930834e-06
C0V820,小林,2026-02-07,23.148408,120.63325,2.308986e-09
C2G870,芳苑,2026-02-07,23.922303,120.320025,0.9123787
C0E850,大河,2026-02-07,24.618069,120.948578,0.001023731
C1U670,寒溪,2026-02-07,24.634,121.71691,1.8342648e-07
C0N020,城西,2026-02-07,23.0568,120.0956,0.99919915
C1Z110,三棧,2026-02-07,24.11557,121.60501,7.925136e-08
C0R280,檳榔,2026-02-07,22.076078,120.836777,0.9999257
C2H9J0,中台,2026-02-07,23.9996,120.938739,5.821388e-09
C0F9L0,后里,2026-02-07,24.310436,120.729725,4.536511e-05
467441,高雄,2026-02-07,22.730432,120.312516,0.933848
C0Z180,新城,2026-02-07,24.040486,121.604878,7.086094e-07
C0D540,橫山,2026-02-07,24.71116,121.11693,1.797853e-05
C1D420,太閣南,2026-02-07,24.632808,121.160575,4.4413692e-08
C1E770,公館,2026-02-07,24.526914,120.830806,0.09586524
CAN130,水試所海水繁養殖中心,2026-02-07,23.120802,120.07968,0.99919915
C1I430,翠華,2026-02-07,24.191961,121.224339,2.8566728e-08
C1M400,菜瓜坪,2026-02-07,23.251928,120.576103,2.4637088e-09
C0G730,二林,2026-02-07,23.903325,120.376081,0.98790234
72M360,南改義竹分場,2026-02-07,23.360694,120.279361,0.9997716
V2K620,麥寮合作社,2026-02-07,23.753836,120.294783,0.8971656
C0Z070,舞鶴,2026-02-07,23.46811,121.37407,7.634186e-08
C0B040,大武崙,2026-02-07,25.166676,121.706993,2.405125e-06
C1Z030,紅葉,2026-02-07,23.493119,121.338806,8.400456e-08
C1I050,丹大,2026-02-07,23.753747,121.141147,3.4382158e-08
C0I080,信義,2026-02-07,23.689694,120.851036,3.3449126e-09
C2TB80,庄子底,2026-02-07,23.71794,121.49438,1.1659008e-07
C0D750,樂山林道6k,2026-02-07,24.49999,121.08773,3.254716e-08
C2M920,朴子農改,2026-02-07,23.469889,120.259383,0.99802023
C2A880,福隆,2026-02-07,25.017842,121.942083,2.8335746e-06
C0Z160,鳳林,2026-02-07,23.746114,121.453411,1.1048195e-07
C0UB80,翠峰林道6K,2026-02-07,24.49773,121.568625,5.0401948e-08
C0V210,復興,2026-02-07,23.222403,120.806089,3.3857295e-09
C0H990,昆陽,2026-02-07,24.121322,121.273642,3.972495e-08
C0R741,獅子,2026-02-07,22.202308,120.705236,0.9997262
C0S710,鹿野,2026-02-07,22.917711,121.122994,2.5993324e-07
C0I530,小奇萊,2026-02-07,24.131764,121.295717,4.357684e-08
C0FA70,大雪山埡口,2026-02-07,24.26867,121.03062,3.189725e-08
C2K630,荷苞,2026-02-07,23.657717,120.595144,8.900839e-08
C0Z080,富源,2026-02-07,23.587642,121.378225,6.5329296e-08
C2M9E0,旺來山,2026-02-07,23.555153,120.486463,5.3434146e-08
C0SB10,美和,2026-02-07,22.682078,121.060236,0.36633724
C2K620,馬光農場,2026-02-07,23.721453,120.378864,7.318977e-05
C1I140,卡奈托灣,2026-02-07,23.754364,121.087872,1.2493144e-08
C0I520,玉山風口,2026-02-07,23.470489,120.955994,5.7306902e-08
C1G691,下水埔,2026-02-07,23.816114,120.5676,7.3198808e-06
C0X110,臺南市南區,2026-02-07,22.961189,120.188378,0.99885815
C0V680,仁武,2026-02-07,22.701083,120.347722,0.8820851
C2G840,北斗,2026-02-07,23.877586,120.514222,0.97852093
C2TB90,長橋,2026-02-07,23.6874,121.46186,1.0732794e-07
C0R900,竹坑,2026-02-07,22.1385,120.7022,0.9998283
C0G860,社頭,2026-02-07,23.897647,120.5862,0.96829736
C0X150,安定,2026-02-07,23.102614,120.227839,0.99919915
C0R590,里港,2026-02-07,22.77919,120.49459,0.9825661
C0E610,馬都安,2026-02-07,24.451272,120.930192,1.848002e-08
C0E550,明德,2026-02-07,24.583486,120.885411,0.13475373
C0R150,三地門,2026-02-07,22.709889,120.639944,0.8955593
C0G910,花壇,2026-02-07,24.032076,120.549461,0.98252743
C1D400,鳥嘴山,2026-02-07,24.71909,121.28387,5.0196928e-08
C0K500,元長,2026-02-07,23.64981,120.315024,0.8971656
C0F0B0,石岡,2026-02-07,24.276061,120.777644,4.752301e-06
C2V250,甲仙,2026-02-07,23.080106,120.591758,1.0971993e-06
C0SA20,金崙山,2026-02-07,22.567419,120.959667,1.5898193e-07
C0V350,溪埔,2026-02-07,22.738578,120.446797,0.9849439
C0M660,溪口,2026-02-07,23.604131,120.403569,8.887817e-06
C1S880,壽卡,2026-02-07,22.238911,120.858903,3.606506e-08
72D680,桃改新埔分場,2026-02-07,24.834444,121.066111,0.001401204
