站號,站名,日期,lat,lon,BLBTSLS
C0R710,龍磐,2026-01-07,21.931672,120.838942,0.99987733
C1F9D1,白毛台,2026-01-07,24.158325,120.886933,6.481914e-09
C0G940,竹塘,2026-01-07,23.848253,120.386764,3.0823772e-09
467590,恆春,2026-01-07,22.003897,120.746339,0.9997963
C1O850,環湖,2026-01-07,23.148617,120.418633,1.3222745e-09
C0U710,太平山,2026-01-07,24.505486,121.525656,4.675041e-08
C0E820,獅潭,2026-01-07,24.539133,120.920042,1.0764366e-05
C2SD70,二層坪,2026-01-07,22.94105,121.16838,8.580433e-08
C0V880,興達,2026-01-07,22.8778,120.2127,0.0005708427
C0S890,關山,2026-01-07,23.0395,121.175017,8.221338e-08
C0SB30,新蘭,2026-01-07,22.869214,121.223228,2.5253226e-07
C2R970,屏科大,2026-01-07,22.648275,120.619247,8.114104e-10
C1Z130,銅門,2026-01-07,23.965694,121.492842,3.2752414e-08
C0AD40,土城,2026-01-07,24.973208,121.445169,1.9115363e-07
CAN140,六官養殖協會,2026-01-07,23.22881,120.29962,6.3715175e-05
C0X180,山上,2026-01-07,23.0757,120.363253,6.8567165e-06
C0F9Z0,雪山東峰,2026-01-07,24.388792,121.268675,5.5908004e-08
C1M480,獨立山,2026-01-07,23.537022,120.607797,3.5100816e-09
C0X220,學甲,2026-01-07,23.230367,120.182187,5.5946355e-05
467650,日月潭,2026-01-07,23.881325,120.90805,5.438543e-09
A2K570,古坑(花卉中心),2026-01-07,23.633531,120.552392,3.0484486e-09
C0K600,箔子寮,2026-01-07,23.6197,120.14,0.0003654508
C0G830,埤頭,2026-01-07,23.866003,120.452806,2.711372e-09
C0S950,七塊厝,2026-01-07,22.954453,121.229922,4.0809503e-08
467110,金門,2026-01-07,24.407306,118.289281,0.09432307
C0AH80,深坑,2026-01-07,25.002703,121.628328,2.722607e-07
C0A970,三貂角,2026-01-07,25.007606,122.002058,4.726109e-07
C2D730,寶山農場,2026-01-07,24.732444,120.976153,7.4188436e-05
C0K430,褒忠,2026-01-07,23.690938,120.303634,0.019623848
467480,嘉義,2026-01-07,23.495925,120.432906,1.4790649e-09
C0V400,阿公店,2026-01-07,22.804194,120.355528,0.00016799934
C0E960,觀霧分站,2026-01-07,24.505781,121.113921,3.1942122e-08
467550,玉山,2026-01-07,23.48718,120.95943,6.260682e-08
C0R440,大漢山,2026-01-07,22.405264,120.753181,1.8201392e-08
C0SD30,東清國小,2026-01-07,22.057128,121.564922,0.9912142
C1F9B1,桐林,2026-01-07,24.066172,120.735194,2.6252567e-09
C2H9U0,鳳鵬,2026-01-07,23.763919,120.788061,2.1816136e-09
C0K390,土庫,2026-01-07,23.679029,120.395574,3.0157445e-09
C1I450,望鄉山,2026-01-07,23.594153,120.944286,3.9732527e-08
C0E910,海埔,2026-01-07,24.648767,120.772435,0.0032404715
B2E890,畜試北區分所,2026-01-07,24.527806,120.770972,0.00024622816
C0R750,四林格山,2026-01-07,22.076989,120.802439,0.00015140706
C0F0C0,中坑,2026-01-07,24.248517,120.903319,8.326865e-09
C1I121,大鞍,2026-01-07,23.678381,120.760017,1.1193743e-08
C2G9E0,移民庄,2026-01-07,23.9784,120.40283,1.0553176e-05
72U480,花改蘭陽分場,2026-01-07,24.686306,121.716583,4.7719695e-08
C0A770,科教館,2026-01-07,25.096356,121.516507,2.0323665e-07
C0AJ60,六塊厝,2026-01-07,25.24,121.4481,0.003018028
C0R620,墾雷,2026-01-07,21.900836,120.855269,0.9997859
467420,永康,2026-01-07,23.038386,120.2367,0.00010965707
C2M530,奮起湖,2026-01-07,23.493903,120.699253,8.1630995e-09
C0I410,名間,2026-01-07,23.837053,120.701447,1.8146232e-09
A2C560,農工中心,2026-01-07,24.985917,121.239833,9.08438e-05
C0V740,旗山,2026-01-07,22.888614,120.483597,1.0335724e-09
C0Z061,玉里,2026-01-07,23.3215,121.339656,2.4659006e-08
C0S840,南田,2026-01-07,22.279725,120.889208,0.9998812
C1I470,杉林溪,2026-01-07,23.639517,120.786444,1.2010507e-08
C1X040,東原,2026-01-07,23.291597,120.463822,1.2419795e-09
C0R660,枋寮,2026-01-07,22.367722,120.590647,5.123532e-08
C1R120,上德文,2026-01-07,22.763272,120.704442,4.847938e-09
C0K450,大埤,2026-01-07,23.646074,120.431537,3.0021543e-09
C0UA00,土場,2026-01-07,24.576533,121.495333,5.2809103e-08
467080,宜蘭,2026-01-07,24.763975,121.756528,5.3807444e-08
C0N030,四草,2026-01-07,23.0235,120.1116,0.0004302744
467410,臺南,2026-01-07,22.99328,120.20492,9.641073e-05
C0V650,彌陀,2026-01-07,22.783806,120.246361,0.0018067154
C0D660,新竹市東區,2026-01-07,24.798681,120.986942,0.00038882284
82S580,茶改東部分場,2026-01-07,22.907694,121.130139,9.85966e-08
C0SB40,興隆,2026-01-07,22.913661,121.257469,3.2840967e-07
467050,新屋,2026-01-07,25.006725,121.047492,0.001732749
C0C710,大溪永福,2026-01-07,24.892936,121.324975,6.252312e-05
C0FA20,溫寮,2026-01-07,24.372177,120.583125,0.9896185
C0V640,湖內,2026-01-07,22.887139,120.2445,0.00038435735
C0R910,下寮,2026-01-07,22.3929,120.5548,6.052988e-08
C0Z020,明里,2026-01-07,23.208717,121.262342,2.422268e-08
C0M770,嘉義梅山,2026-01-07,23.585398,120.555587,1.5966598e-09
C0C660,楊梅,2026-01-07,24.912375,121.143047,5.1081057e-05
C0SD40,牛頭山,2026-01-07,22.676661,121.506944,0.9996282
C1E511,新開,2026-01-07,24.347703,120.827019,3.7656477e-08
G2F820,農試所(霧峰),2026-01-07,24.031261,120.688133,2.6404323e-09
C2M990,大巃頂,2026-01-07,23.5547,120.61439,4.8646385e-09
C1I070,和社,2026-01-07,23.591131,120.888861,4.7353557e-09
C2E990,新坪頂,2026-01-07,24.30201,120.8574,1.8128564e-08
C0TA80,立霧山,2026-01-07,24.183258,121.641899,3.443696e-08
C2F000,大肚,2026-01-07,24.15295,120.572117,0.004164057
C1S850,豐南,2026-01-07,23.122139,121.262389,3.8367705e-08
C2M9B0,西興,2026-01-07,23.2428,120.57617,1.7310732e-09
C2A920,富貴角,2026-01-07,25.263783,121.565258,2.3982742e-05
CAH030,茶改場竹圍站,2026-01-07,23.860083,120.637528,2.1500042e-09
C0T960,光復,2026-01-07,23.660694,121.424964,3.4489418e-08
C0F9M0,豐原,2026-01-07,24.254322,120.720692,6.7347045e-08
C0R720,旭海,2026-01-07,22.205403,120.887614,0.999741
C0V710,苓雅,2026-01-07,22.622742,120.330669,0.0011843618
C0C740,觀音工業區,2026-01-07,25.064764,121.114856,0.0020517253
CAC040,拉拉山,2026-01-07,24.699317,121.427133,6.272133e-08
C0V790,萬山,2026-01-07,22.905944,120.688056,2.7169684e-09
U2HA30,臺大和社,2026-01-07,23.590856,120.888864,4.7353557e-09
C2H9K0,屯原,2026-01-07,24.067969,121.209389,1.9160037e-08
C0AJ90,澳底,2026-01-07,25.0552,121.9253,1.0355383e-06
C0Z100,東華,2026-01-07,23.89525,121.549833,4.501821e-08
C0G970,三豐,2026-01-07,23.882,120.2895,0.54818165
V2K610,大庄合作社,2026-01-07,23.8068,120.367939,0.023587001
C0V900,汕尾,2026-01-07,22.4782,120.4151,2.6485292e-08
C1R630,龍泉,2026-01-07,22.66701,120.59091,7.921697e-10
C1AC50,關渡,2026-01-07,25.133486,121.469331,2.7736065e-05
C0C800,四稜,2026-01-07,24.64733,121.4293,6.1902696e-08
C0F9I0,神岡,2026-01-07,24.272481,120.658314,7.4409584e-08
C0K460,斗南,2026-01-07,23.678734,120.478359,3.0020626e-09
C2O810,曾文,2026-01-07,23.219681,120.497328,1.3565907e-09
467280,後龍,2026-01-07,24.648563,120.831834,0.0010772798
C1F9J1,清水林,2026-01-07,24.071242,120.820419,4.222507e-09
C2A650,火燒寮,2026-01-07,25.002719,121.742892,1.2747856e-07
466930,竹子湖,2026-01-07,25.162078,121.544547,2.2975544e-07
C1I220,樟湖,2026-01-07,23.905333,120.846983,6.5324786e-09
C0I390,仁愛,2026-01-07,24.022122,121.132206,6.410639e-09
C0Z300,東里,2026-01-07,23.26853,121.30547,2.4775783e-08
C1V590,新發,2026-01-07,23.057019,120.646064,3.4226482e-09
C0K510,水林,2026-01-07,23.572924,120.24597,9.713384e-05
72S590,東改賓朗果園,2026-01-07,22.813889,121.071278,2.9328552e-07
82A750,茶改北部分場,2026-01-07,24.955778,121.631222,9.566469e-08
C1A750,石碇服務區,2026-01-07,25.00872,121.646242,2.9318403e-07
C0X300,鹿寮,2026-01-07,23.386047,120.477331,1.5482502e-09
G2AI50,關渡,2026-01-07,25.11575,121.492,2.1499974e-07
C0K590,雲林東勢,2026-01-07,23.674192,120.255721,0.025163233
C2K310,港尾布雞,2026-01-07,23.74834,120.38439,2.8502218e-09
C0A570,桶後,2026-01-07,24.848222,121.597992,9.870178e-08
C1S800,華源,2026-01-07,22.657883,121.02325,3.8342905e-06
C0G720,溪州,2026-01-07,23.851589,120.499093,2.7033784e-09
C1V160,達卡努瓦,2026-01-07,23.279811,120.705319,4.9606226e-09
C2M410,馬頭山,2026-01-07,23.324361,120.582017,1.4049896e-09
C0V850,蚵仔寮,2026-01-07,22.7256,120.2527,0.0037441575
C0S740,池上,2026-01-07,23.119628,121.209469,6.268784e-08
C1V390,尖山,2026-01-07,22.813153,120.367789,4.8452494e-05
C0AH70,松山,2026-01-07,25.04871,121.55042,1.9771791e-07
C0N010,鯤鯓國小,2026-01-07,23.1879,120.0889,8.005441e-05
C0R550,新埤,2026-01-07,22.467947,120.582894,3.7655255e-08
C0SA60,知本（水試所）,2026-01-07,22.702394,121.082761,6.690658e-05
C0T9I0,豐濱,2026-01-07,23.583897,121.514806,2.797874e-08
C0UB00,淡江大學蘭陽校園,2026-01-07,24.823239,121.730383,4.257534e-08
C0W240,九宮,2026-01-07,24.423753,118.240186,1.1026644e-06
C0T9N0,富里,2026-01-07,23.171639,121.249378,2.3788811e-08
U2HA50,臺大竹山,2026-01-07,23.756972,120.681556,1.7075411e-09
C0V840,鳳鼻頭,2026-01-07,22.5083,120.3591,2.4144358e-08
C0X140,西港,2026-01-07,23.125608,120.203108,3.4895e-05
72D080,桃改五峰分場,2026-01-07,24.612194,121.157167,2.1151832e-08
C2H9P0,伊拿谷,2026-01-07,23.963211,121.088264,4.2562576e-09
C2K250,崙背,2026-01-07,23.75553,120.31893,0.019543594
C2H9F0,柑林,2026-01-07,24.018658,120.847072,2.620649e-09
C0TA20,加灣,2026-01-07,24.082025,121.608944,6.561339e-08
C0V530,阿蓮,2026-01-07,22.883208,120.327508,4.8018268e-05
C0FB30,八仙山苗圃,2026-01-07,24.192719,121.001366,8.074924e-09
C1O880,關山,2026-01-07,23.173397,120.594092,1.4132219e-09
C0E791,卓蘭,2026-01-07,24.3126,120.8244,3.3997996e-08
C1I030,武界,2026-01-07,23.913225,121.052483,4.6293507e-09
C0R520,崁頂,2026-01-07,22.514781,120.506914,4.2445368e-08
C0R341,牡丹,2026-01-07,22.130036,120.792639,2.103999e-06
C0R930,萬丹,2026-01-07,22.5885,120.4851,1.9414752e-08
C0S760,紅石,2026-01-07,23.069131,121.126219,1.9014486e-08
C2C410,中央大學,2026-01-07,24.967652,121.185165,6.922804e-05
C1M610,石磐龍,2026-01-07,23.496606,120.663506,6.2110823e-09
C0C790,東眼山,2026-01-07,24.8284,121.40888,5.914858e-08
C0UA10,鴛鴦湖,2026-01-07,24.590269,121.412228,4.617483e-08
V2C260,八德蔬果,2026-01-07,24.978508,121.281819,6.9696354e-05
C0R800,丹路,2026-01-07,22.204481,120.750989,1.3214164e-05
C0G920,永靖,2026-01-07,23.924703,120.547533,3.2805513e-06
C2M950,太和,2026-01-07,23.538372,120.702961,8.072214e-09
C1A630,下盆,2026-01-07,24.771003,121.538622,7.221907e-08
B2N890,畜產試驗所,2026-01-07,23.058972,120.336406,4.7673057e-05
C0UA30,白嶺,2026-01-07,24.527819,121.519031,4.1131457e-08
C1V580,溪南(特生中心),2026-01-07,23.084972,120.788475,1.0683405e-08
C1T970,大農,2026-01-07,23.615233,121.413331,3.1911796e-08
C0R650,竹田,2026-01-07,22.58486,120.54344,3.6724156e-08
C1H900,清流,2026-01-07,24.080775,120.962997,4.3066755e-09
C1C510,水尾,2026-01-07,24.940081,121.087161,0.00034288265
C2N170,茅港尾,2026-01-07,23.2061,120.2624,7.539194e-05
C0F9X0,大雅(中科園區),2026-01-07,24.21528,120.62445,0.19448082
C0SB60,白守蓮,2026-01-07,23.126769,121.401914,0.99962884
C0O970,虎頭埤,2026-01-07,23.021375,120.347878,7.761836e-06
C0C730,中大臨海站,2026-01-07,24.966126,121.008581,0.0068490794
C0X250,新營,2026-01-07,23.310689,120.316681,3.911674e-05
C0V700,三民,2026-01-07,22.645017,120.311233,0.006052678
C0U870,大礁溪,2026-01-07,24.791042,121.675047,3.7499653e-08
C0E870,高鐵苗栗,2026-01-07,24.60725,120.826094,0.001336786
A2K570,古坑花卉中心,2026-01-07,23.63353,120.55239,6.5884995e-09
C0TA30,鹽寮,2026-01-07,23.845606,121.592664,4.6660972e-08
C0M860,新美,2026-01-07,23.338017,120.683169,2.88001e-09
C1E701,八卦,2026-01-07,24.491756,120.927619,2.595742e-08
C2TA90,加納納,2026-01-07,23.466421,121.359867,2.1415413e-08
C0I420,國姓,2026-01-07,24.037803,120.855072,2.7003997e-09
C2D720,關西工作站,2026-01-07,24.757275,121.184792,2.5107246e-07
C0S960,香蘭,2026-01-07,22.587569,120.993375,0.010183521
467620,蘭嶼,2026-01-07,22.0369,121.55843,0.99834436
C0R260,春日,2026-01-07,22.370361,120.628306,2.2782723e-08
72G600,臺中農改場,2026-01-07,24.003028,120.534389,3.24266e-06
C0Z210,瑞穗,2026-01-07,23.5239,121.39021,2.734151e-08
C0M820,達邦,2026-01-07,23.453994,120.749517,5.248804e-09
C0V860,南寮,2026-01-07,22.7616,120.2339,0.0038986225
C0G740,大城,2026-01-07,23.852487,120.320935,0.4987062
C0R920,塭仔,2026-01-07,22.4169,120.5197,6.351225e-08
C0R470,高樹,2026-01-07,22.826389,120.600806,7.8348145e-10
C0R680,佳樂水,2026-01-07,21.993578,120.861633,0.9997642
C1O870,大棟山,2026-01-07,23.31157,120.52226,5.7993006e-09
C0D360,梅花,2026-01-07,24.678347,121.208558,6.96995e-08
C0Z190,富世,2026-01-07,24.14743,121.6297,0.0003006599
C0AI10,屈尺,2026-01-07,24.92184,121.54475,1.6503041e-07
B2U990,畜試東區分所,2026-01-07,24.669039,121.832561,6.00806e-08
C0SB80,長濱漁港,2026-01-07,23.313644,121.459994,0.9993473
C0TA50,和仁,2026-01-07,24.241394,121.712472,0.00018356986
C0V910,大樹,2026-01-07,22.684645,120.432803,1.4130467e-09
C1R610,西大武山,2026-01-07,22.617719,120.7322,1.8678822e-08
C0G900,線西,2026-01-07,24.143358,120.443536,0.9847202
C0M700,竹崎,2026-01-07,23.526178,120.555508,1.4876886e-09
C2E880,三義,2026-01-07,24.405478,120.749819,3.2802092e-07
C0C720,竹圍,2026-01-07,25.112692,121.239824,0.0011640693
C0F9P0,清水,2026-01-07,24.312297,120.562242,0.98238045
C0Z150,吉安光華,2026-01-07,23.930925,121.595153,4.5138325e-08
C0FA80,小雪山天池,2026-01-07,24.28025,121.02627,3.4671125e-08
467300,東吉島,2026-01-07,23.25727,119.66762,0.9987681
C1D640,外坪(五指山),2026-01-07,24.644447,121.090961,1.8618873e-07
C2R9A0,高士國小,2026-01-07,22.12553,120.84653,5.108138e-06
C0F9O0,潭子,2026-01-07,24.213106,120.703933,9.223369e-08
C2H9R0,卓社,2026-01-07,23.887894,121.000086,7.827709e-09
72T250,花蓮農改場,2026-01-07,23.975222,121.563889,4.3216534e-08
C0E780,銅鑼,2026-01-07,24.489681,120.790853,2.497071e-05
C1T950,太安,2026-01-07,23.666719,121.370128,1.0678129e-08
C0E830,苑裡,2026-01-07,24.439714,120.653053,0.004803159
467270,田中,2026-01-07,23.873803,120.581286,2.9088e-09
C0SA10,檳榔四格山,2026-01-07,22.810031,121.109308,1.4102841e-07
C1T830,布洛灣,2026-01-07,24.17184,121.57127,4.8204814e-08
C0F970,大坑,2026-01-07,24.173142,120.722289,1.3538224e-07
C1U920,思源,2026-01-07,24.393125,121.347214,3.6083293e-08
C2H9Y0,松茗,2026-01-07,23.8167,120.650765,2.4149092e-09
C0A931,三和,2026-01-07,25.233153,121.595236,9.740072e-06
C0I010,廬山,2026-01-07,24.033311,121.181808,1.1008855e-08
C2M940,日野賀,2026-01-07,23.434056,120.727169,6.3348895e-09
C0R860,鼻頭,2026-01-07,22.1043,120.8979,0.99888706
C0UB20,壯圍,2026-01-07,24.7359,121.8163,5.614449e-08
C0R790,九棚,2026-01-07,22.14195,120.889281,0.9997027
C0W110,東莒,2026-01-07,25.9652,119.98069,0.8958625
C1U930,粉鳥林,2026-01-07,24.497088,121.842479,4.3528328e-07
C1I211,蘆竹湳,2026-01-07,23.934019,120.811994,3.419053e-09
C0S830,長濱,2026-01-07,23.286817,121.411975,2.2857588e-08
C1F9F1,伯公龍,2026-01-07,24.272392,120.849047,2.0127784e-08
C0UB90,太平山莊,2026-01-07,24.494171,121.536209,4.701967e-08
C0E810,西湖,2026-01-07,24.562947,120.7485,0.004821883
C1I440,新高口,2026-01-07,23.478744,120.878939,2.7831149e-08
C0O840,王爺宮,2026-01-07,23.222064,120.40085,1.4033559e-09
C0T9G0,鳳林山,2026-01-07,23.735269,121.420131,3.1422502e-08
C0X080,佳里,2026-01-07,23.173039,120.145086,7.552512e-05
C0FB70,大甲溪埔,2026-01-07,24.370625,120.620067,0.9790323
C0Z310,清水斷崖,2026-01-07,24.218294,121.689142,1.6129718e-05
C0M680,太保,2026-01-07,23.455062,120.331455,5.7732803e-05
C1S820,金峰,2026-01-07,22.590969,120.933236,3.6913658e-05
C0AD10,八里,2026-01-07,25.150211,121.403947,0.0003501137
C2K240,草嶺,2026-01-07,23.59555,120.693461,6.6793864e-09
C1SA70,都蘭,2026-01-07,22.87794,121.226881,2.2379623e-07
C0K440,二崙,2026-01-07,23.772797,120.408944,2.688005e-09
C1A760,坪林交控,2026-01-07,24.94284,121.713442,1.7102269e-07
C0F9N0,大里,2026-01-07,24.092464,120.701378,2.6401101e-09
C0SA90,達仁林場,2026-01-07,22.264347,120.823972,1.0633091e-08
C1R290,石門山,2026-01-07,22.112611,120.756597,0.1404854
42HA10,萬大發電廠,2026-01-07,23.978875,121.139639,5.4656013e-09
C0R890,山海,2026-01-07,21.9878,120.7091,0.9997654
C0T9A0,月眉山,2026-01-07,23.809928,121.539828,2.6017545e-08
C0AC70,信義,2026-01-07,25.037822,121.564597,2.0226156e-07
C0K560,棋山,2026-01-07,23.68645,120.603417,2.8831428e-09
C2FB50,出雲,2026-01-07,24.206469,120.902794,9.146459e-09
C1Z240,中平林道,2026-01-07,23.42115,121.26763,2.5062716e-08
U2H480,溪頭,2026-01-07,23.670306,120.798194,7.852322e-09
C0M880,好美里,2026-01-07,23.3364,120.138,8.196636e-05
C0T9E0,大坑,2026-01-07,23.880628,121.581981,3.2570945e-08
C0K530,臺西,2026-01-07,23.701547,120.197559,0.12956576
C1E900,國一N128K,2026-01-07,24.560997,120.844186,0.00032004493
C0AJ50,水湳洞,2026-01-07,25.123695,121.862238,9.874366e-07
C0AI20,白沙灣,2026-01-07,25.283128,121.519058,0.003255789
C2V310,美濃,2026-01-07,22.898792,120.51907,1.0639294e-09
C0A860,大坪,2026-01-07,25.165914,121.632969,9.97204e-08
C1U850,觀音海岸,2026-01-07,24.38319,121.77856,2.869889e-08
C2K610,草嶺石壁,2026-01-07,23.602469,120.707731,6.8987247e-09
C0U950,鶯子嶺,2026-01-07,24.89754,121.79244,5.1480313e-08
C0O900,善化,2026-01-07,23.112883,120.297219,0.0001428817
C0K550,蔦松,2026-01-07,23.514319,120.229736,0.00016457119
E2P980,林試六龜中心,2026-01-07,22.991703,120.645722,8.763153e-10
C0E590,通霄,2026-01-07,24.471892,120.704622,0.021300346
C1I310,西巒,2026-01-07,23.754486,120.883956,7.1475754e-09
C0A550,泰平,2026-01-07,24.971197,121.823711,8.698499e-08
C0I360,水里,2026-01-07,23.812553,120.849792,1.9031747e-09
C0R830,高士,2026-01-07,22.121825,120.836781,0.01324153
C1I101,溪頭,2026-01-07,23.661789,120.807647,1.3540787e-08
C0AJ20,野柳,2026-01-07,25.20703,121.690021,0.002094482
C0B060,暖暖,2026-01-07,25.0957,121.7403,3.6168117e-07
C1H920,長豐,2026-01-07,24.102039,120.879897,3.5664862e-09
C2S9B0,利吉,2026-01-07,22.86246,121.15486,1.1363876e-07
C0V360,內門,2026-01-07,22.975481,120.466769,9.556339e-10
C0R850,林邊,2026-01-07,22.4634,120.5339,6.9838165e-08
C0E930,龍鳳,2026-01-07,24.700034,120.859125,0.0013692883
C0U910,冬山,2026-01-07,24.63373,121.7937,6.00806e-08
C1E721,泰安,2026-01-07,24.489017,120.968036,2.8274979e-08
82H320,茶改中部分場,2026-01-07,23.875611,120.913583,4.457092e-09
C0M750,布袋,2026-01-07,23.380878,120.167789,0.00017240562
C1S860,利嘉,2026-01-07,22.809417,121.050528,6.901558e-08
E2S980,林試太麻里1,2026-01-07,22.598922,120.980044,0.00060763274
C0X170,關廟,2026-01-07,22.963017,120.327797,1.6221997e-05
C0V720,林園,2026-01-07,22.507747,120.394511,2.7318887e-08
C1I510,線浸林道,2026-01-07,23.761508,120.832956,8.304343e-09
C0D690,外湖,2026-01-07,24.917735,120.968711,0.99119604
C0C750,新興坑尾,2026-01-07,25.0061,121.0971,0.0005513497
B2Q810,畜試南區分所,2026-01-07,21.945583,120.802167,0.9997595
C0S790,金崙,2026-01-07,22.538122,120.966875,2.5101235e-05
C0AH90,福山植物園,2026-01-07,24.760717,121.58135,6.7663656e-08
C0I540,奇萊稜線,2026-01-07,24.109231,121.326456,4.689348e-08
C0M850,表湖,2026-01-07,23.24186,120.64166,3.0016618e-09
C0S770,大溪山,2026-01-07,22.478475,120.943325,9.457006e-07
C0AG80,中和,2026-01-07,24.991622,121.491792,1.9060298e-07
C0T790,大禹嶺,2026-01-07,24.186117,121.316086,3.8364483e-08
C0T9B0,水源,2026-01-07,23.991861,121.537169,3.1574743e-08
C0R840,牡丹池山,2026-01-07,22.168389,120.841225,1.136824e-08
C1I131,桶頭,2026-01-07,23.641944,120.654117,2.1703124e-09
CAL110,布袋國中,2026-01-07,23.35893,120.18026,8.306639e-05
C2M9D0,何竹子腳,2026-01-07,23.53641,120.38203,1.4738045e-09
467571,新竹,2026-01-07,24.827853,121.014219,0.0011756854
C0Z290,赤柯山,2026-01-07,23.36893,121.38293,2.638093e-08
C0X280,將軍,2026-01-07,23.214999,120.13577,6.997913e-05
C0S690,太麻里,2026-01-07,22.60902,120.98533,2.1345542e-07
C0U880,北關,2026-01-07,24.9072,121.8734,1.6619156e-06
CAW010,東引,2026-01-07,26.3588,120.4836,0.78231955
C0G810,埔心,2026-01-07,23.947633,120.525456,3.4512889e-06
C0U970,大福,2026-01-07,24.80064,121.81389,5.5711286e-08
C2H9N0,仁愛東眼,2026-01-07,24.026875,121.1205,9.1809955e-09
C1E670,南礦,2026-01-07,24.538278,121.002836,2.7980661e-08
C0M520,東後寮,2026-01-07,23.369908,120.248065,5.9929574e-05
C1E461,松安,2026-01-07,24.397972,120.986022,2.1601416e-08
C2N160,西拉雅風管處,2026-01-07,23.189481,120.335297,2.0124435e-05
C2M970,碧湖,2026-01-07,23.568632,120.624165,4.80668e-09
C0A640,石碇,2026-01-07,24.993969,121.662917,1.7086e-07
E2S960,林試太麻里2,2026-01-07,22.598,120.99775,0.015040064
C0F9Y0,桃山,2026-01-07,24.432739,121.303808,5.8326382e-08
C1I020,萬大,2026-01-07,23.979817,121.132261,6.5108967e-09
C2UC20,長嶺,2026-01-07,24.70894,121.61162,6.213692e-08
C0U940,羅東,2026-01-07,24.68184,121.74934,4.8740766e-08
C0M650,朴子,2026-01-07,23.43463,120.23902,0.000121967285
C1I500,大尖山,2026-01-07,23.858572,120.994889,1.7116017e-08
C0FB40,中橫21.6k,2026-01-07,24.2499,121.1455,1.1453164e-08
C0G820,田尾,2026-01-07,23.901669,120.509389,3.4138495e-06
E2K600,四湖植物園,2026-01-07,23.676986,120.163433,0.10439083
C0S730,綠島,2026-01-07,22.6672,121.47533,0.9996533
12Q970,東港工作站,2026-01-07,22.479997,120.466058,7.068512e-08
C1TA00,太魯閣,2026-01-07,24.15773,121.6236,2.281841e-07
466920,臺北,2026-01-07,25.037658,121.514853,1.9771791e-07
C0R600,舊泰武,2026-01-07,22.588194,120.664944,8.184661e-09
C1I260,北坑,2026-01-07,23.9246,121.006903,2.9278477e-09
466910,鞍部,2026-01-07,25.182586,121.529731,1.3450571e-07
C1I230,九份二山,2026-01-07,23.961944,120.845,4.9934967e-09
C2M810,里佳,2026-01-07,23.389125,120.716647,8.137465e-09
C2A660,瑞芳,2026-01-07,25.113169,121.801147,3.1855822e-07
C0R270,琉球嶼,2026-01-07,22.332244,120.362236,6.644408e-08
C2V580,瑞山,2026-01-07,22.90304,120.43424,9.569381e-10
C1T990,高寮,2026-01-07,23.394239,121.356808,2.7221672e-08
C0G620,芬園,2026-01-07,24.015678,120.6213,1.010083e-06
C1Z140,荖溪,2026-01-07,23.890575,121.45964,3.5940285e-08
C1I201,中心崙,2026-01-07,23.728722,120.712097,3.4184335e-09
C1I400,凌霄,2026-01-07,24.018778,121.004456,8.9168415e-09
C1M640,十字,2026-01-07,23.492153,120.753683,1.0280325e-08
G2P820,農試鳳山分所,2026-01-07,22.646611,120.356083,0.00047415346
C0Z270,蕃薯寮,2026-01-07,23.73835,121.540108,2.8247758e-08
C2E420,竹南,2026-01-07,24.70898,120.88897,0.0005980079
C0FB10,出雲山苗圃,2026-01-07,24.23105,120.90475,8.323943e-09
C0F9Q0,外埔,2026-01-07,24.347817,120.705686,1.1258508e-07
C0K580,高鐵雲林,2026-01-07,23.737456,120.417944,2.8132356e-09
C2I090,鳳凰,2026-01-07,23.728081,120.787347,5.330037e-09
C0U990,員山,2026-01-07,24.74435,121.72247,4.910328e-08
C0V770,大社,2026-01-07,22.730306,120.346639,0.00096724625
C0X120,麻豆,2026-01-07,23.183289,120.248611,4.163758e-05
C0C670,龍潭,2026-01-07,24.870056,121.221389,2.3637256e-07
C0D680,香山濕地,2026-01-07,24.783581,120.914988,0.99078625
C0S980,勝林山,2026-01-07,22.430439,120.8938,6.5101545e-08
C0V730,大寮,2026-01-07,22.605614,120.395717,4.5533323e-08
C0R570,麟洛,2026-01-07,22.65078,120.52719,9.323472e-10
C2M930,石卓,2026-01-07,23.478744,120.702264,1.0102563e-08
C0G9B0,和美,2026-01-07,24.105169,120.492131,6.0781904e-06
CAG100,王功漁港,2026-01-07,23.96824,120.32586,0.000388877
C0X290,北門,2026-01-07,23.267772,120.125481,7.09536e-05
C2F930,大甲,2026-01-07,24.347667,120.640403,2.1860221e-07
C0D650,湖口,2026-01-07,24.904794,121.043628,0.00043352344
C0U780,五結,2026-01-07,24.68637,121.79794,6.00806e-08
C1I250,鯉潭,2026-01-07,23.961922,120.991131,3.5322445e-09
C0R130,阿禮,2026-01-07,22.742908,120.743678,6.0301804e-09
C0X100,臺南市北區,2026-01-07,23.010394,120.194228,0.00025034352
C0S920,金峰嘉蘭,2026-01-07,22.594789,120.960825,0.0005525908
C0V490,新興,2026-01-07,22.627422,120.298803,0.010037892
C0F9K0,大安,2026-01-07,24.345061,120.588025,0.98392886
467290,古坑,2026-01-07,23.633639,120.551889,3.0484486e-09
C2E970,八甲,2026-01-07,24.535811,120.795983,1.8009316e-05
C0V440,鳳山,2026-01-07,22.646653,120.356122,0.00047415346
C1T940,大觀,2026-01-07,23.714206,121.373133,2.6029657e-08
C0E740,造橋,2026-01-07,24.637056,120.864778,0.0017792883
C0R100,尾寮山,2026-01-07,22.833111,120.683889,6.052408e-09
A2K630,臺大雲林校區,2026-01-07,23.730628,120.423903,2.8125597e-09
467990,馬祖,2026-01-07,26.169467,119.923158,3.5021352e-05
C0D580,寶山,2026-01-07,24.735006,121.025192,2.8015755e-05
E2P990,林試扇平站,2026-01-07,22.9677,120.6857,3.4294965e-09
C0AI30,三重,2026-01-07,25.057328,121.500629,2.0323665e-07
C0AH00,汐止,2026-01-07,25.066881,121.658778,4.744851e-07
C1Z040,立山,2026-01-07,23.443356,121.327375,2.8471154e-08
466881,新北,2026-01-07,24.959207,121.525196,1.8071658e-07
C0W130,花嶼,2026-01-07,23.40007,119.32276,0.9980775
C0A950,鼻頭角,2026-01-07,25.129036,121.923372,1.0905478e-06
C0K470,林內,2026-01-07,23.748675,120.609642,2.8842209e-09
C2F990,摩天嶺,2026-01-07,24.322458,120.936819,8.53953e-09
C2E430,南庄,2026-01-07,24.601775,121.000214,5.961936e-06
82C160,茶改場,2026-01-07,24.908472,121.185333,2.0534268e-05
C2TB60,南安,2026-01-07,23.29818,121.26157,2.3735332e-08
C0Z320,清水林道,2026-01-07,23.27125,121.188272,2.5685853e-08
C0R760,南仁湖,2026-01-07,22.084681,120.863353,0.13478665
C0M670,大林,2026-01-07,23.600616,120.45841,1.481284e-09
C0M800,茶山,2026-01-07,23.299075,120.664767,1.6434956e-09
C0A9C0,天母,2026-01-07,25.117494,121.537169,1.9803703e-07
72K220,南改斗南分場,2026-01-07,23.634556,120.477333,3.006085e-09
72AI40,桃改樹林分場,2026-01-07,24.944503,121.386972,1.7215919e-07
C0S910,蘭嶼燈塔,2026-01-07,22.081197,121.503117,0.990541
C0B050,八斗子,2026-01-07,25.144754,121.79167,7.7330776e-07
C0U900,內城,2026-01-07,24.71813,121.68766,4.666302e-08
C0X320,柳營,2026-01-07,23.253328,120.375253,1.4608967e-09
C0M790,新港,2026-01-07,23.553269,120.345728,6.882828e-05
C0F9T0,西屯,2026-01-07,24.179494,120.641275,1.684938e-07
C0E950,松安,2026-01-07,24.39792,120.98599,2.1601416e-08
C0SA30,都歷,2026-01-07,23.020333,121.323642,2.8294545e-07
C0C620,蘆竹,2026-01-07,25.084275,121.265767,0.0007108319
C0R730,大坪頂,2026-01-07,22.024633,120.69355,0.99953043
C0AJ40,石門,2026-01-07,25.273672,121.601198,6.0250764e-05
C0E750,苗栗,2026-01-07,24.564569,120.824575,0.00043806355
C0T870,鯉魚潭,2026-01-07,23.935639,121.508944,3.4260204e-08
C1V170,排雲,2026-01-07,23.463619,120.954147,5.6626835e-08
C2H950,中寮,2026-01-07,23.884447,120.766406,2.175049e-09
C0R350,貓鼻頭,2026-01-07,21.921774,120.7358,0.9998066
C0V660,岡山,2026-01-07,22.797078,120.294958,0.0015484802
C1H941,雙冬,2026-01-07,23.967378,120.802189,3.8654155e-09
C0AJ70,田寮,2026-01-07,25.2698,121.4886,0.0046410337
C0AI00,五股,2026-01-07,25.07445,121.42728,9.6743626e-08
C0Z280,德武,2026-01-07,23.47426,121.41071,2.2174499e-08
C2RA10,大新,2026-01-07,22.67558,120.57788,7.924176e-10
C0R700,枋山,2026-01-07,22.246844,120.661086,0.0002987048
C0C460,復興,2026-01-07,24.820208,121.352281,1.1535953e-07
C2K300,鹿南,2026-01-07,23.63855,120.3636,0.022951292
E2H360,蓮華池,2026-01-07,23.918333,120.885278,3.3503336e-09
C0M640,中埔,2026-01-07,23.42538,120.5229,1.5135104e-09
C0W140,金沙,2026-01-07,24.488292,118.408778,0.11576114
C2A540,四堵,2026-01-07,24.8926,121.745736,1.0814043e-07
C0ACA0,新莊,2026-01-07,25.051478,121.446756,1.6941851e-07
C0R220,潮州,2026-01-07,22.534361,120.54,3.8304236e-08
U2HA40,臺大內茅埔,2026-01-07,23.689722,120.851117,3.177706e-09
467490,臺中,2026-01-07,24.145736,120.684075,2.1649743e-07
C0UB60,明池,2026-01-07,24.650688,121.475277,6.014951e-08
C0U960,翠峰湖,2026-01-07,24.510856,121.608044,4.6213245e-08
E2HA20,林試畢祿溪站,2026-01-07,24.226944,121.308522,2.5671357e-08
C2M9A0,大華,2026-01-07,23.4824,120.67491,5.787952e-09
C0V890,前鎮,2026-01-07,22.5718,120.3117,0.0023328832
C1F941,雪嶺,2026-01-07,24.280586,121.026642,3.4671125e-08
C2H9E0,國姓南港,2026-01-07,23.911108,120.846556,6.726011e-09
C0AC80,文山,2026-01-07,25.00235,121.575728,2.0630706e-07
C0F9R0,龍井,2026-01-07,24.184536,120.528972,0.9857501
C0M760,民雄,2026-01-07,23.551754,120.428457,1.4965139e-09
C0UA40,西德山,2026-01-07,24.560647,121.752608,3.7857184e-08
C2TA70,赤科坪,2026-01-07,23.39885,121.39168,2.7119631e-08
C1T920,中興,2026-01-07,23.769503,121.498653,3.8638618e-08
C0D550,雪霸,2026-01-07,24.526972,121.11605,2.8586948e-08
C2F860,梨山,2026-01-07,24.247522,121.243669,2.7119786e-08
C0R320,車城,2026-01-07,22.0744,120.716247,0.9997504
C1S870,南美山,2026-01-07,23.15025,121.382333,1.01210624e-07
C0B020,基隆嶼,2026-01-07,25.19141,121.78391,6.169742e-07
C1U501,牛鬥,2026-01-07,24.637836,121.573656,9.291454e-08
C0M730,嘉義市東區,2026-01-07,23.457673,120.460531,1.4637137e-09
C2R990,泰武,2026-01-07,22.60686,120.69765,9.690703e-09
C0S700,知本,2026-01-07,22.684866,121.005642,5.9955134e-08
C1N001,沙崙,2026-01-07,22.935472,120.309406,3.63198e-05
C0V760,橋頭,2026-01-07,22.757806,120.30575,0.0012653611
C0G960,福寶,2026-01-07,24.0443,120.3814,9.261936e-06
C0X210,白河,2026-01-07,23.347466,120.414427,1.4504461e-09
C0S810,東河,2026-01-07,22.972672,121.303986,3.8422047e-07
C2R170,屏東,2026-01-07,22.66027,120.49403,9.370467e-10
C0R670,楓港,2026-01-07,22.190131,120.692156,0.0007927706
C0FA50,霧峰,2026-01-07,24.0419,120.6995,2.5938354e-09
C0UB10,蘇澳,2026-01-07,24.5969,121.8571,1.5512505e-07
C0G950,防潮門,2026-01-07,24.1835,120.4871,0.9851729
C0M740,六腳,2026-01-07,23.492871,120.290625,9.182045e-05
C1R250,力里,2026-01-07,22.428117,120.629228,1.5056164e-08
C0K330,虎尾,2026-01-07,23.719183,120.442036,2.8163927e-09
C2FA00,烏石坑,2026-01-07,24.273503,120.947617,8.555801e-09
C0V620,永安,2026-01-07,22.82315,120.236856,0.0017540475
C1I330,楓樹林,2026-01-07,23.986803,121.076117,7.50902e-09
C0W200,湖西,2026-01-07,23.596314,119.67275,0.998367
72Q010,高雄農改場,2026-01-07,22.709333,120.525889,9.403446e-10
C0SA40,瑞和,2026-01-07,22.974361,121.156697,9.27451e-08
C0C680,龜山,2026-01-07,25.02846,121.38656,9.081413e-08
C2V260,月眉,2026-01-07,22.971003,120.539853,8.5345103e-10
C0V450,鳳森,2026-01-07,22.545064,120.392592,1.6913674e-08
C0FA90,小雪山林道,2026-01-07,24.29515,121.03651,4.217124e-08
C0U720,南山,2026-01-07,24.43742,121.38167,4.0781725e-08
A2N290,臺南蘭花園區,2026-01-07,23.340258,120.379661,1.4549071e-09
C0R560,新園,2026-01-07,22.5434,120.461558,2.7318887e-08
C0U890,三星,2026-01-07,24.66812,121.65302,4.1096953e-08
C1V300,御油山,2026-01-07,23.001983,120.715364,1.03551265e-08
C0U600,礁溪,2026-01-07,24.817539,121.765608,5.3022973e-08
C1T980,龍澗,2026-01-07,24.023289,121.411328,3.491807e-08
C0D670,海天一線,2026-01-07,24.831986,120.914438,0.988782
C0SA00,歷坵,2026-01-07,22.520969,120.89185,4.690815e-07
C0M710,東石,2026-01-07,23.458927,120.15385,0.00016580116
C0M780,鹿草,2026-01-07,23.41134,120.30835,8.304573e-05
C0U520,雙連埤,2026-01-07,24.753033,121.641303,3.5337962e-08
C0B010,七堵,2026-01-07,25.094819,121.71713,5.685253e-07
C0R480,長治,2026-01-07,22.693128,120.542622,8.869444e-10
C1V830,國三S383K,2026-01-07,22.781967,120.426475,1.1058348e-09
12Q980,恆春工作站,2026-01-07,22.079678,120.714425,0.99975044
C1O940,東山服務區,2026-01-07,23.286016,120.398472,1.4645878e-09
C1U840,東澳嶺,2026-01-07,24.5378,121.8485,3.3644298e-08
C1D630,飛鳳山,2026-01-07,24.766464,121.119178,5.387784e-07
C0S940,石寧山,2026-01-07,23.223772,121.406639,0.99885905
C0K410,北港,2026-01-07,23.573957,120.292802,7.417945e-05
C2M620,瑞里,2026-01-07,23.545133,120.675197,7.181575e-09
C0SB70,小港漁港,2026-01-07,23.158558,121.400431,0.99959576
C2O950,安南,2026-01-07,23.076694,120.144861,0.00032725124
C0F0E0,南湖圈谷,2026-01-07,24.363714,121.444667,6.389938e-08
467610,成功,2026-01-07,23.097486,121.373428,5.317221e-07
C0G890,伸港,2026-01-07,24.148933,120.484403,0.9819058
C2E540,龍溪,2026-01-07,24.606489,120.783933,0.0014241014
C1V200,梅山,2026-01-07,23.268447,120.823556,3.731598e-09
C0T9H0,加路蘭山,2026-01-07,23.682947,121.5274,2.5625273e-08
C2O930,玉井,2026-01-07,23.126042,120.46055,1.3262426e-09
C1F911,新伯公,2026-01-07,24.221361,120.841069,2.6404841e-08
C0R490,九如,2026-01-07,22.7405,120.490503,9.405096e-10
C0X200,左鎮,2026-01-07,23.056758,120.408522,1.0870262e-09
C2TB50,麻汝,2026-01-07,23.42554,121.39358,2.0964263e-08
C0FA60,鞍馬山工作站,2026-01-07,24.267064,121.000793,2.4253747e-08
C0SB50,叭嗡嗡,2026-01-07,23.047062,121.343223,7.532914e-07
C1F891,稍來,2026-01-07,24.265689,121.001142,2.352539e-08
C2M9C0,紫雲,2026-01-07,23.494914,120.540253,1.4845479e-09
72N240,七股研究中心,2026-01-07,23.081672,120.062894,0.0004370835
C0C700,中壢,2026-01-07,24.977661,121.256375,4.9138376e-05
C0M690,水上,2026-01-07,23.419734,120.388909,1.5024112e-09
C0V690,鼓山,2026-01-07,22.623325,120.275575,0.010265651
C0O860,大內,2026-01-07,23.11885,120.36083,6.934598e-05
C0Z200,萬榮,2026-01-07,23.709219,121.420106,3.3594795e-08
C0T9D0,和中,2026-01-07,24.26676,121.74103,0.00019880422
C2S9A0,北份子寮,2026-01-07,22.78561,121.07813,5.3442836e-06
C1O921,楠西,2026-01-07,23.183511,120.484083,1.3117818e-09
C0AJ30,淡水觀海,2026-01-07,25.184591,121.408616,0.00039210313
C0V810,左營,2026-01-07,22.67491,120.28491,0.0059883627
C0UA70,桃源谷,2026-01-07,24.962606,121.888875,7.979208e-08
C0X130,官田,2026-01-07,23.193217,120.315422,3.081568e-05
C1H000,翠峰,2026-01-07,24.109397,121.205211,2.6926863e-08
C0UA90,石城,2026-01-07,24.980444,121.951214,9.038511e-07
C1E681,南勢山,2026-01-07,24.421669,120.923831,2.2080508e-08
C0A9F0,內湖,2026-01-07,25.079422,121.57545,2.0505034e-07
C0K291,宜梧,2026-01-07,23.536281,120.169329,0.00036880214
C1K540,口湖,2026-01-07,23.585344,120.180517,0.00036958014
C0R780,滿州,2026-01-07,22.024403,120.839892,0.9998653
C0V870,文安,2026-01-07,22.8025,120.2164,0.0037441521
C0U650,玉蘭,2026-01-07,24.675286,121.587061,6.154668e-08
C0R640,東港,2026-01-07,22.46247,120.44074,2.4131698e-08
C0AJ80,板橋,2026-01-07,25.0107,121.4489,1.9354805e-07
C0S660,下馬,2026-01-07,23.150427,121.070312,2.5732978e-08
C2N190,烏樹,2026-01-07,23.32393,120.36989,1.6238962e-05
C1H9B1,阿眉,2026-01-07,24.1263,120.994672,1.5801524e-08
C0UA20,多加屯,2026-01-07,24.368614,121.373189,3.504892e-08
C0E730,頭份,2026-01-07,24.688247,120.912206,0.0006550439
72V140,高改旗南分場,2026-01-07,22.857861,120.516667,1.3071113e-09
C0K480,莿桐,2026-01-07,23.761192,120.502372,2.846962e-09
C0U980,坪林石牌,2026-01-07,24.86478,121.77396,4.1027874e-08
C0T900,西林,2026-01-07,23.8119,121.441458,3.213345e-08
C1I150,青雲,2026-01-07,23.793361,120.949378,2.5542988e-09
C2E980,和興,2026-01-07,24.505319,120.923016,2.91236e-08
467350,澎湖,2026-01-07,23.565503,119.563094,0.9977544
C0G800,埔鹽,2026-01-07,24.000394,120.431683,7.503784e-06
C0H960,草屯,2026-01-07,23.973672,120.68085,2.5737972e-09
C1V780,多納林道,2026-01-07,22.888028,120.737917,5.6453935e-09
C0E920,通霄漁港,2026-01-07,24.498589,120.673876,0.11074085
C0Z330,安通山,2026-01-07,23.290728,121.348528,2.027884e-08
C0AH10,永和,2026-01-07,25.01125,121.508111,1.9670138e-07
C0AK10,太平里,2026-01-07,25.134937,121.364899,0.00024164945
C2G640,鹿港,2026-01-07,24.0753,120.430481,7.236934e-06
C1E890,國三N149K,2026-01-07,24.463414,120.680019,0.009756938
C1R110,口社,2026-01-07,22.770111,120.645222,7.426744e-10
C1M870,國三N285K,2026-01-07,23.550319,120.505833,1.4804874e-09
C1E480,鳳美,2026-01-07,24.554803,121.034747,3.1178686e-08
C0T9M0,靜浦,2026-01-07,23.455167,121.495028,2.9072817e-08
C2H9M0,發祥,2026-01-07,24.154094,121.164517,1.0918038e-08
C2G9C0,埔南,2026-01-07,23.99124,120.46969,7.400043e-06
C0AI40,石牌,2026-01-07,25.115597,121.513139,2.0505014e-07
C1F871,上谷關,2026-01-07,24.203483,121.018644,8.550091e-09
C2H9G0,百勝,2026-01-07,24.051142,120.909361,2.5668847e-09
C0G880,二水,2026-01-07,23.810742,120.6173,2.844856e-09
C0R940,加祿堂,2026-01-07,22.3363,120.6217,6.091811e-08
C0W220,北竿,2026-01-07,26.220358,119.974881,0.00043197008
C0O960,崎頂,2026-01-07,22.959547,120.369317,1.7804277e-06
C0TA40,秀林,2026-01-07,24.302864,121.731144,3.720031e-08
C0S750,向陽,2026-01-07,23.248397,120.986133,3.0987014e-08
C0T9F0,水璉,2026-01-07,23.797131,121.542514,2.940301e-08
C1M600,頭凍,2026-01-07,23.406364,120.603339,4.5247948e-09
467660,臺東,2026-01-07,22.752211,121.154586,0.937918
C1D380,新埔,2026-01-07,24.84745,121.03834,0.0002328464
C2G980,田頭村,2026-01-07,23.8263,120.444175,2.708581e-09
C0V750,路竹,2026-01-07,22.854997,120.259439,0.0010925173
C0N050,蚵寮,2026-01-07,23.301,120.1104,7.09536e-05
C2X060,下營,2026-01-07,23.226806,120.256291,7.790111e-05
72M700,南改鹿草分場,2026-01-07,23.416869,120.283061,9.358013e-05
C1SA50,利嘉林道,2026-01-07,22.82325,121.009389,3.2619003e-08
C0UB70,太平山中間站,2026-01-07,24.542003,121.513453,3.913862e-08
C0A940,金山,2026-01-07,25.223628,121.643967,0.0019238025
C1V340,大津,2026-01-07,22.888322,120.645986,7.5434103e-10
C0W180,七美,2026-01-07,23.219333,119.444892,0.99879193
C1F9C1,白冷,2026-01-07,24.182844,120.929889,6.507023e-09
K2E710,苗改生物防治研究中心,2026-01-07,24.422861,120.871833,2.9084329e-06
C0N040,蘆竹溝,2026-01-07,23.2344,120.0961,7.1068316e-05
C0TB40,崇德,2026-01-07,24.166144,121.657414,0.00086546916
C0D760,大坪苗圃,2026-01-07,24.5362,121.1108,2.9254489e-08
C2W230,畜試所澎湖,2026-01-07,23.628342,119.513206,0.9973529
C0R880,後壁湖,2026-01-07,21.9457,120.7457,0.9997562
C1I280,埔中,2026-01-07,23.820778,120.642594,2.4460565e-09
467790,墾丁雷達站,2026-01-07,21.948235,120.808028,0.9998137
C0W190,望安,2026-01-07,23.380564,119.494075,0.99803364
C0Z170,卓溪,2026-01-07,23.3443,121.3029,2.4346352e-08
C0F850,東勢,2026-01-07,24.246428,120.833047,2.966212e-08
466900,淡水,2026-01-07,25.164889,121.448906,0.00021368227
C0I370,魚池,2026-01-07,23.895703,120.94135,3.3077345e-09
C0C630,大溪,2026-01-07,24.882853,121.265547,2.4160674e-05
C0A520,山佳,2026-01-07,24.974944,121.402008,1.7289184e-07
C0I110,竹山,2026-01-07,23.761225,120.688156,1.7040306e-09
82H840,茶改南部分場,2026-01-07,23.762528,120.7405,2.318337e-09
C2SD80,再來山,2026-01-07,23.34371,121.44122,0.9915611
C0G660,溪湖,2026-01-07,23.94835,120.479122,4.309617e-06
C1T800,洛韶,2026-01-07,24.204558,121.453956,2.7515826e-08
C1T810,慈恩,2026-01-07,24.192044,121.388386,3.2311497e-08
C1E451,象鼻,2026-01-07,24.368617,120.940228,8.370528e-09
C0AC60,三峽,2026-01-07,24.939025,121.369728,0.00016781043
C0I490,萬大林道,2026-01-07,23.928228,121.091411,1.10157865e-08
C1I290,豐丘,2026-01-07,23.668178,120.887417,8.589681e-09
C1I320,奧萬大,2026-01-07,23.952956,121.178556,8.179652e-09
C2M910,嘉義大學,2026-01-07,23.471325,120.485903,1.4739451e-09
C0U770,南澳,2026-01-07,24.44935,121.81022,4.276905e-07
C2TB30,吉安,2026-01-07,23.94538,121.54803,3.916513e-08
C0A980,社子,2026-01-07,25.109508,121.469681,2.3011683e-07
C0V800,六龜,2026-01-07,22.997889,120.633583,8.7465046e-10
C1G9D0,國一S218K,2026-01-07,23.890641,120.493253,3.969957e-06
C0E570,白沙屯,2026-01-07,24.549447,120.696803,0.01871832
C2F9A0,中竹林,2026-01-07,24.103556,120.751061,3.0129963e-09
C0FA40,臺中電廠,2026-01-07,24.2146,120.4907,0.98578906
C2G9A0,畜試所彰化,2026-01-07,23.86045,120.557964,2.9363147e-09
C0H9C0,合歡山,2026-01-07,24.143442,121.272547,5.239604e-08
G2M350,農試溪口農場,2026-01-07,23.58565,120.408111,1.4908444e-09
C0U860,頭城,2026-01-07,24.85323,121.8308,1.1022958e-07
C0R580,南州,2026-01-07,22.48591,120.50274,7.1778125e-08
C0D430,峨眉,2026-01-07,24.6905,121.017189,5.703369e-05
C0G780,秀水,2026-01-07,24.03405,120.503869,3.412424e-06
72N100,臺南農改場,2026-01-07,23.0605,120.342194,2.7113847e-05
C0S900,蘭嶼高中,2026-01-07,22.04909,121.51214,0.9926833
C2TA60,六十石,2026-01-07,23.22477,121.31861,2.7230344e-08
C1F9W0,德基,2026-01-07,24.254783,121.190261,2.1751827e-08
C2M980,安和,2026-01-07,23.51377,120.31593,7.698876e-05
C1Z120,壽豐,2026-01-07,23.870853,121.508081,4.501821e-08
C0W160,烏坵,2026-01-07,24.9944,119.44956,0.99367523
C1I240,外大坪,2026-01-07,23.958697,120.917931,3.6759178e-09
C1I550,國六W023K,2026-01-07,23.979067,120.867742,2.8895346e-09
C0R870,興海,2026-01-07,21.9752,120.8439,0.99975985
C0R140,瑪家,2026-01-07,22.682903,120.686639,4.1376857e-09
C0A530,坪林,2026-01-07,24.938183,121.70975,1.243513e-07
C0X260,後壁,2026-01-07,23.366358,120.362326,2.6668888e-05
C0Z230,和平,2026-01-07,24.30717,121.77007,2.3668994e-07
C0G770,福興,2026-01-07,24.041289,120.437669,7.553339e-06
C0H9A0,神木村,2026-01-07,23.532742,120.843667,1.0913729e-08
C0I460,南投,2026-01-07,23.911469,120.687331,2.5793359e-09
C0I480,梅峰,2026-01-07,24.085272,121.173572,2.0851964e-08
C1V570,吉東,2026-01-07,22.85422,120.5454,7.7092877e-10
C2A560,福山,2026-01-07,24.776203,121.502811,6.365196e-08
C0AH30,五分山,2026-01-07,25.07125,121.780794,5.6538447e-08
C0FA10,松柏,2026-01-07,24.429115,120.617482,0.008281132
72S200,東改班鳩分場,2026-01-07,22.829528,121.077694,5.604365e-07
72HA00,中改埔里分場,2026-01-07,23.903208,120.963364,3.2071281e-09
C2H9W0,大坪頂農水,2026-01-07,24.043122,120.932781,3.525023e-09
C0C650,平鎮,2026-01-07,24.897503,121.214636,2.4510055e-05
C0S930,延平,2026-01-07,22.902581,121.084058,7.623855e-08
C0UA60,樟樹山,2026-01-07,24.41393,121.78325,3.1110847e-08
C2UC10,出水溪,2026-01-07,24.615822,121.652253,3.986978e-08
C1S670,摩天,2026-01-07,23.199503,121.027,1.7272253e-08
C2C590,觀音,2026-01-07,25.027072,121.153317,0.00042814374
C0V630,茄萣,2026-01-07,22.906642,120.182608,0.0005698783
466940,基隆,2026-01-07,25.133314,121.740475,7.2180853e-07
C0X050,東河,2026-01-07,23.296598,120.385608,1.4614179e-09
C0R770,保力,2026-01-07,22.071122,120.764111,0.9998877
G2L020,農試嘉義分所,2026-01-07,23.485028,120.473806,1.4751825e-09
C0X240,關子嶺,2026-01-07,23.331169,120.508025,1.6783225e-09
C0I380,集集,2026-01-07,23.828206,120.801467,1.8657234e-09
466990,花蓮,2026-01-07,23.975128,121.613275,6.608816e-08
C1V220,小關山,2026-01-07,23.154217,120.813603,1.2713722e-08
C1F9G1,慶福山,2026-01-07,24.180853,120.848378,1.6122218e-08
C0FB20,雪山橋,2026-01-07,24.23192,120.9786,2.2642883e-08
C0Z250,瑞穗林道,2026-01-07,23.49284,121.30688,2.526237e-08
C0D590,新豐,2026-01-07,24.87068,120.97721,0.17203416
C0A870,五指山,2026-01-07,25.132153,121.608692,2.0777036e-07
C0UA50,西帽山,2026-01-07,24.555361,121.802628,3.3754148e-08
C2R980,竹田國中,2026-01-07,22.61532,120.52412,3.4504154e-08
C0X160,仁德,2026-01-07,22.968258,120.257689,0.000277058
C1H971,六分寮,2026-01-07,23.92507,120.6378,3.24471e-09
C0W120,西嶼,2026-01-07,23.5626,119.468436,0.99767846
C0G650,員林,2026-01-07,23.946503,120.585597,5.198133e-06
C0AD50,鶯歌,2026-01-07,24.951533,121.346294,0.00038963134
C2H9Q0,北東眼山,2026-01-07,24.120939,121.189303,1.839053e-08
C2H9T0,名間竹圍,2026-01-07,23.859914,120.637572,2.150648e-09
C0S990,山豬窟,2026-01-07,22.318619,120.857372,1.1650045e-08
C0X190,安平,2026-01-07,22.993161,120.152181,0.0002782922
C0K400,斗六,2026-01-07,23.720583,120.541127,2.8125704e-09
12J990,口湖工作站,2026-01-07,23.589978,120.180394,0.0003654508
C0O830,北寮,2026-01-07,23.079561,120.495008,7.1673123e-10
C1D410,白蘭,2026-01-07,24.579364,121.079947,2.863792e-08
C0S970,加津林,2026-01-07,22.416211,120.926942,0.10371441
C0D700,關西,2026-01-07,24.7977,121.1732,2.741175e-07
C0U750,龜山島,2026-01-07,24.841667,121.953133,5.9654454e-08
C0R810,內獅,2026-01-07,22.305064,120.642986,6.409346e-08
C1M390,龍美,2026-01-07,23.406728,120.654417,6.2609185e-09
C2K290,崙內,2026-01-07,23.69525,120.35601,0.022951292
C2FB60,頭櫃山,2026-01-07,24.129842,120.858925,5.8718705e-09
C1H840,國三N238K,2026-01-07,23.841008,120.707711,1.9025506e-09
CAQ030,崎峰國小,2026-01-07,22.42565,120.49521,7.1778125e-08
C2E520,大湖,2026-01-07,24.414939,120.870872,2.1173303e-06
467530,阿里山,2026-01-07,23.508208,120.813242,2.5915371e-08
C1E691,南湖,2026-01-07,24.40135,120.837533,7.786405e-08
C0FA30,梧棲,2026-01-07,24.256003,120.523381,0.9839355
C1V231,高中,2026-01-07,23.134911,120.716711,3.1580145e-09
C0AK30,硬漢嶺,2026-01-07,25.136097,121.426372,2.379347e-07
C0F9V0,新社,2026-01-07,24.200172,120.815806,2.0092573e-08
C0H890,埔里,2026-01-07,23.972169,120.952425,2.4087863e-09
C0R690,墾丁,2026-01-07,21.966756,120.810269,0.9999004
C0SD20,富山,2026-01-07,22.822383,121.190825,4.4247463e-07
C0F0D0,審馬陣,2026-01-07,24.381675,121.4203,6.158978e-08
C2W030,金門農試所,2026-01-07,24.448431,118.451786,0.00016929112
C0R820,白鷺,2026-01-07,22.454275,120.666219,6.6231483e-09
C0FB00,大雪山,2026-01-07,24.254668,121.007374,2.4430502e-08
C1V190,南天池,2026-01-07,23.27403,120.91176,3.264147e-08
C0E940,雪見,2026-01-07,24.42595,121.01347,2.7793961e-08
K2E360,苗栗農改場,2026-01-07,24.495722,120.829111,8.995015e-05
CAJ050,海口故事園區,2026-01-07,23.57543,120.14121,0.00036782352
C2K280,四湖,2026-01-07,23.6304,120.22717,0.12065365
C2H9D0,三隻寮,2026-01-07,24.093078,120.861578,4.4208552e-09
C0O990,媽廟,2026-01-07,22.99175,120.293525,5.4856257e-05
C0D480,打鐵坑,2026-01-07,24.849664,121.150789,2.0601196e-07
C0Z220,和平林道,2026-01-07,24.343922,121.656317,2.9532393e-08
C0TA10,花蓮漁港,2026-01-07,23.995322,121.638331,0.99965364
72C440,桃園農改場,2026-01-07,24.950944,121.030583,0.0013767974
C1E711,馬拉邦山,2026-01-07,24.367306,120.901656,8.2294145e-09
C0SB20,富岡,2026-01-07,22.792467,121.192669,0.9513733
C0D560,竹東,2026-01-07,24.767147,121.057881,5.101534e-05
C0F9U0,南屯,2026-01-07,24.137006,120.637969,2.1355967e-07
C2SD60,明峰,2026-01-07,22.8671,121.11825,5.973051e-08
C0M720,番路,2026-01-07,23.464657,120.554156,1.432564e-09
C0F0A0,雪山圈谷,2026-01-07,24.388594,121.236339,6.6202844e-08
C1A9N0,四十份,2026-01-07,24.934158,121.593283,9.6678505e-08
C0U760,東澳,2026-01-07,24.52196,121.83318,3.3694363e-07
C0X230,鹽水,2026-01-07,23.272621,120.247641,6.696319e-05
C2H9H0,苗改南投蜂場,2026-01-07,23.852589,120.693481,1.7770153e-09
C2TB70,達谷寮,2026-01-07,23.38,121.35968,2.5602702e-08
C0R950,萬隆國小,2026-01-07,22.507667,120.587817,2.8379528e-08
467540,大武,2026-01-07,22.35572,120.90374,0.9998793
C0V370,古亭坑,2026-01-07,22.893178,120.401947,9.903378e-10
C1I340,新興橋,2026-01-07,23.563333,120.868728,5.180139e-09
C0SA80,土坂,2026-01-07,22.453108,120.887572,0.00065913325
C0R160,鹽埔,2026-01-07,22.739558,120.530778,9.32678e-10
C0AC40,大屯山,2026-01-07,25.175675,121.522408,9.3731906e-08
466850,五分山雷達站,2026-01-07,25.071182,121.781205,5.5757955e-08
C2H9L0,馬烈霸,2026-01-07,24.1512,121.201772,2.1783007e-08
C1AI50,國三N016K,2026-01-07,25.034164,121.619664,2.45903e-07
C2V920,匏子寮,2026-01-07,23.04905,120.55319,8.418156e-10
C1V600,藤枝,2026-01-07,23.071961,120.757042,9.503812e-09
C1E601,南勢,2026-01-07,24.572486,120.734842,0.00034189882
C0O980,新市,2026-01-07,23.061614,120.298197,0.00011443405
C0K420,西螺,2026-01-07,23.800407,120.467394,2.6913294e-09
C0Z050,佳心,2026-01-07,23.34567,121.21316,2.5951826e-08
C0AD30,蘆洲,2026-01-07,25.086594,121.472331,1.7236043e-07
C0V610,梓官,2026-01-07,22.760558,120.267211,0.001593139
K2F750,種苗改良場,2026-01-07,24.225972,120.800917,2.2382928e-08
C0UA80,大溪漁港,2026-01-07,24.941801,121.902955,1.3199025e-06
C1AI60,國一39K邊坡,2026-01-07,25.064361,121.383836,9.160324e-08
C0W150,金寧,2026-01-07,24.457703,118.328989,0.12197975
C0R960,內埔,2026-01-07,22.608483,120.570714,3.139291e-08
V2C250,八德合作社,2026-01-07,24.93775,121.266389,6.587507e-05
C2H9S0,龍南,2026-01-07,23.953536,120.833183,5.4083684e-09
C0AH40,平等,2026-01-07,25.129142,121.577086,6.611791e-07
C0R540,佳冬,2026-01-07,22.419456,120.552375,5.9041838e-08
466950,彭佳嶼,2026-01-07,25.627975,122.079744,0.9998521
C0A890,雙溪,2026-01-07,25.036003,121.864242,6.636922e-07
C0C480,桃園,2026-01-07,24.992425,121.323172,8.384951e-05
C0AH50,林口,2026-01-07,25.072181,121.38084,8.03998e-08
A2K360,水試臺西試驗場,2026-01-07,23.717231,120.190522,0.13878587
C2M960,外寮,2026-01-07,23.562643,120.665688,5.845443e-09
C0F9S0,烏日,2026-01-07,24.107058,120.624103,2.6998891e-06
C2N180,鹿陶洋,2026-01-07,23.14325,120.48352,1.311344e-09
C0C490,八德,2026-01-07,24.928708,121.283289,5.6853507e-05
C0R190,赤山,2026-01-07,22.592333,120.614306,2.7012666e-08
C0T820,天祥,2026-01-07,24.179597,121.495639,4.1456904e-08
C1F9E1,龍安,2026-01-07,24.1605,120.831961,1.9600044e-08
C2SD50,順那,2026-01-07,23.04166,121.29332,1.625864e-07
C0V820,小林,2026-01-07,23.148408,120.63325,1.5867233e-09
C2G870,芳苑,2026-01-07,23.922303,120.320025,0.6544562
C0E850,大河,2026-01-07,24.618069,120.948578,6.7258545e-05
C1U670,寒溪,2026-01-07,24.634,121.71691,4.123672e-08
C0N020,城西,2026-01-07,23.0568,120.0956,0.0003077771
C1Z110,三棧,2026-01-07,24.11557,121.60501,3.8044227e-08
C0R280,檳榔,2026-01-07,22.076078,120.836777,0.9754487
C2H9J0,中台,2026-01-07,23.9996,120.938739,2.742841e-09
C0F9L0,后里,2026-01-07,24.310436,120.729725,5.691899e-08
467441,高雄,2026-01-07,22.730432,120.312516,0.0010031292
C0Z180,新城,2026-01-07,24.040486,121.604878,6.5264906e-08
C0D540,橫山,2026-01-07,24.71116,121.11693,6.9257085e-06
C1D420,太閣南,2026-01-07,24.632808,121.160575,5.418955e-08
C1E770,公館,2026-01-07,24.526914,120.830806,0.0002250886
CAN130,水試所海水繁養殖中心,2026-01-07,23.120802,120.07968,0.0004302744
C1I430,翠華,2026-01-07,24.191961,121.224339,3.0887467e-08
C1M400,菜瓜坪,2026-01-07,23.251928,120.576103,1.6333734e-09
C0G730,二林,2026-01-07,23.903325,120.376081,1.117044e-05
72M360,南改義竹分場,2026-01-07,23.360694,120.279361,5.734088e-05
V2K620,麥寮合作社,2026-01-07,23.753836,120.294783,0.022120485
C0Z070,舞鶴,2026-01-07,23.46811,121.37407,2.1067562e-08
C0B040,大武崙,2026-01-07,25.166676,121.706993,5.5658444e-07
C1Z030,紅葉,2026-01-07,23.493119,121.338806,2.2168367e-08
C1I050,丹大,2026-01-07,23.753747,121.141147,3.2862925e-08
C0I080,信義,2026-01-07,23.689694,120.851036,3.177706e-09
C2TB80,庄子底,2026-01-07,23.71794,121.49438,3.72216e-08
C0D750,樂山林道6k,2026-01-07,24.49999,121.08773,3.5757175e-08
C2M920,朴子農改,2026-01-07,23.469889,120.259383,0.00012854738
C2A880,福隆,2026-01-07,25.017842,121.942083,1.0317441e-06
C0Z160,鳳林,2026-01-07,23.746114,121.453411,3.645978e-08
C0UB80,翠峰林道6K,2026-01-07,24.49773,121.568625,4.792575e-08
C0V210,復興,2026-01-07,23.222403,120.806089,3.0817129e-09
C0H990,昆陽,2026-01-07,24.121322,121.273642,4.0994085e-08
C0R741,獅子,2026-01-07,22.202308,120.705236,4.83032e-05
C0S710,鹿野,2026-01-07,22.917711,121.122994,4.49027e-08
C0I530,小奇萊,2026-01-07,24.131764,121.295717,4.6474003e-08
C0FA70,大雪山埡口,2026-01-07,24.26867,121.03062,3.435902e-08
C2K630,荷苞,2026-01-07,23.657717,120.595144,3.0287435e-09
C0Z080,富源,2026-01-07,23.587642,121.378225,2.819205e-08
C2M9E0,旺來山,2026-01-07,23.555153,120.486463,1.4985562e-09
C0SB10,美和,2026-01-07,22.682078,121.060236,6.377809e-05
C2K620,馬光農場,2026-01-07,23.721453,120.378864,2.8512877e-09
C1I140,卡奈托灣,2026-01-07,23.754364,121.087872,1.4011688e-08
C0I520,玉山風口,2026-01-07,23.470489,120.955994,6.299036e-08
C1G691,下水埔,2026-01-07,23.816114,120.5676,2.6529012e-09
C0X110,臺南市南區,2026-01-07,22.961189,120.188378,0.0003537464
C0V680,仁武,2026-01-07,22.701083,120.347722,0.00096724625
C2G840,北斗,2026-01-07,23.877586,120.514222,3.8238795e-06
C2TB90,長橋,2026-01-07,23.6874,121.46186,3.6294924e-08
C0R900,竹坑,2026-01-07,22.1385,120.7022,0.0007927706
C0G860,社頭,2026-01-07,23.897647,120.5862,5.2618752e-06
C0X150,安定,2026-01-07,23.102614,120.227839,0.0001663505
C0R590,里港,2026-01-07,22.77919,120.49459,1.3458565e-09
C0E610,馬都安,2026-01-07,24.451272,120.930192,2.2327368e-08
C0E550,明德,2026-01-07,24.583486,120.885411,0.0004546584
C0R150,三地門,2026-01-07,22.709889,120.639944,7.892048e-10
C0G910,花壇,2026-01-07,24.032076,120.549461,2.4730707e-06
C1D400,鳥嘴山,2026-01-07,24.71909,121.28387,6.4033095e-08
C0K500,元長,2026-01-07,23.64981,120.315024,0.025696315
C0F0B0,石岡,2026-01-07,24.276061,120.777644,4.3292516e-08
C2V250,甲仙,2026-01-07,23.080106,120.591758,8.998367e-10
C0SA20,金崙山,2026-01-07,22.567419,120.959667,5.7136642e-08
C0V350,溪埔,2026-01-07,22.738578,120.446797,1.3621081e-09
C0M660,溪口,2026-01-07,23.604131,120.403569,1.4910635e-09
C1S880,壽卡,2026-01-07,22.238911,120.858903,1.35813965e-08
72D680,桃改新埔分場,2026-01-07,24.834444,121.066111,0.000297739
