站號,站名,日期,lat,lon,BLBTSLS
C1O850,環湖,2026-01-07,23.148617,120.418633,4.186114e-10
C0S890,關山,2026-01-07,23.0395,121.175017,1.8274363e-09
CAH030,茶改場竹圍站,2026-01-07,23.860083,120.637528,8.8028723e-10
V2K610,大庄合作社,2026-01-07,23.8068,120.367939,1.4642283e-08
G2AI50,關渡,2026-01-07,25.11575,121.492,1.2609442e-08
C1S800,華源,2026-01-07,22.657883,121.02325,0.000420577
C0R550,新埤,2026-01-07,22.467947,120.582894,2.2762285e-10
C1O880,關山,2026-01-07,23.173397,120.594092,4.2061868e-10
V2C260,八德蔬果,2026-01-07,24.978508,121.281819,5.5809558e-08
A2K570,古坑花卉中心,2026-01-07,23.63353,120.55239,6.5884995e-09
C0R260,春日,2026-01-07,22.370361,120.628306,2.2247003e-10
C1I211,蘆竹湳,2026-01-07,23.934019,120.811994,1.8275025e-09
467571,新竹,2026-01-07,24.827853,121.014219,2.1757571e-06
C1I260,北坑,2026-01-07,23.9246,121.006903,1.6457039e-09
C0SA40,瑞和,2026-01-07,22.974361,121.156697,4.6227175e-08
C0R490,九如,2026-01-07,22.7405,120.490503,3.1210545e-10
C0D430,峨眉,2026-01-07,24.6905,121.017189,6.217628e-08
C1I240,外大坪,2026-01-07,23.958697,120.917931,2.1002835e-09
C1V570,吉東,2026-01-07,22.85422,120.5454,2.787777e-10
C0D480,打鐵坑,2026-01-07,24.849664,121.150789,1.4855733e-07
V2C250,八德合作社,2026-01-07,24.93775,121.266389,1.6519276e-07
C0C480,桃園,2026-01-07,24.992425,121.323172,5.5809558e-08
