站號,站名,日期,lat,lon,BLBTSLS
C0R710,龍磐,2026-01-30,21.931672,120.838942,0.9980565
C1F9D1,白毛台,2026-01-30,24.158325,120.886933,2.4480635e-09
C0G940,竹塘,2026-01-30,23.848253,120.386764,3.8847418e-07
467590,恆春,2026-01-30,22.003897,120.746339,0.9964557
C1O850,環湖,2026-01-30,23.148617,120.418633,2.1424433e-09
C0U710,太平山,2026-01-30,24.505486,121.525656,4.0184016e-08
C0E820,獅潭,2026-01-30,24.539133,120.920042,5.357158e-09
C2SD70,二層坪,2026-01-30,22.94105,121.16838,7.2408555e-09
C0V880,興達,2026-01-30,22.8778,120.2127,0.0022689926
C0S890,關山,2026-01-30,23.0395,121.175017,7.92412e-09
C0SB30,新蘭,2026-01-30,22.869214,121.223228,1.0342849e-08
C2R970,屏科大,2026-01-30,22.648275,120.619247,4.902149e-08
C1Z130,銅門,2026-01-30,23.965694,121.492842,1.5031487e-08
C0AD40,土城,2026-01-30,24.973208,121.445169,4.9159883e-08
CAN140,六官養殖協會,2026-01-30,23.22881,120.29962,3.4105058e-05
C0X180,山上,2026-01-30,23.0757,120.363253,2.810958e-06
C0F9Z0,雪山東峰,2026-01-30,24.388792,121.268675,2.9215455e-08
C1M480,獨立山,2026-01-30,23.537022,120.607797,1.6270956e-09
C0X220,學甲,2026-01-30,23.230367,120.182187,0.0008955884
467650,日月潭,2026-01-30,23.881325,120.90805,3.6582708e-09
A2K570,古坑(花卉中心),2026-01-30,23.633531,120.552392,1.134655e-09
C0K600,箔子寮,2026-01-30,23.6197,120.14,0.94837195
C0G830,埤頭,2026-01-30,23.866003,120.452806,9.319387e-09
C0S950,七塊厝,2026-01-30,22.954453,121.229922,6.488074e-09
467110,金門,2026-01-30,24.407306,118.289281,1.3792398e-07
C0AH80,深坑,2026-01-30,25.002703,121.628328,1.0929377e-07
C0A970,三貂角,2026-01-30,25.007606,122.002058,1.5951622e-07
C2D730,寶山農場,2026-01-30,24.732444,120.976153,1.5578902e-08
C0K430,褒忠,2026-01-30,23.690938,120.303634,6.0063876e-08
467480,嘉義,2026-01-30,23.495925,120.432906,1.4884528e-08
C0V400,阿公店,2026-01-30,22.804194,120.355528,1.8728997e-05
C0E960,觀霧分站,2026-01-30,24.505781,121.113921,1.6355536e-08
467550,玉山,2026-01-30,23.48718,120.95943,3.7864332e-08
C0R440,大漢山,2026-01-30,22.405264,120.753181,2.9141214e-08
C0SD30,東清國小,2026-01-30,22.057128,121.564922,0.98015636
C1F9B1,桐林,2026-01-30,24.066172,120.735194,5.1654974e-09
C2H9U0,鳳鵬,2026-01-30,23.763919,120.788061,9.955841e-10
C0K390,土庫,2026-01-30,23.679029,120.395574,8.506692e-09
C1I450,望鄉山,2026-01-30,23.594153,120.944286,2.2520561e-08
C0E910,海埔,2026-01-30,24.648767,120.772435,0.00054072577
B2E890,畜試北區分所,2026-01-30,24.527806,120.770972,5.195102e-08
C0R750,四林格山,2026-01-30,22.076989,120.802439,0.0013008069
C0F0C0,中坑,2026-01-30,24.248517,120.903319,3.9145096e-09
C1I121,大鞍,2026-01-30,23.678381,120.760017,7.516471e-09
C2G9E0,移民庄,2026-01-30,23.9784,120.40283,4.690587e-07
72U480,花改蘭陽分場,2026-01-30,24.686306,121.716583,2.1379988e-08
C0A770,科教館,2026-01-30,25.096356,121.516507,3.9644334e-08
C0AJ60,六塊厝,2026-01-30,25.24,121.4481,3.1858604e-06
C0R620,墾雷,2026-01-30,21.900836,120.855269,0.9960006
467420,永康,2026-01-30,23.038386,120.2367,0.00015346872
C2M530,奮起湖,2026-01-30,23.493903,120.699253,5.7624403e-09
C0I410,名間,2026-01-30,23.837053,120.701447,1.556725e-09
A2C560,農工中心,2026-01-30,24.985917,121.239833,5.7755596e-08
C0V740,旗山,2026-01-30,22.888614,120.483597,1.1282375e-08
C0Z061,玉里,2026-01-30,23.3215,121.339656,1.164418e-08
C0S840,南田,2026-01-30,22.279725,120.889208,0.99990255
C1I470,杉林溪,2026-01-30,23.639517,120.786444,8.598008e-09
C1X040,東原,2026-01-30,23.291597,120.463822,1.024112e-09
C0R660,枋寮,2026-01-30,22.367722,120.590647,1.5490019e-05
C1R120,上德文,2026-01-30,22.763272,120.704442,5.2132547e-09
C0K450,大埤,2026-01-30,23.646074,120.431537,7.528207e-09
C0UA00,土場,2026-01-30,24.576533,121.495333,4.430818e-08
467080,宜蘭,2026-01-30,24.763975,121.756528,2.0557405e-08
C0N030,四草,2026-01-30,23.0235,120.1116,0.3413335
467410,臺南,2026-01-30,22.99328,120.20492,0.0018033432
C0V650,彌陀,2026-01-30,22.783806,120.246361,0.005420053
C0D660,新竹市東區,2026-01-30,24.798681,120.986942,4.102099e-08
82S580,茶改東部分場,2026-01-30,22.907694,121.130139,7.922563e-09
C0SB40,興隆,2026-01-30,22.913661,121.257469,8.227221e-08
467050,新屋,2026-01-30,25.006725,121.047492,9.4678165e-07
C0C710,大溪永福,2026-01-30,24.892936,121.324975,3.2037672e-08
C0FA20,溫寮,2026-01-30,24.372177,120.583125,3.1522108e-05
C0V640,湖內,2026-01-30,22.887139,120.2445,0.0018850645
C0R910,下寮,2026-01-30,22.3929,120.5548,0.0007686423
C0Z020,明里,2026-01-30,23.208717,121.262342,1.2256834e-08
C0M770,嘉義梅山,2026-01-30,23.585398,120.555587,1.3207924e-09
C0C660,楊梅,2026-01-30,24.912375,121.143047,4.803914e-08
C0SD40,牛頭山,2026-01-30,22.676661,121.506944,0.9994207
C1E511,新開,2026-01-30,24.347703,120.827019,3.437814e-09
G2F820,農試所(霧峰),2026-01-30,24.031261,120.688133,7.34266e-09
C2M990,大巃頂,2026-01-30,23.5547,120.61439,2.6753968e-09
C1I070,和社,2026-01-30,23.591131,120.888861,2.0523585e-09
C2E990,新坪頂,2026-01-30,24.30201,120.8574,1.8857045e-09
C0TA80,立霧山,2026-01-30,24.183258,121.641899,3.373027e-08
C2F000,大肚,2026-01-30,24.15295,120.572117,4.524562e-09
C1S850,豐南,2026-01-30,23.122139,121.262389,8.943242e-09
C2M9B0,西興,2026-01-30,23.2428,120.57617,1.0266114e-09
C2A920,富貴角,2026-01-30,25.263783,121.565258,2.592732e-06
CAH030,茶改場竹圍站,2026-01-30,23.860083,120.637528,1.2555247e-09
C0T960,光復,2026-01-30,23.660694,121.424964,1.5404746e-08
C0F9M0,豐原,2026-01-30,24.254322,120.720692,2.7483869e-09
C0R720,旭海,2026-01-30,22.205403,120.887614,0.11194677
C0V710,苓雅,2026-01-30,22.622742,120.330669,4.3513846e-05
C0C740,觀音工業區,2026-01-30,25.064764,121.114856,3.0796564e-05
CAC040,拉拉山,2026-01-30,24.699317,121.427133,5.9507517e-08
C0V790,萬山,2026-01-30,22.905944,120.688056,2.7759457e-09
U2HA30,臺大和社,2026-01-30,23.590856,120.888864,2.0523585e-09
C2H9K0,屯原,2026-01-30,24.067969,121.209389,1.3111245e-08
C0AJ90,澳底,2026-01-30,25.0552,121.9253,2.1800886e-07
C0Z100,東華,2026-01-30,23.89525,121.549833,1.5109674e-08
C0G970,三豐,2026-01-30,23.882,120.2895,0.16998969
V2K610,大庄合作社,2026-01-30,23.8068,120.367939,1.3488066e-07
C0V900,汕尾,2026-01-30,22.4782,120.4151,0.0011973236
C1R630,龍泉,2026-01-30,22.66701,120.59091,1.2501147e-07
C1AC50,關渡,2026-01-30,25.133486,121.469331,3.6696224e-07
C0C800,四稜,2026-01-30,24.64733,121.4293,4.917404e-08
C0F9I0,神岡,2026-01-30,24.272481,120.658314,1.2902214e-08
C0K460,斗南,2026-01-30,23.678734,120.478359,7.153276e-09
C2O810,曾文,2026-01-30,23.219681,120.497328,1.1876123e-09
467280,後龍,2026-01-30,24.648563,120.831834,0.00010493801
C1F9J1,清水林,2026-01-30,24.071242,120.820419,1.6772537e-09
C2A650,火燒寮,2026-01-30,25.002719,121.742892,1.6950337e-07
466930,竹子湖,2026-01-30,25.162078,121.544547,1.0913837e-07
C1I220,樟湖,2026-01-30,23.905333,120.846983,4.3442214e-09
C0I390,仁愛,2026-01-30,24.022122,121.132206,4.2144928e-09
C0Z300,東里,2026-01-30,23.26853,121.30547,1.15529915e-08
C1V590,新發,2026-01-30,23.057019,120.646064,3.7091743e-09
C0K510,水林,2026-01-30,23.572924,120.24597,4.973363e-07
72S590,東改賓朗果園,2026-01-30,22.813889,121.071278,2.6301999e-08
82A750,茶改北部分場,2026-01-30,24.955778,121.631222,1.2156575e-07
C1A750,石碇服務區,2026-01-30,25.00872,121.646242,1.2524607e-07
C0X300,鹿寮,2026-01-30,23.386047,120.477331,2.352861e-09
G2AI50,關渡,2026-01-30,25.11575,121.492,4.1814022e-08
C0K590,雲林東勢,2026-01-30,23.674192,120.255721,4.285389e-08
C2K310,港尾布雞,2026-01-30,23.74834,120.38439,6.4527903e-09
C0A570,桶後,2026-01-30,24.848222,121.597992,5.703462e-08
C1S800,華源,2026-01-30,22.657883,121.02325,1.3134442e-07
C0G720,溪州,2026-01-30,23.851589,120.499093,8.44294e-09
C1V160,達卡努瓦,2026-01-30,23.279811,120.705319,5.139415e-09
C2M410,馬頭山,2026-01-30,23.324361,120.582017,9.704275e-10
C0V850,蚵仔寮,2026-01-30,22.7256,120.2527,0.005766118
C0S740,池上,2026-01-30,23.119628,121.209469,9.865319e-09
C1V390,尖山,2026-01-30,22.813153,120.367789,9.390633e-06
C0AH70,松山,2026-01-30,25.04871,121.55042,3.9512305e-08
C0N010,鯤鯓國小,2026-01-30,23.1879,120.0889,0.0024194506
C0R550,新埤,2026-01-30,22.467947,120.582894,4.548885e-06
C0SA60,知本（水試所）,2026-01-30,22.702394,121.082761,5.861841e-07
C0T9I0,豐濱,2026-01-30,23.583897,121.514806,6.2849437e-09
C0UB00,淡江大學蘭陽校園,2026-01-30,24.823239,121.730383,5.085377e-08
C0W240,九宮,2026-01-30,24.423753,118.240186,7.0899816e-08
C0T9N0,富里,2026-01-30,23.171639,121.249378,1.2130778e-08
U2HA50,臺大竹山,2026-01-30,23.756972,120.681556,1.7314067e-09
C0V840,鳳鼻頭,2026-01-30,22.5083,120.3591,0.0011727996
C0X140,西港,2026-01-30,23.125608,120.203108,2.750231e-05
72D080,桃改五峰分場,2026-01-30,24.612194,121.157167,1.0131276e-08
C2H9P0,伊拿谷,2026-01-30,23.963211,121.088264,3.0495593e-09
C2K250,崙背,2026-01-30,23.75553,120.31893,6.0063876e-08
C2H9F0,柑林,2026-01-30,24.018658,120.847072,1.1385595e-09
C0TA20,加灣,2026-01-30,24.082025,121.608944,4.1248832e-08
C0V530,阿蓮,2026-01-30,22.883208,120.327508,1.6065134e-05
C0FB30,八仙山苗圃,2026-01-30,24.192719,121.001366,3.7420897e-09
C1O880,關山,2026-01-30,23.173397,120.594092,7.3602113e-10
C0E791,卓蘭,2026-01-30,24.3126,120.8244,3.3435923e-09
C1I030,武界,2026-01-30,23.913225,121.052483,3.2716247e-09
C0R520,崁頂,2026-01-30,22.514781,120.506914,0.0014410526
C0R341,牡丹,2026-01-30,22.130036,120.792639,0.029184235
C0R930,萬丹,2026-01-30,22.5885,120.4851,0.0009093826
C0S760,紅石,2026-01-30,23.069131,121.126219,3.4653475e-08
C2C410,中央大學,2026-01-30,24.967652,121.185165,5.7992814e-08
C1M610,石磐龍,2026-01-30,23.496606,120.663506,4.4181996e-09
C0C790,東眼山,2026-01-30,24.8284,121.40888,7.122688e-08
C0UA10,鴛鴦湖,2026-01-30,24.590269,121.412228,5.094289e-08
V2C260,八德蔬果,2026-01-30,24.978508,121.281819,2.941462e-08
C0R800,丹路,2026-01-30,22.204481,120.750989,0.9687984
C0G920,永靖,2026-01-30,23.924703,120.547533,7.789432e-09
C2M950,太和,2026-01-30,23.538372,120.702961,5.7001963e-09
C1A630,下盆,2026-01-30,24.771003,121.538622,6.204762e-08
B2N890,畜產試驗所,2026-01-30,23.058972,120.336406,5.1802763e-05
C0UA30,白嶺,2026-01-30,24.527819,121.519031,3.4816786e-08
467571,新竹,2026-01-30,24.828575,121.01455,3.097939e-08
C1V580,溪南(特生中心),2026-01-30,23.084972,120.788475,1.1826038e-08
C1T970,大農,2026-01-30,23.615233,121.413331,1.5139674e-08
C0R650,竹田,2026-01-30,22.58486,120.54344,0.0025841396
C1H900,清流,2026-01-30,24.080775,120.962997,3.2597527e-09
C1C510,水尾,2026-01-30,24.940081,121.087161,1.8558423e-07
C2N170,茅港尾,2026-01-30,23.2061,120.2624,3.4105058e-05
C0F9X0,大雅(中科園區),2026-01-30,24.21528,120.62445,1.714912e-08
C0SB60,白守蓮,2026-01-30,23.126769,121.401914,5.9765665e-07
C0O970,虎頭埤,2026-01-30,23.021375,120.347878,2.9092928e-06
C0C730,中大臨海站,2026-01-30,24.966126,121.008581,7.249731e-08
C0X250,新營,2026-01-30,23.310689,120.316681,1.1246526e-05
C0V700,三民,2026-01-30,22.645017,120.311233,0.010044343
C0U870,大礁溪,2026-01-30,24.791042,121.675047,4.2549686e-08
C0E870,高鐵苗栗,2026-01-30,24.60725,120.826094,0.000110131885
C0TA30,鹽寮,2026-01-30,23.845606,121.592664,1.5319188e-08
C0M860,新美,2026-01-30,23.338017,120.683169,2.4005304e-09
C1E701,八卦,2026-01-30,24.491756,120.927619,4.9854934e-09
C2TA90,加納納,2026-01-30,23.466421,121.359867,7.8206055e-09
C0I420,國姓,2026-01-30,24.037803,120.855072,1.1445253e-09
C2D720,關西工作站,2026-01-30,24.757275,121.184792,1.01790025e-08
C0S960,香蘭,2026-01-30,22.587569,120.993375,6.8690207e-07
467620,蘭嶼,2026-01-30,22.0369,121.55843,0.9994491
C0R260,春日,2026-01-30,22.370361,120.628306,5.642791e-07
72G600,臺中農改場,2026-01-30,24.003028,120.534389,7.612431e-09
C0Z210,瑞穗,2026-01-30,23.5239,121.39021,7.133248e-09
C0M820,達邦,2026-01-30,23.453994,120.749517,3.4303667e-09
C0V860,南寮,2026-01-30,22.7616,120.2339,0.0077053723
C0G740,大城,2026-01-30,23.852487,120.320935,0.16968215
C0R920,塭仔,2026-01-30,22.4169,120.5197,0.00083048816
C0R470,高樹,2026-01-30,22.826389,120.600806,9.715699e-07
C0R680,佳樂水,2026-01-30,21.993578,120.861633,0.99579406
C1O870,大棟山,2026-01-30,23.31157,120.52226,3.5111596e-09
C0D360,梅花,2026-01-30,24.678347,121.208558,7.270291e-09
C0Z190,富世,2026-01-30,24.14743,121.6297,9.6389805e-08
C0AI10,屈尺,2026-01-30,24.92184,121.54475,4.630536e-08
B2U990,畜試東區分所,2026-01-30,24.669039,121.832561,2.4447608e-08
C0SB80,長濱漁港,2026-01-30,23.313644,121.459994,4.2531592e-08
C0TA50,和仁,2026-01-30,24.241394,121.712472,1.3371347e-08
C0V910,大樹,2026-01-30,22.684645,120.432803,7.679578e-06
C1R610,西大武山,2026-01-30,22.617719,120.7322,2.2648411e-08
C0G900,線西,2026-01-30,24.143358,120.443536,3.19071e-06
C0M700,竹崎,2026-01-30,23.526178,120.555508,1.3280981e-09
C2E880,三義,2026-01-30,24.405478,120.749819,1.2087241e-08
C0C720,竹圍,2026-01-30,25.112692,121.239824,1.9886787e-07
C0F9P0,清水,2026-01-30,24.312297,120.562242,3.5524797e-06
C0Z150,吉安光華,2026-01-30,23.930925,121.595153,1.652833e-08
C0FA80,小雪山天池,2026-01-30,24.28025,121.02627,2.7369946e-08
467300,東吉島,2026-01-30,23.25727,119.66762,0.9863307
C1D640,外坪(五指山),2026-01-30,24.644447,121.090961,6.0886953e-09
C2R9A0,高士國小,2026-01-30,22.12553,120.84653,0.1372493
C0F9O0,潭子,2026-01-30,24.213106,120.703933,2.996485e-09
C2H9R0,卓社,2026-01-30,23.887894,121.000086,4.754778e-09
72T250,花蓮農改場,2026-01-30,23.975222,121.563889,1.6141387e-08
C0E780,銅鑼,2026-01-30,24.489681,120.790853,4.9749893e-08
C1T950,太安,2026-01-30,23.666719,121.370128,2.7200548e-08
C0E830,苑裡,2026-01-30,24.439714,120.653053,0.010865849
467270,田中,2026-01-30,23.873803,120.581286,6.0120926e-09
C0SA10,檳榔四格山,2026-01-30,22.810031,121.109308,2.1437524e-08
C1T830,布洛灣,2026-01-30,24.17184,121.57127,8.429073e-08
C0F970,大坑,2026-01-30,24.173142,120.722289,2.90534e-09
C1U920,思源,2026-01-30,24.393125,121.347214,2.7665175e-08
C2H9Y0,松茗,2026-01-30,23.8167,120.650765,1.0490462e-09
C0A931,三和,2026-01-30,25.233153,121.595236,4.3048829e-07
C0I010,廬山,2026-01-30,24.033311,121.181808,1.0530963e-08
C2M940,日野賀,2026-01-30,23.434056,120.727169,5.1879105e-09
C0R860,鼻頭,2026-01-30,22.1043,120.8979,0.9990154
C0UB20,壯圍,2026-01-30,24.7359,121.8163,2.0314108e-08
C0R790,九棚,2026-01-30,22.14195,120.889281,0.3798319
C0W110,東莒,2026-01-30,25.9652,119.98069,0.019013446
C1U930,粉鳥林,2026-01-30,24.497088,121.842479,5.0230735e-08
C1I211,蘆竹湳,2026-01-30,23.934019,120.811994,1.5518423e-09
C0S830,長濱,2026-01-30,23.286817,121.411975,1.1167214e-08
C1F9F1,伯公龍,2026-01-30,24.272392,120.849047,1.5671878e-09
C0UB90,太平山莊,2026-01-30,24.494171,121.536209,4.0465284e-08
C0E810,西湖,2026-01-30,24.562947,120.7485,0.98964906
C1I440,新高口,2026-01-30,23.478744,120.878939,1.8904192e-08
C0O840,王爺宮,2026-01-30,23.222064,120.40085,3.1104361e-09
C0T9G0,鳳林山,2026-01-30,23.735269,121.420131,3.478121e-08
C0X080,佳里,2026-01-30,23.173039,120.145086,0.0015823662
C0FB70,大甲溪埔,2026-01-30,24.370625,120.620067,2.804612e-05
C0Z310,清水斷崖,2026-01-30,24.218294,121.689142,1.254075e-08
C0M680,太保,2026-01-30,23.455062,120.331455,1.4871652e-07
C1S820,金峰,2026-01-30,22.590969,120.933236,1.3699898e-07
C0AD10,八里,2026-01-30,25.150211,121.403947,5.5239816e-06
C2K240,草嶺,2026-01-30,23.59555,120.693461,4.3847033e-09
C1SA70,都蘭,2026-01-30,22.87794,121.226881,9.986636e-09
C0K440,二崙,2026-01-30,23.772797,120.408944,6.278665e-09
C1A760,坪林交控,2026-01-30,24.94284,121.713442,2.2704494e-07
C0F9N0,大里,2026-01-30,24.092464,120.701378,7.3394952e-09
C0SA90,達仁林場,2026-01-30,22.264347,120.823972,6.1378806e-08
C1R290,石門山,2026-01-30,22.112611,120.756597,0.59354514
42HA10,萬大發電廠,2026-01-30,23.978875,121.139639,3.5146572e-09
C0R890,山海,2026-01-30,21.9878,120.7091,0.9962534
C0T9A0,月眉山,2026-01-30,23.809928,121.539828,1.3516299e-08
C0AC70,信義,2026-01-30,25.037822,121.564597,4.0720554e-08
C0K560,棋山,2026-01-30,23.68645,120.603417,1.4474586e-09
C2FB50,出雲,2026-01-30,24.206469,120.902794,4.614593e-09
C1Z240,中平林道,2026-01-30,23.42115,121.26763,4.7836796e-08
U2H480,溪頭,2026-01-30,23.670306,120.798194,3.617672e-09
C0M880,好美里,2026-01-30,23.3364,120.138,0.00038960017
C0T9E0,大坑,2026-01-30,23.880628,121.581981,1.9776351e-08
C0K530,臺西,2026-01-30,23.701547,120.197559,0.07964713
C1E900,國一N128K,2026-01-30,24.560997,120.844186,1.0794405e-07
C0AJ50,水湳洞,2026-01-30,25.123695,121.862238,2.0970266e-07
C0AI20,白沙灣,2026-01-30,25.283128,121.519058,1.5618238e-05
C2V310,美濃,2026-01-30,22.898792,120.51907,1.3032086e-08
C0A860,大坪,2026-01-30,25.165914,121.632969,6.021219e-08
C1U850,觀音海岸,2026-01-30,24.38319,121.77856,1.5716878e-08
C2K610,草嶺石壁,2026-01-30,23.602469,120.707731,4.5071284e-09
C0U950,鶯子嶺,2026-01-30,24.89754,121.79244,7.7376384e-08
C0O900,善化,2026-01-30,23.112883,120.297219,0.00014316727
C0K550,蔦松,2026-01-30,23.514319,120.229736,2.4246663e-06
E2P980,林試六龜中心,2026-01-30,22.991703,120.645722,2.4044988e-09
C0E590,通霄,2026-01-30,24.471892,120.704622,0.08082234
C1I310,西巒,2026-01-30,23.754486,120.883956,6.6380714e-09
C0A550,泰平,2026-01-30,24.971197,121.823711,1.1421046e-07
C0I360,水里,2026-01-30,23.812553,120.849792,1.0683502e-09
C0R830,高士,2026-01-30,22.121825,120.836781,0.13179937
C1I101,溪頭,2026-01-30,23.661789,120.807647,9.7495665e-09
C0AJ20,野柳,2026-01-30,25.20703,121.690021,1.1814618e-06
C0B060,暖暖,2026-01-30,25.0957,121.7403,2.2762748e-07
C1H920,長豐,2026-01-30,24.102039,120.879897,2.7072742e-09
C2S9B0,利吉,2026-01-30,22.86246,121.15486,8.504064e-09
C0V360,內門,2026-01-30,22.975481,120.466769,1.3378413e-08
C0R850,林邊,2026-01-30,22.4634,120.5339,0.0011755358
C0E930,龍鳳,2026-01-30,24.700034,120.859125,0.95905524
C0U910,冬山,2026-01-30,24.63373,121.7937,2.4447608e-08
C1E721,泰安,2026-01-30,24.489017,120.968036,8.742173e-09
82H320,茶改中部分場,2026-01-30,23.875611,120.913583,3.0320322e-09
C0M750,布袋,2026-01-30,23.380878,120.167789,0.00011618006
C1S860,利嘉,2026-01-30,22.809417,121.050528,3.3507316e-08
E2S980,林試太麻里1,2026-01-30,22.598922,120.980044,2.9852745e-07
C0X170,關廟,2026-01-30,22.963017,120.327797,5.5742867e-06
C0V720,林園,2026-01-30,22.507747,120.394511,0.0010449956
C1I510,線浸林道,2026-01-30,23.761508,120.832956,4.4240687e-09
C0D690,外湖,2026-01-30,24.917735,120.968711,0.32179987
C0C750,新興坑尾,2026-01-30,25.0061,121.0971,3.9927468e-07
B2Q810,畜試南區分所,2026-01-30,21.945583,120.802167,0.99579406
C0S790,金崙,2026-01-30,22.538122,120.966875,1.3920392e-07
C0AH90,福山植物園,2026-01-30,24.760717,121.58135,6.0854354e-08
C0I540,奇萊稜線,2026-01-30,24.109231,121.326456,4.04561e-08
C0M850,表湖,2026-01-30,23.24186,120.64166,3.0176146e-09
C0S770,大溪山,2026-01-30,22.478475,120.943325,6.160952e-08
C0AG80,中和,2026-01-30,24.991622,121.491792,4.9159883e-08
C0T790,大禹嶺,2026-01-30,24.186117,121.316086,2.7484564e-08
C0T9B0,水源,2026-01-30,23.991861,121.537169,2.1833172e-08
C0R840,牡丹池山,2026-01-30,22.168389,120.841225,3.0025657e-07
C1I131,桶頭,2026-01-30,23.641944,120.654117,8.6302715e-10
CAL110,布袋國中,2026-01-30,23.35893,120.18026,0.0004286015
C2M9D0,何竹子腳,2026-01-30,23.53641,120.38203,1.6258804e-08
C0Z290,赤柯山,2026-01-30,23.36893,121.38293,2.1896687e-08
C0X280,將軍,2026-01-30,23.214999,120.13577,0.00095402927
C0S690,太麻里,2026-01-30,22.60902,120.98533,3.5792933e-08
C0U880,北關,2026-01-30,24.9072,121.8734,1.7328885e-07
CAW010,東引,2026-01-30,26.3588,120.4836,0.03600196
C0G810,埔心,2026-01-30,23.947633,120.525456,8.151119e-09
C0U970,大福,2026-01-30,24.80064,121.81389,2.0698812e-08
C2H9N0,仁愛東眼,2026-01-30,24.026875,121.1205,5.9629173e-09
C1E670,南礦,2026-01-30,24.538278,121.002836,8.711612e-09
C0M520,東後寮,2026-01-30,23.369908,120.248065,5.2069616e-05
C1E461,松安,2026-01-30,24.397972,120.986022,7.0391923e-09
C2N160,西拉雅風管處,2026-01-30,23.189481,120.335297,2.8359752e-06
C2M970,碧湖,2026-01-30,23.568632,120.624165,2.6423115e-09
C0A640,石碇,2026-01-30,24.993969,121.662917,2.2704494e-07
E2S960,林試太麻里2,2026-01-30,22.598,120.99775,7.244864e-07
C0F9Y0,桃山,2026-01-30,24.432739,121.303808,3.734099e-08
C1I020,萬大,2026-01-30,23.979817,121.132261,4.259563e-09
C2UC20,長嶺,2026-01-30,24.70894,121.61162,2.5564542e-08
C0U940,羅東,2026-01-30,24.68184,121.74934,2.151166e-08
C0M650,朴子,2026-01-30,23.43463,120.23902,2.0916019e-07
C1I500,大尖山,2026-01-30,23.858572,120.994889,1.017644e-08
C0FB40,中橫21.6k,2026-01-30,24.2499,121.1455,7.314508e-09
C0G820,田尾,2026-01-30,23.901669,120.509389,7.789432e-09
E2K600,四湖植物園,2026-01-30,23.676986,120.163433,0.002846577
C0S730,綠島,2026-01-30,22.6672,121.47533,0.9996522
12Q970,東港工作站,2026-01-30,22.479997,120.466058,0.0011755358
C1TA00,太魯閣,2026-01-30,24.15773,121.6236,1.0474715e-07
466920,臺北,2026-01-30,25.037658,121.514853,3.9512305e-08
C0R600,舊泰武,2026-01-30,22.588194,120.664944,6.9838935e-09
C1I260,北坑,2026-01-30,23.9246,121.006903,2.3356823e-09
466910,鞍部,2026-01-30,25.182586,121.529731,1.6615148e-07
C1I230,九份二山,2026-01-30,23.961944,120.845,1.9822375e-09
C2M810,里佳,2026-01-30,23.389125,120.716647,6.819952e-09
C2A660,瑞芳,2026-01-30,25.113169,121.801147,2.521792e-07
C0R270,琉球嶼,2026-01-30,22.332244,120.362236,8.793144e-09
C2V580,瑞山,2026-01-30,22.90304,120.43424,1.5399252e-08
C1T990,高寮,2026-01-30,23.394239,121.356808,1.06802265e-08
C0G620,芬園,2026-01-30,24.015678,120.6213,2.4699052e-09
C1Z140,荖溪,2026-01-30,23.890575,121.45964,5.016783e-08
C1I201,中心崙,2026-01-30,23.728722,120.712097,1.4155986e-09
C1I400,凌霄,2026-01-30,24.018778,121.004456,6.087116e-09
C1M640,十字,2026-01-30,23.492153,120.753683,8.645137e-09
G2P820,農試鳳山分所,2026-01-30,22.646611,120.356083,2.7845628e-05
C0Z270,蕃薯寮,2026-01-30,23.73835,121.540108,1.35696405e-08
C2E420,竹南,2026-01-30,24.70898,120.88897,0.95272595
C0FB10,出雲山苗圃,2026-01-30,24.23105,120.90475,3.9491717e-09
C0F9Q0,外埔,2026-01-30,24.347817,120.705686,2.2506262e-08
C0K580,高鐵雲林,2026-01-30,23.737456,120.417944,6.4527903e-09
C2I090,鳳凰,2026-01-30,23.728081,120.787347,2.274932e-09
C0U990,員山,2026-01-30,24.74435,121.72247,2.1787994e-08
C0V770,大社,2026-01-30,22.730306,120.346639,0.0010285665
C0X120,麻豆,2026-01-30,23.183289,120.248611,2.4824663e-05
C0C670,龍潭,2026-01-30,24.870056,121.221389,1.413813e-08
C0D680,香山濕地,2026-01-30,24.783581,120.914988,0.32200685
C0S980,勝林山,2026-01-30,22.430439,120.8938,3.1988215e-08
C0V730,大寮,2026-01-30,22.605614,120.395717,0.0071434653
C0R570,麟洛,2026-01-30,22.65078,120.52719,1.2144691e-05
C2M930,石卓,2026-01-30,23.478744,120.702264,8.492685e-09
C0G9B0,和美,2026-01-30,24.105169,120.492131,3.9244464e-06
CAG100,王功漁港,2026-01-30,23.96824,120.32586,0.2546984
C0X290,北門,2026-01-30,23.267772,120.125481,0.0010369365
C2F930,大甲,2026-01-30,24.347667,120.640403,4.4052913e-06
C0D650,湖口,2026-01-30,24.904794,121.043628,4.178827e-08
C0U780,五結,2026-01-30,24.68637,121.79794,2.4447608e-08
C1I250,鯉潭,2026-01-30,23.961922,120.991131,2.5958944e-09
C0R130,阿禮,2026-01-30,22.742908,120.743678,5.893852e-09
C0X100,臺南市北區,2026-01-30,23.010394,120.194228,0.0034403265
C0S920,金峰嘉蘭,2026-01-30,22.594789,120.960825,2.892192e-07
C0V490,新興,2026-01-30,22.627422,120.298803,0.018094735
C0F9K0,大安,2026-01-30,24.345061,120.588025,2.804612e-05
467290,古坑,2026-01-30,23.633639,120.551889,1.134655e-09
C2E970,八甲,2026-01-30,24.535811,120.795983,9.845979e-08
C0V440,鳳山,2026-01-30,22.646653,120.356122,2.7845628e-05
C1T940,大觀,2026-01-30,23.714206,121.373133,1.5623447e-08
C0E740,造橋,2026-01-30,24.637056,120.864778,0.00011284374
C0R100,尾寮山,2026-01-30,22.833111,120.683889,6.1247682e-09
A2K630,臺大雲林校區,2026-01-30,23.730628,120.423903,6.168945e-09
467990,馬祖,2026-01-30,26.169467,119.923158,1.0748959e-05
C0D580,寶山,2026-01-30,24.735006,121.025192,5.8595973e-09
E2P990,林試扇平站,2026-01-30,22.9677,120.6857,3.6365861e-09
C0AI30,三重,2026-01-30,25.057328,121.500629,3.9644334e-08
C0AH00,汐止,2026-01-30,25.066881,121.658778,1.4661725e-07
C1Z040,立山,2026-01-30,23.443356,121.327375,2.180059e-08
466881,新北,2026-01-30,24.959207,121.525196,4.8699324e-08
C0W130,花嶼,2026-01-30,23.40007,119.32276,0.9625584
C0A950,鼻頭角,2026-01-30,25.129036,121.923372,2.1800906e-07
C0K470,林內,2026-01-30,23.748675,120.609642,1.5309979e-09
C2F990,摩天嶺,2026-01-30,24.322458,120.936819,4.1240473e-09
C2E430,南庄,2026-01-30,24.601775,121.000214,5.805731e-09
82C160,茶改場,2026-01-30,24.908472,121.185333,4.8550188e-08
C2TB60,南安,2026-01-30,23.29818,121.26157,1.13276135e-08
C0Z320,清水林道,2026-01-30,23.27125,121.188272,1.9131189e-08
C0R760,南仁湖,2026-01-30,22.084681,120.863353,0.59354514
C0M670,大林,2026-01-30,23.600616,120.45841,7.736514e-09
C0M800,茶山,2026-01-30,23.299075,120.664767,1.0480682e-09
C0A9C0,天母,2026-01-30,25.117494,121.537169,4.0268258e-08
72K220,南改斗南分場,2026-01-30,23.634556,120.477333,7.153276e-09
72AI40,桃改樹林分場,2026-01-30,24.944503,121.386972,5.836845e-08
C0S910,蘭嶼燈塔,2026-01-30,22.081197,121.503117,0.9866454
C0B050,八斗子,2026-01-30,25.144754,121.79167,4.0263387e-07
C0U900,內城,2026-01-30,24.71813,121.68766,2.0650898e-08
C0X320,柳營,2026-01-30,23.253328,120.375253,7.1206196e-09
C0M790,新港,2026-01-30,23.553269,120.345728,1.4417674e-07
C0F9T0,西屯,2026-01-30,24.179494,120.641275,1.1569685e-08
C0E950,松安,2026-01-30,24.39792,120.98599,7.0391923e-09
C0SA30,都歷,2026-01-30,23.020333,121.323642,7.544857e-08
C0C620,蘆竹,2026-01-30,25.084275,121.265767,1.1715875e-07
C0R730,大坪頂,2026-01-30,22.024633,120.69355,0.99762547
C0AJ40,石門,2026-01-30,25.273672,121.601198,3.4412253e-06
C0E750,苗栗,2026-01-30,24.564569,120.824575,1.0836074e-07
C0T870,鯉魚潭,2026-01-30,23.935639,121.508944,1.5212967e-08
C1V170,排雲,2026-01-30,23.463619,120.954147,3.3894917e-08
C2H950,中寮,2026-01-30,23.884447,120.766406,1.2741925e-09
C0R350,貓鼻頭,2026-01-30,21.921774,120.7358,0.9963709
C0V660,岡山,2026-01-30,22.797078,120.294958,0.004643885
C1H941,雙冬,2026-01-30,23.967378,120.802189,1.4287191e-09
C0AJ70,田寮,2026-01-30,25.2698,121.4886,1.7601416e-05
C0AI00,五股,2026-01-30,25.07445,121.42728,3.3838656e-08
C0Z280,德武,2026-01-30,23.47426,121.41071,7.768719e-09
C2RA10,大新,2026-01-30,22.67558,120.57788,1.4396556e-07
C0R700,枋山,2026-01-30,22.246844,120.661086,0.9785553
C0C460,復興,2026-01-30,24.820208,121.352281,1.8529361e-08
C2K300,鹿南,2026-01-30,23.63855,120.3636,1.1016837e-08
E2H360,蓮華池,2026-01-30,23.918333,120.885278,2.3932705e-09
C0M640,中埔,2026-01-30,23.42538,120.5229,1.555152e-09
C0W140,金沙,2026-01-30,24.488292,118.408778,9.086541e-08
C2A540,四堵,2026-01-30,24.8926,121.745736,1.11090515e-07
C0ACA0,新莊,2026-01-30,25.051478,121.446756,4.3976538e-08
C0R220,潮州,2026-01-30,22.534361,120.54,0.0012405432
U2HA40,臺大內茅埔,2026-01-30,23.689722,120.851117,1.2296777e-09
467490,臺中,2026-01-30,24.145736,120.684075,3.454167e-09
C0UB60,明池,2026-01-30,24.650688,121.475277,5.4587485e-08
C0U960,翠峰湖,2026-01-30,24.510856,121.608044,3.9423476e-08
E2HA20,林試畢祿溪站,2026-01-30,24.226944,121.308522,1.8293134e-08
C2M9A0,大華,2026-01-30,23.4824,120.67491,3.834208e-09
C0V890,前鎮,2026-01-30,22.5718,120.3117,0.00018099444
C1F941,雪嶺,2026-01-30,24.280586,121.026642,2.7369946e-08
C2H9E0,國姓南港,2026-01-30,23.911108,120.846556,4.529242e-09
C0AC80,文山,2026-01-30,25.00235,121.575728,5.3650343e-08
C0F9R0,龍井,2026-01-30,24.184536,120.528972,5.3257177e-06
C0M760,民雄,2026-01-30,23.551754,120.428457,7.736514e-09
C0UA40,西德山,2026-01-30,24.560647,121.752608,4.1646956e-08
C2TA70,赤科坪,2026-01-30,23.39885,121.39168,2.3333678e-08
C1T920,中興,2026-01-30,23.769503,121.498653,1.3409324e-08
C0D550,雪霸,2026-01-30,24.526972,121.11605,1.364436e-08
C2F860,梨山,2026-01-30,24.247522,121.243669,2.2782462e-08
C0R320,車城,2026-01-30,22.0744,120.716247,0.9973203
C1S870,南美山,2026-01-30,23.15025,121.382333,1.9891088e-08
C0B020,基隆嶼,2026-01-30,25.19141,121.78391,3.558634e-07
C1U501,牛鬥,2026-01-30,24.637836,121.573656,2.9620566e-08
C0M730,嘉義市東區,2026-01-30,23.457673,120.460531,2.6407194e-09
C2R990,泰武,2026-01-30,22.60686,120.69765,1.05833164e-08
C0S700,知本,2026-01-30,22.684866,121.005642,2.7594979e-08
C1N001,沙崙,2026-01-30,22.935472,120.309406,6.1984438e-06
C0V760,橋頭,2026-01-30,22.757806,120.30575,0.0015140206
C0G960,福寶,2026-01-30,24.0443,120.3814,1.2735064e-06
C0X210,白河,2026-01-30,23.347466,120.414427,4.4168935e-09
C0S810,東河,2026-01-30,22.972672,121.303986,9.9228615e-08
C2R170,屏東,2026-01-30,22.66027,120.49403,1.4169281e-05
C0R670,楓港,2026-01-30,22.190131,120.692156,0.99789923
C0FA50,霧峰,2026-01-30,24.0419,120.6995,6.2418053e-09
C0UB10,蘇澳,2026-01-30,24.5969,121.8571,2.5061283e-08
C0G950,防潮門,2026-01-30,24.1835,120.4871,3.1179125e-06
C0M740,六腳,2026-01-30,23.492871,120.290625,1.7160825e-07
C1R250,力里,2026-01-30,22.428117,120.629228,1.5771954e-08
C0K330,虎尾,2026-01-30,23.719183,120.442036,6.168945e-09
C2FA00,烏石坑,2026-01-30,24.273503,120.947617,4.0733585e-09
C0V620,永安,2026-01-30,22.82315,120.236856,0.0052444506
C1I330,楓樹林,2026-01-30,23.986803,121.076117,4.6745754e-09
C0W200,湖西,2026-01-30,23.596314,119.67275,0.89944947
72Q010,高雄農改場,2026-01-30,22.709333,120.525889,1.59041e-05
C0SA40,瑞和,2026-01-30,22.974361,121.156697,7.494797e-09
C0C680,龜山,2026-01-30,25.02846,121.38656,3.8794877e-08
C2V260,月眉,2026-01-30,22.971003,120.539853,4.213946e-09
C0V450,鳳森,2026-01-30,22.545064,120.392592,0.0006204513
C0FA90,小雪山林道,2026-01-30,24.29515,121.03651,3.305176e-08
C0U720,南山,2026-01-30,24.43742,121.38167,3.842248e-08
A2N290,臺南蘭花園區,2026-01-30,23.340258,120.379661,5.823809e-09
C0R560,新園,2026-01-30,22.5434,120.461558,0.0010449956
C0U890,三星,2026-01-30,24.66812,121.65302,1.9908054e-08
C1V300,御油山,2026-01-30,23.001983,120.715364,1.1562801e-08
C0U600,礁溪,2026-01-30,24.817539,121.765608,2.0292962e-08
C1T980,龍澗,2026-01-30,24.023289,121.411328,6.4646194e-08
C0D670,海天一線,2026-01-30,24.831986,120.914438,0.20873274
C0SA00,歷坵,2026-01-30,22.520969,120.89185,4.8417764e-08
C0M710,東石,2026-01-30,23.458927,120.15385,0.00010864301
C0M780,鹿草,2026-01-30,23.41134,120.30835,1.9776355e-07
C0U520,雙連埤,2026-01-30,24.753033,121.641303,3.8945156e-08
C0B010,七堵,2026-01-30,25.094819,121.71713,3.3937653e-07
C0R480,長治,2026-01-30,22.693128,120.542622,2.1974157e-07
C1V830,國三S383K,2026-01-30,22.781967,120.426475,3.3207812e-07
12Q980,恆春工作站,2026-01-30,22.079678,120.714425,0.99726397
C1O940,東山服務區,2026-01-30,23.286016,120.398472,5.379346e-09
C1U840,東澳嶺,2026-01-30,24.5378,121.8485,3.4303095e-08
C1D630,飛鳳山,2026-01-30,24.766464,121.119178,5.9513505e-09
C0S940,石寧山,2026-01-30,23.223772,121.406639,1.5615515e-07
C0K410,北港,2026-01-30,23.573957,120.292802,4.769727e-07
C2M620,瑞里,2026-01-30,23.545133,120.675197,4.7638644e-09
C0SB70,小港漁港,2026-01-30,23.158558,121.400431,5.2734777e-07
C2O950,安南,2026-01-30,23.076694,120.144861,0.21577217
C0F0E0,南湖圈谷,2026-01-30,24.363714,121.444667,5.265371e-08
467610,成功,2026-01-30,23.097486,121.373428,5.978134e-08
C0G890,伸港,2026-01-30,24.148933,120.484403,3.1179125e-06
C2E540,龍溪,2026-01-30,24.606489,120.783933,1.11098565e-07
C1V200,梅山,2026-01-30,23.268447,120.823556,3.933813e-09
C0T9H0,加路蘭山,2026-01-30,23.682947,121.5274,1.7009855e-08
C2O930,玉井,2026-01-30,23.126042,120.46055,2.1424433e-09
C1F911,新伯公,2026-01-30,24.221361,120.841069,1.4072263e-09
C0R490,九如,2026-01-30,22.7405,120.490503,2.0414302e-05
C0X200,左鎮,2026-01-30,23.056758,120.408522,3.4469423e-08
C2TB50,麻汝,2026-01-30,23.42554,121.39358,7.5296e-09
C0FA60,鞍馬山工作站,2026-01-30,24.267064,121.000793,2.0812031e-08
C0SB50,叭嗡嗡,2026-01-30,23.047062,121.343223,7.265276e-08
C1F891,稍來,2026-01-30,24.265689,121.001142,2.028062e-08
C2M9C0,紫雲,2026-01-30,23.494914,120.540253,1.5108829e-09
72N240,七股研究中心,2026-01-30,23.081672,120.062894,0.37647772
C0C700,中壢,2026-01-30,24.977661,121.256375,2.9941102e-08
C0M690,水上,2026-01-30,23.419734,120.388909,9.9319095e-09
C0V690,鼓山,2026-01-30,22.623325,120.275575,0.019504229
C0O860,大內,2026-01-30,23.11885,120.36083,6.647589e-05
C0Z200,萬榮,2026-01-30,23.709219,121.420106,1.4290605e-08
C0T9D0,和中,2026-01-30,24.26676,121.74103,1.3559163e-08
C2S9A0,北份子寮,2026-01-30,22.78561,121.07813,1.4111963e-07
C1O921,楠西,2026-01-30,23.183511,120.484083,1.8593395e-09
C0AJ30,淡水觀海,2026-01-30,25.184591,121.408616,5.8797295e-06
C0V810,左營,2026-01-30,22.67491,120.28491,0.010044343
C0UA70,桃源谷,2026-01-30,24.962606,121.888875,7.431413e-08
C0X130,官田,2026-01-30,23.193217,120.315422,3.6942758e-06
C1H000,翠峰,2026-01-30,24.109397,121.205211,2.366743e-08
C0UA90,石城,2026-01-30,24.980444,121.951214,2.0244508e-07
C1E681,南勢山,2026-01-30,24.421669,120.923831,4.4127675e-09
C0A9F0,內湖,2026-01-30,25.079422,121.57545,4.0720554e-08
C0K291,宜梧,2026-01-30,23.536281,120.169329,0.9303242
C1K540,口湖,2026-01-30,23.585344,120.180517,0.9562292
C0R780,滿州,2026-01-30,22.024403,120.839892,0.999655
C0V870,文安,2026-01-30,22.8025,120.2164,0.005766118
C0U650,玉蘭,2026-01-30,24.675286,121.587061,2.5623757e-08
C0R640,東港,2026-01-30,22.46247,120.44074,0.001097295
C0AJ80,板橋,2026-01-30,25.0107,121.4489,4.981199e-08
C0S660,下馬,2026-01-30,23.150427,121.070312,1.5833594e-08
C2N190,烏樹,2026-01-30,23.32393,120.36989,6.3502864e-07
C1H9B1,阿眉,2026-01-30,24.1263,120.994672,1.06248e-08
C0UA20,多加屯,2026-01-30,24.368614,121.373189,2.709683e-08
C0E730,頭份,2026-01-30,24.688247,120.912206,0.95395726
72V140,高改旗南分場,2026-01-30,22.857861,120.516667,3.1667358e-07
C0K480,莿桐,2026-01-30,23.761192,120.502372,6.2965224e-09
C0U980,坪林石牌,2026-01-30,24.86478,121.77396,8.01935e-08
C0T900,西林,2026-01-30,23.8119,121.441458,1.3084464e-08
C1I150,青雲,2026-01-30,23.793361,120.949378,1.1348845e-09
C2E980,和興,2026-01-30,24.505319,120.923016,4.0050394e-09
467350,澎湖,2026-01-30,23.565503,119.563094,0.8968764
C0G800,埔鹽,2026-01-30,24.000394,120.431683,9.831443e-07
C0H960,草屯,2026-01-30,23.973672,120.68085,2.614982e-09
C1V780,多納林道,2026-01-30,22.888028,120.737917,6.4392167e-09
C0E920,通霄漁港,2026-01-30,24.498589,120.673876,0.08354311
C0Z330,安通山,2026-01-30,23.290728,121.348528,1.1197735e-08
C0AH10,永和,2026-01-30,25.01125,121.508111,4.981199e-08
C0AK10,太平里,2026-01-30,25.134937,121.364899,2.2044064e-06
C2G640,鹿港,2026-01-30,24.0753,120.430481,4.5290553e-06
C1E890,國三N149K,2026-01-30,24.463414,120.680019,0.07998769
C1R110,口社,2026-01-30,22.770111,120.645222,6.7997155e-09
C1M870,國三N285K,2026-01-30,23.550319,120.505833,1.4225384e-09
C1E480,鳳美,2026-01-30,24.554803,121.034747,4.6765996e-09
C0T9M0,靜浦,2026-01-30,23.455167,121.495028,7.124043e-09
C2H9M0,發祥,2026-01-30,24.154094,121.164517,5.5989933e-09
C2G9C0,埔南,2026-01-30,23.99124,120.46969,9.831443e-07
C0AI40,石牌,2026-01-30,25.115597,121.513139,4.0720554e-08
C1F871,上谷關,2026-01-30,24.203483,121.018644,4.073762e-09
C2H9G0,百勝,2026-01-30,24.051142,120.909361,2.345271e-09
C0G880,二水,2026-01-30,23.810742,120.6173,1.8253288e-09
C0R940,加祿堂,2026-01-30,22.3363,120.6217,0.99922127
C0W220,北竿,2026-01-30,26.220358,119.974881,0.00081208145
C0O960,崎頂,2026-01-30,22.959547,120.369317,1.1365171e-06
C0TA40,秀林,2026-01-30,24.302864,121.731144,2.5700064e-08
C0S750,向陽,2026-01-30,23.248397,120.986133,2.0560934e-08
C0T9F0,水璉,2026-01-30,23.797131,121.542514,1.2822092e-08
C1M600,頭凍,2026-01-30,23.406364,120.603339,2.3781135e-09
467660,臺東,2026-01-30,22.752211,121.154586,4.3628343e-06
C1D380,新埔,2026-01-30,24.84745,121.03834,3.1759264e-08
C2G980,田頭村,2026-01-30,23.8263,120.444175,6.278665e-09
C0V750,路竹,2026-01-30,22.854997,120.259439,0.0032683644
C0N050,蚵寮,2026-01-30,23.301,120.1104,0.0010369365
C2X060,下營,2026-01-30,23.226806,120.256291,3.4105058e-05
72M700,南改鹿草分場,2026-01-30,23.416869,120.283061,2.0916019e-07
C1SA50,利嘉林道,2026-01-30,22.82325,121.009389,4.316282e-08
C0UB70,太平山中間站,2026-01-30,24.542003,121.513453,3.0445456e-08
C0A940,金山,2026-01-30,25.223628,121.643967,1.0126728e-06
C1V340,大津,2026-01-30,22.888322,120.645986,2.6307266e-08
C0W180,七美,2026-01-30,23.219333,119.444892,0.98507893
C1F9C1,白冷,2026-01-30,24.182844,120.929889,2.3966784e-09
K2E710,苗改生物防治研究中心,2026-01-30,24.422861,120.871833,5.9195497e-09
C0N040,蘆竹溝,2026-01-30,23.2344,120.0961,0.0010369365
C0TB40,崇德,2026-01-30,24.166144,121.657414,4.8952163e-08
C0D760,大坪苗圃,2026-01-30,24.5362,121.1108,1.0262399e-08
C2W230,畜試所澎湖,2026-01-30,23.628342,119.513206,0.9110746
C0R880,後壁湖,2026-01-30,21.9457,120.7457,0.99625546
C1I280,埔中,2026-01-30,23.820778,120.642594,1.0546335e-09
467790,墾丁雷達站,2026-01-30,21.948235,120.808028,0.9968497
C0W190,望安,2026-01-30,23.380564,119.494075,0.9681171
C0Z170,卓溪,2026-01-30,23.3443,121.3029,1.0313576e-08
C0F850,東勢,2026-01-30,24.246428,120.833047,1.3505366e-09
466900,淡水,2026-01-30,25.164889,121.448906,7.757667e-07
C0I370,魚池,2026-01-30,23.895703,120.94135,2.569128e-09
C0C630,大溪,2026-01-30,24.882853,121.265547,3.8430912e-08
C0A520,山佳,2026-01-30,24.974944,121.402008,5.899287e-08
C0I110,竹山,2026-01-30,23.761225,120.688156,1.7956043e-09
82H840,茶改南部分場,2026-01-30,23.762528,120.7405,9.87987e-10
C2SD80,再來山,2026-01-30,23.34371,121.44122,2.7268962e-08
C0G660,溪湖,2026-01-30,23.94835,120.479122,8.804993e-09
C1T800,洛韶,2026-01-30,24.204558,121.453956,4.1931266e-08
C1T810,慈恩,2026-01-30,24.192044,121.388386,2.6250227e-08
C1E451,象鼻,2026-01-30,24.368617,120.940228,4.182501e-09
C0AC60,三峽,2026-01-30,24.939025,121.369728,2.3287795e-08
C0I490,萬大林道,2026-01-30,23.928228,121.091411,7.282379e-09
C1I290,豐丘,2026-01-30,23.668178,120.887417,7.837689e-09
C1I320,奧萬大,2026-01-30,23.952956,121.178556,6.293533e-09
C2M910,嘉義大學,2026-01-30,23.471325,120.485903,2.2292677e-09
C0U770,南澳,2026-01-30,24.44935,121.81022,4.9844687e-08
C2TB30,吉安,2026-01-30,23.94538,121.54803,1.5663788e-08
C0A980,社子,2026-01-30,25.109508,121.469681,6.485776e-08
C0V800,六龜,2026-01-30,22.997889,120.633583,2.4376219e-09
C1G9D0,國一S218K,2026-01-30,23.890641,120.493253,1.1871328e-08
C0E570,白沙屯,2026-01-30,24.549447,120.696803,0.9904833
C2F9A0,中竹林,2026-01-30,24.103556,120.751061,1.1375414e-09
C0FA40,臺中電廠,2026-01-30,24.2146,120.4907,7.945339e-06
C2G9A0,畜試所彰化,2026-01-30,23.86045,120.557964,6.0120926e-09
C0H9C0,合歡山,2026-01-30,24.143442,121.272547,3.8910258e-08
G2M350,農試溪口農場,2026-01-30,23.58565,120.408111,8.7945535e-09
C0U860,頭城,2026-01-30,24.85323,121.8308,5.3646556e-08
C0R580,南州,2026-01-30,22.48591,120.50274,0.0011755358
C0D430,峨眉,2026-01-30,24.6905,121.017189,1.2463441e-08
C0G780,秀水,2026-01-30,24.03405,120.503869,7.612431e-09
72N100,臺南農改場,2026-01-30,23.0605,120.342194,5.1802763e-05
C0S900,蘭嶼高中,2026-01-30,22.04909,121.51214,0.9961264
C2TA60,六十石,2026-01-30,23.22477,121.31861,2.0047784e-08
C1F9W0,德基,2026-01-30,24.254783,121.190261,2.0964903e-08
C2M980,安和,2026-01-30,23.51377,120.31593,1.6336477e-07
C1Z120,壽豐,2026-01-30,23.870853,121.508081,1.5109674e-08
C0W160,烏坵,2026-01-30,24.9944,119.44956,0.5781747
C1I240,外大坪,2026-01-30,23.958697,120.917931,2.7752787e-09
C1I550,國六W023K,2026-01-30,23.979067,120.867742,1.1744525e-09
C0R870,興海,2026-01-30,21.9752,120.8439,0.99579406
C0R140,瑪家,2026-01-30,22.682903,120.686639,4.1922688e-09
C0A530,坪林,2026-01-30,24.938183,121.70975,1.9242316e-07
C0X260,後壁,2026-01-30,23.366358,120.362326,5.551062e-06
C0Z230,和平,2026-01-30,24.30717,121.77007,1.7090507e-08
C0G770,福興,2026-01-30,24.041289,120.437669,9.831443e-07
C0H9A0,神木村,2026-01-30,23.532742,120.843667,7.772602e-09
C0I460,南投,2026-01-30,23.911469,120.687331,2.7210498e-09
C0I480,梅峰,2026-01-30,24.085272,121.173572,1.6403272e-08
C1V570,吉東,2026-01-30,22.85422,120.5454,2.972493e-06
C2A560,福山,2026-01-30,24.776203,121.502811,2.5633925e-08
C0AH30,五分山,2026-01-30,25.07125,121.780794,9.3469474e-08
C0FA10,松柏,2026-01-30,24.429115,120.617482,0.0113465395
72S200,東改班鳩分場,2026-01-30,22.829528,121.077694,3.1081488e-08
72HA00,中改埔里分場,2026-01-30,23.903208,120.963364,2.5274551e-09
C2H9W0,大坪頂農水,2026-01-30,24.043122,120.932781,2.5407034e-09
C0C650,平鎮,2026-01-30,24.897503,121.214636,3.5186904e-08
C0S930,延平,2026-01-30,22.902581,121.084058,7.511971e-09
C0UA60,樟樹山,2026-01-30,24.41393,121.78325,1.4874794e-08
C2UC10,出水溪,2026-01-30,24.615822,121.652253,4.1576556e-08
C1S670,摩天,2026-01-30,23.199503,121.027,2.5663768e-08
C2C590,觀音,2026-01-30,25.027072,121.153317,2.7954342e-05
C0V630,茄萣,2026-01-30,22.906642,120.182608,0.0022689926
466940,基隆,2026-01-30,25.133314,121.740475,3.921417e-07
C0X050,東河,2026-01-30,23.296598,120.385608,5.823809e-09
C0R770,保力,2026-01-30,22.071122,120.764111,0.9989375
G2L020,農試嘉義分所,2026-01-30,23.485028,120.473806,2.1258761e-09
C0X240,關子嶺,2026-01-30,23.331169,120.508025,8.87513e-10
C0I380,集集,2026-01-30,23.828206,120.801467,1.0671365e-09
466990,花蓮,2026-01-30,23.975128,121.613275,4.1248832e-08
C1V220,小關山,2026-01-30,23.154217,120.813603,1.1141428e-08
C1F9G1,慶福山,2026-01-30,24.180853,120.848378,2.6923663e-09
C0FB20,雪山橋,2026-01-30,24.23192,120.9786,1.5503847e-08
C0Z250,瑞穗林道,2026-01-30,23.49284,121.30688,4.9934705e-08
C0D590,新豐,2026-01-30,24.87068,120.97721,0.19099247
C0A870,五指山,2026-01-30,25.132153,121.608692,1.3044712e-07
C0UA50,西帽山,2026-01-30,24.555361,121.802628,3.421932e-08
C2R980,竹田國中,2026-01-30,22.61532,120.52412,0.002396819
C0X160,仁德,2026-01-30,22.968258,120.257689,0.00054668746
C1H971,六分寮,2026-01-30,23.92507,120.6378,1.4213993e-09
C0W120,西嶼,2026-01-30,23.5626,119.468436,0.94577986
C0G650,員林,2026-01-30,23.946503,120.585597,4.62216e-09
C0AD50,鶯歌,2026-01-30,24.951533,121.346294,3.761599e-08
C2H9Q0,北東眼山,2026-01-30,24.120939,121.189303,1.9965892e-08
C2H9T0,名間竹圍,2026-01-30,23.859914,120.637572,1.2555247e-09
C0S990,山豬窟,2026-01-30,22.318619,120.857372,1.031232e-07
C0X190,安平,2026-01-30,22.993161,120.152181,0.0044258223
C0K400,斗六,2026-01-30,23.720583,120.541127,6.0097767e-09
12J990,口湖工作站,2026-01-30,23.589978,120.180394,0.94837195
C0O830,北寮,2026-01-30,23.079561,120.495008,3.9481245e-09
C1D410,白蘭,2026-01-30,24.579364,121.079947,9.017099e-09
C0S970,加津林,2026-01-30,22.416211,120.926942,2.3752282e-06
C0D700,關西,2026-01-30,24.7977,121.1732,1.028364e-08
C0U750,龜山島,2026-01-30,24.841667,121.953133,7.37593e-08
C0R810,內獅,2026-01-30,22.305064,120.642986,0.99922127
C1M390,龍美,2026-01-30,23.406728,120.654417,5.1538747e-09
C2K290,崙內,2026-01-30,23.69525,120.35601,1.1016858e-08
C2FB60,頭櫃山,2026-01-30,24.129842,120.858925,4.627629e-09
C1H840,國三N238K,2026-01-30,23.841008,120.707711,9.695913e-10
CAQ030,崎峰國小,2026-01-30,22.42565,120.49521,0.0011755358
C2E520,大湖,2026-01-30,24.414939,120.870872,5.8704486e-09
467530,阿里山,2026-01-30,23.508208,120.813242,2.100569e-08
C1E691,南湖,2026-01-30,24.40135,120.837533,3.3283976e-09
C0FA30,梧棲,2026-01-30,24.256003,120.523381,4.7640174e-06
C1V231,高中,2026-01-30,23.134911,120.716711,2.6909701e-09
C0AK30,硬漢嶺,2026-01-30,25.136097,121.426372,1.0684734e-07
C0F9V0,新社,2026-01-30,24.200172,120.815806,1.6909374e-09
C0H890,埔里,2026-01-30,23.972169,120.952425,2.2449786e-09
C0R690,墾丁,2026-01-30,21.966756,120.810269,0.9998394
C0SD20,富山,2026-01-30,22.822383,121.190825,1.722432e-08
C0F0D0,審馬陣,2026-01-30,24.381675,121.4203,4.179592e-08
C2W030,金門農試所,2026-01-30,24.448431,118.451786,1.545524e-07
C0R820,白鷺,2026-01-30,22.454275,120.666219,7.3681794e-09
C0FB00,大雪山,2026-01-30,24.254668,121.007374,2.0981224e-08
C1V190,南天池,2026-01-30,23.27403,120.91176,2.1483286e-08
C0E940,雪見,2026-01-30,24.42595,121.01347,1.5408302e-08
K2E360,苗栗農改場,2026-01-30,24.495722,120.829111,6.462228e-08
CAJ050,海口故事園區,2026-01-30,23.57543,120.14121,0.9562292
C2K280,四湖,2026-01-30,23.6304,120.22717,0.002846577
C2H9D0,三隻寮,2026-01-30,24.093078,120.861578,1.7811348e-09
C0O990,媽廟,2026-01-30,22.99175,120.293525,8.222729e-05
C0D480,打鐵坑,2026-01-30,24.849664,121.150789,1.36579e-08
C0Z220,和平林道,2026-01-30,24.343922,121.656317,1.27876545e-08
C0TA10,花蓮漁港,2026-01-30,23.995322,121.638331,1.17274666e-07
72C440,桃園農改場,2026-01-30,24.950944,121.030583,4.0712322e-08
C1E711,馬拉邦山,2026-01-30,24.367306,120.901656,3.7668673e-09
C0SB20,富岡,2026-01-30,22.792467,121.192669,3.847004e-07
C0D560,竹東,2026-01-30,24.767147,121.057881,8.673379e-09
C0F9U0,南屯,2026-01-30,24.137006,120.637969,1.2183321e-08
C2SD60,明峰,2026-01-30,22.8671,121.11825,6.575393e-09
C0M720,番路,2026-01-30,23.464657,120.554156,7.0207923e-10
C0F0A0,雪山圈谷,2026-01-30,24.388594,121.236339,3.6083293e-08
C1A9N0,四十份,2026-01-30,24.934158,121.593283,5.4474324e-08
C0U760,東澳,2026-01-30,24.52196,121.83318,4.7374353e-08
C0X230,鹽水,2026-01-30,23.272621,120.247641,0.0003752409
C2H9H0,苗改南投蜂場,2026-01-30,23.852589,120.693481,1.614689e-09
C2TB70,達谷寮,2026-01-30,23.38,121.35968,1.0975143e-08
C0R950,萬隆國小,2026-01-30,22.507667,120.587817,1.3435883e-06
467540,大武,2026-01-30,22.35572,120.90374,0.9999023
C0V370,古亭坑,2026-01-30,22.893178,120.401947,1.9403128e-08
C1I340,新興橋,2026-01-30,23.563333,120.868728,3.2449514e-09
C0SA80,土坂,2026-01-30,22.453108,120.887572,5.1592184e-07
C0R160,鹽埔,2026-01-30,22.739558,120.530778,1.59041e-05
C0AC40,大屯山,2026-01-30,25.175675,121.522408,1.3440327e-07
466850,五分山雷達站,2026-01-30,25.071182,121.781205,9.328424e-08
C2H9L0,馬烈霸,2026-01-30,24.1512,121.201772,1.8824496e-08
C1AI50,國三N016K,2026-01-30,25.034164,121.619664,5.9485163e-08
C2V920,匏子寮,2026-01-30,23.04905,120.55319,2.2403077e-09
C1V600,藤枝,2026-01-30,23.071961,120.757042,1.0666607e-08
C1E601,南勢,2026-01-30,24.572486,120.734842,0.98762083
C0O980,新市,2026-01-30,23.061614,120.298197,0.00014316727
C0K420,西螺,2026-01-30,23.800407,120.467394,5.797675e-09
C0Z050,佳心,2026-01-30,23.34567,121.21316,2.0044801e-08
C0AD30,蘆洲,2026-01-30,25.086594,121.472331,4.4428603e-08
C0V610,梓官,2026-01-30,22.760558,120.267211,0.0054228115
K2F750,種苗改良場,2026-01-30,24.225972,120.800917,1.6319597e-09
C0UA80,大溪漁港,2026-01-30,24.941801,121.902955,1.8395131e-07
C1AI60,國一39K邊坡,2026-01-30,25.064361,121.383836,3.284801e-08
C0W150,金寧,2026-01-30,24.457703,118.328989,1.456198e-07
C0R960,內埔,2026-01-30,22.608483,120.570714,0.002396819
V2C250,八德合作社,2026-01-30,24.93775,121.266389,3.7854296e-08
C2H9S0,龍南,2026-01-30,23.953536,120.833183,3.9518087e-09
C0AH40,平等,2026-01-30,25.129142,121.577086,1.3937475e-07
C0R540,佳冬,2026-01-30,22.419456,120.552375,0.00073229504
466950,彭佳嶼,2026-01-30,25.627975,122.079744,0.99993706
C0A890,雙溪,2026-01-30,25.036003,121.864242,1.8249908e-07
C0C480,桃園,2026-01-30,24.992425,121.323172,2.941462e-08
C0AH50,林口,2026-01-30,25.072181,121.38084,3.094567e-08
A2K360,水試臺西試驗場,2026-01-30,23.717231,120.190522,0.07964713
C2M960,外寮,2026-01-30,23.562643,120.665688,3.996828e-09
C0F9S0,烏日,2026-01-30,24.107058,120.624103,1.6746526e-08
C2N180,鹿陶洋,2026-01-30,23.14325,120.48352,1.8593395e-09
C0C490,八德,2026-01-30,24.928708,121.283289,3.743534e-08
C0R190,赤山,2026-01-30,22.592333,120.614306,0.0018754203
C0T820,天祥,2026-01-30,24.179597,121.495639,6.8364564e-08
C1F9E1,龍安,2026-01-30,24.1605,120.831961,1.7490048e-09
C2SD50,順那,2026-01-30,23.04166,121.29332,4.1696712e-08
C0V820,小林,2026-01-30,23.148408,120.63325,9.112185e-10
C2G870,芳苑,2026-01-30,23.922303,120.320025,0.31125885
C0E850,大河,2026-01-30,24.618069,120.948578,6.23689e-09
C1U670,寒溪,2026-01-30,24.634,121.71691,2.0042545e-08
C0N020,城西,2026-01-30,23.0568,120.0956,0.26586825
C1Z110,三棧,2026-01-30,24.11557,121.60501,5.852586e-08
C0R280,檳榔,2026-01-30,22.076078,120.836777,0.9519431
C2H9J0,中台,2026-01-30,23.9996,120.938739,2.6086404e-09
C0F9L0,后里,2026-01-30,24.310436,120.729725,2.8303078e-09
467441,高雄,2026-01-30,22.730432,120.312516,0.0015140206
C0Z180,新城,2026-01-30,24.040486,121.604878,3.9207958e-08
C0D540,橫山,2026-01-30,24.71116,121.11693,6.0390777e-09
C1D420,太閣南,2026-01-30,24.632808,121.160575,1.1206133e-08
C1E770,公館,2026-01-30,24.526914,120.830806,1.3126878e-07
CAN130,水試所海水繁養殖中心,2026-01-30,23.120802,120.07968,0.3413335
C1I430,翠華,2026-01-30,24.191961,121.224339,2.5731014e-08
C1M400,菜瓜坪,2026-01-30,23.251928,120.576103,1.0209953e-09
C0G730,二林,2026-01-30,23.903325,120.376081,5.389171e-07
72M360,南改義竹分場,2026-01-30,23.360694,120.279361,3.9854225e-05
V2K620,麥寮合作社,2026-01-30,23.753836,120.294783,6.0063876e-08
C0Z070,舞鶴,2026-01-30,23.46811,121.37407,7.872628e-09
C0B040,大武崙,2026-01-30,25.166676,121.706993,3.3077905e-07
C1Z030,紅葉,2026-01-30,23.493119,121.338806,7.800479e-09
C1I050,丹大,2026-01-30,23.753747,121.141147,2.1526601e-08
C0I080,信義,2026-01-30,23.689694,120.851036,1.2296777e-09
C2TB80,庄子底,2026-01-30,23.71794,121.49438,1.38422145e-08
C0D750,樂山林道6k,2026-01-30,24.49999,121.08773,1.8702563e-08
C2M920,朴子農改,2026-01-30,23.469889,120.259383,2.0916019e-07
C2A880,福隆,2026-01-30,25.017842,121.942083,2.1592564e-07
C0Z160,鳳林,2026-01-30,23.746114,121.453411,1.3785277e-08
C0UB80,翠峰林道6K,2026-01-30,24.49773,121.568625,4.164775e-08
C0V210,復興,2026-01-30,23.222403,120.806089,3.1550285e-09
C0H990,昆陽,2026-01-30,24.121322,121.273642,3.4545774e-08
C0R741,獅子,2026-01-30,22.202308,120.705236,0.95303977
C0S710,鹿野,2026-01-30,22.917711,121.122994,7.184836e-09
C0I530,小奇萊,2026-01-30,24.131764,121.295717,3.439226e-08
C0FA70,大雪山埡口,2026-01-30,24.26867,121.03062,2.7139967e-08
C2K630,荷苞,2026-01-30,23.657717,120.595144,1.0119394e-09
C0Z080,富源,2026-01-30,23.587642,121.378225,1.8709057e-08
C2M9E0,旺來山,2026-01-30,23.555153,120.486463,1.3900944e-09
C0SB10,美和,2026-01-30,22.682078,121.060236,5.770885e-07
C2K620,馬光農場,2026-01-30,23.721453,120.378864,6.4527903e-09
C1I140,卡奈托灣,2026-01-30,23.754364,121.087872,7.9144975e-09
C0I520,玉山風口,2026-01-30,23.470489,120.955994,3.8107483e-08
C1G691,下水埔,2026-01-30,23.816114,120.5676,5.394553e-09
C0X110,臺南市南區,2026-01-30,22.961189,120.188378,0.00048818393
C0V680,仁武,2026-01-30,22.701083,120.347722,0.0010285665
C2G840,北斗,2026-01-30,23.877586,120.514222,1.1295704e-08
C2TB90,長橋,2026-01-30,23.6874,121.46186,1.3738345e-08
C0R900,竹坑,2026-01-30,22.1385,120.7022,0.99789923
C0G860,社頭,2026-01-30,23.897647,120.5862,7.1409123e-09
C0X150,安定,2026-01-30,23.102614,120.227839,0.0010129036
C0R590,里港,2026-01-30,22.77919,120.49459,1.8369778e-06
C0E610,馬都安,2026-01-30,24.451272,120.930192,3.5714147e-09
C0E550,明德,2026-01-30,24.583486,120.885411,6.7207915e-09
C0R150,三地門,2026-01-30,22.709889,120.639944,5.1090602e-08
C0G910,花壇,2026-01-30,24.032076,120.549461,7.049471e-09
C1D400,鳥嘴山,2026-01-30,24.71909,121.28387,1.0668886e-08
C0K500,元長,2026-01-30,23.64981,120.315024,4.285389e-08
C0F0B0,石岡,2026-01-30,24.276061,120.777644,2.7485598e-09
C2V250,甲仙,2026-01-30,23.080106,120.591758,1.6549804e-09
C0SA20,金崙山,2026-01-30,22.567419,120.959667,2.4927989e-08
C0V350,溪埔,2026-01-30,22.738578,120.446797,3.920429e-06
C0M660,溪口,2026-01-30,23.604131,120.403569,8.7945535e-09
C1S880,壽卡,2026-01-30,22.238911,120.858903,6.970302e-07
72D680,桃改新埔分場,2026-01-30,24.834444,121.066111,3.156836e-08
