站號,站名,日期,lat,lon,BlastGRU-TW
C0R710,龍磐,2026-04-11,21.931672,120.838942,0.54431725
C1F9D1,白毛台,2026-04-11,24.158325,120.886933,0.2791848
C0G940,竹塘,2026-04-11,23.848253,120.386764,0.9909304
467590,恆春,2026-04-11,22.003897,120.746339,0.6061334
C0U710,太平山,2026-04-11,24.505486,121.525656,0.0016137457
C0E820,獅潭,2026-04-11,24.539133,120.920042,0.885869
C2SD70,二層坪,2026-04-11,22.94105,121.16838,0.72301966
C0V880,興達,2026-04-11,22.8778,120.2127,0.96738833
C0SB30,新蘭,2026-04-11,22.869214,121.223228,0.95940703
C2R970,屏科大,2026-04-11,22.648275,120.619247,0.8967725
C1Z130,銅門,2026-04-11,23.965694,121.492842,0.8653354
C0AD40,土城,2026-04-11,24.973208,121.445169,0.33773988
CAN140,六官養殖協會,2026-04-11,23.22881,120.29962,0.9685639
C0X180,山上,2026-04-11,23.0757,120.363253,0.95009285
C0F9Z0,雪山東峰,2026-04-11,24.388792,121.268675,0.0011068798
C1M480,獨立山,2026-04-11,23.537022,120.607797,0.058519997
C0X220,學甲,2026-04-11,23.230367,120.182187,0.9844898
467650,日月潭,2026-04-11,23.881325,120.90805,0.06227021
A2K570,古坑(花卉中心),2026-04-11,23.633531,120.552392,0.97521275
C0K600,箔子寮,2026-04-11,23.6197,120.14,0.9925224
C0G830,埤頭,2026-04-11,23.866003,120.452806,0.9892748
C0S950,七塊厝,2026-04-11,22.954453,121.229922,0.23646472
467110,金門,2026-04-11,24.407306,118.289281,0.0031231528
C0AH80,深坑,2026-04-11,25.002703,121.628328,0.9270227
C0A970,三貂角,2026-04-11,25.007606,122.002058,0.77197945
C2D730,寶山農場,2026-04-11,24.732444,120.976153,0.88895637
C0K430,褒忠,2026-04-11,23.690938,120.303634,0.99341697
467480,嘉義,2026-04-11,23.495925,120.432906,0.9696405
C0V400,阿公店,2026-04-11,22.804194,120.355528,0.9207666
C0E960,觀霧分站,2026-04-11,24.505781,121.113921,0.010781856
467550,玉山,2026-04-11,23.48718,120.95943,0.0006060431
C0R440,大漢山,2026-04-11,22.405264,120.753181,0.0072123073
C0SD30,東清國小,2026-04-11,22.057128,121.564922,0.78377587
C1F9B1,桐林,2026-04-11,24.066172,120.735194,0.9695667
C2H9U0,鳳鵬,2026-04-11,23.763919,120.788061,0.94572616
C0K390,土庫,2026-04-11,23.679029,120.395574,0.988712
C1I450,望鄉山,2026-04-11,23.594153,120.944286,0.0007076188
C0E910,海埔,2026-04-11,24.648767,120.772435,0.92716086
B2E890,畜試北區分所,2026-04-11,24.527806,120.770972,0.96865064
C0R750,四林格山,2026-04-11,22.076989,120.802439,0.5145198
C0F0C0,中坑,2026-04-11,24.248517,120.903319,0.2469625
C1I121,大鞍,2026-04-11,23.678381,120.760017,0.03119593
C2G9E0,移民庄,2026-04-11,23.9784,120.40283,0.99127847
72U480,花改蘭陽分場,2026-04-11,24.686306,121.716583,0.34692687
C0A770,科教館,2026-04-11,25.096356,121.516507,0.37220922
C0AJ60,六塊厝,2026-04-11,25.24,121.4481,0.95131797
C0R620,墾雷,2026-04-11,21.900836,120.855269,0.6252944
467420,永康,2026-04-11,23.038386,120.2367,0.90583354
C2M530,奮起湖,2026-04-11,23.493903,120.699253,0.041269857
C0I410,名間,2026-04-11,23.837053,120.701447,0.9590808
A2C560,農工中心,2026-04-11,24.985917,121.239833,0.6223286
C0V740,旗山,2026-04-11,22.888614,120.483597,0.9263133
C0Z061,玉里,2026-04-11,23.3215,121.339656,0.9440379
C0S840,南田,2026-04-11,22.279725,120.889208,0.9213572
C1I470,杉林溪,2026-04-11,23.639517,120.786444,0.008867033
C1X040,東原,2026-04-11,23.291597,120.463822,0.9555296
C0R660,枋寮,2026-04-11,22.367722,120.590647,0.83398163
C1R120,上德文,2026-04-11,22.763272,120.704442,0.7332927
C0K450,大埤,2026-04-11,23.646074,120.431537,0.9770236
C0UA00,土場,2026-04-11,24.576533,121.495333,0.8698089
467080,宜蘭,2026-04-11,24.763975,121.756528,0.2140343
C0N030,四草,2026-04-11,23.0235,120.1116,0.9762334
467410,臺南,2026-04-11,22.99328,120.20492,0.9721075
C0V650,彌陀,2026-04-11,22.783806,120.246361,0.9316295
C0D660,新竹市東區,2026-04-11,24.798681,120.986942,0.92664284
82S580,茶改東部分場,2026-04-11,22.907694,121.130139,0.87903035
C0SB40,興隆,2026-04-11,22.913661,121.257469,0.961289
467050,新屋,2026-04-11,25.006725,121.047492,0.8770275
C0C710,大溪永福,2026-04-11,24.892936,121.324975,0.6546187
C0FA20,溫寮,2026-04-11,24.372177,120.583125,0.99398535
C0V640,湖內,2026-04-11,22.887139,120.2445,0.9679229
C0R910,下寮,2026-04-11,22.3929,120.5548,0.8571067
C0Z020,明里,2026-04-11,23.208717,121.262342,0.9447791
C0M770,嘉義梅山,2026-04-11,23.585398,120.555587,0.9596623
C0C660,楊梅,2026-04-11,24.912375,121.143047,0.74739444
C0SD40,牛頭山,2026-04-11,22.676661,121.506944,0.8070492
C1E511,新開,2026-04-11,24.347703,120.827019,0.75896883
G2F820,農試所(霧峰),2026-04-11,24.031261,120.688133,0.9510643
C2M990,大巃頂,2026-04-11,23.5547,120.61439,0.13846567
C1I070,和社,2026-04-11,23.591131,120.888861,0.42810073
C2E990,新坪頂,2026-04-11,24.30201,120.8574,0.43222055
C0TA80,立霧山,2026-04-11,24.183258,121.641899,0.027112594
C2F000,大肚,2026-04-11,24.15295,120.572117,0.8211633
C1S850,豐南,2026-04-11,23.122139,121.262389,0.24276078
C2M9B0,西興,2026-04-11,23.2428,120.57617,0.7001808
C2A920,富貴角,2026-04-11,25.263783,121.565258,0.5967151
C0T960,光復,2026-04-11,23.660694,121.424964,0.62380695
C0F9M0,豐原,2026-04-11,24.254322,120.720692,0.9759052
C0R720,旭海,2026-04-11,22.205403,120.887614,0.8780514
C0V710,苓雅,2026-04-11,22.622742,120.330669,0.9516691
C0C740,觀音工業區,2026-04-11,25.064764,121.114856,0.72611886
CAC040,拉拉山,2026-04-11,24.699317,121.427133,0.0021463966
C0V790,萬山,2026-04-11,22.905944,120.688056,0.9485788
U2HA30,臺大和社,2026-04-11,23.590856,120.888864,0.42810082
C2H9K0,屯原,2026-04-11,24.067969,121.209389,0.0030000429
C0AJ90,澳底,2026-04-11,25.0552,121.9253,0.9789973
C0Z100,東華,2026-04-11,23.89525,121.549833,0.82972467
C0G970,三豐,2026-04-11,23.882,120.2895,0.9859709
C0V900,汕尾,2026-04-11,22.4782,120.4151,0.870094
C1R630,龍泉,2026-04-11,22.66701,120.59091,0.88979
C1AC50,關渡,2026-04-11,25.133486,121.469331,0.7572139
C0C800,四稜,2026-04-11,24.64733,121.4293,0.02782193
C0F9I0,神岡,2026-04-11,24.272481,120.658314,0.98505485
C0K460,斗南,2026-04-11,23.678734,120.478359,0.97753954
C2O810,曾文,2026-04-11,23.219681,120.497328,0.97047144
467280,後龍,2026-04-11,24.648563,120.831834,0.9175609
C1F9J1,清水林,2026-04-11,24.071242,120.820419,0.17007881
C2A650,火燒寮,2026-04-11,25.002719,121.742892,0.6026247
466930,竹子湖,2026-04-11,25.162078,121.544547,0.06580087
C1I220,樟湖,2026-04-11,23.905333,120.846983,0.03913684
C0I390,仁愛,2026-04-11,24.022122,121.132206,0.00552169
C0Z300,東里,2026-04-11,23.26853,121.30547,0.9344943
C1V590,新發,2026-04-11,23.057019,120.646064,0.22490893
C0K510,水林,2026-04-11,23.572924,120.24597,0.98947346
72S590,東改賓朗果園,2026-04-11,22.813889,121.071278,0.58629495
82A750,茶改北部分場,2026-04-11,24.955778,121.631222,0.2726514
C1A750,石碇服務區,2026-04-11,25.00872,121.646242,0.8998356
C0X300,鹿寮,2026-04-11,23.386047,120.477331,0.96558183
C0K590,雲林東勢,2026-04-11,23.674192,120.255721,0.9923152
C2K310,港尾布雞,2026-04-11,23.74834,120.38439,0.9900158
C0A570,桶後,2026-04-11,24.848222,121.597992,0.9254628
C0G720,溪州,2026-04-11,23.851589,120.499093,0.98917705
C1V160,達卡努瓦,2026-04-11,23.279811,120.705319,0.069075
C2M410,馬頭山,2026-04-11,23.324361,120.582017,0.938803
C0V850,蚵仔寮,2026-04-11,22.7256,120.2527,0.9289613
C0S740,池上,2026-04-11,23.119628,121.209469,0.7653676
C1V390,尖山,2026-04-11,22.813153,120.367789,0.92595
C0AH70,松山,2026-04-11,25.04871,121.55042,0.3489574
C0N010,鯤鯓國小,2026-04-11,23.1879,120.0889,0.9834296
C0SA60,知本（水試所）,2026-04-11,22.702394,121.082761,0.9194481
C0T9I0,豐濱,2026-04-11,23.583897,121.514806,0.72142655
C0UB00,淡江大學蘭陽校園,2026-04-11,24.823239,121.730383,0.16536845
C0W240,九宮,2026-04-11,24.423753,118.240186,0.0026217664
C0T9N0,富里,2026-04-11,23.171639,121.249378,0.9283311
U2HA50,臺大竹山,2026-04-11,23.756972,120.681556,0.96202254
C0V840,鳳鼻頭,2026-04-11,22.5083,120.3591,0.86966026
C0X140,西港,2026-04-11,23.125608,120.203108,0.9727515
72D080,桃改五峰分場,2026-04-11,24.612194,121.157167,0.16084126
C2H9P0,伊拿谷,2026-04-11,23.963211,121.088264,0.04522188
C2K250,崙背,2026-04-11,23.75553,120.31893,0.9933357
C2H9F0,柑林,2026-04-11,24.018658,120.847072,0.94453686
C0TA20,加灣,2026-04-11,24.082025,121.608944,0.94215685
C0V530,阿蓮,2026-04-11,22.883208,120.327508,0.92766976
C0FB30,八仙山苗圃,2026-04-11,24.192719,121.001366,0.289387
C0E791,卓蘭,2026-04-11,24.3126,120.8244,0.7126905
C1I030,武界,2026-04-11,23.913225,121.052483,0.04255765
C0R520,崁頂,2026-04-11,22.514781,120.506914,0.6494419
C0R341,牡丹,2026-04-11,22.130036,120.792639,0.83470774
C0R930,萬丹,2026-04-11,22.5885,120.4851,0.7005049
C0S760,紅石,2026-04-11,23.069131,121.126219,0.0070447708
C2C410,中央大學,2026-04-11,24.967652,121.185165,0.5961931
C1M610,石磐龍,2026-04-11,23.496606,120.663506,0.09096597
C0C790,東眼山,2026-04-11,24.8284,121.40888,0.085349664
C0UA10,鴛鴦湖,2026-04-11,24.590269,121.412228,0.0042886683
C0R800,丹路,2026-04-11,22.204481,120.750989,0.86038935
C0G920,永靖,2026-04-11,23.924703,120.547533,0.9896291
C2M950,太和,2026-04-11,23.538372,120.702961,0.042930033
C1A630,下盆,2026-04-11,24.771003,121.538622,0.26955408
B2N890,畜產試驗所,2026-04-11,23.058972,120.336406,0.8746438
C0UA30,白嶺,2026-04-11,24.527819,121.519031,0.015057961
467571,新竹,2026-04-11,24.828575,121.01455,0.8748898
C1V580,溪南(特生中心),2026-04-11,23.084972,120.788475,0.0023727121
C1T970,大農,2026-04-11,23.615233,121.413331,0.5490452
C0R650,竹田,2026-04-11,22.58486,120.54344,0.5683084
C1H900,清流,2026-04-11,24.080775,120.962997,0.17583096
C1C510,水尾,2026-04-11,24.940081,121.087161,0.7987226
C2N170,茅港尾,2026-04-11,23.2061,120.2624,0.9685639
C0F9X0,大雅(中科園區),2026-04-11,24.21528,120.62445,0.98095727
C0SB60,白守蓮,2026-04-11,23.126769,121.401914,0.98176885
C0O970,虎頭埤,2026-04-11,23.021375,120.347878,0.94167364
C0C730,中大臨海站,2026-04-11,24.966126,121.008581,0.9416056
C0X250,新營,2026-04-11,23.310689,120.316681,0.96698195
C0V700,三民,2026-04-11,22.645017,120.311233,0.9557962
C0U870,大礁溪,2026-04-11,24.791042,121.675047,0.101231985
C0E870,高鐵苗栗,2026-04-11,24.60725,120.826094,0.91969794
C0TA30,鹽寮,2026-04-11,23.845606,121.592664,0.8593791
C0M860,新美,2026-04-11,23.338017,120.683169,0.575319
C1E701,八卦,2026-04-11,24.491756,120.927619,0.32470468
C2TA90,加納納,2026-04-11,23.466421,121.359867,0.54463625
C0I420,國姓,2026-04-11,24.037803,120.855072,0.91317016
C2D720,關西工作站,2026-04-11,24.757275,121.184792,0.9445319
C0S960,香蘭,2026-04-11,22.587569,120.993375,0.84001756
467620,蘭嶼,2026-04-11,22.0369,121.55843,0.47755873
72G600,臺中農改場,2026-04-11,24.003028,120.534389,0.98981357
C0Z210,瑞穗,2026-04-11,23.5239,121.39021,0.74191165
C0M820,達邦,2026-04-11,23.453994,120.749517,0.09448796
C0V860,南寮,2026-04-11,22.7616,120.2339,0.9289613
C0G740,大城,2026-04-11,23.852487,120.320935,0.98520064
C0R920,塭仔,2026-04-11,22.4169,120.5197,0.86023587
C0R470,高樹,2026-04-11,22.826389,120.600806,0.85766643
C0R680,佳樂水,2026-04-11,21.993578,120.861633,0.66223514
C1O870,大棟山,2026-04-11,23.31157,120.52226,0.037934814
C0D360,梅花,2026-04-11,24.678347,121.208558,0.29096526
C0Z190,富世,2026-04-11,24.14743,121.6297,0.86602145
C0AI10,屈尺,2026-04-11,24.92184,121.54475,0.2658875
B2U990,畜試東區分所,2026-04-11,24.669039,121.832561,0.6117391
C0SB80,長濱漁港,2026-04-11,23.313644,121.459994,0.8899489
C0TA50,和仁,2026-04-11,24.241394,121.712472,0.6744949
C0V910,大樹,2026-04-11,22.684645,120.432803,0.9003057
C1R610,西大武山,2026-04-11,22.617719,120.7322,0.022819487
C0G900,線西,2026-04-11,24.143358,120.443536,0.9919535
C0M700,竹崎,2026-04-11,23.526178,120.555508,0.96173096
C2E880,三義,2026-04-11,24.405478,120.749819,0.68100107
C0C720,竹圍,2026-04-11,25.112692,121.239824,0.87139994
C0F9P0,清水,2026-04-11,24.312297,120.562242,0.99213016
C0Z150,吉安光華,2026-04-11,23.930925,121.595153,0.8750378
C0FA80,小雪山天池,2026-04-11,24.28025,121.02627,0.00095062493
467300,東吉島,2026-04-11,23.25727,119.66762,0.9642499
C1D640,外坪(五指山),2026-04-11,24.644447,121.090961,0.43211415
C2R9A0,高士國小,2026-04-11,22.12553,120.84653,0.8663263
C0F9O0,潭子,2026-04-11,24.213106,120.703933,0.979986
C2H9R0,卓社,2026-04-11,23.887894,121.000086,0.005377353
72T250,花蓮農改場,2026-04-11,23.975222,121.563889,0.84653026
C0E780,銅鑼,2026-04-11,24.489681,120.790853,0.9445915
C1T950,太安,2026-04-11,23.666719,121.370128,0.40809104
C0E830,苑裡,2026-04-11,24.439714,120.653053,0.98631215
467270,田中,2026-04-11,23.873803,120.581286,0.97813755
C0SA10,檳榔四格山,2026-04-11,22.810031,121.109308,0.32619235
C1T830,布洛灣,2026-04-11,24.17184,121.57127,0.880556
C0F970,大坑,2026-04-11,24.173142,120.722289,0.98110324
C1U920,思源,2026-04-11,24.393125,121.347214,0.010540006
C2H9Y0,松茗,2026-04-11,23.8167,120.650765,0.8846097
C0A931,三和,2026-04-11,25.233153,121.595236,0.541259
C0I010,廬山,2026-04-11,24.033311,121.181808,0.00640252
C2M940,日野賀,2026-04-11,23.434056,120.727169,0.09722497
C0R860,鼻頭,2026-04-11,22.1043,120.8979,0.7802256
C0UB20,壯圍,2026-04-11,24.7359,121.8163,0.2964164
C0R790,九棚,2026-04-11,22.14195,120.889281,0.6696368
C0W110,東莒,2026-04-11,25.9652,119.98069,0.00081230316
C1U930,粉鳥林,2026-04-11,24.497088,121.842479,0.9493039
C0S830,長濱,2026-04-11,23.286817,121.411975,0.5453992
C1F9F1,伯公龍,2026-04-11,24.272392,120.849047,0.6532839
C0UB90,太平山莊,2026-04-11,24.494171,121.536209,0.0015287262
C0E810,西湖,2026-04-11,24.562947,120.7485,0.91403884
C1I440,新高口,2026-04-11,23.478744,120.878939,0.0011388861
C0O840,王爺宮,2026-04-11,23.222064,120.40085,0.94797146
C0T9G0,鳳林山,2026-04-11,23.735269,121.420131,0.62531966
C0X080,佳里,2026-04-11,23.173039,120.145086,0.9836976
C0FB70,大甲溪埔,2026-04-11,24.370625,120.620067,0.993356
C0Z310,清水斷崖,2026-04-11,24.218294,121.689142,0.4020643
C0M680,太保,2026-04-11,23.455062,120.331455,0.9633544
C1S820,金峰,2026-04-11,22.590969,120.933236,0.89052886
C0AD10,八里,2026-04-11,25.150211,121.403947,0.91619325
C2K240,草嶺,2026-04-11,23.59555,120.693461,0.20129737
C1SA70,都蘭,2026-04-11,22.87794,121.226881,0.9566813
C0K440,二崙,2026-04-11,23.772797,120.408944,0.99033195
C1A760,坪林交控,2026-04-11,24.94284,121.713442,0.7857903
C0F9N0,大里,2026-04-11,24.092464,120.701378,0.96455514
C0SA90,達仁林場,2026-04-11,22.264347,120.823972,0.7039215
C1R290,石門山,2026-04-11,22.112611,120.756597,0.5221506
42HA10,萬大發電廠,2026-04-11,23.978875,121.139639,0.015136435
C0R890,山海,2026-04-11,21.9878,120.7091,0.63216436
C0T9A0,月眉山,2026-04-11,23.809928,121.539828,0.013024242
C0AC70,信義,2026-04-11,25.037822,121.564597,0.41925997
C0K560,棋山,2026-04-11,23.68645,120.603417,0.97471875
C2FB50,出雲,2026-04-11,24.206469,120.902794,0.13894218
C1Z240,中平林道,2026-04-11,23.42115,121.26763,0.24949089
U2H480,溪頭,2026-04-11,23.670306,120.798194,0.11904493
C0M880,好美里,2026-04-11,23.3364,120.138,0.98405945
C0T9E0,大坑,2026-04-11,23.880628,121.581981,0.3900111
C0K530,臺西,2026-04-11,23.701547,120.197559,0.99512786
C1E900,國一N128K,2026-04-11,24.560997,120.844186,0.9569876
C0AJ50,水湳洞,2026-04-11,25.123695,121.862238,0.977469
C0AI20,白沙灣,2026-04-11,25.283128,121.519058,0.919303
C2V310,美濃,2026-04-11,22.898792,120.51907,0.92388386
C0A860,大坪,2026-04-11,25.165914,121.632969,0.20824376
C1U850,觀音海岸,2026-04-11,24.38319,121.77856,0.056424256
C2K610,草嶺石壁,2026-04-11,23.602469,120.707731,0.18387279
C0U950,鶯子嶺,2026-04-11,24.89754,121.79244,0.029394923
C0O900,善化,2026-04-11,23.112883,120.297219,0.858224
C0K550,蔦松,2026-04-11,23.514319,120.229736,0.9887727
E2P980,林試六龜中心,2026-04-11,22.991703,120.645722,0.9258309
C0E590,通霄,2026-04-11,24.471892,120.704622,0.9769954
C1I310,西巒,2026-04-11,23.754486,120.883956,0.1410369
C0A550,泰平,2026-04-11,24.971197,121.823711,0.37880522
C0I360,水里,2026-04-11,23.812553,120.849792,0.9704309
C0R830,高士,2026-04-11,22.121825,120.836781,0.48517302
C1I101,溪頭,2026-04-11,23.661789,120.807647,0.005016854
C0AJ20,野柳,2026-04-11,25.20703,121.690021,0.9644242
C0B060,暖暖,2026-04-11,25.0957,121.7403,0.9093422
C1H920,長豐,2026-04-11,24.102039,120.879897,0.19466895
C2S9B0,利吉,2026-04-11,22.86246,121.15486,0.89718205
C0V360,內門,2026-04-11,22.975481,120.466769,0.95373195
C0R850,林邊,2026-04-11,22.4634,120.5339,0.8293284
C0E930,龍鳳,2026-04-11,24.700034,120.859125,0.93897575
C0U910,冬山,2026-04-11,24.63373,121.7937,0.6117391
C1E721,泰安,2026-04-11,24.489017,120.968036,0.08439309
82H320,茶改中部分場,2026-04-11,23.875611,120.913583,0.17419393
C0M750,布袋,2026-04-11,23.380878,120.167789,0.9886899
C1S860,利嘉,2026-04-11,22.809417,121.050528,0.5853723
E2S980,林試太麻里1,2026-04-11,22.598922,120.980044,0.9348341
C0X170,關廟,2026-04-11,22.963017,120.327797,0.92072135
C0V720,林園,2026-04-11,22.507747,120.394511,0.8597137
C1I510,線浸林道,2026-04-11,23.761508,120.832956,0.06697796
C0D690,外湖,2026-04-11,24.917735,120.968711,0.84579223
C0C750,新興坑尾,2026-04-11,25.0061,121.0971,0.73208565
B2Q810,畜試南區分所,2026-04-11,21.945583,120.802167,0.66223496
C0S790,金崙,2026-04-11,22.538122,120.966875,0.8532491
C0AH90,福山植物園,2026-04-11,24.760717,121.58135,0.14401068
C0I540,奇萊稜線,2026-04-11,24.109231,121.326456,0.00069652696
C0M850,表湖,2026-04-11,23.24186,120.64166,0.27716553
C0S770,大溪山,2026-04-11,22.478475,120.943325,0.9737649
C0AG80,中和,2026-04-11,24.991622,121.491792,0.33773988
C0T790,大禹嶺,2026-04-11,24.186117,121.316086,0.0009876754
C0T9B0,水源,2026-04-11,23.991861,121.537169,0.05676656
C0R840,牡丹池山,2026-04-11,22.168389,120.841225,0.5689566
C1I131,桶頭,2026-04-11,23.641944,120.654117,0.9567915
CAL110,布袋國中,2026-04-11,23.35893,120.18026,0.98405945
C2M9D0,何竹子腳,2026-04-11,23.53641,120.38203,0.96898276
C0Z290,赤柯山,2026-04-11,23.36893,121.38293,0.0595894
C0X280,將軍,2026-04-11,23.214999,120.13577,0.98441803
C0S690,太麻里,2026-04-11,22.60902,120.98533,0.5689729
C0U880,北關,2026-04-11,24.9072,121.8734,0.9810995
CAW010,東引,2026-04-11,26.3588,120.4836,0.00047170624
C0G810,埔心,2026-04-11,23.947633,120.525456,0.9897875
C0U970,大福,2026-04-11,24.80064,121.81389,0.22373204
C2H9N0,仁愛東眼,2026-04-11,24.026875,121.1205,0.0014078458
C1E670,南礦,2026-04-11,24.538278,121.002836,0.13829428
C0M520,東後寮,2026-04-11,23.369908,120.248065,0.98149925
C1E461,松安,2026-04-11,24.397972,120.986022,0.047505733
C2N160,西拉雅風管處,2026-04-11,23.189481,120.335297,0.93253314
C2M970,碧湖,2026-04-11,23.568632,120.624165,0.14498733
C0A640,石碇,2026-04-11,24.993969,121.662917,0.7857903
E2S960,林試太麻里2,2026-04-11,22.598,120.99775,0.8455118
C0F9Y0,桃山,2026-04-11,24.432739,121.303808,0.0008393363
C1I020,萬大,2026-04-11,23.979817,121.132261,0.005220438
C2UC20,長嶺,2026-04-11,24.70894,121.61162,0.47712022
C0U940,羅東,2026-04-11,24.68184,121.74934,0.34825632
C0M650,朴子,2026-04-11,23.43463,120.23902,0.98548603
C1I500,大尖山,2026-04-11,23.858572,120.994889,0.001645614
C0FB40,中橫21.6k,2026-04-11,24.2499,121.1455,0.14880858
C0G820,田尾,2026-04-11,23.901669,120.509389,0.9897875
E2K600,四湖植物園,2026-04-11,23.676986,120.163433,0.9946473
C0S730,綠島,2026-04-11,22.6672,121.47533,0.58795154
12Q970,東港工作站,2026-04-11,22.479997,120.466058,0.83227706
C1TA00,太魯閣,2026-04-11,24.15773,121.6236,0.5290469
466920,臺北,2026-04-11,25.037658,121.514853,0.3489574
C0R600,舊泰武,2026-04-11,22.588194,120.664944,0.51213896
466910,鞍部,2026-04-11,25.182586,121.529731,0.021179449
C1I230,九份二山,2026-04-11,23.961944,120.845,0.28642893
C2M810,里佳,2026-04-11,23.389125,120.716647,0.037374154
C2A660,瑞芳,2026-04-11,25.113169,121.801147,0.92144054
C0R270,琉球嶼,2026-04-11,22.332244,120.362236,0.91571087
C2V580,瑞山,2026-04-11,22.90304,120.43424,0.9506563
C1T990,高寮,2026-04-11,23.394239,121.356808,0.8102937
C0G620,芬園,2026-04-11,24.015678,120.6213,0.9805739
C1Z140,荖溪,2026-04-11,23.890575,121.45964,0.2770496
C1I201,中心崙,2026-04-11,23.728722,120.712097,0.18720576
C1I400,凌霄,2026-04-11,24.018778,121.004456,0.0013543075
C1M640,十字,2026-04-11,23.492153,120.753683,0.01218579
G2P820,農試鳳山分所,2026-04-11,22.646611,120.356083,0.95291865
C0Z270,蕃薯寮,2026-04-11,23.73835,121.540108,0.11492807
C2E420,竹南,2026-04-11,24.70898,120.88897,0.91756874
C0FB10,出雲山苗圃,2026-04-11,24.23105,120.90475,0.2469625
C0F9Q0,外埔,2026-04-11,24.347817,120.705686,0.96083736
C0K580,高鐵雲林,2026-04-11,23.737456,120.417944,0.990015
C2I090,鳳凰,2026-04-11,23.728081,120.787347,0.23072493
C0U990,員山,2026-04-11,24.74435,121.72247,0.3503637
C0V770,大社,2026-04-11,22.730306,120.346639,0.9394067
C0X120,麻豆,2026-04-11,23.183289,120.248611,0.9703471
C0C670,龍潭,2026-04-11,24.870056,121.221389,0.815267
C0D680,香山濕地,2026-04-11,24.783581,120.914988,0.84579223
C0S980,勝林山,2026-04-11,22.430439,120.8938,0.49640483
C0V730,大寮,2026-04-11,22.605614,120.395717,0.88727033
C0R570,麟洛,2026-04-11,22.65078,120.52719,0.50998694
C2M930,石卓,2026-04-11,23.478744,120.702264,0.0130351
C0G9B0,和美,2026-04-11,24.105169,120.492131,0.9908334
CAG100,王功漁港,2026-04-11,23.96824,120.32586,0.9832181
C0X290,北門,2026-04-11,23.267772,120.125481,0.98441803
C2F930,大甲,2026-04-11,24.347667,120.640403,0.98751557
C0D650,湖口,2026-04-11,24.904794,121.043628,0.81126654
C0U780,五結,2026-04-11,24.68637,121.79794,0.6117391
C1I250,鯉潭,2026-04-11,23.961922,120.991131,0.17113288
C0R130,阿禮,2026-04-11,22.742908,120.743678,0.3891186
C0X100,臺南市北區,2026-04-11,23.010394,120.194228,0.97144926
C0S920,金峰嘉蘭,2026-04-11,22.594789,120.960825,0.79117054
C0V490,新興,2026-04-11,22.627422,120.298803,0.9496595
C0F9K0,大安,2026-04-11,24.345061,120.588025,0.9907912
467290,古坑,2026-04-11,23.633639,120.551889,0.97521275
C2E970,八甲,2026-04-11,24.535811,120.795983,0.92673135
C0V440,鳳山,2026-04-11,22.646653,120.356122,0.95291865
C1T940,大觀,2026-04-11,23.714206,121.373133,0.05044445
C0E740,造橋,2026-04-11,24.637056,120.864778,0.845528
C0R100,尾寮山,2026-04-11,22.833111,120.683889,0.3365225
A2K630,臺大雲林校區,2026-04-11,23.730628,120.423903,0.9900125
467990,馬祖,2026-04-11,26.169467,119.923158,0.00060087274
C0D580,寶山,2026-04-11,24.735006,121.025192,0.7291985
E2P990,林試扇平站,2026-04-11,22.9677,120.6857,0.57122296
C0AI30,三重,2026-04-11,25.057328,121.500629,0.37220922
C0AH00,汐止,2026-04-11,25.066881,121.658778,0.94048625
C1Z040,立山,2026-04-11,23.443356,121.327375,0.31301892
466881,新北,2026-04-11,24.959207,121.525196,0.3222875
C0W130,花嶼,2026-04-11,23.40007,119.32276,0.96393925
C0A950,鼻頭角,2026-04-11,25.129036,121.923372,0.95173216
C0K470,林內,2026-04-11,23.748675,120.609642,0.97446644
C2F990,摩天嶺,2026-04-11,24.322458,120.936819,0.21358879
C2E430,南庄,2026-04-11,24.601775,121.000214,0.76625293
82C160,茶改場,2026-04-11,24.908472,121.185333,0.6948696
C2TB60,南安,2026-04-11,23.29818,121.26157,0.90824556
C0Z320,清水林道,2026-04-11,23.27125,121.188272,0.32331744
C0R760,南仁湖,2026-04-11,22.084681,120.863353,0.51536727
C0M670,大林,2026-04-11,23.600616,120.45841,0.9766674
C0M800,茶山,2026-04-11,23.299075,120.664767,0.75761026
C0A9C0,天母,2026-04-11,25.117494,121.537169,0.40783438
72K220,南改斗南分場,2026-04-11,23.634556,120.477333,0.978047
72AI40,桃改樹林分場,2026-04-11,24.944503,121.386972,0.30363762
C0S910,蘭嶼燈塔,2026-04-11,22.081197,121.503117,0.70028114
C0B050,八斗子,2026-04-11,25.144754,121.79167,0.97711617
C0U900,內城,2026-04-11,24.71813,121.68766,0.37908354
C0X320,柳營,2026-04-11,23.253328,120.375253,0.901445
C0M790,新港,2026-04-11,23.553269,120.345728,0.9887042
C0F9T0,西屯,2026-04-11,24.179494,120.641275,0.98598087
C0E950,松安,2026-04-11,24.39792,120.98599,0.047505733
C0SA30,都歷,2026-04-11,23.020333,121.323642,0.9574346
C0C620,蘆竹,2026-04-11,25.084275,121.265767,0.7684793
C0R730,大坪頂,2026-04-11,22.024633,120.69355,0.58963805
C0AJ40,石門,2026-04-11,25.273672,121.601198,0.7056594
C0E750,苗栗,2026-04-11,24.564569,120.824575,0.95898885
C0T870,鯉魚潭,2026-04-11,23.935639,121.508944,0.6577358
C1V170,排雲,2026-04-11,23.463619,120.954147,0.0006244983
C2H950,中寮,2026-04-11,23.884447,120.766406,0.9708516
C0R350,貓鼻頭,2026-04-11,21.921774,120.7358,0.59136087
C0V660,岡山,2026-04-11,22.797078,120.294958,0.9339169
C1H941,雙冬,2026-04-11,23.967378,120.802189,0.57982
C0AJ70,田寮,2026-04-11,25.2698,121.4886,0.92282194
C0AI00,五股,2026-04-11,25.07445,121.42728,0.1309881
C0Z280,德武,2026-04-11,23.47426,121.41071,0.62342894
C2RA10,大新,2026-04-11,22.67558,120.57788,0.88979
C0R700,枋山,2026-04-11,22.246844,120.661086,0.8819737
C0C460,復興,2026-04-11,24.820208,121.352281,0.39391583
C2K300,鹿南,2026-04-11,23.63855,120.3636,0.99185455
E2H360,蓮華池,2026-04-11,23.918333,120.885278,0.45783255
C0M640,中埔,2026-04-11,23.42538,120.5229,0.9676587
C0W140,金沙,2026-04-11,24.488292,118.408778,0.003849528
C2A540,四堵,2026-04-11,24.8926,121.745736,0.579221
C0ACA0,新莊,2026-04-11,25.051478,121.446756,0.3416091
C0R220,潮州,2026-04-11,22.534361,120.54,0.64296037
U2HA40,臺大內茅埔,2026-04-11,23.689722,120.851117,0.7095186
467490,臺中,2026-04-11,24.145736,120.684075,0.9824497
C0UB60,明池,2026-04-11,24.650688,121.475277,0.02505268
C0U960,翠峰湖,2026-04-11,24.510856,121.608044,0.0018861396
E2HA20,林試畢祿溪站,2026-04-11,24.226944,121.308522,0.004490582
C2M9A0,大華,2026-04-11,23.4824,120.67491,0.064861014
C0V890,前鎮,2026-04-11,22.5718,120.3117,0.933014
C1F941,雪嶺,2026-04-11,24.280586,121.026642,0.00095062493
C2H9E0,國姓南港,2026-04-11,23.911108,120.846556,0.030831533
C0AC80,文山,2026-04-11,25.00235,121.575728,0.43326798
C0F9R0,龍井,2026-04-11,24.184536,120.528972,0.9919094
C0M760,民雄,2026-04-11,23.551754,120.428457,0.9766674
C0UA40,西德山,2026-04-11,24.560647,121.752608,0.01722476
C2TA70,赤科坪,2026-04-11,23.39885,121.39168,0.019927518
C1T920,中興,2026-04-11,23.769503,121.498653,0.71603894
C0D550,雪霸,2026-04-11,24.526972,121.11605,0.007987175
C2F860,梨山,2026-04-11,24.247522,121.243669,0.0027188112
C0R320,車城,2026-04-11,22.0744,120.716247,0.7111994
C1S870,南美山,2026-04-11,23.15025,121.382333,0.91594756
C0B020,基隆嶼,2026-04-11,25.19141,121.78391,0.97210425
C1U501,牛鬥,2026-04-11,24.637836,121.573656,0.96869105
C0M730,嘉義市東區,2026-04-11,23.457673,120.460531,0.9679671
C2R990,泰武,2026-04-11,22.60686,120.69765,0.4191149
C0S700,知本,2026-04-11,22.684866,121.005642,0.5194156
C1N001,沙崙,2026-04-11,22.935472,120.309406,0.9154224
C0V760,橋頭,2026-04-11,22.757806,120.30575,0.93816257
C0G960,福寶,2026-04-11,24.0443,120.3814,0.99348956
C0X210,白河,2026-04-11,23.347466,120.414427,0.9447009
C0S810,東河,2026-04-11,22.972672,121.303986,0.95661443
C2R170,屏東,2026-04-11,22.66027,120.49403,0.50998724
C0R670,楓港,2026-04-11,22.190131,120.692156,0.85186356
C0FA50,霧峰,2026-04-11,24.0419,120.6995,0.96661085
C0UB10,蘇澳,2026-04-11,24.5969,121.8571,0.94929713
C0G950,防潮門,2026-04-11,24.1835,120.4871,0.9918341
C0M740,六腳,2026-04-11,23.492871,120.290625,0.98669183
C1R250,力里,2026-04-11,22.428117,120.629228,0.8013794
C0K330,虎尾,2026-04-11,23.719183,120.442036,0.99000126
C2FA00,烏石坑,2026-04-11,24.273503,120.947617,0.22098507
C0V620,永安,2026-04-11,22.82315,120.236856,0.9328658
C1I330,楓樹林,2026-04-11,23.986803,121.076117,0.0030003923
C0W200,湖西,2026-04-11,23.596314,119.67275,0.978086
72Q010,高雄農改場,2026-04-11,22.709333,120.525889,0.71056145
C0C680,龜山,2026-04-11,25.02846,121.38656,0.106681615
C2V260,月眉,2026-04-11,22.971003,120.539853,0.9576762
C0V450,鳳森,2026-04-11,22.545064,120.392592,0.8453265
C0FA90,小雪山林道,2026-04-11,24.29515,121.03651,0.0006489631
C0U720,南山,2026-04-11,24.43742,121.38167,0.15189645
A2N290,臺南蘭花園區,2026-04-11,23.340258,120.379661,0.9374977
C0R560,新園,2026-04-11,22.5434,120.461558,0.8597137
C0U890,三星,2026-04-11,24.66812,121.65302,0.32774562
C1V300,御油山,2026-04-11,23.001983,120.715364,0.0025031692
C0U600,礁溪,2026-04-11,24.817539,121.765608,0.20381166
C1T980,龍澗,2026-04-11,24.023289,121.411328,0.0069879447
C0D670,海天一線,2026-04-11,24.831986,120.914438,0.8105619
C0SA00,歷坵,2026-04-11,22.520969,120.89185,0.9818738
C0M710,東石,2026-04-11,23.458927,120.15385,0.9886709
C0M780,鹿草,2026-04-11,23.41134,120.30835,0.98569524
C0U520,雙連埤,2026-04-11,24.753033,121.641303,0.14154859
C0B010,七堵,2026-04-11,25.094819,121.71713,0.96962976
C0R480,長治,2026-04-11,22.693128,120.542622,0.85830325
C1V830,國三S383K,2026-04-11,22.781967,120.426475,0.89766496
12Q980,恆春工作站,2026-04-11,22.079678,120.714425,0.7111994
C1O940,東山服務區,2026-04-11,23.286016,120.398472,0.9394842
C1U840,東澳嶺,2026-04-11,24.5378,121.8485,0.08856129
C1D630,飛鳳山,2026-04-11,24.766464,121.119178,0.50475204
C0S940,石寧山,2026-04-11,23.223772,121.406639,0.94746625
C0K410,北港,2026-04-11,23.573957,120.292802,0.98949784
C2M620,瑞里,2026-04-11,23.545133,120.675197,0.088667594
C0SB70,小港漁港,2026-04-11,23.158558,121.400431,0.98107916
C2O950,安南,2026-04-11,23.076694,120.144861,0.97706556
C0F0E0,南湖圈谷,2026-04-11,24.363714,121.444667,0.00047033705
467610,成功,2026-04-11,23.097486,121.373428,0.9844445
C0G890,伸港,2026-04-11,24.148933,120.484403,0.99183667
C2E540,龍溪,2026-04-11,24.606489,120.783933,0.9680147
C1V200,梅山,2026-04-11,23.268447,120.823556,0.18537165
C0T9H0,加路蘭山,2026-04-11,23.682947,121.5274,0.012846327
C2O930,玉井,2026-04-11,23.126042,120.46055,0.9653191
C1F911,新伯公,2026-04-11,24.221361,120.841069,0.777429
C0X200,左鎮,2026-04-11,23.056758,120.408522,0.94631994
C2TB50,麻汝,2026-04-11,23.42554,121.39358,0.54780525
C0FA60,鞍馬山工作站,2026-04-11,24.267064,121.000793,0.0025771556
C0SB50,叭嗡嗡,2026-04-11,23.047062,121.343223,0.985822
C1F891,稍來,2026-04-11,24.265689,121.001142,0.002870902
C2M9C0,紫雲,2026-04-11,23.494914,120.540253,0.9651306
72N240,七股研究中心,2026-04-11,23.081672,120.062894,0.9762334
C0C700,中壢,2026-04-11,24.977661,121.256375,0.7151325
C0M690,水上,2026-04-11,23.419734,120.388909,0.96460915
C0V690,鼓山,2026-04-11,22.623325,120.275575,0.9496595
C0O860,大內,2026-04-11,23.11885,120.36083,0.8768532
C0Z200,萬榮,2026-04-11,23.709219,121.420106,0.57604647
C0T9D0,和中,2026-04-11,24.26676,121.74103,0.6888635
C2S9A0,北份子寮,2026-04-11,22.78561,121.07813,0.84452295
C1O921,楠西,2026-04-11,23.183511,120.484083,0.9658075
C0AJ30,淡水觀海,2026-04-11,25.184591,121.408616,0.91938967
C0V810,左營,2026-04-11,22.67491,120.28491,0.9557962
C0UA70,桃源谷,2026-04-11,24.962606,121.888875,0.16892304
C0X130,官田,2026-04-11,23.193217,120.315422,0.9296068
C1H000,翠峰,2026-04-11,24.109397,121.205211,0.0013348897
C0UA90,石城,2026-04-11,24.980444,121.951214,0.8728114
C1E681,南勢山,2026-04-11,24.421669,120.923831,0.13510513
C0A9F0,內湖,2026-04-11,25.079422,121.57545,0.41925997
C0K291,宜梧,2026-04-11,23.536281,120.169329,0.9924608
C1K540,口湖,2026-04-11,23.585344,120.180517,0.9925225
C0R780,滿州,2026-04-11,22.024403,120.839892,0.8076703
C0V870,文安,2026-04-11,22.8025,120.2164,0.9289613
C0U650,玉蘭,2026-04-11,24.675286,121.587061,0.46169034
C0R640,東港,2026-04-11,22.46247,120.44074,0.86966026
C0AJ80,板橋,2026-04-11,25.0107,121.4489,0.33773988
C0S660,下馬,2026-04-11,23.150427,121.070312,0.20738037
C2N190,烏樹,2026-04-11,23.32393,120.36989,0.95342463
C1H9B1,阿眉,2026-04-11,24.1263,120.994672,0.026394842
C0UA20,多加屯,2026-04-11,24.368614,121.373189,0.00070407445
C0E730,頭份,2026-04-11,24.688247,120.912206,0.9236242
72V140,高改旗南分場,2026-04-11,22.857861,120.516667,0.9158631
C0K480,莿桐,2026-04-11,23.761192,120.502372,0.97809374
C0U980,坪林石牌,2026-04-11,24.86478,121.77396,0.10996693
C0T900,西林,2026-04-11,23.8119,121.441458,0.452678
C1I150,青雲,2026-04-11,23.793361,120.949378,0.78212196
C2E980,和興,2026-04-11,24.505319,120.923016,0.59988
467350,澎湖,2026-04-11,23.565503,119.563094,0.95341444
C0G800,埔鹽,2026-04-11,24.000394,120.431683,0.9931184
C0H960,草屯,2026-04-11,23.973672,120.68085,0.9644318
C1V780,多納林道,2026-04-11,22.888028,120.737917,0.0047484348
C0E920,通霄漁港,2026-04-11,24.498589,120.673876,0.98210335
C0Z330,安通山,2026-04-11,23.290728,121.348528,0.42808288
C0AH10,永和,2026-04-11,25.01125,121.508111,0.3506502
C0AK10,太平里,2026-04-11,25.134937,121.364899,0.28263122
C2G640,鹿港,2026-04-11,24.0753,120.430481,0.9909031
C1E890,國三N149K,2026-04-11,24.463414,120.680019,0.9747614
C1R110,口社,2026-04-11,22.770111,120.645222,0.9094028
C1M870,國三N285K,2026-04-11,23.550319,120.505833,0.9641136
C1E480,鳳美,2026-04-11,24.554803,121.034747,0.6774824
C0T9M0,靜浦,2026-04-11,23.455167,121.495028,0.8249027
C2H9M0,發祥,2026-04-11,24.154094,121.164517,0.05472964
C2G9C0,埔南,2026-04-11,23.99124,120.46969,0.9931184
C0AI40,石牌,2026-04-11,25.115597,121.513139,0.41926008
C1F871,上谷關,2026-04-11,24.203483,121.018644,0.22098507
C2H9G0,百勝,2026-04-11,24.051142,120.909361,0.36119166
C0G880,二水,2026-04-11,23.810742,120.6173,0.97066003
C0R940,加祿堂,2026-04-11,22.3363,120.6217,0.7823552
C0W220,北竿,2026-04-11,26.220358,119.974881,0.00054072915
C0O960,崎頂,2026-04-11,22.959547,120.369317,0.9371414
C0TA40,秀林,2026-04-11,24.302864,121.731144,0.11075757
C0S750,向陽,2026-04-11,23.248397,120.986133,0.0022950831
C0T9F0,水璉,2026-04-11,23.797131,121.542514,0.16637313
C1M600,頭凍,2026-04-11,23.406364,120.603339,0.073558666
467660,臺東,2026-04-11,22.752211,121.154586,0.8652763
C1D380,新埔,2026-04-11,24.84745,121.03834,0.8270628
C2G980,田頭村,2026-04-11,23.8263,120.444175,0.9903463
C0V750,路竹,2026-04-11,22.854997,120.259439,0.9360307
C0N050,蚵寮,2026-04-11,23.301,120.1104,0.98441803
C2X060,下營,2026-04-11,23.226806,120.256291,0.96856385
72M700,南改鹿草分場,2026-04-11,23.416869,120.283061,0.9856204
C1SA50,利嘉林道,2026-04-11,22.82325,121.009389,0.014667796
C0UB70,太平山中間站,2026-04-11,24.542003,121.513453,0.079976946
C0A940,金山,2026-04-11,25.223628,121.643967,0.93449104
C1V340,大津,2026-04-11,22.888322,120.645986,0.9545211
C0W180,七美,2026-04-11,23.219333,119.444892,0.972363
C1F9C1,白冷,2026-04-11,24.182844,120.929889,0.29610947
K2E710,苗改生物防治研究中心,2026-04-11,24.422861,120.871833,0.8302414
C0N040,蘆竹溝,2026-04-11,23.2344,120.0961,0.9844056
C0TB40,崇德,2026-04-11,24.166144,121.657414,0.8572285
C0D760,大坪苗圃,2026-04-11,24.5362,121.1108,0.061663628
C2W230,畜試所澎湖,2026-04-11,23.628342,119.513206,0.9123139
C0R880,後壁湖,2026-04-11,21.9457,120.7457,0.63216436
C1I280,埔中,2026-04-11,23.820778,120.642594,0.86925524
467790,墾丁雷達站,2026-04-11,21.948235,120.808028,0.62615305
C0W190,望安,2026-04-11,23.380564,119.494075,0.9682277
C0Z170,卓溪,2026-04-11,23.3443,121.3029,0.89439607
C0F850,東勢,2026-04-11,24.246428,120.833047,0.85205567
466900,淡水,2026-04-11,25.164889,121.448906,0.9358244
C0I370,魚池,2026-04-11,23.895703,120.94135,0.38879788
C0C630,大溪,2026-04-11,24.882853,121.265547,0.6541561
C0A520,山佳,2026-04-11,24.974944,121.402008,0.31866097
C0I110,竹山,2026-04-11,23.761225,120.688156,0.96055627
82H840,茶改南部分場,2026-04-11,23.762528,120.7405,0.9372332
C2SD80,再來山,2026-04-11,23.34371,121.44122,0.5701334
C0G660,溪湖,2026-04-11,23.94835,120.479122,0.98993766
C1T800,洛韶,2026-04-11,24.204558,121.453956,0.04507483
C1T810,慈恩,2026-04-11,24.192044,121.388386,0.0024201907
C1E451,象鼻,2026-04-11,24.368617,120.940228,0.13510513
C0AC60,三峽,2026-04-11,24.939025,121.369728,0.8466365
C0I490,萬大林道,2026-04-11,23.928228,121.091411,0.00075165473
C1I290,豐丘,2026-04-11,23.668178,120.887417,0.08152881
C1I320,奧萬大,2026-04-11,23.952956,121.178556,0.011124142
C2M910,嘉義大學,2026-04-11,23.471325,120.485903,0.9682649
C0U770,南澳,2026-04-11,24.44935,121.81022,0.9493039
C2TB30,吉安,2026-04-11,23.94538,121.54803,0.78529525
C0A980,社子,2026-04-11,25.109508,121.469681,0.5290191
C0V800,六龜,2026-04-11,22.997889,120.633583,0.93390185
C1G9D0,國一S218K,2026-04-11,23.890641,120.493253,0.99046236
C0E570,白沙屯,2026-04-11,24.549447,120.696803,0.9260421
C2F9A0,中竹林,2026-04-11,24.103556,120.751061,0.48924688
C0FA40,臺中電廠,2026-04-11,24.2146,120.4907,0.9928062
C2G9A0,畜試所彰化,2026-04-11,23.86045,120.557964,0.97813755
C0H9C0,合歡山,2026-04-11,24.143442,121.272547,0.00063132774
G2M350,農試溪口農場,2026-04-11,23.58565,120.408111,0.97637945
C0U860,頭城,2026-04-11,24.85323,121.8308,0.48854753
C0R580,南州,2026-04-11,22.48591,120.50274,0.83227706
C0G780,秀水,2026-04-11,24.03405,120.503869,0.98981357
72N100,臺南農改場,2026-04-11,23.0605,120.342194,0.8792012
C0S900,蘭嶼高中,2026-04-11,22.04909,121.51214,0.7815268
C2TA60,六十石,2026-04-11,23.22477,121.31861,0.09175963
C1F9W0,德基,2026-04-11,24.254783,121.190261,0.0065457462
C2M980,安和,2026-04-11,23.51377,120.31593,0.98669183
C1Z120,壽豐,2026-04-11,23.870853,121.508081,0.82972467
C0W160,烏坵,2026-04-11,24.9944,119.44956,0.000908788
C1I550,國六W023K,2026-04-11,23.979067,120.867742,0.76663154
C0R870,興海,2026-04-11,21.9752,120.8439,0.66223496
C0R140,瑪家,2026-04-11,22.682903,120.686639,0.9102378
C0A530,坪林,2026-04-11,24.938183,121.70975,0.6079081
C0X260,後壁,2026-04-11,23.366358,120.362326,0.95708174
C0Z230,和平,2026-04-11,24.30717,121.77007,0.804219
C0G770,福興,2026-04-11,24.041289,120.437669,0.9931184
C0H9A0,神木村,2026-04-11,23.532742,120.843667,0.015229336
C0I460,南投,2026-04-11,23.911469,120.687331,0.96304333
C0I480,梅峰,2026-04-11,24.085272,121.173572,0.0022414331
C2A560,福山,2026-04-11,24.776203,121.502811,0.55679554
C0AH30,五分山,2026-04-11,25.07125,121.780794,0.09920816
C0FA10,松柏,2026-04-11,24.429115,120.617482,0.9878121
72S200,東改班鳩分場,2026-04-11,22.829528,121.077694,0.69842005
72HA00,中改埔里分場,2026-04-11,23.903208,120.963364,0.40729815
C2H9W0,大坪頂農水,2026-04-11,24.043122,120.932781,0.30694723
C0C650,平鎮,2026-04-11,24.897503,121.214636,0.72074765
C0S930,延平,2026-04-11,22.902581,121.084058,0.8262417
C0UA60,樟樹山,2026-04-11,24.41393,121.78325,0.17652102
C2UC10,出水溪,2026-04-11,24.615822,121.652253,0.28689578
C1S670,摩天,2026-04-11,23.199503,121.027,0.05611638
C2C590,觀音,2026-04-11,25.027072,121.153317,0.6007365
C0V630,茄萣,2026-04-11,22.906642,120.182608,0.96738833
466940,基隆,2026-04-11,25.133314,121.740475,0.9757587
C0X050,東河,2026-04-11,23.296598,120.385608,0.9374977
C0R770,保力,2026-04-11,22.071122,120.764111,0.6826161
G2L020,農試嘉義分所,2026-04-11,23.485028,120.473806,0.9682807
C0X240,關子嶺,2026-04-11,23.331169,120.508025,0.91097265
C0I380,集集,2026-04-11,23.828206,120.801467,0.9720628
466990,花蓮,2026-04-11,23.975128,121.613275,0.9421517
C1V220,小關山,2026-04-11,23.154217,120.813603,0.001591485
C1F9G1,慶福山,2026-04-11,24.180853,120.848378,0.30900252
C0FB20,雪山橋,2026-04-11,24.23192,120.9786,0.0045030373
C0Z250,瑞穗林道,2026-04-11,23.49284,121.30688,0.21850611
C0D590,新豐,2026-04-11,24.87068,120.97721,0.6607302
C0A870,五指山,2026-04-11,25.132153,121.608692,0.061380856
C0UA50,西帽山,2026-04-11,24.555361,121.802628,0.09163335
C2R980,竹田國中,2026-04-11,22.61532,120.52412,0.565899
C0X160,仁德,2026-04-11,22.968258,120.257689,0.9463895
C1H971,六分寮,2026-04-11,23.92507,120.6378,0.6715087
C0W120,西嶼,2026-04-11,23.5626,119.468436,0.9337136
C0G650,員林,2026-04-11,23.946503,120.585597,0.98352015
C0AD50,鶯歌,2026-04-11,24.951533,121.346294,0.89523846
C2H9Q0,北東眼山,2026-04-11,24.120939,121.189303,0.0021788846
C2H9T0,名間竹圍,2026-04-11,23.859914,120.637572,0.95412993
C0S990,山豬窟,2026-04-11,22.318619,120.857372,0.8030054
C0X190,安平,2026-04-11,22.993161,120.152181,0.9698809
C0K400,斗六,2026-04-11,23.720583,120.541127,0.97864825
12J990,口湖工作站,2026-04-11,23.589978,120.180394,0.9925225
C0O830,北寮,2026-04-11,23.079561,120.495008,0.9638993
C1D410,白蘭,2026-04-11,24.579364,121.079947,0.12821047
C0S970,加津林,2026-04-11,22.416211,120.926942,0.50457984
C0D700,關西,2026-04-11,24.7977,121.1732,0.9536034
C0U750,龜山島,2026-04-11,24.841667,121.953133,0.54129124
C0R810,內獅,2026-04-11,22.305064,120.642986,0.8819737
C1M390,龍美,2026-04-11,23.406728,120.654417,0.1001257
C2K290,崙內,2026-04-11,23.69525,120.35601,0.99185455
C2FB60,頭櫃山,2026-04-11,24.129842,120.858925,0.10306225
C1H840,國三N238K,2026-04-11,23.841008,120.707711,0.9675713
CAQ030,崎峰國小,2026-04-11,22.42565,120.49521,0.83227706
C2E520,大湖,2026-04-11,24.414939,120.870872,0.8224191
467530,阿里山,2026-04-11,23.508208,120.813242,0.00083141495
C1E691,南湖,2026-04-11,24.40135,120.837533,0.27156043
C0FA30,梧棲,2026-04-11,24.256003,120.523381,0.9919094
C1V231,高中,2026-04-11,23.134911,120.716711,0.15824576
C0AK30,硬漢嶺,2026-04-11,25.136097,121.426372,0.046245918
C0F9V0,新社,2026-04-11,24.200172,120.815806,0.54874665
C0H890,埔里,2026-04-11,23.972169,120.952425,0.4857211
C0R690,墾丁,2026-04-11,21.966756,120.810269,0.42738616
C0SD20,富山,2026-04-11,22.822383,121.190825,0.97171235
C0F0D0,審馬陣,2026-04-11,24.381675,121.4203,0.0007684281
C2W030,金門農試所,2026-04-11,24.448431,118.451786,0.0017065183
C0R820,白鷺,2026-04-11,22.454275,120.666219,0.9416053
C0FB00,大雪山,2026-04-11,24.254668,121.007374,0.0024777458
C1V190,南天池,2026-04-11,23.27403,120.91176,0.0012121415
C0E940,雪見,2026-04-11,24.42595,121.01347,0.0031464456
K2E360,苗栗農改場,2026-04-11,24.495722,120.829111,0.9717181
CAJ050,海口故事園區,2026-04-11,23.57543,120.14121,0.9925224
C2K280,四湖,2026-04-11,23.6304,120.22717,0.9946473
C2H9D0,三隻寮,2026-04-11,24.093078,120.861578,0.13655467
C0O990,媽廟,2026-04-11,22.99175,120.293525,0.9089883
C0Z220,和平林道,2026-04-11,24.343922,121.656317,0.102633506
C0TA10,花蓮漁港,2026-04-11,23.995322,121.638331,0.66163623
72C440,桃園農改場,2026-04-11,24.950944,121.030583,0.84517103
C1E711,馬拉邦山,2026-04-11,24.367306,120.901656,0.09187619
C0SB20,富岡,2026-04-11,22.792467,121.192669,0.97015333
C0D560,竹東,2026-04-11,24.767147,121.057881,0.79029095
C0F9U0,南屯,2026-04-11,24.137006,120.637969,0.98530954
C2SD60,明峰,2026-04-11,22.8671,121.11825,0.57371193
C0M720,番路,2026-04-11,23.464657,120.554156,0.9328386
C0F0A0,雪山圈谷,2026-04-11,24.388594,121.236339,0.00078581646
C1A9N0,四十份,2026-04-11,24.934158,121.593283,0.22271684
C0U760,東澳,2026-04-11,24.52196,121.83318,0.95884866
C0X230,鹽水,2026-04-11,23.272621,120.247641,0.98421156
C2H9H0,苗改南投蜂場,2026-04-11,23.852589,120.693481,0.95716006
C2TB70,達谷寮,2026-04-11,23.38,121.35968,0.69197536
C0R950,萬隆國小,2026-04-11,22.507667,120.587817,0.8214129
467540,大武,2026-04-11,22.35572,120.90374,0.9204057
C0V370,古亭坑,2026-04-11,22.893178,120.401947,0.9496532
C1I340,新興橋,2026-04-11,23.563333,120.868728,0.4318296
C0SA80,土坂,2026-04-11,22.453108,120.887572,0.95725816
C0R160,鹽埔,2026-04-11,22.739558,120.530778,0.71056145
C0AC40,大屯山,2026-04-11,25.175675,121.522408,0.004487858
466850,五分山雷達站,2026-04-11,25.071182,121.781205,0.09581599
C2H9L0,馬烈霸,2026-04-11,24.1512,121.201772,0.0032420643
C1AI50,國三N016K,2026-04-11,25.034164,121.619664,0.41688368
C2V920,匏子寮,2026-04-11,23.04905,120.55319,0.9510355
C1V600,藤枝,2026-04-11,23.071961,120.757042,0.0033390406
C1E601,南勢,2026-04-11,24.572486,120.734842,0.8855022
C0O980,新市,2026-04-11,23.061614,120.298197,0.86416686
C0K420,西螺,2026-04-11,23.800407,120.467394,0.99026984
C0Z050,佳心,2026-04-11,23.34567,121.21316,0.13111089
C0AD30,蘆洲,2026-04-11,25.086594,121.472331,0.3902696
C0V610,梓官,2026-04-11,22.760558,120.267211,0.93273705
K2F750,種苗改良場,2026-04-11,24.225972,120.800917,0.5711425
C0UA80,大溪漁港,2026-04-11,24.941801,121.902955,0.7361096
C1AI60,國一39K邊坡,2026-04-11,25.064361,121.383836,0.11219522
C0W150,金寧,2026-04-11,24.457703,118.328989,0.0025333888
C0R960,內埔,2026-04-11,22.608483,120.570714,0.5630782
C2H9S0,龍南,2026-04-11,23.953536,120.833183,0.12138315
C0AH40,平等,2026-04-11,25.129142,121.577086,0.15964283
C0R540,佳冬,2026-04-11,22.419456,120.552375,0.85836715
466950,彭佳嶼,2026-04-11,25.627975,122.079744,0.069057256
C0A890,雙溪,2026-04-11,25.036003,121.864242,0.9699374
C0AH50,林口,2026-04-11,25.072181,121.38084,0.08468542
A2K360,水試臺西試驗場,2026-04-11,23.717231,120.190522,0.99514884
C2M960,外寮,2026-04-11,23.562643,120.665688,0.12751423
C0F9S0,烏日,2026-04-11,24.107058,120.624103,0.98638326
C2N180,鹿陶洋,2026-04-11,23.14325,120.48352,0.9658075
C0C490,八德,2026-04-11,24.928708,121.283289,0.7031318
C0R190,赤山,2026-04-11,22.592333,120.614306,0.60631555
C0T820,天祥,2026-04-11,24.179597,121.495639,0.70530957
C1F9E1,龍安,2026-04-11,24.1605,120.831961,0.5161535
C2SD50,順那,2026-04-11,23.04166,121.29332,0.9328046
C0V820,小林,2026-04-11,23.148408,120.63325,0.74962896
C2G870,芳苑,2026-04-11,23.922303,120.320025,0.9863245
C0E850,大河,2026-04-11,24.618069,120.948578,0.89439666
C1U670,寒溪,2026-04-11,24.634,121.71691,0.33419722
C0N020,城西,2026-04-11,23.0568,120.0956,0.9767761
C1Z110,三棧,2026-04-11,24.11557,121.60501,0.47925416
C0R280,檳榔,2026-04-11,22.076078,120.836777,0.5900967
C2H9J0,中台,2026-04-11,23.9996,120.938739,0.29893982
C0F9L0,后里,2026-04-11,24.310436,120.729725,0.9249454
467441,高雄,2026-04-11,22.730432,120.312516,0.9394067
C0Z180,新城,2026-04-11,24.040486,121.604878,0.94143593
C0D540,橫山,2026-04-11,24.71116,121.11693,0.653092
C1D420,太閣南,2026-04-11,24.632808,121.160575,0.07906191
C1E770,公館,2026-04-11,24.526914,120.830806,0.95806736
CAN130,水試所海水繁養殖中心,2026-04-11,23.120802,120.07968,0.9762334
C1I430,翠華,2026-04-11,24.191961,121.224339,0.0015680135
C1M400,菜瓜坪,2026-04-11,23.251928,120.576103,0.7421993
C0G730,二林,2026-04-11,23.903325,120.376081,0.9925093
72M360,南改義竹分場,2026-04-11,23.360694,120.279361,0.981641
V2K620,麥寮合作社,2026-04-11,23.753836,120.294783,0.99341697
C0Z070,舞鶴,2026-04-11,23.46811,121.37407,0.5012264
C0B040,大武崙,2026-04-11,25.166676,121.706993,0.95264924
C1Z030,紅葉,2026-04-11,23.493119,121.338806,0.6040313
C1I050,丹大,2026-04-11,23.753747,121.141147,0.0008323975
C0I080,信義,2026-04-11,23.689694,120.851036,0.7095186
C2TB80,庄子底,2026-04-11,23.71794,121.49438,0.73807895
C0D750,樂山林道6k,2026-04-11,24.49999,121.08773,0.0056557907
C2M920,朴子農改,2026-04-11,23.469889,120.259383,0.98548603
C2A880,福隆,2026-04-11,25.017842,121.942083,0.8834138
C0Z160,鳳林,2026-04-11,23.746114,121.453411,0.7071461
C0UB80,翠峰林道6K,2026-04-11,24.49773,121.568625,0.0012178528
C0V210,復興,2026-04-11,23.222403,120.806089,0.13282764
C0H990,昆陽,2026-04-11,24.121322,121.273642,0.00073897024
C0R741,獅子,2026-04-11,22.202308,120.705236,0.8843688
C0S710,鹿野,2026-04-11,22.917711,121.122994,0.50302833
C0I530,小奇萊,2026-04-11,24.131764,121.295717,0.0006913563
C0FA70,大雪山埡口,2026-04-11,24.26867,121.03062,0.001069887
C2K630,荷苞,2026-04-11,23.657717,120.595144,0.972977
C0Z080,富源,2026-04-11,23.587642,121.378225,0.34845707
C2M9E0,旺來山,2026-04-11,23.555153,120.486463,0.9636223
C0SB10,美和,2026-04-11,22.682078,121.060236,0.9163012
C2K620,馬光農場,2026-04-11,23.721453,120.378864,0.9900158
C1I140,卡奈托灣,2026-04-11,23.754364,121.087872,0.0016171657
C0I520,玉山風口,2026-04-11,23.470489,120.955994,0.0006029377
C1G691,下水埔,2026-04-11,23.816114,120.5676,0.97959465
C0X110,臺南市南區,2026-04-11,22.961189,120.188378,0.9459407
C0V680,仁武,2026-04-11,22.701083,120.347722,0.9394067
C2G840,北斗,2026-04-11,23.877586,120.514222,0.99029857
C2TB90,長橋,2026-04-11,23.6874,121.46186,0.69122946
C0R900,竹坑,2026-04-11,22.1385,120.7022,0.8518634
C0G860,社頭,2026-04-11,23.897647,120.5862,0.98364997
C0X150,安定,2026-04-11,23.102614,120.227839,0.9575063
C0R590,里港,2026-04-11,22.77919,120.49459,0.8904434
C0E610,馬都安,2026-04-11,24.451272,120.930192,0.24896096
C0E550,明德,2026-04-11,24.583486,120.885411,0.94067264
C0R150,三地門,2026-04-11,22.709889,120.639944,0.9013948
C0G910,花壇,2026-04-11,24.032076,120.549461,0.98976845
C1D400,鳥嘴山,2026-04-11,24.71909,121.28387,0.17066751
C0K500,元長,2026-04-11,23.64981,120.315024,0.99241567
C0F0B0,石岡,2026-04-11,24.276061,120.777644,0.8913973
C2V250,甲仙,2026-04-11,23.080106,120.591758,0.92494357
C0SA20,金崙山,2026-04-11,22.567419,120.959667,0.09381963
C0V350,溪埔,2026-04-11,22.738578,120.446797,0.87543374
C0M660,溪口,2026-04-11,23.604131,120.403569,0.97637945
C1S880,壽卡,2026-04-11,22.238911,120.858903,0.5863725
72D680,桃改新埔分場,2026-04-11,24.834444,121.066111,0.8338673
