站號,站名,日期,lat,lon,BLBTSLS
C1O850,環湖,2026-02-04,23.148617,120.418633,2.0742077e-09
C0S890,關山,2026-02-04,23.0395,121.175017,1.410607e-09
C1R120,上德文,2026-02-04,22.763272,120.704442,8.6939955e-10
CAH030,茶改場竹圍站,2026-02-04,23.860083,120.637528,8.9363145e-10
V2K610,大庄合作社,2026-02-04,23.8068,120.367939,5.352825e-10
G2AI50,關渡,2026-02-04,25.11575,121.492,3.725873e-09
C1S800,華源,2026-02-04,22.657883,121.02325,1.9093995e-09
C0R550,新埤,2026-02-04,22.467947,120.582894,3.717289e-10
C1O880,關山,2026-02-04,23.173397,120.594092,4.3589266e-10
V2C260,八德蔬果,2026-02-04,24.978508,121.281819,6.2986967e-09
C0R260,春日,2026-02-04,22.370361,120.628306,3.405858e-10
C1I211,蘆竹湳,2026-02-04,23.934019,120.811994,4.2492307e-10
C1I260,北坑,2026-02-04,23.9246,121.006903,1.0514059e-09
467290,古坑,2026-02-04,23.633639,120.551889,6.93311e-10
C0SA40,瑞和,2026-02-04,22.974361,121.156697,1.3202659e-09
C0R490,九如,2026-02-04,22.7405,120.490503,4.105362e-06
C0D430,峨眉,2026-02-04,24.6905,121.017189,7.047612e-10
C1I240,外大坪,2026-02-04,23.958697,120.917931,5.867367e-10
C1V570,吉東,2026-02-04,22.85422,120.5454,2.0736375e-07
C0D480,打鐵坑,2026-02-04,24.849664,121.150789,1.6389096e-09
V2C250,八德合作社,2026-02-04,24.93775,121.266389,2.1511486e-09
C0C480,桃園,2026-02-04,24.992425,121.323172,6.2986967e-09
