站號,站名,日期,lat,lon,BLBTSLS
C1O850,環湖,2026-02-09,23.148617,120.418633,3.0566624e-10
C0S890,關山,2026-02-09,23.0395,121.175017,1.4984133e-09
C1R120,上德文,2026-02-09,22.763272,120.704442,4.7192855e-10
CAH030,茶改場竹圍站,2026-02-09,23.860083,120.637528,8.040831e-10
V2K610,大庄合作社,2026-02-09,23.8068,120.367939,9.10597e-09
G2AI50,關渡,2026-02-09,25.11575,121.492,1.3475782e-08
C1S800,華源,2026-02-09,22.657883,121.02325,1.5889129e-09
C0R550,新埤,2026-02-09,22.467947,120.582894,4.318699e-10
C1O880,關山,2026-02-09,23.173397,120.594092,2.3158166e-10
V2C260,八德蔬果,2026-02-09,24.978508,121.281819,3.2019408e-08
C0R260,春日,2026-02-09,22.370361,120.628306,3.971468e-10
C1I211,蘆竹湳,2026-02-09,23.934019,120.811994,5.270289e-10
C1I260,北坑,2026-02-09,23.9246,121.006903,7.515377e-10
467290,古坑,2026-02-09,23.633639,120.551889,4.490839e-10
C0SA40,瑞和,2026-02-09,22.974361,121.156697,1.6490345e-09
C0R490,九如,2026-02-09,22.7405,120.490503,1.1133769e-06
C0D430,峨眉,2026-02-09,24.6905,121.017189,8.624808e-10
C1I240,外大坪,2026-02-09,23.958697,120.917931,5.8420296e-10
C1V570,吉東,2026-02-09,22.85422,120.5454,2.4226932e-08
C0D480,打鐵坑,2026-02-09,24.849664,121.150789,2.0984257e-09
V2C250,八德合作社,2026-02-09,24.93775,121.266389,1.9224867e-08
C0C480,桃園,2026-02-09,24.992425,121.323172,6.166298e-09
