站號,站名,日期,lat,lon,BLBTSLS
C1O850,環湖,2026-02-22,23.148617,120.418633,5.8419683e-08
C0S890,關山,2026-02-22,23.0395,121.175017,1.1987272e-09
C1R120,上德文,2026-02-22,22.763272,120.704442,3.754592e-10
C1S800,華源,2026-02-22,22.657883,121.02325,9.438468e-10
C0R550,新埤,2026-02-22,22.467947,120.582894,1.595611e-06
C1O880,關山,2026-02-22,23.173397,120.594092,1.2581329e-09
C0R260,春日,2026-02-22,22.370361,120.628306,6.2592375e-07
C1I211,蘆竹湳,2026-02-22,23.934019,120.811994,4.7351184e-10
C1I260,北坑,2026-02-22,23.9246,121.006903,1.3874879e-09
467290,古坑,2026-02-22,23.633639,120.551889,3.6377367e-07
C0R700,枋山,2026-02-22,22.246844,120.661086,0.7472473
C0SA40,瑞和,2026-02-22,22.974361,121.156697,1.3666492e-09
C0R490,九如,2026-02-22,22.7405,120.490503,0.99630404
C0D430,峨眉,2026-02-22,24.6905,121.017189,2.0603754e-09
C1I240,外大坪,2026-02-22,23.958697,120.917931,5.25401e-10
C1V570,吉東,2026-02-22,22.85422,120.5454,0.9911069
C0D480,打鐵坑,2026-02-22,24.849664,121.150789,2.3916005e-09
C0C480,桃園,2026-02-22,24.992425,121.323172,3.1674312e-09
467290,古坑,2026-02-22,23.380729,120.336861,4.797468e-08
