站號,站名,日期,lat,lon,BLBTSLS
C0R710,龍磐,2026-01-30,21.931672,120.838942,0.9960217
C1F9D1,白毛台,2026-01-30,24.158325,120.886933,3.4081602e-09
C0G940,竹塘,2026-01-30,23.848253,120.386764,2.7342448e-08
467590,恆春,2026-01-30,22.003897,120.746339,0.99357665
C1O850,環湖,2026-01-30,23.148617,120.418633,7.381412e-10
C0U710,太平山,2026-01-30,24.505486,121.525656,4.172782e-08
C0E820,獅潭,2026-01-30,24.539133,120.920042,2.0956232e-07
C2SD70,二層坪,2026-01-30,22.94105,121.16838,2.7664225e-08
C0V880,興達,2026-01-30,22.8778,120.2127,0.11905383
C0S890,關山,2026-01-30,23.0395,121.175017,2.7344326e-08
C0SB30,新蘭,2026-01-30,22.869214,121.223228,6.2540586e-08
C2R970,屏科大,2026-01-30,22.648275,120.619247,3.7640678e-08
C1Z130,銅門,2026-01-30,23.965694,121.492842,2.7722646e-08
C0AD40,土城,2026-01-30,24.973208,121.445169,5.885856e-08
CAN140,六官養殖協會,2026-01-30,23.22881,120.29962,0.018320292
C0X180,山上,2026-01-30,23.0757,120.363253,0.0027859334
C0F9Z0,雪山東峰,2026-01-30,24.388792,121.268675,4.2109512e-08
C1M480,獨立山,2026-01-30,23.537022,120.607797,2.0502495e-09
C0X220,學甲,2026-01-30,23.230367,120.182187,0.090990365
467650,日月潭,2026-01-30,23.881325,120.90805,4.318767e-09
A2K570,古坑(花卉中心),2026-01-30,23.633531,120.552392,1.0482941e-09
C0K600,箔子寮,2026-01-30,23.6197,120.14,0.40625796
C0G830,埤頭,2026-01-30,23.866003,120.452806,2.2639375e-09
C0S950,七塊厝,2026-01-30,22.954453,121.229922,1.8862485e-08
467110,金門,2026-01-30,24.407306,118.289281,6.544429e-08
C0AH80,深坑,2026-01-30,25.002703,121.628328,1.5082311e-07
C0A970,三貂角,2026-01-30,25.007606,122.002058,2.411328e-07
C2D730,寶山農場,2026-01-30,24.732444,120.976153,5.4229357e-08
C0K430,褒忠,2026-01-30,23.690938,120.303634,0.00069374917
467480,嘉義,2026-01-30,23.495925,120.432906,9.72106e-10
C0V400,阿公店,2026-01-30,22.804194,120.355528,0.0053698835
C0E960,觀霧分站,2026-01-30,24.505781,121.113921,2.3002878e-08
467550,玉山,2026-01-30,23.48718,120.95943,5.0930456e-08
C0R440,大漢山,2026-01-30,22.405264,120.753181,2.568458e-08
C0SD30,東清國小,2026-01-30,22.057128,121.564922,0.99975204
C1F9B1,桐林,2026-01-30,24.066172,120.735194,1.5767975e-09
C2H9U0,鳳鵬,2026-01-30,23.763919,120.788061,1.2645227e-09
C0K390,土庫,2026-01-30,23.679029,120.395574,2.0667872e-09
C1I450,望鄉山,2026-01-30,23.594153,120.944286,3.246352e-08
C0E910,海埔,2026-01-30,24.648767,120.772435,0.019923737
B2E890,畜試北區分所,2026-01-30,24.527806,120.770972,2.0820642e-05
C0R750,四林格山,2026-01-30,22.076989,120.802439,0.7495155
C0F0C0,中坑,2026-01-30,24.248517,120.903319,5.1861893e-09
C1I121,大鞍,2026-01-30,23.678381,120.760017,9.3459995e-09
C2G9E0,移民庄,2026-01-30,23.9784,120.40283,0.00077322504
72U480,花改蘭陽分場,2026-01-30,24.686306,121.716583,3.150941e-08
C0A770,科教館,2026-01-30,25.096356,121.516507,6.574794e-08
C0AJ60,六塊厝,2026-01-30,25.24,121.4481,0.00023447585
C0R620,墾雷,2026-01-30,21.900836,120.855269,0.9874943
467420,永康,2026-01-30,23.038386,120.2367,0.04426345
C2M530,奮起湖,2026-01-30,23.493903,120.699253,7.109559e-09
C0I410,名間,2026-01-30,23.837053,120.701447,1.0233544e-09
A2C560,農工中心,2026-01-30,24.985917,121.239833,3.249156e-07
C0V740,旗山,2026-01-30,22.888614,120.483597,2.0345194e-09
C0Z061,玉里,2026-01-30,23.3215,121.339656,2.1617325e-08
C0S840,南田,2026-01-30,22.279725,120.889208,0.99996656
C1I470,杉林溪,2026-01-30,23.639517,120.786444,1.0751661e-08
C1X040,東原,2026-01-30,23.291597,120.463822,8.340801e-10
C0R660,枋寮,2026-01-30,22.367722,120.590647,0.005640149
C1R120,上德文,2026-01-30,22.763272,120.704442,5.142494e-09
C0K450,大埤,2026-01-30,23.646074,120.431537,1.6404952e-09
C0UA00,土場,2026-01-30,24.576533,121.495333,4.0253056e-08
467080,宜蘭,2026-01-30,24.763975,121.756528,3.308399e-08
C0N030,四草,2026-01-30,23.0235,120.1116,0.691861
467410,臺南,2026-01-30,22.99328,120.20492,0.15737921
C0V650,彌陀,2026-01-30,22.783806,120.246361,0.029442891
C0D660,新竹市東區,2026-01-30,24.798681,120.986942,1.0440208e-07
82S580,茶改東部分場,2026-01-30,22.907694,121.130139,3.266065e-08
C0SB40,興隆,2026-01-30,22.913661,121.257469,8.108635e-08
467050,新屋,2026-01-30,25.006725,121.047492,3.9552265e-06
C0C710,大溪永福,2026-01-30,24.892936,121.324975,1.5031623e-07
C0FA20,溫寮,2026-01-30,24.372177,120.583125,0.9372989
C0V640,湖內,2026-01-30,22.887139,120.2445,0.087853454
C0R910,下寮,2026-01-30,22.3929,120.5548,0.0051429085
C0Z020,明里,2026-01-30,23.208717,121.262342,2.2287926e-08
C0M770,嘉義梅山,2026-01-30,23.585398,120.555587,6.976341e-10
C0C660,楊梅,2026-01-30,24.912375,121.143047,2.163744e-07
C0SD40,牛頭山,2026-01-30,22.676661,121.506944,0.99992967
C1E511,新開,2026-01-30,24.347703,120.827019,8.756308e-09
G2F820,農試所(霧峰),2026-01-30,24.031261,120.688133,1.6667139e-09
C2M990,大巃頂,2026-01-30,23.5547,120.61439,3.497651e-09
C1I070,和社,2026-01-30,23.591131,120.888861,3.193851e-09
C2E990,新坪頂,2026-01-30,24.30201,120.8574,5.3936065e-09
C0TA80,立霧山,2026-01-30,24.183258,121.641899,3.726401e-08
C2F000,大肚,2026-01-30,24.15295,120.572117,5.5975543e-05
C1S850,豐南,2026-01-30,23.122139,121.262389,2.0757284e-08
C2M9B0,西興,2026-01-30,23.2428,120.57617,1.2286859e-09
C2A920,富貴角,2026-01-30,25.263783,121.565258,2.689056e-05
CAH030,茶改場竹圍站,2026-01-30,23.860083,120.637528,1.2239028e-09
C0T960,光復,2026-01-30,23.660694,121.424964,2.7277181e-08
C0F9M0,豐原,2026-01-30,24.254322,120.720692,8.596171e-09
C0R720,旭海,2026-01-30,22.205403,120.887614,0.9999392
C0V710,苓雅,2026-01-30,22.622742,120.330669,0.00952075
C0C740,觀音工業區,2026-01-30,25.064764,121.114856,4.922392e-05
CAC040,拉拉山,2026-01-30,24.699317,121.427133,5.3476562e-08
C0V790,萬山,2026-01-30,22.905944,120.688056,3.132136e-09
U2HA30,臺大和社,2026-01-30,23.590856,120.888864,3.193845e-09
C2H9K0,屯原,2026-01-30,24.067969,121.209389,1.7835529e-08
C0AJ90,澳底,2026-01-30,25.0552,121.9253,3.3081312e-07
C0Z100,東華,2026-01-30,23.89525,121.549833,2.8827595e-08
C0G970,三豐,2026-01-30,23.882,120.2895,0.61528516
V2K610,大庄合作社,2026-01-30,23.8068,120.367939,0.0020834892
C0V900,汕尾,2026-01-30,22.4782,120.4151,0.0037151936
C1R630,龍泉,2026-01-30,22.66701,120.59091,1.2452314e-07
C1AC50,關渡,2026-01-30,25.133486,121.469331,5.826145e-06
C0C800,四稜,2026-01-30,24.64733,121.4293,4.275486e-08
C0F9I0,神岡,2026-01-30,24.272481,120.658314,2.6047287e-08
C0K460,斗南,2026-01-30,23.678734,120.478359,1.6358958e-09
C2O810,曾文,2026-01-30,23.219681,120.497328,8.190622e-10
467280,後龍,2026-01-30,24.648563,120.831834,0.004549097
C1F9J1,清水林,2026-01-30,24.071242,120.820419,2.7397928e-09
C2A650,火燒寮,2026-01-30,25.002719,121.742892,1.9040095e-07
466930,竹子湖,2026-01-30,25.162078,121.544547,2.8568098e-07
C1I220,樟湖,2026-01-30,23.905333,120.846983,5.2290687e-09
C0I390,仁愛,2026-01-30,24.022122,121.132206,5.663858e-09
C0Z300,東里,2026-01-30,23.26853,121.30547,2.123551e-08
C1V590,新發,2026-01-30,23.057019,120.646064,4.3294563e-09
C0K510,水林,2026-01-30,23.572924,120.24597,0.00021527862
72S590,東改賓朗果園,2026-01-30,22.813889,121.071278,8.3083705e-08
82A750,茶改北部分場,2026-01-30,24.955778,121.631222,1.3234137e-07
C1A750,石碇服務區,2026-01-30,25.00872,121.646242,1.9166401e-07
C0X300,鹿寮,2026-01-30,23.386047,120.477331,7.9102375e-10
G2AI50,關渡,2026-01-30,25.11575,121.492,6.686451e-08
C0K590,雲林東勢,2026-01-30,23.674192,120.255721,0.00030230085
C2K310,港尾布雞,2026-01-30,23.74834,120.38439,1.8954731e-09
C0A570,桶後,2026-01-30,24.848222,121.597992,5.5139477e-08
C1S800,華源,2026-01-30,22.657883,121.02325,8.1434666e-07
C0G720,溪州,2026-01-30,23.851589,120.499093,2.1926685e-09
C1V160,達卡努瓦,2026-01-30,23.279811,120.705319,5.876027e-09
C2M410,馬頭山,2026-01-30,23.324361,120.582017,8.7385005e-10
C0V850,蚵仔寮,2026-01-30,22.7256,120.2527,0.030293316
C0S740,池上,2026-01-30,23.119628,121.209469,2.8498972e-08
C1V390,尖山,2026-01-30,22.813153,120.367789,0.0031328367
C0AH70,松山,2026-01-30,25.04871,121.55042,6.544953e-08
C0N010,鯤鯓國小,2026-01-30,23.1879,120.0889,0.1217587
C0R550,新埤,2026-01-30,22.467947,120.582894,0.002827451
C0SA60,知本（水試所）,2026-01-30,22.702394,121.082761,5.4010598e-06
C0T9I0,豐濱,2026-01-30,23.583897,121.514806,1.9242623e-08
C0UB00,淡江大學蘭陽校園,2026-01-30,24.823239,121.730383,5.283409e-08
C0W240,九宮,2026-01-30,24.423753,118.240186,2.5416643e-08
C0T9N0,富里,2026-01-30,23.171639,121.249378,2.1870767e-08
U2HA50,臺大竹山,2026-01-30,23.756972,120.681556,1.0218408e-09
C0V840,鳳鼻頭,2026-01-30,22.5083,120.3591,0.003687781
C0X140,西港,2026-01-30,23.125608,120.203108,0.017074749
72D080,桃改五峰分場,2026-01-30,24.612194,121.157167,1.17486305e-08
C2H9P0,伊拿谷,2026-01-30,23.963211,121.088264,3.7504786e-09
C2K250,崙背,2026-01-30,23.75553,120.31893,0.0006937489
C2H9F0,柑林,2026-01-30,24.018658,120.847072,1.4467272e-09
C0TA20,加灣,2026-01-30,24.082025,121.608944,5.7574887e-08
C0V530,阿蓮,2026-01-30,22.883208,120.327508,0.00581539
C0FB30,八仙山苗圃,2026-01-30,24.192719,121.001366,4.982841e-09
C1O880,關山,2026-01-30,23.173397,120.594092,8.124263e-10
C0E791,卓蘭,2026-01-30,24.3126,120.8244,8.690469e-09
C1I030,武界,2026-01-30,23.913225,121.052483,3.9611363e-09
C0R520,崁頂,2026-01-30,22.514781,120.506914,0.004637794
C0R341,牡丹,2026-01-30,22.130036,120.792639,0.028139625
C0R930,萬丹,2026-01-30,22.5885,120.4851,0.0018823742
C0S760,紅石,2026-01-30,23.069131,121.126219,2.6784463e-08
C2C410,中央大學,2026-01-30,24.967652,121.185165,3.0115274e-07
C1M610,石磐龍,2026-01-30,23.496606,120.663506,5.388979e-09
C0C790,東眼山,2026-01-30,24.8284,121.40888,6.0710136e-08
C0UA10,鴛鴦湖,2026-01-30,24.590269,121.412228,4.3885457e-08
V2C260,八德蔬果,2026-01-30,24.978508,121.281819,1.5620117e-07
C0R800,丹路,2026-01-30,22.204481,120.750989,0.3005513
C0G920,永靖,2026-01-30,23.924703,120.547533,2.7798128e-06
C2M950,太和,2026-01-30,23.538372,120.702961,7.0603705e-09
C1A630,下盆,2026-01-30,24.771003,121.538622,5.6774674e-08
B2N890,畜產試驗所,2026-01-30,23.058972,120.336406,0.025055561
C0UA30,白嶺,2026-01-30,24.527819,121.519031,3.449797e-08
467571,新竹,2026-01-30,24.828575,121.01455,1.8581515e-07
C1V580,溪南(特生中心),2026-01-30,23.084972,120.788475,1.3000754e-08
C1T970,大農,2026-01-30,23.615233,121.413331,2.6166447e-08
C0R650,竹田,2026-01-30,22.58486,120.54344,0.0045857355
C1H900,清流,2026-01-30,24.080775,120.962997,4.106661e-09
C1C510,水尾,2026-01-30,24.940081,121.087161,7.946559e-07
C2N170,茅港尾,2026-01-30,23.2061,120.2624,0.018320292
C0F9X0,大雅(中科園區),2026-01-30,24.21528,120.62445,0.001045133
C0SB60,白守蓮,2026-01-30,23.126769,121.401914,0.8349927
C0O970,虎頭埤,2026-01-30,23.021375,120.347878,0.0036983273
C0C730,中大臨海站,2026-01-30,24.966126,121.008581,6.9333606e-07
C0X250,新營,2026-01-30,23.310689,120.316681,0.011340288
C0V700,三民,2026-01-30,22.645017,120.311233,0.019107819
C0U870,大礁溪,2026-01-30,24.791042,121.675047,4.5136776e-08
C0E870,高鐵苗栗,2026-01-30,24.60725,120.826094,0.006538897
C0TA30,鹽寮,2026-01-30,23.845606,121.592664,2.9859375e-08
C0M860,新美,2026-01-30,23.338017,120.683169,2.8305345e-09
C1E701,八卦,2026-01-30,24.491756,120.927619,8.360668e-09
C2TA90,加納納,2026-01-30,23.466421,121.359867,1.8736305e-08
C0I420,國姓,2026-01-30,24.037803,120.855072,1.4885628e-09
C2D720,關西工作站,2026-01-30,24.757275,121.184792,2.0930143e-08
C0S960,香蘭,2026-01-30,22.587569,120.993375,2.3926956e-05
467620,蘭嶼,2026-01-30,22.0369,121.55843,0.9994541
C0R260,春日,2026-01-30,22.370361,120.628306,0.000684504
72G600,臺中農改場,2026-01-30,24.003028,120.534389,2.867468e-06
C0Z210,瑞穗,2026-01-30,23.5239,121.39021,2.0746478e-08
C0M820,達邦,2026-01-30,23.453994,120.749517,4.1769526e-09
C0V860,南寮,2026-01-30,22.7616,120.2339,0.038371217
C0G740,大城,2026-01-30,23.852487,120.320935,0.5996973
C0R920,塭仔,2026-01-30,22.4169,120.5197,0.007257296
C0R470,高樹,2026-01-30,22.826389,120.600806,6.193151e-08
C0R680,佳樂水,2026-01-30,21.993578,120.861633,0.9835389
C1O870,大棟山,2026-01-30,23.31157,120.52226,4.6350226e-09
C0D360,梅花,2026-01-30,24.678347,121.208558,1.3664023e-08
C0Z190,富世,2026-01-30,24.14743,121.6297,1.7314744e-07
C0AI10,屈尺,2026-01-30,24.92184,121.54475,5.586782e-08
B2U990,畜試東區分所,2026-01-30,24.669039,121.832561,3.7826798e-08
C0SB80,長濱漁港,2026-01-30,23.313644,121.459994,0.003188028
C0TA50,和仁,2026-01-30,24.241394,121.712472,9.798563e-08
C0V910,大樹,2026-01-30,22.684645,120.432803,1.8539443e-07
C1R610,西大武山,2026-01-30,22.617719,120.7322,2.2505574e-08
C0G900,線西,2026-01-30,24.143358,120.443536,0.7999726
C0M700,竹崎,2026-01-30,23.526178,120.555508,6.9206646e-10
C2E880,三義,2026-01-30,24.405478,120.749819,6.284647e-08
C0C720,竹圍,2026-01-30,25.112692,121.239824,1.9999832e-06
C0F9P0,清水,2026-01-30,24.312297,120.562242,0.8621959
C0Z150,吉安光華,2026-01-30,23.930925,121.595153,3.3004323e-08
C0FA80,小雪山天池,2026-01-30,24.28025,121.02627,3.0752087e-08
467300,東吉島,2026-01-30,23.25727,119.66762,0.998598
C1D640,外坪(五指山),2026-01-30,24.644447,121.090961,1.4436352e-08
C2R9A0,高士國小,2026-01-30,22.12553,120.84653,0.38514704
C0F9O0,潭子,2026-01-30,24.213106,120.703933,9.936191e-09
C2H9R0,卓社,2026-01-30,23.887894,121.000086,6.253173e-09
72T250,花蓮農改場,2026-01-30,23.975222,121.563889,3.1517942e-08
C0E780,銅鑼,2026-01-30,24.489681,120.790853,5.219155e-06
C1T950,太安,2026-01-30,23.666719,121.370128,1.7193269e-08
C0E830,苑裡,2026-01-30,24.439714,120.653053,0.3741427
467270,田中,2026-01-30,23.873803,120.581286,1.5593787e-09
C0SA10,檳榔四格山,2026-01-30,22.810031,121.109308,5.5507005e-08
C1T830,布洛灣,2026-01-30,24.17184,121.57127,5.6477766e-08
C0F970,大坑,2026-01-30,24.173142,120.722289,1.0703353e-08
C1U920,思源,2026-01-30,24.393125,121.347214,3.1069455e-08
C2H9Y0,松茗,2026-01-30,23.8167,120.650765,1.4304615e-09
C0A931,三和,2026-01-30,25.233153,121.595236,5.726648e-06
C0I010,廬山,2026-01-30,24.033311,121.181808,1.3476579e-08
C2M940,日野賀,2026-01-30,23.434056,120.727169,5.996632e-09
C0R860,鼻頭,2026-01-30,22.1043,120.8979,0.9994321
C0UB20,壯圍,2026-01-30,24.7359,121.8163,3.322697e-08
C0R790,九棚,2026-01-30,22.14195,120.889281,0.99996805
C0W110,東莒,2026-01-30,25.9652,119.98069,0.15522581
C1U930,粉鳥林,2026-01-30,24.497088,121.842479,8.053978e-08
C1I211,蘆竹湳,2026-01-30,23.934019,120.811994,2.291087e-09
C0S830,長濱,2026-01-30,23.286817,121.411975,1.9794427e-08
C1F9F1,伯公龍,2026-01-30,24.272392,120.849047,5.007221e-09
C0UB90,太平山莊,2026-01-30,24.494171,121.536209,4.202294e-08
C0E810,西湖,2026-01-30,24.562947,120.7485,0.7649769
C1I440,新高口,2026-01-30,23.478744,120.878939,2.5435265e-08
C0O840,王爺宮,2026-01-30,23.222064,120.40085,9.973098e-10
C0T9G0,鳳林山,2026-01-30,23.735269,121.420131,3.2742108e-08
C0X080,佳里,2026-01-30,23.173039,120.145086,0.119559385
C0FB70,大甲溪埔,2026-01-30,24.370625,120.620067,0.9180127
C0Z310,清水斷崖,2026-01-30,24.218294,121.689142,6.780784e-08
C0M680,太保,2026-01-30,23.455062,120.331455,1.5996326e-05
C1S820,金峰,2026-01-30,22.590969,120.933236,1.4766114e-06
C0AD10,八里,2026-01-30,25.150211,121.403947,0.00013297064
C2K240,草嶺,2026-01-30,23.59555,120.693461,5.3383187e-09
C1SA70,都蘭,2026-01-30,22.87794,121.226881,5.9010315e-08
C0K440,二崙,2026-01-30,23.772797,120.408944,2.0413724e-09
C1A760,坪林交控,2026-01-30,24.94284,121.713442,2.4026372e-07
C0F9N0,大里,2026-01-30,24.092464,120.701378,1.6611758e-09
C0SA90,達仁林場,2026-01-30,22.264347,120.823972,2.3874358e-08
C1R290,石門山,2026-01-30,22.112611,120.756597,0.9999241
42HA10,萬大發電廠,2026-01-30,23.978875,121.139639,4.7883333e-09
C0R890,山海,2026-01-30,21.9878,120.7091,0.9912993
C0T9A0,月眉山,2026-01-30,23.809928,121.539828,2.174631e-08
C0AC70,信義,2026-01-30,25.037822,121.564597,6.514278e-08
C0K560,棋山,2026-01-30,23.68645,120.603417,1.087997e-09
C2FB50,出雲,2026-01-30,24.206469,120.902794,5.925311e-09
C1Z240,中平林道,2026-01-30,23.42115,121.26763,3.2937788e-08
U2H480,溪頭,2026-01-30,23.670306,120.798194,5.352878e-09
C0M880,好美里,2026-01-30,23.3364,120.138,0.07420505
C0T9E0,大坑,2026-01-30,23.880628,121.581981,3.3186563e-08
C0K530,臺西,2026-01-30,23.701547,120.197559,0.5670934
C1E900,國一N128K,2026-01-30,24.560997,120.844186,8.742402e-05
C0AJ50,水湳洞,2026-01-30,25.123695,121.862238,3.1739074e-07
C0AI20,白沙灣,2026-01-30,25.283128,121.519058,0.0018698624
C2V310,美濃,2026-01-30,22.898792,120.51907,2.0621367e-09
C0A860,大坪,2026-01-30,25.165914,121.632969,9.772134e-08
C1U850,觀音海岸,2026-01-30,24.38319,121.77856,2.2722704e-08
C2K610,草嶺石壁,2026-01-30,23.602469,120.707731,5.5156173e-09
C0U950,鶯子嶺,2026-01-30,24.89754,121.79244,8.6802515e-08
C0O900,善化,2026-01-30,23.112883,120.297219,0.04516213
C0K550,蔦松,2026-01-30,23.514319,120.229736,0.00037089895
E2P980,林試六龜中心,2026-01-30,22.991703,120.645722,1.5969582e-09
C0E590,通霄,2026-01-30,24.471892,120.704622,0.6977362
C1I310,西巒,2026-01-30,23.754486,120.883956,7.80956e-09
C0A550,泰平,2026-01-30,24.971197,121.823711,1.4204792e-07
C0I360,水里,2026-01-30,23.812553,120.849792,1.1720022e-09
C0R830,高士,2026-01-30,22.121825,120.836781,0.99928504
C1I101,溪頭,2026-01-30,23.661789,120.807647,1.2187132e-08
C0AJ20,野柳,2026-01-30,25.20703,121.690021,0.00015425186
C0B060,暖暖,2026-01-30,25.0957,121.7403,3.730782e-07
C1H920,長豐,2026-01-30,24.102039,120.879897,3.1454506e-09
C2S9B0,利吉,2026-01-30,22.86246,121.15486,3.6997367e-08
C0V360,內門,2026-01-30,22.975481,120.466769,1.8781772e-09
C0R850,林邊,2026-01-30,22.4634,120.5339,0.005920606
C0E930,龍鳳,2026-01-30,24.700034,120.859125,0.0017254247
C0U910,冬山,2026-01-30,24.63373,121.7937,3.7826798e-08
C1E721,泰安,2026-01-30,24.489017,120.968036,1.3407841e-08
82H320,茶改中部分場,2026-01-30,23.875611,120.913583,3.5080068e-09
C0M750,布袋,2026-01-30,23.380878,120.167789,0.0022860821
C1S860,利嘉,2026-01-30,22.809417,121.050528,3.9554756e-08
E2S980,林試太麻里1,2026-01-30,22.598922,120.980044,6.334805e-06
C0X170,關廟,2026-01-30,22.963017,120.327797,0.0054151197
C0V720,林園,2026-01-30,22.507747,120.394511,0.002016
C1I510,線浸林道,2026-01-30,23.761508,120.832956,6.326196e-09
C0D690,外湖,2026-01-30,24.917735,120.968711,0.03009395
C0C750,新興坑尾,2026-01-30,25.0061,121.0971,1.9529107e-06
B2Q810,畜試南區分所,2026-01-30,21.945583,120.802167,0.9835389
C0S790,金崙,2026-01-30,22.538122,120.966875,1.0527177e-06
C0AH90,福山植物園,2026-01-30,24.760717,121.58135,5.5829364e-08
C0I540,奇萊稜線,2026-01-30,24.109231,121.326456,4.6035975e-08
C0M850,表湖,2026-01-30,23.24186,120.64166,3.4293788e-09
C0S770,大溪山,2026-01-30,22.478475,120.943325,2.0542771e-07
C0AG80,中和,2026-01-30,24.991622,121.491792,5.885856e-08
C0T790,大禹嶺,2026-01-30,24.186117,121.316086,3.29711e-08
C0T9B0,水源,2026-01-30,23.991861,121.537169,3.2728998e-08
C0R840,牡丹池山,2026-01-30,22.168389,120.841225,3.9997587e-08
C1I131,桶頭,2026-01-30,23.641944,120.654117,1.2746252e-09
CAL110,布袋國中,2026-01-30,23.35893,120.18026,0.078616075
C2M9D0,何竹子腳,2026-01-30,23.53641,120.38203,9.66919e-10
C0Z290,赤柯山,2026-01-30,23.36893,121.38293,2.4847006e-08
C0X280,將軍,2026-01-30,23.214999,120.13577,0.09252556
C0S690,太麻里,2026-01-30,22.60902,120.98533,8.3515545e-08
C0U880,北關,2026-01-30,24.9072,121.8734,3.197312e-07
CAW010,東引,2026-01-30,26.3588,120.4836,0.42374992
C0G810,埔心,2026-01-30,23.947633,120.525456,3.6483646e-06
C0U970,大福,2026-01-30,24.80064,121.81389,3.3419365e-08
C2H9N0,仁愛東眼,2026-01-30,24.026875,121.1205,7.945929e-09
C1E670,南礦,2026-01-30,24.538278,121.002836,1.2591562e-08
C0M520,東後寮,2026-01-30,23.369908,120.248065,0.040878784
C1E461,松安,2026-01-30,24.397972,120.986022,1.1808503e-08
C2N160,西拉雅風管處,2026-01-30,23.189481,120.335297,0.0030835136
C2M970,碧湖,2026-01-30,23.568632,120.624165,3.457278e-09
C0A640,石碇,2026-01-30,24.993969,121.662917,2.4026372e-07
E2S960,林試太麻里2,2026-01-30,22.598,120.99775,2.8052542e-05
C0F9Y0,桃山,2026-01-30,24.432739,121.303808,5.0414158e-08
C1I020,萬大,2026-01-30,23.979817,121.132261,5.684594e-09
C2UC20,長嶺,2026-01-30,24.70894,121.61162,2.8291433e-08
C0U940,羅東,2026-01-30,24.68184,121.74934,3.179302e-08
C0M650,朴子,2026-01-30,23.43463,120.23902,2.348399e-05
C1I500,大尖山,2026-01-30,23.858572,120.994889,1.4817905e-08
C0FB40,中橫21.6k,2026-01-30,24.2499,121.1455,8.87043e-09
C0G820,田尾,2026-01-30,23.901669,120.509389,2.7798128e-06
E2K600,四湖植物園,2026-01-30,23.676986,120.163433,0.279732
C0S730,綠島,2026-01-30,22.6672,121.47533,0.99995476
12Q970,東港工作站,2026-01-30,22.479997,120.466058,0.005920606
C1TA00,太魯閣,2026-01-30,24.15773,121.6236,6.007166e-08
466920,臺北,2026-01-30,25.037658,121.514853,6.544953e-08
C0R600,舊泰武,2026-01-30,22.588194,120.664944,9.5158565e-09
C1I260,北坑,2026-01-30,23.9246,121.006903,2.5290803e-09
466910,鞍部,2026-01-30,25.182586,121.529731,2.8942696e-07
C1I230,九份二山,2026-01-30,23.961944,120.845,3.2330711e-09
C2M810,里佳,2026-01-30,23.389125,120.716647,7.760751e-09
C2A660,瑞芳,2026-01-30,25.113169,121.801147,3.652253e-07
C0R270,琉球嶼,2026-01-30,22.332244,120.362236,0.00057898724
C2V580,瑞山,2026-01-30,22.90304,120.43424,1.839645e-09
C1T990,高寮,2026-01-30,23.394239,121.356808,2.1045432e-08
C0G620,芬園,2026-01-30,24.015678,120.6213,8.2867835e-08
C1Z140,荖溪,2026-01-30,23.890575,121.45964,4.412256e-08
C1I201,中心崙,2026-01-30,23.728722,120.712097,2.1206115e-09
C1I400,凌霄,2026-01-30,24.018778,121.004456,7.836941e-09
C1M640,十字,2026-01-30,23.492153,120.753683,9.8549755e-09
G2P820,農試鳳山分所,2026-01-30,22.646611,120.356083,0.006917766
C0Z270,蕃薯寮,2026-01-30,23.73835,121.540108,2.3331097e-08
C2E420,竹南,2026-01-30,24.70898,120.88897,0.0005313711
C0FB10,出雲山苗圃,2026-01-30,24.23105,120.90475,5.2284403e-09
C0F9Q0,外埔,2026-01-30,24.347817,120.705686,5.368822e-08
C0K580,高鐵雲林,2026-01-30,23.737456,120.417944,1.8954731e-09
C2I090,鳳凰,2026-01-30,23.728081,120.787347,3.4628744e-09
C0U990,員山,2026-01-30,24.74435,121.72247,3.2053872e-08
C0V770,大社,2026-01-30,22.730306,120.346639,0.007899511
C0X120,麻豆,2026-01-30,23.183289,120.248611,0.014180277
C0C670,龍潭,2026-01-30,24.870056,121.221389,2.5409614e-08
C0D680,香山濕地,2026-01-30,24.783581,120.914988,0.03010143
C0S980,勝林山,2026-01-30,22.430439,120.8938,4.3999613e-08
C0V730,大寮,2026-01-30,22.605614,120.395717,0.0016364979
C0R570,麟洛,2026-01-30,22.65078,120.52719,2.0074229e-07
C2M930,石卓,2026-01-30,23.478744,120.702264,9.687155e-09
C0G9B0,和美,2026-01-30,24.105169,120.492131,0.0017221302
CAG100,王功漁港,2026-01-30,23.96824,120.32586,0.45128775
C0X290,北門,2026-01-30,23.267772,120.125481,0.10223044
C2F930,大甲,2026-01-30,24.347667,120.640403,5.8970368e-06
C0D650,湖口,2026-01-30,24.904794,121.043628,2.4521006e-07
C0U780,五結,2026-01-30,24.68637,121.79794,3.7826798e-08
C1I250,鯉潭,2026-01-30,23.961922,120.991131,3.004417e-09
C0R130,阿禮,2026-01-30,22.742908,120.743678,6.214329e-09
C0X100,臺南市北區,2026-01-30,23.010394,120.194228,0.22536422
C0S920,金峰嘉蘭,2026-01-30,22.594789,120.960825,6.3264374e-06
C0V490,新興,2026-01-30,22.627422,120.298803,0.02255582
C0F9K0,大安,2026-01-30,24.345061,120.588025,0.9180127
467290,古坑,2026-01-30,23.633639,120.551889,1.0482941e-09
C2E970,八甲,2026-01-30,24.535811,120.795983,9.110123e-06
C0V440,鳳山,2026-01-30,22.646653,120.356122,0.006917766
C1T940,大觀,2026-01-30,23.714206,121.373133,2.4089344e-08
C0E740,造橋,2026-01-30,24.637056,120.864778,0.007880878
C0R100,尾寮山,2026-01-30,22.833111,120.683889,6.36931e-09
A2K630,臺大雲林校區,2026-01-30,23.730628,120.423903,1.8538082e-09
467990,馬祖,2026-01-30,26.169467,119.923158,9.106601e-05
C0D580,寶山,2026-01-30,24.735006,121.025192,3.1243214e-08
E2P990,林試扇平站,2026-01-30,22.9677,120.6857,4.0716963e-09
C0AI30,三重,2026-01-30,25.057328,121.500629,6.574794e-08
C0AH00,汐止,2026-01-30,25.066881,121.658778,2.3024042e-07
C1Z040,立山,2026-01-30,23.443356,121.327375,2.58266e-08
466881,新北,2026-01-30,24.959207,121.525196,5.7609817e-08
C0W130,花嶼,2026-01-30,23.40007,119.32276,0.9986225
C0A950,鼻頭角,2026-01-30,25.129036,121.923372,3.3081312e-07
C0K470,林內,2026-01-30,23.748675,120.609642,1.0920282e-09
C2F990,摩天嶺,2026-01-30,24.322458,120.936819,5.433535e-09
C2E430,南庄,2026-01-30,24.601775,121.000214,2.8333284e-08
82C160,茶改場,2026-01-30,24.908472,121.185333,1.816803e-07
C2TB60,南安,2026-01-30,23.29818,121.26157,2.056674e-08
C0Z320,清水林道,2026-01-30,23.27125,121.188272,2.3620304e-08
C0R760,南仁湖,2026-01-30,22.084681,120.863353,0.9999241
C0M670,大林,2026-01-30,23.600616,120.45841,8.9724367e-10
C0M800,茶山,2026-01-30,23.299075,120.664767,1.1956263e-09
C0A9C0,天母,2026-01-30,25.117494,121.537169,6.407305e-08
72K220,南改斗南分場,2026-01-30,23.634556,120.477333,1.6358958e-09
72AI40,桃改樹林分場,2026-01-30,24.944503,121.386972,5.8217683e-08
C0S910,蘭嶼燈塔,2026-01-30,22.081197,121.503117,0.9997454
C0B050,八斗子,2026-01-30,25.144754,121.79167,5.8834314e-07
C0U900,內城,2026-01-30,24.71813,121.68766,3.0750037e-08
C0X320,柳營,2026-01-30,23.253328,120.375253,1.0122637e-09
C0M790,新港,2026-01-30,23.553269,120.345728,2.4604553e-05
C0F9T0,西屯,2026-01-30,24.179494,120.641275,3.008163e-08
C0E950,松安,2026-01-30,24.39792,120.98599,1.1808503e-08
C0SA30,都歷,2026-01-30,23.020333,121.323642,7.2207094e-08
C0C620,蘆竹,2026-01-30,25.084275,121.265767,1.2664225e-06
C0R730,大坪頂,2026-01-30,22.024633,120.69355,0.9999501
C0AJ40,石門,2026-01-30,25.273672,121.601198,5.332779e-05
C0E750,苗栗,2026-01-30,24.564569,120.824575,0.00011086662
C0T870,鯉魚潭,2026-01-30,23.935639,121.508944,2.846643e-08
C1V170,排雲,2026-01-30,23.463619,120.954147,4.61891e-08
C2H950,中寮,2026-01-30,23.884447,120.766406,1.3986955e-09
C0R350,貓鼻頭,2026-01-30,21.921774,120.7358,0.99421
C0V660,岡山,2026-01-30,22.797078,120.294958,0.024048848
C1H941,雙冬,2026-01-30,23.967378,120.802189,2.324731e-09
C0AJ70,田寮,2026-01-30,25.2698,121.4886,0.0019431389
C0AI00,五股,2026-01-30,25.07445,121.42728,4.9501335e-08
C0Z280,德武,2026-01-30,23.47426,121.41071,1.9096008e-08
C2RA10,大新,2026-01-30,22.67558,120.57788,1.5460267e-07
C0R700,枋山,2026-01-30,22.246844,120.661086,0.9680338
C0C460,復興,2026-01-30,24.820208,121.352281,2.7979594e-08
C2K300,鹿南,2026-01-30,23.63855,120.3636,2.184783e-05
E2H360,蓮華池,2026-01-30,23.918333,120.885278,2.8312797e-09
C0M640,中埔,2026-01-30,23.42538,120.5229,7.3020145e-10
C0W140,金沙,2026-01-30,24.488292,118.408778,5.0605777e-08
C2A540,四堵,2026-01-30,24.8926,121.745736,1.4030535e-07
C0ACA0,新莊,2026-01-30,25.051478,121.446756,6.103116e-08
C0R220,潮州,2026-01-30,22.534361,120.54,0.003613036
U2HA40,臺大內茅埔,2026-01-30,23.689722,120.851117,1.963813e-09
467490,臺中,2026-01-30,24.145736,120.684075,1.3435258e-08
C0UB60,明池,2026-01-30,24.650688,121.475277,4.718552e-08
C0U960,翠峰湖,2026-01-30,24.510856,121.608044,4.090848e-08
E2HA20,林試畢祿溪站,2026-01-30,24.226944,121.308522,2.2277003e-08
C2M9A0,大華,2026-01-30,23.4824,120.67491,4.664324e-09
C0V890,前鎮,2026-01-30,22.5718,120.3117,0.012696728
C1F941,雪嶺,2026-01-30,24.280586,121.026642,3.0752087e-08
C2H9E0,國姓南港,2026-01-30,23.911108,120.846556,5.4603393e-09
C0AC80,文山,2026-01-30,25.00235,121.575728,8.1046146e-08
C0F9R0,龍井,2026-01-30,24.184536,120.528972,0.83860856
C0M760,民雄,2026-01-30,23.551754,120.428457,8.9724367e-10
C0UA40,西德山,2026-01-30,24.560647,121.752608,4.09187e-08
C2TA70,赤科坪,2026-01-30,23.39885,121.39168,2.5949202e-08
C1T920,中興,2026-01-30,23.769503,121.498653,2.5743631e-08
C0D550,雪霸,2026-01-30,24.526972,121.11605,1.9683588e-08
C2F860,梨山,2026-01-30,24.247522,121.243669,2.4515504e-08
C0R320,車城,2026-01-30,22.0744,120.716247,0.9990204
C1S870,南美山,2026-01-30,23.15025,121.382333,5.3545865e-08
C0B020,基隆嶼,2026-01-30,25.19141,121.78391,5.3403534e-07
C1U501,牛鬥,2026-01-30,24.637836,121.573656,3.0426122e-08
C0M730,嘉義市東區,2026-01-30,23.457673,120.460531,7.0394574e-10
C2R990,泰武,2026-01-30,22.60686,120.69765,1.29176785e-08
C0S700,知本,2026-01-30,22.684866,121.005642,3.743448e-08
C1N001,沙崙,2026-01-30,22.935472,120.309406,0.008037482
C0V760,橋頭,2026-01-30,22.757806,120.30575,0.00946552
C0G960,福寶,2026-01-30,24.0443,120.3814,0.0014138253
C0X210,白河,2026-01-30,23.347466,120.414427,9.2266333e-10
C0S810,東河,2026-01-30,22.972672,121.303986,8.248448e-08
C2R170,屏東,2026-01-30,22.66027,120.49403,2.4076513e-07
C0R670,楓港,2026-01-30,22.190131,120.692156,0.98013765
C0FA50,霧峰,2026-01-30,24.0419,120.6995,1.6061039e-09
C0UB10,蘇澳,2026-01-30,24.5969,121.8571,4.4123237e-08
C0G950,防潮門,2026-01-30,24.1835,120.4871,0.79701877
C0M740,六腳,2026-01-30,23.492871,120.290625,2.5892088e-05
C1R250,力里,2026-01-30,22.428117,120.629228,3.9360813e-08
C0K330,虎尾,2026-01-30,23.719183,120.442036,1.8538082e-09
C2FA00,烏石坑,2026-01-30,24.273503,120.947617,5.360807e-09
C0V620,永安,2026-01-30,22.82315,120.236856,0.02885418
C1I330,楓樹林,2026-01-30,23.986803,121.076117,6.1299454e-09
C0W200,湖西,2026-01-30,23.596314,119.67275,0.99627763
72Q010,高雄農改場,2026-01-30,22.709333,120.525889,1.6966752e-07
C0SA40,瑞和,2026-01-30,22.974361,121.156697,2.9133044e-08
C0C680,龜山,2026-01-30,25.02846,121.38656,4.615669e-08
C2V260,月眉,2026-01-30,22.971003,120.539853,1.6706095e-09
C0V450,鳳森,2026-01-30,22.545064,120.392592,0.00046321758
C0FA90,小雪山林道,2026-01-30,24.29515,121.03651,3.7107615e-08
C0U720,南山,2026-01-30,24.43742,121.38167,3.5449556e-08
A2N290,臺南蘭花園區,2026-01-30,23.340258,120.379661,1.0154642e-09
C0R560,新園,2026-01-30,22.5434,120.461558,0.002016
C0U890,三星,2026-01-30,24.66812,121.65302,2.952006e-08
C1V300,御油山,2026-01-30,23.001983,120.715364,1.2774929e-08
C0U600,礁溪,2026-01-30,24.817539,121.765608,3.2788854e-08
C1T980,龍澗,2026-01-30,24.023289,121.411328,6.210943e-08
C0D670,海天一線,2026-01-30,24.831986,120.914438,0.026958063
C0SA00,歷坵,2026-01-30,22.520969,120.89185,1.2876185e-07
C0M710,東石,2026-01-30,23.458927,120.15385,0.0021572022
C0M780,鹿草,2026-01-30,23.41134,120.30835,1.9440731e-05
C0U520,雙連埤,2026-01-30,24.753033,121.641303,3.873004e-08
C0B010,七堵,2026-01-30,25.094819,121.71713,5.116175e-07
C0R480,長治,2026-01-30,22.693128,120.542622,1.6009596e-07
C1V830,國三S383K,2026-01-30,22.781967,120.426475,3.3884834e-08
12Q980,恆春工作站,2026-01-30,22.079678,120.714425,0.99910104
C1O940,東山服務區,2026-01-30,23.286016,120.398472,1.0096008e-09
C1U840,東澳嶺,2026-01-30,24.5378,121.8485,3.7383177e-08
C1D630,飛鳳山,2026-01-30,24.766464,121.119178,1.6996818e-08
C0S940,石寧山,2026-01-30,23.223772,121.406639,0.10063129
C0K410,北港,2026-01-30,23.573957,120.292802,0.0001696796
C2M620,瑞里,2026-01-30,23.545133,120.675197,6.132261e-09
C0SB70,小港漁港,2026-01-30,23.158558,121.400431,0.8050877
C2O950,安南,2026-01-30,23.076694,120.144861,0.66040367
C0F0E0,南湖圈谷,2026-01-30,24.363714,121.444667,6.7433675e-08
467610,成功,2026-01-30,23.097486,121.373428,1.6033539e-07
C0G890,伸港,2026-01-30,24.148933,120.484403,0.79701877
C2E540,龍溪,2026-01-30,24.606489,120.783933,0.00028207304
C1V200,梅山,2026-01-30,23.268447,120.823556,4.515794e-09
C0T9H0,加路蘭山,2026-01-30,23.682947,121.5274,2.4549287e-08
C2O930,玉井,2026-01-30,23.126042,120.46055,7.381412e-10
C1F911,新伯公,2026-01-30,24.221361,120.841069,4.959033e-09
C0R490,九如,2026-01-30,22.7405,120.490503,2.1647017e-07
C0X200,左鎮,2026-01-30,23.056758,120.408522,2.4212692e-09
C2TB50,麻汝,2026-01-30,23.42554,121.39358,1.8318763e-08
C0FA60,鞍馬山工作站,2026-01-30,24.267064,121.000793,2.3798842e-08
C0SB50,叭嗡嗡,2026-01-30,23.047062,121.343223,2.0426923e-07
C1F891,稍來,2026-01-30,24.265689,121.001142,2.3254238e-08
C2M9C0,紫雲,2026-01-30,23.494914,120.540253,6.7971706e-10
72N240,七股研究中心,2026-01-30,23.081672,120.062894,0.71645737
C0C700,中壢,2026-01-30,24.977661,121.256375,1.3977355e-07
C0M690,水上,2026-01-30,23.419734,120.388909,9.381071e-10
C0V690,鼓山,2026-01-30,22.623325,120.275575,0.026543563
C0O860,大內,2026-01-30,23.11885,120.36083,0.029070541
C0Z200,萬榮,2026-01-30,23.709219,121.420106,2.6230458e-08
C0T9D0,和中,2026-01-30,24.26676,121.74103,1.014056e-07
C2S9A0,北份子寮,2026-01-30,22.78561,121.07813,9.397641e-07
C1O921,楠西,2026-01-30,23.183511,120.484083,7.3779777e-10
C0AJ30,淡水觀海,2026-01-30,25.184591,121.408616,0.00015314273
C0V810,左營,2026-01-30,22.67491,120.28491,0.019107819
C0UA70,桃源谷,2026-01-30,24.962606,121.888875,1.0009886e-07
C0X130,官田,2026-01-30,23.193217,120.315422,0.004859082
C1H000,翠峰,2026-01-30,24.109397,121.205211,2.6822242e-08
C0UA90,石城,2026-01-30,24.980444,121.951214,3.0658884e-07
C1E681,南勢山,2026-01-30,24.421669,120.923831,7.96903e-09
C0A9F0,內湖,2026-01-30,25.079422,121.57545,6.514278e-08
C0K291,宜梧,2026-01-30,23.536281,120.169329,0.59867126
C1K540,口湖,2026-01-30,23.585344,120.180517,0.6016916
C0R780,滿州,2026-01-30,22.024403,120.839892,0.99922824
C0V870,文安,2026-01-30,22.8025,120.2164,0.030293323
C0U650,玉蘭,2026-01-30,24.675286,121.587061,2.826328e-08
C0R640,東港,2026-01-30,22.46247,120.44074,0.0025395066
C0AJ80,板橋,2026-01-30,25.0107,121.4489,6.0132194e-08
C0S660,下馬,2026-01-30,23.150427,121.070312,2.0344507e-08
C2N190,烏樹,2026-01-30,23.32393,120.36989,0.004708046
C1H9B1,阿眉,2026-01-30,24.1263,120.994672,1.2605258e-08
C0UA20,多加屯,2026-01-30,24.368614,121.373189,3.387501e-08
C0E730,頭份,2026-01-30,24.688247,120.912206,0.0007354235
72V140,高改旗南分場,2026-01-30,22.857861,120.516667,1.2864488e-07
C0K480,莿桐,2026-01-30,23.761192,120.502372,1.5656402e-09
C0U980,坪林石牌,2026-01-30,24.86478,121.77396,7.0111106e-08
C0T900,西林,2026-01-30,23.8119,121.441458,2.3697424e-08
C1I150,青雲,2026-01-30,23.793361,120.949378,1.6384314e-09
C2E980,和興,2026-01-30,24.505319,120.923016,7.174346e-09
467350,澎湖,2026-01-30,23.565503,119.563094,0.99721754
C0G800,埔鹽,2026-01-30,24.000394,120.431683,0.0011479855
C0H960,草屯,2026-01-30,23.973672,120.68085,1.3990797e-09
C1V780,多納林道,2026-01-30,22.888028,120.737917,7.0008848e-09
C0E920,通霄漁港,2026-01-30,24.498589,120.673876,0.8069905
C0Z330,安通山,2026-01-30,23.290728,121.348528,1.8260332e-08
C0AH10,永和,2026-01-30,25.01125,121.508111,6.0132194e-08
C0AK10,太平里,2026-01-30,25.134937,121.364899,8.634077e-05
C2G640,鹿港,2026-01-30,24.0753,120.430481,0.0019334476
C1E890,國三N149K,2026-01-30,24.463414,120.680019,0.6530652
C1R110,口社,2026-01-30,22.770111,120.645222,4.4339124e-08
C1M870,國三N285K,2026-01-30,23.550319,120.505833,6.865655e-10
C1E480,鳳美,2026-01-30,24.554803,121.034747,8.224032e-09
C0T9M0,靜浦,2026-01-30,23.455167,121.495028,2.1660952e-08
C2H9M0,發祥,2026-01-30,24.154094,121.164517,7.862229e-09
C2G9C0,埔南,2026-01-30,23.99124,120.46969,0.0011479855
C0AI40,石牌,2026-01-30,25.115597,121.513139,6.514278e-08
C1F871,上谷關,2026-01-30,24.203483,121.018644,5.3885882e-09
C2H9G0,百勝,2026-01-30,24.051142,120.909361,2.227712e-09
C0G880,二水,2026-01-30,23.810742,120.6173,1.0858555e-09
C0R940,加祿堂,2026-01-30,22.3363,120.6217,0.25448418
C0W220,北竿,2026-01-30,26.220358,119.974881,0.0018083164
C0O960,崎頂,2026-01-30,22.959547,120.369317,0.0005034659
C0TA40,秀林,2026-01-30,24.302864,121.731144,2.9896075e-08
C0S750,向陽,2026-01-30,23.248397,120.986133,2.7024415e-08
C0T9F0,水璉,2026-01-30,23.797131,121.542514,2.2492529e-08
C1M600,頭凍,2026-01-30,23.406364,120.603339,3.0206724e-09
467660,臺東,2026-01-30,22.752211,121.154586,0.0006629662
C1D380,新埔,2026-01-30,24.84745,121.03834,1.3206375e-07
C2G980,田頭村,2026-01-30,23.8263,120.444175,2.0413724e-09
C0V750,路竹,2026-01-30,22.854997,120.259439,0.01908533
C0N050,蚵寮,2026-01-30,23.301,120.1104,0.10223044
C2X060,下營,2026-01-30,23.226806,120.256291,0.018320292
72M700,南改鹿草分場,2026-01-30,23.416869,120.283061,2.348399e-05
C1SA50,利嘉林道,2026-01-30,22.82325,121.009389,3.6226314e-08
C0UB70,太平山中間站,2026-01-30,24.542003,121.513453,2.7899498e-08
C0A940,金山,2026-01-30,25.223628,121.643967,0.00014130701
C1V340,大津,2026-01-30,22.888322,120.645986,2.6924397e-08
C0W180,七美,2026-01-30,23.219333,119.444892,0.9993522
C1F9C1,白冷,2026-01-30,24.182844,120.929889,3.343809e-09
K2E710,苗改生物防治研究中心,2026-01-30,24.422861,120.871833,6.808946e-08
C0N040,蘆竹溝,2026-01-30,23.2344,120.0961,0.10223044
C0TB40,崇德,2026-01-30,24.166144,121.657414,1.5791285e-07
C0D760,大坪苗圃,2026-01-30,24.5362,121.1108,1.45286405e-08
C2W230,畜試所澎湖,2026-01-30,23.628342,119.513206,0.9940522
C0R880,後壁湖,2026-01-30,21.9457,120.7457,0.9905098
C1I280,埔中,2026-01-30,23.820778,120.642594,1.4545797e-09
467790,墾丁雷達站,2026-01-30,21.948235,120.808028,0.9892166
C0W190,望安,2026-01-30,23.380564,119.494075,0.9983035
C0Z170,卓溪,2026-01-30,23.3443,121.3029,1.926271e-08
C0F850,東勢,2026-01-30,24.246428,120.833047,5.0105555e-09
466900,淡水,2026-01-30,25.164889,121.448906,2.1725455e-05
C0I370,魚池,2026-01-30,23.895703,120.94135,2.8536815e-09
C0C630,大溪,2026-01-30,24.882853,121.265547,1.4078653e-07
C0A520,山佳,2026-01-30,24.974944,121.402008,5.8047373e-08
C0I110,竹山,2026-01-30,23.761225,120.688156,1.0221117e-09
82H840,茶改南部分場,2026-01-30,23.762528,120.7405,1.3422368e-09
C2SD80,再來山,2026-01-30,23.34371,121.44122,3.3433214e-05
C0G660,溪湖,2026-01-30,23.94835,120.479122,3.9208703e-06
C1T800,洛韶,2026-01-30,24.204558,121.453956,3.1523655e-08
C1T810,慈恩,2026-01-30,24.192044,121.388386,3.471685e-08
C1E451,象鼻,2026-01-30,24.368617,120.940228,5.415119e-09
C0AC60,三峽,2026-01-30,24.939025,121.369728,1.1137948e-07
C0I490,萬大林道,2026-01-30,23.928228,121.091411,9.306509e-09
C1I290,豐丘,2026-01-30,23.668178,120.887417,9.41411e-09
C1I320,奧萬大,2026-01-30,23.952956,121.178556,8.939524e-09
C2M910,嘉義大學,2026-01-30,23.471325,120.485903,7.077085e-10
C0U770,南澳,2026-01-30,24.44935,121.81022,7.956472e-08
C2TB30,吉安,2026-01-30,23.94538,121.54803,3.0336132e-08
C0A980,社子,2026-01-30,25.109508,121.469681,1.1414839e-07
C0V800,六龜,2026-01-30,22.997889,120.633583,1.6186298e-09
C1G9D0,國一S218K,2026-01-30,23.890641,120.493253,4.164754e-06
C0E570,白沙屯,2026-01-30,24.549447,120.696803,0.8413121
C2F9A0,中竹林,2026-01-30,24.103556,120.751061,1.6925604e-09
C0FA40,臺中電廠,2026-01-30,24.2146,120.4907,0.8576906
C2G9A0,畜試所彰化,2026-01-30,23.86045,120.557964,1.5593787e-09
C0H9C0,合歡山,2026-01-30,24.143442,121.272547,4.539155e-08
G2M350,農試溪口農場,2026-01-30,23.58565,120.408111,9.0208097e-10
C0U860,頭城,2026-01-30,24.85323,121.8308,6.104711e-08
C0R580,南州,2026-01-30,22.48591,120.50274,0.005920606
C0D430,峨眉,2026-01-30,24.6905,121.017189,4.898065e-08
C0G780,秀水,2026-01-30,24.03405,120.503869,2.867468e-06
72N100,臺南農改場,2026-01-30,23.0605,120.342194,0.025055561
C0S900,蘭嶼高中,2026-01-30,22.04909,121.51214,0.9998252
C2TA60,六十石,2026-01-30,23.22477,121.31861,2.4106166e-08
C1F9W0,德基,2026-01-30,24.254783,121.190261,2.1316712e-08
C2M980,安和,2026-01-30,23.51377,120.31593,2.143914e-05
C1Z120,壽豐,2026-01-30,23.870853,121.508081,2.8827595e-08
C0W160,烏坵,2026-01-30,24.9944,119.44956,0.80972356
C1I240,外大坪,2026-01-30,23.958697,120.917931,3.1435434e-09
C1I550,國六W023K,2026-01-30,23.979067,120.867742,1.623094e-09
C0R870,興海,2026-01-30,21.9752,120.8439,0.9835389
C0R140,瑪家,2026-01-30,22.682903,120.686639,4.0523194e-09
C0A530,坪林,2026-01-30,24.938183,121.70975,1.9960319e-07
C0X260,後壁,2026-01-30,23.366358,120.362326,0.00972105
C0Z230,和平,2026-01-30,24.30717,121.77007,3.5438468e-08
C0G770,福興,2026-01-30,24.041289,120.437669,0.0011479855
C0H9A0,神木村,2026-01-30,23.532742,120.843667,9.723289e-09
C0I460,南投,2026-01-30,23.911469,120.687331,1.4152962e-09
C0I480,梅峰,2026-01-30,24.085272,121.173572,2.0692692e-08
C1V570,吉東,2026-01-30,22.85422,120.5454,1.177056e-07
C2A560,福山,2026-01-30,24.776203,121.502811,2.8261068e-08
C0AH30,五分山,2026-01-30,25.07125,121.780794,1.0420851e-07
C0FA10,松柏,2026-01-30,24.429115,120.617482,0.45535716
72S200,東改班鳩分場,2026-01-30,22.829528,121.077694,1.1637757e-07
72HA00,中改埔里分場,2026-01-30,23.903208,120.963364,2.7891023e-09
C2H9W0,大坪頂農水,2026-01-30,24.043122,120.932781,3.0219978e-09
C0C650,平鎮,2026-01-30,24.897503,121.214636,1.5478132e-07
C0S930,延平,2026-01-30,22.902581,121.084058,2.8104912e-08
C0UA60,樟樹山,2026-01-30,24.41393,121.78325,2.2515536e-08
C2UC10,出水溪,2026-01-30,24.615822,121.652253,3.7809414e-08
C1S670,摩天,2026-01-30,23.199503,121.027,2.0150063e-08
C2C590,觀音,2026-01-30,25.027072,121.153317,1.3978228e-05
C0V630,茄萣,2026-01-30,22.906642,120.182608,0.11905383
466940,基隆,2026-01-30,25.133314,121.740475,5.8165125e-07
C0X050,東河,2026-01-30,23.296598,120.385608,1.0154642e-09
C0R770,保力,2026-01-30,22.071122,120.764111,0.9998634
G2L020,農試嘉義分所,2026-01-30,23.485028,120.473806,7.1453365e-10
C0X240,關子嶺,2026-01-30,23.331169,120.508025,1.0407991e-09
C0I380,集集,2026-01-30,23.828206,120.801467,1.1455605e-09
466990,花蓮,2026-01-30,23.975128,121.613275,5.7574887e-08
C1V220,小關山,2026-01-30,23.154217,120.813603,1.3431902e-08
C1F9G1,慶福山,2026-01-30,24.180853,120.848378,6.0731535e-09
C0FB20,雪山橋,2026-01-30,24.23192,120.9786,1.8310205e-08
C0Z250,瑞穗林道,2026-01-30,23.49284,121.30688,3.485918e-08
C0D590,新豐,2026-01-30,24.87068,120.97721,0.00541588
C0A870,五指山,2026-01-30,25.132153,121.608692,3.2210679e-07
C0UA50,西帽山,2026-01-30,24.555361,121.802628,3.7358017e-08
C2R980,竹田國中,2026-01-30,22.61532,120.52412,0.0031214575
C0X160,仁德,2026-01-30,22.968258,120.257689,0.055978123
C1H971,六分寮,2026-01-30,23.92507,120.6378,1.7800581e-09
C0W120,西嶼,2026-01-30,23.5626,119.468436,0.9972995
C0G650,員林,2026-01-30,23.946503,120.585597,7.6913824e-07
C0AD50,鶯歌,2026-01-30,24.951533,121.346294,2.1393515e-07
C2H9Q0,北東眼山,2026-01-30,24.120939,121.189303,2.0978543e-08
C2H9T0,名間竹圍,2026-01-30,23.859914,120.637572,1.2239028e-09
C0S990,山豬窟,2026-01-30,22.318619,120.857372,2.9715974e-08
C0X190,安平,2026-01-30,22.993161,120.152181,0.23580039
C0K400,斗六,2026-01-30,23.720583,120.541127,1.562624e-09
12J990,口湖工作站,2026-01-30,23.589978,120.180394,0.40625808
C0O830,北寮,2026-01-30,23.079561,120.495008,1.5656642e-09
C1D410,白蘭,2026-01-30,24.579364,121.079947,1.3202364e-08
C0S970,加津林,2026-01-30,22.416211,120.926942,4.9769893e-05
C0D700,關西,2026-01-30,24.7977,121.1732,2.1136023e-08
C0U750,龜山島,2026-01-30,24.841667,121.953133,6.9208035e-08
C0R810,內獅,2026-01-30,22.305064,120.642986,0.25448433
C1M390,龍美,2026-01-30,23.406728,120.654417,5.9271534e-09
C2K290,崙內,2026-01-30,23.69525,120.35601,2.184783e-05
C2FB60,頭櫃山,2026-01-30,24.129842,120.858925,5.324103e-09
C1H840,國三N238K,2026-01-30,23.841008,120.707711,1.1016076e-09
CAQ030,崎峰國小,2026-01-30,22.42565,120.49521,0.005920606
C2E520,大湖,2026-01-30,24.414939,120.870872,5.8674512e-08
467530,阿里山,2026-01-30,23.508208,120.813242,2.5346832e-08
C1E691,南湖,2026-01-30,24.40135,120.837533,1.10987965e-08
C0FA30,梧棲,2026-01-30,24.256003,120.523381,0.8224384
C1V231,高中,2026-01-30,23.134911,120.716711,3.3496435e-09
C0AK30,硬漢嶺,2026-01-30,25.136097,121.426372,2.839164e-07
C0F9V0,新社,2026-01-30,24.200172,120.815806,5.040154e-09
C0H890,埔里,2026-01-30,23.972169,120.952425,2.0940754e-09
C0R690,墾丁,2026-01-30,21.966756,120.810269,0.9999146
C0SD20,富山,2026-01-30,22.822383,121.190825,1.2930342e-07
C0F0D0,審馬陣,2026-01-30,24.381675,121.4203,5.7672704e-08
C2W030,金門農試所,2026-01-30,24.448431,118.451786,9.260374e-07
C0R820,白鷺,2026-01-30,22.454275,120.666219,1.0962172e-08
C0FB00,大雪山,2026-01-30,24.254668,121.007374,2.4048669e-08
C1V190,南天池,2026-01-30,23.27403,120.91176,2.9031312e-08
C0E940,雪見,2026-01-30,24.42595,121.01347,2.0360305e-08
K2E360,苗栗農改場,2026-01-30,24.495722,120.829111,1.3879281e-05
CAJ050,海口故事園區,2026-01-30,23.57543,120.14121,0.6016916
C2K280,四湖,2026-01-30,23.6304,120.22717,0.279732
C2H9D0,三隻寮,2026-01-30,24.093078,120.861578,2.8833904e-09
C0O990,媽廟,2026-01-30,22.99175,120.293525,0.027762506
C0D480,打鐵坑,2026-01-30,24.849664,121.150789,2.412484e-08
C0Z220,和平林道,2026-01-30,24.343922,121.656317,2.1003085e-08
C0TA10,花蓮漁港,2026-01-30,23.995322,121.638331,0.0002392298
72C440,桃園農改場,2026-01-30,24.950944,121.030583,3.2003567e-07
C1E711,馬拉邦山,2026-01-30,24.367306,120.901656,5.1143036e-09
C0SB20,富岡,2026-01-30,22.792467,121.192669,0.00016302358
C0D560,竹東,2026-01-30,24.767147,121.057881,4.0445684e-08
C0F9U0,南屯,2026-01-30,24.137006,120.637969,2.9766346e-08
C2SD60,明峰,2026-01-30,22.8671,121.11825,2.4338274e-08
C0M720,番路,2026-01-30,23.464657,120.554156,6.7888656e-10
C0F0A0,雪山圈谷,2026-01-30,24.388594,121.236339,5.1391723e-08
C1A9N0,四十份,2026-01-30,24.934158,121.593283,7.4233235e-08
C0U760,東澳,2026-01-30,24.52196,121.83318,7.562809e-08
C0X230,鹽水,2026-01-30,23.272621,120.247641,0.070732646
C2H9H0,苗改南投蜂場,2026-01-30,23.852589,120.693481,1.0238679e-09
C2TB70,達谷寮,2026-01-30,23.38,121.35968,2.0407818e-08
C0R950,萬隆國小,2026-01-30,22.507667,120.587817,0.0012134745
467540,大武,2026-01-30,22.35572,120.90374,0.99996513
C0V370,古亭坑,2026-01-30,22.893178,120.401947,2.022429e-09
C1I340,新興橋,2026-01-30,23.563333,120.868728,3.999917e-09
C0SA80,土坂,2026-01-30,22.453108,120.887572,5.8142778e-06
C0R160,鹽埔,2026-01-30,22.739558,120.530778,1.6966752e-07
C0AC40,大屯山,2026-01-30,25.175675,121.522408,2.0877219e-07
466850,五分山雷達站,2026-01-30,25.071182,121.781205,1.0374405e-07
C2H9L0,馬烈霸,2026-01-30,24.1512,121.201772,2.092651e-08
C1AI50,國三N016K,2026-01-30,25.034164,121.619664,1.0752219e-07
C2V920,匏子寮,2026-01-30,23.04905,120.55319,1.4590894e-09
C1V600,藤枝,2026-01-30,23.071961,120.757042,1.1711848e-08
C1E601,南勢,2026-01-30,24.572486,120.734842,0.5202486
C0O980,新市,2026-01-30,23.061614,120.298197,0.04516213
C0K420,西螺,2026-01-30,23.800407,120.467394,1.985897e-09
C0Z050,佳心,2026-01-30,23.34567,121.21316,2.4142746e-08
C0AD30,蘆洲,2026-01-30,25.086594,121.472331,6.0918346e-08
C0V610,梓官,2026-01-30,22.760558,120.267211,0.029442862
K2F750,種苗改良場,2026-01-30,24.225972,120.800917,5.04865e-09
C0UA80,大溪漁港,2026-01-30,24.941801,121.902955,3.4079645e-07
C1AI60,國一39K邊坡,2026-01-30,25.064361,121.383836,4.805307e-08
C0W150,金寧,2026-01-30,24.457703,118.328989,6.963227e-08
C0R960,內埔,2026-01-30,22.608483,120.570714,0.0031214575
V2C250,八德合作社,2026-01-30,24.93775,121.266389,1.6601004e-07
C2H9S0,龍南,2026-01-30,23.953536,120.833183,4.722845e-09
C0AH40,平等,2026-01-30,25.129142,121.577086,5.646349e-07
C0R540,佳冬,2026-01-30,22.419456,120.552375,0.005006214
466950,彭佳嶼,2026-01-30,25.627975,122.079744,0.99997133
C0A890,雙溪,2026-01-30,25.036003,121.864242,2.7542563e-07
C0C480,桃園,2026-01-30,24.992425,121.323172,1.5620132e-07
C0AH50,林口,2026-01-30,25.072181,121.38084,4.5556693e-08
A2K360,水試臺西試驗場,2026-01-30,23.717231,120.190522,0.5670934
C2M960,外寮,2026-01-30,23.562643,120.665688,5.031759e-09
C0F9S0,烏日,2026-01-30,24.107058,120.624103,6.2877975e-06
C2N180,鹿陶洋,2026-01-30,23.14325,120.48352,7.3779777e-10
C0C490,八德,2026-01-30,24.928708,121.283289,1.6357772e-07
C0R190,赤山,2026-01-30,22.592333,120.614306,0.0023306292
C0T820,天祥,2026-01-30,24.179597,121.495639,4.975037e-08
C1F9E1,龍安,2026-01-30,24.1605,120.831961,5.060672e-09
C2SD50,順那,2026-01-30,23.04166,121.29332,4.7446246e-08
C0V820,小林,2026-01-30,23.148408,120.63325,1.1233948e-09
C2G870,芳苑,2026-01-30,23.922303,120.320025,0.6786485
C0E850,大河,2026-01-30,24.618069,120.948578,4.2685272e-08
C1U670,寒溪,2026-01-30,24.634,121.71691,2.969903e-08
C0N020,城西,2026-01-30,23.0568,120.0956,0.67632705
C1Z110,三棧,2026-01-30,24.11557,121.60501,4.5547395e-08
C0R280,檳榔,2026-01-30,22.076078,120.836777,0.9999885
C2H9J0,中台,2026-01-30,23.9996,120.938739,2.479194e-09
C0F9L0,后里,2026-01-30,24.310436,120.729725,8.934717e-09
467441,高雄,2026-01-30,22.730432,120.312516,0.00946552
C0Z180,新城,2026-01-30,24.040486,121.604878,5.58643e-08
C0D540,橫山,2026-01-30,24.71116,121.11693,2.645288e-08
C1D420,太閣南,2026-01-30,24.632808,121.160575,1.856502e-08
C1E770,公館,2026-01-30,24.526914,120.830806,7.1346585e-05
CAN130,水試所海水繁養殖中心,2026-01-30,23.120802,120.07968,0.691861
C1I430,翠華,2026-01-30,24.191961,121.224339,2.78069e-08
C1M400,菜瓜坪,2026-01-30,23.251928,120.576103,1.1732838e-09
C0G730,二林,2026-01-30,23.903325,120.376081,0.00045431787
72M360,南改義竹分場,2026-01-30,23.360694,120.279361,0.02684463
V2K620,麥寮合作社,2026-01-30,23.753836,120.294783,0.00069374917
C0Z070,舞鶴,2026-01-30,23.46811,121.37407,1.8783428e-08
C0B040,大武崙,2026-01-30,25.166676,121.706993,4.922167e-07
C1Z030,紅葉,2026-01-30,23.493119,121.338806,1.8953836e-08
C1I050,丹大,2026-01-30,23.753747,121.141147,3.028023e-08
C0I080,信義,2026-01-30,23.689694,120.851036,1.963813e-09
C2TB80,庄子底,2026-01-30,23.71794,121.49438,2.6748367e-08
C0D750,樂山林道6k,2026-01-30,24.49999,121.08773,2.6821986e-08
C2M920,朴子農改,2026-01-30,23.469889,120.259383,2.348399e-05
C2A880,福隆,2026-01-30,25.017842,121.942083,3.212429e-07
C0Z160,鳳林,2026-01-30,23.746114,121.453411,2.6386113e-08
C0UB80,翠峰林道6K,2026-01-30,24.49773,121.568625,4.331209e-08
C0V210,復興,2026-01-30,23.222403,120.806089,3.4465197e-09
C0H990,昆陽,2026-01-30,24.121322,121.273642,3.8909665e-08
C0R741,獅子,2026-01-30,22.202308,120.705236,0.9044034
C0S710,鹿野,2026-01-30,22.917711,121.122994,2.1558485e-08
C0I530,小奇萊,2026-01-30,24.131764,121.295717,4.0214914e-08
C0FA70,大雪山埡口,2026-01-30,24.26867,121.03062,3.0519757e-08
C2K630,荷苞,2026-01-30,23.657717,120.595144,1.0557626e-09
C0Z080,富源,2026-01-30,23.587642,121.378225,2.782531e-08
C2M9E0,旺來山,2026-01-30,23.555153,120.486463,6.858771e-10
C0SB10,美和,2026-01-30,22.682078,121.060236,5.319251e-06
C2K620,馬光農場,2026-01-30,23.721453,120.378864,1.8954731e-09
C1I140,卡奈托灣,2026-01-30,23.754364,121.087872,1.2243679e-08
C0I520,玉山風口,2026-01-30,23.470489,120.955994,5.1288414e-08
C1G691,下水埔,2026-01-30,23.816114,120.5676,1.4934742e-09
C0X110,臺南市南區,2026-01-30,22.961189,120.188378,0.054158654
C0V680,仁武,2026-01-30,22.701083,120.347722,0.007899511
C2G840,北斗,2026-01-30,23.877586,120.514222,3.1862644e-06
C2TB90,長橋,2026-01-30,23.6874,121.46186,2.6401617e-08
C0R900,竹坑,2026-01-30,22.1385,120.7022,0.98013765
C0G860,社頭,2026-01-30,23.897647,120.5862,1.4138085e-06
C0X150,安定,2026-01-30,23.102614,120.227839,0.11309262
C0R590,里港,2026-01-30,22.77919,120.49459,1.4901707e-07
C0E610,馬都安,2026-01-30,24.451272,120.930192,6.815037e-09
C0E550,明德,2026-01-30,24.583486,120.885411,3.720936e-06
C0R150,三地門,2026-01-30,22.709889,120.639944,4.3179373e-08
C0G910,花壇,2026-01-30,24.032076,120.549461,2.6584853e-06
C1D400,鳥嘴山,2026-01-30,24.71909,121.28387,1.7260364e-08
C0K500,元長,2026-01-30,23.64981,120.315024,0.00030230085
C0F0B0,石岡,2026-01-30,24.276061,120.777644,7.875301e-09
C2V250,甲仙,2026-01-30,23.080106,120.591758,1.3862076e-09
C0SA20,金崙山,2026-01-30,22.567419,120.959667,3.7643265e-08
C0V350,溪埔,2026-01-30,22.738578,120.446797,1.625681e-07
C0M660,溪口,2026-01-30,23.604131,120.403569,9.0208097e-10
C1S880,壽卡,2026-01-30,22.238911,120.858903,4.2590205e-08
72D680,桃改新埔分場,2026-01-30,24.834444,121.066111,1.4263163e-07
