站號,站名,日期,lat,lon,BLBTSLS
C0R710,龍磐,2026-03-24,21.931672,120.838942,0.91902703
C1F9D1,白毛台,2026-03-24,24.158325,120.886933,3.9473244e-10
C0G940,竹塘,2026-03-24,23.848253,120.386764,1.4244798e-09
467590,恆春,2026-03-24,22.003897,120.746339,0.9886803
C1O850,環湖,2026-03-24,23.148617,120.418633,0.047614653
C0U710,太平山,2026-03-24,24.505486,121.525656,5.549766e-09
C0E820,獅潭,2026-03-24,24.539133,120.920042,8.6159296e-10
C2SD70,二層坪,2026-03-24,22.94105,121.16838,1.1453923e-09
C0V880,興達,2026-03-24,22.8778,120.2127,0.8388969
C0S890,關山,2026-03-24,23.0395,121.175017,3.8340895e-06
C0SB30,新蘭,2026-03-24,22.869214,121.223228,1.9703121e-08
C2R970,屏科大,2026-03-24,22.648275,120.619247,0.37027478
C1Z130,銅門,2026-03-24,23.965694,121.492842,2.6786658e-08
C0AD40,土城,2026-03-24,24.973208,121.445169,4.2358326e-09
CAN140,六官養殖協會,2026-03-24,23.22881,120.29962,1.8053715e-05
C0X180,山上,2026-03-24,23.0757,120.363253,5.2354822e-05
C0F9Z0,雪山東峰,2026-03-24,24.388792,121.268675,4.2835097e-08
C1M480,獨立山,2026-03-24,23.537022,120.607797,7.4698464e-10
C0X220,學甲,2026-03-24,23.230367,120.182187,1.1901226e-09
467650,日月潭,2026-03-24,23.881325,120.90805,6.996196e-10
A2K570,古坑(花卉中心),2026-03-24,23.633531,120.552392,0.009296601
C0K600,箔子寮,2026-03-24,23.6197,120.14,6.542738e-10
C0G830,埤頭,2026-03-24,23.866003,120.452806,1.7719351e-07
C0S950,七塊厝,2026-03-24,22.954453,121.229922,1.0074503e-09
467110,金門,2026-03-24,24.407306,118.289281,1.0758759e-08
C0AH80,深坑,2026-03-24,25.002703,121.628328,6.605045e-09
C0A970,三貂角,2026-03-24,25.007606,122.002058,2.0716017e-07
C2D730,寶山農場,2026-03-24,24.732444,120.976153,3.0197276e-09
C0K430,褒忠,2026-03-24,23.690938,120.303634,4.895737e-09
467480,嘉義,2026-03-24,23.495925,120.432906,0.825739
C0V400,阿公店,2026-03-24,22.804194,120.355528,1.3344436e-05
C2S800,華源,2026-03-24,22.65783,121.0232,0.0002037193
C2SA40,瑞和,2026-03-24,22.974361,121.156697,1.1453923e-09
C0E960,觀霧分站,2026-03-24,24.505781,121.113921,1.7565345e-08
467550,玉山,2026-03-24,23.48718,120.95943,1.9685691e-08
C0R440,大漢山,2026-03-24,22.405264,120.753181,4.8167386e-09
C0SD30,東清國小,2026-03-24,22.057128,121.564922,0.9999046
C1F9B1,桐林,2026-03-24,24.066172,120.735194,0.01599302
C2I210,蘆竹湳,2026-03-24,23.93398,120.81209,5.1325555e-10
C2H9U0,鳳鵬,2026-03-24,23.763919,120.788061,2.458368e-08
C0K390,土庫,2026-03-24,23.679029,120.395574,0.00011396753
C1I450,望鄉山,2026-03-24,23.594153,120.944286,1.2866409e-08
C0E910,海埔,2026-03-24,24.648767,120.772435,1.5406147e-09
B2E890,畜試北區分所,2026-03-24,24.527806,120.770972,6.539344e-10
C0R750,四林格山,2026-03-24,22.076989,120.802439,1.2101059e-08
C0F0C0,中坑,2026-03-24,24.248517,120.903319,8.7201857e-10
C1I121,大鞍,2026-03-24,23.678381,120.760017,1.7301852e-09
C2G9E0,移民庄,2026-03-24,23.9784,120.40283,2.4860505e-09
72U480,花改蘭陽分場,2026-03-24,24.686306,121.716583,1.2152332e-09
C0A770,科教館,2026-03-24,25.096356,121.516507,1.4122168e-09
C0AJ60,六塊厝,2026-03-24,25.24,121.4481,3.552577e-08
C0R620,墾雷,2026-03-24,21.900836,120.855269,0.9325618
467420,永康,2026-03-24,23.038386,120.2367,0.1864165
C2M530,奮起湖,2026-03-24,23.493903,120.699253,1.2123186e-09
C0I410,名間,2026-03-24,23.837053,120.701447,3.4648e-06
A2C560,農工中心,2026-03-24,24.985917,121.239833,3.45173e-09
C0V740,旗山,2026-03-24,22.888614,120.483597,0.0015597638
C0Z061,玉里,2026-03-24,23.3215,121.339656,9.873974e-10
C0S840,南田,2026-03-24,22.279725,120.889208,0.29277793
C1I470,杉林溪,2026-03-24,23.639517,120.786444,1.9805595e-09
C1X040,東原,2026-03-24,23.291597,120.463822,2.3238267e-09
C0R660,枋寮,2026-03-24,22.367722,120.590647,9.175788e-07
C1R120,上德文,2026-03-24,22.763272,120.704442,4.472529e-10
C0K450,大埤,2026-03-24,23.646074,120.431537,0.47193575
C0UA00,土場,2026-03-24,24.576533,121.495333,8.028295e-10
467080,宜蘭,2026-03-24,24.763975,121.756528,2.646917e-09
C0N030,四草,2026-03-24,23.0235,120.1116,7.787278e-09
467410,臺南,2026-03-24,22.99328,120.20492,5.8848338e-05
C0V650,彌陀,2026-03-24,22.783806,120.246361,0.99632835
C0D660,新竹市東區,2026-03-24,24.798681,120.986942,5.4638085e-09
82S580,茶改東部分場,2026-03-24,22.907694,121.130139,5.2046705e-09
C0SB40,興隆,2026-03-24,22.913661,121.257469,0.88435537
467050,新屋,2026-03-24,25.006725,121.047492,1.9286349e-08
C0C710,大溪永福,2026-03-24,24.892936,121.324975,2.3064375e-09
C0FA20,溫寮,2026-03-24,24.372177,120.583125,1.2539236e-09
C0V640,湖內,2026-03-24,22.887139,120.2445,0.8388969
C0R910,下寮,2026-03-24,22.3929,120.5548,0.9806906
C0Z020,明里,2026-03-24,23.208717,121.262342,1.2248111e-09
C0M770,嘉義梅山,2026-03-24,23.585398,120.555587,0.015688505
C0C660,楊梅,2026-03-24,24.912375,121.143047,2.7746223e-09
C0SD40,牛頭山,2026-03-24,22.676661,121.506944,0.9999283
C1E511,新開,2026-03-24,24.347703,120.827019,3.98617e-09
G2F820,農試所(霧峰),2026-03-24,24.031261,120.688133,0.049918458
C2M990,大巃頂,2026-03-24,23.5547,120.61439,7.056409e-10
C1I070,和社,2026-03-24,23.591131,120.888861,4.125839e-10
C2E990,新坪頂,2026-03-24,24.30201,120.8574,1.3397251e-09
C0TA80,立霧山,2026-03-24,24.183258,121.641899,8.924532e-09
C2F000,大肚,2026-03-24,24.15295,120.572117,8.091714e-06
C1S850,豐南,2026-03-24,23.122139,121.262389,8.414448e-10
C2M9B0,西興,2026-03-24,23.2428,120.57617,6.6531014e-10
C2A920,富貴角,2026-03-24,25.263783,121.565258,2.6462794e-05
C0T960,光復,2026-03-24,23.660694,121.424964,3.766249e-09
C0F9M0,豐原,2026-03-24,24.254322,120.720692,4.818262e-06
C0R720,旭海,2026-03-24,22.205403,120.887614,0.00018297309
C0V710,苓雅,2026-03-24,22.622742,120.330669,0.9312627
C0C740,觀音工業區,2026-03-24,25.064764,121.114856,8.8220425e-08
CAC040,拉拉山,2026-03-24,24.699317,121.427133,6.8510078e-09
C0V790,萬山,2026-03-24,22.905944,120.688056,2.3674797e-07
U2HA30,臺大和社,2026-03-24,23.590856,120.888864,4.125839e-10
C2H9K0,屯原,2026-03-24,24.067969,121.209389,2.6852789e-09
C0AJ90,澳底,2026-03-24,25.0552,121.9253,2.1227557e-07
C0Z100,東華,2026-03-24,23.89525,121.549833,3.5213665e-07
C0G970,三豐,2026-03-24,23.882,120.2895,3.9675556e-09
C0V900,汕尾,2026-03-24,22.4782,120.4151,0.00021549116
C1R630,龍泉,2026-03-24,22.66701,120.59091,0.37027478
C1AC50,關渡,2026-03-24,25.133486,121.469331,2.3568676e-09
C0C800,四稜,2026-03-24,24.64733,121.4293,2.937194e-09
C0F9I0,神岡,2026-03-24,24.272481,120.658314,1.1775709e-08
C0K460,斗南,2026-03-24,23.678734,120.478359,0.47193575
C2O810,曾文,2026-03-24,23.219681,120.497328,4.3163894e-08
467280,後龍,2026-03-24,24.648563,120.831834,1.4604538e-09
C1F9J1,清水林,2026-03-24,24.071242,120.820419,4.442178e-10
C2A650,火燒寮,2026-03-24,25.002719,121.742892,4.367051e-09
466930,竹子湖,2026-03-24,25.162078,121.544547,2.6090234e-09
C1I220,樟湖,2026-03-24,23.905333,120.846983,8.372823e-10
C0I390,仁愛,2026-03-24,24.022122,121.132206,9.125125e-10
C0Z300,東里,2026-03-24,23.26853,121.30547,9.61061e-10
C1V590,新發,2026-03-24,23.057019,120.646064,1.3875329e-09
C0K510,水林,2026-03-24,23.572924,120.24597,6.5815535e-09
72S590,東改賓朗果園,2026-03-24,22.813889,121.071278,4.737885e-09
82A750,茶改北部分場,2026-03-24,24.955778,121.631222,2.0094977e-09
C1A750,石碇服務區,2026-03-24,25.00872,121.646242,4.7271618e-09
C0X300,鹿寮,2026-03-24,23.386047,120.477331,0.0026544705
C0K590,雲林東勢,2026-03-24,23.674192,120.255721,8.445678e-09
C2K310,港尾布雞,2026-03-24,23.74834,120.38439,4.086449e-06
C0A570,桶後,2026-03-24,24.848222,121.597992,1.5339032e-09
C1S800,華源,2026-03-24,22.657883,121.02325,1.5912892e-06
C0G720,溪州,2026-03-24,23.851589,120.499093,1.7719351e-07
C1V160,達卡努瓦,2026-03-24,23.279811,120.705319,1.0442829e-09
C2M410,馬頭山,2026-03-24,23.324361,120.582017,1.3260889e-08
C0V850,蚵仔寮,2026-03-24,22.7256,120.2527,0.99654156
C0S740,池上,2026-03-24,23.119628,121.209469,8.4411317e-10
C1V390,尖山,2026-03-24,22.813153,120.367789,1.3344436e-05
C0AH70,松山,2026-03-24,25.04871,121.55042,1.4122195e-09
C0N010,鯤鯓國小,2026-03-24,23.1879,120.0889,2.4296611e-09
C0R550,新埤,2026-03-24,22.467947,120.582894,0.8562393
C0SA60,知本（水試所）,2026-03-24,22.702394,121.082761,0.019304119
C0T9I0,豐濱,2026-03-24,23.583897,121.514806,2.890021e-08
C0UB00,淡江大學蘭陽校園,2026-03-24,24.823239,121.730383,1.378293e-09
C0W240,九宮,2026-03-24,24.423753,118.240186,9.718264e-09
C0T9N0,富里,2026-03-24,23.171639,121.249378,1.2018132e-09
U2HA50,臺大竹山,2026-03-24,23.756972,120.681556,5.2689244e-05
C0V840,鳳鼻頭,2026-03-24,22.5083,120.3591,0.00017320442
C0X140,西港,2026-03-24,23.125608,120.203108,1.1098543e-05
72D080,桃改五峰分場,2026-03-24,24.612194,121.157167,2.1381854e-09
C2H9P0,伊拿谷,2026-03-24,23.963211,121.088264,7.828869e-10
C2K250,崙背,2026-03-24,23.75553,120.31893,4.895737e-09
C2H9F0,柑林,2026-03-24,24.018658,120.847072,5.292249e-10
C0TA20,加灣,2026-03-24,24.082025,121.608944,1.8887181e-06
C0V530,阿蓮,2026-03-24,22.883208,120.327508,0.06778484
C0FB30,八仙山苗圃,2026-03-24,24.192719,121.001366,8.216518e-10
C1O880,關山,2026-03-24,23.173397,120.594092,4.3707227e-05
C0E791,卓蘭,2026-03-24,24.3126,120.8244,3.0587692e-09
C2R260,春日,2026-03-24,22.370361,120.628306,5.3609995e-07
C1I030,武界,2026-03-24,23.913225,121.052483,1.1040181e-09
C0R520,崁頂,2026-03-24,22.514781,120.506914,0.94933236
C0R341,牡丹,2026-03-24,22.130036,120.792639,1.26958785e-05
C0R930,萬丹,2026-03-24,22.5885,120.4851,0.22114053
C0S760,紅石,2026-03-24,23.069131,121.126219,7.1142257e-09
C2C410,中央大學,2026-03-24,24.967652,121.185165,3.45173e-09
C1M610,石磐龍,2026-03-24,23.496606,120.663506,8.9291413e-10
C2C830,中德,2026-03-24,24.981862,121.291344,2.298287e-09
C0C790,東眼山,2026-03-24,24.8284,121.40888,3.3347267e-09
C0UA10,鴛鴦湖,2026-03-24,24.590269,121.412228,6.074509e-09
C0R800,丹路,2026-03-24,22.204481,120.750989,0.61252975
C2R240,萬巒,2026-03-24,22.527306,120.625111,5.7553446e-09
C0G920,永靖,2026-03-24,23.924703,120.547533,3.244375e-07
C2M950,太和,2026-03-24,23.538372,120.702961,1.1953094e-09
C1A630,下盆,2026-03-24,24.771003,121.538622,2.039092e-09
B2N890,畜產試驗所,2026-03-24,23.058972,120.336406,0.0031594338
C0UA30,白嶺,2026-03-24,24.527819,121.519031,2.7418054e-09
467571,新竹,2026-03-24,24.828575,121.01455,6.420649e-09
C1V580,溪南(特生中心),2026-03-24,23.084972,120.788475,1.8456268e-09
C1T970,大農,2026-03-24,23.615233,121.413331,2.9200176e-09
C0R650,竹田,2026-03-24,22.58486,120.54344,0.8662914
C1H900,清流,2026-03-24,24.080775,120.962997,7.1000295e-10
C1C510,水尾,2026-03-24,24.940081,121.087161,9.016651e-09
C2N170,茅港尾,2026-03-24,23.2061,120.2624,1.8053715e-05
C0F9X0,大雅(中科園區),2026-03-24,24.21528,120.62445,6.4221363e-06
C0SB60,白守蓮,2026-03-24,23.126769,121.401914,3.1096234e-09
C0O970,虎頭埤,2026-03-24,23.021375,120.347878,8.6744556e-05
C0C730,中大臨海站,2026-03-24,24.966126,121.008581,9.8358965e-09
C0X250,新營,2026-03-24,23.310689,120.316681,0.0004268316
C0V700,三民,2026-03-24,22.645017,120.311233,0.99126005
C0U870,大礁溪,2026-03-24,24.791042,121.675047,1.4029758e-09
C0E870,高鐵苗栗,2026-03-24,24.60725,120.826094,1.4604538e-09
C2S890,關山,2026-03-24,23.0395,121.175017,8.3582713e-10
C0TA30,鹽寮,2026-03-24,23.845606,121.592664,1.0040488e-06
C0M860,新美,2026-03-24,23.338017,120.683169,5.609937e-10
C1E701,八卦,2026-03-24,24.491756,120.927619,1.1985947e-09
C2TA90,加納納,2026-03-24,23.466421,121.359867,1.292021e-09
C0I420,國姓,2026-03-24,24.037803,120.855072,5.087196e-10
C2D720,關西工作站,2026-03-24,24.757275,121.184792,9.630005e-10
C2AK30,信賢,2026-03-24,24.84108,121.53492,2.2062903e-09
C0S960,香蘭,2026-03-24,22.587569,120.993375,2.9886482e-09
467620,蘭嶼,2026-03-24,22.0369,121.55843,0.9998795
C2UC40,中城,2026-03-24,24.62865,121.74745,1.3650653e-09
C0R260,春日,2026-03-24,22.370361,120.628306,0.9926261
72G600,臺中農改場,2026-03-24,24.003028,120.534389,4.5736274e-06
C0Z210,瑞穗,2026-03-24,23.5239,121.39021,1.9195884e-08
C0M820,達邦,2026-03-24,23.453994,120.749517,5.647319e-10
C0V860,南寮,2026-03-24,22.7616,120.2339,0.9966265
C0G740,大城,2026-03-24,23.852487,120.320935,3.9675556e-09
C0R920,塭仔,2026-03-24,22.4169,120.5197,0.9806906
C0R470,高樹,2026-03-24,22.826389,120.600806,0.8674536
C0R680,佳樂水,2026-03-24,21.993578,120.861633,0.91902703
C1O870,大棟山,2026-03-24,23.31157,120.52226,8.004504e-10
C0D360,梅花,2026-03-24,24.678347,121.208558,9.1472735e-10
C0Z190,富世,2026-03-24,24.14743,121.6297,2.2543338e-08
C0AI10,屈尺,2026-03-24,24.92184,121.54475,3.8701664e-09
B2U990,畜試東區分所,2026-03-24,24.669039,121.832561,1.4534037e-09
C0SB80,長濱漁港,2026-03-24,23.313644,121.459994,2.2918696e-09
C0TA50,和仁,2026-03-24,24.241394,121.712472,1.4806104e-06
C2AK40,漁光,2026-03-24,24.96875,121.72132,3.0044687e-09
C0V910,大樹,2026-03-24,22.684645,120.432803,0.22248183
C1R610,西大武山,2026-03-24,22.617719,120.7322,2.3470388e-09
C0G900,線西,2026-03-24,24.143358,120.443536,1.48461385e-08
C0M700,竹崎,2026-03-24,23.526178,120.555508,0.0043979515
C2E880,三義,2026-03-24,24.405478,120.749819,7.870627e-10
C0C720,竹圍,2026-03-24,25.112692,121.239824,9.110661e-09
C0F9P0,清水,2026-03-24,24.312297,120.562242,1.0739031e-09
C0Z150,吉安光華,2026-03-24,23.930925,121.595153,1.4357673e-06
C0FA80,小雪山天池,2026-03-24,24.28025,121.02627,1.3059034e-08
467300,東吉島,2026-03-24,23.25727,119.66762,0.22980504
C1D640,外坪(五指山),2026-03-24,24.644447,121.090961,1.3366062e-09
C2R9A0,高士國小,2026-03-24,22.12553,120.84653,1.26958785e-05
C0F9O0,潭子,2026-03-24,24.213106,120.703933,4.818262e-06
C2H9R0,卓社,2026-03-24,23.887894,121.000086,1.2628547e-09
72T250,花蓮農改場,2026-03-24,23.975222,121.563889,4.5053645e-07
C0E780,銅鑼,2026-03-24,24.489681,120.790853,6.539344e-10
C1T950,太安,2026-03-24,23.666719,121.370128,4.74417e-09
C0E830,苑裡,2026-03-24,24.439714,120.653053,1.291819e-09
467270,田中,2026-03-24,23.873803,120.581286,7.6185206e-06
C0SA10,檳榔四格山,2026-03-24,22.810031,121.109308,3.7796486e-09
C1T830,布洛灣,2026-03-24,24.17184,121.57127,8.7202565e-09
C0F970,大坑,2026-03-24,24.173142,120.722289,0.0021299568
C1U920,思源,2026-03-24,24.393125,121.347214,8.356044e-09
C2H9Y0,松茗,2026-03-24,23.8167,120.650765,1.1259759e-08
C0A931,三和,2026-03-24,25.233153,121.595236,1.192161e-08
C0I010,廬山,2026-03-24,24.033311,121.181808,1.9621467e-09
C2M940,日野賀,2026-03-24,23.434056,120.727169,1.1197069e-09
C0R860,鼻頭,2026-03-24,22.1043,120.8979,0.52964073
C2I260,北坑,2026-03-24,23.92463,121.00683,9.669319e-10
C0UB20,壯圍,2026-03-24,24.7359,121.8163,4.616847e-09
C0R790,九棚,2026-03-24,22.14195,120.889281,1.0552854e-05
C0W110,東莒,2026-03-24,25.9652,119.98069,5.9305602e-08
C1U930,粉鳥林,2026-03-24,24.497088,121.842479,1.2565675e-08
C1I211,蘆竹湳,2026-03-24,23.934019,120.811994,2.4401945e-06
C0S830,長濱,2026-03-24,23.286817,121.411975,8.7999513e-10
C1F9F1,伯公龍,2026-03-24,24.272392,120.849047,1.9867874e-09
C0UB90,太平山莊,2026-03-24,24.494171,121.536209,5.6670784e-09
C0E810,西湖,2026-03-24,24.562947,120.7485,1.5440449e-09
C1I440,新高口,2026-03-24,23.478744,120.878939,4.3310253e-09
C0O840,王爺宮,2026-03-24,23.222064,120.40085,4.966669e-06
C0T9G0,鳳林山,2026-03-24,23.735269,121.420131,4.9886038e-09
C0X080,佳里,2026-03-24,23.173039,120.145086,2.336462e-09
C0FB70,大甲溪埔,2026-03-24,24.370625,120.620067,1.2539236e-09
C0Z310,清水斷崖,2026-03-24,24.218294,121.689142,7.7674486e-08
C0M680,太保,2026-03-24,23.455062,120.331455,0.06818709
C1S820,金峰,2026-03-24,22.590969,120.933236,2.112493e-09
C0AD10,八里,2026-03-24,25.150211,121.403947,2.226811e-07
C2K240,草嶺,2026-03-24,23.59555,120.693461,9.510952e-10
C1SA70,都蘭,2026-03-24,22.87794,121.226881,1.5974374e-08
C0K440,二崙,2026-03-24,23.772797,120.408944,1.5013542e-07
C1A760,坪林交控,2026-03-24,24.94284,121.713442,3.0412124e-09
C0F9N0,大里,2026-03-24,24.092464,120.701378,0.013937881
C0SA90,達仁林場,2026-03-24,22.264347,120.823972,9.2609787e-10
C1R290,石門山,2026-03-24,22.112611,120.756597,3.6341584e-07
42HA10,萬大發電廠,2026-03-24,23.978875,121.139639,7.512024e-10
C0R890,山海,2026-03-24,21.9878,120.7091,0.9886803
C0T9A0,月眉山,2026-03-24,23.809928,121.539828,3.2378416e-09
C0AC70,信義,2026-03-24,25.037822,121.564597,1.5318538e-09
C0K560,棋山,2026-03-24,23.68645,120.603417,0.016786302
C2FB50,出雲,2026-03-24,24.206469,120.902794,1.1350144e-09
C1Z240,中平林道,2026-03-24,23.42115,121.26763,1.119054e-08
U2H480,溪頭,2026-03-24,23.670306,120.798194,6.9659567e-10
C0M880,好美里,2026-03-24,23.3364,120.138,3.678225e-09
C0T9E0,大坑,2026-03-24,23.880628,121.581981,5.8883347e-09
C0K530,臺西,2026-03-24,23.701547,120.197559,1.4505125e-09
C1E900,國一N128K,2026-03-24,24.560997,120.844186,7.1083356e-10
C0AJ50,水湳洞,2026-03-24,25.123695,121.862238,2.1050434e-07
C0AI20,白沙灣,2026-03-24,25.283128,121.519058,0.000492017
C2V310,美濃,2026-03-24,22.898792,120.51907,0.0015597645
C0A860,大坪,2026-03-24,25.165914,121.632969,7.614725e-09
C1U850,觀音海岸,2026-03-24,24.38319,121.77856,4.111481e-09
C2K610,草嶺石壁,2026-03-24,23.602469,120.707731,9.855065e-10
C0U950,鶯子嶺,2026-03-24,24.89754,121.79244,4.0609773e-09
C0O900,善化,2026-03-24,23.112883,120.297219,0.0031594338
C0K550,蔦松,2026-03-24,23.514319,120.229736,4.5659494e-09
E2P980,林試六龜中心,2026-03-24,22.991703,120.645722,1.3061309e-06
C0E590,通霄,2026-03-24,24.471892,120.704622,3.03172e-09
C1I310,西巒,2026-03-24,23.754486,120.883956,1.0502634e-09
C0A550,泰平,2026-03-24,24.971197,121.823711,2.4547215e-09
C2UC30,金洋,2026-03-24,24.42465,121.74573,5.5882494e-09
C0I360,水里,2026-03-24,23.812553,120.849792,1.3174761e-09
C0R830,高士,2026-03-24,22.121825,120.836781,1.0270039e-07
C1I101,溪頭,2026-03-24,23.661789,120.807647,2.4146742e-09
C0AJ20,野柳,2026-03-24,25.20703,121.690021,1.3596481e-08
C0B060,暖暖,2026-03-24,25.0957,121.7403,1.3603355e-08
C1H920,長豐,2026-03-24,24.102039,120.879897,4.2720008e-10
C2S9B0,利吉,2026-03-24,22.86246,121.15486,5.2046705e-09
C0V360,內門,2026-03-24,22.975481,120.466769,1.560079e-05
C0R850,林邊,2026-03-24,22.4634,120.5339,0.9913352
C0E930,龍鳳,2026-03-24,24.700034,120.859125,1.6007214e-09
C0U910,冬山,2026-03-24,24.63373,121.7937,1.4534037e-09
C1E721,泰安,2026-03-24,24.489017,120.968036,2.5616465e-09
82H320,茶改中部分場,2026-03-24,23.875611,120.913583,5.942387e-10
C0M750,布袋,2026-03-24,23.380878,120.167789,1.527725e-09
C1S860,利嘉,2026-03-24,22.809417,121.050528,4.27061e-09
E2S980,林試太麻里1,2026-03-24,22.598922,120.980044,2.4859699e-09
C0X170,關廟,2026-03-24,22.963017,120.327797,0.002712277
C0V720,林園,2026-03-24,22.507747,120.394511,0.00034251215
C2M9G0,沄水,2026-03-24,23.38293,120.52666,5.6660543e-08
C1I510,線浸林道,2026-03-24,23.761508,120.832956,1.2820423e-09
C0D690,外湖,2026-03-24,24.917735,120.968711,1.2124417e-08
C0C750,新興坑尾,2026-03-24,25.0061,121.0971,1.7318634e-08
B2Q810,畜試南區分所,2026-03-24,21.945583,120.802167,0.91902703
C0S790,金崙,2026-03-24,22.538122,120.966875,1.4487208e-09
C0AH90,福山植物園,2026-03-24,24.760717,121.58135,2.242197e-09
C0I540,奇萊稜線,2026-03-24,24.109231,121.326456,1.3351239e-08
C0M850,表湖,2026-03-24,23.24186,120.64166,1.1139512e-09
C0S770,大溪山,2026-03-24,22.478475,120.943325,1.3857687e-09
C0AG80,中和,2026-03-24,24.991622,121.491792,4.2358326e-09
C0T790,大禹嶺,2026-03-24,24.186117,121.316086,1.4402852e-08
C0T9B0,水源,2026-03-24,23.991861,121.537169,5.600275e-09
C0R840,牡丹池山,2026-03-24,22.168389,120.841225,1.0694027e-08
C1I131,桶頭,2026-03-24,23.641944,120.654117,2.9061493e-09
CAL110,布袋國中,2026-03-24,23.35893,120.18026,3.678225e-09
C2M9D0,何竹子腳,2026-03-24,23.53641,120.38203,0.825739
C0Z290,赤柯山,2026-03-24,23.36893,121.38293,5.558018e-09
C0X280,將軍,2026-03-24,23.214999,120.13577,1.2201548e-09
C0S690,太麻里,2026-03-24,22.60902,120.98533,2.3784172e-09
C0U880,北關,2026-03-24,24.9072,121.8734,2.1090639e-08
CAW010,東引,2026-03-24,26.3588,120.4836,9.019855e-08
C0G810,埔心,2026-03-24,23.947633,120.525456,3.244375e-07
C0U970,大福,2026-03-24,24.80064,121.81389,2.646917e-09
C2H9N0,仁愛東眼,2026-03-24,24.026875,121.1205,1.329563e-09
C1E670,南礦,2026-03-24,24.538278,121.002836,2.4210614e-09
C0M520,東後寮,2026-03-24,23.369908,120.248065,1.3059575e-07
C1E461,松安,2026-03-24,24.397972,120.986022,1.8904833e-09
C2N160,西拉雅風管處,2026-03-24,23.189481,120.335297,0.00031396135
C2O850,環湖,2026-03-24,23.148665,120.4186,1.0722882e-05
C2M970,碧湖,2026-03-24,23.568632,120.624165,6.961228e-10
C0A640,石碇,2026-03-24,24.993969,121.662917,3.0412124e-09
E2S960,林試太麻里2,2026-03-24,22.598,120.99775,3.104438e-09
C0F9Y0,桃山,2026-03-24,24.432739,121.303808,3.65489e-08
C1I020,萬大,2026-03-24,23.979817,121.132261,9.236617e-10
C2UC20,長嶺,2026-03-24,24.70894,121.61162,1.0393232e-09
C0U940,羅東,2026-03-24,24.68184,121.74934,1.2152332e-09
C0M650,朴子,2026-03-24,23.43463,120.23902,6.0190823e-06
C1I500,大尖山,2026-03-24,23.858572,120.994889,2.7024143e-09
C0FB40,中橫21.6k,2026-03-24,24.2499,121.1455,1.8556443e-09
C0G820,田尾,2026-03-24,23.901669,120.509389,3.244375e-07
E2K600,四湖植物園,2026-03-24,23.676986,120.163433,1.1416299e-09
C0S730,綠島,2026-03-24,22.6672,121.47533,0.99990535
12Q970,東港工作站,2026-03-24,22.479997,120.466058,0.9913352
C1TA00,太魯閣,2026-03-24,24.15773,121.6236,1.8187928e-08
466920,臺北,2026-03-24,25.037658,121.514853,1.4122168e-09
C0R600,舊泰武,2026-03-24,22.588194,120.664944,5.258441e-10
C1I260,北坑,2026-03-24,23.9246,121.006903,3.8746958e-08
466910,鞍部,2026-03-24,25.182586,121.529731,1.5886108e-08
C1I230,九份二山,2026-03-24,23.961944,120.845,5.1915905e-10
C2M810,里佳,2026-03-24,23.389125,120.716647,1.5361723e-09
C2A660,瑞芳,2026-03-24,25.113169,121.801147,1.2735273e-08
C0R270,琉球嶼,2026-03-24,22.332244,120.362236,1.4849756e-07
C2V580,瑞山,2026-03-24,22.90304,120.43424,1.2999822e-06
C1T990,高寮,2026-03-24,23.394239,121.356808,1.5014544e-09
C0G620,芬園,2026-03-24,24.015678,120.6213,1.6860527e-05
C1Z140,荖溪,2026-03-24,23.890575,121.45964,7.691447e-09
C1I201,中心崙,2026-03-24,23.728722,120.712097,1.7512413e-09
C1I400,凌霄,2026-03-24,24.018778,121.004456,1.3978607e-09
C1M640,十字,2026-03-24,23.492153,120.753683,2.1244655e-09
G2P820,農試鳳山分所,2026-03-24,22.646611,120.356083,0.9312627
C0Z270,蕃薯寮,2026-03-24,23.73835,121.540108,2.7271652e-09
C2E420,竹南,2026-03-24,24.70898,120.88897,1.6007214e-09
C2D480,打鐵坑,2026-03-24,24.849664,121.150789,2.4841025e-09
C0FB10,出雲山苗圃,2026-03-24,24.23105,120.90475,8.7208507e-10
C0F9Q0,外埔,2026-03-24,24.347817,120.705686,9.204521e-10
C0K580,高鐵雲林,2026-03-24,23.737456,120.417944,4.086449e-06
C2I090,鳳凰,2026-03-24,23.728081,120.787347,5.5128174e-10
C0U990,員山,2026-03-24,24.74435,121.72247,1.2152332e-09
C0V770,大社,2026-03-24,22.730306,120.346639,0.98249227
C0X120,麻豆,2026-03-24,23.183289,120.248611,1.2508684e-05
C0C670,龍潭,2026-03-24,24.870056,121.221389,1.305833e-09
C0D680,香山濕地,2026-03-24,24.783581,120.914988,1.2063404e-08
C0S980,勝林山,2026-03-24,22.430439,120.8938,1.9236743e-09
C0V730,大寮,2026-03-24,22.605614,120.395717,0.9312627
C0R570,麟洛,2026-03-24,22.65078,120.52719,0.981494
C2M930,石卓,2026-03-24,23.478744,120.702264,2.068262e-09
C0G9B0,和美,2026-03-24,24.105169,120.492131,9.431475e-08
C2I240,外大坪,2026-03-24,23.9587,120.91788,4.8114474e-10
CAG100,王功漁港,2026-03-24,23.96824,120.32586,7.528524e-09
C0X290,北門,2026-03-24,23.267772,120.125481,1.2180271e-09
C2F930,大甲,2026-03-24,24.347667,120.640403,1.2539236e-09
C0D650,湖口,2026-03-24,24.904794,121.043628,9.016651e-09
C0U780,五結,2026-03-24,24.68637,121.79794,1.4534037e-09
C1I250,鯉潭,2026-03-24,23.961922,120.991131,9.510698e-10
C0R130,阿禮,2026-03-24,22.742908,120.743678,5.092759e-10
C0X100,臺南市北區,2026-03-24,23.010394,120.194228,5.8848338e-05
C0S920,金峰嘉蘭,2026-03-24,22.594789,120.960825,2.462412e-09
C0V490,新興,2026-03-24,22.627422,120.298803,0.99444085
C0F9K0,大安,2026-03-24,24.345061,120.588025,1.2539236e-09
467290,古坑,2026-03-24,23.633639,120.551889,0.009296591
C2E970,八甲,2026-03-24,24.535811,120.795983,7.1083356e-10
C0V440,鳳山,2026-03-24,22.646653,120.356122,0.9312627
C1T940,大觀,2026-03-24,23.714206,121.373133,1.9997821e-09
C0E740,造橋,2026-03-24,24.637056,120.864778,1.4604538e-09
C0R100,尾寮山,2026-03-24,22.833111,120.683889,5.3505483e-10
A2K630,臺大雲林校區,2026-03-24,23.730628,120.423903,4.086449e-06
467990,馬祖,2026-03-24,26.169467,119.923158,5.609461e-08
C0D580,寶山,2026-03-24,24.735006,121.025192,8.302153e-10
E2P990,林試扇平站,2026-03-24,22.9677,120.6857,3.0382554e-09
C0AI30,三重,2026-03-24,25.057328,121.500629,1.4122195e-09
C0AH00,汐止,2026-03-24,25.066881,121.658778,5.3468887e-09
C1Z040,立山,2026-03-24,23.443356,121.327375,4.858407e-09
466881,新北,2026-03-24,24.959207,121.525196,4.2077617e-09
C0W130,花嶼,2026-03-24,23.40007,119.32276,0.7626699
C0A950,鼻頭角,2026-03-24,25.129036,121.923372,2.1225998e-07
C0K470,林內,2026-03-24,23.748675,120.609642,0.016786292
C2F990,摩天嶺,2026-03-24,24.322458,120.936819,9.263505e-10
C2E430,南庄,2026-03-24,24.601775,121.000214,9.097233e-10
82C160,茶改場,2026-03-24,24.908472,121.185333,2.7746172e-09
C2TB60,南安,2026-03-24,23.29818,121.26157,9.161067e-10
C0Z320,清水林道,2026-03-24,23.27125,121.188272,3.987014e-09
C0R760,南仁湖,2026-03-24,22.084681,120.863353,3.6341584e-07
C0M670,大林,2026-03-24,23.600616,120.45841,0.17551109
C0M800,茶山,2026-03-24,23.299075,120.664767,6.3288963e-10
C0A9C0,天母,2026-03-24,25.117494,121.537169,1.4932122e-09
72K220,南改斗南分場,2026-03-24,23.634556,120.477333,0.47193575
72AI40,桃改樹林分場,2026-03-24,24.944503,121.386972,3.4778669e-09
C0S910,蘭嶼燈塔,2026-03-24,22.081197,121.503117,0.9998775
C0B050,八斗子,2026-03-24,25.144754,121.79167,1.4741032e-08
C0U900,內城,2026-03-24,24.71813,121.68766,1.2954658e-09
C0X320,柳營,2026-03-24,23.253328,120.375253,4.966669e-06
C0M790,新港,2026-03-24,23.553269,120.345728,0.00035254905
C0F9T0,西屯,2026-03-24,24.179494,120.641275,6.4221363e-06
C0E950,松安,2026-03-24,24.39792,120.98599,1.8904833e-09
C0SA30,都歷,2026-03-24,23.020333,121.323642,0.8432128
C0C620,蘆竹,2026-03-24,25.084275,121.265767,8.0115035e-09
C0R730,大坪頂,2026-03-24,22.024633,120.69355,0.9902617
C0AJ40,石門,2026-03-24,25.273672,121.601198,4.3114993e-05
C0E750,苗栗,2026-03-24,24.564569,120.824575,7.1083356e-10
C0T870,鯉魚潭,2026-03-24,23.935639,121.508944,4.103406e-08
C1V170,排雲,2026-03-24,23.463619,120.954147,1.6475987e-08
C2H950,中寮,2026-03-24,23.884447,120.766406,2.3272064e-09
C0R350,貓鼻頭,2026-03-24,21.921774,120.7358,0.9897198
C0V660,岡山,2026-03-24,22.797078,120.294958,0.99616545
C1H941,雙冬,2026-03-24,23.967378,120.802189,4.520712e-10
C0AJ70,田寮,2026-03-24,25.2698,121.4886,0.00054809154
C0AI00,五股,2026-03-24,25.07445,121.42728,2.0813768e-09
C0Z280,德武,2026-03-24,23.47426,121.41071,1.4843781e-09
C2RA10,大新,2026-03-24,22.67558,120.57788,0.37027478
C0R700,枋山,2026-03-24,22.246844,120.661086,0.81232023
C0C460,復興,2026-03-24,24.820208,121.352281,1.8751847e-09
C2AA10,中八仙,2026-03-24,25.11576,121.49199,1.6012558e-09
C2K300,鹿南,2026-03-24,23.63855,120.3636,0.00011396753
E2H360,蓮華池,2026-03-24,23.918333,120.885278,4.4487578e-10
C0M640,中埔,2026-03-24,23.42538,120.5229,0.007843775
C2C810,八德蔬果,2026-03-24,24.97858,121.28187,2.298287e-09
C2M9F0,安溪寮,2026-03-24,23.350334,120.208039,3.5257155e-09
C0W140,金沙,2026-03-24,24.488292,118.408778,1.0472295e-08
C2A540,四堵,2026-03-24,24.8926,121.745736,2.083156e-09
C0ACA0,新莊,2026-03-24,25.051478,121.446756,2.930686e-09
C0R220,潮州,2026-03-24,22.534361,120.54,0.94933236
U2HA40,臺大內茅埔,2026-03-24,23.689722,120.851117,4.4257376e-10
467490,臺中,2026-03-24,24.145736,120.684075,0.0021299568
C0UB60,明池,2026-03-24,24.650688,121.475277,3.803775e-09
C0U960,翠峰湖,2026-03-24,24.510856,121.608044,5.2826707e-09
E2HA20,林試畢祿溪站,2026-03-24,24.226944,121.308522,1.0041339e-08
C2M9A0,大華,2026-03-24,23.4824,120.67491,6.407947e-10
C0V890,前鎮,2026-03-24,22.5718,120.3117,0.9746581
C1F941,雪嶺,2026-03-24,24.280586,121.026642,1.3059034e-08
C2H9E0,國姓南港,2026-03-24,23.911108,120.846556,8.7762836e-10
C0AC80,文山,2026-03-24,25.00235,121.575728,6.6076913e-09
C0F9R0,龍井,2026-03-24,24.184536,120.528972,8.406367e-09
C0M760,民雄,2026-03-24,23.551754,120.428457,0.17551109
C0UA40,西德山,2026-03-24,24.560647,121.752608,3.8158814e-09
C2TA70,赤科坪,2026-03-24,23.39885,121.39168,6.0107626e-09
C1T920,中興,2026-03-24,23.769503,121.498653,4.9017284e-08
C0D550,雪霸,2026-03-24,24.526972,121.11605,1.4655694e-08
C2F860,梨山,2026-03-24,24.247522,121.243669,6.685772e-09
C0R320,車城,2026-03-24,22.0744,120.716247,0.80997807
C1S870,南美山,2026-03-24,23.15025,121.382333,1.5140157e-09
C0B020,基隆嶼,2026-03-24,25.19141,121.78391,1.3510835e-08
C1U501,牛鬥,2026-03-24,24.637836,121.573656,6.874671e-10
C0M730,嘉義市東區,2026-03-24,23.457673,120.460531,0.059811275
C2R990,泰武,2026-03-24,22.60686,120.69765,8.326924e-10
C0S700,知本,2026-03-24,22.684866,121.005642,2.6071232e-09
C1N001,沙崙,2026-03-24,22.935472,120.309406,0.002712277
C0V760,橋頭,2026-03-24,22.757806,120.30575,0.98249227
C2V570,吉東,2026-03-24,22.85418,120.54539,0.8674536
C0G960,福寶,2026-03-24,24.0443,120.3814,2.4527617e-08
C0X210,白河,2026-03-24,23.347466,120.414427,0.0026544705
C0S810,東河,2026-03-24,22.972672,121.303986,0.7429708
C2R170,屏東,2026-03-24,22.66027,120.49403,0.981494
C0R670,楓港,2026-03-24,22.190131,120.692156,0.80974394
C0FA50,霧峰,2026-03-24,24.0419,120.6995,0.013937881
C0UB10,蘇澳,2026-03-24,24.5969,121.8571,1.4755596e-09
C0G950,防潮門,2026-03-24,24.1835,120.4871,1.4131013e-08
C0M740,六腳,2026-03-24,23.492871,120.290625,0.00013053858
C1R250,力里,2026-03-24,22.428117,120.629228,3.191938e-07
C0K330,虎尾,2026-03-24,23.719183,120.442036,4.086449e-06
C2FA00,烏石坑,2026-03-24,24.273503,120.947617,9.1337093e-10
C0V620,永安,2026-03-24,22.82315,120.236856,0.99616545
C1I330,楓樹林,2026-03-24,23.986803,121.076117,1.1415907e-09
C0W200,湖西,2026-03-24,23.596314,119.67275,0.039460473
72Q010,高雄農改場,2026-03-24,22.709333,120.525889,0.98580855
C0SA40,瑞和,2026-03-24,22.974361,121.156697,6.194868e-05
C0C680,龜山,2026-03-24,25.02846,121.38656,2.5959586e-09
C2V260,月眉,2026-03-24,22.971003,120.539853,3.3310114e-06
C0V450,鳳森,2026-03-24,22.545064,120.392592,0.00034251215
C0FA90,小雪山林道,2026-03-24,24.29515,121.03651,1.8008599e-08
C0U720,南山,2026-03-24,24.43742,121.38167,3.4304255e-09
A2N290,臺南蘭花園區,2026-03-24,23.340258,120.379661,0.00010161908
C0R560,新園,2026-03-24,22.5434,120.461558,0.00034251215
C0U890,三星,2026-03-24,24.66812,121.65302,1.1705813e-09
C1V300,御油山,2026-03-24,23.001983,120.715364,1.7782935e-09
C0U600,礁溪,2026-03-24,24.817539,121.765608,2.646917e-09
C1T980,龍澗,2026-03-24,24.023289,121.411328,4.0487422e-09
C0D670,海天一線,2026-03-24,24.831986,120.914438,1.1466453e-08
C0SA00,歷坵,2026-03-24,22.520969,120.89185,1.4596155e-09
C0M710,東石,2026-03-24,23.458927,120.15385,1.5092325e-09
C0M780,鹿草,2026-03-24,23.41134,120.30835,6.0190823e-06
C0U520,雙連埤,2026-03-24,24.753033,121.641303,1.1350555e-09
C0B010,七堵,2026-03-24,25.094819,121.71713,1.34190214e-08
C0R480,長治,2026-03-24,22.693128,120.542622,0.62219816
C1V830,國三S383K,2026-03-24,22.781967,120.426475,0.009888521
12Q980,恆春工作站,2026-03-24,22.079678,120.714425,0.809978
C1O940,東山服務區,2026-03-24,23.286016,120.398472,0.00010161908
C1U840,東澳嶺,2026-03-24,24.5378,121.8485,4.8244897e-09
C1D630,飛鳳山,2026-03-24,24.766464,121.119178,8.622522e-10
C0S940,石寧山,2026-03-24,23.223772,121.406639,1.8808515e-09
C0K410,北港,2026-03-24,23.573957,120.292802,6.5815535e-09
C2M620,瑞里,2026-03-24,23.545133,120.675197,8.9291413e-10
C0SB70,小港漁港,2026-03-24,23.158558,121.400431,2.994594e-09
C2O950,安南,2026-03-24,23.076694,120.144861,5.817303e-09
C0F0E0,南湖圈谷,2026-03-24,24.363714,121.444667,3.2078823e-08
467610,成功,2026-03-24,23.097486,121.373428,9.90208e-09
C0G890,伸港,2026-03-24,24.148933,120.484403,1.4131013e-08
C2E540,龍溪,2026-03-24,24.606489,120.783933,7.1083356e-10
C1V200,梅山,2026-03-24,23.268447,120.823556,8.5945434e-10
C0T9H0,加路蘭山,2026-03-24,23.682947,121.5274,2.3759779e-09
C2O930,玉井,2026-03-24,23.126042,120.46055,1.0722882e-05
C1F911,新伯公,2026-03-24,24.221361,120.841069,1.0815256e-08
C0R490,九如,2026-03-24,22.7405,120.490503,0.9954774
C0X200,左鎮,2026-03-24,23.056758,120.408522,5.235477e-05
C2TB50,麻汝,2026-03-24,23.42554,121.39358,1.4843781e-09
C0FA60,鞍馬山工作站,2026-03-24,24.267064,121.000793,6.293929e-09
C0SB50,叭嗡嗡,2026-03-24,23.047062,121.343223,1.4772668e-08
C2R550,新埤,2026-03-24,22.467947,120.582894,1.0423859e-06
C1F891,稍來,2026-03-24,24.265689,121.001142,6.0017697e-09
C2M9C0,紫雲,2026-03-24,23.494914,120.540253,0.016731229
72N240,七股研究中心,2026-03-24,23.081672,120.062894,7.787278e-09
C0C700,中壢,2026-03-24,24.977661,121.256375,2.298287e-09
C0M690,水上,2026-03-24,23.419734,120.388909,0.06818709
C0V690,鼓山,2026-03-24,22.623325,120.275575,0.99444085
C0O860,大內,2026-03-24,23.11885,120.36083,0.00031396135
C0Z200,萬榮,2026-03-24,23.709219,121.420106,3.6199082e-09
C0T9D0,和中,2026-03-24,24.26676,121.74103,1.4675284e-06
C2S9A0,北份子寮,2026-03-24,22.78561,121.07813,0.00091172894
C1O921,楠西,2026-03-24,23.183511,120.484083,1.0722882e-05
C0AJ30,淡水觀海,2026-03-24,25.184591,121.408616,2.2268088e-07
C0V810,左營,2026-03-24,22.67491,120.28491,0.99126005
C0UA70,桃源谷,2026-03-24,24.962606,121.888875,8.823958e-09
C0X130,官田,2026-03-24,23.193217,120.315422,0.00031396135
C1H000,翠峰,2026-03-24,24.109397,121.205211,5.7518657e-09
C0UA90,石城,2026-03-24,24.980444,121.951214,2.2283957e-07
C1E681,南勢山,2026-03-24,24.421669,120.923831,1.2712794e-09
C0A9F0,內湖,2026-03-24,25.079422,121.57545,1.5318538e-09
C0K291,宜梧,2026-03-24,23.536281,120.169329,6.669542e-10
C1K540,口湖,2026-03-24,23.585344,120.180517,6.542738e-10
C0R780,滿州,2026-03-24,22.024403,120.839892,0.90263736
C0V870,文安,2026-03-24,22.8025,120.2164,0.99654156
C0U650,玉蘭,2026-03-24,24.675286,121.587061,1.0433949e-09
C0R640,東港,2026-03-24,22.46247,120.44074,0.0001612311
C0AJ80,板橋,2026-03-24,25.0107,121.4489,4.2358326e-09
C0S660,下馬,2026-03-24,23.150427,121.070312,3.873541e-09
C2N190,烏樹,2026-03-24,23.32393,120.36989,0.00010161908
C1H9B1,阿眉,2026-03-24,24.1263,120.994672,3.2294412e-09
C0UA20,多加屯,2026-03-24,24.368614,121.373189,1.6661904e-08
C0E730,頭份,2026-03-24,24.688247,120.912206,1.6007214e-09
72V140,高改旗南分場,2026-03-24,22.857861,120.516667,0.0015597638
C2R490,九如,2026-03-24,22.74049,120.490555,0.98580855
C0K480,莿桐,2026-03-24,23.761192,120.502372,0.0011213922
C0U980,坪林石牌,2026-03-24,24.86478,121.77396,2.488133e-09
C0T900,西林,2026-03-24,23.8119,121.441458,1.0465047e-08
C1I150,青雲,2026-03-24,23.793361,120.949378,4.2341258e-10
C2E980,和興,2026-03-24,24.505319,120.923016,9.0363084e-10
467350,澎湖,2026-03-24,23.565503,119.563094,0.09612894
C0G800,埔鹽,2026-03-24,24.000394,120.431683,2.1011981e-08
C0H960,草屯,2026-03-24,23.973672,120.68085,3.1048992e-07
C1V780,多納林道,2026-03-24,22.888028,120.737917,1.0603254e-09
C0E920,通霄漁港,2026-03-24,24.498589,120.673876,3.03172e-09
C0Z330,安通山,2026-03-24,23.290728,121.348528,9.407087e-10
C0AH10,永和,2026-03-24,25.01125,121.508111,4.2358326e-09
C0AK10,太平里,2026-03-24,25.134937,121.364899,1.495966e-07
C2G640,鹿港,2026-03-24,24.0753,120.430481,9.431493e-08
C1E890,國三N149K,2026-03-24,24.463414,120.680019,3.03172e-09
C1R110,口社,2026-03-24,22.770111,120.645222,0.0017801082
C1M870,國三N285K,2026-03-24,23.550319,120.505833,0.016731229
C1E480,鳳美,2026-03-24,24.554803,121.034747,1.0525175e-09
C0T9M0,靜浦,2026-03-24,23.455167,121.495028,6.438937e-08
C2H9M0,發祥,2026-03-24,24.154094,121.164517,1.5032453e-09
C2G9C0,埔南,2026-03-24,23.99124,120.46969,2.1011981e-08
C0AI40,石牌,2026-03-24,25.115597,121.513139,1.5318538e-09
C1F871,上谷關,2026-03-24,24.203483,121.018644,9.131811e-10
C2H9G0,百勝,2026-03-24,24.051142,120.909361,3.9142162e-10
C0G880,二水,2026-03-24,23.810742,120.6173,0.00017038
C0R940,加祿堂,2026-03-24,22.3363,120.6217,0.81232023
C0W220,北竿,2026-03-24,26.220358,119.974881,5.707717e-08
C0O960,崎頂,2026-03-24,22.959547,120.369317,0.002712277
C0TA40,秀林,2026-03-24,24.302864,121.731144,4.1284864e-09
C0S750,向陽,2026-03-24,23.248397,120.986133,2.9744425e-09
C0T9F0,水璉,2026-03-24,23.797131,121.542514,6.145199e-09
C1M600,頭凍,2026-03-24,23.406364,120.603339,5.727002e-10
467660,臺東,2026-03-24,22.752211,121.154586,0.015074732
C1D380,新埔,2026-03-24,24.84745,121.03834,6.420649e-09
C2G980,田頭村,2026-03-24,23.8263,120.444175,1.5013542e-07
C0V750,路竹,2026-03-24,22.854997,120.259439,0.99616545
C0N050,蚵寮,2026-03-24,23.301,120.1104,1.2180271e-09
C2X060,下營,2026-03-24,23.226806,120.256291,1.8053715e-05
72M700,南改鹿草分場,2026-03-24,23.416869,120.283061,6.0190823e-06
C1SA50,利嘉林道,2026-03-24,22.82325,121.009389,2.953649e-09
C0UB70,太平山中間站,2026-03-24,24.542003,121.513453,1.2517182e-09
C0A940,金山,2026-03-24,25.223628,121.643967,1.5433804e-08
C1V340,大津,2026-03-24,22.888322,120.645986,8.924179e-05
C0W180,七美,2026-03-24,23.219333,119.444892,0.8812164
C1F9C1,白冷,2026-03-24,24.182844,120.929889,3.8965994e-10
K2E710,苗改生物防治研究中心,2026-03-24,24.422861,120.871833,9.082704e-10
C0N040,蘆竹溝,2026-03-24,23.2344,120.0961,1.2180271e-09
C0TB40,崇德,2026-03-24,24.166144,121.657414,3.4178683e-08
C0D760,大坪苗圃,2026-03-24,24.5362,121.1108,3.0467628e-09
C2D430,峨眉,2026-03-24,24.6905,121.017189,2.707176e-09
C2W230,畜試所澎湖,2026-03-24,23.628342,119.513206,0.27479762
C0R880,後壁湖,2026-03-24,21.9457,120.7457,0.9886803
C1I280,埔中,2026-03-24,23.820778,120.642594,1.0795801e-08
467790,墾丁雷達站,2026-03-24,21.948235,120.808028,0.91902703
C0W190,望安,2026-03-24,23.380564,119.494075,0.28625065
C0Z170,卓溪,2026-03-24,23.3443,121.3029,1.1419958e-09
C0F850,東勢,2026-03-24,24.246428,120.833047,2.0127784e-08
466900,淡水,2026-03-24,25.164889,121.448906,3.2630745e-09
C0I370,魚池,2026-03-24,23.895703,120.94135,4.5928666e-10
C0C630,大溪,2026-03-24,24.882853,121.265547,1.8118494e-09
C0A520,山佳,2026-03-24,24.974944,121.402008,3.6118804e-09
C0I110,竹山,2026-03-24,23.761225,120.688156,5.840071e-05
82H840,茶改南部分場,2026-03-24,23.762528,120.7405,2.6794067e-08
C2SD80,再來山,2026-03-24,23.34371,121.44122,1.0136026e-09
C0G660,溪湖,2026-03-24,23.94835,120.479122,3.244375e-07
C1T800,洛韶,2026-03-24,24.204558,121.453956,9.846671e-09
C1T810,慈恩,2026-03-24,24.192044,121.388386,2.7842604e-09
C1E451,象鼻,2026-03-24,24.368617,120.940228,1.2712794e-09
C0AC60,三峽,2026-03-24,24.939025,121.369728,3.4840215e-09
C0I490,萬大林道,2026-03-24,23.928228,121.091411,2.0604305e-09
C1I290,豐丘,2026-03-24,23.668178,120.887417,1.0793222e-09
C1I320,奧萬大,2026-03-24,23.952956,121.178556,1.1550254e-09
C2M910,嘉義大學,2026-03-24,23.471325,120.485903,0.059811275
C0U770,南澳,2026-03-24,24.44935,121.81022,1.2565675e-08
C2TB30,吉安,2026-03-24,23.94538,121.54803,2.0832867e-07
C0A980,社子,2026-03-24,25.109508,121.469681,3.2603247e-09
C0V800,六龜,2026-03-24,22.997889,120.633583,1.645969e-06
C1G9D0,國一S218K,2026-03-24,23.890641,120.493253,1.7719351e-07
C0E570,白沙屯,2026-03-24,24.549447,120.696803,1.5440449e-09
C2F9A0,中竹林,2026-03-24,24.103556,120.751061,2.3833626e-09
C0FA40,臺中電廠,2026-03-24,24.2146,120.4907,1.502349e-08
C2G9A0,畜試所彰化,2026-03-24,23.86045,120.557964,7.6185206e-06
C0H9C0,合歡山,2026-03-24,24.143442,121.272547,1.46207935e-08
G2M350,農試溪口農場,2026-03-24,23.58565,120.408111,0.17551123
C0U860,頭城,2026-03-24,24.85323,121.8308,2.7799938e-09
C0R580,南州,2026-03-24,22.48591,120.50274,0.9913352
C0D430,峨眉,2026-03-24,24.6905,121.017189,1.0225978e-08
C0G780,秀水,2026-03-24,24.03405,120.503869,4.5736274e-06
72N100,臺南農改場,2026-03-24,23.0605,120.342194,0.0031594338
C0S900,蘭嶼高中,2026-03-24,22.04909,121.51214,0.99988735
C2TA60,六十石,2026-03-24,23.22477,121.31861,6.1227476e-09
C1F9W0,德基,2026-03-24,24.254783,121.190261,5.5679177e-09
C2M980,安和,2026-03-24,23.51377,120.31593,0.00013053858
C1Z120,壽豐,2026-03-24,23.870853,121.508081,3.5213665e-07
C0W160,烏坵,2026-03-24,24.9944,119.44956,1.910817e-05
C1I240,外大坪,2026-03-24,23.958697,120.917931,1.13935945e-08
C1I550,國六W023K,2026-03-24,23.979067,120.867742,4.696522e-10
C0R870,興海,2026-03-24,21.9752,120.8439,0.91902703
C0R140,瑪家,2026-03-24,22.682903,120.686639,4.884039e-10
C0A530,坪林,2026-03-24,24.938183,121.70975,3.072944e-09
C0X260,後壁,2026-03-24,23.366358,120.362326,0.0045287344
C0Z230,和平,2026-03-24,24.30717,121.77007,1.2600066e-08
C0G770,福興,2026-03-24,24.041289,120.437669,2.1011981e-08
C0H9A0,神木村,2026-03-24,23.532742,120.843667,1.6891484e-09
C0I460,南投,2026-03-24,23.911469,120.687331,3.1048992e-07
C0I480,梅峰,2026-03-24,24.085272,121.173572,3.4109047e-09
C1V570,吉東,2026-03-24,22.85422,120.5454,0.99249166
C2D770,巨埔,2026-03-24,24.84435,121.11442,2.6009843e-09
C2A560,福山,2026-03-24,24.776203,121.502811,1.0049419e-09
C0AH30,五分山,2026-03-24,25.07125,121.780794,3.3631897e-09
C0FA10,松柏,2026-03-24,24.429115,120.617482,1.291819e-09
72S200,東改班鳩分場,2026-03-24,22.829528,121.077694,6.6350716e-09
72HA00,中改埔里分場,2026-03-24,23.903208,120.963364,4.565877e-10
C2H9W0,大坪頂農水,2026-03-24,24.043122,120.932781,4.77568e-10
C0C650,平鎮,2026-03-24,24.897503,121.214636,1.305833e-09
C0S930,延平,2026-03-24,22.902581,121.084058,4.3392445e-09
C0UA60,樟樹山,2026-03-24,24.41393,121.78325,3.7823313e-09
C2UC10,出水溪,2026-03-24,24.615822,121.652253,1.0193608e-09
C1S670,摩天,2026-03-24,23.199503,121.027,7.3580537e-09
C2C590,觀音,2026-03-24,25.027072,121.153317,8.8220425e-08
C0V630,茄萣,2026-03-24,22.906642,120.182608,0.8388969
466940,基隆,2026-03-24,25.133314,121.740475,1.4630613e-08
C0X050,東河,2026-03-24,23.296598,120.385608,0.00010161908
C0R770,保力,2026-03-24,22.071122,120.764111,0.9902984
G2L020,農試嘉義分所,2026-03-24,23.485028,120.473806,0.059811275
C0X240,關子嶺,2026-03-24,23.331169,120.508025,2.3238267e-09
C0I380,集集,2026-03-24,23.828206,120.801467,1.4191184e-09
466990,花蓮,2026-03-24,23.975128,121.613275,1.8887181e-06
C1V220,小關山,2026-03-24,23.154217,120.813603,2.1260587e-09
C1F9G1,慶福山,2026-03-24,24.180853,120.848378,4.510394e-10
C0FB20,雪山橋,2026-03-24,24.23192,120.9786,5.0795776e-09
C0Z250,瑞穗林道,2026-03-24,23.49284,121.30688,1.1775889e-08
C0D590,新豐,2026-03-24,24.87068,120.97721,1.1466453e-08
C2N200,口宵里,2026-03-24,23.15987,120.45988,8.969815e-07
C0A870,五指山,2026-03-24,25.132153,121.608692,8.032344e-09
C0UA50,西帽山,2026-03-24,24.555361,121.802628,4.8183924e-09
C2R980,竹田國中,2026-03-24,22.61532,120.52412,0.8662914
C0X160,仁德,2026-03-24,22.968258,120.257689,0.6952527
C1H971,六分寮,2026-03-24,23.92507,120.6378,1.0346381e-08
C2D790,石鹿,2026-03-24,24.56551,121.15841,8.67558e-09
C0W120,西嶼,2026-03-24,23.5626,119.468436,0.24780893
C0G650,員林,2026-03-24,23.946503,120.585597,1.9929e-05
C0AD50,鶯歌,2026-03-24,24.951533,121.346294,2.7675031e-09
C2H9Q0,北東眼山,2026-03-24,24.120939,121.189303,4.1958526e-09
C2H9T0,名間竹圍,2026-03-24,23.859914,120.637572,2.9388357e-07
C0S990,山豬窟,2026-03-24,22.318619,120.857372,1.0364448e-09
C0X190,安平,2026-03-24,22.993161,120.152181,8.199717e-05
C0K400,斗六,2026-03-24,23.720583,120.541127,0.0011213922
12J990,口湖工作站,2026-03-24,23.589978,120.180394,6.542738e-10
C0O830,北寮,2026-03-24,23.079561,120.495008,1.8882716e-08
C1D410,白蘭,2026-03-24,24.579364,121.079947,2.4165263e-09
C0S970,加津林,2026-03-24,22.416211,120.926942,1.2069082e-09
C0D700,關西,2026-03-24,24.7977,121.1732,9.693157e-10
C0U750,龜山島,2026-03-24,24.841667,121.953133,9.122485e-09
C0R810,內獅,2026-03-24,22.305064,120.642986,0.81232023
C2EA10,拉庫斯,2026-03-24,24.53637,121.02137,2.049495e-09
C1M390,龍美,2026-03-24,23.406728,120.654417,1.1018114e-09
C2K290,崙內,2026-03-24,23.69525,120.35601,0.00011396753
C2FB60,頭櫃山,2026-03-24,24.129842,120.858925,1.1151097e-09
C1H840,國三N238K,2026-03-24,23.841008,120.707711,1.3019358e-07
CAQ030,崎峰國小,2026-03-24,22.42565,120.49521,0.9913352
C2E520,大湖,2026-03-24,24.414939,120.870872,9.082704e-10
467530,阿里山,2026-03-24,23.508208,120.813242,6.2724532e-09
C1E691,南湖,2026-03-24,24.40135,120.837533,9.955612e-10
C0FA30,梧棲,2026-03-24,24.256003,120.523381,8.406367e-09
C1V231,高中,2026-03-24,23.134911,120.716711,1.3996109e-09
C0AK30,硬漢嶺,2026-03-24,25.136097,121.426372,2.2072077e-09
C0F9V0,新社,2026-03-24,24.200172,120.815806,4.1424477e-09
C0H890,埔里,2026-03-24,23.972169,120.952425,4.2336495e-10
C0R690,墾丁,2026-03-24,21.966756,120.810269,0.93764555
C0SD20,富山,2026-03-24,22.822383,121.190825,1.9245729e-07
C0F0D0,審馬陣,2026-03-24,24.381675,121.4203,2.3008582e-08
C2W030,金門農試所,2026-03-24,24.448431,118.451786,1.0117527e-08
C0R820,白鷺,2026-03-24,22.454275,120.666219,4.1495624e-10
C0FB00,大雪山,2026-03-24,24.254668,121.007374,6.371254e-09
C2O880,南化,2026-03-24,23.17332,120.59413,4.091587e-09
C1V190,南天池,2026-03-24,23.27403,120.91176,3.8403707e-09
C0E940,雪見,2026-03-24,24.42595,121.01347,5.4063367e-09
K2E360,苗栗農改場,2026-03-24,24.495722,120.829111,6.7080197e-10
CAJ050,海口故事園區,2026-03-24,23.57543,120.14121,6.542738e-10
C2K280,四湖,2026-03-24,23.6304,120.22717,1.1416299e-09
C2H9D0,三隻寮,2026-03-24,24.093078,120.861578,4.6346224e-10
C0O990,媽廟,2026-03-24,22.99175,120.293525,0.1864165
C0D480,打鐵坑,2026-03-24,24.849664,121.150789,1.0791683e-08
C0Z220,和平林道,2026-03-24,24.343922,121.656317,6.640883e-09
C0TA10,花蓮漁港,2026-03-24,23.995322,121.638331,6.4600677e-06
72C440,桃園農改場,2026-03-24,24.950944,121.030583,9.016651e-09
C1E711,馬拉邦山,2026-03-24,24.367306,120.901656,1.3503461e-09
C0SB20,富岡,2026-03-24,22.792467,121.192669,1.3376875e-07
C0D560,竹東,2026-03-24,24.767147,121.057881,2.465942e-09
C0F9U0,南屯,2026-03-24,24.137006,120.637969,0.000408816
C2SD60,明峰,2026-03-24,22.8671,121.11825,5.2046705e-09
C0M720,番路,2026-03-24,23.464657,120.554156,5.132159e-08
C0F0A0,雪山圈谷,2026-03-24,24.388594,121.236339,8.844855e-08
C1A9N0,四十份,2026-03-24,24.934158,121.593283,2.2035733e-09
C0U760,東澳,2026-03-24,24.52196,121.83318,1.0540548e-08
C0X230,鹽水,2026-03-24,23.272621,120.247641,3.5257155e-09
C2H9H0,苗改南投蜂場,2026-03-24,23.852589,120.693481,3.4648e-06
C2TB70,達谷寮,2026-03-24,23.38,121.35968,1.0206059e-09
C0R950,萬隆國小,2026-03-24,22.507667,120.587817,7.4943483e-07
467540,大武,2026-03-24,22.35572,120.90374,0.31718895
C0V370,古亭坑,2026-03-24,22.893178,120.401947,1.2999822e-06
C1I340,新興橋,2026-03-24,23.563333,120.868728,6.4311495e-10
C2C480,桃園,2026-03-24,24.992425,121.323172,2.298287e-09
C0SA80,土坂,2026-03-24,22.453108,120.887572,9.329093e-10
C0R160,鹽埔,2026-03-24,22.739558,120.530778,0.98580855
C0AC40,大屯山,2026-03-24,25.175675,121.522408,1.800592e-08
466850,五分山雷達站,2026-03-24,25.071182,121.781205,3.3893155e-09
C2H9L0,馬烈霸,2026-03-24,24.1512,121.201772,4.1958526e-09
C1AI50,國三N016K,2026-03-24,25.034164,121.619664,4.8541833e-09
C2V920,匏子寮,2026-03-24,23.04905,120.55319,3.5735905e-08
C1V600,藤枝,2026-03-24,23.071961,120.757042,1.485273e-09
C1E601,南勢,2026-03-24,24.572486,120.734842,1.5440449e-09
C0O980,新市,2026-03-24,23.061614,120.298197,0.0031594338
C0K420,西螺,2026-03-24,23.800407,120.467394,1.5013542e-07
C0Z050,佳心,2026-03-24,23.34567,121.21316,4.4969446e-09
C0AD30,蘆洲,2026-03-24,25.086594,121.472331,3.2307534e-09
C0V610,梓官,2026-03-24,22.760558,120.267211,0.9963276
K2F750,種苗改良場,2026-03-24,24.225972,120.800917,4.1424477e-09
C0UA80,大溪漁港,2026-03-24,24.941801,121.902955,1.1369845e-08
C1AI60,國一39K邊坡,2026-03-24,25.064361,121.383836,1.9780868e-09
C0W150,金寧,2026-03-24,24.457703,118.328989,1.075878e-08
C0R960,內埔,2026-03-24,22.608483,120.570714,0.8662914
C2H9S0,龍南,2026-03-24,23.953536,120.833183,6.3769895e-10
C0AH40,平等,2026-03-24,25.129142,121.577086,2.148799e-09
C0R540,佳冬,2026-03-24,22.419456,120.552375,0.978219
466950,彭佳嶼,2026-03-24,25.627975,122.079744,0.9767063
C0A890,雙溪,2026-03-24,25.036003,121.864242,2.2263671e-07
C0C480,桃園,2026-03-24,24.992425,121.323172,1.3156035e-08
C0AH50,林口,2026-03-24,25.072181,121.38084,1.824215e-09
A2K360,水試臺西試驗場,2026-03-24,23.717231,120.190522,1.4505125e-09
C2M960,外寮,2026-03-24,23.562643,120.665688,7.457689e-10
C0F9S0,烏日,2026-03-24,24.107058,120.624103,0.000408816
C2N180,鹿陶洋,2026-03-24,23.14325,120.48352,1.0722882e-05
C0C490,八德,2026-03-24,24.928708,121.283289,1.8118494e-09
C0R190,赤山,2026-03-24,22.592333,120.614306,0.72830564
C0T820,天祥,2026-03-24,24.179597,121.495639,7.1035817e-09
C1F9E1,龍安,2026-03-24,24.1605,120.831961,3.685606e-09
C2SD50,順那,2026-03-24,23.04166,121.29332,0.652889
C0V820,小林,2026-03-24,23.148408,120.63325,2.5266118e-09
C2G870,芳苑,2026-03-24,23.922303,120.320025,7.528524e-09
C0E850,大河,2026-03-24,24.618069,120.948578,1.0153305e-09
C1U670,寒溪,2026-03-24,24.634,121.71691,1.1800774e-09
C0N020,城西,2026-03-24,23.0568,120.0956,6.7451915e-09
C1Z110,三棧,2026-03-24,24.11557,121.60501,6.9070327e-09
C0R280,檳榔,2026-03-24,22.076078,120.836777,1.26958785e-05
C2H9J0,中台,2026-03-24,23.9996,120.938739,4.77568e-10
C0F9L0,后里,2026-03-24,24.310436,120.729725,8.059356e-08
467441,高雄,2026-03-24,22.730432,120.312516,0.98249227
C2N210,岩坑,2026-03-24,23.24614,120.47458,4.3163894e-08
C0Z180,新城,2026-03-24,24.040486,121.604878,8.542341e-07
C0D540,橫山,2026-03-24,24.71116,121.11693,8.3284646e-10
C1D420,太閣南,2026-03-24,24.632808,121.160575,4.559648e-09
C1E770,公館,2026-03-24,24.526914,120.830806,7.168748e-10
CAN130,水試所海水繁養殖中心,2026-03-24,23.120802,120.07968,7.787278e-09
C1I430,翠華,2026-03-24,24.191961,121.224339,8.181742e-09
C1M400,菜瓜坪,2026-03-24,23.251928,120.576103,6.6531014e-10
C0G730,二林,2026-03-24,23.903325,120.376081,1.4244798e-09
72M360,南改義竹分場,2026-03-24,23.360694,120.279361,1.3059575e-07
V2K620,麥寮合作社,2026-03-24,23.753836,120.294783,4.895737e-09
C0Z070,舞鶴,2026-03-24,23.46811,121.37407,1.2294056e-09
C0B040,大武崙,2026-03-24,25.166676,121.706993,1.3343194e-08
C1Z030,紅葉,2026-03-24,23.493119,121.338806,1.4069714e-09
C1I050,丹大,2026-03-24,23.753747,121.141147,4.6939275e-09
467290,古坑,2026-03-24,23.380729,120.336861,0.0045287344
C0I080,信義,2026-03-24,23.689694,120.851036,4.4257376e-10
C2TB80,庄子底,2026-03-24,23.71794,121.49438,9.645782e-09
C0D750,樂山林道6k,2026-03-24,24.49999,121.08773,1.3936817e-08
C2M920,朴子農改,2026-03-24,23.469889,120.259383,6.0190823e-06
C2A880,福隆,2026-03-24,25.017842,121.942083,2.1247061e-07
C0Z160,鳳林,2026-03-24,23.746114,121.453411,8.167507e-09
C0UB80,翠峰林道6K,2026-03-24,24.49773,121.568625,6.132565e-09
C0V210,復興,2026-03-24,23.222403,120.806089,1.1690819e-09
C0H990,昆陽,2026-03-24,24.121322,121.273642,1.0959809e-08
C0R741,獅子,2026-03-24,22.202308,120.705236,0.7310017
C0S710,鹿野,2026-03-24,22.917711,121.122994,2.770672e-09
C0I530,小奇萊,2026-03-24,24.131764,121.295717,1.164307e-08
C0FA70,大雪山埡口,2026-03-24,24.26867,121.03062,1.2861281e-08
C2K630,荷苞,2026-03-24,23.657717,120.595144,0.009296591
C0Z080,富源,2026-03-24,23.587642,121.378225,3.6526442e-09
C2M9E0,旺來山,2026-03-24,23.555153,120.486463,0.016731229
C0SB10,美和,2026-03-24,22.682078,121.060236,0.015074732
C2K620,馬光農場,2026-03-24,23.721453,120.378864,4.086449e-06
C1I140,卡奈托灣,2026-03-24,23.754364,121.087872,2.3699582e-09
C0I520,玉山風口,2026-03-24,23.470489,120.955994,1.9809308e-08
C1G691,下水埔,2026-03-24,23.816114,120.5676,5.6296147e-05
C0X110,臺南市南區,2026-03-24,22.961189,120.188378,0.66647047
C0V680,仁武,2026-03-24,22.701083,120.347722,0.98249227
C2G840,北斗,2026-03-24,23.877586,120.514222,1.7719351e-07
C2TB90,長橋,2026-03-24,23.6874,121.46186,7.714793e-09
C0R900,竹坑,2026-03-24,22.1385,120.7022,0.80974394
C0G860,社頭,2026-03-24,23.897647,120.5862,7.6185206e-06
C0X150,安定,2026-03-24,23.102614,120.227839,1.1098543e-05
C0R590,里港,2026-03-24,22.77919,120.49459,0.008823579
C0E610,馬都安,2026-03-24,24.451272,120.930192,9.458796e-10
C0E550,明德,2026-03-24,24.583486,120.885411,1.3367948e-09
C0R150,三地門,2026-03-24,22.709889,120.639944,0.26446363
C0G910,花壇,2026-03-24,24.032076,120.549461,4.573623e-06
C1D400,鳥嘴山,2026-03-24,24.71909,121.28387,1.5782267e-09
C0K500,元長,2026-03-24,23.64981,120.315024,8.445678e-09
C0F0B0,石岡,2026-03-24,24.276061,120.777644,8.059356e-08
C2V250,甲仙,2026-03-24,23.080106,120.591758,5.0032782e-09
C0SA20,金崙山,2026-03-24,22.567419,120.959667,3.7442174e-09
C0V350,溪埔,2026-03-24,22.738578,120.446797,0.009888521
C0M660,溪口,2026-03-24,23.604131,120.403569,0.17551109
C1S880,壽卡,2026-03-24,22.238911,120.858903,8.39405e-08
72D680,桃改新埔分場,2026-03-24,24.834444,121.066111,6.420649e-09
