站號,站名,日期,lat,lon,BLBTSLS
C0R710,龍磐,2026-01-04,21.931672,120.838942,0.99792
C1F9D1,白毛台,2026-01-04,24.158325,120.886933,1.6832467e-09
C0G940,竹塘,2026-01-04,23.848253,120.386764,2.146456e-09
467590,恆春,2026-01-04,22.003897,120.746339,0.9912888
C1O850,環湖,2026-01-04,23.148617,120.418633,1.4173763e-09
C0U710,太平山,2026-01-04,24.505486,121.525656,2.7366188e-08
C0E820,獅潭,2026-01-04,24.539133,120.920042,4.387188e-09
C2SD70,二層坪,2026-01-04,22.94105,121.16838,2.5990612e-08
C0V880,興達,2026-01-04,22.8778,120.2127,3.9580623e-09
C0S890,關山,2026-01-04,23.0395,121.175017,2.01858e-08
C0SB30,新蘭,2026-01-04,22.869214,121.223228,5.113458e-07
C2R970,屏科大,2026-01-04,22.648275,120.619247,4.045953e-10
C1Z130,銅門,2026-01-04,23.965694,121.492842,7.7238775e-09
C0AD40,土城,2026-01-04,24.973208,121.445169,3.3929433e-07
CAN140,六官養殖協會,2026-01-04,23.22881,120.29962,4.4053944e-08
C0X180,山上,2026-01-04,23.0757,120.363253,2.4762354e-09
C0F9Z0,雪山東峰,2026-01-04,24.388792,121.268675,3.6337177e-08
C1M480,獨立山,2026-01-04,23.537022,120.607797,1.4949905e-09
C0X220,學甲,2026-01-04,23.230367,120.182187,2.2642926e-08
467650,日月潭,2026-01-04,23.881325,120.90805,2.8819498e-09
A2K570,古坑(花卉中心),2026-01-04,23.633531,120.552392,7.708817e-10
C0K600,箔子寮,2026-01-04,23.6197,120.14,2.0888092e-07
C0G830,埤頭,2026-01-04,23.866003,120.452806,1.3041703e-09
C0S950,七塊厝,2026-01-04,22.954453,121.229922,1.126657e-08
467110,金門,2026-01-04,24.407306,118.289281,1.0966421e-07
C0AH80,深坑,2026-01-04,25.002703,121.628328,1.0302529e-07
C0A970,三貂角,2026-01-04,25.007606,122.002058,4.4745388e-08
C2D730,寶山農場,2026-01-04,24.732444,120.976153,9.685992e-09
C0K430,褒忠,2026-01-04,23.690938,120.303634,7.827679e-09
467480,嘉義,2026-01-04,23.495925,120.432906,8.6378185e-09
C0V400,阿公店,2026-01-04,22.804194,120.355528,9.3074146e-07
C0E960,觀霧分站,2026-01-04,24.505781,121.113921,1.7556637e-08
467550,玉山,2026-01-04,23.48718,120.95943,3.7350464e-08
C0R440,大漢山,2026-01-04,22.405264,120.753181,1.3709577e-08
C0SD30,東清國小,2026-01-04,22.057128,121.564922,0.6292072
C1F9B1,桐林,2026-01-04,24.066172,120.735194,7.4055545e-10
C2H9U0,鳳鵬,2026-01-04,23.763919,120.788061,8.028479e-10
C0K390,土庫,2026-01-04,23.679029,120.395574,2.3947866e-09
C1I450,望鄉山,2026-01-04,23.594153,120.944286,2.0752218e-08
C0E910,海埔,2026-01-04,24.648767,120.772435,1.4456714e-08
B2E890,畜試北區分所,2026-01-04,24.527806,120.770972,5.700001e-09
C0R750,四林格山,2026-01-04,22.076989,120.802439,1.3111043e-06
C0F0C0,中坑,2026-01-04,24.248517,120.903319,2.7279925e-09
C1I121,大鞍,2026-01-04,23.678381,120.760017,6.074915e-09
C2G9E0,移民庄,2026-01-04,23.9784,120.40283,6.9245503e-09
72U480,花改蘭陽分場,2026-01-04,24.686306,121.716583,7.739347e-09
C0A770,科教館,2026-01-04,25.096356,121.516507,1.4184391e-07
C0AJ60,六塊厝,2026-01-04,25.24,121.4481,8.1155405e-05
C0R620,墾雷,2026-01-04,21.900836,120.855269,0.9950311
467420,永康,2026-01-04,23.038386,120.2367,2.5782697e-08
C2M530,奮起湖,2026-01-04,23.493903,120.699253,4.4086033e-09
C0I410,名間,2026-01-04,23.837053,120.701447,5.538544e-10
A2C560,農工中心,2026-01-04,24.985917,121.239833,4.113464e-07
C0V740,旗山,2026-01-04,22.888614,120.483597,1.7767781e-09
C0Z061,玉里,2026-01-04,23.3215,121.339656,8.124236e-09
C0S840,南田,2026-01-04,22.279725,120.889208,0.9996405
C1I470,杉林溪,2026-01-04,23.639517,120.786444,7.254652e-09
C1X040,東原,2026-01-04,23.291597,120.463822,5.286952e-10
C0R660,枋寮,2026-01-04,22.367722,120.590647,6.116302e-10
C1R120,上德文,2026-01-04,22.763272,120.704442,1.5378375e-09
C0K450,大埤,2026-01-04,23.646074,120.431537,1.6845185e-09
C0UA00,土場,2026-01-04,24.576533,121.495333,1.3212994e-08
467080,宜蘭,2026-01-04,24.763975,121.756528,7.3079676e-09
C0N030,四草,2026-01-04,23.0235,120.1116,3.657875e-08
467410,臺南,2026-01-04,22.99328,120.20492,9.2946415e-09
C0V650,彌陀,2026-01-04,22.783806,120.246361,1.271078e-05
C0D660,新竹市東區,2026-01-04,24.798681,120.986942,3.7014942e-08
82S580,茶改東部分場,2026-01-04,22.907694,121.130139,3.6685233e-08
C0SB40,興隆,2026-01-04,22.913661,121.257469,0.0013860117
467050,新屋,2026-01-04,25.006725,121.047492,0.00034615988
C0C710,大溪永福,2026-01-04,24.892936,121.324975,8.212358e-08
C0FA20,溫寮,2026-01-04,24.372177,120.583125,1.1933144e-08
C0V640,湖內,2026-01-04,22.887139,120.2445,3.824355e-09
C0R910,下寮,2026-01-04,22.3929,120.5548,2.5597819e-08
C0Z020,明里,2026-01-04,23.208717,121.262342,7.680643e-09
C0M770,嘉義梅山,2026-01-04,23.585398,120.555587,9.535656e-10
C0C660,楊梅,2026-01-04,24.912375,121.143047,2.3803932e-07
C0SD40,牛頭山,2026-01-04,22.676661,121.506944,0.98980975
C1E511,新開,2026-01-04,24.347703,120.827019,1.876888e-09
G2F820,農試所(霧峰),2026-01-04,24.031261,120.688133,7.068829e-10
C2M990,大巃頂,2026-01-04,23.5547,120.61439,1.9930688e-09
C1I070,和社,2026-01-04,23.591131,120.888861,1.8529139e-09
C2E990,新坪頂,2026-01-04,24.30201,120.8574,2.1592301e-09
C0TA80,立霧山,2026-01-04,24.183258,121.641899,1.5609002e-08
C2F000,大肚,2026-01-04,24.15295,120.572117,3.563379e-09
C1S850,豐南,2026-01-04,23.122139,121.262389,8.2690175e-09
C2M9B0,西興,2026-01-04,23.2428,120.57617,7.008149e-10
C2A920,富貴角,2026-01-04,25.263783,121.565258,2.400098e-05
CAH030,茶改場竹圍站,2026-01-04,23.860083,120.637528,7.200499e-10
C0T960,光復,2026-01-04,23.660694,121.424964,1.04326805e-08
C0F9M0,豐原,2026-01-04,24.254322,120.720692,1.6230135e-09
C0R720,旭海,2026-01-04,22.205403,120.887614,0.9980581
C0V710,苓雅,2026-01-04,22.622742,120.330669,2.2107842e-07
C0C740,觀音工業區,2026-01-04,25.064764,121.114856,0.13337745
CAC040,拉拉山,2026-01-04,24.699317,121.427133,4.0607162e-08
C0V790,萬山,2026-01-04,22.905944,120.688056,1.123502e-09
U2HA30,臺大和社,2026-01-04,23.590856,120.888864,1.8529139e-09
C2H9K0,屯原,2026-01-04,24.067969,121.209389,1.0507368e-08
C0AJ90,澳底,2026-01-04,25.0552,121.9253,5.775769e-08
C0Z100,東華,2026-01-04,23.89525,121.549833,8.116601e-09
C0G970,三豐,2026-01-04,23.882,120.2895,0.018414121
V2K610,大庄合作社,2026-01-04,23.8068,120.367939,9.162732e-09
C0V900,汕尾,2026-01-04,22.4782,120.4151,1.1194036e-09
C1R630,龍泉,2026-01-04,22.66701,120.59091,4.074172e-10
C1AC50,關渡,2026-01-04,25.133486,121.469331,5.0948876e-07
C0C800,四稜,2026-01-04,24.64733,121.4293,3.5727588e-08
C0F9I0,神岡,2026-01-04,24.272481,120.658314,1.9781812e-09
C0K460,斗南,2026-01-04,23.678734,120.478359,1.6769786e-09
C2O810,曾文,2026-01-04,23.219681,120.497328,5.194671e-10
467280,後龍,2026-01-04,24.648563,120.831834,1.3245596e-08
C1F9J1,清水林,2026-01-04,24.071242,120.820419,1.367421e-09
C2A650,火燒寮,2026-01-04,25.002719,121.742892,5.0326346e-08
466930,竹子湖,2026-01-04,25.162078,121.544547,7.067986e-08
C1I220,樟湖,2026-01-04,23.905333,120.846983,3.5864463e-09
C0I390,仁愛,2026-01-04,24.022122,121.132206,3.2451124e-09
C0Z300,東里,2026-01-04,23.26853,121.30547,7.826037e-09
C1V590,新發,2026-01-04,23.057019,120.646064,2.53215e-09
C0K510,水林,2026-01-04,23.572924,120.24597,2.937155e-09
72S590,東改賓朗果園,2026-01-04,22.813889,121.071278,2.1322917e-07
82A750,茶改北部分場,2026-01-04,24.955778,121.631222,3.7631203e-08
C1A750,石碇服務區,2026-01-04,25.00872,121.646242,1.1776871e-07
C0X300,鹿寮,2026-01-04,23.386047,120.477331,1.3831123e-09
G2AI50,關渡,2026-01-04,25.11575,121.492,1.9390498e-07
C0K590,雲林東勢,2026-01-04,23.674192,120.255721,8.253197e-09
C2K310,港尾布雞,2026-01-04,23.74834,120.38439,1.7315783e-09
C0A570,桶後,2026-01-04,24.848222,121.597992,3.38537e-08
C1S800,華源,2026-01-04,22.657883,121.02325,0.062237404
C0G720,溪州,2026-01-04,23.851589,120.499093,1.302008e-09
C1V160,達卡努瓦,2026-01-04,23.279811,120.705319,3.4758973e-09
C2M410,馬頭山,2026-01-04,23.324361,120.582017,5.496292e-10
C0V850,蚵仔寮,2026-01-04,22.7256,120.2527,2.1264335e-05
C0S740,池上,2026-01-04,23.119628,121.209469,1.2403632e-08
C1V390,尖山,2026-01-04,22.813153,120.367789,6.671157e-07
C0AH70,松山,2026-01-04,25.04871,121.55042,1.385992e-07
C0N010,鯤鯓國小,2026-01-04,23.1879,120.0889,1.8283577e-08
C0R550,新埤,2026-01-04,22.467947,120.582894,5.7161986e-10
C0SA60,知本（水試所）,2026-01-04,22.702394,121.082761,0.7150814
C0T9I0,豐濱,2026-01-04,23.583897,121.514806,6.6198016e-09
C0UB00,淡江大學蘭陽校園,2026-01-04,24.823239,121.730383,1.6905869e-08
C0W240,九宮,2026-01-04,24.423753,118.240186,2.603482e-08
C0T9N0,富里,2026-01-04,23.171639,121.249378,7.254818e-09
U2HA50,臺大竹山,2026-01-04,23.756972,120.681556,6.153747e-10
C0V840,鳳鼻頭,2026-01-04,22.5083,120.3591,1.0432576e-09
C0X140,西港,2026-01-04,23.125608,120.203108,2.4850655e-08
72D080,桃改五峰分場,2026-01-04,24.612194,121.157167,7.683852e-09
C2H9P0,伊拿谷,2026-01-04,23.963211,121.088264,1.782144e-09
C2K250,崙背,2026-01-04,23.75553,120.31893,7.819338e-09
C2H9F0,柑林,2026-01-04,24.018658,120.847072,6.804811e-10
C0TA20,加灣,2026-01-04,24.082025,121.608944,1.9375095e-08
C0V530,阿蓮,2026-01-04,22.883208,120.327508,2.4800464e-08
C0FB30,八仙山苗圃,2026-01-04,24.192719,121.001366,2.5714322e-09
C1O880,關山,2026-01-04,23.173397,120.594092,5.222378e-10
C0E791,卓蘭,2026-01-04,24.3126,120.8244,1.9234432e-09
C1I030,武界,2026-01-04,23.913225,121.052483,2.0924105e-09
C0R520,崁頂,2026-01-04,22.514781,120.506914,1.3590459e-09
C0R341,牡丹,2026-01-04,22.130036,120.792639,0.00075753406
C0R930,萬丹,2026-01-04,22.5885,120.4851,9.0650853e-10
C0S760,紅石,2026-01-04,23.069131,121.126219,1.2064807e-08
C2C410,中央大學,2026-01-04,24.967652,121.185165,4.0224162e-07
C1M610,石磐龍,2026-01-04,23.496606,120.663506,3.3242484e-09
C0C790,東眼山,2026-01-04,24.8284,121.40888,2.6706209e-08
C0UA10,鴛鴦湖,2026-01-04,24.590269,121.412228,3.1374952e-08
V2C260,八德蔬果,2026-01-04,24.978508,121.281819,2.7504765e-07
C0R800,丹路,2026-01-04,22.204481,120.750989,0.87791914
C0G920,永靖,2026-01-04,23.924703,120.547533,2.2989972e-09
C2M950,太和,2026-01-04,23.538372,120.702961,4.3506394e-09
C1A630,下盆,2026-01-04,24.771003,121.538622,3.2833476e-08
B2N890,畜產試驗所,2026-01-04,23.058972,120.336406,6.244035e-08
C0UA30,白嶺,2026-01-04,24.527819,121.519031,2.0701812e-08
C1V580,溪南(特生中心),2026-01-04,23.084972,120.788475,5.133909e-09
C1T970,大農,2026-01-04,23.615233,121.413331,9.808226e-09
C0R650,竹田,2026-01-04,22.58486,120.54344,1.4265353e-09
C1H900,清流,2026-01-04,24.080775,120.962997,1.924078e-09
C1C510,水尾,2026-01-04,24.940081,121.087161,3.5709747e-06
C2N170,茅港尾,2026-01-04,23.2061,120.2624,4.4249823e-08
C0F9X0,大雅(中科園區),2026-01-04,24.21528,120.62445,3.9460692e-09
C0SB60,白守蓮,2026-01-04,23.126769,121.401914,0.0005357476
C0O970,虎頭埤,2026-01-04,23.021375,120.347878,5.2229385e-09
C0C730,中大臨海站,2026-01-04,24.966126,121.008581,2.6215137e-06
C0X250,新營,2026-01-04,23.310689,120.316681,2.338679e-08
C0V700,三民,2026-01-04,22.645017,120.311233,0.00030335062
C0U870,大礁溪,2026-01-04,24.791042,121.675047,1.5925728e-08
C0E870,高鐵苗栗,2026-01-04,24.60725,120.826094,1.3379255e-08
A2K570,古坑花卉中心,2026-01-04,23.63353,120.55239,7.391757e-09
C0TA30,鹽寮,2026-01-04,23.845606,121.592664,8.642615e-09
C0M860,新美,2026-01-04,23.338017,120.683169,1.1947328e-09
C1E701,八卦,2026-01-04,24.491756,120.927619,5.570117e-09
C2TA90,加納納,2026-01-04,23.466421,121.359867,5.9799903e-09
C0I420,國姓,2026-01-04,24.037803,120.855072,7.071094e-10
C2D720,關西工作站,2026-01-04,24.757275,121.184792,1.0738299e-08
C0S960,香蘭,2026-01-04,22.587569,120.993375,1.4296978e-07
467620,蘭嶼,2026-01-04,22.0369,121.55843,0.90827686
C0R260,春日,2026-01-04,22.370361,120.628306,5.2803917e-10
72G600,臺中農改場,2026-01-04,24.003028,120.534389,2.2580422e-09
C0Z210,瑞穗,2026-01-04,23.5239,121.39021,1.01310444e-08
C0M820,達邦,2026-01-04,23.453994,120.749517,2.7229758e-09
C0V860,南寮,2026-01-04,22.7616,120.2339,7.892206e-06
C0G740,大城,2026-01-04,23.852487,120.320935,0.017962838
C0R920,塭仔,2026-01-04,22.4169,120.5197,2.5656279e-08
C0R470,高樹,2026-01-04,22.826389,120.600806,3.646628e-10
C0R680,佳樂水,2026-01-04,21.993578,120.861633,0.997356
C1O870,大棟山,2026-01-04,23.31157,120.52226,3.0996514e-09
C0D360,梅花,2026-01-04,24.678347,121.208558,8.070121e-09
C0Z190,富世,2026-01-04,24.14743,121.6297,2.1222835e-08
C0AI10,屈尺,2026-01-04,24.92184,121.54475,2.629491e-07
B2U990,畜試東區分所,2026-01-04,24.669039,121.832561,7.390023e-09
C0SB80,長濱漁港,2026-01-04,23.313644,121.459994,8.297327e-06
C0TA50,和仁,2026-01-04,24.241394,121.712472,1.2847796e-08
C0V910,大樹,2026-01-04,22.684645,120.432803,2.4992449e-08
C1R610,西大武山,2026-01-04,22.617719,120.7322,8.521389e-09
C0G900,線西,2026-01-04,24.143358,120.443536,1.1385665e-08
C0M700,竹崎,2026-01-04,23.526178,120.555508,1.2832386e-09
C2E880,三義,2026-01-04,24.405478,120.749819,6.9584973e-09
C0C720,竹圍,2026-01-04,25.112692,121.239824,3.2561395e-05
C0F9P0,清水,2026-01-04,24.312297,120.562242,1.045527e-08
C0Z150,吉安光華,2026-01-04,23.930925,121.595153,1.1506963e-08
C0FA80,小雪山天池,2026-01-04,24.28025,121.02627,2.5661125e-08
467300,東吉島,2026-01-04,23.25727,119.66762,0.9954412
C1D640,外坪(五指山),2026-01-04,24.644447,121.090961,1.0212997e-08
C2R9A0,高士國小,2026-01-04,22.12553,120.84653,0.0009992041
C0F9O0,潭子,2026-01-04,24.213106,120.703933,1.5761661e-09
C2H9R0,卓社,2026-01-04,23.887894,121.000086,4.3416786e-09
72T250,花蓮農改場,2026-01-04,23.975222,121.563889,1.0624901e-08
C0E780,銅鑼,2026-01-04,24.489681,120.790853,5.865177e-09
C1T950,太安,2026-01-04,23.666719,121.370128,8.776472e-09
C0E830,苑裡,2026-01-04,24.439714,120.653053,1.7684517e-08
467270,田中,2026-01-04,23.873803,120.581286,9.74549e-10
C0SA10,檳榔四格山,2026-01-04,22.810031,121.109308,5.4526716e-08
C1T830,布洛灣,2026-01-04,24.17184,121.57127,1.518253e-08
C0F970,大坑,2026-01-04,24.173142,120.722289,1.597266e-09
C1U920,思源,2026-01-04,24.393125,121.347214,2.0818106e-08
C2H9Y0,松茗,2026-01-04,23.8167,120.650765,9.019915e-10
C0A931,三和,2026-01-04,25.233153,121.595236,5.537239e-07
C0I010,廬山,2026-01-04,24.033311,121.181808,6.0202856e-09
C2M940,日野賀,2026-01-04,23.434056,120.727169,3.9136063e-09
C0R860,鼻頭,2026-01-04,22.1043,120.8979,0.99960977
C0UB20,壯圍,2026-01-04,24.7359,121.8163,7.403468e-09
C0R790,九棚,2026-01-04,22.14195,120.889281,0.99852777
C0W110,東莒,2026-01-04,25.9652,119.98069,0.08958632
C1U930,粉鳥林,2026-01-04,24.497088,121.842479,7.3983437e-09
C1I211,蘆竹湳,2026-01-04,23.934019,120.811994,1.1257908e-09
C0S830,長濱,2026-01-04,23.286817,121.411975,6.887812e-09
C1F9F1,伯公龍,2026-01-04,24.272392,120.849047,1.8222049e-09
C0UB90,太平山莊,2026-01-04,24.494171,121.536209,2.7566571e-08
C0E810,西湖,2026-01-04,24.562947,120.7485,1.1717623e-06
C1I440,新高口,2026-01-04,23.478744,120.878939,1.6593969e-08
C0O840,王爺宮,2026-01-04,23.222064,120.40085,9.006545e-09
C0T9G0,鳳林山,2026-01-04,23.735269,121.420131,1.3737165e-08
C0X080,佳里,2026-01-04,23.173039,120.145086,1.5727645e-08
C0FB70,大甲溪埔,2026-01-04,24.370625,120.620067,1.19156995e-08
C0Z310,清水斷崖,2026-01-04,24.218294,121.689142,1.0252402e-08
C0M680,太保,2026-01-04,23.455062,120.331455,8.087162e-09
C1S820,金峰,2026-01-04,22.590969,120.933236,4.0979074e-08
C0AD10,八里,2026-01-04,25.150211,121.403947,0.00019827455
C2K240,草嶺,2026-01-04,23.59555,120.693461,3.0173555e-09
C1SA70,都蘭,2026-01-04,22.87794,121.226881,3.6321973e-07
C0K440,二崙,2026-01-04,23.772797,120.408944,1.5676662e-09
C1A760,坪林交控,2026-01-04,24.94284,121.713442,6.065215e-08
C0F9N0,大里,2026-01-04,24.092464,120.701378,7.070636e-10
C0SA90,達仁林場,2026-01-04,22.264347,120.823972,1.0545516e-08
C1R290,石門山,2026-01-04,22.112611,120.756597,0.0004409311
42HA10,萬大發電廠,2026-01-04,23.978875,121.139639,2.6145233e-09
C0R890,山海,2026-01-04,21.9878,120.7091,0.990772
C0T9A0,月眉山,2026-01-04,23.809928,121.539828,6.877074e-09
C0AC70,信義,2026-01-04,25.037822,121.564597,1.763311e-07
C0K560,棋山,2026-01-04,23.68645,120.603417,6.9400696e-10
C2FB50,出雲,2026-01-04,24.206469,120.902794,3.3793939e-09
C1Z240,中平林道,2026-01-04,23.42115,121.26763,1.3569615e-08
U2H480,溪頭,2026-01-04,23.670306,120.798194,3.3111114e-09
C0M880,好美里,2026-01-04,23.3364,120.138,1.8245604e-08
C0T9E0,大坑,2026-01-04,23.880628,121.581981,6.608939e-09
C0K530,臺西,2026-01-04,23.701547,120.197559,8.025782e-07
C1E900,國一N128K,2026-01-04,24.560997,120.844186,5.04025e-09
C0AJ50,水湳洞,2026-01-04,25.123695,121.862238,5.5333437e-08
C0AI20,白沙灣,2026-01-04,25.283128,121.519058,0.0043229247
C2V310,美濃,2026-01-04,22.898792,120.51907,1.8300802e-09
C0A860,大坪,2026-01-04,25.165914,121.632969,9.263425e-08
C1U850,觀音海岸,2026-01-04,24.38319,121.77856,6.9703594e-09
C2K610,草嶺石壁,2026-01-04,23.602469,120.707731,3.1523577e-09
C0U950,鶯子嶺,2026-01-04,24.89754,121.79244,3.2681964e-08
C0O900,善化,2026-01-04,23.112883,120.297219,6.7501496e-08
C0K550,蔦松,2026-01-04,23.514319,120.229736,2.8923797e-09
E2P980,林試六龜中心,2026-01-04,22.991703,120.645722,4.0066878e-10
C0E590,通霄,2026-01-04,24.471892,120.704622,2.4999727e-07
C1I310,西巒,2026-01-04,23.754486,120.883956,3.5962622e-09
C0A550,泰平,2026-01-04,24.971197,121.823711,3.889935e-08
C0I360,水里,2026-01-04,23.812553,120.849792,6.7777645e-10
C0R830,高士,2026-01-04,22.121825,120.836781,5.0974246e-05
C1I101,溪頭,2026-01-04,23.661789,120.807647,8.270548e-09
C0AJ20,野柳,2026-01-04,25.20703,121.690021,6.611642e-06
C0B060,暖暖,2026-01-04,25.0957,121.7403,9.913119e-08
C1H920,長豐,2026-01-04,24.102039,120.879897,1.3829593e-09
C2S9B0,利吉,2026-01-04,22.86246,121.15486,5.1273744e-08
C0V360,內門,2026-01-04,22.975481,120.466769,9.1814634e-10
C0R850,林邊,2026-01-04,22.4634,120.5339,3.3341948e-07
C0E930,龍鳳,2026-01-04,24.700034,120.859125,6.3433895e-06
C0U910,冬山,2026-01-04,24.63373,121.7937,7.390023e-09
C1E721,泰安,2026-01-04,24.489017,120.968036,9.784571e-09
82H320,茶改中部分場,2026-01-04,23.875611,120.913583,2.275735e-09
C0M750,布袋,2026-01-04,23.380878,120.167789,8.297313e-09
C1S860,利嘉,2026-01-04,22.809417,121.050528,6.573374e-09
E2S980,林試太麻里1,2026-01-04,22.598922,120.980044,7.518338e-08
C0X170,關廟,2026-01-04,22.963017,120.327797,4.3685007e-09
C0V720,林園,2026-01-04,22.507747,120.394511,1.2317152e-09
C1I510,線浸林道,2026-01-04,23.761508,120.832956,4.4313233e-09
C0D690,外湖,2026-01-04,24.917735,120.968711,0.9996023
C0C750,新興坑尾,2026-01-04,25.0061,121.0971,3.3643188e-05
B2Q810,畜試南區分所,2026-01-04,21.945583,120.802167,0.997337
C0S790,金崙,2026-01-04,22.538122,120.966875,3.476549e-08
C0AH90,福山植物園,2026-01-04,24.760717,121.58135,3.3028883e-08
C0I540,奇萊稜線,2026-01-04,24.109231,121.326456,3.127016e-08
C0M850,表湖,2026-01-04,23.24186,120.64166,2.6369193e-09
C0S770,大溪山,2026-01-04,22.478475,120.943325,1.8810677e-08
C0AG80,中和,2026-01-04,24.991622,121.491792,3.39141e-07
C0T790,大禹嶺,2026-01-04,24.186117,121.316086,2.4845583e-08
C0T9B0,水源,2026-01-04,23.991861,121.537169,8.167195e-09
C0R840,牡丹池山,2026-01-04,22.168389,120.841225,3.140169e-07
C1I131,桶頭,2026-01-04,23.641944,120.654117,7.7912704e-10
CAL110,布袋國中,2026-01-04,23.35893,120.18026,1.8247276e-08
C2M9D0,何竹子腳,2026-01-04,23.53641,120.38203,9.254803e-09
467571,新竹,2026-01-04,24.827853,121.014219,2.3900907e-07
C0Z290,赤柯山,2026-01-04,23.36893,121.38293,1.1978729e-08
C0X280,將軍,2026-01-04,23.214999,120.13577,2.3786816e-08
C0S690,太麻里,2026-01-04,22.60902,120.98533,1.40322e-08
C0U880,北關,2026-01-04,24.9072,121.8734,5.0506554e-08
CAW010,東引,2026-01-04,26.3588,120.4836,0.09658163
C0G810,埔心,2026-01-04,23.947633,120.525456,2.3213502e-09
C0U970,大福,2026-01-04,24.80064,121.81389,7.2892856e-09
C2H9N0,仁愛東眼,2026-01-04,24.026875,121.1205,5.080363e-09
C1E670,南礦,2026-01-04,24.538278,121.002836,9.33458e-09
C0M520,東後寮,2026-01-04,23.369908,120.248065,3.325428e-09
C1E461,松安,2026-01-04,24.397972,120.986022,6.9209056e-09
C2N160,西拉雅風管處,2026-01-04,23.189481,120.335297,1.5524323e-08
C2M970,碧湖,2026-01-04,23.568632,120.624165,1.9769137e-09
C0A640,石碇,2026-01-04,24.993969,121.662917,6.067946e-08
E2S960,林試太麻里2,2026-01-04,22.598,120.99775,1.5160342e-07
C0F9Y0,桃山,2026-01-04,24.432739,121.303808,3.8439783e-08
C1I020,萬大,2026-01-04,23.979817,121.132261,3.3102463e-09
C2UC20,長嶺,2026-01-04,24.70894,121.61162,2.1232754e-08
C0U940,羅東,2026-01-04,24.68184,121.74934,7.750012e-09
C0M650,朴子,2026-01-04,23.43463,120.23902,5.8647185e-09
C1I500,大尖山,2026-01-04,23.858572,120.994889,9.675042e-09
C0FB40,中橫21.6k,2026-01-04,24.2499,121.1455,5.92989e-09
C0G820,田尾,2026-01-04,23.901669,120.509389,2.3136193e-09
E2K600,四湖植物園,2026-01-04,23.676986,120.163433,3.6824466e-07
C0S730,綠島,2026-01-04,22.6672,121.47533,0.99193877
12Q970,東港工作站,2026-01-04,22.479997,120.466058,3.836756e-07
C1TA00,太魯閣,2026-01-04,24.15773,121.6236,1.6422712e-08
466920,臺北,2026-01-04,25.037658,121.514853,1.385992e-07
C0R600,舊泰武,2026-01-04,22.588194,120.664944,1.676339e-09
C1I260,北坑,2026-01-04,23.9246,121.006903,1.1948534e-09
466910,鞍部,2026-01-04,25.182586,121.529731,9.836406e-08
C1I230,九份二山,2026-01-04,23.961944,120.845,1.9066337e-09
C2M810,里佳,2026-01-04,23.389125,120.716647,5.2525495e-09
C2A660,瑞芳,2026-01-04,25.113169,121.801147,1.1856533e-07
C0R270,琉球嶼,2026-01-04,22.332244,120.362236,1.8949562e-09
C2V580,瑞山,2026-01-04,22.90304,120.43424,2.3468372e-09
C1T990,高寮,2026-01-04,23.394239,121.356808,1.051611e-08
C0G620,芬園,2026-01-04,24.015678,120.6213,1.6121133e-09
C1Z140,荖溪,2026-01-04,23.890575,121.45964,1.982976e-08
C1I201,中心崙,2026-01-04,23.728722,120.712097,1.3900785e-09
C1I400,凌霄,2026-01-04,24.018778,121.004456,5.068574e-09
C1M640,十字,2026-01-04,23.492153,120.753683,6.478219e-09
G2P820,農試鳳山分所,2026-01-04,22.646611,120.356083,1.8958667e-07
C0Z270,蕃薯寮,2026-01-04,23.73835,121.540108,7.503092e-09
C2E420,竹南,2026-01-04,24.70898,120.88897,5.0022445e-06
C0FB10,出雲山苗圃,2026-01-04,24.23105,120.90475,2.7282006e-09
C0F9Q0,外埔,2026-01-04,24.347817,120.705686,2.0011481e-09
C0K580,高鐵雲林,2026-01-04,23.737456,120.417944,1.7404822e-09
C2I090,鳳凰,2026-01-04,23.728081,120.787347,2.1771118e-09
C0U990,員山,2026-01-04,24.74435,121.72247,7.748741e-09
C0V770,大社,2026-01-04,22.730306,120.346639,0.0002903158
C0X120,麻豆,2026-01-04,23.183289,120.248611,3.9603524e-08
C0C670,龍潭,2026-01-04,24.870056,121.221389,1.8192958e-08
C0D680,香山濕地,2026-01-04,24.783581,120.914988,0.9996024
C0S980,勝林山,2026-01-04,22.430439,120.8938,1.4781745e-08
C0V730,大寮,2026-01-04,22.605614,120.395717,3.2617374e-06
C0R570,麟洛,2026-01-04,22.65078,120.52719,6.0125255e-10
C2M930,石卓,2026-01-04,23.478744,120.702264,6.3733325e-09
C0G9B0,和美,2026-01-04,24.105169,120.492131,5.465028e-09
CAG100,王功漁港,2026-01-04,23.96824,120.32586,0.009669079
C0X290,北門,2026-01-04,23.267772,120.125481,2.3791216e-08
C2F930,大甲,2026-01-04,24.347667,120.640403,4.8594266e-09
C0D650,湖口,2026-01-04,24.904794,121.043628,5.023989e-07
C0U780,五結,2026-01-04,24.68637,121.79794,7.390023e-09
C1I250,鯉潭,2026-01-04,23.961922,120.991131,1.4613538e-09
C0R130,阿禮,2026-01-04,22.742908,120.743678,2.0113269e-09
C0X100,臺南市北區,2026-01-04,23.010394,120.194228,9.60792e-09
C0S920,金峰嘉蘭,2026-01-04,22.594789,120.960825,6.841348e-08
C0V490,新興,2026-01-04,22.627422,120.298803,0.0016432139
C0F9K0,大安,2026-01-04,24.345061,120.588025,1.1843894e-08
467290,古坑,2026-01-04,23.633639,120.551889,7.708817e-10
C2E970,八甲,2026-01-04,24.535811,120.795983,5.4278795e-09
C0V440,鳳山,2026-01-04,22.646653,120.356122,1.8958667e-07
C1T940,大觀,2026-01-04,23.714206,121.373133,9.088064e-09
C0E740,造橋,2026-01-04,24.637056,120.864778,1.3291732e-08
C0R100,尾寮山,2026-01-04,22.833111,120.683889,2.1604e-09
A2K630,臺大雲林校區,2026-01-04,23.730628,120.423903,1.740605e-09
467990,馬祖,2026-01-04,26.169467,119.923158,5.5659876e-07
C0D580,寶山,2026-01-04,24.735006,121.025192,8.365197e-09
E2P990,林試扇平站,2026-01-04,22.9677,120.6857,9.398318e-10
C0AI30,三重,2026-01-04,25.057328,121.500629,1.4184391e-07
C0AH00,汐止,2026-01-04,25.066881,121.658778,1.6347417e-07
C1Z040,立山,2026-01-04,23.443356,121.327375,1.1530317e-08
466881,新北,2026-01-04,24.959207,121.525196,3.2018772e-07
C0W130,花嶼,2026-01-04,23.40007,119.32276,0.9932212
C0A950,鼻頭角,2026-01-04,25.129036,121.923372,5.7192903e-08
C0K470,林內,2026-01-04,23.748675,120.609642,6.829972e-10
C2F990,摩天嶺,2026-01-04,24.322458,120.936819,2.9073468e-09
C2E430,南庄,2026-01-04,24.601775,121.000214,6.3095063e-09
82C160,茶改場,2026-01-04,24.908472,121.185333,2.2459781e-07
C2TB60,南安,2026-01-04,23.29818,121.26157,7.3257893e-09
C0Z320,清水林道,2026-01-04,23.27125,121.188272,9.592155e-09
C0R760,南仁湖,2026-01-04,22.084681,120.863353,0.00044045344
C0M670,大林,2026-01-04,23.600616,120.45841,4.7277746e-09
C0M800,茶山,2026-01-04,23.299075,120.664767,7.13651e-10
C0A9C0,天母,2026-01-04,25.117494,121.537169,1.6599753e-07
72K220,南改斗南分場,2026-01-04,23.634556,120.477333,1.6762047e-09
72AI40,桃改樹林分場,2026-01-04,24.944503,121.386972,2.1155327e-07
C0S910,蘭嶼燈塔,2026-01-04,22.081197,121.503117,0.41084313
C0B050,八斗子,2026-01-04,25.144754,121.79167,2.1374794e-07
C0U900,內城,2026-01-04,24.71813,121.68766,7.802324e-09
C0X320,柳營,2026-01-04,23.253328,120.375253,2.2514806e-08
C0M790,新港,2026-01-04,23.553269,120.345728,5.8396483e-09
C0F9T0,西屯,2026-01-04,24.179494,120.641275,1.910099e-09
C0E950,松安,2026-01-04,24.39792,120.98599,6.9209056e-09
C0SA30,都歷,2026-01-04,23.020333,121.323642,0.00061976694
C0C620,蘆竹,2026-01-04,25.084275,121.265767,6.2339536e-06
C0R730,大坪頂,2026-01-04,22.024633,120.69355,0.9997349
C0AJ40,石門,2026-01-04,25.273672,121.601198,5.4827753e-05
C0E750,苗栗,2026-01-04,24.564569,120.824575,4.998757e-09
C0T870,鯉魚潭,2026-01-04,23.935639,121.508944,8.111292e-09
C1V170,排雲,2026-01-04,23.463619,120.954147,3.327739e-08
C2H950,中寮,2026-01-04,23.884447,120.766406,5.660961e-10
C0R350,貓鼻頭,2026-01-04,21.921774,120.7358,0.99080485
C0V660,岡山,2026-01-04,22.797078,120.294958,1.1459027e-05
C1H941,雙冬,2026-01-04,23.967378,120.802189,1.3084858e-09
C0AJ70,田寮,2026-01-04,25.2698,121.4886,0.0055031516
C0AI00,五股,2026-01-04,25.07445,121.42728,9.093633e-08
C0Z280,德武,2026-01-04,23.47426,121.41071,6.316936e-09
C2RA10,大新,2026-01-04,22.67558,120.57788,4.0695974e-10
C0R700,枋山,2026-01-04,22.246844,120.661086,0.9977571
C0C460,復興,2026-01-04,24.820208,121.352281,1.3916364e-08
C2K300,鹿南,2026-01-04,23.63855,120.3636,8.254898e-09
E2H360,蓮華池,2026-01-04,23.918333,120.885278,1.409687e-09
C0M640,中埔,2026-01-04,23.42538,120.5229,1.2691789e-09
C0W140,金沙,2026-01-04,24.488292,118.408778,6.930446e-08
C2A540,四堵,2026-01-04,24.8926,121.745736,3.4227416e-08
C0ACA0,新莊,2026-01-04,25.051478,121.446756,2.0411696e-07
C0R220,潮州,2026-01-04,22.534361,120.54,1.3574242e-09
U2HA40,臺大內茅埔,2026-01-04,23.689722,120.851117,1.199617e-09
467490,臺中,2026-01-04,24.145736,120.684075,1.5540312e-09
C0UB60,明池,2026-01-04,24.650688,121.475277,3.5009634e-08
C0U960,翠峰湖,2026-01-04,24.510856,121.608044,2.6748317e-08
E2HA20,林試畢祿溪站,2026-01-04,24.226944,121.308522,1.5339744e-08
C2M9A0,大華,2026-01-04,23.4824,120.67491,3.0697747e-09
C0V890,前鎮,2026-01-04,22.5718,120.3117,1.6018133e-06
C1F941,雪嶺,2026-01-04,24.280586,121.026642,2.5661125e-08
C2H9E0,國姓南港,2026-01-04,23.911108,120.846556,3.7283825e-09
C0AC80,文山,2026-01-04,25.00235,121.575728,3.831414e-07
C0F9R0,龍井,2026-01-04,24.184536,120.528972,1.22265735e-08
C0M760,民雄,2026-01-04,23.551754,120.428457,4.8347055e-09
C0UA40,西德山,2026-01-04,24.560647,121.752608,1.9115905e-08
C2TA70,赤科坪,2026-01-04,23.39885,121.39168,1.2621088e-08
C1T920,中興,2026-01-04,23.769503,121.498653,8.9121315e-09
C0D550,雪霸,2026-01-04,24.526972,121.11605,1.4508397e-08
C2F860,梨山,2026-01-04,24.247522,121.243669,1.870788e-08
C0R320,車城,2026-01-04,22.0744,120.716247,0.9990094
C1S870,南美山,2026-01-04,23.15025,121.382333,3.2559765e-08
C0B020,基隆嶼,2026-01-04,25.19141,121.78391,1.875644e-07
C1U501,牛鬥,2026-01-04,24.637836,121.573656,2.6053051e-08
C0M730,嘉義市東區,2026-01-04,23.457673,120.460531,1.6773081e-09
C2R990,泰武,2026-01-04,22.60686,120.69765,3.492278e-09
C0S700,知本,2026-01-04,22.684866,121.005642,6.0500653e-09
C1N001,沙崙,2026-01-04,22.935472,120.309406,4.3813677e-09
C0V760,橋頭,2026-01-04,22.757806,120.30575,0.00038184557
C0G960,福寶,2026-01-04,24.0443,120.3814,6.8887185e-09
C0X210,白河,2026-01-04,23.347466,120.414427,2.2721611e-09
C0S810,東河,2026-01-04,22.972672,121.303986,0.00076429936
C2R170,屏東,2026-01-04,22.66027,120.49403,6.0073213e-10
C0R670,楓港,2026-01-04,22.190131,120.692156,0.9994425
C0FA50,霧峰,2026-01-04,24.0419,120.6995,7.162393e-10
C0UB10,蘇澳,2026-01-04,24.5969,121.8571,6.0117946e-09
C0G950,防潮門,2026-01-04,24.1835,120.4871,1.1358747e-08
C0M740,六腳,2026-01-04,23.492871,120.290625,4.5404343e-09
C1R250,力里,2026-01-04,22.428117,120.629228,1.7044499e-09
C0K330,虎尾,2026-01-04,23.719183,120.442036,1.7400142e-09
C2FA00,烏石坑,2026-01-04,24.273503,120.947617,2.8742808e-09
C0V620,永安,2026-01-04,22.82315,120.236856,1.1513204e-05
C1I330,楓樹林,2026-01-04,23.986803,121.076117,4.127069e-09
C0W200,湖西,2026-01-04,23.596314,119.67275,0.99223465
72Q010,高雄農改場,2026-01-04,22.709333,120.525889,5.3109966e-10
C0SA40,瑞和,2026-01-04,22.974361,121.156697,2.9141882e-08
C0C680,龜山,2026-01-04,25.02846,121.38656,6.669777e-08
C2V260,月眉,2026-01-04,22.971003,120.539853,5.584614e-10
C0V450,鳳森,2026-01-04,22.545064,120.392592,1.1881764e-09
C0FA90,小雪山林道,2026-01-04,24.29515,121.03651,3.1939383e-08
C0U720,南山,2026-01-04,24.43742,121.38167,1.8792568e-08
A2N290,臺南蘭花園區,2026-01-04,23.340258,120.379661,4.8530726e-09
C0R560,新園,2026-01-04,22.5434,120.461558,1.2317152e-09
C0U890,三星,2026-01-04,24.66812,121.65302,7.878065e-09
C1V300,御油山,2026-01-04,23.001983,120.715364,4.9619664e-09
C0U600,礁溪,2026-01-04,24.817539,121.765608,7.264483e-09
C1T980,龍澗,2026-01-04,24.023289,121.411328,1.885058e-08
C0D670,海天一線,2026-01-04,24.831986,120.914438,0.9993846
C0SA00,歷坵,2026-01-04,22.520969,120.89185,1.661335e-08
C0M710,東石,2026-01-04,23.458927,120.15385,8.159519e-09
C0M780,鹿草,2026-01-04,23.41134,120.30835,5.7608798e-09
C0U520,雙連埤,2026-01-04,24.753033,121.641303,1.5974223e-08
C0B010,七堵,2026-01-04,25.094819,121.71713,1.7438367e-07
C0R480,長治,2026-01-04,22.693128,120.542622,4.5361384e-10
C1V830,國三S383K,2026-01-04,22.781967,120.426475,7.1071597e-09
12Q980,恆春工作站,2026-01-04,22.079678,120.714425,0.99900985
C1O940,東山服務區,2026-01-04,23.286016,120.398472,4.6667448e-09
C1U840,東澳嶺,2026-01-04,24.5378,121.8485,1.4849565e-08
C1D630,飛鳳山,2026-01-04,24.766464,121.119178,1.0416416e-08
C0S940,石寧山,2026-01-04,23.223772,121.406639,1.068074e-05
C0K410,北港,2026-01-04,23.573957,120.292802,2.9380458e-09
C2M620,瑞里,2026-01-04,23.545133,120.675197,3.6325654e-09
C0SB70,小港漁港,2026-01-04,23.158558,121.400431,0.00041225558
C2O950,安南,2026-01-04,23.076694,120.144861,2.6352716e-08
C0F0E0,南湖圈谷,2026-01-04,24.363714,121.444667,4.033683e-08
467610,成功,2026-01-04,23.097486,121.373428,2.756584e-06
C0G890,伸港,2026-01-04,24.148933,120.484403,1.13005525e-08
C2E540,龍溪,2026-01-04,24.606489,120.783933,4.9034843e-09
C1V200,梅山,2026-01-04,23.268447,120.823556,2.8164677e-09
C0T9H0,加路蘭山,2026-01-04,23.682947,121.5274,1.0041358e-08
C2O930,玉井,2026-01-04,23.126042,120.46055,1.432307e-09
C1F911,新伯公,2026-01-04,24.221361,120.841069,1.7061249e-09
C0R490,九如,2026-01-04,22.7405,120.490503,5.333502e-10
C0X200,左鎮,2026-01-04,23.056758,120.408522,7.778491e-09
C2TB50,麻汝,2026-01-04,23.42554,121.39358,5.7957292e-09
C0FA60,鞍馬山工作站,2026-01-04,24.267064,121.000793,1.550083e-08
C0SB50,叭嗡嗡,2026-01-04,23.047062,121.343223,4.963293e-06
C1F891,稍來,2026-01-04,24.265689,121.001142,1.4915024e-08
C2M9C0,紫雲,2026-01-04,23.494914,120.540253,1.4645152e-09
72N240,七股研究中心,2026-01-04,23.081672,120.062894,3.7338854e-08
C0C700,中壢,2026-01-04,24.977661,121.256375,2.6037586e-07
C0M690,水上,2026-01-04,23.419734,120.388909,5.8035496e-09
C0V690,鼓山,2026-01-04,22.623325,120.275575,0.0017280245
C0O860,大內,2026-01-04,23.11885,120.36083,3.7962682e-08
C0Z200,萬榮,2026-01-04,23.709219,121.420106,8.047233e-09
C0T9D0,和中,2026-01-04,24.26676,121.74103,1.2891416e-08
C2S9A0,北份子寮,2026-01-04,22.78561,121.07813,0.101734266
C1O921,楠西,2026-01-04,23.183511,120.484083,1.3641647e-09
C0AJ30,淡水觀海,2026-01-04,25.184591,121.408616,0.00026783653
C0V810,左營,2026-01-04,22.67491,120.28491,0.00030287408
C0UA70,桃源谷,2026-01-04,24.962606,121.888875,2.7538455e-08
C0X130,官田,2026-01-04,23.193217,120.315422,1.5619246e-08
C1H000,翠峰,2026-01-04,24.109397,121.205211,1.7408517e-08
C0UA90,石城,2026-01-04,24.980444,121.951214,5.4746913e-08
C1E681,南勢山,2026-01-04,24.421669,120.923831,5.1931184e-09
C0A9F0,內湖,2026-01-04,25.079422,121.57545,1.7583186e-07
C0K291,宜梧,2026-01-04,23.536281,120.169329,1.9637e-07
C1K540,口湖,2026-01-04,23.585344,120.180517,2.08966e-07
C0R780,滿州,2026-01-04,22.024403,120.839892,0.9999118
C0V870,文安,2026-01-04,22.8025,120.2164,2.1264335e-05
C0U650,玉蘭,2026-01-04,24.675286,121.587061,2.1287539e-08
C0R640,東港,2026-01-04,22.46247,120.44074,1.0436417e-09
C0AJ80,板橋,2026-01-04,25.0107,121.4489,3.4055506e-07
C0S660,下馬,2026-01-04,23.150427,121.070312,9.519051e-09
C2N190,烏樹,2026-01-04,23.32393,120.36989,1.4848708e-09
C1H9B1,阿眉,2026-01-04,24.1263,120.994672,9.559188e-09
C0UA20,多加屯,2026-01-04,24.368614,121.373189,2.0392253e-08
C0E730,頭份,2026-01-04,24.688247,120.912206,5.041285e-06
72V140,高改旗南分場,2026-01-04,22.857861,120.516667,9.348544e-10
C0K480,莿桐,2026-01-04,23.761192,120.502372,1.1240978e-09
C0U980,坪林石牌,2026-01-04,24.86478,121.77396,2.4676979e-08
C0T900,西林,2026-01-04,23.8119,121.441458,7.587686e-09
C1I150,青雲,2026-01-04,23.793361,120.949378,1.0510209e-09
C2E980,和興,2026-01-04,24.505319,120.923016,4.5079713e-09
467350,澎湖,2026-01-04,23.565503,119.563094,0.9887107
C0G800,埔鹽,2026-01-04,24.000394,120.431683,6.310144e-09
C0H960,草屯,2026-01-04,23.973672,120.68085,5.65206e-10
C1V780,多納林道,2026-01-04,22.888028,120.737917,2.1265696e-09
C0E920,通霄漁港,2026-01-04,24.498589,120.673876,2.4895758e-07
C0Z330,安通山,2026-01-04,23.290728,121.348528,6.159527e-09
C0AH10,永和,2026-01-04,25.01125,121.508111,3.469359e-07
C0AK10,太平里,2026-01-04,25.134937,121.364899,3.287879e-05
C2G640,鹿港,2026-01-04,24.0753,120.430481,5.480278e-09
C1E890,國三N149K,2026-01-04,24.463414,120.680019,2.489279e-07
C1R110,口社,2026-01-04,22.770111,120.645222,3.4197492e-10
C1M870,國三N285K,2026-01-04,23.550319,120.505833,1.4465947e-09
C1E480,鳳美,2026-01-04,24.554803,121.034747,4.981216e-09
C0T9M0,靜浦,2026-01-04,23.455167,121.495028,1.1431906e-08
C2H9M0,發祥,2026-01-04,24.154094,121.164517,5.2999485e-09
C2G9C0,埔南,2026-01-04,23.99124,120.46969,6.2567405e-09
C0AI40,石牌,2026-01-04,25.115597,121.513139,1.7583186e-07
C1F871,上谷關,2026-01-04,24.203483,121.018644,2.8776546e-09
C2H9G0,百勝,2026-01-04,24.051142,120.909361,9.134476e-10
C0G880,二水,2026-01-04,23.810742,120.6173,6.5472194e-10
C0R940,加祿堂,2026-01-04,22.3363,120.6217,0.9975848
C0W220,北竿,2026-01-04,26.220358,119.974881,4.6977915e-05
C0O960,崎頂,2026-01-04,22.959547,120.369317,3.888309e-09
C0TA40,秀林,2026-01-04,24.302864,121.731144,1.5056653e-08
C0S750,向陽,2026-01-04,23.248397,120.986133,1.4037554e-08
C0T9F0,水璉,2026-01-04,23.797131,121.542514,6.8994486e-09
C1M600,頭凍,2026-01-04,23.406364,120.603339,2.036418e-09
467660,臺東,2026-01-04,22.752211,121.154586,0.9572011
C1D380,新埔,2026-01-04,24.84745,121.03834,2.2398798e-07
C2G980,田頭村,2026-01-04,23.8263,120.444175,1.567421e-09
C0V750,路竹,2026-01-04,22.854997,120.259439,8.610904e-06
C0N050,蚵寮,2026-01-04,23.301,120.1104,2.3791216e-08
C2X060,下營,2026-01-04,23.226806,120.256291,4.56914e-08
72M700,南改鹿草分場,2026-01-04,23.416869,120.283061,5.861196e-09
C1SA50,利嘉林道,2026-01-04,22.82325,121.009389,1.0243743e-08
C0UB70,太平山中間站,2026-01-04,24.542003,121.513453,1.6837742e-08
C0A940,金山,2026-01-04,25.223628,121.643967,3.7252605e-06
C1V340,大津,2026-01-04,22.888322,120.645986,3.461334e-10
C0W180,七美,2026-01-04,23.219333,119.444892,0.99604285
C1F9C1,白冷,2026-01-04,24.182844,120.929889,1.6599785e-09
K2E710,苗改生物防治研究中心,2026-01-04,24.422861,120.871833,3.8599928e-09
C0N040,蘆竹溝,2026-01-04,23.2344,120.0961,2.379158e-08
C0TB40,崇德,2026-01-04,24.166144,121.657414,2.2810594e-08
C0D760,大坪苗圃,2026-01-04,24.5362,121.1108,1.0875681e-08
C2W230,畜試所澎湖,2026-01-04,23.628342,119.513206,0.9912393
C0R880,後壁湖,2026-01-04,21.9457,120.7457,0.99056524
C1I280,埔中,2026-01-04,23.820778,120.642594,9.205785e-10
467790,墾丁雷達站,2026-01-04,21.948235,120.808028,0.9975053
C0W190,望安,2026-01-04,23.380564,119.494075,0.99499935
C0Z170,卓溪,2026-01-04,23.3443,121.3029,8.459156e-09
C0F850,東勢,2026-01-04,24.246428,120.833047,1.635668e-09
466900,淡水,2026-01-04,25.164889,121.448906,2.3439386e-06
C0I370,魚池,2026-01-04,23.895703,120.94135,1.4451441e-09
C0C630,大溪,2026-01-04,24.882853,121.265547,1.6903313e-07
C0A520,山佳,2026-01-04,24.974944,121.402008,2.229129e-07
C0I110,竹山,2026-01-04,23.761225,120.688156,6.1355343e-10
82H840,茶改南部分場,2026-01-04,23.762528,120.7405,8.311453e-10
C2SD80,再來山,2026-01-04,23.34371,121.44122,3.3831853e-07
C0G660,溪湖,2026-01-04,23.94835,120.479122,2.3240925e-09
C1T800,洛韶,2026-01-04,24.204558,121.453956,1.8096573e-08
C1T810,慈恩,2026-01-04,24.192044,121.388386,1.6177077e-08
C1E451,象鼻,2026-01-04,24.368617,120.940228,3.3269885e-09
C0AC60,三峽,2026-01-04,24.939025,121.369728,4.419618e-07
C0I490,萬大林道,2026-01-04,23.928228,121.091411,6.7511765e-09
C1I290,豐丘,2026-01-04,23.668178,120.887417,4.2530277e-09
C1I320,奧萬大,2026-01-04,23.952956,121.178556,3.8468e-09
C2M910,嘉義大學,2026-01-04,23.471325,120.485903,1.6068546e-09
C0U770,南澳,2026-01-04,24.44935,121.81022,7.398753e-09
C2TB30,吉安,2026-01-04,23.94538,121.54803,9.341954e-09
C0A980,社子,2026-01-04,25.109508,121.469681,4.2422988e-07
C0V800,六龜,2026-01-04,22.997889,120.633583,4.049883e-10
C1G9D0,國一S218K,2026-01-04,23.890641,120.493253,2.747695e-09
C0E570,白沙屯,2026-01-04,24.549447,120.696803,1.451912e-06
C2F9A0,中竹林,2026-01-04,24.103556,120.751061,7.682543e-10
C0FA40,臺中電廠,2026-01-04,24.2146,120.4907,1.4481912e-08
C2G9A0,畜試所彰化,2026-01-04,23.86045,120.557964,9.741996e-10
C0H9C0,合歡山,2026-01-04,24.143442,121.272547,3.5397395e-08
G2M350,農試溪口農場,2026-01-04,23.58565,120.408111,4.950046e-09
C0U860,頭城,2026-01-04,24.85323,121.8308,1.627261e-08
C0R580,南州,2026-01-04,22.48591,120.50274,3.844598e-07
C0D430,峨眉,2026-01-04,24.6905,121.017189,8.978313e-09
C0G780,秀水,2026-01-04,24.03405,120.503869,2.258361e-09
72N100,臺南農改場,2026-01-04,23.0605,120.342194,6.171195e-08
C0S900,蘭嶼高中,2026-01-04,22.04909,121.51214,0.58729875
C2TA60,六十石,2026-01-04,23.22477,121.31861,1.1081641e-08
C1F9W0,德基,2026-01-04,24.254783,121.190261,1.49724e-08
C2M980,安和,2026-01-04,23.51377,120.31593,4.4823527e-09
C1Z120,壽豐,2026-01-04,23.870853,121.508081,8.116585e-09
C0W160,烏坵,2026-01-04,24.9944,119.44956,0.65474623
C1I240,外大坪,2026-01-04,23.958697,120.917931,1.6415531e-09
C1I550,國六W023K,2026-01-04,23.979067,120.867742,8.016498e-10
C0R870,興海,2026-01-04,21.9752,120.8439,0.99733967
C0R140,瑪家,2026-01-04,22.682903,120.686639,1.1891604e-09
C0A530,坪林,2026-01-04,24.938183,121.70975,5.4199887e-08
C0X260,後壁,2026-01-04,23.366358,120.362326,7.609426e-09
C0Z230,和平,2026-01-04,24.30717,121.77007,7.588207e-09
C0G770,福興,2026-01-04,24.041289,120.437669,6.315129e-09
C0H9A0,神木村,2026-01-04,23.532742,120.843667,6.4820873e-09
C0I460,南投,2026-01-04,23.911469,120.687331,5.635902e-10
C0I480,梅峰,2026-01-04,24.085272,121.173572,1.2157044e-08
C1V570,吉東,2026-01-04,22.85422,120.5454,3.6195266e-10
C2A560,福山,2026-01-04,24.776203,121.502811,2.1370978e-08
C0AH30,五分山,2026-01-04,25.07125,121.780794,3.6996166e-08
C0FA10,松柏,2026-01-04,24.429115,120.617482,1.755965e-08
72S200,東改班鳩分場,2026-01-04,22.829528,121.077694,6.0872526e-07
72HA00,中改埔里分場,2026-01-04,23.903208,120.963364,1.3939735e-09
C2H9W0,大坪頂農水,2026-01-04,24.043122,120.932781,1.3310701e-09
C0C650,平鎮,2026-01-04,24.897503,121.214636,9.0732755e-08
C0S930,延平,2026-01-04,22.902581,121.084058,2.3135673e-08
C0UA60,樟樹山,2026-01-04,24.41393,121.78325,6.537776e-09
C2UC10,出水溪,2026-01-04,24.615822,121.652253,1.3964437e-08
C1S670,摩天,2026-01-04,23.199503,121.027,1.2264177e-08
C2C590,觀音,2026-01-04,25.027072,121.153317,0.02478271
C0V630,茄萣,2026-01-04,22.906642,120.182608,3.878073e-09
466940,基隆,2026-01-04,25.133314,121.740475,2.0531665e-07
C0X050,東河,2026-01-04,23.296598,120.385608,4.8601034e-09
C0R770,保力,2026-01-04,22.071122,120.764111,0.9997654
G2L020,農試嘉義分所,2026-01-04,23.485028,120.473806,1.6075352e-09
C0X240,關子嶺,2026-01-04,23.331169,120.508025,6.1865224e-10
C0I380,集集,2026-01-04,23.828206,120.801467,6.623966e-10
466990,花蓮,2026-01-04,23.975128,121.613275,1.9867466e-08
C1V220,小關山,2026-01-04,23.154217,120.813603,6.588135e-09
C1F9G1,慶福山,2026-01-04,24.180853,120.848378,2.6494373e-09
C0FB20,雪山橋,2026-01-04,24.23192,120.9786,1.5291397e-08
C0Z250,瑞穗林道,2026-01-04,23.49284,121.30688,1.5475662e-08
C0D590,新豐,2026-01-04,24.87068,120.97721,0.99900246
C0A870,五指山,2026-01-04,25.132153,121.608692,8.3191054e-08
C0UA50,西帽山,2026-01-04,24.555361,121.802628,1.47574895e-08
C2R980,竹田國中,2026-01-04,22.61532,120.52412,1.4068319e-09
C0X160,仁德,2026-01-04,22.968258,120.257689,1.9653877e-08
C1H971,六分寮,2026-01-04,23.92507,120.6378,9.214077e-10
C0W120,西嶼,2026-01-04,23.5626,119.468436,0.99300545
C0G650,員林,2026-01-04,23.946503,120.585597,1.7496421e-09
C0AD50,鶯歌,2026-01-04,24.951533,121.346294,1.4598508e-07
C2H9Q0,北東眼山,2026-01-04,24.120939,121.189303,1.18461525e-08
C2H9T0,名間竹圍,2026-01-04,23.859914,120.637572,7.203054e-10
C0S990,山豬窟,2026-01-04,22.318619,120.857372,1.3482364e-08
C0X190,安平,2026-01-04,22.993161,120.152181,1.2004758e-08
C0K400,斗六,2026-01-04,23.720583,120.541127,1.1359391e-09
12J990,口湖工作站,2026-01-04,23.589978,120.180394,2.0888092e-07
C0O830,北寮,2026-01-04,23.079561,120.495008,3.4193381e-10
C1D410,白蘭,2026-01-04,24.579364,121.079947,9.6872474e-09
C0S970,加津林,2026-01-04,22.416211,120.926942,2.9635805e-07
C0D700,關西,2026-01-04,24.7977,121.1732,1.09503855e-08
C0U750,龜山島,2026-01-04,24.841667,121.953133,2.2740524e-08
C0R810,內獅,2026-01-04,22.305064,120.642986,0.9975847
C1M390,龍美,2026-01-04,23.406728,120.654417,3.872005e-09
C2K290,崙內,2026-01-04,23.69525,120.35601,8.254898e-09
C2FB60,頭櫃山,2026-01-04,24.129842,120.858925,2.5075568e-09
C1H840,國三N238K,2026-01-04,23.841008,120.707711,6.8623296e-10
CAQ030,崎峰國小,2026-01-04,22.42565,120.49521,3.844598e-07
C2E520,大湖,2026-01-04,24.414939,120.870872,3.9208463e-09
467530,阿里山,2026-01-04,23.508208,120.813242,1.6905869e-08
C1E691,南湖,2026-01-04,24.40135,120.837533,4.1710133e-09
C0FA30,梧棲,2026-01-04,24.256003,120.523381,1.20538814e-08
C1V231,高中,2026-01-04,23.134911,120.716711,3.254981e-09
C0AK30,硬漢嶺,2026-01-04,25.136097,121.426372,6.853912e-08
C0F9V0,新社,2026-01-04,24.200172,120.815806,2.0472486e-09
C0H890,埔里,2026-01-04,23.972169,120.952425,8.646402e-10
C0R690,墾丁,2026-01-04,21.966756,120.810269,0.9999381
C0SD20,富山,2026-01-04,22.822383,121.190825,7.27423e-06
C0F0D0,審馬陣,2026-01-04,24.381675,121.4203,3.2745106e-08
C2W030,金門農試所,2026-01-04,24.448431,118.451786,2.7464424e-07
C0R820,白鷺,2026-01-04,22.454275,120.666219,2.3007913e-09
C0FB00,大雪山,2026-01-04,24.254668,121.007374,1.5632063e-08
C1V190,南天池,2026-01-04,23.27403,120.91176,1.5696866e-08
C0E940,雪見,2026-01-04,24.42595,121.01347,1.397307e-08
K2E360,苗栗農改場,2026-01-04,24.495722,120.829111,6.013618e-09
CAJ050,海口故事園區,2026-01-04,23.57543,120.14121,2.0891818e-07
C2K280,四湖,2026-01-04,23.6304,120.22717,3.6960589e-07
C2H9D0,三隻寮,2026-01-04,24.093078,120.861578,1.4859446e-09
C0O990,媽廟,2026-01-04,22.99175,120.293525,2.5207404e-08
C0D480,打鐵坑,2026-01-04,24.849664,121.150789,2.0954229e-08
C0Z220,和平林道,2026-01-04,24.343922,121.656317,5.0662736e-09
C0TA10,花蓮漁港,2026-01-04,23.995322,121.638331,5.305753e-07
72C440,桃園農改場,2026-01-04,24.950944,121.030583,5.395234e-07
C1E711,馬拉邦山,2026-01-04,24.367306,120.901656,3.0129905e-09
C0SB20,富岡,2026-01-04,22.792467,121.192669,0.096990205
C0D560,竹東,2026-01-04,24.767147,121.057881,1.49045e-08
C0F9U0,南屯,2026-01-04,24.137006,120.637969,2.4397382e-09
C2SD60,明峰,2026-01-04,22.8671,121.11825,1.6323902e-08
C0M720,番路,2026-01-04,23.464657,120.554156,6.1045075e-10
C0F0A0,雪山圈谷,2026-01-04,24.388594,121.236339,4.45271e-08
C1A9N0,四十份,2026-01-04,24.934158,121.593283,5.659401e-08
C0U760,東澳,2026-01-04,24.52196,121.83318,7.3710327e-09
C0X230,鹽水,2026-01-04,23.272621,120.247641,1.7494195e-08
C2H9H0,苗改南投蜂場,2026-01-04,23.852589,120.693481,5.52389e-10
C2TB70,達谷寮,2026-01-04,23.38,121.35968,9.043089e-09
C0R950,萬隆國小,2026-01-04,22.507667,120.587817,5.454768e-10
467540,大武,2026-01-04,22.35572,120.90374,0.99962616
C0V370,古亭坑,2026-01-04,22.893178,120.401947,2.472427e-09
C1I340,新興橋,2026-01-04,23.563333,120.868728,2.1217483e-09
C0SA80,土坂,2026-01-04,22.453108,120.887572,9.2081116e-08
C0R160,鹽埔,2026-01-04,22.739558,120.530778,5.3166116e-10
C0AC40,大屯山,2026-01-04,25.175675,121.522408,7.577262e-08
466850,五分山雷達站,2026-01-04,25.071182,121.781205,3.6751064e-08
C2H9L0,馬烈霸,2026-01-04,24.1512,121.201772,1.3329204e-08
C1AI50,國三N016K,2026-01-04,25.034164,121.619664,4.1374557e-07
C2V920,匏子寮,2026-01-04,23.04905,120.55319,4.6908194e-10
C1V600,藤枝,2026-01-04,23.071961,120.757042,4.3608663e-09
C1E601,南勢,2026-01-04,24.572486,120.734842,7.277411e-07
C0O980,新市,2026-01-04,23.061614,120.298197,6.7532916e-08
C0K420,西螺,2026-01-04,23.800407,120.467394,1.5681207e-09
C0Z050,佳心,2026-01-04,23.34567,121.21316,1.0399821e-08
C0AD30,蘆洲,2026-01-04,25.086594,121.472331,2.3632568e-07
C0V610,梓官,2026-01-04,22.760558,120.267211,1.2659571e-05
K2F750,種苗改良場,2026-01-04,24.225972,120.800917,1.930338e-09
C0UA80,大溪漁港,2026-01-04,24.941801,121.902955,4.79917e-08
C1AI60,國一39K邊坡,2026-01-04,25.064361,121.383836,7.98679e-08
C0W150,金寧,2026-01-04,24.457703,118.328989,1.12440325e-07
C0R960,內埔,2026-01-04,22.608483,120.570714,1.4078438e-09
V2C250,八德合作社,2026-01-04,24.93775,121.266389,1.8306194e-07
C2H9S0,龍南,2026-01-04,23.953536,120.833183,2.724311e-09
C0AH40,平等,2026-01-04,25.129142,121.577086,1.0927022e-07
C0R540,佳冬,2026-01-04,22.419456,120.552375,1.9540357e-08
466950,彭佳嶼,2026-01-04,25.627975,122.079744,0.9999754
C0A890,雙溪,2026-01-04,25.036003,121.864242,5.022288e-08
C0C480,桃園,2026-01-04,24.992425,121.323172,2.7445077e-07
C0AH50,林口,2026-01-04,25.072181,121.38084,6.635416e-08
A2K360,水試臺西試驗場,2026-01-04,23.717231,120.190522,8.501033e-07
C2M960,外寮,2026-01-04,23.562643,120.665688,2.9937486e-09
C0F9S0,烏日,2026-01-04,24.107058,120.624103,1.4188613e-09
C2N180,鹿陶洋,2026-01-04,23.14325,120.48352,1.3642844e-09
C0C490,八德,2026-01-04,24.928708,121.283289,1.8302302e-07
C0R190,赤山,2026-01-04,22.592333,120.614306,1.1729012e-09
C0T820,天祥,2026-01-04,24.179597,121.495639,1.4965261e-08
C1F9E1,龍安,2026-01-04,24.1605,120.831961,2.1308693e-09
C2SD50,順那,2026-01-04,23.04166,121.29332,2.9058074e-05
C0V820,小林,2026-01-04,23.148408,120.63325,9.483689e-10
C2G870,芳苑,2026-01-04,23.922303,120.320025,0.02219664
C0E850,大河,2026-01-04,24.618069,120.948578,6.131723e-09
C1U670,寒溪,2026-01-04,24.634,121.71691,7.861899e-09
C0N020,城西,2026-01-04,23.0568,120.0956,3.235559e-08
C1Z110,三棧,2026-01-04,24.11557,121.60501,1.5781342e-08
C0R280,檳榔,2026-01-04,22.076078,120.836777,0.07834617
C2H9J0,中台,2026-01-04,23.9996,120.938739,1.0760766e-09
C0F9L0,后里,2026-01-04,24.310436,120.729725,1.7235089e-09
467441,高雄,2026-01-04,22.730432,120.312516,0.00036698938
C0Z180,新城,2026-01-04,24.040486,121.604878,1.871334e-08
C0D540,橫山,2026-01-04,24.71116,121.11693,8.487033e-09
C1D420,太閣南,2026-01-04,24.632808,121.160575,1.3892999e-08
C1E770,公館,2026-01-04,24.526914,120.830806,5.027739e-09
CAN130,水試所海水繁養殖中心,2026-01-04,23.120802,120.07968,3.657875e-08
C1I430,翠華,2026-01-04,24.191961,121.224339,2.1873563e-08
C1M400,菜瓜坪,2026-01-04,23.251928,120.576103,6.8019174e-10
C0G730,二林,2026-01-04,23.903325,120.376081,5.739537e-09
72M360,南改義竹分場,2026-01-04,23.360694,120.279361,3.3302454e-09
V2K620,麥寮合作社,2026-01-04,23.753836,120.294783,7.827082e-09
C0Z070,舞鶴,2026-01-04,23.46811,121.37407,5.8979563e-09
C0B040,大武崙,2026-01-04,25.166676,121.706993,1.6826016e-07
C1Z030,紅葉,2026-01-04,23.493119,121.338806,6.1860295e-09
C1I050,丹大,2026-01-04,23.753747,121.141147,1.5380643e-08
C0I080,信義,2026-01-04,23.689694,120.851036,1.199617e-09
C2TB80,庄子底,2026-01-04,23.71794,121.49438,9.086226e-09
C0D750,樂山林道6k,2026-01-04,24.49999,121.08773,2.0626885e-08
C2M920,朴子農改,2026-01-04,23.469889,120.259383,5.9545977e-09
C2A880,福隆,2026-01-04,25.017842,121.942083,5.723044e-08
C0Z160,鳳林,2026-01-04,23.746114,121.453411,8.89425e-09
C0UB80,翠峰林道6K,2026-01-04,24.49773,121.568625,2.8761194e-08
C0V210,復興,2026-01-04,23.222403,120.806089,2.1217847e-09
C0H990,昆陽,2026-01-04,24.121322,121.273642,2.8362482e-08
C0R741,獅子,2026-01-04,22.202308,120.705236,0.9963095
C0S710,鹿野,2026-01-04,22.917711,121.122994,1.1293549e-08
C0I530,小奇萊,2026-01-04,24.131764,121.295717,3.0807392e-08
C0FA70,大雪山埡口,2026-01-04,24.26867,121.03062,2.5398665e-08
C2K630,荷苞,2026-01-04,23.657717,120.595144,8.0740725e-10
C0Z080,富源,2026-01-04,23.587642,121.378225,1.0512982e-08
C2M9E0,旺來山,2026-01-04,23.555153,120.486463,1.4424179e-09
C0SB10,美和,2026-01-04,22.682078,121.060236,0.6430054
C2K620,馬光農場,2026-01-04,23.721453,120.378864,1.7435158e-09
C1I140,卡奈托灣,2026-01-04,23.754364,121.087872,6.87832e-09
C0I520,玉山風口,2026-01-04,23.470489,120.955994,3.7504446e-08
C1G691,下水埔,2026-01-04,23.816114,120.5676,9.801638e-10
C0X110,臺南市南區,2026-01-04,22.961189,120.188378,1.9233854e-08
C0V680,仁武,2026-01-04,22.701083,120.347722,0.0002903158
C2G840,北斗,2026-01-04,23.877586,120.514222,2.7041984e-09
C2TB90,長橋,2026-01-04,23.6874,121.46186,8.822914e-09
C0R900,竹坑,2026-01-04,22.1385,120.7022,0.9994425
C0G860,社頭,2026-01-04,23.897647,120.5862,1.7225131e-09
C0X150,安定,2026-01-04,23.102614,120.227839,6.10725e-08
C0R590,里港,2026-01-04,22.77919,120.49459,4.845664e-09
C0E610,馬都安,2026-01-04,24.451272,120.930192,4.233668e-09
C0E550,明德,2026-01-04,24.583486,120.885411,3.825997e-09
C0R150,三地門,2026-01-04,22.709889,120.639944,3.9683862e-10
C0G910,花壇,2026-01-04,24.032076,120.549461,2.2517543e-09
C1D400,鳥嘴山,2026-01-04,24.71909,121.28387,1.13496945e-08
C0K500,元長,2026-01-04,23.64981,120.315024,8.261702e-09
C0F0B0,石岡,2026-01-04,24.276061,120.777644,1.7884436e-09
C2V250,甲仙,2026-01-04,23.080106,120.591758,5.050227e-10
C0SA20,金崙山,2026-01-04,22.567419,120.959667,1.1328737e-08
C0V350,溪埔,2026-01-04,22.738578,120.446797,1.0111701e-08
C0M660,溪口,2026-01-04,23.604131,120.403569,4.9499045e-09
C1S880,壽卡,2026-01-04,22.238911,120.858903,1.3470636e-05
72D680,桃改新埔分場,2026-01-04,24.834444,121.066111,2.2779035e-07
