站號,站名,日期,lat,lon,BLBTSLS
C0R710,龍磐,2026-04-18,21.931672,120.838942,0.99969685
C1F9D1,白毛台,2026-04-18,24.158325,120.886933,6.9393185e-09
C0G940,竹塘,2026-04-18,23.848253,120.386764,2.4820954e-08
467590,恆春,2026-04-18,22.003897,120.746339,0.99383193
C0U710,太平山,2026-04-18,24.505486,121.525656,1.3626226e-09
C0E820,獅潭,2026-04-18,24.539133,120.920042,7.071182e-08
C2SD70,二層坪,2026-04-18,22.94105,121.16838,5.290417e-08
C0V880,興達,2026-04-18,22.8778,120.2127,6.920895e-07
C0SB30,新蘭,2026-04-18,22.869214,121.223228,5.1617412e-06
C2R970,屏科大,2026-04-18,22.648275,120.619247,0.9999119
C1Z130,銅門,2026-04-18,23.965694,121.492842,1.622028e-05
C0AD40,土城,2026-04-18,24.973208,121.445169,1.917152e-07
CAN140,六官養殖協會,2026-04-18,23.22881,120.29962,0.000624132
C0X180,山上,2026-04-18,23.0757,120.363253,0.6915609
C0F9Z0,雪山東峰,2026-04-18,24.388792,121.268675,6.669698e-09
C1M480,獨立山,2026-04-18,23.537022,120.607797,3.0404874e-09
C0X220,學甲,2026-04-18,23.230367,120.182187,1.5495161e-06
467650,日月潭,2026-04-18,23.881325,120.90805,8.25302e-10
A2K570,古坑(花卉中心),2026-04-18,23.633531,120.552392,0.00019945625
C0K600,箔子寮,2026-04-18,23.6197,120.14,3.0955825e-08
C0G830,埤頭,2026-04-18,23.866003,120.452806,8.921932e-08
C0S950,七塊厝,2026-04-18,22.954453,121.229922,1.1565912e-08
467110,金門,2026-04-18,24.407306,118.289281,1.0790078e-08
C0AH80,深坑,2026-04-18,25.002703,121.628328,2.1949667e-08
C0A970,三貂角,2026-04-18,25.007606,122.002058,1.4562953e-07
C2D730,寶山農場,2026-04-18,24.732444,120.976153,7.492838e-09
C0K430,褒忠,2026-04-18,23.690938,120.303634,1.2571529e-07
467480,嘉義,2026-04-18,23.495925,120.432906,0.018633958
C0V400,阿公店,2026-04-18,22.804194,120.355528,0.0061930427
C2S800,華源,2026-04-18,22.65783,121.0232,0.00031663428
C2SA40,瑞和,2026-04-18,22.974361,121.156697,5.232044e-08
C0E960,觀霧分站,2026-04-18,24.505781,121.113921,2.4135323e-09
467550,玉山,2026-04-18,23.48718,120.95943,2.1176497e-08
C0R440,大漢山,2026-04-18,22.405264,120.753181,1.1529301e-09
C0SD30,東清國小,2026-04-18,22.057128,121.564922,1.5234375e-05
C1F9B1,桐林,2026-04-18,24.066172,120.735194,5.8938323e-08
C2I210,蘆竹湳,2026-04-18,23.93398,120.81209,3.609043e-09
C2H9U0,鳳鵬,2026-04-18,23.763919,120.788061,3.5604169e-09
C0K390,土庫,2026-04-18,23.679029,120.395574,1.2223234e-07
C1I450,望鄉山,2026-04-18,23.594153,120.944286,7.0443904e-09
C0E910,海埔,2026-04-18,24.648767,120.772435,3.6832258e-08
B2E890,畜試北區分所,2026-04-18,24.527806,120.770972,3.4772984e-08
C0R750,四林格山,2026-04-18,22.076989,120.802439,7.81819e-09
C0F0C0,中坑,2026-04-18,24.248517,120.903319,5.6050515e-09
C1I121,大鞍,2026-04-18,23.678381,120.760017,7.7384865e-10
C2G9E0,移民庄,2026-04-18,23.9784,120.40283,3.366709e-08
72U480,花改蘭陽分場,2026-04-18,24.686306,121.716583,1.4258459e-06
C0A770,科教館,2026-04-18,25.096356,121.516507,7.046906e-08
C0AJ60,六塊厝,2026-04-18,25.24,121.4481,1.8421606e-07
C0R620,墾雷,2026-04-18,21.900836,120.855269,0.99971026
467420,永康,2026-04-18,23.038386,120.2367,3.8318685e-05
C2M530,奮起湖,2026-04-18,23.493903,120.699253,1.2037931e-09
C0I410,名間,2026-04-18,23.837053,120.701447,1.9574995e-06
A2C560,農工中心,2026-04-18,24.985917,121.239833,1.8680808e-09
C0V740,旗山,2026-04-18,22.888614,120.483597,0.010942571
C0Z061,玉里,2026-04-18,23.3215,121.339656,0.0008620486
C0S840,南田,2026-04-18,22.279725,120.889208,0.072126776
C1I470,杉林溪,2026-04-18,23.639517,120.786444,1.5532756e-09
C1X040,東原,2026-04-18,23.291597,120.463822,2.9941503e-07
C0R660,枋寮,2026-04-18,22.367722,120.590647,0.9998866
C1R120,上德文,2026-04-18,22.763272,120.704442,0.9998503
C0K450,大埤,2026-04-18,23.646074,120.431537,2.7236114e-05
C0UA00,土場,2026-04-18,24.576533,121.495333,1.1307366e-08
467080,宜蘭,2026-04-18,24.763975,121.756528,6.072808e-06
C0N030,四草,2026-04-18,23.0235,120.1116,2.304641e-05
467410,臺南,2026-04-18,22.99328,120.20492,1.0688321e-07
C0V650,彌陀,2026-04-18,22.783806,120.246361,0.0009311333
C0D660,新竹市東區,2026-04-18,24.798681,120.986942,3.2767018e-09
82S580,茶改東部分場,2026-04-18,22.907694,121.130139,2.0350605e-07
C0SB40,興隆,2026-04-18,22.913661,121.257469,0.9164696
467050,新屋,2026-04-18,25.006725,121.047492,3.8418064e-09
C0C710,大溪永福,2026-04-18,24.892936,121.324975,2.218736e-08
C0FA20,溫寮,2026-04-18,24.372177,120.583125,2.2088006e-08
C0V640,湖內,2026-04-18,22.887139,120.2445,6.964614e-07
C0R910,下寮,2026-04-18,22.3929,120.5548,0.9999463
C0Z020,明里,2026-04-18,23.208717,121.262342,1.258943e-07
C0M770,嘉義梅山,2026-04-18,23.585398,120.555587,0.0067835897
C0C660,楊梅,2026-04-18,24.912375,121.143047,4.5586486e-09
C0SD40,牛頭山,2026-04-18,22.676661,121.506944,2.782428e-06
C1E511,新開,2026-04-18,24.347703,120.827019,1.1991723e-06
G2F820,農試所(霧峰),2026-04-18,24.031261,120.688133,1.3710459e-07
C2M990,大巃頂,2026-04-18,23.5547,120.61439,8.882852e-10
C1I070,和社,2026-04-18,23.591131,120.888861,3.93219e-10
C2E990,新坪頂,2026-04-18,24.30201,120.8574,3.9364304e-06
C0TA80,立霧山,2026-04-18,24.183258,121.641899,1.2821988e-09
C2F000,大肚,2026-04-18,24.15295,120.572117,1.5597335e-08
C1S850,豐南,2026-04-18,23.122139,121.262389,1.1115745e-08
C2M9B0,西興,2026-04-18,23.2428,120.57617,8.5626944e-08
C2A920,富貴角,2026-04-18,25.263783,121.565258,4.323236e-08
C0T960,光復,2026-04-18,23.660694,121.424964,1.028401e-05
C0F9M0,豐原,2026-04-18,24.254322,120.720692,2.092345e-05
C0R720,旭海,2026-04-18,22.205403,120.887614,3.760334e-05
C0V710,苓雅,2026-04-18,22.622742,120.330669,0.00016508639
C0C740,觀音工業區,2026-04-18,25.064764,121.114856,7.75899e-09
CAC040,拉拉山,2026-04-18,24.699317,121.427133,2.612863e-09
C0V790,萬山,2026-04-18,22.905944,120.688056,0.99717075
U2HA30,臺大和社,2026-04-18,23.590856,120.888864,3.93219e-10
C2H9K0,屯原,2026-04-18,24.067969,121.209389,1.2996261e-09
C0AJ90,澳底,2026-04-18,25.0552,121.9253,1.14816345e-07
C0Z100,東華,2026-04-18,23.89525,121.549833,0.0008099164
C0G970,三豐,2026-04-18,23.882,120.2895,1.1491676e-08
C0V900,汕尾,2026-04-18,22.4782,120.4151,0.9989689
C1R630,龍泉,2026-04-18,22.66701,120.59091,0.99991196
C1AC50,關渡,2026-04-18,25.133486,121.469331,8.922749e-08
C0C800,四稜,2026-04-18,24.64733,121.4293,1.884809e-09
C0F9I0,神岡,2026-04-18,24.272481,120.658314,5.5087863e-08
C0K460,斗南,2026-04-18,23.678734,120.478359,2.598076e-05
C2O810,曾文,2026-04-18,23.219681,120.497328,0.00011898773
467280,後龍,2026-04-18,24.648563,120.831834,2.7290659e-08
C1F9J1,清水林,2026-04-18,24.071242,120.820419,1.4904435e-09
C2A650,火燒寮,2026-04-18,25.002719,121.742892,3.5868428e-09
466930,竹子湖,2026-04-18,25.162078,121.544547,1.8162056e-09
C1I220,樟湖,2026-04-18,23.905333,120.846983,5.0983573e-10
C0I390,仁愛,2026-04-18,24.022122,121.132206,7.445054e-10
C0Z300,東里,2026-04-18,23.26853,121.30547,0.00046238845
C1V590,新發,2026-04-18,23.057019,120.646064,9.177922e-06
C0K510,水林,2026-04-18,23.572924,120.24597,9.723589e-08
72S590,東改賓朗果園,2026-04-18,22.813889,121.071278,6.9842166e-08
82A750,茶改北部分場,2026-04-18,24.955778,121.631222,3.4970506e-09
C1A750,石碇服務區,2026-04-18,25.00872,121.646242,4.2520725e-08
C0X300,鹿寮,2026-04-18,23.386047,120.477331,0.072427526
C0K590,雲林東勢,2026-04-18,23.674192,120.255721,1.926086e-07
C2K310,港尾布雞,2026-04-18,23.74834,120.38439,3.0088145e-07
C0A570,桶後,2026-04-18,24.848222,121.597992,7.4448163e-09
C0G720,溪州,2026-04-18,23.851589,120.499093,8.7797076e-08
C1V160,達卡努瓦,2026-04-18,23.279811,120.705319,9.623028e-10
C2M410,馬頭山,2026-04-18,23.324361,120.582017,7.1075738e-06
C0V850,蚵仔寮,2026-04-18,22.7256,120.2527,0.0015964677
C0S740,池上,2026-04-18,23.119628,121.209469,2.654259e-08
C1V390,尖山,2026-04-18,22.813153,120.367789,0.0059045525
C0AH70,松山,2026-04-18,25.04871,121.55042,6.72577e-08
C0N010,鯤鯓國小,2026-04-18,23.1879,120.0889,5.0546973e-06
C0SA60,知本（水試所）,2026-04-18,22.702394,121.082761,0.21716157
C0T9I0,豐濱,2026-04-18,23.583897,121.514806,0.8693196
C0UB00,淡江大學蘭陽校園,2026-04-18,24.823239,121.730383,1.3051414e-08
C0W240,九宮,2026-04-18,24.423753,118.240186,8.721321e-09
C0T9N0,富里,2026-04-18,23.171639,121.249378,1.0026051e-07
U2HA50,臺大竹山,2026-04-18,23.756972,120.681556,6.4611676e-08
C0V840,鳳鼻頭,2026-04-18,22.5083,120.3591,0.99884886
C0X140,西港,2026-04-18,23.125608,120.203108,2.395666e-05
72D080,桃改五峰分場,2026-04-18,24.612194,121.157167,9.810467e-10
C2H9P0,伊拿谷,2026-04-18,23.963211,121.088264,1.2796286e-09
C2K250,崙背,2026-04-18,23.75553,120.31893,1.2616124e-07
C2H9F0,柑林,2026-04-18,24.018658,120.847072,1.555517e-07
C0TA20,加灣,2026-04-18,24.082025,121.608944,0.0001952714
C0V530,阿蓮,2026-04-18,22.883208,120.327508,1.5215035e-05
C0FB30,八仙山苗圃,2026-04-18,24.192719,121.001366,6.490042e-09
C0E791,卓蘭,2026-04-18,24.3126,120.8244,5.4779133e-07
C2R260,春日,2026-04-18,22.370361,120.628306,0.99991924
C1I030,武界,2026-04-18,23.913225,121.052483,1.1187974e-09
C0R520,崁頂,2026-04-18,22.514781,120.506914,0.9999495
C0R341,牡丹,2026-04-18,22.130036,120.792639,0.014617388
C0R930,萬丹,2026-04-18,22.5885,120.4851,0.99958616
C0S760,紅石,2026-04-18,23.069131,121.126219,1.3507221e-09
C2C410,中央大學,2026-04-18,24.967652,121.185165,1.8333923e-09
C1M610,石磐龍,2026-04-18,23.496606,120.663506,1.7365197e-09
C2C830,中德,2026-04-18,24.981862,121.291344,6.9515194e-09
C0C790,東眼山,2026-04-18,24.8284,121.40888,2.3364664e-09
C0UA10,鴛鴦湖,2026-04-18,24.590269,121.412228,2.0935482e-09
C0R800,丹路,2026-04-18,22.204481,120.750989,0.9759309
C2R240,萬巒,2026-04-18,22.527306,120.625111,0.9999079
C0G920,永靖,2026-04-18,23.924703,120.547533,1.259523e-07
C2M950,太和,2026-04-18,23.538372,120.702961,1.2231e-09
C1A630,下盆,2026-04-18,24.771003,121.538622,7.094767e-09
B2N890,畜產試驗所,2026-04-18,23.058972,120.336406,0.83895695
C0UA30,白嶺,2026-04-18,24.527819,121.519031,1.0612582e-09
467571,新竹,2026-04-18,24.828575,121.01455,2.2725337e-09
C1V580,溪南(特生中心),2026-04-18,23.084972,120.788475,6.829715e-09
C1T970,大農,2026-04-18,23.615233,121.413331,3.643858e-07
C0R650,竹田,2026-04-18,22.58486,120.54344,0.9999366
C1H900,清流,2026-04-18,24.080775,120.962997,8.6326424e-10
C1C510,水尾,2026-04-18,24.940081,121.087161,2.0916924e-09
C2N170,茅港尾,2026-04-18,23.2061,120.2624,0.000624132
C0F9X0,大雅(中科園區),2026-04-18,24.21528,120.62445,1.3738875e-07
C0SB60,白守蓮,2026-04-18,23.126769,121.401914,0.0052219657
C0O970,虎頭埤,2026-04-18,23.021375,120.347878,0.14226276
C0C730,中大臨海站,2026-04-18,24.966126,121.008581,4.8864455e-09
C0X250,新營,2026-04-18,23.310689,120.316681,9.3711846e-05
C0V700,三民,2026-04-18,22.645017,120.311233,0.021005943
C0U870,大礁溪,2026-04-18,24.791042,121.675047,1.5057484e-08
C0E870,高鐵苗栗,2026-04-18,24.60725,120.826094,2.786493e-08
C2S890,關山,2026-04-18,23.0395,121.175017,5.7930354e-08
C0TA30,鹽寮,2026-04-18,23.845606,121.592664,0.0020848748
C0M860,新美,2026-04-18,23.338017,120.683169,4.367586e-08
C1E701,八卦,2026-04-18,24.491756,120.927619,4.455403e-07
C2TA90,加納納,2026-04-18,23.466421,121.359867,0.015557175
C0I420,國姓,2026-04-18,24.037803,120.855072,1.00580955e-07
C2D720,關西工作站,2026-04-18,24.757275,121.184792,5.2812528e-08
C2AK30,信賢,2026-04-18,24.84108,121.53492,3.713953e-09
C0S960,香蘭,2026-04-18,22.587569,120.993375,5.7277884e-07
467620,蘭嶼,2026-04-18,22.0369,121.55843,1.3829501e-07
C2UC40,中城,2026-04-18,24.62865,121.74745,8.452289e-08
72G600,臺中農改場,2026-04-18,24.003028,120.534389,1.6909343e-07
C0Z210,瑞穗,2026-04-18,23.5239,121.39021,0.9553336
C0M820,達邦,2026-04-18,23.453994,120.749517,2.264391e-09
C0V860,南寮,2026-04-18,22.7616,120.2339,0.0015964677
C0G740,大城,2026-04-18,23.852487,120.320935,1.1425846e-08
C0R920,塭仔,2026-04-18,22.4169,120.5197,0.9999465
C0R470,高樹,2026-04-18,22.826389,120.600806,0.99994546
C0R680,佳樂水,2026-04-18,21.993578,120.861633,0.9997105
C1O870,大棟山,2026-04-18,23.31157,120.52226,1.2658209e-09
C0D360,梅花,2026-04-18,24.678347,121.208558,1.174802e-09
C0Z190,富世,2026-04-18,24.14743,121.6297,8.8818446e-08
C0AI10,屈尺,2026-04-18,24.92184,121.54475,1.3062166e-07
B2U990,畜試東區分所,2026-04-18,24.669039,121.832561,1.63773e-07
C0SB80,長濱漁港,2026-04-18,23.313644,121.459994,0.64951414
C0TA50,和仁,2026-04-18,24.241394,121.712472,0.07061187
C2AK40,漁光,2026-04-18,24.96875,121.72132,3.5920804e-09
C0V910,大樹,2026-04-18,22.684645,120.432803,0.4153189
C1R610,西大武山,2026-04-18,22.617719,120.7322,1.4497795e-09
C0G900,線西,2026-04-18,24.143358,120.443536,7.7605455e-07
C0M700,竹崎,2026-04-18,23.526178,120.555508,0.009548299
C2E880,三義,2026-04-18,24.405478,120.749819,5.9466756e-09
C0C720,竹圍,2026-04-18,25.112692,121.239824,1.0362892e-08
C0F9P0,清水,2026-04-18,24.312297,120.562242,4.231821e-08
C0Z150,吉安光華,2026-04-18,23.930925,121.595153,0.37335408
C0FA80,小雪山天池,2026-04-18,24.28025,121.02627,4.8035087e-09
467300,東吉島,2026-04-18,23.25727,119.66762,0.863064
C1D640,外坪(五指山),2026-04-18,24.644447,121.090961,1.355233e-09
C2R9A0,高士國小,2026-04-18,22.12553,120.84653,0.016012888
C0F9O0,潭子,2026-04-18,24.213106,120.703933,2.3368957e-05
C2H9R0,卓社,2026-04-18,23.887894,121.000086,6.0252914e-10
72T250,花蓮農改場,2026-04-18,23.975222,121.563889,0.1480963
C0E780,銅鑼,2026-04-18,24.489681,120.790853,3.36071e-08
C1T950,太安,2026-04-18,23.666719,121.370128,1.1766881e-09
C0E830,苑裡,2026-04-18,24.439714,120.653053,1.706474e-08
467270,田中,2026-04-18,23.873803,120.581286,8.575701e-07
C0SA10,檳榔四格山,2026-04-18,22.810031,121.109308,2.9691668e-08
C1T830,布洛灣,2026-04-18,24.17184,121.57127,4.4851833e-09
C0F970,大坑,2026-04-18,24.173142,120.722289,6.0278417e-06
C1U920,思源,2026-04-18,24.393125,121.347214,1.5504578e-09
C2H9Y0,松茗,2026-04-18,23.8167,120.650765,1.5359379e-09
C0A931,三和,2026-04-18,25.233153,121.595236,2.5164505e-08
C0I010,廬山,2026-04-18,24.033311,121.181808,1.3005436e-09
C2M940,日野賀,2026-04-18,23.434056,120.727169,1.1926654e-09
C0R860,鼻頭,2026-04-18,22.1043,120.8979,0.999273
C2I260,北坑,2026-04-18,23.92463,121.00683,5.518619e-08
C0UB20,壯圍,2026-04-18,24.7359,121.8163,8.981764e-05
C0R790,九棚,2026-04-18,22.14195,120.889281,0.000108541004
C0W110,東莒,2026-04-18,25.9652,119.98069,3.119284e-08
C1U930,粉鳥林,2026-04-18,24.497088,121.842479,3.39598e-07
C0S830,長濱,2026-04-18,23.286817,121.411975,3.9448523e-06
C1F9F1,伯公龍,2026-04-18,24.272392,120.849047,0.00035152005
C0UB90,太平山莊,2026-04-18,24.494171,121.536209,1.3945718e-09
C0E810,西湖,2026-04-18,24.562947,120.7485,1.6925936e-08
C1I440,新高口,2026-04-18,23.478744,120.878939,3.7503214e-09
C0O840,王爺宮,2026-04-18,23.222064,120.40085,0.5065602
C0T9G0,鳳林山,2026-04-18,23.735269,121.420131,1.6999467e-09
C0X080,佳里,2026-04-18,23.173039,120.145086,3.4902703e-06
C0FB70,大甲溪埔,2026-04-18,24.370625,120.620067,2.2191296e-08
C0Z310,清水斷崖,2026-04-18,24.218294,121.689142,0.00015663383
C0M680,太保,2026-04-18,23.455062,120.331455,4.9428112e-05
C1S820,金峰,2026-04-18,22.590969,120.933236,7.100889e-08
C0AD10,八里,2026-04-18,25.150211,121.403947,1.5902378e-07
C2K240,草嶺,2026-04-18,23.59555,120.693461,1.1661422e-09
C1SA70,都蘭,2026-04-18,22.87794,121.226881,3.3161239e-06
C0K440,二崙,2026-04-18,23.772797,120.408944,3.5564116e-07
C1A760,坪林交控,2026-04-18,24.94284,121.713442,4.811927e-09
C0F9N0,大里,2026-04-18,24.092464,120.701378,5.5558694e-08
C0SA90,達仁林場,2026-04-18,22.264347,120.823972,2.587836e-07
C1R290,石門山,2026-04-18,22.112611,120.756597,3.9897086e-06
42HA10,萬大發電廠,2026-04-18,23.978875,121.139639,8.9187074e-10
C0R890,山海,2026-04-18,21.9878,120.7091,0.99381214
C0T9A0,月眉山,2026-04-18,23.809928,121.539828,7.0439334e-09
C0AC70,信義,2026-04-18,25.037822,121.564597,1.3160182e-07
C0K560,棋山,2026-04-18,23.68645,120.603417,2.0425184e-06
C2FB50,出雲,2026-04-18,24.206469,120.902794,2.5661406e-09
C1Z240,中平林道,2026-04-18,23.42115,121.26763,1.009445e-09
U2H480,溪頭,2026-04-18,23.670306,120.798194,3.0171643e-10
C0M880,好美里,2026-04-18,23.3364,120.138,2.9059245e-07
C0T9E0,大坑,2026-04-18,23.880628,121.581981,2.1333795e-08
C0K530,臺西,2026-04-18,23.701547,120.197559,3.5669576e-08
C1E900,國一N128K,2026-04-18,24.560997,120.844186,1.814015e-08
C0AJ50,水湳洞,2026-04-18,25.123695,121.862238,1.0738385e-07
C0AI20,白沙灣,2026-04-18,25.283128,121.519058,1.7468378e-07
C2V310,美濃,2026-04-18,22.898792,120.51907,0.010525301
C0A860,大坪,2026-04-18,25.165914,121.632969,8.821874e-08
C1U850,觀音海岸,2026-04-18,24.38319,121.77856,4.3183968e-09
C2K610,草嶺石壁,2026-04-18,23.602469,120.707731,1.115199e-09
C0U950,鶯子嶺,2026-04-18,24.89754,121.79244,3.3755867e-09
C0O900,善化,2026-04-18,23.112883,120.297219,0.8402438
C0K550,蔦松,2026-04-18,23.514319,120.229736,7.8538235e-08
E2P980,林試六龜中心,2026-04-18,22.991703,120.645722,0.9848493
C0E590,通霄,2026-04-18,24.471892,120.704622,2.5779844e-08
C1I310,西巒,2026-04-18,23.754486,120.883956,7.223554e-10
C0A550,泰平,2026-04-18,24.971197,121.823711,5.09214e-09
C2UC30,金洋,2026-04-18,24.42465,121.74573,1.0426889e-05
C0I360,水里,2026-04-18,23.812553,120.849792,3.2995132e-08
C0R830,高士,2026-04-18,22.121825,120.836781,5.113082e-07
C1I101,溪頭,2026-04-18,23.661789,120.807647,1.6569102e-09
C0AJ20,野柳,2026-04-18,25.20703,121.690021,2.5387862e-08
C0B060,暖暖,2026-04-18,25.0957,121.7403,2.6178228e-08
C1H920,長豐,2026-04-18,24.102039,120.879897,3.909242e-09
C2S9B0,利吉,2026-04-18,22.86246,121.15486,1.9355008e-07
C0V360,內門,2026-04-18,22.975481,120.466769,0.016402032
C0R850,林邊,2026-04-18,22.4634,120.5339,0.99994135
C0E930,龍鳳,2026-04-18,24.700034,120.859125,6.081697e-09
C0U910,冬山,2026-04-18,24.63373,121.7937,1.63773e-07
C1E721,泰安,2026-04-18,24.489017,120.968036,9.745328e-09
82H320,茶改中部分場,2026-04-18,23.875611,120.913583,1.5631457e-09
C0M750,布袋,2026-04-18,23.380878,120.167789,5.6957216e-08
C1S860,利嘉,2026-04-18,22.809417,121.050528,3.927815e-09
E2S980,林試太麻里1,2026-04-18,22.598922,120.980044,2.3266179e-07
C0X170,關廟,2026-04-18,22.963017,120.327797,2.4831388e-05
C0V720,林園,2026-04-18,22.507747,120.394511,0.99909204
C2M9G0,沄水,2026-04-18,23.38293,120.52666,0.0003844046
C1I510,線浸林道,2026-04-18,23.761508,120.832956,4.7048965e-10
C0D690,外湖,2026-04-18,24.917735,120.968711,8.067781e-09
C0C750,新興坑尾,2026-04-18,25.0061,121.0971,2.58096e-09
B2Q810,畜試南區分所,2026-04-18,21.945583,120.802167,0.9997105
C0S790,金崙,2026-04-18,22.538122,120.966875,3.83971e-07
C0AH90,福山植物園,2026-04-18,24.760717,121.58135,5.6040363e-09
C0I540,奇萊稜線,2026-04-18,24.109231,121.326456,8.245708e-09
C0M850,表湖,2026-04-18,23.24186,120.64166,4.417115e-08
C0S770,大溪山,2026-04-18,22.478475,120.943325,1.7074607e-08
C0AG80,中和,2026-04-18,24.991622,121.491792,1.917152e-07
C0T790,大禹嶺,2026-04-18,24.186117,121.316086,5.000998e-09
C0T9B0,水源,2026-04-18,23.991861,121.537169,2.457551e-09
C0R840,牡丹池山,2026-04-18,22.168389,120.841225,1.6985548e-07
C1I131,桶頭,2026-04-18,23.641944,120.654117,3.778166e-08
CAL110,布袋國中,2026-04-18,23.35893,120.18026,2.9059245e-07
C2M9D0,何竹子腳,2026-04-18,23.53641,120.38203,0.020526575
C0Z290,赤柯山,2026-04-18,23.36893,121.38293,2.5949192e-09
C0X280,將軍,2026-04-18,23.214999,120.13577,1.6530006e-06
C0S690,太麻里,2026-04-18,22.60902,120.98533,5.493035e-09
C0U880,北關,2026-04-18,24.9072,121.8734,2.1550281e-06
CAW010,東引,2026-04-18,26.3588,120.4836,6.19646e-08
C0G810,埔心,2026-04-18,23.947633,120.525456,1.2849603e-07
C0U970,大福,2026-04-18,24.80064,121.81389,6.479911e-06
C2H9N0,仁愛東眼,2026-04-18,24.026875,121.1205,7.2878364e-10
C1E670,南礦,2026-04-18,24.538278,121.002836,3.2667549e-09
C0M520,東後寮,2026-04-18,23.369908,120.248065,1.3662505e-07
C1E461,松安,2026-04-18,24.397972,120.986022,2.3664486e-09
C2N160,西拉雅風管處,2026-04-18,23.189481,120.335297,0.9629992
C2O850,環湖,2026-04-18,23.148665,120.4186,0.012399501
C2M970,碧湖,2026-04-18,23.568632,120.624165,9.007674e-10
C0A640,石碇,2026-04-18,24.993969,121.662917,4.811927e-09
E2S960,林試太麻里2,2026-04-18,22.598,120.99775,7.252545e-07
C0F9Y0,桃山,2026-04-18,24.432739,121.303808,6.63015e-09
C1I020,萬大,2026-04-18,23.979817,121.132261,7.424549e-10
C2UC20,長嶺,2026-04-18,24.70894,121.61162,1.17771695e-08
C0U940,羅東,2026-04-18,24.68184,121.74934,1.4746229e-06
C0M650,朴子,2026-04-18,23.43463,120.23902,1.3842141e-07
C1I500,大尖山,2026-04-18,23.858572,120.994889,8.4693863e-10
C0FB40,中橫21.6k,2026-04-18,24.2499,121.1455,8.438106e-10
C0G820,田尾,2026-04-18,23.901669,120.509389,1.2849603e-07
E2K600,四湖植物園,2026-04-18,23.676986,120.163433,5.7337296e-08
C0S730,綠島,2026-04-18,22.6672,121.47533,6.2764384e-06
12Q970,東港工作站,2026-04-18,22.479997,120.466058,0.9999411
C1TA00,太魯閣,2026-04-18,24.15773,121.6236,3.309232e-08
466920,臺北,2026-04-18,25.037658,121.514853,6.72577e-08
C0R600,舊泰武,2026-04-18,22.588194,120.664944,0.00020512618
466910,鞍部,2026-04-18,25.182586,121.529731,1.3886872e-09
C1I230,九份二山,2026-04-18,23.961944,120.845,9.785033e-10
C2M810,里佳,2026-04-18,23.389125,120.716647,1.0960619e-09
C2A660,瑞芳,2026-04-18,25.113169,121.801147,4.429373e-08
C0R270,琉球嶼,2026-04-18,22.332244,120.362236,0.13545714
C2V580,瑞山,2026-04-18,22.90304,120.43424,0.11581296
C1T990,高寮,2026-04-18,23.394239,121.356808,0.13297339
C0G620,芬園,2026-04-18,24.015678,120.6213,2.2231485e-07
C1Z140,荖溪,2026-04-18,23.890575,121.45964,1.289082e-09
C1I201,中心崙,2026-04-18,23.728722,120.712097,3.558616e-10
C1I400,凌霄,2026-04-18,24.018778,121.004456,7.2857237e-10
C1M640,十字,2026-04-18,23.492153,120.753683,1.5294189e-09
G2P820,農試鳳山分所,2026-04-18,22.646611,120.356083,0.00016052424
C0Z270,蕃薯寮,2026-04-18,23.73835,121.540108,3.959499e-08
C2E420,竹南,2026-04-18,24.70898,120.88897,6.0114163e-09
C2D480,打鐵坑,2026-04-18,24.849664,121.150789,3.8354075e-09
C0FB10,出雲山苗圃,2026-04-18,24.23105,120.90475,5.6050515e-09
C0F9Q0,外埔,2026-04-18,24.347817,120.705686,3.1422744e-08
C0K580,高鐵雲林,2026-04-18,23.737456,120.417944,3.0169403e-07
C2I090,鳳凰,2026-04-18,23.728081,120.787347,4.6914816e-10
C0U990,員山,2026-04-18,24.74435,121.72247,1.4753305e-06
C0V770,大社,2026-04-18,22.730306,120.346639,0.0029841424
C0X120,麻豆,2026-04-18,23.183289,120.248611,0.0126575595
C0C670,龍潭,2026-04-18,24.870056,121.221389,5.379695e-09
C0D680,香山濕地,2026-04-18,24.783581,120.914988,8.067781e-09
C0S980,勝林山,2026-04-18,22.430439,120.8938,5.1374647e-09
C0V730,大寮,2026-04-18,22.605614,120.395717,0.0005482647
C0R570,麟洛,2026-04-18,22.65078,120.52719,0.9996967
C2M930,石卓,2026-04-18,23.478744,120.702264,1.5077248e-09
C0G9B0,和美,2026-04-18,24.105169,120.492131,4.940037e-07
C2I240,外大坪,2026-04-18,23.9587,120.91788,2.333082e-09
CAG100,王功漁港,2026-04-18,23.96824,120.32586,2.7551222e-08
C0X290,北門,2026-04-18,23.267772,120.125481,1.6530006e-06
C2F930,大甲,2026-04-18,24.347667,120.640403,1.4471915e-08
C0D650,湖口,2026-04-18,24.904794,121.043628,2.2498998e-09
C0U780,五結,2026-04-18,24.68637,121.79794,1.63773e-07
C1I250,鯉潭,2026-04-18,23.961922,120.991131,8.091344e-09
C0R130,阿禮,2026-04-18,22.742908,120.743678,1.4858399e-06
C0X100,臺南市北區,2026-04-18,23.010394,120.194228,1.0844303e-07
C0S920,金峰嘉蘭,2026-04-18,22.594789,120.960825,1.8180042e-07
C0V490,新興,2026-04-18,22.627422,120.298803,0.11867497
C0F9K0,大安,2026-04-18,24.345061,120.588025,1.4723498e-08
467290,古坑,2026-04-18,23.633639,120.551889,0.99914736
C2E970,八甲,2026-04-18,24.535811,120.795983,1.7408318e-08
C0V440,鳳山,2026-04-18,22.646653,120.356122,0.00016052424
C1T940,大觀,2026-04-18,23.714206,121.373133,1.5269945e-08
C0E740,造橋,2026-04-18,24.637056,120.864778,1.8430105e-08
C0R100,尾寮山,2026-04-18,22.833111,120.683889,9.069033e-07
A2K630,臺大雲林校區,2026-04-18,23.730628,120.423903,3.0079653e-07
467990,馬祖,2026-04-18,26.169467,119.923158,5.2585463e-08
C0D580,寶山,2026-04-18,24.735006,121.025192,1.4321439e-08
E2P990,林試扇平站,2026-04-18,22.9677,120.6857,0.9976067
C0AI30,三重,2026-04-18,25.057328,121.500629,7.046906e-08
C0AH00,汐止,2026-04-18,25.066881,121.658778,8.117873e-08
C1Z040,立山,2026-04-18,23.443356,121.327375,1.6854811e-07
466881,新北,2026-04-18,24.959207,121.525196,2.0717795e-07
C0W130,花嶼,2026-04-18,23.40007,119.32276,0.5011099
C0A950,鼻頭角,2026-04-18,25.129036,121.923372,8.095211e-06
C0K470,林內,2026-04-18,23.748675,120.609642,2.2100264e-06
C2F990,摩天嶺,2026-04-18,24.322458,120.936819,4.8405093e-09
C2E430,南庄,2026-04-18,24.601775,121.000214,8.299782e-09
82C160,茶改場,2026-04-18,24.908472,121.185333,3.767176e-09
C2TB60,南安,2026-04-18,23.29818,121.26157,8.858614e-05
C0Z320,清水林道,2026-04-18,23.27125,121.188272,5.175764e-09
C0R760,南仁湖,2026-04-18,22.084681,120.863353,3.1972256e-06
C0M670,大林,2026-04-18,23.600616,120.45841,5.8549824e-05
C0M800,茶山,2026-04-18,23.299075,120.664767,3.9702677e-08
C0A9C0,天母,2026-04-18,25.117494,121.537169,1.222483e-07
72K220,南改斗南分場,2026-04-18,23.634556,120.477333,2.5987574e-05
72AI40,桃改樹林分場,2026-04-18,24.944503,121.386972,1.0567603e-06
C0S910,蘭嶼燈塔,2026-04-18,22.081197,121.503117,2.2463264e-06
C0B050,八斗子,2026-04-18,25.144754,121.79167,1.7415466e-07
C0U900,內城,2026-04-18,24.71813,121.68766,3.7777984e-06
C0X320,柳營,2026-04-18,23.253328,120.375253,0.61188024
C0M790,新港,2026-04-18,23.553269,120.345728,7.211928e-08
C0F9T0,西屯,2026-04-18,24.179494,120.641275,1.4173304e-07
C0E950,松安,2026-04-18,24.39792,120.98599,2.3664486e-09
C0SA30,都歷,2026-04-18,23.020333,121.323642,0.7675503
C0C620,蘆竹,2026-04-18,25.084275,121.265767,6.3114682e-09
C0R730,大坪頂,2026-04-18,22.024633,120.69355,0.99497366
C0AJ40,石門,2026-04-18,25.273672,121.601198,5.8096994e-08
C0E750,苗栗,2026-04-18,24.564569,120.824575,1.847114e-08
C0T870,鯉魚潭,2026-04-18,23.935639,121.508944,0.0016865788
C1V170,排雲,2026-04-18,23.463619,120.954147,1.692161e-08
C2H950,中寮,2026-04-18,23.884447,120.766406,6.253689e-08
C0R350,貓鼻頭,2026-04-18,21.921774,120.7358,0.99391955
C0V660,岡山,2026-04-18,22.797078,120.294958,0.0011486739
C1H941,雙冬,2026-04-18,23.967378,120.802189,3.8995682e-09
C0AJ70,田寮,2026-04-18,25.2698,121.4886,1.8677204e-07
C0AI00,五股,2026-04-18,25.07445,121.42728,4.3127436e-08
C0Z280,德武,2026-04-18,23.47426,121.41071,0.08588931
C2RA10,大新,2026-04-18,22.67558,120.57788,0.99991196
C0R700,枋山,2026-04-18,22.246844,120.661086,0.9975173
C0C460,復興,2026-04-18,24.820208,121.352281,1.3792134e-09
C2AA10,中八仙,2026-04-18,25.11576,121.49199,1.7399678e-07
C2K300,鹿南,2026-04-18,23.63855,120.3636,1.215713e-07
E2H360,蓮華池,2026-04-18,23.918333,120.885278,7.614972e-09
C0M640,中埔,2026-04-18,23.42538,120.5229,0.03664856
C2C810,八德蔬果,2026-04-18,24.97858,121.28187,6.9515194e-09
C2M9F0,安溪寮,2026-04-18,23.350334,120.208039,2.48004e-07
C0W140,金沙,2026-04-18,24.488292,118.408778,1.21165336e-08
C2A540,四堵,2026-04-18,24.8926,121.745736,7.7557205e-09
C0ACA0,新莊,2026-04-18,25.051478,121.446756,6.560319e-07
C0R220,潮州,2026-04-18,22.534361,120.54,0.99995047
U2HA40,臺大內茅埔,2026-04-18,23.689722,120.851117,1.0700489e-09
467490,臺中,2026-04-18,24.145736,120.684075,6.434428e-06
C0UB60,明池,2026-04-18,24.650688,121.475277,1.6623104e-09
C0U960,翠峰湖,2026-04-18,24.510856,121.608044,1.2780407e-09
E2HA20,林試畢祿溪站,2026-04-18,24.226944,121.308522,2.1067028e-09
C2M9A0,大華,2026-04-18,23.4824,120.67491,1.5196313e-09
C0V890,前鎮,2026-04-18,22.5718,120.3117,0.06909203
C1F941,雪嶺,2026-04-18,24.280586,121.026642,4.8035087e-09
C2H9E0,國姓南港,2026-04-18,23.911108,120.846556,4.9769017e-10
C0AC80,文山,2026-04-18,25.00235,121.575728,5.2749582e-09
C0F9R0,龍井,2026-04-18,24.184536,120.528972,1.3071512e-07
C0M760,民雄,2026-04-18,23.551754,120.428457,5.8549824e-05
C0UA40,西德山,2026-04-18,24.560647,121.752608,1.6330838e-09
C2TA70,赤科坪,2026-04-18,23.39885,121.39168,2.4078308e-09
C1T920,中興,2026-04-18,23.769503,121.498653,1.3347402e-05
C0D550,雪霸,2026-04-18,24.526972,121.11605,4.070842e-09
C2F860,梨山,2026-04-18,24.247522,121.243669,3.0319165e-09
C0R320,車城,2026-04-18,22.0744,120.716247,0.9945866
C1S870,南美山,2026-04-18,23.15025,121.382333,2.4376448e-07
C0B020,基隆嶼,2026-04-18,25.19141,121.78391,1.310059e-07
C1U501,牛鬥,2026-04-18,24.637836,121.573656,7.123299e-08
C0M730,嘉義市東區,2026-04-18,23.457673,120.460531,0.84928125
C2R990,泰武,2026-04-18,22.60686,120.69765,3.4866208e-09
C0S700,知本,2026-04-18,22.684866,121.005642,9.248433e-09
C1N001,沙崙,2026-04-18,22.935472,120.309406,2.5472162e-05
C0V760,橋頭,2026-04-18,22.757806,120.30575,0.0029119349
C2V570,吉東,2026-04-18,22.85418,120.54539,0.999946
C0G960,福寶,2026-04-18,24.0443,120.3814,1.5905472e-07
C0X210,白河,2026-04-18,23.347466,120.414427,0.45419383
C0S810,東河,2026-04-18,22.972672,121.303986,0.05157609
C2R170,屏東,2026-04-18,22.66027,120.49403,0.9996967
C0R670,楓港,2026-04-18,22.190131,120.692156,0.9940547
C0FA50,霧峰,2026-04-18,24.0419,120.6995,5.4808453e-08
C0UB10,蘇澳,2026-04-18,24.5969,121.8571,7.258323e-08
C0G950,防潮門,2026-04-18,24.1835,120.4871,6.148831e-07
C0M740,六腳,2026-04-18,23.492871,120.290625,1.7506619e-07
C1R250,力里,2026-04-18,22.428117,120.629228,0.9998779
C0K330,虎尾,2026-04-18,23.719183,120.442036,2.942229e-07
C2FA00,烏石坑,2026-04-18,24.273503,120.947617,4.9017634e-09
C0V620,永安,2026-04-18,22.82315,120.236856,0.0011699665
C1I330,楓樹林,2026-04-18,23.986803,121.076117,5.699607e-10
C0W200,湖西,2026-04-18,23.596314,119.67275,0.072917946
72Q010,高雄農改場,2026-04-18,22.709333,120.525889,0.9998045
C0C680,龜山,2026-04-18,25.02846,121.38656,1.1293679e-08
C2V260,月眉,2026-04-18,22.971003,120.539853,6.7314366e-05
C0V450,鳳森,2026-04-18,22.545064,120.392592,0.9990797
C0FA90,小雪山林道,2026-04-18,24.29515,121.03651,7.760307e-09
C0U720,南山,2026-04-18,24.43742,121.38167,8.2467255e-10
A2N290,臺南蘭花園區,2026-04-18,23.340258,120.379661,0.036343295
C0R560,新園,2026-04-18,22.5434,120.461558,0.99909204
C0U890,三星,2026-04-18,24.66812,121.65302,7.1863525e-07
C1V300,御油山,2026-04-18,23.001983,120.715364,6.933418e-09
C0U600,礁溪,2026-04-18,24.817539,121.765608,5.9088643e-06
C1T980,龍澗,2026-04-18,24.023289,121.411328,1.1662935e-09
C0D670,海天一線,2026-04-18,24.831986,120.914438,6.37681e-09
C0SA00,歷坵,2026-04-18,22.520969,120.89185,3.9805343e-08
C0M710,東石,2026-04-18,23.458927,120.15385,5.3454634e-08
C0M780,鹿草,2026-04-18,23.41134,120.30835,1.3654142e-07
C0U520,雙連埤,2026-04-18,24.753033,121.641303,9.104824e-09
C0B010,七堵,2026-04-18,25.094819,121.71713,1.12455986e-07
C0R480,長治,2026-04-18,22.693128,120.542622,0.99989164
C1V830,國三S383K,2026-04-18,22.781967,120.426475,0.63199914
12Q980,恆春工作站,2026-04-18,22.079678,120.714425,0.9945866
C1O940,東山服務區,2026-04-18,23.286016,120.398472,0.038446877
C1U840,東澳嶺,2026-04-18,24.5378,121.8485,3.524102e-09
C1D630,飛鳳山,2026-04-18,24.766464,121.119178,2.4764102e-09
C0S940,石寧山,2026-04-18,23.223772,121.406639,5.032164e-05
C0K410,北港,2026-04-18,23.573957,120.292802,9.57167e-08
C2M620,瑞里,2026-04-18,23.545133,120.675197,1.6239518e-09
C0SB70,小港漁港,2026-04-18,23.158558,121.400431,0.003348948
C2O950,安南,2026-04-18,23.076694,120.144861,1.046646e-05
C0F0E0,南湖圈谷,2026-04-18,24.363714,121.444667,1.0428404e-08
467610,成功,2026-04-18,23.097486,121.373428,0.9536254
C0G890,伸港,2026-04-18,24.148933,120.484403,6.159448e-07
C2E540,龍溪,2026-04-18,24.606489,120.783933,1.8305945e-08
C1V200,梅山,2026-04-18,23.268447,120.823556,1.4139255e-09
C0T9H0,加路蘭山,2026-04-18,23.682947,121.5274,2.5540943e-09
C2O930,玉井,2026-04-18,23.126042,120.46055,0.012399501
C1F911,新伯公,2026-04-18,24.221361,120.841069,0.00068987545
C0X200,左鎮,2026-04-18,23.056758,120.408522,0.9759682
C2TB50,麻汝,2026-04-18,23.42554,121.39358,0.08058231
C0FA60,鞍馬山工作站,2026-04-18,24.267064,121.000793,2.1245548e-09
C0SB50,叭嗡嗡,2026-04-18,23.047062,121.343223,0.9744299
C2R550,新埤,2026-04-18,22.467947,120.582894,0.9998919
C1F891,稍來,2026-04-18,24.265689,121.001142,2.00885e-09
C2M9C0,紫雲,2026-04-18,23.494914,120.540253,0.2840029
72N240,七股研究中心,2026-04-18,23.081672,120.062894,2.304641e-05
C0C700,中壢,2026-04-18,24.977661,121.256375,6.685925e-09
C0M690,水上,2026-04-18,23.419734,120.388909,0.0014369804
C0V690,鼓山,2026-04-18,22.623325,120.275575,0.11867497
C0O860,大內,2026-04-18,23.11885,120.36083,0.95949477
C0Z200,萬榮,2026-04-18,23.709219,121.420106,2.082389e-07
C0T9D0,和中,2026-04-18,24.26676,121.74103,0.068648174
C2S9A0,北份子寮,2026-04-18,22.78561,121.07813,0.0014731375
C1O921,楠西,2026-04-18,23.183511,120.484083,0.012439088
C0AJ30,淡水觀海,2026-04-18,25.184591,121.408616,1.6157303e-07
C0V810,左營,2026-04-18,22.67491,120.28491,0.021005943
C0UA70,桃源谷,2026-04-18,24.962606,121.888875,8.6443785e-09
C0X130,官田,2026-04-18,23.193217,120.315422,0.9651749
C1H000,翠峰,2026-04-18,24.109397,121.205211,2.9736142e-09
C0UA90,石城,2026-04-18,24.980444,121.951214,3.3291715e-07
C1E681,南勢山,2026-04-18,24.421669,120.923831,1.471264e-07
C0A9F0,內湖,2026-04-18,25.079422,121.57545,1.3160182e-07
C0K291,宜梧,2026-04-18,23.536281,120.169329,2.8976324e-08
C1K540,口湖,2026-04-18,23.585344,120.180517,3.0955825e-08
C0R780,滿州,2026-04-18,22.024403,120.839892,0.99640864
C0V870,文安,2026-04-18,22.8025,120.2164,0.0015964677
C0U650,玉蘭,2026-04-18,24.675286,121.587061,1.1685741e-08
C0R640,東港,2026-04-18,22.46247,120.44074,0.99884886
C0AJ80,板橋,2026-04-18,25.0107,121.4489,1.917152e-07
C0S660,下馬,2026-04-18,23.150427,121.070312,1.1649062e-09
C2N190,烏樹,2026-04-18,23.32393,120.36989,0.00040412348
C1H9B1,阿眉,2026-04-18,24.1263,120.994672,1.012563e-09
C0UA20,多加屯,2026-04-18,24.368614,121.373189,3.5468608e-09
C0E730,頭份,2026-04-18,24.688247,120.912206,6.07867e-09
72V140,高改旗南分場,2026-04-18,22.857861,120.516667,0.0014874175
C2R490,九如,2026-04-18,22.74049,120.490555,0.9998045
C0K480,莿桐,2026-04-18,23.761192,120.502372,0.00048273956
C0U980,坪林石牌,2026-04-18,24.86478,121.77396,4.65075e-09
C0T900,西林,2026-04-18,23.8119,121.441458,2.490706e-07
C1I150,青雲,2026-04-18,23.793361,120.949378,2.1060009e-08
C2E980,和興,2026-04-18,24.505319,120.923016,7.330003e-06
467350,澎湖,2026-04-18,23.565503,119.563094,0.70251036
C0G800,埔鹽,2026-04-18,24.000394,120.431683,1.2527546e-07
C0H960,草屯,2026-04-18,23.973672,120.68085,3.2906803e-07
C1V780,多納林道,2026-04-18,22.888028,120.737917,6.808823e-06
C0E920,通霄漁港,2026-04-18,24.498589,120.673876,2.582458e-08
C0Z330,安通山,2026-04-18,23.290728,121.348528,5.6609988e-08
C0AH10,永和,2026-04-18,25.01125,121.508111,2.0135565e-07
C0AK10,太平里,2026-04-18,25.134937,121.364899,6.332392e-08
C2G640,鹿港,2026-04-18,24.0753,120.430481,4.9297773e-07
C1E890,國三N149K,2026-04-18,24.463414,120.680019,2.5791058e-08
C1R110,口社,2026-04-18,22.770111,120.645222,0.9998902
C1M870,國三N285K,2026-04-18,23.550319,120.505833,0.26485753
C1E480,鳳美,2026-04-18,24.554803,121.034747,1.705456e-06
C0T9M0,靜浦,2026-04-18,23.455167,121.495028,0.9811757
C2H9M0,發祥,2026-04-18,24.154094,121.164517,1.0711374e-09
C2G9C0,埔南,2026-04-18,23.99124,120.46969,1.2527546e-07
C0AI40,石牌,2026-04-18,25.115597,121.513139,1.3160182e-07
C1F871,上谷關,2026-04-18,24.203483,121.018644,4.9017634e-09
C2H9G0,百勝,2026-04-18,24.051142,120.909361,2.2329584e-08
C0G880,二水,2026-04-18,23.810742,120.6173,1.6585322e-07
C0R940,加祿堂,2026-04-18,22.3363,120.6217,0.9969298
C0W220,北竿,2026-04-18,26.220358,119.974881,5.1882594e-08
C0O960,崎頂,2026-04-18,22.959547,120.369317,2.2398006e-05
C0TA40,秀林,2026-04-18,24.302864,121.731144,2.9610046e-09
C0S750,向陽,2026-04-18,23.248397,120.986133,2.2615854e-09
C0T9F0,水璉,2026-04-18,23.797131,121.542514,4.9271495e-08
C1M600,頭凍,2026-04-18,23.406364,120.603339,6.833947e-10
467660,臺東,2026-04-18,22.752211,121.154586,0.6106837
C1D380,新埔,2026-04-18,24.84745,121.03834,2.1762898e-09
C2G980,田頭村,2026-04-18,23.8263,120.444175,3.5480102e-07
C0V750,路竹,2026-04-18,22.854997,120.259439,0.0011524728
C0N050,蚵寮,2026-04-18,23.301,120.1104,1.6530006e-06
C2X060,下營,2026-04-18,23.226806,120.256291,0.000624132
72M700,南改鹿草分場,2026-04-18,23.416869,120.283061,1.3609318e-07
C1SA50,利嘉林道,2026-04-18,22.82325,121.009389,3.5791956e-09
C0UB70,太平山中間站,2026-04-18,24.542003,121.513453,1.1387788e-09
C0A940,金山,2026-04-18,25.223628,121.643967,2.1908076e-07
C1V340,大津,2026-04-18,22.888322,120.645986,0.99985164
C0W180,七美,2026-04-18,23.219333,119.444892,0.8975564
C1F9C1,白冷,2026-04-18,24.182844,120.929889,7.776873e-09
K2E710,苗改生物防治研究中心,2026-04-18,24.422861,120.871833,1.547282e-06
C0N040,蘆竹溝,2026-04-18,23.2344,120.0961,1.6476541e-06
C0TB40,崇德,2026-04-18,24.166144,121.657414,3.4625336e-07
C0D760,大坪苗圃,2026-04-18,24.5362,121.1108,2.7820255e-09
C2D430,峨眉,2026-04-18,24.6905,121.017189,5.5031757e-09
C2W230,畜試所澎湖,2026-04-18,23.628342,119.513206,0.41747501
C0R880,後壁湖,2026-04-18,21.9457,120.7457,0.99381214
C1I280,埔中,2026-04-18,23.820778,120.642594,1.3809534e-09
467790,墾丁雷達站,2026-04-18,21.948235,120.808028,0.99970883
C0W190,望安,2026-04-18,23.380564,119.494075,0.8886947
C0Z170,卓溪,2026-04-18,23.3443,121.3029,0.009428796
C0F850,東勢,2026-04-18,24.246428,120.833047,0.0037523713
466900,淡水,2026-04-18,25.164889,121.448906,6.4143785e-07
C0I370,魚池,2026-04-18,23.895703,120.94135,4.1245665e-09
C0C630,大溪,2026-04-18,24.882853,121.265547,4.4387845e-09
C0A520,山佳,2026-04-18,24.974944,121.402008,1.3782368e-06
C0I110,竹山,2026-04-18,23.761225,120.688156,7.8960305e-08
82H840,茶改南部分場,2026-04-18,23.762528,120.7405,3.6096008e-09
C2SD80,再來山,2026-04-18,23.34371,121.44122,0.00053686945
C0G660,溪湖,2026-04-18,23.94835,120.479122,1.2778091e-07
C1T800,洛韶,2026-04-18,24.204558,121.453956,9.802406e-10
C1T810,慈恩,2026-04-18,24.192044,121.388386,1.4125104e-09
C1E451,象鼻,2026-04-18,24.368617,120.940228,1.471264e-07
C0AC60,三峽,2026-04-18,24.939025,121.369728,2.161999e-07
C0I490,萬大林道,2026-04-18,23.928228,121.091411,6.461704e-10
C1I290,豐丘,2026-04-18,23.668178,120.887417,5.881216e-10
C1I320,奧萬大,2026-04-18,23.952956,121.178556,1.0903985e-09
C2M910,嘉義大學,2026-04-18,23.471325,120.485903,0.82519764
C0U770,南澳,2026-04-18,24.44935,121.81022,3.39598e-07
C2TB30,吉安,2026-04-18,23.94538,121.54803,0.025925698
C0A980,社子,2026-04-18,25.109508,121.469681,1.1777213e-06
C0V800,六龜,2026-04-18,22.997889,120.633583,0.9923067
C1G9D0,國一S218K,2026-04-18,23.890641,120.493253,1.3581959e-07
C0E570,白沙屯,2026-04-18,24.549447,120.696803,1.6787396e-08
C2F9A0,中竹林,2026-04-18,24.103556,120.751061,2.9462067e-08
C0FA40,臺中電廠,2026-04-18,24.2146,120.4907,3.5013682e-07
C2G9A0,畜試所彰化,2026-04-18,23.86045,120.557964,8.575701e-07
C0H9C0,合歡山,2026-04-18,24.143442,121.272547,1.1632859e-08
G2M350,農試溪口農場,2026-04-18,23.58565,120.408111,6.160576e-05
C0U860,頭城,2026-04-18,24.85323,121.8308,1.4774241e-06
C0R580,南州,2026-04-18,22.48591,120.50274,0.9999411
C0G780,秀水,2026-04-18,24.03405,120.503869,1.6909343e-07
72N100,臺南農改場,2026-04-18,23.0605,120.342194,0.8271195
C0S900,蘭嶼高中,2026-04-18,22.04909,121.51214,1.3314437e-05
C2TA60,六十石,2026-04-18,23.22477,121.31861,1.0382017e-09
C1F9W0,德基,2026-04-18,24.254783,121.190261,2.116522e-09
C2M980,安和,2026-04-18,23.51377,120.31593,1.7506619e-07
C1Z120,壽豐,2026-04-18,23.870853,121.508081,0.0008099164
C0W160,烏坵,2026-04-18,24.9944,119.44956,4.761659e-08
C1I550,國六W023K,2026-04-18,23.979067,120.867742,3.361056e-08
C0R870,興海,2026-04-18,21.9752,120.8439,0.9997105
C0R140,瑪家,2026-04-18,22.682903,120.686639,0.0024963976
C0A530,坪林,2026-04-18,24.938183,121.70975,3.677208e-09
C0X260,後壁,2026-04-18,23.366358,120.362326,7.585838e-06
C0Z230,和平,2026-04-18,24.30717,121.77007,0.18924056
C0G770,福興,2026-04-18,24.041289,120.437669,1.2527546e-07
C0H9A0,神木村,2026-04-18,23.532742,120.843667,1.5498663e-09
C0I460,南投,2026-04-18,23.911469,120.687331,3.2677823e-07
C0I480,梅峰,2026-04-18,24.085272,121.173572,2.0114572e-09
C2D770,巨埔,2026-04-18,24.84435,121.11442,1.0590647e-08
C2A560,福山,2026-04-18,24.776203,121.502811,1.3978961e-08
C0AH30,五分山,2026-04-18,25.07125,121.780794,3.116434e-09
C0FA10,松柏,2026-04-18,24.429115,120.617482,1.6901968e-08
72S200,東改班鳩分場,2026-04-18,22.829528,121.077694,1.4431636e-07
72HA00,中改埔里分場,2026-04-18,23.903208,120.963364,4.952218e-09
C2H9W0,大坪頂農水,2026-04-18,24.043122,120.932781,3.5534764e-09
C0C650,平鎮,2026-04-18,24.897503,121.214636,5.2148557e-09
C0S930,延平,2026-04-18,22.902581,121.084058,9.9127604e-08
C0UA60,樟樹山,2026-04-18,24.41393,121.78325,7.730879e-09
C2UC10,出水溪,2026-04-18,24.615822,121.652253,4.7620747e-09
C1S670,摩天,2026-04-18,23.199503,121.027,1.0858824e-09
C2C590,觀音,2026-04-18,25.027072,121.153317,7.572462e-09
C0V630,茄萣,2026-04-18,22.906642,120.182608,6.920895e-07
466940,基隆,2026-04-18,25.133314,121.740475,1.6220727e-07
C0X050,東河,2026-04-18,23.296598,120.385608,0.036343295
C0R770,保力,2026-04-18,22.071122,120.764111,0.9975644
G2L020,農試嘉義分所,2026-04-18,23.485028,120.473806,0.8248696
C0X240,關子嶺,2026-04-18,23.331169,120.508025,2.2577274e-07
C0I380,集集,2026-04-18,23.828206,120.801467,3.8883254e-08
466990,花蓮,2026-04-18,23.975128,121.613275,0.00019453955
C1V220,小關山,2026-04-18,23.154217,120.813603,2.1168611e-09
C1F9G1,慶福山,2026-04-18,24.180853,120.848378,4.680901e-09
C0FB20,雪山橋,2026-04-18,24.23192,120.9786,1.6797764e-09
C0Z250,瑞穗林道,2026-04-18,23.49284,121.30688,1.1023242e-09
C0D590,新豐,2026-04-18,24.87068,120.97721,6.174513e-09
C2N200,口宵里,2026-04-18,23.15987,120.45988,4.308068e-06
C0A870,五指山,2026-04-18,25.132153,121.608692,2.000614e-09
C0UA50,西帽山,2026-04-18,24.555361,121.802628,3.5521686e-09
C2R980,竹田國中,2026-04-18,22.61532,120.52412,0.99993694
C0X160,仁德,2026-04-18,22.968258,120.257689,3.7458872e-07
C1H971,六分寮,2026-04-18,23.92507,120.6378,8.874153e-09
C2D790,石鹿,2026-04-18,24.56551,121.15841,7.9352774e-10
C0W120,西嶼,2026-04-18,23.5626,119.468436,0.7544933
C0G650,員林,2026-04-18,23.946503,120.585597,1.0376064e-06
C0AD50,鶯歌,2026-04-18,24.951533,121.346294,9.5775505e-08
C2H9Q0,北東眼山,2026-04-18,24.120939,121.189303,2.1118807e-09
C2H9T0,名間竹圍,2026-04-18,23.859914,120.637572,2.934379e-08
C0S990,山豬窟,2026-04-18,22.318619,120.857372,3.0621093e-06
C0X190,安平,2026-04-18,22.993161,120.152181,1.2737392e-07
C0K400,斗六,2026-04-18,23.720583,120.541127,0.00044906538
12J990,口湖工作站,2026-04-18,23.589978,120.180394,3.0955825e-08
C0O830,北寮,2026-04-18,23.079561,120.495008,0.00011170719
C1D410,白蘭,2026-04-18,24.579364,121.079947,3.2551672e-09
C0S970,加津林,2026-04-18,22.416211,120.926942,0.006651669
C0D700,關西,2026-04-18,24.7977,121.1732,6.7695154e-08
C0U750,龜山島,2026-04-18,24.841667,121.953133,1.8086325e-08
C0R810,內獅,2026-04-18,22.305064,120.642986,0.9975173
C2EA10,拉庫斯,2026-04-18,24.53637,121.02137,3.9489985e-09
C1M390,龍美,2026-04-18,23.406728,120.654417,1.2021135e-09
C2K290,崙內,2026-04-18,23.69525,120.35601,1.215713e-07
C2FB60,頭櫃山,2026-04-18,24.129842,120.858925,1.3177878e-09
C1H840,國三N238K,2026-04-18,23.841008,120.707711,8.53782e-09
CAQ030,崎峰國小,2026-04-18,22.42565,120.49521,0.9999411
C2E520,大湖,2026-04-18,24.414939,120.870872,1.2010734e-06
467530,阿里山,2026-04-18,23.508208,120.813242,4.5620667e-09
C1E691,南湖,2026-04-18,24.40135,120.837533,7.9865465e-08
C0FA30,梧棲,2026-04-18,24.256003,120.523381,1.3071512e-07
C1V231,高中,2026-04-18,23.134911,120.716711,1.9941629e-06
C0AK30,硬漢嶺,2026-04-18,25.136097,121.426372,1.6697144e-09
C0F9V0,新社,2026-04-18,24.200172,120.815806,4.234581e-06
C0H890,埔里,2026-04-18,23.972169,120.952425,9.705745e-08
C0R690,墾丁,2026-04-18,21.966756,120.810269,0.9947792
C0SD20,富山,2026-04-18,22.822383,121.190825,0.00012716073
C0F0D0,審馬陣,2026-04-18,24.381675,121.4203,5.0102207e-09
C2W030,金門農試所,2026-04-18,24.448431,118.451786,2.0319572e-08
C0R820,白鷺,2026-04-18,22.454275,120.666219,5.7517764e-06
C0FB00,大雪山,2026-04-18,24.254668,121.007374,2.1661768e-09
C2O880,南化,2026-04-18,23.17332,120.59413,0.00049524487
C1V190,南天池,2026-04-18,23.27403,120.91176,3.2052263e-09
C0E940,雪見,2026-04-18,24.42595,121.01347,3.216777e-09
K2E360,苗栗農改場,2026-04-18,24.495722,120.829111,4.830698e-08
CAJ050,海口故事園區,2026-04-18,23.57543,120.14121,3.0955825e-08
C2K280,四湖,2026-04-18,23.6304,120.22717,5.7337296e-08
C2H9D0,三隻寮,2026-04-18,24.093078,120.861578,1.1146355e-09
C0O990,媽廟,2026-04-18,22.99175,120.293525,3.6816804e-05
C0Z220,和平林道,2026-04-18,24.343922,121.656317,3.8988097e-09
C0TA10,花蓮漁港,2026-04-18,23.995322,121.638331,0.012820182
72C440,桃園農改場,2026-04-18,24.950944,121.030583,2.3523001e-09
C1E711,馬拉邦山,2026-04-18,24.367306,120.901656,1.0531489e-07
C0SB20,富岡,2026-04-18,22.792467,121.192669,6.779475e-05
C0D560,竹東,2026-04-18,24.767147,121.057881,2.0275706e-08
C0F9U0,南屯,2026-04-18,24.137006,120.637969,3.5099066e-07
C2SD60,明峰,2026-04-18,22.8671,121.11825,1.5537971e-07
C0M720,番路,2026-04-18,23.464657,120.554156,0.003028388
C0F0A0,雪山圈谷,2026-04-18,24.388594,121.236339,1.043487e-08
C1A9N0,四十份,2026-04-18,24.934158,121.593283,2.3987226e-09
C0U760,東澳,2026-04-18,24.52196,121.83318,2.3328812e-07
C0X230,鹽水,2026-04-18,23.272621,120.247641,2.48004e-07
C2H9H0,苗改南投蜂場,2026-04-18,23.852589,120.693481,2.0032417e-06
C2TB70,達谷寮,2026-04-18,23.38,121.35968,0.00069824007
C0R950,萬隆國小,2026-04-18,22.507667,120.587817,0.9998917
467540,大武,2026-04-18,22.35572,120.90374,0.12098295
C0V370,古亭坑,2026-04-18,22.893178,120.401947,0.1322968
C1I340,新興橋,2026-04-18,23.563333,120.868728,3.8649732e-09
C2C480,桃園,2026-04-18,24.992425,121.323172,6.9515194e-09
C0SA80,土坂,2026-04-18,22.453108,120.887572,8.289719e-06
C0R160,鹽埔,2026-04-18,22.739558,120.530778,0.9998045
C0AC40,大屯山,2026-04-18,25.175675,121.522408,1.5739879e-09
466850,五分山雷達站,2026-04-18,25.071182,121.781205,3.065667e-09
C2H9L0,馬烈霸,2026-04-18,24.1512,121.201772,2.3224573e-09
C1AI50,國三N016K,2026-04-18,25.034164,121.619664,7.195107e-09
C2V920,匏子寮,2026-04-18,23.04905,120.55319,1.3740104e-05
C1V600,藤枝,2026-04-18,23.071961,120.757042,8.5274205e-09
C1E601,南勢,2026-04-18,24.572486,120.734842,1.6886757e-08
C0O980,新市,2026-04-18,23.061614,120.298197,0.84513515
C0K420,西螺,2026-04-18,23.800407,120.467394,3.4793126e-07
C0Z050,佳心,2026-04-18,23.34567,121.21316,1.5759737e-09
C0AD30,蘆洲,2026-04-18,25.086594,121.472331,1.2428555e-06
C0V610,梓官,2026-04-18,22.760558,120.267211,0.0013607487
K2F750,種苗改良場,2026-04-18,24.225972,120.800917,6.748386e-06
C0UA80,大溪漁港,2026-04-18,24.941801,121.902955,2.5116657e-07
C1AI60,國一39K邊坡,2026-04-18,25.064361,121.383836,2.7683175e-08
C0W150,金寧,2026-04-18,24.457703,118.328989,2.2452538e-08
C0R960,內埔,2026-04-18,22.608483,120.570714,0.9999377
C2H9S0,龍南,2026-04-18,23.953536,120.833183,6.4222627e-10
C0AH40,平等,2026-04-18,25.129142,121.577086,5.267599e-09
C0R540,佳冬,2026-04-18,22.419456,120.552375,0.9999458
466950,彭佳嶼,2026-04-18,25.627975,122.079744,1.6753366e-06
C0A890,雙溪,2026-04-18,25.036003,121.864242,7.3431394e-08
C0AH50,林口,2026-04-18,25.072181,121.38084,9.965801e-09
A2K360,水試臺西試驗場,2026-04-18,23.717231,120.190522,3.6140047e-08
C2M960,外寮,2026-04-18,23.562643,120.665688,2.5150482e-09
C0F9S0,烏日,2026-04-18,24.107058,120.624103,9.0959745e-08
C2N180,鹿陶洋,2026-04-18,23.14325,120.48352,0.012439088
C0C490,八德,2026-04-18,24.928708,121.283289,4.893403e-09
C0R190,赤山,2026-04-18,22.592333,120.614306,0.99994403
C0T820,天祥,2026-04-18,24.179597,121.495639,1.7422459e-09
C1F9E1,龍安,2026-04-18,24.1605,120.831961,2.0763578e-06
C2SD50,順那,2026-04-18,23.04166,121.29332,0.021187041
C0V820,小林,2026-04-18,23.148408,120.63325,2.9118187e-06
C2G870,芳苑,2026-04-18,23.922303,120.320025,2.3725011e-08
C0E850,大河,2026-04-18,24.618069,120.948578,1.719199e-08
C1U670,寒溪,2026-04-18,24.634,121.71691,8.254765e-07
C0N020,城西,2026-04-18,23.0568,120.0956,1.6497344e-05
C1Z110,三棧,2026-04-18,24.11557,121.60501,1.1901135e-09
C0R280,檳榔,2026-04-18,22.076078,120.836777,0.00035759326
C2H9J0,中台,2026-04-18,23.9996,120.938739,5.930817e-09
C0F9L0,后里,2026-04-18,24.310436,120.729725,3.9879007e-05
467441,高雄,2026-04-18,22.730432,120.312516,0.0029841424
C2N210,岩坑,2026-04-18,23.24614,120.47458,0.00011219109
C0Z180,新城,2026-04-18,24.040486,121.604878,0.00016610054
C0D540,橫山,2026-04-18,24.71116,121.11693,1.0679941e-08
C1D420,太閣南,2026-04-18,24.632808,121.160575,6.315656e-10
C1E770,公館,2026-04-18,24.526914,120.830806,2.268265e-08
CAN130,水試所海水繁養殖中心,2026-04-18,23.120802,120.07968,2.3046454e-05
C1I430,翠華,2026-04-18,24.191961,121.224339,3.9420676e-09
C1M400,菜瓜坪,2026-04-18,23.251928,120.576103,9.1569525e-08
C0G730,二林,2026-04-18,23.903325,120.376081,2.9767708e-08
72M360,南改義竹分場,2026-04-18,23.360694,120.279361,1.3398771e-07
V2K620,麥寮合作社,2026-04-18,23.753836,120.294783,1.2571529e-07
C0Z070,舞鶴,2026-04-18,23.46811,121.37407,0.0070549273
C0B040,大武崙,2026-04-18,25.166676,121.706993,2.0709829e-08
C1Z030,紅葉,2026-04-18,23.493119,121.338806,0.04468864
C1I050,丹大,2026-04-18,23.753747,121.141147,2.4068343e-09
467290,古坑,2026-04-18,23.380729,120.336861,3.7468271e-06
C0I080,信義,2026-04-18,23.689694,120.851036,1.0700489e-09
C2TB80,庄子底,2026-04-18,23.71794,121.49438,8.188205e-06
C0D750,樂山林道6k,2026-04-18,24.49999,121.08773,1.8930595e-09
C2M920,朴子農改,2026-04-18,23.469889,120.259383,1.3842141e-07
C2A880,福隆,2026-04-18,25.017842,121.942083,4.1490014e-07
C0Z160,鳳林,2026-04-18,23.746114,121.453411,4.6969217e-06
C0UB80,翠峰林道6K,2026-04-18,24.49773,121.568625,1.5447724e-09
C0V210,復興,2026-04-18,23.222403,120.806089,2.478995e-07
C0H990,昆陽,2026-04-18,24.121322,121.273642,6.8755135e-09
C0R741,獅子,2026-04-18,22.202308,120.705236,0.997889
C0S710,鹿野,2026-04-18,22.917711,121.122994,2.3292058e-08
C0I530,小奇萊,2026-04-18,24.131764,121.295717,8.647743e-09
C0FA70,大雪山埡口,2026-04-18,24.26867,121.03062,4.9367235e-09
C2K630,荷苞,2026-04-18,23.657717,120.595144,0.00013910171
C0Z080,富源,2026-04-18,23.587642,121.378225,3.6771578e-07
C2M9E0,旺來山,2026-04-18,23.555153,120.486463,0.24695815
C0SB10,美和,2026-04-18,22.682078,121.060236,0.13122964
C2K620,馬光農場,2026-04-18,23.721453,120.378864,3.0088145e-07
C1I140,卡奈托灣,2026-04-18,23.754364,121.087872,7.2116874e-10
C0I520,玉山風口,2026-04-18,23.470489,120.955994,2.1492303e-08
C1G691,下水埔,2026-04-18,23.816114,120.5676,2.1646618e-05
C0X110,臺南市南區,2026-04-18,22.961189,120.188378,3.474289e-07
C0V680,仁武,2026-04-18,22.701083,120.347722,0.0029841424
C2G840,北斗,2026-04-18,23.877586,120.514222,1.3298242e-07
C2TB90,長橋,2026-04-18,23.6874,121.46186,3.1218192e-06
C0R900,竹坑,2026-04-18,22.1385,120.7022,0.9940547
C0G860,社頭,2026-04-18,23.897647,120.5862,2.0117861e-06
C0X150,安定,2026-04-18,23.102614,120.227839,2.3797586e-05
C0R590,里港,2026-04-18,22.77919,120.49459,0.28222325
C0E610,馬都安,2026-04-18,24.451272,120.930192,1.9374395e-06
C0E550,明德,2026-04-18,24.583486,120.885411,4.02893e-06
C0R150,三地門,2026-04-18,22.709889,120.639944,0.9999146
C0G910,花壇,2026-04-18,24.032076,120.549461,1.7002046e-07
C1D400,鳥嘴山,2026-04-18,24.71909,121.28387,8.3141644e-10
C0K500,元長,2026-04-18,23.64981,120.315024,1.919902e-07
C0F0B0,石岡,2026-04-18,24.276061,120.777644,2.7309614e-05
C2V250,甲仙,2026-04-18,23.080106,120.591758,0.0002847595
C0SA20,金崙山,2026-04-18,22.567419,120.959667,1.5013198e-09
C0V350,溪埔,2026-04-18,22.738578,120.446797,0.6965525
C0M660,溪口,2026-04-18,23.604131,120.403569,6.160576e-05
C1S880,壽卡,2026-04-18,22.238911,120.858903,1.9139223e-07
72D680,桃改新埔分場,2026-04-18,24.834444,121.066111,2.1746964e-09
