站號,站名,日期,lat,lon,BlastGRU-TW
C0R710,龍磐,2026-04-08,21.931672,120.838942,0.31762144
C1F9D1,白毛台,2026-04-08,24.158325,120.886933,0.03191231
C0G940,竹塘,2026-04-08,23.848253,120.386764,0.8510857
467590,恆春,2026-04-08,22.003897,120.746339,0.37118602
C0U710,太平山,2026-04-08,24.505486,121.525656,0.001112281
C0E820,獅潭,2026-04-08,24.539133,120.920042,0.58798337
C2SD70,二層坪,2026-04-08,22.94105,121.16838,0.13096866
C0V880,興達,2026-04-08,22.8778,120.2127,0.8795559
C0SB30,新蘭,2026-04-08,22.869214,121.223228,0.72428495
C2R970,屏科大,2026-04-08,22.648275,120.619247,0.7248215
C1Z130,銅門,2026-04-08,23.965694,121.492842,0.31756765
C0AD40,土城,2026-04-08,24.973208,121.445169,0.050529987
CAN140,六官養殖協會,2026-04-08,23.22881,120.29962,0.9197777
C0X180,山上,2026-04-08,23.0757,120.363253,0.87302804
C0F9Z0,雪山東峰,2026-04-08,24.388792,121.268675,0.0011908789
C1M480,獨立山,2026-04-08,23.537022,120.607797,0.03505575
C0X220,學甲,2026-04-08,23.230367,120.182187,0.9073489
467650,日月潭,2026-04-08,23.881325,120.90805,0.005858694
A2K570,古坑(花卉中心),2026-04-08,23.633531,120.552392,0.7206263
C0K600,箔子寮,2026-04-08,23.6197,120.14,0.92930144
C0G830,埤頭,2026-04-08,23.866003,120.452806,0.89632636
C0S950,七塊厝,2026-04-08,22.954453,121.229922,0.026566131
467110,金門,2026-04-08,24.407306,118.289281,0.0012313173
C0AH80,深坑,2026-04-08,25.002703,121.628328,0.52512395
C0A970,三貂角,2026-04-08,25.007606,122.002058,0.38360453
C2D730,寶山農場,2026-04-08,24.732444,120.976153,0.22698513
C0K430,褒忠,2026-04-08,23.690938,120.303634,0.87564886
467480,嘉義,2026-04-08,23.495925,120.432906,0.8703853
C0V400,阿公店,2026-04-08,22.804194,120.355528,0.8036791
C0E960,觀霧分站,2026-04-08,24.505781,121.113921,0.0030371768
467550,玉山,2026-04-08,23.48718,120.95943,0.0008699039
C0R440,大漢山,2026-04-08,22.405264,120.753181,0.008277835
C0SD30,東清國小,2026-04-08,22.057128,121.564922,0.443619
C1F9B1,桐林,2026-04-08,24.066172,120.735194,0.88749254
C2H9U0,鳳鵬,2026-04-08,23.763919,120.788061,0.45230076
C0K390,土庫,2026-04-08,23.679029,120.395574,0.90938526
C1I450,望鄉山,2026-04-08,23.594153,120.944286,0.0012125492
C0E910,海埔,2026-04-08,24.648767,120.772435,0.88452876
B2E890,畜試北區分所,2026-04-08,24.527806,120.770972,0.78347045
C0R750,四林格山,2026-04-08,22.076989,120.802439,0.38316524
C0F0C0,中坑,2026-04-08,24.248517,120.903319,0.013686136
C1I121,大鞍,2026-04-08,23.678381,120.760017,0.0034594724
C2G9E0,移民庄,2026-04-08,23.9784,120.40283,0.7879785
72U480,花改蘭陽分場,2026-04-08,24.686306,121.716583,0.07908094
C0A770,科教館,2026-04-08,25.096356,121.516507,0.048876483
C0AJ60,六塊厝,2026-04-08,25.24,121.4481,0.2928319
C0R620,墾雷,2026-04-08,21.900836,120.855269,0.3758119
467420,永康,2026-04-08,23.038386,120.2367,0.88859963
C2M530,奮起湖,2026-04-08,23.493903,120.699253,0.008064474
C0I410,名間,2026-04-08,23.837053,120.701447,0.8400802
A2C560,農工中心,2026-04-08,24.985917,121.239833,0.11160114
C0V740,旗山,2026-04-08,22.888614,120.483597,0.86696625
C0Z061,玉里,2026-04-08,23.3215,121.339656,0.77382857
C0S840,南田,2026-04-08,22.279725,120.889208,0.8556985
C1I470,杉林溪,2026-04-08,23.639517,120.786444,0.002224495
C1X040,東原,2026-04-08,23.291597,120.463822,0.6015456
C0R660,枋寮,2026-04-08,22.367722,120.590647,0.7222304
C1R120,上德文,2026-04-08,22.763272,120.704442,0.31683844
C0K450,大埤,2026-04-08,23.646074,120.431537,0.9230988
C0UA00,土場,2026-04-08,24.576533,121.495333,0.43645796
467080,宜蘭,2026-04-08,24.763975,121.756528,0.040566277
C0N030,四草,2026-04-08,23.0235,120.1116,0.9003525
467410,臺南,2026-04-08,22.99328,120.20492,0.8889091
C0V650,彌陀,2026-04-08,22.783806,120.246361,0.81846863
C0D660,新竹市東區,2026-04-08,24.798681,120.986942,0.70422715
82S580,茶改東部分場,2026-04-08,22.907694,121.130139,0.30596644
C0SB40,興隆,2026-04-08,22.913661,121.257469,0.82854503
467050,新屋,2026-04-08,25.006725,121.047492,0.49635494
C0C710,大溪永福,2026-04-08,24.892936,121.324975,0.06705521
C0FA20,溫寮,2026-04-08,24.372177,120.583125,0.57054156
C0V640,湖內,2026-04-08,22.887139,120.2445,0.8763767
C0R910,下寮,2026-04-08,22.3929,120.5548,0.7893109
C0Z020,明里,2026-04-08,23.208717,121.262342,0.77279305
C0M770,嘉義梅山,2026-04-08,23.585398,120.555587,0.52684593
C0C660,楊梅,2026-04-08,24.912375,121.143047,0.26517007
C0SD40,牛頭山,2026-04-08,22.676661,121.506944,0.77138776
C1E511,新開,2026-04-08,24.347703,120.827019,0.065052375
G2F820,農試所(霧峰),2026-04-08,24.031261,120.688133,0.92140067
C2M990,大巃頂,2026-04-08,23.5547,120.61439,0.048475996
C1I070,和社,2026-04-08,23.591131,120.888861,0.060011003
C2E990,新坪頂,2026-04-08,24.30201,120.8574,0.01085776
C0TA80,立霧山,2026-04-08,24.183258,121.641899,0.008420425
C2F000,大肚,2026-04-08,24.15295,120.572117,0.14003004
C1S850,豐南,2026-04-08,23.122139,121.262389,0.048767425
C2M9B0,西興,2026-04-08,23.2428,120.57617,0.4634068
C2A920,富貴角,2026-04-08,25.263783,121.565258,0.057833962
C0T960,光復,2026-04-08,23.660694,121.424964,0.25010246
C0F9M0,豐原,2026-04-08,24.254322,120.720692,0.20325033
C0R720,旭海,2026-04-08,22.205403,120.887614,0.80213606
C0V710,苓雅,2026-04-08,22.622742,120.330669,0.88219666
C0C740,觀音工業區,2026-04-08,25.064764,121.114856,0.101054564
CAC040,拉拉山,2026-04-08,24.699317,121.427133,0.0013431535
C0V790,萬山,2026-04-08,22.905944,120.688056,0.84927505
U2HA30,臺大和社,2026-04-08,23.590856,120.888864,0.060010985
C2H9K0,屯原,2026-04-08,24.067969,121.209389,0.0019895895
C0AJ90,澳底,2026-04-08,25.0552,121.9253,0.8932944
C0Z100,東華,2026-04-08,23.89525,121.549833,0.3222215
C0G970,三豐,2026-04-08,23.882,120.2895,0.70597744
C0V900,汕尾,2026-04-08,22.4782,120.4151,0.7602175
C1R630,龍泉,2026-04-08,22.66701,120.59091,0.7836289
C1AC50,關渡,2026-04-08,25.133486,121.469331,0.079791375
C0C800,四稜,2026-04-08,24.64733,121.4293,0.006134556
C0F9I0,神岡,2026-04-08,24.272481,120.658314,0.41688272
C0K460,斗南,2026-04-08,23.678734,120.478359,0.9211322
C2O810,曾文,2026-04-08,23.219681,120.497328,0.7521994
467280,後龍,2026-04-08,24.648563,120.831834,0.8396918
C1F9J1,清水林,2026-04-08,24.071242,120.820419,0.017998347
C2A650,火燒寮,2026-04-08,25.002719,121.742892,0.19336028
466930,竹子湖,2026-04-08,25.162078,121.544547,0.0038215853
C1I220,樟湖,2026-04-08,23.905333,120.846983,0.003071336
C0I390,仁愛,2026-04-08,24.022122,121.132206,0.0058972435
C0Z300,東里,2026-04-08,23.26853,121.30547,0.7247107
C1V590,新發,2026-04-08,23.057019,120.646064,0.02929198
C0K510,水林,2026-04-08,23.572924,120.24597,0.9204195
72S590,東改賓朗果園,2026-04-08,22.813889,121.071278,0.16596833
82A750,茶改北部分場,2026-04-08,24.955778,121.631222,0.047183685
C1A750,石碇服務區,2026-04-08,25.00872,121.646242,0.46337578
C0X300,鹿寮,2026-04-08,23.386047,120.477331,0.68707526
C0K590,雲林東勢,2026-04-08,23.674192,120.255721,0.88864666
C2K310,港尾布雞,2026-04-08,23.74834,120.38439,0.90249044
C0A570,桶後,2026-04-08,24.848222,121.597992,0.47180012
C0G720,溪州,2026-04-08,23.851589,120.499093,0.89358926
C1V160,達卡努瓦,2026-04-08,23.279811,120.705319,0.0059585744
C2M410,馬頭山,2026-04-08,23.324361,120.582017,0.5222436
C0V850,蚵仔寮,2026-04-08,22.7256,120.2527,0.81790864
C0S740,池上,2026-04-08,23.119628,121.209469,0.1787447
C1V390,尖山,2026-04-08,22.813153,120.367789,0.77900827
C0AH70,松山,2026-04-08,25.04871,121.55042,0.047523543
C0N010,鯤鯓國小,2026-04-08,23.1879,120.0889,0.90067875
C0SA60,知本（水試所）,2026-04-08,22.702394,121.082761,0.62070847
C0T9I0,豐濱,2026-04-08,23.583897,121.514806,0.22047862
C0UB00,淡江大學蘭陽校園,2026-04-08,24.823239,121.730383,0.018606754
C0W240,九宮,2026-04-08,24.423753,118.240186,0.0010748093
C0T9N0,富里,2026-04-08,23.171639,121.249378,0.69817525
U2HA50,臺大竹山,2026-04-08,23.756972,120.681556,0.8129098
C0V840,鳳鼻頭,2026-04-08,22.5083,120.3591,0.7540034
C0X140,西港,2026-04-08,23.125608,120.203108,0.9097251
72D080,桃改五峰分場,2026-04-08,24.612194,121.157167,0.0065229475
C2H9P0,伊拿谷,2026-04-08,23.963211,121.088264,0.004989201
C2K250,崙背,2026-04-08,23.75553,120.31893,0.87227154
C2H9F0,柑林,2026-04-08,24.018658,120.847072,0.32267937
C0TA20,加灣,2026-04-08,24.082025,121.608944,0.82389766
C0V530,阿蓮,2026-04-08,22.883208,120.327508,0.8568986
C0FB30,八仙山苗圃,2026-04-08,24.192719,121.001366,0.017646885
C0E791,卓蘭,2026-04-08,24.3126,120.8244,0.052709486
C1I030,武界,2026-04-08,23.913225,121.052483,0.004508707
C0R520,崁頂,2026-04-08,22.514781,120.506914,0.6447564
C0R341,牡丹,2026-04-08,22.130036,120.792639,0.77290887
C0R930,萬丹,2026-04-08,22.5885,120.4851,0.7888719
C0S760,紅石,2026-04-08,23.069131,121.126219,0.0030234708
C2C410,中央大學,2026-04-08,24.967652,121.185165,0.105916336
C1M610,石磐龍,2026-04-08,23.496606,120.663506,0.01390742
C0C790,東眼山,2026-04-08,24.8284,121.40888,0.0077573094
C0UA10,鴛鴦湖,2026-04-08,24.590269,121.412228,0.002106961
C0R800,丹路,2026-04-08,22.204481,120.750989,0.8219941
C0G920,永靖,2026-04-08,23.924703,120.547533,0.85017407
C2M950,太和,2026-04-08,23.538372,120.702961,0.008220976
C1A630,下盆,2026-04-08,24.771003,121.538622,0.06687277
B2N890,畜產試驗所,2026-04-08,23.058972,120.336406,0.90157807
C0UA30,白嶺,2026-04-08,24.527819,121.519031,0.003470422
467571,新竹,2026-04-08,24.828575,121.01455,0.4598093
C1V580,溪南(特生中心),2026-04-08,23.084972,120.788475,0.014733984
C1T970,大農,2026-04-08,23.615233,121.413331,0.16818288
C0R650,竹田,2026-04-08,22.58486,120.54344,0.6673982
C1H900,清流,2026-04-08,24.080775,120.962997,0.046642438
C1C510,水尾,2026-04-08,24.940081,121.087161,0.3827864
C2N170,茅港尾,2026-04-08,23.2061,120.2624,0.9197777
C0F9X0,大雅(中科園區),2026-04-08,24.21528,120.62445,0.4214725
C0SB60,白守蓮,2026-04-08,23.126769,121.401914,0.94681585
C0O970,虎頭埤,2026-04-08,23.021375,120.347878,0.8741352
C0C730,中大臨海站,2026-04-08,24.966126,121.008581,0.8339965
C0X250,新營,2026-04-08,23.310689,120.316681,0.9129795
C0V700,三民,2026-04-08,22.645017,120.311233,0.8286354
C0U870,大礁溪,2026-04-08,24.791042,121.675047,0.010747368
C0E870,高鐵苗栗,2026-04-08,24.60725,120.826094,0.8461984
C0TA30,鹽寮,2026-04-08,23.845606,121.592664,0.38561273
C0M860,新美,2026-04-08,23.338017,120.683169,0.123914205
C1E701,八卦,2026-04-08,24.491756,120.927619,0.027922848
C2TA90,加納納,2026-04-08,23.466421,121.359867,0.09587929
C0I420,國姓,2026-04-08,24.037803,120.855072,0.26458701
C2D720,關西工作站,2026-04-08,24.757275,121.184792,0.20776255
C0S960,香蘭,2026-04-08,22.587569,120.993375,0.82930875
467620,蘭嶼,2026-04-08,22.0369,121.55843,0.16080597
72G600,臺中農改場,2026-04-08,24.003028,120.534389,0.85893875
C0Z210,瑞穗,2026-04-08,23.5239,121.39021,0.23259841
C0M820,達邦,2026-04-08,23.453994,120.749517,0.012651339
C0V860,南寮,2026-04-08,22.7616,120.2339,0.81790864
C0G740,大城,2026-04-08,23.852487,120.320935,0.6915687
C0R920,塭仔,2026-04-08,22.4169,120.5197,0.7957911
C0R470,高樹,2026-04-08,22.826389,120.600806,0.87500566
C0R680,佳樂水,2026-04-08,21.993578,120.861633,0.41736594
C1O870,大棟山,2026-04-08,23.31157,120.52226,0.02999476
C0D360,梅花,2026-04-08,24.678347,121.208558,0.015940202
C0Z190,富世,2026-04-08,24.14743,121.6297,0.7390227
C0AI10,屈尺,2026-04-08,24.92184,121.54475,0.043878056
B2U990,畜試東區分所,2026-04-08,24.669039,121.832561,0.14651544
C0SB80,長濱漁港,2026-04-08,23.313644,121.459994,0.5381997
C0TA50,和仁,2026-04-08,24.241394,121.712472,0.14216228
C0V910,大樹,2026-04-08,22.684645,120.432803,0.7994459
C1R610,西大武山,2026-04-08,22.617719,120.7322,0.017517714
C0G900,線西,2026-04-08,24.143358,120.443536,0.8061633
C0M700,竹崎,2026-04-08,23.526178,120.555508,0.6087342
C2E880,三義,2026-04-08,24.405478,120.749819,0.091420926
C0C720,竹圍,2026-04-08,25.112692,121.239824,0.14415252
C0F9P0,清水,2026-04-08,24.312297,120.562242,0.6315192
C0Z150,吉安光華,2026-04-08,23.930925,121.595153,0.3981639
C0FA80,小雪山天池,2026-04-08,24.28025,121.02627,0.0014388703
467300,東吉島,2026-04-08,23.25727,119.66762,0.633679
C1D640,外坪(五指山),2026-04-08,24.644447,121.090961,0.032941237
C2R9A0,高士國小,2026-04-08,22.12553,120.84653,0.8098206
C0F9O0,潭子,2026-04-08,24.213106,120.703933,0.24179716
C2H9R0,卓社,2026-04-08,23.887894,121.000086,0.0038766726
72T250,花蓮農改場,2026-04-08,23.975222,121.563889,0.3279639
C0E780,銅鑼,2026-04-08,24.489681,120.790853,0.66660976
C1T950,太安,2026-04-08,23.666719,121.370128,0.103986055
C0E830,苑裡,2026-04-08,24.439714,120.653053,0.8350988
467270,田中,2026-04-08,23.873803,120.581286,0.9330498
C0SA10,檳榔四格山,2026-04-08,22.810031,121.109308,0.07496131
C1T830,布洛灣,2026-04-08,24.17184,121.57127,0.7129826
C0F970,大坑,2026-04-08,24.173142,120.722289,0.6203304
C1U920,思源,2026-04-08,24.393125,121.347214,0.0046145394
C2H9Y0,松茗,2026-04-08,23.8167,120.650765,0.28261578
C0A931,三和,2026-04-08,25.233153,121.595236,0.07175642
C0I010,廬山,2026-04-08,24.033311,121.181808,0.0018326107
C2M940,日野賀,2026-04-08,23.434056,120.727169,0.006392363
C0R860,鼻頭,2026-04-08,22.1043,120.8979,0.5979135
C0UB20,壯圍,2026-04-08,24.7359,121.8163,0.058171827
C0R790,九棚,2026-04-08,22.14195,120.889281,0.5811059
C0W110,東莒,2026-04-08,25.9652,119.98069,0.00038868887
C1U930,粉鳥林,2026-04-08,24.497088,121.842479,0.9645247
C0S830,長濱,2026-04-08,23.286817,121.411975,0.13273749
C1F9F1,伯公龍,2026-04-08,24.272392,120.849047,0.028264599
C0UB90,太平山莊,2026-04-08,24.494171,121.536209,0.0010707908
C0E810,西湖,2026-04-08,24.562947,120.7485,0.76318413
C1I440,新高口,2026-04-08,23.478744,120.878939,0.001207942
C0O840,王爺宮,2026-04-08,23.222064,120.40085,0.84180814
C0T9G0,鳳林山,2026-04-08,23.735269,121.420131,0.41643655
C0X080,佳里,2026-04-08,23.173039,120.145086,0.8995745
C0FB70,大甲溪埔,2026-04-08,24.370625,120.620067,0.5037023
C0Z310,清水斷崖,2026-04-08,24.218294,121.689142,0.07448989
C0M680,太保,2026-04-08,23.455062,120.331455,0.9386196
C1S820,金峰,2026-04-08,22.590969,120.933236,0.7292458
C0AD10,八里,2026-04-08,25.150211,121.403947,0.17831284
C2K240,草嶺,2026-04-08,23.59555,120.693461,0.025773296
C1SA70,都蘭,2026-04-08,22.87794,121.226881,0.6918505
C0K440,二崙,2026-04-08,23.772797,120.408944,0.8975785
C1A760,坪林交控,2026-04-08,24.94284,121.713442,0.26054898
C0F9N0,大里,2026-04-08,24.092464,120.701378,0.90916646
C0SA90,達仁林場,2026-04-08,22.264347,120.823972,0.5625204
C1R290,石門山,2026-04-08,22.112611,120.756597,0.51139724
42HA10,萬大發電廠,2026-04-08,23.978875,121.139639,0.008646578
C0R890,山海,2026-04-08,21.9878,120.7091,0.39711222
C0T9A0,月眉山,2026-04-08,23.809928,121.539828,0.0032740592
C0AC70,信義,2026-04-08,25.037822,121.564597,0.0614741
C0K560,棋山,2026-04-08,23.68645,120.603417,0.72032
C2FB50,出雲,2026-04-08,24.206469,120.902794,0.006191453
C1Z240,中平林道,2026-04-08,23.42115,121.26763,0.1381064
U2H480,溪頭,2026-04-08,23.670306,120.798194,0.021472614
C0M880,好美里,2026-04-08,23.3364,120.138,0.91502666
C0T9E0,大坑,2026-04-08,23.880628,121.581981,0.027189063
C0K530,臺西,2026-04-08,23.701547,120.197559,0.8807846
C1E900,國一N128K,2026-04-08,24.560997,120.844186,0.86679107
C0AJ50,水湳洞,2026-04-08,25.123695,121.862238,0.8863273
C0AI20,白沙灣,2026-04-08,25.283128,121.519058,0.2615989
C2V310,美濃,2026-04-08,22.898792,120.51907,0.8710772
C0A860,大坪,2026-04-08,25.165914,121.632969,0.04218906
C1U850,觀音海岸,2026-04-08,24.38319,121.77856,0.0037855513
C2K610,草嶺石壁,2026-04-08,23.602469,120.707731,0.024018742
C0U950,鶯子嶺,2026-04-08,24.89754,121.79244,0.0019777853
C0O900,善化,2026-04-08,23.112883,120.297219,0.9090534
C0K550,蔦松,2026-04-08,23.514319,120.229736,0.91386753
E2P980,林試六龜中心,2026-04-08,22.991703,120.645722,0.87977684
C0E590,通霄,2026-04-08,24.471892,120.704622,0.929608
C1I310,西巒,2026-04-08,23.754486,120.883956,0.010015377
C0A550,泰平,2026-04-08,24.971197,121.823711,0.10213758
C0I360,水里,2026-04-08,23.812553,120.849792,0.6238107
C0R830,高士,2026-04-08,22.121825,120.836781,0.47658354
C1I101,溪頭,2026-04-08,23.661789,120.807647,0.0019011555
C0AJ20,野柳,2026-04-08,25.20703,121.690021,0.624062
C0B060,暖暖,2026-04-08,25.0957,121.7403,0.63868284
C1H920,長豐,2026-04-08,24.102039,120.879897,0.028132062
C2S9B0,利吉,2026-04-08,22.86246,121.15486,0.3612509
C0V360,內門,2026-04-08,22.975481,120.466769,0.8447658
C0R850,林邊,2026-04-08,22.4634,120.5339,0.77278185
C0E930,龍鳳,2026-04-08,24.700034,120.859125,0.5606518
C0U910,冬山,2026-04-08,24.63373,121.7937,0.14651544
C1E721,泰安,2026-04-08,24.489017,120.968036,0.004930395
82H320,茶改中部分場,2026-04-08,23.875611,120.913583,0.0137638515
C0M750,布袋,2026-04-08,23.380878,120.167789,0.9112924
C1S860,利嘉,2026-04-08,22.809417,121.050528,0.26820892
E2S980,林試太麻里1,2026-04-08,22.598922,120.980044,0.8317805
C0X170,關廟,2026-04-08,22.963017,120.327797,0.8570688
C0V720,林園,2026-04-08,22.507747,120.394511,0.7432061
C1I510,線浸林道,2026-04-08,23.761508,120.832956,0.0063817594
C0D690,外湖,2026-04-08,24.917735,120.968711,0.64800084
C0C750,新興坑尾,2026-04-08,25.0061,121.0971,0.2731389
B2Q810,畜試南區分所,2026-04-08,21.945583,120.802167,0.41736576
C0S790,金崙,2026-04-08,22.538122,120.966875,0.6363954
C0AH90,福山植物園,2026-04-08,24.760717,121.58135,0.030492717
C0I540,奇萊稜線,2026-04-08,24.109231,121.326456,0.0010710158
C0M850,表湖,2026-04-08,23.24186,120.64166,0.023368584
C0S770,大溪山,2026-04-08,22.478475,120.943325,0.9264553
C0AG80,中和,2026-04-08,24.991622,121.491792,0.050529987
C0T790,大禹嶺,2026-04-08,24.186117,121.316086,0.0012397417
C0T9B0,水源,2026-04-08,23.991861,121.537169,0.0027883083
C0R840,牡丹池山,2026-04-08,22.168389,120.841225,0.46209827
C1I131,桶頭,2026-04-08,23.641944,120.654117,0.5720322
CAL110,布袋國中,2026-04-08,23.35893,120.18026,0.91502666
C2M9D0,何竹子腳,2026-04-08,23.53641,120.38203,0.87741727
C0Z290,赤柯山,2026-04-08,23.36893,121.38293,0.017246883
C0X280,將軍,2026-04-08,23.214999,120.13577,0.9077145
C0S690,太麻里,2026-04-08,22.60902,120.98533,0.17118528
C0U880,北關,2026-04-08,24.9072,121.8734,0.8784634
CAW010,東引,2026-04-08,26.3588,120.4836,0.00037032075
C0G810,埔心,2026-04-08,23.947633,120.525456,0.85485494
C0U970,大福,2026-04-08,24.80064,121.81389,0.042109303
C2H9N0,仁愛東眼,2026-04-08,24.026875,121.1205,0.0037364354
C1E670,南礦,2026-04-08,24.538278,121.002836,0.007838674
C0M520,東後寮,2026-04-08,23.369908,120.248065,0.913107
C1E461,松安,2026-04-08,24.397972,120.986022,0.0023866426
C2N160,西拉雅風管處,2026-04-08,23.189481,120.335297,0.9162523
C2M970,碧湖,2026-04-08,23.568632,120.624165,0.050780255
C0A640,石碇,2026-04-08,24.993969,121.662917,0.26054898
E2S960,林試太麻里2,2026-04-08,22.598,120.99775,0.83393455
C0F9Y0,桃山,2026-04-08,24.432739,121.303808,0.0011864619
C1I020,萬大,2026-04-08,23.979817,121.132261,0.005798437
C2UC20,長嶺,2026-04-08,24.70894,121.61162,0.20196918
C0U940,羅東,2026-04-08,24.68184,121.74934,0.08008469
C0M650,朴子,2026-04-08,23.43463,120.23902,0.92621136
C1I500,大尖山,2026-04-08,23.858572,120.994889,0.0037953607
C0FB40,中橫21.6k,2026-04-08,24.2499,121.1455,0.013998078
C0G820,田尾,2026-04-08,23.901669,120.509389,0.85485494
E2K600,四湖植物園,2026-04-08,23.676986,120.163433,0.9043445
C0S730,綠島,2026-04-08,22.6672,121.47533,0.65455455
12Q970,東港工作站,2026-04-08,22.479997,120.466058,0.7794107
C1TA00,太魯閣,2026-04-08,24.15773,121.6236,0.9418276
466920,臺北,2026-04-08,25.037658,121.514853,0.047523543
C0R600,舊泰武,2026-04-08,22.588194,120.664944,0.27908885
466910,鞍部,2026-04-08,25.182586,121.529731,0.0011136482
C1I230,九份二山,2026-04-08,23.961944,120.845,0.040096305
C2M810,里佳,2026-04-08,23.389125,120.716647,0.0036670414
C2A660,瑞芳,2026-04-08,25.113169,121.801147,0.6724389
C0R270,琉球嶼,2026-04-08,22.332244,120.362236,0.82235575
C2V580,瑞山,2026-04-08,22.90304,120.43424,0.814096
C1T990,高寮,2026-04-08,23.394239,121.356808,0.3353108
C0G620,芬園,2026-04-08,24.015678,120.6213,0.83860105
C1Z140,荖溪,2026-04-08,23.890575,121.45964,0.09146227
C1I201,中心崙,2026-04-08,23.728722,120.712097,0.026136398
C1I400,凌霄,2026-04-08,24.018778,121.004456,0.0035658774
C1M640,十字,2026-04-08,23.492153,120.753683,0.0023903924
G2P820,農試鳳山分所,2026-04-08,22.646611,120.356083,0.876063
C0Z270,蕃薯寮,2026-04-08,23.73835,121.540108,0.030309256
C2E420,竹南,2026-04-08,24.70898,120.88897,0.4907696
C0FB10,出雲山苗圃,2026-04-08,24.23105,120.90475,0.013686136
C0F9Q0,外埔,2026-04-08,24.347817,120.705686,0.53780997
C0K580,高鐵雲林,2026-04-08,23.737456,120.417944,0.90133744
C2I090,鳳凰,2026-04-08,23.728081,120.787347,0.03344394
C0U990,員山,2026-04-08,24.74435,121.72247,0.08127321
C0V770,大社,2026-04-08,22.730306,120.346639,0.8136272
C0X120,麻豆,2026-04-08,23.183289,120.248611,0.9155488
C0C670,龍潭,2026-04-08,24.870056,121.221389,0.48979548
C0D680,香山濕地,2026-04-08,24.783581,120.914988,0.64611197
C0S980,勝林山,2026-04-08,22.430439,120.8938,0.18709001
C0V730,大寮,2026-04-08,22.605614,120.395717,0.78420174
C0R570,麟洛,2026-04-08,22.65078,120.52719,0.9277882
C2M930,石卓,2026-04-08,23.478744,120.702264,0.0024387874
C0G9B0,和美,2026-04-08,24.105169,120.492131,0.8084361
CAG100,王功漁港,2026-04-08,23.96824,120.32586,0.56010807
C0X290,北門,2026-04-08,23.267772,120.125481,0.9077145
C2F930,大甲,2026-04-08,24.347667,120.640403,0.3441738
C0D650,湖口,2026-04-08,24.904794,121.043628,0.4402124
C0U780,五結,2026-04-08,24.68637,121.79794,0.14651544
C1I250,鯉潭,2026-04-08,23.961922,120.991131,0.014276833
C0R130,阿禮,2026-04-08,22.742908,120.743678,0.11700567
C0X100,臺南市北區,2026-04-08,23.010394,120.194228,0.8944538
C0S920,金峰嘉蘭,2026-04-08,22.594789,120.960825,0.78960985
C0V490,新興,2026-04-08,22.627422,120.298803,0.8332893
C0F9K0,大安,2026-04-08,24.345061,120.588025,0.46883383
467290,古坑,2026-04-08,23.633639,120.551889,0.7206263
C2E970,八甲,2026-04-08,24.535811,120.795983,0.75999635
C0V440,鳳山,2026-04-08,22.646653,120.356122,0.876063
C1T940,大觀,2026-04-08,23.714206,121.373133,0.01312463
C0E740,造橋,2026-04-08,24.637056,120.864778,0.65018123
C0R100,尾寮山,2026-04-08,22.833111,120.683889,0.10133537
A2K630,臺大雲林校區,2026-04-08,23.730628,120.423903,0.9004571
467990,馬祖,2026-04-08,26.169467,119.923158,0.0003321961
C0D580,寶山,2026-04-08,24.735006,121.025192,0.074725546
E2P990,林試扇平站,2026-04-08,22.9677,120.6857,0.14039427
C0AI30,三重,2026-04-08,25.057328,121.500629,0.048876483
C0AH00,汐止,2026-04-08,25.066881,121.658778,0.66870075
C1Z040,立山,2026-04-08,23.443356,121.327375,0.1132292
466881,新北,2026-04-08,24.959207,121.525196,0.050761618
C0W130,花嶼,2026-04-08,23.40007,119.32276,0.32455486
C0A950,鼻頭角,2026-04-08,25.129036,121.923372,0.6408482
C0K470,林內,2026-04-08,23.748675,120.609642,0.7427313
C2F990,摩天嶺,2026-04-08,24.322458,120.936819,0.010765615
C2E430,南庄,2026-04-08,24.601775,121.000214,0.21619566
82C160,茶改場,2026-04-08,24.908472,121.185333,0.22251974
C2TB60,南安,2026-04-08,23.29818,121.26157,0.6055313
C0Z320,清水林道,2026-04-08,23.27125,121.188272,0.088413626
C0R760,南仁湖,2026-04-08,22.084681,120.863353,0.5059303
C0M670,大林,2026-04-08,23.600616,120.45841,0.89437586
C0M800,茶山,2026-04-08,23.299075,120.664767,0.52690667
C0A9C0,天母,2026-04-08,25.117494,121.537169,0.059049543
72K220,南改斗南分場,2026-04-08,23.634556,120.477333,0.91952795
72AI40,桃改樹林分場,2026-04-08,24.944503,121.386972,0.060747888
C0S910,蘭嶼燈塔,2026-04-08,22.081197,121.503117,0.25394142
C0B050,八斗子,2026-04-08,25.144754,121.79167,0.87306947
C0U900,內城,2026-04-08,24.71813,121.68766,0.08901922
C0X320,柳營,2026-04-08,23.253328,120.375253,0.8970046
C0M790,新港,2026-04-08,23.553269,120.345728,0.9303843
C0F9T0,西屯,2026-04-08,24.179494,120.641275,0.56215906
C0E950,松安,2026-04-08,24.39792,120.98599,0.0023866426
C0SA30,都歷,2026-04-08,23.020333,121.323642,0.79723597
C0C620,蘆竹,2026-04-08,25.084275,121.265767,0.09810972
C0R730,大坪頂,2026-04-08,22.024633,120.69355,0.43533075
C0AJ40,石門,2026-04-08,25.273672,121.601198,0.08599967
C0E750,苗栗,2026-04-08,24.564569,120.824575,0.87271845
C0T870,鯉魚潭,2026-04-08,23.935639,121.508944,0.11829522
C1V170,排雲,2026-04-08,23.463619,120.954147,0.0009421194
C2H950,中寮,2026-04-08,23.884447,120.766406,0.57065463
C0R350,貓鼻頭,2026-04-08,21.921774,120.7358,0.3527887
C0V660,岡山,2026-04-08,22.797078,120.294958,0.8143223
C1H941,雙冬,2026-04-08,23.967378,120.802189,0.07102734
C0AJ70,田寮,2026-04-08,25.2698,121.4886,0.26858953
C0AI00,五股,2026-04-08,25.07445,121.42728,0.028023226
C0Z280,德武,2026-04-08,23.47426,121.41071,0.12785427
C2RA10,大新,2026-04-08,22.67558,120.57788,0.7836289
C0R700,枋山,2026-04-08,22.246844,120.661086,0.8731546
C0C460,復興,2026-04-08,24.820208,121.352281,0.031328626
C2K300,鹿南,2026-04-08,23.63855,120.3636,0.9108909
E2H360,蓮華池,2026-04-08,23.918333,120.885278,0.08019607
C0M640,中埔,2026-04-08,23.42538,120.5229,0.5744669
C0W140,金沙,2026-04-08,24.488292,118.408778,0.0010261519
C2A540,四堵,2026-04-08,24.8926,121.745736,0.13010342
C0ACA0,新莊,2026-04-08,25.051478,121.446756,0.053629156
C0R220,潮州,2026-04-08,22.534361,120.54,0.62496656
U2HA40,臺大內茅埔,2026-04-08,23.689722,120.851117,0.12536556
467490,臺中,2026-04-08,24.145736,120.684075,0.7361634
C0UB60,明池,2026-04-08,24.650688,121.475277,0.0053699594
C0U960,翠峰湖,2026-04-08,24.510856,121.608044,0.0012425085
E2HA20,林試畢祿溪站,2026-04-08,24.226944,121.308522,0.0020685114
C2M9A0,大華,2026-04-08,23.4824,120.67491,0.008675166
C0V890,前鎮,2026-04-08,22.5718,120.3117,0.8916773
C1F941,雪嶺,2026-04-08,24.280586,121.026642,0.0014388703
C2H9E0,國姓南港,2026-04-08,23.911108,120.846556,0.002746113
C0AC80,文山,2026-04-08,25.00235,121.575728,0.054972854
C0F9R0,龍井,2026-04-08,24.184536,120.528972,0.79177064
C0M760,民雄,2026-04-08,23.551754,120.428457,0.89437586
C0UA40,西德山,2026-04-08,24.560647,121.752608,0.0071641016
C2TA70,赤科坪,2026-04-08,23.39885,121.39168,0.0060491967
C1T920,中興,2026-04-08,23.769503,121.498653,0.2167148
C0D550,雪霸,2026-04-08,24.526972,121.11605,0.0022281427
C2F860,梨山,2026-04-08,24.247522,121.243669,0.0014151853
C0R320,車城,2026-04-08,22.0744,120.716247,0.59404564
C1S870,南美山,2026-04-08,23.15025,121.382333,0.6257726
C0B020,基隆嶼,2026-04-08,25.19141,121.78391,0.84224737
C1U501,牛鬥,2026-04-08,24.637836,121.573656,0.80227166
C0M730,嘉義市東區,2026-04-08,23.457673,120.460531,0.70422566
C2R990,泰武,2026-04-08,22.60686,120.69765,0.46650255
C0S700,知本,2026-04-08,22.684866,121.005642,0.19339159
C1N001,沙崙,2026-04-08,22.935472,120.309406,0.86493284
C0V760,橋頭,2026-04-08,22.757806,120.30575,0.8186475
C0G960,福寶,2026-04-08,24.0443,120.3814,0.80833393
C0X210,白河,2026-04-08,23.347466,120.414427,0.85355103
C0S810,東河,2026-04-08,22.972672,121.303986,0.7903798
C2R170,屏東,2026-04-08,22.66027,120.49403,0.9277882
C0R670,楓港,2026-04-08,22.190131,120.692156,0.81189793
C0FA50,霧峰,2026-04-08,24.0419,120.6995,0.9034108
C0UB10,蘇澳,2026-04-08,24.5969,121.8571,0.9423574
C0G950,防潮門,2026-04-08,24.1835,120.4871,0.8007642
C0M740,六腳,2026-04-08,23.492871,120.290625,0.92803884
C1R250,力里,2026-04-08,22.428117,120.629228,0.6440574
C0K330,虎尾,2026-04-08,23.719183,120.442036,0.89789563
C2FA00,烏石坑,2026-04-08,24.273503,120.947617,0.011388826
C0V620,永安,2026-04-08,22.82315,120.236856,0.81913394
C1I330,楓樹林,2026-04-08,23.986803,121.076117,0.0048233066
C0W200,湖西,2026-04-08,23.596314,119.67275,0.54099953
72Q010,高雄農改場,2026-04-08,22.709333,120.525889,0.8987866
C0C680,龜山,2026-04-08,25.02846,121.38656,0.024510765
C2V260,月眉,2026-04-08,22.971003,120.539853,0.87248576
C0V450,鳳森,2026-04-08,22.545064,120.392592,0.7031648
C0FA90,小雪山林道,2026-04-08,24.29515,121.03651,0.0009068842
C0U720,南山,2026-04-08,24.43742,121.38167,0.10859109
A2N290,臺南蘭花園區,2026-04-08,23.340258,120.379661,0.8819802
C0R560,新園,2026-04-08,22.5434,120.461558,0.7432061
C0U890,三星,2026-04-08,24.66812,121.65302,0.06960822
C1V300,御油山,2026-04-08,23.001983,120.715364,0.015604612
C0U600,礁溪,2026-04-08,24.817539,121.765608,0.03904086
C1T980,龍澗,2026-04-08,24.023289,121.411328,0.0035734775
C0D670,海天一線,2026-04-08,24.831986,120.914438,0.5787847
C0SA00,歷坵,2026-04-08,22.520969,120.89185,0.9320266
C0M710,東石,2026-04-08,23.458927,120.15385,0.90815663
C0M780,鹿草,2026-04-08,23.41134,120.30835,0.92229134
C0U520,雙連埤,2026-04-08,24.753033,121.641303,0.034031592
C0B010,七堵,2026-04-08,25.094819,121.71713,0.8296589
C0R480,長治,2026-04-08,22.693128,120.542622,0.7839627
C1V830,國三S383K,2026-04-08,22.781967,120.426475,0.6968902
12Q980,恆春工作站,2026-04-08,22.079678,120.714425,0.59404564
C1O940,東山服務區,2026-04-08,23.286016,120.398472,0.87863356
C1U840,東澳嶺,2026-04-08,24.5378,121.8485,0.03322294
C1D630,飛鳳山,2026-04-08,24.766464,121.119178,0.033881325
C0S940,石寧山,2026-04-08,23.223772,121.406639,0.8165061
C0K410,北港,2026-04-08,23.573957,120.292802,0.9183548
C2M620,瑞里,2026-04-08,23.545133,120.675197,0.014539172
C0SB70,小港漁港,2026-04-08,23.158558,121.400431,0.94321066
C2O950,安南,2026-04-08,23.076694,120.144861,0.8988277
C0F0E0,南湖圈谷,2026-04-08,24.363714,121.444667,0.0007002365
467610,成功,2026-04-08,23.097486,121.373428,0.93472326
C0G890,伸港,2026-04-08,24.148933,120.484403,0.7934901
C2E540,龍溪,2026-04-08,24.606489,120.783933,0.9007579
C1V200,梅山,2026-04-08,23.268447,120.823556,0.01529787
C0T9H0,加路蘭山,2026-04-08,23.682947,121.5274,0.0037293653
C2O930,玉井,2026-04-08,23.126042,120.46055,0.8582269
C1F911,新伯公,2026-04-08,24.221361,120.841069,0.037375174
C0X200,左鎮,2026-04-08,23.056758,120.408522,0.83997375
C2TB50,麻汝,2026-04-08,23.42554,121.39358,0.093055286
C0FA60,鞍馬山工作站,2026-04-08,24.267064,121.000793,0.0015895193
C0SB50,叭嗡嗡,2026-04-08,23.047062,121.343223,0.9472151
C1F891,稍來,2026-04-08,24.265689,121.001142,0.0016442577
C2M9C0,紫雲,2026-04-08,23.494914,120.540253,0.6571647
72N240,七股研究中心,2026-04-08,23.081672,120.062894,0.9003525
C0C700,中壢,2026-04-08,24.977661,121.256375,0.2705525
C0M690,水上,2026-04-08,23.419734,120.388909,0.85945666
C0V690,鼓山,2026-04-08,22.623325,120.275575,0.8332893
C0O860,大內,2026-04-08,23.11885,120.36083,0.90549386
C0Z200,萬榮,2026-04-08,23.709219,121.420106,0.15221632
C0T9D0,和中,2026-04-08,24.26676,121.74103,0.14505562
C2S9A0,北份子寮,2026-04-08,22.78561,121.07813,0.35164192
C1O921,楠西,2026-04-08,23.183511,120.484083,0.8457833
C0AJ30,淡水觀海,2026-04-08,25.184591,121.408616,0.1857925
C0V810,左營,2026-04-08,22.67491,120.28491,0.8286354
C0UA70,桃源谷,2026-04-08,24.962606,121.888875,0.023132676
C0X130,官田,2026-04-08,23.193217,120.315422,0.918236
C1H000,翠峰,2026-04-08,24.109397,121.205211,0.0019801578
C0UA90,石城,2026-04-08,24.980444,121.951214,0.54872227
C1E681,南勢山,2026-04-08,24.421669,120.923831,0.0036718184
C0A9F0,內湖,2026-04-08,25.079422,121.57545,0.0614741
C0K291,宜梧,2026-04-08,23.536281,120.169329,0.92963773
C1K540,口湖,2026-04-08,23.585344,120.180517,0.92930144
C0R780,滿州,2026-04-08,22.024403,120.839892,0.66138786
C0V870,文安,2026-04-08,22.8025,120.2164,0.81790864
C0U650,玉蘭,2026-04-08,24.675286,121.587061,0.19186467
C0R640,東港,2026-04-08,22.46247,120.44074,0.7540034
C0AJ80,板橋,2026-04-08,25.0107,121.4489,0.050529987
C0S660,下馬,2026-04-08,23.150427,121.070312,0.10098729
C2N190,烏樹,2026-04-08,23.32393,120.36989,0.88321143
C1H9B1,阿眉,2026-04-08,24.1263,120.994672,0.0044253496
C0UA20,多加屯,2026-04-08,24.368614,121.373189,0.0012143072
C0E730,頭份,2026-04-08,24.688247,120.912206,0.5079376
72V140,高改旗南分場,2026-04-08,22.857861,120.516667,0.8196948
C0K480,莿桐,2026-04-08,23.761192,120.502372,0.91638714
C0U980,坪林石牌,2026-04-08,24.86478,121.77396,0.011247387
C0T900,西林,2026-04-08,23.8119,121.441458,0.07539834
C1I150,青雲,2026-04-08,23.793361,120.949378,0.18903454
C2E980,和興,2026-04-08,24.505319,120.923016,0.114619434
467350,澎湖,2026-04-08,23.565503,119.563094,0.32346368
C0G800,埔鹽,2026-04-08,24.000394,120.431683,0.7844621
C0H960,草屯,2026-04-08,23.973672,120.68085,0.7237418
C1V780,多納林道,2026-04-08,22.888028,120.737917,0.005566369
C0E920,通霄漁港,2026-04-08,24.498589,120.673876,0.9485829
C0Z330,安通山,2026-04-08,23.290728,121.348528,0.06092998
C0AH10,永和,2026-04-08,25.01125,121.508111,0.05114563
C0AK10,太平里,2026-04-08,25.134937,121.364899,0.03880978
C2G640,鹿港,2026-04-08,24.0753,120.430481,0.814504
C1E890,國三N149K,2026-04-08,24.463414,120.680019,0.9219183
C1R110,口社,2026-04-08,22.770111,120.645222,0.64088583
C1M870,國三N285K,2026-04-08,23.550319,120.505833,0.6401841
C1E480,鳳美,2026-04-08,24.554803,121.034747,0.2662286
C0T9M0,靜浦,2026-04-08,23.455167,121.495028,0.35525122
C2H9M0,發祥,2026-04-08,24.154094,121.164517,0.0040089204
C2G9C0,埔南,2026-04-08,23.99124,120.46969,0.7844621
C0AI40,石牌,2026-04-08,25.115597,121.513139,0.061474066
C1F871,上谷關,2026-04-08,24.203483,121.018644,0.011388826
C2H9G0,百勝,2026-04-08,24.051142,120.909361,0.03156547
C0G880,二水,2026-04-08,23.810742,120.6173,0.7535396
C0R940,加祿堂,2026-04-08,22.3363,120.6217,0.6695077
C0W220,北竿,2026-04-08,26.220358,119.974881,0.00034328297
C0O960,崎頂,2026-04-08,22.959547,120.369317,0.81877285
C0TA40,秀林,2026-04-08,24.302864,121.731144,0.0403547
C0S750,向陽,2026-04-08,23.248397,120.986133,0.0031928353
C0T9F0,水璉,2026-04-08,23.797131,121.542514,0.028466487
C1M600,頭凍,2026-04-08,23.406364,120.603339,0.053800695
467660,臺東,2026-04-08,22.752211,121.154586,0.73931646
C1D380,新埔,2026-04-08,24.84745,121.03834,0.36293492
C2G980,田頭村,2026-04-08,23.8263,120.444175,0.89879215
C0V750,路竹,2026-04-08,22.854997,120.259439,0.80411124
C0N050,蚵寮,2026-04-08,23.301,120.1104,0.9077145
C2X060,下營,2026-04-08,23.226806,120.256291,0.9197776
72M700,南改鹿草分場,2026-04-08,23.416869,120.283061,0.9242394
C1SA50,利嘉林道,2026-04-08,22.82325,121.009389,0.008916809
C0UB70,太平山中間站,2026-04-08,24.542003,121.513453,0.013253543
C0A940,金山,2026-04-08,25.223628,121.643967,0.40313977
C1V340,大津,2026-04-08,22.888322,120.645986,0.91536224
C0W180,七美,2026-04-08,23.219333,119.444892,0.5613072
C1F9C1,白冷,2026-04-08,24.182844,120.929889,0.032840356
K2E710,苗改生物防治研究中心,2026-04-08,24.422861,120.871833,0.17019142
C0N040,蘆竹溝,2026-04-08,23.2344,120.0961,0.9090166
C0TB40,崇德,2026-04-08,24.166144,121.657414,0.7425044
C0D760,大坪苗圃,2026-04-08,24.5362,121.1108,0.003785515
C2W230,畜試所澎湖,2026-04-08,23.628342,119.513206,0.13028662
C0R880,後壁湖,2026-04-08,21.9457,120.7457,0.39711222
C1I280,埔中,2026-04-08,23.820778,120.642594,0.26470137
467790,墾丁雷達站,2026-04-08,21.948235,120.808028,0.38352945
C0W190,望安,2026-04-08,23.380564,119.494075,0.40842396
C0Z170,卓溪,2026-04-08,23.3443,121.3029,0.5202678
C0F850,東勢,2026-04-08,24.246428,120.833047,0.046663288
466900,淡水,2026-04-08,25.164889,121.448906,0.20469747
C0I370,魚池,2026-04-08,23.895703,120.94135,0.05475977
C0C630,大溪,2026-04-08,24.882853,121.265547,0.15064822
C0A520,山佳,2026-04-08,24.974944,121.402008,0.06521677
C0I110,竹山,2026-04-08,23.761225,120.688156,0.8164239
82H840,茶改南部分場,2026-04-08,23.762528,120.7405,0.406313
C2SD80,再來山,2026-04-08,23.34371,121.44122,0.121245384
C0G660,溪湖,2026-04-08,23.94835,120.479122,0.85956675
C1T800,洛韶,2026-04-08,24.204558,121.453956,0.0071858536
C1T810,慈恩,2026-04-08,24.192044,121.388386,0.0044300626
C1E451,象鼻,2026-04-08,24.368617,120.940228,0.0036718184
C0AC60,三峽,2026-04-08,24.939025,121.369728,0.1050575
C0I490,萬大林道,2026-04-08,23.928228,121.091411,0.0027350944
C1I290,豐丘,2026-04-08,23.668178,120.887417,0.00678033
C1I320,奧萬大,2026-04-08,23.952956,121.178556,0.0016164283
C2M910,嘉義大學,2026-04-08,23.471325,120.485903,0.6680237
C0U770,南澳,2026-04-08,24.44935,121.81022,0.9645247
C2TB30,吉安,2026-04-08,23.94538,121.54803,0.23188528
C0A980,社子,2026-04-08,25.109508,121.469681,0.08305904
C0V800,六龜,2026-04-08,22.997889,120.633583,0.89027035
C1G9D0,國一S218K,2026-04-08,23.890641,120.493253,0.87211937
C0E570,白沙屯,2026-04-08,24.549447,120.696803,0.81043726
C2F9A0,中竹林,2026-04-08,24.103556,120.751061,0.03178637
C0FA40,臺中電廠,2026-04-08,24.2146,120.4907,0.8606222
C2G9A0,畜試所彰化,2026-04-08,23.86045,120.557964,0.9330498
C0H9C0,合歡山,2026-04-08,24.143442,121.272547,0.0009038674
G2M350,農試溪口農場,2026-04-08,23.58565,120.408111,0.8990986
C0U860,頭城,2026-04-08,24.85323,121.8308,0.083409436
C0R580,南州,2026-04-08,22.48591,120.50274,0.7794107
C0G780,秀水,2026-04-08,24.03405,120.503869,0.85893875
72N100,臺南農改場,2026-04-08,23.0605,120.342194,0.89889437
C0S900,蘭嶼高中,2026-04-08,22.04909,121.51214,0.31048238
C2TA60,六十石,2026-04-08,23.22477,121.31861,0.045732845
C1F9W0,德基,2026-04-08,24.254783,121.190261,0.001681582
C2M980,安和,2026-04-08,23.51377,120.31593,0.92803884
C1Z120,壽豐,2026-04-08,23.870853,121.508081,0.3222215
C0W160,烏坵,2026-04-08,24.9944,119.44956,0.00022692348
C1I550,國六W023K,2026-04-08,23.979067,120.867742,0.17201562
C0R870,興海,2026-04-08,21.9752,120.8439,0.41736576
C0R140,瑪家,2026-04-08,22.682903,120.686639,0.66863745
C0A530,坪林,2026-04-08,24.938183,121.70975,0.13869433
C0X260,後壁,2026-04-08,23.366358,120.362326,0.9185666
C0Z230,和平,2026-04-08,24.30717,121.77007,0.26041847
C0G770,福興,2026-04-08,24.041289,120.437669,0.7844621
C0H9A0,神木村,2026-04-08,23.532742,120.843667,0.0026361686
C0I460,南投,2026-04-08,23.911469,120.687331,0.73191845
C0I480,梅峰,2026-04-08,24.085272,121.173572,0.0022780623
C2A560,福山,2026-04-08,24.776203,121.502811,0.25153887
C0AH30,五分山,2026-04-08,25.07125,121.780794,0.008181147
C0FA10,松柏,2026-04-08,24.429115,120.617482,0.8598403
72S200,東改班鳩分場,2026-04-08,22.829528,121.077694,0.25187975
72HA00,中改埔里分場,2026-04-08,23.903208,120.963364,0.05545855
C2H9W0,大坪頂農水,2026-04-08,24.043122,120.932781,0.06373289
C0C650,平鎮,2026-04-08,24.897503,121.214636,0.22837836
C0S930,延平,2026-04-08,22.902581,121.084058,0.20352198
C0UA60,樟樹山,2026-04-08,24.41393,121.78325,0.012562222
C2UC10,出水溪,2026-04-08,24.615822,121.652253,0.10687149
C1S670,摩天,2026-04-08,23.199503,121.027,0.022208968
C2C590,觀音,2026-04-08,25.027072,121.153317,0.06240758
C0V630,茄萣,2026-04-08,22.906642,120.182608,0.8795559
466940,基隆,2026-04-08,25.133314,121.740475,0.86384726
C0X050,東河,2026-04-08,23.296598,120.385608,0.8819802
C0R770,保力,2026-04-08,22.071122,120.764111,0.52616847
G2L020,農試嘉義分所,2026-04-08,23.485028,120.473806,0.6587773
C0X240,關子嶺,2026-04-08,23.331169,120.508025,0.44046885
C0I380,集集,2026-04-08,23.828206,120.801467,0.6548699
466990,花蓮,2026-04-08,23.975128,121.613275,0.82587016
C1V220,小關山,2026-04-08,23.154217,120.813603,0.00619523
C1F9G1,慶福山,2026-04-08,24.180853,120.848378,0.01970472
C0FB20,雪山橋,2026-04-08,24.23192,120.9786,0.0019047781
C0Z250,瑞穗林道,2026-04-08,23.49284,121.30688,0.15953231
C0D590,新豐,2026-04-08,24.87068,120.97721,0.38411212
C0A870,五指山,2026-04-08,25.132153,121.608692,0.0023683133
C0UA50,西帽山,2026-04-08,24.555361,121.802628,0.036947943
C2R980,竹田國中,2026-04-08,22.61532,120.52412,0.6579406
C0X160,仁德,2026-04-08,22.968258,120.257689,0.876656
C1H971,六分寮,2026-04-08,23.92507,120.6378,0.08271628
C0W120,西嶼,2026-04-08,23.5626,119.468436,0.28803673
C0G650,員林,2026-04-08,23.946503,120.585597,0.91418475
C0AD50,鶯歌,2026-04-08,24.951533,121.346294,0.17559393
C2H9Q0,北東眼山,2026-04-08,24.120939,121.189303,0.0017981449
C2H9T0,名間竹圍,2026-04-08,23.859914,120.637572,0.58212817
C0S990,山豬窟,2026-04-08,22.318619,120.857372,0.70534414
C0X190,安平,2026-04-08,22.993161,120.152181,0.89512455
C0K400,斗六,2026-04-08,23.720583,120.541127,0.9142552
12J990,口湖工作站,2026-04-08,23.589978,120.180394,0.92930144
C0O830,北寮,2026-04-08,23.079561,120.495008,0.77875006
C1D410,白蘭,2026-04-08,24.579364,121.079947,0.0070195426
C0S970,加津林,2026-04-08,22.416211,120.926942,0.7867697
C0D700,關西,2026-04-08,24.7977,121.1732,0.2537709
C0U750,龜山島,2026-04-08,24.841667,121.953133,0.12338952
C0R810,內獅,2026-04-08,22.305064,120.642986,0.8731546
C1M390,龍美,2026-04-08,23.406728,120.654417,0.0065729963
C2K290,崙內,2026-04-08,23.69525,120.35601,0.9108909
C2FB60,頭櫃山,2026-04-08,24.129842,120.858925,0.0039639925
C1H840,國三N238K,2026-04-08,23.841008,120.707711,0.6530094
CAQ030,崎峰國小,2026-04-08,22.42565,120.49521,0.7794107
C2E520,大湖,2026-04-08,24.414939,120.870872,0.16188076
467530,阿里山,2026-04-08,23.508208,120.813242,0.00092609937
C1E691,南湖,2026-04-08,24.40135,120.837533,0.0043390743
C0FA30,梧棲,2026-04-08,24.256003,120.523381,0.79177064
C1V231,高中,2026-04-08,23.134911,120.716711,0.016964741
C0AK30,硬漢嶺,2026-04-08,25.136097,121.426372,0.0036756874
C0F9V0,新社,2026-04-08,24.200172,120.815806,0.020969758
C0H890,埔里,2026-04-08,23.972169,120.952425,0.08707628
C0R690,墾丁,2026-04-08,21.966756,120.810269,0.26428896
C0SD20,富山,2026-04-08,22.822383,121.190825,0.8573961
C0F0D0,審馬陣,2026-04-08,24.381675,121.4203,0.0011515729
C2W030,金門農試所,2026-04-08,24.448431,118.451786,0.0006170745
C0R820,白鷺,2026-04-08,22.454275,120.666219,0.8128987
C0FB00,大雪山,2026-04-08,24.254668,121.007374,0.001568979
C1V190,南天池,2026-04-08,23.27403,120.91176,0.002008554
C0E940,雪見,2026-04-08,24.42595,121.01347,0.0009986883
K2E360,苗栗農改場,2026-04-08,24.495722,120.829111,0.8214497
CAJ050,海口故事園區,2026-04-08,23.57543,120.14121,0.92930144
C2K280,四湖,2026-04-08,23.6304,120.22717,0.9043445
C2H9D0,三隻寮,2026-04-08,24.093078,120.861578,0.0158548
C0O990,媽廟,2026-04-08,22.99175,120.293525,0.88552904
C0Z220,和平林道,2026-04-08,24.343922,121.656317,0.008025538
C0TA10,花蓮漁港,2026-04-08,23.995322,121.638331,0.20826125
72C440,桃園農改場,2026-04-08,24.950944,121.030583,0.51192856
C1E711,馬拉邦山,2026-04-08,24.367306,120.901656,0.0014411021
C0SB20,富岡,2026-04-08,22.792467,121.192669,0.8330334
C0D560,竹東,2026-04-08,24.767147,121.057881,0.23857772
C0F9U0,南屯,2026-04-08,24.137006,120.637969,0.80417615
C2SD60,明峰,2026-04-08,22.8671,121.11825,0.1808178
C0M720,番路,2026-04-08,23.464657,120.554156,0.4011954
C0F0A0,雪山圈谷,2026-04-08,24.388594,121.236339,0.0009720312
C1A9N0,四十份,2026-04-08,24.934158,121.593283,0.02223052
C0U760,東澳,2026-04-08,24.52196,121.83318,0.9606158
C0X230,鹽水,2026-04-08,23.272621,120.247641,0.9145238
C2H9H0,苗改南投蜂場,2026-04-08,23.852589,120.693481,0.8492527
C2TB70,達谷寮,2026-04-08,23.38,121.35968,0.19997227
C0R950,萬隆國小,2026-04-08,22.507667,120.587817,0.6883917
467540,大武,2026-04-08,22.35572,120.90374,0.8564807
C0V370,古亭坑,2026-04-08,22.893178,120.401947,0.8304516
C1I340,新興橋,2026-04-08,23.563333,120.868728,0.05484511
C0SA80,土坂,2026-04-08,22.453108,120.887572,0.905222
C0R160,鹽埔,2026-04-08,22.739558,120.530778,0.8987866
C0AC40,大屯山,2026-04-08,25.175675,121.522408,0.0007769006
466850,五分山雷達站,2026-04-08,25.071182,121.781205,0.0076325024
C2H9L0,馬烈霸,2026-04-08,24.1512,121.201772,0.0015528353
C1AI50,國三N016K,2026-04-08,25.034164,121.619664,0.06863623
C2V920,匏子寮,2026-04-08,23.04905,120.55319,0.83788717
C1V600,藤枝,2026-04-08,23.071961,120.757042,0.02023143
C1E601,南勢,2026-04-08,24.572486,120.734842,0.6694863
C0O980,新市,2026-04-08,23.061614,120.298197,0.9066533
C0K420,西螺,2026-04-08,23.800407,120.467394,0.89395684
C0Z050,佳心,2026-04-08,23.34567,121.21316,0.036475014
C0AD30,蘆洲,2026-04-08,25.086594,121.472331,0.06543629
C0V610,梓官,2026-04-08,22.760558,120.267211,0.8136345
K2F750,種苗改良場,2026-04-08,24.225972,120.800917,0.019501394
C0UA80,大溪漁港,2026-04-08,24.941801,121.902955,0.49432653
C1AI60,國一39K邊坡,2026-04-08,25.064361,121.383836,0.024226297
C0W150,金寧,2026-04-08,24.457703,118.328989,0.0009174122
C0R960,內埔,2026-04-08,22.608483,120.570714,0.64919966
C2H9S0,龍南,2026-04-08,23.953536,120.833183,0.022279799
C0AH40,平等,2026-04-08,25.129142,121.577086,0.011345229
C0R540,佳冬,2026-04-08,22.419456,120.552375,0.7894258
466950,彭佳嶼,2026-04-08,25.627975,122.079744,0.0118443
C0A890,雙溪,2026-04-08,25.036003,121.864242,0.8570108
C0AH50,林口,2026-04-08,25.072181,121.38084,0.018344544
A2K360,水試臺西試驗場,2026-04-08,23.717231,120.190522,0.88440377
C2M960,外寮,2026-04-08,23.562643,120.665688,0.018963862
C0F9S0,烏日,2026-04-08,24.107058,120.624103,0.885193
C2N180,鹿陶洋,2026-04-08,23.14325,120.48352,0.8457833
C0C490,八德,2026-04-08,24.928708,121.283289,0.16936967
C0R190,赤山,2026-04-08,22.592333,120.614306,0.6606644
C0T820,天祥,2026-04-08,24.179597,121.495639,0.35503128
C1F9E1,龍安,2026-04-08,24.1605,120.831961,0.019742494
C2SD50,順那,2026-04-08,23.04166,121.29332,0.62693757
C0V820,小林,2026-04-08,23.148408,120.63325,0.26346105
C2G870,芳苑,2026-04-08,23.922303,120.320025,0.61070925
C0E850,大河,2026-04-08,24.618069,120.948578,0.46919936
C1U670,寒溪,2026-04-08,24.634,121.71691,0.07196077
C0N020,城西,2026-04-08,23.0568,120.0956,0.89752406
C1Z110,三棧,2026-04-08,24.11557,121.60501,0.13238965
C0R280,檳榔,2026-04-08,22.076078,120.836777,0.5367386
C2H9J0,中台,2026-04-08,23.9996,120.938739,0.037879955
C0F9L0,后里,2026-04-08,24.310436,120.729725,0.105003074
467441,高雄,2026-04-08,22.730432,120.312516,0.81362736
C0Z180,新城,2026-04-08,24.040486,121.604878,0.81218743
C0D540,橫山,2026-04-08,24.71116,121.11693,0.061890393
C1D420,太閣南,2026-04-08,24.632808,121.160575,0.006942283
C1E770,公館,2026-04-08,24.526914,120.830806,0.88173676
CAN130,水試所海水繁養殖中心,2026-04-08,23.120802,120.07968,0.9003525
C1I430,翠華,2026-04-08,24.191961,121.224339,0.0011845338
C1M400,菜瓜坪,2026-04-08,23.251928,120.576103,0.47075024
C0G730,二林,2026-04-08,23.903325,120.376081,0.78655106
72M360,南改義竹分場,2026-04-08,23.360694,120.279361,0.9110514
V2K620,麥寮合作社,2026-04-08,23.753836,120.294783,0.87564886
C0Z070,舞鶴,2026-04-08,23.46811,121.37407,0.08295029
C0B040,大武崙,2026-04-08,25.166676,121.706993,0.5596692
C1Z030,紅葉,2026-04-08,23.493119,121.338806,0.118528426
C1I050,丹大,2026-04-08,23.753747,121.141147,0.0018639925
C0I080,信義,2026-04-08,23.689694,120.851036,0.12536556
C2TB80,庄子底,2026-04-08,23.71794,121.49438,0.27376726
C0D750,樂山林道6k,2026-04-08,24.49999,121.08773,0.0019779257
C2M920,朴子農改,2026-04-08,23.469889,120.259383,0.92621136
C2A880,福隆,2026-04-08,25.017842,121.942083,0.5746854
C0Z160,鳳林,2026-04-08,23.746114,121.453411,0.24386005
C0UB80,翠峰林道6K,2026-04-08,24.49773,121.568625,0.0009157333
C0V210,復興,2026-04-08,23.222403,120.806089,0.01889412
C0H990,昆陽,2026-04-08,24.121322,121.273642,0.0011682421
C0R741,獅子,2026-04-08,22.202308,120.705236,0.86777
C0S710,鹿野,2026-04-08,22.917711,121.122994,0.049151268
C0I530,小奇萊,2026-04-08,24.131764,121.295717,0.0010145439
C0FA70,大雪山埡口,2026-04-08,24.26867,121.03062,0.001101429
C2K630,荷苞,2026-04-08,23.657717,120.595144,0.6490807
C0Z080,富源,2026-04-08,23.587642,121.378225,0.106043786
C2M9E0,旺來山,2026-04-08,23.555153,120.486463,0.6313394
C0SB10,美和,2026-04-08,22.682078,121.060236,0.59877396
C2K620,馬光農場,2026-04-08,23.721453,120.378864,0.90249044
C1I140,卡奈托灣,2026-04-08,23.754364,121.087872,0.0042713485
C0I520,玉山風口,2026-04-08,23.470489,120.955994,0.00086273847
C1G691,下水埔,2026-04-08,23.816114,120.5676,0.9180213
C0X110,臺南市南區,2026-04-08,22.961189,120.188378,0.8801358
C0V680,仁武,2026-04-08,22.701083,120.347722,0.81362736
C2G840,北斗,2026-04-08,23.877586,120.514222,0.8681072
C2TB90,長橋,2026-04-08,23.6874,121.46186,0.23047687
C0R900,竹坑,2026-04-08,22.1385,120.7022,0.811898
C0G860,社頭,2026-04-08,23.897647,120.5862,0.9298936
C0X150,安定,2026-04-08,23.102614,120.227839,0.9052059
C0R590,里港,2026-04-08,22.77919,120.49459,0.77194875
C0E610,馬都安,2026-04-08,24.451272,120.930192,0.009820819
C0E550,明德,2026-04-08,24.583486,120.885411,0.8885935
C0R150,三地門,2026-04-08,22.709889,120.639944,0.73393184
C0G910,花壇,2026-04-08,24.032076,120.549461,0.8541394
C1D400,鳥嘴山,2026-04-08,24.71909,121.28387,0.013223731
C0K500,元長,2026-04-08,23.64981,120.315024,0.8915006
C0F0B0,石岡,2026-04-08,24.276061,120.777644,0.098172516
C2V250,甲仙,2026-04-08,23.080106,120.591758,0.6443644
C0SA20,金崙山,2026-04-08,22.567419,120.959667,0.01041367
C0V350,溪埔,2026-04-08,22.738578,120.446797,0.7762226
C0M660,溪口,2026-04-08,23.604131,120.403569,0.8990985
C1S880,壽卡,2026-04-08,22.238911,120.858903,0.34244752
72D680,桃改新埔分場,2026-04-08,24.834444,121.066111,0.3749493
