站號,站名,日期,lat,lon,BlastGRU-TW
C1O850,環湖,2026-01-13,23.148617,120.418633,0.029717296
C0S890,關山,2026-01-13,23.0395,121.175017,0.0049785883
CAH030,茶改場竹圍站,2026-01-13,23.860083,120.637528,0.002226996
V2K610,大庄合作社,2026-01-13,23.8068,120.367939,0.0027328765
G2AI50,關渡,2026-01-13,25.11575,121.492,0.001652476
C1S800,華源,2026-01-13,22.657883,121.02325,0.017883496
C0R550,新埤,2026-01-13,22.467947,120.582894,0.07729152
C1O880,關山,2026-01-13,23.173397,120.594092,0.008220374
V2C260,八德蔬果,2026-01-13,24.978508,121.281819,0.000985519
C0R260,春日,2026-01-13,22.370361,120.628306,0.055288132
C1I211,蘆竹湳,2026-01-13,23.934019,120.811994,0.002010152
467571,新竹,2026-01-13,24.827853,121.014219,0.001088218
C1I260,北坑,2026-01-13,23.9246,121.006903,0.0014518365
C0SA40,瑞和,2026-01-13,22.974361,121.156697,0.007239766
C0R490,九如,2026-01-13,22.7405,120.490503,0.3098518
C0D430,峨眉,2026-01-13,24.6905,121.017189,0.0008347442
C1I240,外大坪,2026-01-13,23.958697,120.917931,0.0016211387
C1V570,吉東,2026-01-13,22.85422,120.5454,0.16271926
C0D480,打鐵坑,2026-01-13,24.849664,121.150789,0.0006784956
V2C250,八德合作社,2026-01-13,24.93775,121.266389,0.0009594114
C0C480,桃園,2026-01-13,24.992425,121.323172,0.000985519
