站號,站名,日期,lat,lon,BlastGRU-TW
C0R710,龍磐,2026-06-25,21.931672,120.838942,0.9988991
C1F9D1,白毛台,2026-06-25,24.158325,120.886933,0.9527486
C0G940,竹塘,2026-06-25,23.848253,120.386764,0.88748854
467590,恆春,2026-06-25,22.003897,120.746339,0.99853534
C0U710,太平山,2026-06-25,24.505486,121.525656,0.19005594
C0E820,獅潭,2026-06-25,24.539133,120.920042,0.9869739
C2SD70,二層坪,2026-06-25,22.94105,121.16838,0.9944334
C0V880,興達,2026-06-25,22.8778,120.2127,0.34815228
C0SB30,新蘭,2026-06-25,22.869214,121.223228,0.9551031
C2R970,屏科大,2026-06-25,22.648275,120.619247,0.93793523
C1Z130,銅門,2026-06-25,23.965694,121.492842,0.05178836
C0AD40,土城,2026-06-25,24.973208,121.445169,0.0911603
CAN140,六官養殖協會,2026-06-25,23.22881,120.29962,0.24710286
C0X180,山上,2026-06-25,23.0757,120.363253,0.4188714
C0F9Z0,雪山東峰,2026-06-25,24.388792,121.268675,0.009128984
C1M480,獨立山,2026-06-25,23.537022,120.607797,0.8863904
C0X220,學甲,2026-06-25,23.230367,120.182187,0.23091255
467650,日月潭,2026-06-25,23.881325,120.90805,0.7678977
A2K570,古坑(花卉中心),2026-06-25,23.633531,120.552392,0.28930333
C0K600,箔子寮,2026-06-25,23.6197,120.14,0.5880622
C0G830,埤頭,2026-06-25,23.866003,120.452806,0.803467
C0S950,七塊厝,2026-06-25,22.954453,121.229922,0.99735445
467110,金門,2026-06-25,24.407306,118.289281,0.62930346
C0AH80,深坑,2026-06-25,25.002703,121.628328,0.02047214
C0A970,三貂角,2026-06-25,25.007606,122.002058,0.52492785
C2D730,寶山農場,2026-06-25,24.732444,120.976153,0.97155654
C0K430,褒忠,2026-06-25,23.690938,120.303634,0.76668996
467480,嘉義,2026-06-25,23.495925,120.432906,0.49247202
C0V400,阿公店,2026-06-25,22.804194,120.355528,0.48608217
C2S800,華源,2026-06-25,22.65783,121.0232,0.9941019
C2SA40,瑞和,2026-06-25,22.974361,121.156697,0.99405473
C0E960,觀霧分站,2026-06-25,24.505781,121.113921,0.6915766
467550,玉山,2026-06-25,23.48718,120.95943,0.009719898
C0R440,大漢山,2026-06-25,22.405264,120.753181,0.9630061
C0SD30,東清國小,2026-06-25,22.057128,121.564922,0.9998479
C1F9B1,桐林,2026-06-25,24.066172,120.735194,0.7175403
C2I210,蘆竹湳,2026-06-25,23.93398,120.81209,0.97078973
C2H9U0,鳳鵬,2026-06-25,23.763919,120.788061,0.6569119
C0K390,土庫,2026-06-25,23.679029,120.395574,0.6751927
C1I450,望鄉山,2026-06-25,23.594153,120.944286,0.031081317
C0E910,海埔,2026-06-25,24.648767,120.772435,0.9448818
B2E890,畜試北區分所,2026-06-25,24.527806,120.770972,0.9824512
C0R750,四林格山,2026-06-25,22.076989,120.802439,0.99465996
C0F0C0,中坑,2026-06-25,24.248517,120.903319,0.9728421
C1I121,大鞍,2026-06-25,23.678381,120.760017,0.78810847
C2G9E0,移民庄,2026-06-25,23.9784,120.40283,0.87013125
72U480,花改蘭陽分場,2026-06-25,24.686306,121.716583,0.29979938
C0A770,科教館,2026-06-25,25.096356,121.516507,0.12511054
C0AJ60,六塊厝,2026-06-25,25.24,121.4481,0.22903623
C0R620,墾雷,2026-06-25,21.900836,120.855269,0.99871016
467290,古坑,2026-06-25,23.633536,120.551906,0.29050902
467420,永康,2026-06-25,23.038386,120.2367,0.3393446
C2M530,奮起湖,2026-06-25,23.493903,120.699253,0.9355647
C0I410,名間,2026-06-25,23.837053,120.701447,0.52872306
A2C560,農工中心,2026-06-25,24.985917,121.239833,0.9487128
C0V740,旗山,2026-06-25,22.888614,120.483597,0.5098451
C0Z061,玉里,2026-06-25,23.3215,121.339656,0.6986548
C0S840,南田,2026-06-25,22.279725,120.889208,0.9658747
C1I470,杉林溪,2026-06-25,23.639517,120.786444,0.80628204
C1X040,東原,2026-06-25,23.291597,120.463822,0.7249168
C0R660,枋寮,2026-06-25,22.367722,120.590647,0.99305165
C0K450,大埤,2026-06-25,23.646074,120.431537,0.33532357
C0UA00,土場,2026-06-25,24.576533,121.495333,0.051679075
467080,宜蘭,2026-06-25,24.763975,121.756528,0.18856205
C0N030,四草,2026-06-25,23.0235,120.1116,0.2860314
467410,臺南,2026-06-25,22.99328,120.20492,0.29992223
C0V650,彌陀,2026-06-25,22.783806,120.246361,0.42149496
C0D660,新竹市東區,2026-06-25,24.798681,120.986942,0.9386861
82S580,茶改東部分場,2026-06-25,22.907694,121.130139,0.9941254
C0SB40,興隆,2026-06-25,22.913661,121.257469,0.9688475
467050,新屋,2026-06-25,25.006725,121.047492,0.9760285
C0C710,大溪永福,2026-06-25,24.892936,121.324975,0.9394952
C0FA20,溫寮,2026-06-25,24.372177,120.583125,0.89435077
C0V640,湖內,2026-06-25,22.887139,120.2445,0.35346085
C0R910,下寮,2026-06-25,22.3929,120.5548,0.9499571
C0Z020,明里,2026-06-25,23.208717,121.262342,0.9396217
C0M770,嘉義梅山,2026-06-25,23.585398,120.555587,0.33538234
C0C660,楊梅,2026-06-25,24.912375,121.143047,0.9628073
C0SD40,牛頭山,2026-06-25,22.676661,121.506944,0.9963886
C1E511,新開,2026-06-25,24.347703,120.827019,0.9470086
G2F820,農試所(霧峰),2026-06-25,24.031261,120.688133,0.6092254
C2M990,大巃頂,2026-06-25,23.5547,120.61439,0.91901237
C1I070,和社,2026-06-25,23.591131,120.888861,0.77435464
C2E990,新坪頂,2026-06-25,24.30201,120.8574,0.9679018
C0TA80,立霧山,2026-06-25,24.183258,121.641899,0.5233475
C2F000,大肚,2026-06-25,24.15295,120.572117,0.9643844
C1S850,豐南,2026-06-25,23.122139,121.262389,0.99557465
C2M9B0,西興,2026-06-25,23.2428,120.57617,0.6991385
C2A920,富貴角,2026-06-25,25.263783,121.565258,0.8988634
C0T960,光復,2026-06-25,23.660694,121.424964,0.17780666
C0F9M0,豐原,2026-06-25,24.254322,120.720692,0.8981134
C0R720,旭海,2026-06-25,22.205403,120.887614,0.99635977
C0V710,苓雅,2026-06-25,22.622742,120.330669,0.76380026
C0C740,觀音工業區,2026-06-25,25.064764,121.114856,0.97515094
CAC040,拉拉山,2026-06-25,24.699317,121.427133,0.27801934
C0V790,萬山,2026-06-25,22.905944,120.688056,0.71344084
U2HA30,臺大和社,2026-06-25,23.590856,120.888864,0.77369815
C2H9K0,屯原,2026-06-25,24.067969,121.209389,0.6546532
C0AJ90,澳底,2026-06-25,25.0552,121.9253,0.017381705
C0Z100,東華,2026-06-25,23.89525,121.549833,0.18012461
C0G970,三豐,2026-06-25,23.882,120.2895,0.8253726
C0V900,汕尾,2026-06-25,22.4782,120.4151,0.9543589
C1R630,龍泉,2026-06-25,22.66701,120.59091,0.9256505
C1AC50,關渡,2026-06-25,25.133486,121.469331,0.67286474
C0C800,四稜,2026-06-25,24.64733,121.4293,0.5633032
C0F9I0,神岡,2026-06-25,24.272481,120.658314,0.9360935
C0K460,斗南,2026-06-25,23.678734,120.478359,0.33657667
C2O810,曾文,2026-06-25,23.219681,120.497328,0.53466845
467280,後龍,2026-06-25,24.648563,120.831834,0.9619205
C1F9J1,清水林,2026-06-25,24.071242,120.820419,0.9665063
C2A650,火燒寮,2026-06-25,25.002719,121.742892,0.2992934
466930,竹子湖,2026-06-25,25.162078,121.544547,0.9421986
C1I220,樟湖,2026-06-25,23.905333,120.846983,0.82919496
C0I390,仁愛,2026-06-25,24.022122,121.132206,0.7910221
C0Z300,東里,2026-06-25,23.26853,121.30547,0.73506236
C1V590,新發,2026-06-25,23.057019,120.646064,0.90510255
C0K510,水林,2026-06-25,23.572924,120.24597,0.60881615
72S590,東改賓朗果園,2026-06-25,22.813889,121.071278,0.99768883
82A750,茶改北部分場,2026-06-25,24.955778,121.631222,0.88867515
C1A750,石碇服務區,2026-06-25,25.00872,121.646242,0.028635455
C0X300,鹿寮,2026-06-25,23.386047,120.477331,0.37605
C0K590,雲林東勢,2026-06-25,23.674192,120.255721,0.6979596
C2K310,港尾布雞,2026-06-25,23.74834,120.38439,0.693095
C0A570,桶後,2026-06-25,24.848222,121.597992,0.032521736
C0G720,溪州,2026-06-25,23.851589,120.499093,0.8082827
C1V160,達卡努瓦,2026-06-25,23.279811,120.705319,0.9253147
C2M410,馬頭山,2026-06-25,23.324361,120.582017,0.92120224
C0V850,蚵仔寮,2026-06-25,22.7256,120.2527,0.41112328
C0S740,池上,2026-06-25,23.119628,121.209469,0.99476993
C1V390,尖山,2026-06-25,22.813153,120.367789,0.5041122
C0AH70,松山,2026-06-25,25.04871,121.55042,0.14188139
C0N010,鯤鯓國小,2026-06-25,23.1879,120.0889,0.20242023
C0SA60,知本（水試所）,2026-06-25,22.702394,121.082761,0.97560376
C0T9I0,豐濱,2026-06-25,23.583897,121.514806,0.92733854
C0UB00,淡江大學蘭陽校園,2026-06-25,24.823239,121.730383,0.86871797
C0W240,九宮,2026-06-25,24.423753,118.240186,0.7079748
C0T9N0,富里,2026-06-25,23.171639,121.249378,0.95770425
U2HA50,臺大竹山,2026-06-25,23.756972,120.681556,0.36029768
C0V840,鳳鼻頭,2026-06-25,22.5083,120.3591,0.9592249
C0X140,西港,2026-06-25,23.125608,120.203108,0.28617364
72D080,桃改五峰分場,2026-06-25,24.612194,121.157167,0.96617067
C2H9P0,伊拿谷,2026-06-25,23.963211,121.088264,0.63133353
C2K250,崙背,2026-06-25,23.75553,120.31893,0.76931924
C2H9F0,柑林,2026-06-25,24.018658,120.847072,0.8952992
C0TA20,加灣,2026-06-25,24.082025,121.608944,0.017365497
C0V530,阿蓮,2026-06-25,22.883208,120.327508,0.30824292
C0FB30,八仙山苗圃,2026-06-25,24.192719,121.001366,0.97535926
C0E791,卓蘭,2026-06-25,24.3126,120.8244,0.9522215
C2R260,春日,2026-06-25,22.370361,120.628306,0.98043483
C1I030,武界,2026-06-25,23.913225,121.052483,0.54672444
C0R520,崁頂,2026-06-25,22.514781,120.506914,0.9402169
C0R341,牡丹,2026-06-25,22.130036,120.792639,0.9952117
C0R930,萬丹,2026-06-25,22.5885,120.4851,0.80096453
C0S760,紅石,2026-06-25,23.069131,121.126219,0.91420907
C2C410,中央大學,2026-06-25,24.967652,121.185165,0.9508827
C1M610,石磐龍,2026-06-25,23.496606,120.663506,0.94091713
C2C830,中德,2026-06-25,24.981862,121.291344,0.91764665
C0C790,東眼山,2026-06-25,24.8284,121.40888,0.8210199
C0UA10,鴛鴦湖,2026-06-25,24.590269,121.412228,0.16161084
C0R800,丹路,2026-06-25,22.204481,120.750989,0.97684115
C2R240,萬巒,2026-06-25,22.527306,120.625111,0.99434143
C0G920,永靖,2026-06-25,23.924703,120.547533,0.7945909
C2M950,太和,2026-06-25,23.538372,120.702961,0.93553835
C1A630,下盆,2026-06-25,24.771003,121.538622,0.38700178
B2N890,畜產試驗所,2026-06-25,23.058972,120.336406,0.22345252
C0UA30,白嶺,2026-06-25,24.527819,121.519031,0.6065162
467571,新竹,2026-06-25,24.828575,121.01455,0.96903026
C1V580,溪南(特生中心),2026-06-25,23.084972,120.788475,0.9600027
C1T970,大農,2026-06-25,23.615233,121.413331,0.56657904
C0R650,竹田,2026-06-25,22.58486,120.54344,0.9200103
C1H900,清流,2026-06-25,24.080775,120.962997,0.7608903
C1C510,水尾,2026-06-25,24.940081,121.087161,0.983785
C2N170,茅港尾,2026-06-25,23.2061,120.2624,0.24710286
C0F9X0,大雅(中科園區),2026-06-25,24.21528,120.62445,0.87564635
C0SB60,白守蓮,2026-06-25,23.126769,121.401914,0.81954336
C0O970,虎頭埤,2026-06-25,23.021375,120.347878,0.3924053
C0C730,中大臨海站,2026-06-25,24.966126,121.008581,0.9767966
C0X250,新營,2026-06-25,23.310689,120.316681,0.20980221
C0V700,三民,2026-06-25,22.645017,120.311233,0.62141967
C0U870,大礁溪,2026-06-25,24.791042,121.675047,0.8901565
C0E870,高鐵苗栗,2026-06-25,24.60725,120.826094,0.9604206
C2S890,關山,2026-06-25,23.0395,121.175017,0.9928623
C0TA30,鹽寮,2026-06-25,23.845606,121.592664,0.14407715
C0M860,新美,2026-06-25,23.338017,120.683169,0.89135677
C1E701,八卦,2026-06-25,24.491756,120.927619,0.99335414
C2TA90,加納納,2026-06-25,23.466421,121.359867,0.98472196
C0I420,國姓,2026-06-25,24.037803,120.855072,0.91910785
C2D720,關西工作站,2026-06-25,24.757275,121.184792,0.6339366
C2AK30,信賢,2026-06-25,24.84108,121.53492,0.019676043
C0S960,香蘭,2026-06-25,22.587569,120.993375,0.96076113
467620,蘭嶼,2026-06-25,22.0369,121.55843,0.99986804
C2UC40,中城,2026-06-25,24.62865,121.74745,0.12158009
72G600,臺中農改場,2026-06-25,24.003028,120.534389,0.7643888
C0Z210,瑞穗,2026-06-25,23.5239,121.39021,0.96866715
C0M820,達邦,2026-06-25,23.453994,120.749517,0.9692529
C0V860,南寮,2026-06-25,22.7616,120.2339,0.41112328
C0G740,大城,2026-06-25,23.852487,120.320935,0.84257597
C0R920,塭仔,2026-06-25,22.4169,120.5197,0.9480001
C0R470,高樹,2026-06-25,22.826389,120.600806,0.5271855
C0R680,佳樂水,2026-06-25,21.993578,120.861633,0.9987363
C1O870,大棟山,2026-06-25,23.31157,120.52226,0.89857537
C0D360,梅花,2026-06-25,24.678347,121.208558,0.97776043
C0Z190,富世,2026-06-25,24.14743,121.6297,0.13119297
C0AI10,屈尺,2026-06-25,24.92184,121.54475,0.1545613
B2U990,畜試東區分所,2026-06-25,24.669039,121.832561,0.10003166
C0SB80,長濱漁港,2026-06-25,23.313644,121.459994,0.81359047
C0TA50,和仁,2026-06-25,24.241394,121.712472,0.45716196
C2AK40,漁光,2026-06-25,24.96875,121.72132,0.8612254
C0V910,大樹,2026-06-25,22.684645,120.432803,0.80988175
C1R610,西大武山,2026-06-25,22.617719,120.7322,0.94314724
C0G900,線西,2026-06-25,24.143358,120.443536,0.7743223
C0M700,竹崎,2026-06-25,23.526178,120.555508,0.45565772
C2E880,三義,2026-06-25,24.405478,120.749819,0.9808575
C0C720,竹圍,2026-06-25,25.112692,121.239824,0.8652094
C0F9P0,清水,2026-06-25,24.312297,120.562242,0.8420359
C0Z150,吉安光華,2026-06-25,23.930925,121.595153,0.10959943
C0FA80,小雪山天池,2026-06-25,24.28025,121.02627,0.28656837
467300,東吉島,2026-06-25,23.25727,119.66762,0.94533056
C1D640,外坪(五指山),2026-06-25,24.644447,121.090961,0.97528535
C2R9A0,高士國小,2026-06-25,22.12553,120.84653,0.99471194
C0F9O0,潭子,2026-06-25,24.213106,120.703933,0.89010406
C2H9R0,卓社,2026-06-25,23.887894,121.000086,0.7426989
72T250,花蓮農改場,2026-06-25,23.975222,121.563889,0.13924123
C0E780,銅鑼,2026-06-25,24.489681,120.790853,0.98487675
C1T950,太安,2026-06-25,23.666719,121.370128,0.91173714
C0E830,苑裡,2026-06-25,24.439714,120.653053,0.9613101
467270,田中,2026-06-25,23.873803,120.581286,0.5891966
C0SA10,檳榔四格山,2026-06-25,22.810031,121.109308,0.99790514
C1T830,布洛灣,2026-06-25,24.17184,121.57127,0.04886018
C0F970,大坑,2026-06-25,24.173142,120.722289,0.7623174
C1U920,思源,2026-06-25,24.393125,121.347214,0.4418617
C2H9Y0,松茗,2026-06-25,23.8167,120.650765,0.8373443
C0A931,三和,2026-06-25,25.233153,121.595236,0.9119413
C0I010,廬山,2026-06-25,24.033311,121.181808,0.8438372
C2M940,日野賀,2026-06-25,23.434056,120.727169,0.9376876
C0R860,鼻頭,2026-06-25,22.1043,120.8979,0.9975554
C2I260,北坑,2026-06-25,23.92463,121.00683,0.5423161
C0UB20,壯圍,2026-06-25,24.7359,121.8163,0.10565639
C0R790,九棚,2026-06-25,22.14195,120.889281,0.99436516
C0W110,東莒,2026-06-25,25.9652,119.98069,0.99479
C1U930,粉鳥林,2026-06-25,24.497088,121.842479,0.024723968
C0S830,長濱,2026-06-25,23.286817,121.411975,0.9893045
C1F9F1,伯公龍,2026-06-25,24.272392,120.849047,0.9666429
C0UB90,太平山莊,2026-06-25,24.494171,121.536209,0.17438535
C0E810,西湖,2026-06-25,24.562947,120.7485,0.9655957
C1I440,新高口,2026-06-25,23.478744,120.878939,0.34411678
C0O840,王爺宮,2026-06-25,23.222064,120.40085,0.2715809
C0T9G0,鳳林山,2026-06-25,23.735269,121.420131,0.60778666
C0X080,佳里,2026-06-25,23.173039,120.145086,0.20836338
C0FB70,大甲溪埔,2026-06-25,24.370625,120.620067,0.9055862
C0Z310,清水斷崖,2026-06-25,24.218294,121.689142,0.71184516
C0M680,太保,2026-06-25,23.455062,120.331455,0.36477768
C1S820,金峰,2026-06-25,22.590969,120.933236,0.98162943
C0AD10,八里,2026-06-25,25.150211,121.403947,0.2836821
C2K240,草嶺,2026-06-25,23.59555,120.693461,0.9010837
C1SA70,都蘭,2026-06-25,22.87794,121.226881,0.963659
C0K440,二崙,2026-06-25,23.772797,120.408944,0.78059673
C1A760,坪林交控,2026-06-25,24.94284,121.713442,0.0583502
C0F9N0,大里,2026-06-25,24.092464,120.701378,0.6721545
C0SA90,達仁林場,2026-06-25,22.264347,120.823972,0.9939056
C1R290,石門山,2026-06-25,22.112611,120.756597,0.9958198
42HA10,萬大發電廠,2026-06-25,23.978875,121.139639,0.8558958
C0R890,山海,2026-06-25,21.9878,120.7091,0.99845546
C0T9A0,月眉山,2026-06-25,23.809928,121.539828,0.97119355
C0AC70,信義,2026-06-25,25.037822,121.564597,0.08701591
C0K560,棋山,2026-06-25,23.68645,120.603417,0.31114945
C2FB50,出雲,2026-06-25,24.206469,120.902794,0.9594159
C1Z240,中平林道,2026-06-25,23.42115,121.26763,0.7763088
U2H480,溪頭,2026-06-25,23.670306,120.798194,0.75864637
C0M880,好美里,2026-06-25,23.3364,120.138,0.3417594
C0T9E0,大坑,2026-06-25,23.880628,121.581981,0.6882966
C0K530,臺西,2026-06-25,23.701547,120.197559,0.7788106
C1E900,國一N128K,2026-06-25,24.560997,120.844186,0.9631675
C0AJ50,水湳洞,2026-06-25,25.123695,121.862238,0.017759167
C0AI20,白沙灣,2026-06-25,25.283128,121.519058,0.37164122
C2V310,美濃,2026-06-25,22.898792,120.51907,0.5056558
C0A860,大坪,2026-06-25,25.165914,121.632969,0.85887814
C1U850,觀音海岸,2026-06-25,24.38319,121.77856,0.9339567
C2K610,草嶺石壁,2026-06-25,23.602469,120.707731,0.8993395
C0U950,鶯子嶺,2026-06-25,24.89754,121.79244,0.7922732
C0O900,善化,2026-06-25,23.112883,120.297219,0.2197693
C0K550,蔦松,2026-06-25,23.514319,120.229736,0.5994494
E2P980,林試六龜中心,2026-06-25,22.991703,120.645722,0.7867676
C0E590,通霄,2026-06-25,24.471892,120.704622,0.9687377
C1I310,西巒,2026-06-25,23.754486,120.883956,0.49040017
C0A550,泰平,2026-06-25,24.971197,121.823711,0.34607604
C2UC30,金洋,2026-06-25,24.42465,121.74573,0.024980186
C0I360,水里,2026-06-25,23.812553,120.849792,0.73858947
C0R830,高士,2026-06-25,22.121825,120.836781,0.99565285
C1I101,溪頭,2026-06-25,23.661789,120.807647,0.77595246
C0AJ20,野柳,2026-06-25,25.20703,121.690021,0.29660463
C0B060,暖暖,2026-06-25,25.0957,121.7403,0.10295207
C1H920,長豐,2026-06-25,24.102039,120.879897,0.9396149
C2S9B0,利吉,2026-06-25,22.86246,121.15486,0.9932345
C0V360,內門,2026-06-25,22.975481,120.466769,0.58244663
C0R850,林邊,2026-06-25,22.4634,120.5339,0.8971262
C0E930,龍鳳,2026-06-25,24.700034,120.859125,0.9730635
C0U910,冬山,2026-06-25,24.63373,121.7937,0.09959503
C1E721,泰安,2026-06-25,24.489017,120.968036,0.9734969
82H320,茶改中部分場,2026-06-25,23.875611,120.913583,0.7832919
C0M750,布袋,2026-06-25,23.380878,120.167789,0.59860486
C1S860,利嘉,2026-06-25,22.809417,121.050528,0.986271
E2S980,林試太麻里1,2026-06-25,22.598922,120.980044,0.957264
C0X170,關廟,2026-06-25,22.963017,120.327797,0.45932937
C0V720,林園,2026-06-25,22.507747,120.394511,0.9493953
C2M9G0,沄水,2026-06-25,23.38293,120.52666,0.895395
C1I510,線浸林道,2026-06-25,23.761508,120.832956,0.653306
C0D690,外湖,2026-06-25,24.917735,120.968711,0.98293287
C0C750,新興坑尾,2026-06-25,25.0061,121.0971,0.98526275
B2Q810,畜試南區分所,2026-06-25,21.945583,120.802167,0.9987345
C0S790,金崙,2026-06-25,22.538122,120.966875,0.9875682
C0AH90,福山植物園,2026-06-25,24.760717,121.58135,0.736566
C0I540,奇萊稜線,2026-06-25,24.109231,121.326456,0.011110952
C0M850,表湖,2026-06-25,23.24186,120.64166,0.6790215
C0S770,大溪山,2026-06-25,22.478475,120.943325,0.99266624
C0AG80,中和,2026-06-25,24.991622,121.491792,0.091160126
C0T790,大禹嶺,2026-06-25,24.186117,121.316086,0.022642286
C0T9B0,水源,2026-06-25,23.991861,121.537169,0.94102985
C0R840,牡丹池山,2026-06-25,22.168389,120.841225,0.9955374
C1I131,桶頭,2026-06-25,23.641944,120.654117,0.36531615
CAL110,布袋國中,2026-06-25,23.35893,120.18026,0.3432941
C2M9D0,何竹子腳,2026-06-25,23.53641,120.38203,0.48857594
C0Z290,赤柯山,2026-06-25,23.36893,121.38293,0.77769697
C0X280,將軍,2026-06-25,23.214999,120.13577,0.22890276
C0S690,太麻里,2026-06-25,22.60902,120.98533,0.9899897
C0U880,北關,2026-06-25,24.9072,121.8734,0.010236242
CAW010,東引,2026-06-25,26.3588,120.4836,0.990153
C0G810,埔心,2026-06-25,23.947633,120.525456,0.7880065
C0U970,大福,2026-06-25,24.80064,121.81389,0.17680557
C2H9N0,仁愛東眼,2026-06-25,24.026875,121.1205,0.7535218
C1E670,南礦,2026-06-25,24.538278,121.002836,0.96925145
C0M520,東後寮,2026-06-25,23.369908,120.248065,0.422369
C1E461,松安,2026-06-25,24.397972,120.986022,0.97294486
C2N160,西拉雅風管處,2026-06-25,23.189481,120.335297,0.3519178
C2O850,環湖,2026-06-25,23.148665,120.4186,0.4735425
C2M970,碧湖,2026-06-25,23.568632,120.624165,0.9190363
C0A640,石碇,2026-06-25,24.993969,121.662917,0.0583502
E2S960,林試太麻里2,2026-06-25,22.598,120.99775,0.9575564
C0F9Y0,桃山,2026-06-25,24.432739,121.303808,0.0066928673
C1I020,萬大,2026-06-25,23.979817,121.132261,0.7866861
C2UC20,長嶺,2026-06-25,24.70894,121.61162,0.14469342
C0U940,羅東,2026-06-25,24.68184,121.74934,0.2824877
C0M650,朴子,2026-06-25,23.43463,120.23902,0.4018982
C1I500,大尖山,2026-06-25,23.858572,120.994889,0.28479657
C0FB40,中橫21.6k,2026-06-25,24.2499,121.1455,0.9187325
C0G820,田尾,2026-06-25,23.901669,120.509389,0.7880065
E2K600,四湖植物園,2026-06-25,23.676986,120.163433,0.7388731
C0S730,綠島,2026-06-25,22.6672,121.47533,0.9954364
12Q970,東港工作站,2026-06-25,22.479997,120.466058,0.8937772
C1TA00,太魯閣,2026-06-25,24.15773,121.6236,0.014902395
466920,臺北,2026-06-25,25.037658,121.514853,0.14188139
C0R600,舊泰武,2026-06-25,22.588194,120.664944,0.9939655
466910,鞍部,2026-06-25,25.182586,121.529731,0.90727895
C1I230,九份二山,2026-06-25,23.961944,120.845,0.8845589
C2M810,里佳,2026-06-25,23.389125,120.716647,0.9451069
C2A660,瑞芳,2026-06-25,25.113169,121.801147,0.09287799
C0R270,琉球嶼,2026-06-25,22.332244,120.362236,0.9948898
C2V580,瑞山,2026-06-25,22.90304,120.43424,0.6474979
C1T990,高寮,2026-06-25,23.394239,121.356808,0.92808723
C0G620,芬園,2026-06-25,24.015678,120.6213,0.75940603
C1Z140,荖溪,2026-06-25,23.890575,121.45964,0.450199
C1I201,中心崙,2026-06-25,23.728722,120.712097,0.8841203
C1I400,凌霄,2026-06-25,24.018778,121.004456,0.7756058
C1M640,十字,2026-06-25,23.492153,120.753683,0.94314075
G2P820,農試鳳山分所,2026-06-25,22.646611,120.356083,0.78653955
C0Z270,蕃薯寮,2026-06-25,23.73835,121.540108,0.88402075
C2E420,竹南,2026-06-25,24.70898,120.88897,0.9746655
C2D480,打鐵坑,2026-06-25,24.849664,121.150789,0.85484004
C0FB10,出雲山苗圃,2026-06-25,24.23105,120.90475,0.9728421
C0F9Q0,外埔,2026-06-25,24.347817,120.705686,0.9344294
C0K580,高鐵雲林,2026-06-25,23.737456,120.417944,0.69646627
C2I090,鳳凰,2026-06-25,23.728081,120.787347,0.566211
C0U990,員山,2026-06-25,24.74435,121.72247,0.27167475
C0V770,大社,2026-06-25,22.730306,120.346639,0.5533322
C0X120,麻豆,2026-06-25,23.183289,120.248611,0.21804652
C0C670,龍潭,2026-06-25,24.870056,121.221389,0.90355015
C0D680,香山濕地,2026-06-25,24.783581,120.914988,0.98293287
C0S980,勝林山,2026-06-25,22.430439,120.8938,0.9931309
C0V730,大寮,2026-06-25,22.605614,120.395717,0.9343277
C0R570,麟洛,2026-06-25,22.65078,120.52719,0.4545498
C2M930,石卓,2026-06-25,23.478744,120.702264,0.9422139
C0G9B0,和美,2026-06-25,24.105169,120.492131,0.82590365
C2I240,外大坪,2026-06-25,23.9587,120.91788,0.8461411
CAG100,王功漁港,2026-06-25,23.96824,120.32586,0.9405847
C0X290,北門,2026-06-25,23.267772,120.125481,0.22890276
C2F930,大甲,2026-06-25,24.347667,120.640403,0.89850867
C0D650,湖口,2026-06-25,24.904794,121.043628,0.98629826
C0U780,五結,2026-06-25,24.68637,121.79794,0.09959503
C1I250,鯉潭,2026-06-25,23.961922,120.991131,0.5687746
C0R130,阿禮,2026-06-25,22.742908,120.743678,0.98612964
C0X100,臺南市北區,2026-06-25,23.010394,120.194228,0.29583332
C0S920,金峰嘉蘭,2026-06-25,22.594789,120.960825,0.9774641
C0V490,新興,2026-06-25,22.627422,120.298803,0.5488571
C0F9K0,大安,2026-06-25,24.345061,120.588025,0.86698425
C2E970,八甲,2026-06-25,24.535811,120.795983,0.9724214
C0V440,鳳山,2026-06-25,22.646653,120.356122,0.7815478
C1T940,大觀,2026-06-25,23.714206,121.373133,0.9517544
C0E740,造橋,2026-06-25,24.637056,120.864778,0.9780438
C0R100,尾寮山,2026-06-25,22.833111,120.683889,0.9850167
A2K630,臺大雲林校區,2026-06-25,23.730628,120.423903,0.6968837
467990,馬祖,2026-06-25,26.169467,119.923158,0.992034
C0D580,寶山,2026-06-25,24.735006,121.025192,0.9729829
E2P990,林試扇平站,2026-06-25,22.9677,120.6857,0.99085045
C0AI30,三重,2026-06-25,25.057328,121.500629,0.12511054
C0AH00,汐止,2026-06-25,25.066881,121.658778,0.024405925
C1Z040,立山,2026-06-25,23.443356,121.327375,0.9223866
466881,新北,2026-06-25,24.959207,121.525196,0.09961547
C0W130,花嶼,2026-06-25,23.40007,119.32276,0.9799673
C0A950,鼻頭角,2026-06-25,25.129036,121.923372,0.3904501
C0K470,林內,2026-06-25,23.748675,120.609642,0.30416447
C2F990,摩天嶺,2026-06-25,24.322458,120.936819,0.96982324
C2E430,南庄,2026-06-25,24.601775,121.000214,0.98882335
82C160,茶改場,2026-06-25,24.908472,121.185333,0.96554345
C2TB60,南安,2026-06-25,23.29818,121.26157,0.8184606
C0Z320,清水林道,2026-06-25,23.27125,121.188272,0.9066445
C0R760,南仁湖,2026-06-25,22.084681,120.863353,0.9958379
C0M670,大林,2026-06-25,23.600616,120.45841,0.47416708
C0M800,茶山,2026-06-25,23.299075,120.664767,0.9098197
C0A9C0,天母,2026-06-25,25.117494,121.537169,0.09369685
72K220,南改斗南分場,2026-06-25,23.634556,120.477333,0.3362487
72AI40,桃改樹林分場,2026-06-25,24.944503,121.386972,0.21089762
C0S910,蘭嶼燈塔,2026-06-25,22.081197,121.503117,0.99985915
C0B050,八斗子,2026-06-25,25.144754,121.79167,0.056715503
C0U900,內城,2026-06-25,24.71813,121.68766,0.2538771
C0X320,柳營,2026-06-25,23.253328,120.375253,0.26559016
C0M790,新港,2026-06-25,23.553269,120.345728,0.5785572
C0F9T0,西屯,2026-06-25,24.179494,120.641275,0.8603269
C0E950,松安,2026-06-25,24.39792,120.98599,0.97294486
C0SA30,都歷,2026-06-25,23.020333,121.323642,0.97687846
C0C620,蘆竹,2026-06-25,25.084275,121.265767,0.9387641
C0R730,大坪頂,2026-06-25,22.024633,120.69355,0.99754274
C0AJ40,石門,2026-06-25,25.273672,121.601198,0.8293718
C0E750,苗栗,2026-06-25,24.564569,120.824575,0.9620263
C0T870,鯉魚潭,2026-06-25,23.935639,121.508944,0.4215656
C1V170,排雲,2026-06-25,23.463619,120.954147,0.011547897
C2H950,中寮,2026-06-25,23.884447,120.766406,0.7457426
C0R350,貓鼻頭,2026-06-25,21.921774,120.7358,0.99850094
C0V660,岡山,2026-06-25,22.797078,120.294958,0.4317517
C1H941,雙冬,2026-06-25,23.967378,120.802189,0.90307766
C0AJ70,田寮,2026-06-25,25.2698,121.4886,0.3601065
C0AI00,五股,2026-06-25,25.07445,121.42728,0.8204527
C0Z280,德武,2026-06-25,23.47426,121.41071,0.98051
C2RA10,大新,2026-06-25,22.67558,120.57788,0.9255824
C0C460,復興,2026-06-25,24.820208,121.352281,0.96669513
C2AA10,中八仙,2026-06-25,25.11576,121.49199,0.06782057
C2K300,鹿南,2026-06-25,23.63855,120.3636,0.64026767
E2H360,蓮華池,2026-06-25,23.918333,120.885278,0.8314687
C0M640,中埔,2026-06-25,23.42538,120.5229,0.6062355
C2C810,八德蔬果,2026-06-25,24.97858,121.28187,0.91764665
C2M9F0,安溪寮,2026-06-25,23.350334,120.208039,0.34676546
C0W140,金沙,2026-06-25,24.488292,118.408778,0.7018147
C2A540,四堵,2026-06-25,24.8926,121.745736,0.44153276
C0ACA0,新莊,2026-06-25,25.051478,121.446756,0.1727647
C0R220,潮州,2026-06-25,22.534361,120.54,0.9450089
U2HA40,臺大內茅埔,2026-06-25,23.689722,120.851117,0.35083967
467490,臺中,2026-06-25,24.145736,120.684075,0.7343604
C0UB60,明池,2026-06-25,24.650688,121.475277,0.7014008
C0U960,翠峰湖,2026-06-25,24.510856,121.608044,0.23343861
E2HA20,林試畢祿溪站,2026-06-25,24.226944,121.308522,0.41073143
C2M9A0,大華,2026-06-25,23.4824,120.67491,0.96842253
C0V890,前鎮,2026-06-25,22.5718,120.3117,0.66073525
C1F941,雪嶺,2026-06-25,24.280586,121.026642,0.28656837
C2H9E0,國姓南港,2026-06-25,23.911108,120.846556,0.8225336
C0AC80,文山,2026-06-25,25.00235,121.575728,0.13785659
C0F9R0,龍井,2026-06-25,24.184536,120.528972,0.7722666
C0M760,民雄,2026-06-25,23.551754,120.428457,0.47416708
C0UA40,西德山,2026-06-25,24.560647,121.752608,0.8979839
C2TA70,赤科坪,2026-06-25,23.39885,121.39168,0.8559139
C1T920,中興,2026-06-25,23.769503,121.498653,0.29296744
C0D550,雪霸,2026-06-25,24.526972,121.11605,0.9114299
C2F860,梨山,2026-06-25,24.247522,121.243669,0.343601
C0R320,車城,2026-06-25,22.0744,120.716247,0.99214506
C1S870,南美山,2026-06-25,23.15025,121.382333,0.9951441
C0B020,基隆嶼,2026-06-25,25.19141,121.78391,0.062621295
C1U501,牛鬥,2026-06-25,24.637836,121.573656,0.02334792
C0M730,嘉義市東區,2026-06-25,23.457673,120.460531,0.42097434
C2R990,泰武,2026-06-25,22.60686,120.69765,0.9871898
C0S700,知本,2026-06-25,22.684866,121.005642,0.9879362
C1N001,沙崙,2026-06-25,22.935472,120.309406,0.45105937
C0V760,橋頭,2026-06-25,22.757806,120.30575,0.5468276
C2V570,吉東,2026-06-25,22.85418,120.54539,0.5146565
C0G960,福寶,2026-06-25,24.0443,120.3814,0.8378203
C0X210,白河,2026-06-25,23.347466,120.414427,0.2225727
C0S810,東河,2026-06-25,22.972672,121.303986,0.9855579
C2R170,屏東,2026-06-25,22.66027,120.49403,0.45442137
C0R670,楓港,2026-06-25,22.190131,120.692156,0.9766492
C0FA50,霧峰,2026-06-25,24.0419,120.6995,0.6879184
C0UB10,蘇澳,2026-06-25,24.5969,121.8571,0.034574095
C0G950,防潮門,2026-06-25,24.1835,120.4871,0.7809538
C0M740,六腳,2026-06-25,23.492871,120.290625,0.63772565
C1R250,力里,2026-06-25,22.428117,120.629228,0.99589515
C0K330,虎尾,2026-06-25,23.719183,120.442036,0.7033797
C2FA00,烏石坑,2026-06-25,24.273503,120.947617,0.9705701
C0V620,永安,2026-06-25,22.82315,120.236856,0.42577007
C1I330,楓樹林,2026-06-25,23.986803,121.076117,0.622118
C0W200,湖西,2026-06-25,23.596314,119.67275,0.9902332
72Q010,高雄農改場,2026-06-25,22.709333,120.525889,0.453041
C0C680,龜山,2026-06-25,25.02846,121.38656,0.9465453
C2V260,月眉,2026-06-25,22.971003,120.539853,0.48917377
C0V450,鳳森,2026-06-25,22.545064,120.392592,0.95745796
C0FA90,小雪山林道,2026-06-25,24.29515,121.03651,0.043336235
C0U720,南山,2026-06-25,24.43742,121.38167,0.37870148
A2N290,臺南蘭花園區,2026-06-25,23.340258,120.379661,0.2781586
C0R560,新園,2026-06-25,22.5434,120.461558,0.9493953
C0U890,三星,2026-06-25,24.66812,121.65302,0.447147
C1V300,御油山,2026-06-25,23.001983,120.715364,0.96144706
C0U600,礁溪,2026-06-25,24.817539,121.765608,0.20059623
C1T980,龍澗,2026-06-25,24.023289,121.411328,0.57313585
C0R700,枋山,2026-06-25,22.247814,120.660794,0.9595588
C0D670,海天一線,2026-06-25,24.831986,120.914438,0.9863792
C0SA00,歷坵,2026-06-25,22.520969,120.89185,0.9874674
C0M710,東石,2026-06-25,23.458927,120.15385,0.60717386
C0M780,鹿草,2026-06-25,23.41134,120.30835,0.401405
C0U520,雙連埤,2026-06-25,24.753033,121.641303,0.92413515
C0B010,七堵,2026-06-25,25.094819,121.71713,0.06505984
C0R480,長治,2026-06-25,22.693128,120.542622,0.8845239
C1V830,國三S383K,2026-06-25,22.781967,120.426475,0.60718083
12Q980,恆春工作站,2026-06-25,22.079678,120.714425,0.99215716
C1O940,東山服務區,2026-06-25,23.286016,120.398472,0.2809195
C1U840,東澳嶺,2026-06-25,24.5378,121.8485,0.82977533
C1D630,飛鳳山,2026-06-25,24.766464,121.119178,0.9800763
C0S940,石寧山,2026-06-25,23.223772,121.406639,0.9719455
C0K410,北港,2026-06-25,23.573957,120.292802,0.61370707
C2M620,瑞里,2026-06-25,23.545133,120.675197,0.9302613
C0SB70,小港漁港,2026-06-25,23.158558,121.400431,0.8378819
C2O950,安南,2026-06-25,23.076694,120.144861,0.30599767
C0F0E0,南湖圈谷,2026-06-25,24.363714,121.444667,0.0020089776
467610,成功,2026-06-25,23.097486,121.373428,0.90960854
C0G890,伸港,2026-06-25,24.148933,120.484403,0.78860617
C2E540,龍溪,2026-06-25,24.606489,120.783933,0.95539516
C1V200,梅山,2026-06-25,23.268447,120.823556,0.92255855
C0T9H0,加路蘭山,2026-06-25,23.682947,121.5274,0.93303806
C2O930,玉井,2026-06-25,23.126042,120.46055,0.4735425
C1F911,新伯公,2026-06-25,24.221361,120.841069,0.9535235
C0X200,左鎮,2026-06-25,23.056758,120.408522,0.5013415
C2TB50,麻汝,2026-06-25,23.42554,121.39358,0.9824211
C0FA60,鞍馬山工作站,2026-06-25,24.267064,121.000793,0.8740841
C0SB50,叭嗡嗡,2026-06-25,23.047062,121.343223,0.87227
C2R550,新埤,2026-06-25,22.467947,120.582894,0.9940424
C1F891,稍來,2026-06-25,24.265689,121.001142,0.8866083
C2M9C0,紫雲,2026-06-25,23.494914,120.540253,0.36497855
72N240,七股研究中心,2026-06-25,23.081672,120.062894,0.2908335
C0C700,中壢,2026-06-25,24.977661,121.256375,0.92575717
C0M690,水上,2026-06-25,23.419734,120.388909,0.4063756
C0V690,鼓山,2026-06-25,22.623325,120.275575,0.5488572
C0O860,大內,2026-06-25,23.11885,120.36083,0.32758534
C0Z200,萬榮,2026-06-25,23.709219,121.420106,0.51225793
C0T9D0,和中,2026-06-25,24.26676,121.74103,0.45110103
C2S9A0,北份子寮,2026-06-25,22.78561,121.07813,0.99216974
C1O921,楠西,2026-06-25,23.183511,120.484083,0.48568183
C0AJ30,淡水觀海,2026-06-25,25.184591,121.408616,0.2751727
C0V810,左營,2026-06-25,22.67491,120.28491,0.6214194
C0UA70,桃源谷,2026-06-25,24.962606,121.888875,0.8165783
C0X130,官田,2026-06-25,23.193217,120.315422,0.35053858
C1H000,翠峰,2026-06-25,24.109397,121.205211,0.11260053
C0UA90,石城,2026-06-25,24.980444,121.951214,0.357203
C1E681,南勢山,2026-06-25,24.421669,120.923831,0.9812229
C0A9F0,內湖,2026-06-25,25.079422,121.57545,0.08701591
C0K291,宜梧,2026-06-25,23.536281,120.169329,0.58326083
C1K540,口湖,2026-06-25,23.585344,120.180517,0.5880622
C0R780,滿州,2026-06-25,22.024403,120.839892,0.99834573
C0V870,文安,2026-06-25,22.8025,120.2164,0.41112328
C0U650,玉蘭,2026-06-25,24.675286,121.587061,0.16102691
C0R640,東港,2026-06-25,22.46247,120.44074,0.9592249
C0AJ80,板橋,2026-06-25,25.0107,121.4489,0.091160126
C0S660,下馬,2026-06-25,23.150427,121.070312,0.9671645
C2N190,烏樹,2026-06-25,23.32393,120.36989,0.2702299
C1H9B1,阿眉,2026-06-25,24.1263,120.994672,0.8810318
C0UA20,多加屯,2026-06-25,24.368614,121.373189,0.024250777
C0E730,頭份,2026-06-25,24.688247,120.912206,0.97432554
72V140,高改旗南分場,2026-06-25,22.857861,120.516667,0.5021343
C2R490,九如,2026-06-25,22.74049,120.490555,0.453041
C0K480,莿桐,2026-06-25,23.761192,120.502372,0.44466248
C0U980,坪林石牌,2026-06-25,24.86478,121.77396,0.7177968
C0T900,西林,2026-06-25,23.8119,121.441458,0.728681
C1I150,青雲,2026-06-25,23.793361,120.949378,0.7319315
C2E980,和興,2026-06-25,24.505319,120.923016,0.99486685
467350,澎湖,2026-06-25,23.565503,119.563094,0.9877564
C0G800,埔鹽,2026-06-25,24.000394,120.431683,0.85689753
C0H960,草屯,2026-06-25,23.973672,120.68085,0.77464694
C1V780,多納林道,2026-06-25,22.888028,120.737917,0.95468026
C0E920,通霄漁港,2026-06-25,24.498589,120.673876,0.9613856
C0Z330,安通山,2026-06-25,23.290728,121.348528,0.9909168
C0AH10,永和,2026-06-25,25.01125,121.508111,0.08586838
C0AK10,太平里,2026-06-25,25.134937,121.364899,0.44952583
C2G640,鹿港,2026-06-25,24.0753,120.430481,0.81741095
C1E890,國三N149K,2026-06-25,24.463414,120.680019,0.97057295
C1R110,口社,2026-06-25,22.770111,120.645222,0.93778205
C1M870,國三N285K,2026-06-25,23.550319,120.505833,0.3783161
C1E480,鳳美,2026-06-25,24.554803,121.034747,0.9938753
C0T9M0,靜浦,2026-06-25,23.455167,121.495028,0.93534875
C2H9M0,發祥,2026-06-25,24.154094,121.164517,0.8794195
C2G9C0,埔南,2026-06-25,23.99124,120.46969,0.85424423
C0AI40,石牌,2026-06-25,25.115597,121.513139,0.08701591
C1F871,上谷關,2026-06-25,24.203483,121.018644,0.97059894
C2H9G0,百勝,2026-06-25,24.051142,120.909361,0.9765546
C0G880,二水,2026-06-25,23.810742,120.6173,0.43503684
C0R940,加祿堂,2026-06-25,22.3363,120.6217,0.98622996
C0W220,北竿,2026-06-25,26.220358,119.974881,0.9921187
C0O960,崎頂,2026-06-25,22.959547,120.369317,0.48426658
C0TA40,秀林,2026-06-25,24.302864,121.731144,0.8355369
C0S750,向陽,2026-06-25,23.248397,120.986133,0.9330451
C0T9F0,水璉,2026-06-25,23.797131,121.542514,0.91192126
C1M600,頭凍,2026-06-25,23.406364,120.603339,0.9638264
467660,臺東,2026-06-25,22.752211,121.154586,0.96985686
C1D380,新埔,2026-06-25,24.84745,121.03834,0.97109246
C2G980,田頭村,2026-06-25,23.8263,120.444175,0.7760103
C0V750,路竹,2026-06-25,22.854997,120.259439,0.4427355
C0N050,蚵寮,2026-06-25,23.301,120.1104,0.22890276
C2X060,下營,2026-06-25,23.226806,120.256291,0.24710286
72M700,南改鹿草分場,2026-06-25,23.416869,120.283061,0.40019467
C1SA50,利嘉林道,2026-06-25,22.82325,121.009389,0.94912267
C0UB70,太平山中間站,2026-06-25,24.542003,121.513453,0.8237478
C0A940,金山,2026-06-25,25.223628,121.643967,0.47585976
C1V340,大津,2026-06-25,22.888322,120.645986,0.77416265
C0W180,七美,2026-06-25,23.219333,119.444892,0.9557864
C1F9C1,白冷,2026-06-25,24.182844,120.929889,0.95471704
K2E710,苗改生物防治研究中心,2026-06-25,24.422861,120.871833,0.96797484
C0N040,蘆竹溝,2026-06-25,23.2344,120.0961,0.22954035
C0TB40,崇德,2026-06-25,24.166144,121.657414,0.15599501
C0D760,大坪苗圃,2026-06-25,24.5362,121.1108,0.97001904
C2D430,峨眉,2026-06-25,24.6905,121.017189,0.97667366
C2W230,畜試所澎湖,2026-06-25,23.628342,119.513206,0.98611313
C0R880,後壁湖,2026-06-25,21.9457,120.7457,0.99845546
C1I280,埔中,2026-06-25,23.820778,120.642594,0.8518818
467790,墾丁雷達站,2026-06-25,21.948235,120.808028,0.99880075
C0W190,望安,2026-06-25,23.380564,119.494075,0.9781598
C0Z170,卓溪,2026-06-25,23.3443,121.3029,0.58394295
C0F850,東勢,2026-06-25,24.246428,120.833047,0.94591075
466900,淡水,2026-06-25,25.164889,121.448906,0.16175492
C0I370,魚池,2026-06-25,23.895703,120.94135,0.85238975
C0C630,大溪,2026-06-25,24.882853,121.265547,0.9645172
C0A520,山佳,2026-06-25,24.974944,121.402008,0.19521265
C0I110,竹山,2026-06-25,23.761225,120.688156,0.3492712
82H840,茶改南部分場,2026-06-25,23.762528,120.7405,0.68557274
C2SD80,再來山,2026-06-25,23.34371,121.44122,0.9804299
C0G660,溪湖,2026-06-25,23.94835,120.479122,0.78209466
C1T800,洛韶,2026-06-25,24.204558,121.453956,0.6407826
C1T810,慈恩,2026-06-25,24.192044,121.388386,0.26391575
C1E451,象鼻,2026-06-25,24.368617,120.940228,0.9812229
C0AC60,三峽,2026-06-25,24.939025,121.369728,0.80122095
C0I490,萬大林道,2026-06-25,23.928228,121.091411,0.63655645
C1I290,豐丘,2026-06-25,23.668178,120.887417,0.39427403
C1I320,奧萬大,2026-06-25,23.952956,121.178556,0.8434589
C2M910,嘉義大學,2026-06-25,23.471325,120.485903,0.4369292
C0U770,南澳,2026-06-25,24.44935,121.81022,0.024851676
C2TB30,吉安,2026-06-25,23.94538,121.54803,0.21748298
C0A980,社子,2026-06-25,25.109508,121.469681,0.11022626
C0V800,六龜,2026-06-25,22.997889,120.633583,0.76344746
C1G9D0,國一S218K,2026-06-25,23.890641,120.493253,0.806517
C0E570,白沙屯,2026-06-25,24.549447,120.696803,0.95914024
C2F9A0,中竹林,2026-06-25,24.103556,120.751061,0.96849364
C0FA40,臺中電廠,2026-06-25,24.2146,120.4907,0.7053226
C2G9A0,畜試所彰化,2026-06-25,23.86045,120.557964,0.6009677
C0H9C0,合歡山,2026-06-25,24.143442,121.272547,0.0100356415
G2M350,農試溪口農場,2026-06-25,23.58565,120.408111,0.46899664
C0U860,頭城,2026-06-25,24.85323,121.8308,0.049665555
C0R580,南州,2026-06-25,22.48591,120.50274,0.8927702
C0G780,秀水,2026-06-25,24.03405,120.503869,0.76208997
72N100,臺南農改場,2026-06-25,23.0605,120.342194,0.22438127
C0S900,蘭嶼高中,2026-06-25,22.04909,121.51214,0.99984133
C2TA60,六十石,2026-06-25,23.22477,121.31861,0.9203408
C1F9W0,德基,2026-06-25,24.254783,121.190261,0.773011
C2M980,安和,2026-06-25,23.51377,120.31593,0.6352103
C1Z120,壽豐,2026-06-25,23.870853,121.508081,0.17771025
C0W160,烏坵,2026-06-25,24.9944,119.44956,0.98387927
C1I550,國六W023K,2026-06-25,23.979067,120.867742,0.9572716
C0R870,興海,2026-06-25,21.9752,120.8439,0.9987363
C0R140,瑪家,2026-06-25,22.682903,120.686639,0.99282175
C0A530,坪林,2026-06-25,24.938183,121.70975,0.15501006
C0X260,後壁,2026-06-25,23.366358,120.362326,0.20022908
C0Z230,和平,2026-06-25,24.30717,121.77007,0.29131457
C0G770,福興,2026-06-25,24.041289,120.437669,0.85689753
C0H9A0,神木村,2026-06-25,23.532742,120.843667,0.8159249
C0I460,南投,2026-06-25,23.911469,120.687331,0.7693888
C0I480,梅峰,2026-06-25,24.085272,121.173572,0.44314814
C2D770,巨埔,2026-06-25,24.84435,121.11442,0.93047935
C2A560,福山,2026-06-25,24.776203,121.502811,0.10193412
C0AH30,五分山,2026-06-25,25.07125,121.780794,0.67472416
C0FA10,松柏,2026-06-25,24.429115,120.617482,0.9564448
72S200,東改班鳩分場,2026-06-25,22.829528,121.077694,0.99735165
72HA00,中改埔里分場,2026-06-25,23.903208,120.963364,0.8571188
C2H9W0,大坪頂農水,2026-06-25,24.043122,120.932781,0.8474325
C0C650,平鎮,2026-06-25,24.897503,121.214636,0.97690785
C0S930,延平,2026-06-25,22.902581,121.084058,0.996479
C0UA60,樟樹山,2026-06-25,24.41393,121.78325,0.8900883
C2UC10,出水溪,2026-06-25,24.615822,121.652253,0.95713764
C1S670,摩天,2026-06-25,23.199503,121.027,0.92931616
C2C590,觀音,2026-06-25,25.027072,121.153317,0.97996217
C0V630,茄萣,2026-06-25,22.906642,120.182608,0.34815228
466940,基隆,2026-06-25,25.133314,121.740475,0.05847411
C0X050,東河,2026-06-25,23.296598,120.385608,0.2794767
C0R770,保力,2026-06-25,22.071122,120.764111,0.9971275
G2L020,農試嘉義分所,2026-06-25,23.485028,120.473806,0.44228694
C0X240,關子嶺,2026-06-25,23.331169,120.508025,0.7779455
C0I380,集集,2026-06-25,23.828206,120.801467,0.70075643
466990,花蓮,2026-06-25,23.975128,121.613275,0.017367614
C1V220,小關山,2026-06-25,23.154217,120.813603,0.9679474
C1F9G1,慶福山,2026-06-25,24.180853,120.848378,0.94300675
C0FB20,雪山橋,2026-06-25,24.23192,120.9786,0.911996
C0Z250,瑞穗林道,2026-06-25,23.49284,121.30688,0.7372597
C0D590,新豐,2026-06-25,24.87068,120.97721,0.9872635
C2N200,口宵里,2026-06-25,23.15987,120.45988,0.7711586
C0A870,五指山,2026-06-25,25.132153,121.608692,0.9071256
C0UA50,西帽山,2026-06-25,24.555361,121.802628,0.8299571
C2R980,竹田國中,2026-06-25,22.61532,120.52412,0.92167777
C0X160,仁德,2026-06-25,22.968258,120.257689,0.34602234
C1H971,六分寮,2026-06-25,23.92507,120.6378,0.96619254
C2D790,石鹿,2026-06-25,24.56551,121.15841,0.85251206
C0W120,西嶼,2026-06-25,23.5626,119.468436,0.98043466
C0G650,員林,2026-06-25,23.946503,120.585597,0.6779526
C0AD50,鶯歌,2026-06-25,24.951533,121.346294,0.7123476
C2H9Q0,北東眼山,2026-06-25,24.120939,121.189303,0.6005459
C2H9T0,名間竹圍,2026-06-25,23.859914,120.637572,0.895071
C0S990,山豬窟,2026-06-25,22.318619,120.857372,0.99421936
C0X190,安平,2026-06-25,22.993161,120.152181,0.2862231
C0K400,斗六,2026-06-25,23.720583,120.541127,0.44647264
12J990,口湖工作站,2026-06-25,23.589978,120.180394,0.583306
C0O830,北寮,2026-06-25,23.079561,120.495008,0.7068029
C1D410,白蘭,2026-06-25,24.579364,121.079947,0.96587205
C0S970,加津林,2026-06-25,22.416211,120.926942,0.9763453
C0D700,關西,2026-06-25,24.7977,121.1732,0.55768347
C0U750,龜山島,2026-06-25,24.841667,121.953133,0.33996904
C0R810,內獅,2026-06-25,22.305064,120.642986,0.9595588
C2EA10,拉庫斯,2026-06-25,24.53637,121.02137,0.9714392
C1M390,龍美,2026-06-25,23.406728,120.654417,0.93752134
C2K290,崙內,2026-06-25,23.69525,120.35601,0.64026767
C2FB60,頭櫃山,2026-06-25,24.129842,120.858925,0.90779406
C1H840,國三N238K,2026-06-25,23.841008,120.707711,0.4167667
CAQ030,崎峰國小,2026-06-25,22.42565,120.49521,0.8937772
C2E520,大湖,2026-06-25,24.414939,120.870872,0.9676732
467530,阿里山,2026-06-25,23.508208,120.813242,0.32292545
C1E691,南湖,2026-06-25,24.40135,120.837533,0.96713
C0FA30,梧棲,2026-06-25,24.256003,120.523381,0.7722666
C1V231,高中,2026-06-25,23.134911,120.716711,0.867539
C0AK30,硬漢嶺,2026-06-25,25.136097,121.426372,0.94755185
C0F9V0,新社,2026-06-25,24.200172,120.815806,0.9585163
C0H890,埔里,2026-06-25,23.972169,120.952425,0.84787196
C0R690,墾丁,2026-06-25,21.966756,120.810269,0.99925613
C0SD20,富山,2026-06-25,22.822383,121.190825,0.9234623
C0F0D0,審馬陣,2026-06-25,24.381675,121.4203,0.006605101
C2W030,金門農試所,2026-06-25,24.448431,118.451786,0.9699906
C0R820,白鷺,2026-06-25,22.454275,120.666219,0.9899195
C0FB00,大雪山,2026-06-25,24.254668,121.007374,0.8702104
C2O880,南化,2026-06-25,23.17332,120.59413,0.73257005
C1V190,南天池,2026-06-25,23.27403,120.91176,0.67221296
C0E940,雪見,2026-06-25,24.42595,121.01347,0.9509418
K2E360,苗栗農改場,2026-06-25,24.495722,120.829111,0.98005176
CAJ050,海口故事園區,2026-06-25,23.57543,120.14121,0.583306
C2K280,四湖,2026-06-25,23.6304,120.22717,0.7388732
C2H9D0,三隻寮,2026-06-25,24.093078,120.861578,0.96100336
C0O990,媽廟,2026-06-25,22.99175,120.293525,0.34366068
C0Z220,和平林道,2026-06-25,24.343922,121.656317,0.9487879
C0TA10,花蓮漁港,2026-06-25,23.995322,121.638331,0.48609623
72C440,桃園農改場,2026-06-25,24.950944,121.030583,0.98607135
C1E711,馬拉邦山,2026-06-25,24.367306,120.901656,0.9610508
C0SB20,富岡,2026-06-25,22.792467,121.192669,0.93868494
C0D560,竹東,2026-06-25,24.767147,121.057881,0.9349759
C0F9U0,南屯,2026-06-25,24.137006,120.637969,0.79105985
C2SD60,明峰,2026-06-25,22.8671,121.11825,0.99679315
C0M720,番路,2026-06-25,23.464657,120.554156,0.93464124
C0F0A0,雪山圈谷,2026-06-25,24.388594,121.236339,0.0075166654
C1A9N0,四十份,2026-06-25,24.934158,121.593283,0.9481067
C0U760,東澳,2026-06-25,24.52196,121.83318,0.026502958
C0X230,鹽水,2026-06-25,23.272621,120.247641,0.3452136
C2H9H0,苗改南投蜂場,2026-06-25,23.852589,120.693481,0.5301813
C2TB70,達谷寮,2026-06-25,23.38,121.35968,0.9755975
C0R950,萬隆國小,2026-06-25,22.507667,120.587817,0.9948949
467540,大武,2026-06-25,22.35572,120.90374,0.8980691
C0V370,古亭坑,2026-06-25,22.893178,120.401947,0.6313877
C1I340,新興橋,2026-06-25,23.563333,120.868728,0.8741088
C2C480,桃園,2026-06-25,24.992425,121.323172,0.91764665
C0SA80,土坂,2026-06-25,22.453108,120.887572,0.9602627
C0R160,鹽埔,2026-06-25,22.739558,120.530778,0.45285574
C0AC40,大屯山,2026-06-25,25.175675,121.522408,0.8774434
466850,五分山雷達站,2026-06-25,25.071182,121.781205,0.6707817
C2H9L0,馬烈霸,2026-06-25,24.1512,121.201772,0.5986548
C1AI50,國三N016K,2026-06-25,25.034164,121.619664,0.14492811
C2V920,匏子寮,2026-06-25,23.04905,120.55319,0.64384854
C1V600,藤枝,2026-06-25,23.071961,120.757042,0.9637026
C1E601,南勢,2026-06-25,24.572486,120.734842,0.97279066
C0O980,新市,2026-06-25,23.061614,120.298197,0.22098853
C0K420,西螺,2026-06-25,23.800407,120.467394,0.78898954
C0Z050,佳心,2026-06-25,23.34567,121.21316,0.8682342
C0AD30,蘆洲,2026-06-25,25.086594,121.472331,0.13262914
C0V610,梓官,2026-06-25,22.760558,120.267211,0.42741945
K2F750,種苗改良場,2026-06-25,24.225972,120.800917,0.9624559
C0UA80,大溪漁港,2026-06-25,24.941801,121.902955,0.07289238
C1AI60,國一39K邊坡,2026-06-25,25.064361,121.383836,0.8849709
C0W150,金寧,2026-06-25,24.457703,118.328989,0.9018595
C0R960,內埔,2026-06-25,22.608483,120.570714,0.9233994
C2H9S0,龍南,2026-06-25,23.953536,120.833183,0.84730995
C0AH40,平等,2026-06-25,25.129142,121.577086,0.95928323
C0R540,佳冬,2026-06-25,22.419456,120.552375,0.95321304
466950,彭佳嶼,2026-06-25,25.627975,122.079744,0.85088027
C0A890,雙溪,2026-06-25,25.036003,121.864242,0.019567348
C0AH50,林口,2026-06-25,25.072181,121.38084,0.94117945
A2K360,水試臺西試驗場,2026-06-25,23.717231,120.190522,0.7677307
C2M960,外寮,2026-06-25,23.562643,120.665688,0.93725836
C0F9S0,烏日,2026-06-25,24.107058,120.624103,0.71658295
C2N180,鹿陶洋,2026-06-25,23.14325,120.48352,0.48331302
C0C490,八德,2026-06-25,24.928708,121.283289,0.9604968
C0R190,赤山,2026-06-25,22.592333,120.614306,0.9424865
C0T820,天祥,2026-06-25,24.179597,121.495639,0.2032059
C1F9E1,龍安,2026-06-25,24.1605,120.831961,0.956444
C2SD50,順那,2026-06-25,23.04166,121.29332,0.9924031
C0V820,小林,2026-06-25,23.148408,120.63325,0.75720584
C2G870,芳苑,2026-06-25,23.922303,120.320025,0.92256224
C0E850,大河,2026-06-25,24.618069,120.948578,0.9876681
C1U670,寒溪,2026-06-25,24.634,121.71691,0.41386136
C0N020,城西,2026-06-25,23.0568,120.0956,0.2937018
C1Z110,三棧,2026-06-25,24.11557,121.60501,0.6392071
C0R280,檳榔,2026-06-25,22.076078,120.836777,0.9958403
C2H9J0,中台,2026-06-25,23.9996,120.938739,0.9040582
C0F9L0,后里,2026-06-25,24.310436,120.729725,0.9471741
467441,高雄,2026-06-25,22.730432,120.312516,0.5533322
C2N210,岩坑,2026-06-25,23.24614,120.47458,0.543655
C0Z180,新城,2026-06-25,24.040486,121.604878,0.017441873
C0D540,橫山,2026-06-25,24.71116,121.11693,0.9760603
C1D420,太閣南,2026-06-25,24.632808,121.160575,0.73479265
C1E770,公館,2026-06-25,24.526914,120.830806,0.9583444
CAN130,水試所海水繁養殖中心,2026-06-25,23.120802,120.07968,0.2908335
C1I430,翠華,2026-06-25,24.191961,121.224339,0.14582258
C1M400,菜瓜坪,2026-06-25,23.251928,120.576103,0.705691
C0G730,二林,2026-06-25,23.903325,120.376081,0.88954407
72M360,南改義竹分場,2026-06-25,23.360694,120.279361,0.42278686
V2K620,麥寮合作社,2026-06-25,23.753836,120.294783,0.7636893
C0Z070,舞鶴,2026-06-25,23.46811,121.37407,0.98614675
C0B040,大武崙,2026-06-25,25.166676,121.706993,0.3703035
C1Z030,紅葉,2026-06-25,23.493119,121.338806,0.9819852
C1I050,丹大,2026-06-25,23.753747,121.141147,0.09756216
C0I080,信義,2026-06-25,23.689694,120.851036,0.35343266
C2TB80,庄子底,2026-06-25,23.71794,121.49438,0.18797332
C0D750,樂山林道6k,2026-06-25,24.49999,121.08773,0.5480683
C2M920,朴子農改,2026-06-25,23.469889,120.259383,0.40062693
C2A880,福隆,2026-06-25,25.017842,121.942083,0.32876816
C0Z160,鳳林,2026-06-25,23.746114,121.453411,0.22943857
C0UB80,翠峰林道6K,2026-06-25,24.49773,121.568625,0.113429084
C0V210,復興,2026-06-25,23.222403,120.806089,0.9203614
C0H990,昆陽,2026-06-25,24.121322,121.273642,0.015444022
C0R741,獅子,2026-06-25,22.202308,120.705236,0.9737455
C0S710,鹿野,2026-06-25,22.917711,121.122994,0.998058
C0I530,小奇萊,2026-06-25,24.131764,121.295717,0.012555008
C0FA70,大雪山埡口,2026-06-25,24.26867,121.03062,0.2265411
C2K630,荷苞,2026-06-25,23.657717,120.595144,0.31690785
C0Z080,富源,2026-06-25,23.587642,121.378225,0.89117515
C2M9E0,旺來山,2026-06-25,23.555153,120.486463,0.3768076
C0SB10,美和,2026-06-25,22.682078,121.060236,0.9779241
C2K620,馬光農場,2026-06-25,23.721453,120.378864,0.693095
C1I140,卡奈托灣,2026-06-25,23.754364,121.087872,0.5075005
C0I520,玉山風口,2026-06-25,23.470489,120.955994,0.009593373
C1G691,下水埔,2026-06-25,23.816114,120.5676,0.5886743
C0X110,臺南市南區,2026-06-25,22.961189,120.188378,0.34537938
C0V680,仁武,2026-06-25,22.701083,120.347722,0.5533322
C2G840,北斗,2026-06-25,23.877586,120.514222,0.81182927
C2TB90,長橋,2026-06-25,23.6874,121.46186,0.2485541
C0R900,竹坑,2026-06-25,22.1385,120.7022,0.9766492
C0G860,社頭,2026-06-25,23.897647,120.5862,0.59287953
C0X150,安定,2026-06-25,23.102614,120.227839,0.2655506
C0R590,里港,2026-06-25,22.77919,120.49459,0.5637782
C0E610,馬都安,2026-06-25,24.451272,120.930192,0.98672074
C0E550,明德,2026-06-25,24.583486,120.885411,0.9588304
C0R150,三地門,2026-06-25,22.709889,120.639944,0.9457937
C0G910,花壇,2026-06-25,24.032076,120.549461,0.76840645
C1D400,鳥嘴山,2026-06-25,24.71909,121.28387,0.9071747
C0K500,元長,2026-06-25,23.64981,120.315024,0.6937763
C0F0B0,石岡,2026-06-25,24.276061,120.777644,0.94796485
C2V250,甲仙,2026-06-25,23.080106,120.591758,0.66841483
C0SA20,金崙山,2026-06-25,22.567419,120.959667,0.9819962
C0V350,溪埔,2026-06-25,22.738578,120.446797,0.5761145
C0M660,溪口,2026-06-25,23.604131,120.403569,0.4719256
C1S880,壽卡,2026-06-25,22.238911,120.858903,0.9974495
72D680,桃改新埔分場,2026-06-25,24.834444,121.066111,0.9708238
