站號,站名,日期,lat,lon,BlastGRU-TW
C1O850,環湖,2026-02-08,23.148617,120.418633,0.017409107
C0S890,關山,2026-02-08,23.0395,121.175017,0.004375117
C1R120,上德文,2026-02-08,22.763272,120.704442,0.006353752
CAH030,茶改場竹圍站,2026-02-08,23.860083,120.637528,0.023631003
V2K610,大庄合作社,2026-02-08,23.8068,120.367939,0.0025829044
G2AI50,關渡,2026-02-08,25.11575,121.492,0.035199564
C1S800,華源,2026-02-08,22.657883,121.02325,0.0038609602
C0R550,新埤,2026-02-08,22.467947,120.582894,0.098746486
C1O880,關山,2026-02-08,23.173397,120.594092,0.014065743
V2C260,八德蔬果,2026-02-08,24.978508,121.281819,0.0054920292
C0R260,春日,2026-02-08,22.370361,120.628306,0.08660911
C1I211,蘆竹湳,2026-02-08,23.934019,120.811994,0.0115195075
C1I260,北坑,2026-02-08,23.9246,121.006903,0.021481598
467290,古坑,2026-02-08,23.633639,120.551889,0.022994334
C0SA40,瑞和,2026-02-08,22.974361,121.156697,0.003412771
C0R490,九如,2026-02-08,22.7405,120.490503,0.23501718
C0D430,峨眉,2026-02-08,24.6905,121.017189,0.0029361479
C1I240,外大坪,2026-02-08,23.958697,120.917931,0.0130273495
C1V570,吉東,2026-02-08,22.85422,120.5454,0.15794905
C0D480,打鐵坑,2026-02-08,24.849664,121.150789,0.0036125993
V2C250,八德合作社,2026-02-08,24.93775,121.266389,0.004725399
C0C480,桃園,2026-02-08,24.992425,121.323172,0.006605513
