站號,站名,日期,lat,lon,BLBTSLS
C0R710,龍磐,2026-03-15,21.931672,120.838942,0.15314735
C1F9D1,白毛台,2026-03-15,24.158325,120.886933,6.2331442e-09
C0G940,竹塘,2026-03-15,23.848253,120.386764,8.267015e-09
467590,恆春,2026-03-15,22.003897,120.746339,0.26799446
C1O850,環湖,2026-03-15,23.148617,120.418633,4.0710515e-09
C0U710,太平山,2026-03-15,24.505486,121.525656,7.60335e-08
C0E820,獅潭,2026-03-15,24.539133,120.920042,7.3776886e-07
C2SD70,二層坪,2026-03-15,22.94105,121.16838,4.2698304e-07
C0V880,興達,2026-03-15,22.8778,120.2127,1.0174198e-06
C0S890,關山,2026-03-15,23.0395,121.175017,3.7902308e-07
C0SB30,新蘭,2026-03-15,22.869214,121.223228,2.416787e-06
C2R970,屏科大,2026-03-15,22.648275,120.619247,3.323551e-09
C1Z130,銅門,2026-03-15,23.965694,121.492842,2.1257782e-07
C0AD40,土城,2026-03-15,24.973208,121.445169,1.0804587e-06
CAN140,六官養殖協會,2026-03-15,23.22881,120.29962,1.0248383e-06
C0X180,山上,2026-03-15,23.0757,120.363253,3.8178456e-07
C0F9Z0,雪山東峰,2026-03-15,24.388792,121.268675,4.1514667e-08
C1M480,獨立山,2026-03-15,23.537022,120.607797,5.9561427e-09
C0X220,學甲,2026-03-15,23.230367,120.182187,1.7907711e-06
467650,日月潭,2026-03-15,23.881325,120.90805,7.9299864e-09
A2K570,古坑(花卉中心),2026-03-15,23.633531,120.552392,3.4641428e-09
C0K600,箔子寮,2026-03-15,23.6197,120.14,0.0019521083
C0G830,埤頭,2026-03-15,23.866003,120.452806,3.034873e-09
C0S950,七塊厝,2026-03-15,22.954453,121.229922,1.052414e-07
467110,金門,2026-03-15,24.407306,118.289281,1.5724801e-07
C0AH80,深坑,2026-03-15,25.002703,121.628328,2.514978e-05
C0A970,三貂角,2026-03-15,25.007606,122.002058,0.0015495672
C2D730,寶山農場,2026-03-15,24.732444,120.976153,6.761565e-05
C0K430,褒忠,2026-03-15,23.690938,120.303634,0.0002416004
467480,嘉義,2026-03-15,23.495925,120.432906,2.5218694e-09
C0V400,阿公店,2026-03-15,22.804194,120.355528,0.0014894068
C0E960,觀霧分站,2026-03-15,24.505781,121.113921,2.4788452e-08
467550,玉山,2026-03-15,23.48718,120.95943,4.4268393e-08
C0R440,大漢山,2026-03-15,22.405264,120.753181,2.7447161e-08
C0SD30,東清國小,2026-03-15,22.057128,121.564922,0.99579906
C1F9B1,桐林,2026-03-15,24.066172,120.735194,2.2931377e-09
C2H9U0,鳳鵬,2026-03-15,23.763919,120.788061,2.1314628e-09
C0K390,土庫,2026-03-15,23.679029,120.395574,3.7022265e-09
C1I450,望鄉山,2026-03-15,23.594153,120.944286,2.7665438e-08
C0E910,海埔,2026-03-15,24.648767,120.772435,3.4492194e-05
B2E890,畜試北區分所,2026-03-15,24.527806,120.770972,6.939771e-06
C0R750,四林格山,2026-03-15,22.076989,120.802439,0.9999559
C0F0C0,中坑,2026-03-15,24.248517,120.903319,5.6078853e-09
C1I121,大鞍,2026-03-15,23.678381,120.760017,8.047387e-09
C2G9E0,移民庄,2026-03-15,23.9784,120.40283,2.2048205e-06
72U480,花改蘭陽分場,2026-03-15,24.686306,121.716583,1.2784282e-07
C0A770,科教館,2026-03-15,25.096356,121.516507,1.2699928e-06
C0AJ60,六塊厝,2026-03-15,25.24,121.4481,0.9957407
C0R620,墾雷,2026-03-15,21.900836,120.855269,0.18404022
467420,永康,2026-03-15,23.038386,120.2367,1.434021e-07
C2M530,奮起湖,2026-03-15,23.493903,120.699253,8.509516e-09
C0I410,名間,2026-03-15,23.837053,120.701447,1.9297564e-09
A2C560,農工中心,2026-03-15,24.985917,121.239833,0.73845035
C0V740,旗山,2026-03-15,22.888614,120.483597,2.7672709e-09
C0Z061,玉里,2026-03-15,23.3215,121.339656,1.7773188e-07
C0S840,南田,2026-03-15,22.279725,120.889208,0.9848585
C1I470,杉林溪,2026-03-15,23.639517,120.786444,1.104027e-08
C1X040,東原,2026-03-15,23.291597,120.463822,3.821322e-09
C0R660,枋寮,2026-03-15,22.367722,120.590647,1.9090492e-06
C1R120,上德文,2026-03-15,22.763272,120.704442,1.979907e-08
C0K450,大埤,2026-03-15,23.646074,120.431537,3.879863e-09
C0UA00,土場,2026-03-15,24.576533,121.495333,3.1391627e-07
467080,宜蘭,2026-03-15,24.763975,121.756528,1.2928184e-07
C0N030,四草,2026-03-15,23.0235,120.1116,9.623055e-06
467410,臺南,2026-03-15,22.99328,120.20492,2.6555284e-07
C0V650,彌陀,2026-03-15,22.783806,120.246361,0.0030068834
C0D660,新竹市東區,2026-03-15,24.798681,120.986942,0.0004413013
82S580,茶改東部分場,2026-03-15,22.907694,121.130139,4.896239e-07
C0SB40,興隆,2026-03-15,22.913661,121.257469,6.541704e-06
467050,新屋,2026-03-15,25.006725,121.047492,0.99945533
C0C710,大溪永福,2026-03-15,24.892936,121.324975,0.20123078
C0FA20,溫寮,2026-03-15,24.372177,120.583125,8.199545e-05
C0V640,湖內,2026-03-15,22.887139,120.2445,9.383679e-07
C0R910,下寮,2026-03-15,22.3929,120.5548,9.600826e-06
C0Z020,明里,2026-03-15,23.208717,121.262342,1.3881998e-07
C0M770,嘉義梅山,2026-03-15,23.585398,120.555587,2.7012497e-09
C0C660,楊梅,2026-03-15,24.912375,121.143047,0.7939444
C0SD40,牛頭山,2026-03-15,22.676661,121.506944,0.9989094
C1E511,新開,2026-03-15,24.347703,120.827019,1.1145531e-08
G2F820,農試所(霧峰),2026-03-15,24.031261,120.688133,2.369443e-09
C2M990,大巃頂,2026-03-15,23.5547,120.61439,8.595417e-09
C1I070,和社,2026-03-15,23.591131,120.888861,5.256799e-09
C2E990,新坪頂,2026-03-15,24.30201,120.8574,1.0708927e-08
C0TA80,立霧山,2026-03-15,24.183258,121.641899,9.490863e-08
C2F000,大肚,2026-03-15,24.15295,120.572117,6.827527e-09
C1S850,豐南,2026-03-15,23.122139,121.262389,8.976878e-08
C2M9B0,西興,2026-03-15,23.2428,120.57617,4.0357433e-09
C2A920,富貴角,2026-03-15,25.263783,121.565258,0.3735285
C0T960,光復,2026-03-15,23.660694,121.424964,9.455864e-08
C0F9M0,豐原,2026-03-15,24.254322,120.720692,1.17732615e-08
C0R720,旭海,2026-03-15,22.205403,120.887614,0.99948806
C0V710,苓雅,2026-03-15,22.622742,120.330669,0.0016047669
C0C740,觀音工業區,2026-03-15,25.064764,121.114856,0.9997013
CAC040,拉拉山,2026-03-15,24.699317,121.427133,1.1989181e-07
C0V790,萬山,2026-03-15,22.905944,120.688056,1.995097e-08
U2HA30,臺大和社,2026-03-15,23.590856,120.888864,5.256789e-09
C2H9K0,屯原,2026-03-15,24.067969,121.209389,1.8213928e-08
C0AJ90,澳底,2026-03-15,25.0552,121.9253,7.797425e-05
C0Z100,東華,2026-03-15,23.89525,121.549833,9.0682065e-08
C0G970,三豐,2026-03-15,23.882,120.2895,0.77221686
C0V900,汕尾,2026-03-15,22.4782,120.4151,1.2309604e-05
C1R630,龍泉,2026-03-15,22.66701,120.59091,3.8733123e-09
C1AC50,關渡,2026-03-15,25.133486,121.469331,0.30930734
C0C800,四稜,2026-03-15,24.64733,121.4293,1.6133468e-07
C0F9I0,神岡,2026-03-15,24.272481,120.658314,1.1115194e-08
C0K460,斗南,2026-03-15,23.678734,120.478359,3.828194e-09
C2O810,曾文,2026-03-15,23.219681,120.497328,3.9647414e-09
467280,後龍,2026-03-15,24.648563,120.831834,1.5256387e-05
C1F9J1,清水林,2026-03-15,24.071242,120.820419,3.9091748e-09
C2A650,火燒寮,2026-03-15,25.002719,121.742892,2.9009009e-06
466930,竹子湖,2026-03-15,25.162078,121.544547,1.71641e-05
C1I220,樟湖,2026-03-15,23.905333,120.846983,6.503896e-09
C0I390,仁愛,2026-03-15,24.022122,121.132206,7.2545965e-09
C0Z300,東里,2026-03-15,23.26853,121.30547,1.6313638e-07
C1V590,新發,2026-03-15,23.057019,120.646064,1.0658005e-08
C0K510,水林,2026-03-15,23.572924,120.24597,9.1501315e-06
72S590,東改賓朗果園,2026-03-15,22.813889,121.071278,3.3557976e-07
82A750,茶改北部分場,2026-03-15,24.955778,121.631222,1.2797594e-06
C1A750,石碇服務區,2026-03-15,25.00872,121.646242,2.4024792e-05
C0X300,鹿寮,2026-03-15,23.386047,120.477331,2.3545985e-09
C0K590,雲林東勢,2026-03-15,23.674192,120.255721,0.00018383138
C2K310,港尾布雞,2026-03-15,23.74834,120.38439,3.2273846e-09
C0A570,桶後,2026-03-15,24.848222,121.597992,1.8362177e-06
C1S800,華源,2026-03-15,22.657883,121.02325,3.214395e-06
C0G720,溪州,2026-03-15,23.851589,120.499093,3.0013871e-09
C1V160,達卡努瓦,2026-03-15,23.279811,120.705319,1.0292195e-08
C2M410,馬頭山,2026-03-15,23.324361,120.582017,3.8372443e-09
C0V850,蚵仔寮,2026-03-15,22.7256,120.2527,0.0034525064
C0S740,池上,2026-03-15,23.119628,121.209469,2.491528e-07
C1V390,尖山,2026-03-15,22.813153,120.367789,0.0003151105
C0AH70,松山,2026-03-15,25.04871,121.55042,1.1776561e-06
C0N010,鯤鯓國小,2026-03-15,23.1879,120.0889,2.6738558e-06
C0R550,新埤,2026-03-15,22.467947,120.582894,9.611504e-07
C0SA60,知本（水試所）,2026-03-15,22.702394,121.082761,3.6001173e-05
C0T9I0,豐濱,2026-03-15,23.583897,121.514806,2.0541513e-05
C0UB00,淡江大學蘭陽校園,2026-03-15,24.823239,121.730383,1.3174159e-07
C0W240,九宮,2026-03-15,24.423753,118.240186,1.5238922e-07
C0T9N0,富里,2026-03-15,23.171639,121.249378,1.2300904e-07
U2HA50,臺大竹山,2026-03-15,23.756972,120.681556,1.888166e-09
C0V840,鳳鼻頭,2026-03-15,22.5083,120.3591,7.5715993e-06
C0X140,西港,2026-03-15,23.125608,120.203108,8.713524e-07
72D080,桃改五峰分場,2026-03-15,24.612194,121.157167,1.4112428e-08
C2H9P0,伊拿谷,2026-03-15,23.963211,121.088264,6.011726e-09
C2K250,崙背,2026-03-15,23.75553,120.31893,0.0002211164
C2H9F0,柑林,2026-03-15,24.018658,120.847072,2.3744287e-09
C0TA20,加灣,2026-03-15,24.082025,121.608944,6.891671e-07
C0V530,阿蓮,2026-03-15,22.883208,120.327508,1.2831324e-06
C0FB30,八仙山苗圃,2026-03-15,24.192719,121.001366,5.5040155e-09
C1O880,關山,2026-03-15,23.173397,120.594092,3.4023666e-09
C0E791,卓蘭,2026-03-15,24.3126,120.8244,1.091069e-08
C1I030,武界,2026-03-15,23.913225,121.052483,6.5020855e-09
C0R520,崁頂,2026-03-15,22.514781,120.506914,2.0185576e-05
C0R341,牡丹,2026-03-15,22.130036,120.792639,0.99989027
C0R930,萬丹,2026-03-15,22.5885,120.4851,4.7835433e-06
C0S760,紅石,2026-03-15,23.069131,121.126219,5.498604e-08
C2C410,中央大學,2026-03-15,24.967652,121.185165,0.6338986
C1M610,石磐龍,2026-03-15,23.496606,120.663506,6.8955543e-09
C0C790,東眼山,2026-03-15,24.8284,121.40888,1.664868e-07
C0UA10,鴛鴦湖,2026-03-15,24.590269,121.412228,7.752647e-08
C0R800,丹路,2026-03-15,22.204481,120.750989,0.9997673
C0G920,永靖,2026-03-15,23.924703,120.547533,2.7935158e-07
C2M950,太和,2026-03-15,23.538372,120.702961,8.434924e-09
C1A630,下盆,2026-03-15,24.771003,121.538622,4.5827423e-07
B2N890,畜產試驗所,2026-03-15,23.058972,120.336406,3.6256978e-07
C0UA30,白嶺,2026-03-15,24.527819,121.519031,8.210573e-08
467571,新竹,2026-03-15,24.828575,121.01455,0.029471448
C1V580,溪南(特生中心),2026-03-15,23.084972,120.788475,1.4994862e-08
C1T970,大農,2026-03-15,23.615233,121.413331,6.4183646e-06
C0R650,竹田,2026-03-15,22.58486,120.54344,1.6685788e-05
C1H900,清流,2026-03-15,24.080775,120.962997,7.3398594e-09
C1C510,水尾,2026-03-15,24.940081,121.087161,0.9956098
C2N170,茅港尾,2026-03-15,23.2061,120.2624,1.0248383e-06
C0F9X0,大雅(中科園區),2026-03-15,24.21528,120.62445,9.806636e-09
C0SB60,白守蓮,2026-03-15,23.126769,121.401914,6.226786e-05
C0O970,虎頭埤,2026-03-15,23.021375,120.347878,3.9549064e-07
C0C730,中大臨海站,2026-03-15,24.966126,121.008581,0.44704738
C0X250,新營,2026-03-15,23.310689,120.316681,9.384556e-07
C0V700,三民,2026-03-15,22.645017,120.311233,0.0033727793
C0U870,大礁溪,2026-03-15,24.791042,121.675047,1.0765064e-07
C0E870,高鐵苗栗,2026-03-15,24.60725,120.826094,1.9362209e-05
C0TA30,鹽寮,2026-03-15,23.845606,121.592664,9.7745016e-08
C0M860,新美,2026-03-15,23.338017,120.683169,7.4350957e-09
C1E701,八卦,2026-03-15,24.491756,120.927619,2.157387e-08
C2TA90,加納納,2026-03-15,23.466421,121.359867,2.986661e-06
C0I420,國姓,2026-03-15,24.037803,120.855072,2.4139375e-09
C2D720,關西工作站,2026-03-15,24.757275,121.184792,4.4657102e-07
C0S960,香蘭,2026-03-15,22.587569,120.993375,4.906004e-05
467620,蘭嶼,2026-03-15,22.0369,121.55843,0.9624116
C0R260,春日,2026-03-15,22.370361,120.628306,0.99977213
72G600,臺中農改場,2026-03-15,24.003028,120.534389,2.2595066e-07
C0Z210,瑞穗,2026-03-15,23.5239,121.39021,3.2963995e-05
C0M820,達邦,2026-03-15,23.453994,120.749517,5.876946e-09
C0V860,南寮,2026-03-15,22.7616,120.2339,0.0034525096
C0G740,大城,2026-03-15,23.852487,120.320935,0.7502769
C0R920,塭仔,2026-03-15,22.4169,120.5197,1.5799216e-05
C0R470,高樹,2026-03-15,22.826389,120.600806,3.171312e-09
C0R680,佳樂水,2026-03-15,21.993578,120.861633,0.19930363
C1O870,大棟山,2026-03-15,23.31157,120.52226,1.0299559e-08
C0D360,梅花,2026-03-15,24.678347,121.208558,7.097044e-08
C0Z190,富世,2026-03-15,24.14743,121.6297,3.3579695e-06
C0AI10,屈尺,2026-03-15,24.92184,121.54475,8.98898e-07
B2U990,畜試東區分所,2026-03-15,24.669039,121.832561,1.748718e-07
C0SB80,長濱漁港,2026-03-15,23.313644,121.459994,0.00011740276
C0TA50,和仁,2026-03-15,24.241394,121.712472,8.557262e-07
C0V910,大樹,2026-03-15,22.684645,120.432803,3.6233343e-09
C1R610,西大武山,2026-03-15,22.617719,120.7322,2.5430996e-08
C0G900,線西,2026-03-15,24.143358,120.443536,1.589739e-06
C0M700,竹崎,2026-03-15,23.526178,120.555508,2.4569418e-09
C2E880,三義,2026-03-15,24.405478,120.749819,1.0137233e-07
C0C720,竹圍,2026-03-15,25.112692,121.239824,0.9972827
C0F9P0,清水,2026-03-15,24.312297,120.562242,2.9823973e-08
C0Z150,吉安光華,2026-03-15,23.930925,121.595153,1.0220112e-07
C0FA80,小雪山天池,2026-03-15,24.28025,121.02627,2.7704726e-08
467300,東吉島,2026-03-15,23.25727,119.66762,0.9903333
C1D640,外坪(五指山),2026-03-15,24.644447,121.090961,1.5443071e-07
C2R9A0,高士國小,2026-03-15,22.12553,120.84653,0.99971825
C0F9O0,潭子,2026-03-15,24.213106,120.703933,1.2426862e-08
C2H9R0,卓社,2026-03-15,23.887894,121.000086,9.1344985e-09
72T250,花蓮農改場,2026-03-15,23.975222,121.563889,9.4666184e-08
C0E780,銅鑼,2026-03-15,24.489681,120.790853,1.9168044e-06
C1T950,太安,2026-03-15,23.666719,121.370128,3.546714e-08
C0E830,苑裡,2026-03-15,24.439714,120.653053,0.00018193902
467270,田中,2026-03-15,23.873803,120.581286,2.8859268e-09
C0SA10,檳榔四格山,2026-03-15,22.810031,121.109308,1.9010592e-07
C1T830,布洛灣,2026-03-15,24.17184,121.57127,5.7958977e-07
C0F970,大坑,2026-03-15,24.173142,120.722289,1.0659408e-08
C1U920,思源,2026-03-15,24.393125,121.347214,3.0107863e-08
C2H9Y0,松茗,2026-03-15,23.8167,120.650765,2.242813e-09
C0A931,三和,2026-03-15,25.233153,121.595236,0.053744264
C0I010,廬山,2026-03-15,24.033311,121.181808,1.3356027e-08
C2M940,日野賀,2026-03-15,23.434056,120.727169,6.3508834e-09
C0R860,鼻頭,2026-03-15,22.1043,120.8979,0.13091075
C0UB20,壯圍,2026-03-15,24.7359,121.8163,1.33286e-07
C0R790,九棚,2026-03-15,22.14195,120.889281,0.9811922
C0W110,東莒,2026-03-15,25.9652,119.98069,0.34838468
C1U930,粉鳥林,2026-03-15,24.497088,121.842479,7.2836638e-06
C1I211,蘆竹湳,2026-03-15,23.934019,120.811994,2.9257488e-09
C0S830,長濱,2026-03-15,23.286817,121.411975,1.9062984e-06
C1F9F1,伯公龍,2026-03-15,24.272392,120.849047,1.1189665e-08
C0UB90,太平山莊,2026-03-15,24.494171,121.536209,7.60074e-08
C0E810,西湖,2026-03-15,24.562947,120.7485,0.046153054
C1I440,新高口,2026-03-15,23.478744,120.878939,1.996418e-08
C0O840,王爺宮,2026-03-15,23.222064,120.40085,4.4301234e-09
C0T9G0,鳳林山,2026-03-15,23.735269,121.420131,6.9169495e-08
C0X080,佳里,2026-03-15,23.173039,120.145086,2.3209125e-06
C0FB70,大甲溪埔,2026-03-15,24.370625,120.620067,4.49821e-05
C0Z310,清水斷崖,2026-03-15,24.218294,121.689142,3.9551855e-07
C0M680,太保,2026-03-15,23.455062,120.331455,4.1151457e-06
C1S820,金峰,2026-03-15,22.590969,120.933236,5.1818006e-06
C0AD10,八里,2026-03-15,25.150211,121.403947,0.972519
C2K240,草嶺,2026-03-15,23.59555,120.693461,6.7061423e-09
C1SA70,都蘭,2026-03-15,22.87794,121.226881,2.1900444e-06
C0K440,二崙,2026-03-15,23.772797,120.408944,2.9062546e-09
C1A760,坪林交控,2026-03-15,24.94284,121.713442,5.732172e-06
C0F9N0,大里,2026-03-15,24.092464,120.701378,2.350179e-09
C0SA90,達仁林場,2026-03-15,22.264347,120.823972,0.9999505
C1R290,石門山,2026-03-15,22.112611,120.756597,0.99947476
42HA10,萬大發電廠,2026-03-15,23.978875,121.139639,6.326196e-09
C0R890,山海,2026-03-15,21.9878,120.7091,0.3011914
C0T9A0,月眉山,2026-03-15,23.809928,121.539828,3.939326e-08
C0AC70,信義,2026-03-15,25.037822,121.564597,1.2385935e-06
C0K560,棋山,2026-03-15,23.68645,120.603417,2.935654e-09
C2FB50,出雲,2026-03-15,24.206469,120.902794,5.915566e-09
C1Z240,中平林道,2026-03-15,23.42115,121.26763,9.988811e-08
U2H480,溪頭,2026-03-15,23.670306,120.798194,7.735894e-09
C0M880,好美里,2026-03-15,23.3364,120.138,2.0066393e-06
C0T9E0,大坑,2026-03-15,23.880628,121.581981,1.0158292e-07
C0K530,臺西,2026-03-15,23.701547,120.197559,0.08055464
C1E900,國一N128K,2026-03-15,24.560997,120.844186,7.2468792e-06
C0AJ50,水湳洞,2026-03-15,25.123695,121.862238,6.400523e-05
C0AI20,白沙灣,2026-03-15,25.283128,121.519058,0.9990988
C2V310,美濃,2026-03-15,22.898792,120.51907,2.810077e-09
C0A860,大坪,2026-03-15,25.165914,121.632969,1.2088968e-06
C1U850,觀音海岸,2026-03-15,24.38319,121.77856,6.573879e-08
C2K610,草嶺石壁,2026-03-15,23.602469,120.707731,6.893174e-09
C0U950,鶯子嶺,2026-03-15,24.89754,121.79244,2.2892105e-07
C0O900,善化,2026-03-15,23.112883,120.297219,5.3392944e-07
C0K550,蔦松,2026-03-15,23.514319,120.229736,2.209927e-05
E2P980,林試六龜中心,2026-03-15,22.991703,120.645722,2.5294662e-09
C0E590,通霄,2026-03-15,24.471892,120.704622,0.045487158
C1I310,西巒,2026-03-15,23.754486,120.883956,8.0883344e-09
C0A550,泰平,2026-03-15,24.971197,121.823711,1.3632313e-06
C0I360,水里,2026-03-15,23.812553,120.849792,1.896406e-09
C0R830,高士,2026-03-15,22.121825,120.836781,0.99984086
C1I101,溪頭,2026-03-15,23.661789,120.807647,1.2246786e-08
C0AJ20,野柳,2026-03-15,25.20703,121.690021,0.9581634
C0B060,暖暖,2026-03-15,25.0957,121.7403,2.36807e-05
C1H920,長豐,2026-03-15,24.102039,120.879897,6.6528254e-09
C2S9B0,利吉,2026-03-15,22.86246,121.15486,6.66204e-07
C0V360,內門,2026-03-15,22.975481,120.466769,2.366241e-09
C0R850,林邊,2026-03-15,22.4634,120.5339,1.3774818e-05
C0E930,龍鳳,2026-03-15,24.700034,120.859125,0.017228061
C0U910,冬山,2026-03-15,24.63373,121.7937,1.748718e-07
C1E721,泰安,2026-03-15,24.489017,120.968036,2.2091335e-08
82H320,茶改中部分場,2026-03-15,23.875611,120.913583,6.8874444e-09
C0M750,布袋,2026-03-15,23.380878,120.167789,5.992506e-05
C1S860,利嘉,2026-03-15,22.809417,121.050528,1.9915484e-07
E2S980,林試太麻里1,2026-03-15,22.598922,120.980044,3.1449323e-05
C0X170,關廟,2026-03-15,22.963017,120.327797,6.078969e-07
C0V720,林園,2026-03-15,22.507747,120.394511,7.691868e-06
C1I510,線浸林道,2026-03-15,23.761508,120.832956,5.933148e-09
C0D690,外湖,2026-03-15,24.917735,120.968711,0.9912603
C0C750,新興坑尾,2026-03-15,25.0061,121.0971,0.99763805
B2Q810,畜試南區分所,2026-03-15,21.945583,120.802167,0.19930363
C0S790,金崙,2026-03-15,22.538122,120.966875,5.2939986e-06
C0AH90,福山植物園,2026-03-15,24.760717,121.58135,3.4945094e-07
C0I540,奇萊稜線,2026-03-15,24.109231,121.326456,4.5968324e-08
C0M850,表湖,2026-03-15,23.24186,120.64166,7.799587e-09
C0S770,大溪山,2026-03-15,22.478475,120.943325,0.99936926
C0AG80,中和,2026-03-15,24.991622,121.491792,1.0804587e-06
C0T790,大禹嶺,2026-03-15,24.186117,121.316086,3.2736363e-08
C0T9B0,水源,2026-03-15,23.991861,121.537169,8.914669e-08
C0R840,牡丹池山,2026-03-15,22.168389,120.841225,0.9999817
C1I131,桶頭,2026-03-15,23.641944,120.654117,3.1226397e-09
CAL110,布袋國中,2026-03-15,23.35893,120.18026,2.0066414e-06
C2M9D0,何竹子腳,2026-03-15,23.53641,120.38203,2.5379523e-09
C0Z290,赤柯山,2026-03-15,23.36893,121.38293,5.449199e-08
C0X280,將軍,2026-03-15,23.214999,120.13577,1.9416348e-06
C0S690,太麻里,2026-03-15,22.60902,120.98533,1.7304443e-07
C0U880,北關,2026-03-15,24.9072,121.8734,0.0001503793
CAW010,東引,2026-03-15,26.3588,120.4836,0.77749854
C0G810,埔心,2026-03-15,23.947633,120.525456,2.8913536e-07
C0U970,大福,2026-03-15,24.80064,121.81389,1.3090299e-07
C2H9N0,仁愛東眼,2026-03-15,24.026875,121.1205,9.610578e-09
C1E670,南礦,2026-03-15,24.538278,121.002836,1.9676682e-08
C0M520,東後寮,2026-03-15,23.369908,120.248065,1.892833e-06
C1E461,松安,2026-03-15,24.397972,120.986022,2.0262679e-08
C2N160,西拉雅風管處,2026-03-15,23.189481,120.335297,5.5062384e-07
C2M970,碧湖,2026-03-15,23.568632,120.624165,8.501031e-09
C0A640,石碇,2026-03-15,24.993969,121.662917,5.732172e-06
E2S960,林試太麻里2,2026-03-15,22.598,120.99775,6.556497e-05
C0F9Y0,桃山,2026-03-15,24.432739,121.303808,4.410666e-08
C1I020,萬大,2026-03-15,23.979817,121.132261,7.3233726e-09
C2UC20,長嶺,2026-03-15,24.70894,121.61162,5.7302145e-07
C0U940,羅東,2026-03-15,24.68184,121.74934,1.2938632e-07
C0M650,朴子,2026-03-15,23.43463,120.23902,5.1459733e-06
C1I500,大尖山,2026-03-15,23.858572,120.994889,1.5956712e-08
C0FB40,中橫21.6k,2026-03-15,24.2499,121.1455,8.937973e-09
C0G820,田尾,2026-03-15,23.901669,120.509389,2.8913536e-07
E2K600,四湖植物園,2026-03-15,23.676986,120.163433,0.02814252
C0S730,綠島,2026-03-15,22.6672,121.47533,0.99908996
12Q970,東港工作站,2026-03-15,22.479997,120.466058,1.5835163e-05
C1TA00,太魯閣,2026-03-15,24.15773,121.6236,2.6864232e-06
466920,臺北,2026-03-15,25.037658,121.514853,1.1776561e-06
C0R600,舊泰武,2026-03-15,22.588194,120.664944,8.8047784e-08
C1I260,北坑,2026-03-15,23.9246,121.006903,4.722935e-09
466910,鞍部,2026-03-15,25.182586,121.529731,3.1370907e-06
C1I230,九份二山,2026-03-15,23.961944,120.845,4.498789e-09
C2M810,里佳,2026-03-15,23.389125,120.716647,7.748683e-09
C2A660,瑞芳,2026-03-15,25.113169,121.801147,1.7722841e-05
C0R270,琉球嶼,2026-03-15,22.332244,120.362236,1.8855924e-07
C2V580,瑞山,2026-03-15,22.90304,120.43424,2.2363713e-09
C1T990,高寮,2026-03-15,23.394239,121.356808,2.2684617e-05
C0G620,芬園,2026-03-15,24.015678,120.6213,9.176745e-08
C1Z140,荖溪,2026-03-15,23.890575,121.45964,1.0642895e-07
C1I201,中心崙,2026-03-15,23.728722,120.712097,3.3544e-09
C1I400,凌霄,2026-03-15,24.018778,121.004456,9.503486e-09
C1M640,十字,2026-03-15,23.492153,120.753683,9.1915435e-09
G2P820,農試鳳山分所,2026-03-15,22.646611,120.356083,0.00089177146
C0Z270,蕃薯寮,2026-03-15,23.73835,121.540108,5.1072384e-08
C2E420,竹南,2026-03-15,24.70898,120.88897,0.005651196
C0FB10,出雲山苗圃,2026-03-15,24.23105,120.90475,5.6078853e-09
C0F9Q0,外埔,2026-03-15,24.347817,120.705686,1.3640821e-08
C0K580,高鐵雲林,2026-03-15,23.737456,120.417944,3.1837668e-09
C2I090,鳳凰,2026-03-15,23.728081,120.787347,5.010412e-09
C0U990,員山,2026-03-15,24.74435,121.72247,1.3128957e-07
C0V770,大社,2026-03-15,22.730306,120.346639,0.008894857
C0X120,麻豆,2026-03-15,23.183289,120.248611,7.032096e-07
C0C670,龍潭,2026-03-15,24.870056,121.221389,6.210978e-07
C0D680,香山濕地,2026-03-15,24.783581,120.914988,0.9912603
C0S980,勝林山,2026-03-15,22.430439,120.8938,5.7660387e-08
C0V730,大寮,2026-03-15,22.605614,120.395717,3.0912481e-06
C0R570,麟洛,2026-03-15,22.65078,120.52719,3.5464955e-09
C2M930,石卓,2026-03-15,23.478744,120.702264,9.132791e-09
C0G9B0,和美,2026-03-15,24.105169,120.492131,1.4381382e-06
CAG100,王功漁港,2026-03-15,23.96824,120.32586,0.13233535
C0X290,北門,2026-03-15,23.267772,120.125481,1.9416348e-06
C2F930,大甲,2026-03-15,24.347667,120.640403,2.3950069e-08
C0D650,湖口,2026-03-15,24.904794,121.043628,0.007304932
C0U780,五結,2026-03-15,24.68637,121.79794,1.748718e-07
C1I250,鯉潭,2026-03-15,23.961922,120.991131,5.3220113e-09
C0R130,阿禮,2026-03-15,22.742908,120.743678,1.3384053e-08
C0X100,臺南市北區,2026-03-15,23.010394,120.194228,2.934965e-07
C0S920,金峰嘉蘭,2026-03-15,22.594789,120.960825,1.1721686e-05
C0V490,新興,2026-03-15,22.627422,120.298803,0.012241523
C0F9K0,大安,2026-03-15,24.345061,120.588025,3.207858e-08
467290,古坑,2026-03-15,23.633639,120.551889,3.4641428e-09
C2E970,八甲,2026-03-15,24.535811,120.795983,1.3982168e-06
C0V440,鳳山,2026-03-15,22.646653,120.356122,0.00089177146
C1T940,大觀,2026-03-15,23.714206,121.373133,4.6411287e-08
C0E740,造橋,2026-03-15,24.637056,120.864778,0.000270115
C0R100,尾寮山,2026-03-15,22.833111,120.683889,1.3217003e-08
A2K630,臺大雲林校區,2026-03-15,23.730628,120.423903,3.189188e-09
467990,馬祖,2026-03-15,26.169467,119.923158,0.0011691778
C0D580,寶山,2026-03-15,24.735006,121.025192,1.5406282e-05
E2P990,林試扇平站,2026-03-15,22.9677,120.6857,1.2660147e-08
C0AI30,三重,2026-03-15,25.057328,121.500629,1.2699928e-06
C0AH00,汐止,2026-03-15,25.066881,121.658778,7.4604446e-05
C1Z040,立山,2026-03-15,23.443356,121.327375,7.4991317e-07
466881,新北,2026-03-15,24.959207,121.525196,1.0043303e-06
C0W130,花嶼,2026-03-15,23.40007,119.32276,0.86971515
C0A950,鼻頭角,2026-03-15,25.129036,121.923372,0.99995536
C0K470,林內,2026-03-15,23.748675,120.609642,2.971681e-09
C2F990,摩天嶺,2026-03-15,24.322458,120.936819,5.7204876e-09
C2E430,南庄,2026-03-15,24.601775,121.000214,6.0595944e-06
82C160,茶改場,2026-03-15,24.908472,121.185333,0.402404
C2TB60,南安,2026-03-15,23.29818,121.26157,1.3877988e-07
C0Z320,清水林道,2026-03-15,23.27125,121.188272,7.317176e-08
C0R760,南仁湖,2026-03-15,22.084681,120.863353,0.9995339
C0M670,大林,2026-03-15,23.600616,120.45841,2.7271914e-09
C0M800,茶山,2026-03-15,23.299075,120.664767,3.9744785e-09
C0A9C0,天母,2026-03-15,25.117494,121.537169,1.2268515e-06
72K220,南改斗南分場,2026-03-15,23.634556,120.477333,3.7857455e-09
72AI40,桃改樹林分場,2026-03-15,24.944503,121.386972,1.0395823e-06
C0S910,蘭嶼燈塔,2026-03-15,22.081197,121.503117,0.9897223
C0B050,八斗子,2026-03-15,25.144754,121.79167,0.000110174005
C0U900,內城,2026-03-15,24.71813,121.68766,1.2558097e-07
C0X320,柳營,2026-03-15,23.253328,120.375253,5.882206e-09
C0M790,新港,2026-03-15,23.553269,120.345728,4.688343e-06
C0F9T0,西屯,2026-03-15,24.179494,120.641275,1.0934794e-08
C0E950,松安,2026-03-15,24.39792,120.98599,2.0262679e-08
C0SA30,都歷,2026-03-15,23.020333,121.323642,4.9622895e-06
C0C620,蘆竹,2026-03-15,25.084275,121.265767,0.98875844
C0R730,大坪頂,2026-03-15,22.024633,120.69355,0.8191516
C0AJ40,石門,2026-03-15,25.273672,121.601198,0.76474595
C0E750,苗栗,2026-03-15,24.564569,120.824575,8.942621e-06
C0T870,鯉魚潭,2026-03-15,23.935639,121.508944,6.666267e-08
C1V170,排雲,2026-03-15,23.463619,120.954147,3.973836e-08
C2H950,中寮,2026-03-15,23.884447,120.766406,2.2107975e-09
C0R350,貓鼻頭,2026-03-15,21.921774,120.7358,0.2708557
C0V660,岡山,2026-03-15,22.797078,120.294958,0.0018954402
C1H941,雙冬,2026-03-15,23.967378,120.802189,3.4889625e-09
C0AJ70,田寮,2026-03-15,25.2698,121.4886,0.9991415
C0AI00,五股,2026-03-15,25.07445,121.42728,6.0034614e-07
C0Z280,德武,2026-03-15,23.47426,121.41071,4.9477967e-06
C2RA10,大新,2026-03-15,22.67558,120.57788,3.8733123e-09
C0R700,枋山,2026-03-15,22.246844,120.661086,0.9995871
C0C460,復興,2026-03-15,24.820208,121.352281,1.8810663e-07
C2K300,鹿南,2026-03-15,23.63855,120.3636,7.5483294e-05
E2H360,蓮華池,2026-03-15,23.918333,120.885278,5.7452105e-09
C0M640,中埔,2026-03-15,23.42538,120.5229,2.226442e-09
C0W140,金沙,2026-03-15,24.488292,118.408778,9.234781e-06
C2A540,四堵,2026-03-15,24.8926,121.745736,2.3130506e-06
C0ACA0,新莊,2026-03-15,25.051478,121.446756,1.2550378e-06
C0R220,潮州,2026-03-15,22.534361,120.54,1.0581859e-05
U2HA40,臺大內茅埔,2026-03-15,23.689722,120.851117,3.4785634e-09
467490,臺中,2026-03-15,24.145736,120.684075,1.1568338e-08
C0UB60,明池,2026-03-15,24.650688,121.475277,1.6343209e-07
C0U960,翠峰湖,2026-03-15,24.510856,121.608044,7.6093855e-08
E2HA20,林試畢祿溪站,2026-03-15,24.226944,121.308522,2.2747075e-08
C2M9A0,大華,2026-03-15,23.4824,120.67491,6.2548193e-09
C0V890,前鎮,2026-03-15,22.5718,120.3117,0.014107909
C1F941,雪嶺,2026-03-15,24.280586,121.026642,2.7704726e-08
C2H9E0,國姓南港,2026-03-15,23.911108,120.846556,6.7500308e-09
C0AC80,文山,2026-03-15,25.00235,121.575728,1.0714587e-06
C0F9R0,龍井,2026-03-15,24.184536,120.528972,1.4750378e-06
C0M760,民雄,2026-03-15,23.551754,120.428457,2.7271914e-09
C0UA40,西德山,2026-03-15,24.560647,121.752608,7.213359e-08
C2TA70,赤科坪,2026-03-15,23.39885,121.39168,1.165465e-07
C1T920,中興,2026-03-15,23.769503,121.498653,8.705171e-08
C0D550,雪霸,2026-03-15,24.526972,121.11605,2.6980329e-08
C2F860,梨山,2026-03-15,24.247522,121.243669,2.6295778e-08
C0R320,車城,2026-03-15,22.0744,120.716247,0.18936318
C1S870,南美山,2026-03-15,23.15025,121.382333,8.038406e-07
C0B020,基隆嶼,2026-03-15,25.19141,121.78391,6.687156e-05
C1U501,牛鬥,2026-03-15,24.637836,121.573656,1.7486157e-06
C0M730,嘉義市東區,2026-03-15,23.457673,120.460531,2.2514108e-09
C2R990,泰武,2026-03-15,22.60686,120.69765,3.196254e-08
C0S700,知本,2026-03-15,22.684866,121.005642,1.9322935e-07
C1N001,沙崙,2026-03-15,22.935472,120.309406,8.0999916e-07
C0V760,橋頭,2026-03-15,22.757806,120.30575,0.010355224
C0G960,福寶,2026-03-15,24.0443,120.3814,2.2473312e-06
C0X210,白河,2026-03-15,23.347466,120.414427,4.892106e-09
C0S810,東河,2026-03-15,22.972672,121.303986,7.083093e-06
C2R170,屏東,2026-03-15,22.66027,120.49403,3.5464955e-09
C0R670,楓港,2026-03-15,22.190131,120.692156,0.9940177
C0FA50,霧峰,2026-03-15,24.0419,120.6995,2.3317475e-09
C0UB10,蘇澳,2026-03-15,24.5969,121.8571,1.6645375e-06
C0G950,防潮門,2026-03-15,24.1835,120.4871,1.4692158e-06
C0M740,六腳,2026-03-15,23.492871,120.290625,5.592647e-06
C1R250,力里,2026-03-15,22.428117,120.629228,1.5747943e-07
C0K330,虎尾,2026-03-15,23.719183,120.442036,3.1488843e-09
C2FA00,烏石坑,2026-03-15,24.273503,120.947617,5.745221e-09
C0V620,永安,2026-03-15,22.82315,120.236856,0.0028623464
C1I330,楓樹林,2026-03-15,23.986803,121.076117,8.133136e-09
C0W200,湖西,2026-03-15,23.596314,119.67275,0.9288697
72Q010,高雄農改場,2026-03-15,22.709333,120.525889,3.5538763e-09
C0SA40,瑞和,2026-03-15,22.974361,121.156697,4.9452035e-07
C0C680,龜山,2026-03-15,25.02846,121.38656,4.461479e-07
C2V260,月眉,2026-03-15,22.971003,120.539853,2.863889e-09
C0V450,鳳森,2026-03-15,22.545064,120.392592,1.7247155e-06
C0FA90,小雪山林道,2026-03-15,24.29515,121.03651,4.1779344e-08
C0U720,南山,2026-03-15,24.43742,121.38167,9.804115e-08
A2N290,臺南蘭花園區,2026-03-15,23.340258,120.379661,5.7701284e-09
C0R560,新園,2026-03-15,22.5434,120.461558,7.691868e-06
C0U890,三星,2026-03-15,24.66812,121.65302,1.1403295e-07
C1V300,御油山,2026-03-15,23.001983,120.715364,1.4722655e-08
C0U600,礁溪,2026-03-15,24.817539,121.765608,1.2731527e-07
C1T980,龍澗,2026-03-15,24.023289,121.411328,1.04701215e-07
C0D670,海天一線,2026-03-15,24.831986,120.914438,0.9901646
C0SA00,歷坵,2026-03-15,22.520969,120.89185,2.2293905e-05
C0M710,東石,2026-03-15,23.458927,120.15385,4.5023724e-05
C0M780,鹿草,2026-03-15,23.41134,120.30835,3.5546927e-06
C0U520,雙連埤,2026-03-15,24.753033,121.641303,1.0383808e-07
C0B010,七堵,2026-03-15,25.094819,121.71713,6.0325558e-05
C0R480,長治,2026-03-15,22.693128,120.542622,4.311582e-09
C1V830,國三S383K,2026-03-15,22.781967,120.426475,2.4766984e-09
12Q980,恆春工作站,2026-03-15,22.079678,120.714425,0.18936318
C1O940,東山服務區,2026-03-15,23.286016,120.398472,5.62963e-09
C1U840,東澳嶺,2026-03-15,24.5378,121.8485,8.58631e-08
C1D630,飛鳳山,2026-03-15,24.766464,121.119178,3.6086533e-07
C0S940,石寧山,2026-03-15,23.223772,121.406639,0.0003359011
C0K410,北港,2026-03-15,23.573957,120.292802,7.633088e-06
C2M620,瑞里,2026-03-15,23.545133,120.675197,7.7844415e-09
C0SB70,小港漁港,2026-03-15,23.158558,121.400431,5.2232244e-05
C2O950,安南,2026-03-15,23.076694,120.144861,6.8308455e-06
C0F0E0,南湖圈谷,2026-03-15,24.363714,121.444667,7.4792915e-08
467610,成功,2026-03-15,23.097486,121.373428,3.0744326e-05
C0G890,伸港,2026-03-15,24.148933,120.484403,1.2426209e-06
C2E540,龍溪,2026-03-15,24.606489,120.783933,1.8128314e-05
C1V200,梅山,2026-03-15,23.268447,120.823556,9.27601e-09
C0T9H0,加路蘭山,2026-03-15,23.682947,121.5274,4.039912e-08
C2O930,玉井,2026-03-15,23.126042,120.46055,4.0710515e-09
C1F911,新伯公,2026-03-15,24.221361,120.841069,1.0004806e-08
C0R490,九如,2026-03-15,22.7405,120.490503,3.5538763e-09
C0X200,左鎮,2026-03-15,23.056758,120.408522,2.691745e-09
C2TB50,麻汝,2026-03-15,23.42554,121.39358,2.6961761e-06
C0FA60,鞍馬山工作站,2026-03-15,24.267064,121.000793,2.0707065e-08
C0SB50,叭嗡嗡,2026-03-15,23.047062,121.343223,5.6961828e-05
C1F891,稍來,2026-03-15,24.265689,121.001142,2.0194618e-08
C2M9C0,紫雲,2026-03-15,23.494914,120.540253,2.4717244e-09
72N240,七股研究中心,2026-03-15,23.081672,120.062894,9.623055e-06
C0C700,中壢,2026-03-15,24.977661,121.256375,0.41981044
C0M690,水上,2026-03-15,23.419734,120.388909,2.2968145e-09
C0V690,鼓山,2026-03-15,22.623325,120.275575,0.012241523
C0O860,大內,2026-03-15,23.11885,120.36083,4.7409836e-07
C0Z200,萬榮,2026-03-15,23.709219,121.420106,7.361875e-08
C0T9D0,和中,2026-03-15,24.26676,121.74103,9.1539545e-07
C2S9A0,北份子寮,2026-03-15,22.78561,121.07813,4.342101e-06
C1O921,楠西,2026-03-15,23.183511,120.484083,3.8998955e-09
C0AJ30,淡水觀海,2026-03-15,25.184591,121.408616,0.9813593
C0V810,左營,2026-03-15,22.67491,120.28491,0.0033727793
C0UA70,桃源谷,2026-03-15,24.962606,121.888875,6.077595e-07
C0X130,官田,2026-03-15,23.193217,120.315422,6.031305e-07
C1H000,翠峰,2026-03-15,24.109397,121.205211,2.6387019e-08
C0UA90,石城,2026-03-15,24.980444,121.951214,0.0057018804
C1E681,南勢山,2026-03-15,24.421669,120.923831,1.9540618e-08
C0A9F0,內湖,2026-03-15,25.079422,121.57545,1.2385935e-06
C0K291,宜梧,2026-03-15,23.536281,120.169329,0.00236014
C1K540,口湖,2026-03-15,23.585344,120.180517,0.0019521102
C0R780,滿州,2026-03-15,22.024403,120.839892,0.21640569
C0V870,文安,2026-03-15,22.8025,120.2164,0.0034525096
C0U650,玉蘭,2026-03-15,24.675286,121.587061,5.587426e-07
C0R640,東港,2026-03-15,22.46247,120.44074,7.5715993e-06
C0AJ80,板橋,2026-03-15,25.0107,121.4489,1.0804587e-06
C0S660,下馬,2026-03-15,23.150427,121.070312,5.6120292e-08
C2N190,烏樹,2026-03-15,23.32393,120.36989,8.924746e-07
C1H9B1,阿眉,2026-03-15,24.1263,120.994672,1.2016442e-08
C0UA20,多加屯,2026-03-15,24.368614,121.373189,3.222441e-08
C0E730,頭份,2026-03-15,24.688247,120.912206,0.008002298
72V140,高改旗南分場,2026-03-15,22.857861,120.516667,3.3733725e-09
C0K480,莿桐,2026-03-15,23.761192,120.502372,2.940647e-09
C0U980,坪林石牌,2026-03-15,24.86478,121.77396,1.3761718e-07
C0T900,西林,2026-03-15,23.8119,121.441458,6.358231e-08
C1I150,青雲,2026-03-15,23.793361,120.949378,2.604022e-09
C2E980,和興,2026-03-15,24.505319,120.923016,2.4649179e-08
467350,澎湖,2026-03-15,23.565503,119.563094,0.8775996
C0G800,埔鹽,2026-03-15,24.000394,120.431683,1.7963831e-06
C0H960,草屯,2026-03-15,23.973672,120.68085,2.2195603e-09
C1V780,多納林道,2026-03-15,22.888028,120.737917,1.3373004e-08
C0E920,通霄漁港,2026-03-15,24.498589,120.673876,0.17848192
C0Z330,安通山,2026-03-15,23.290728,121.348528,5.6341552e-08
C0AH10,永和,2026-03-15,25.01125,121.508111,1.1174938e-06
C0AK10,太平里,2026-03-15,25.134937,121.364899,1.6558374e-06
C2G640,鹿港,2026-03-15,24.0753,120.430481,1.7092254e-06
C1E890,國三N149K,2026-03-15,24.463414,120.680019,0.02555914
C1R110,口社,2026-03-15,22.770111,120.645222,3.1775789e-09
C1M870,國三N285K,2026-03-15,23.550319,120.505833,2.4829514e-09
C1E480,鳳美,2026-03-15,24.554803,121.034747,2.2088344e-08
C0T9M0,靜浦,2026-03-15,23.455167,121.495028,0.00010925044
C2H9M0,發祥,2026-03-15,24.154094,121.164517,6.5991266e-09
C2G9C0,埔南,2026-03-15,23.99124,120.46969,1.7963831e-06
C0AI40,石牌,2026-03-15,25.115597,121.513139,1.2385935e-06
C1F871,上谷關,2026-03-15,24.203483,121.018644,5.7452105e-09
C2H9G0,百勝,2026-03-15,24.051142,120.909361,4.9858166e-09
C0G880,二水,2026-03-15,23.810742,120.6173,2.7310953e-09
C0R940,加祿堂,2026-03-15,22.3363,120.6217,1.0506182e-05
C0W220,北竿,2026-03-15,26.220358,119.974881,0.024629824
C0O960,崎頂,2026-03-15,22.959547,120.369317,2.2458624e-07
C0TA40,秀林,2026-03-15,24.302864,121.731144,8.397557e-08
C0S750,向陽,2026-03-15,23.248397,120.986133,2.649479e-08
C0T9F0,水璉,2026-03-15,23.797131,121.542514,5.2008026e-08
C1M600,頭凍,2026-03-15,23.406364,120.603339,7.692635e-09
467660,臺東,2026-03-15,22.752211,121.154586,0.99717146
C1D380,新埔,2026-03-15,24.84745,121.03834,0.003981171
C2G980,田頭村,2026-03-15,23.8263,120.444175,2.9369085e-09
C0V750,路竹,2026-03-15,22.854997,120.259439,0.0011161218
C0N050,蚵寮,2026-03-15,23.301,120.1104,1.9416348e-06
C2X060,下營,2026-03-15,23.226806,120.256291,1.0248383e-06
72M700,南改鹿草分場,2026-03-15,23.416869,120.283061,4.3571004e-06
C1SA50,利嘉林道,2026-03-15,22.82325,121.009389,7.208531e-08
C0UB70,太平山中間站,2026-03-15,24.542003,121.513453,1.212973e-07
C0A940,金山,2026-03-15,25.223628,121.643967,0.99340606
C1V340,大津,2026-03-15,22.888322,120.645986,2.633783e-09
C0W180,七美,2026-03-15,23.219333,119.444892,0.9689908
C1F9C1,白冷,2026-03-15,24.182844,120.929889,6.1552994e-09
K2E710,苗改生物防治研究中心,2026-03-15,24.422861,120.871833,3.544182e-07
C0N040,蘆竹溝,2026-03-15,23.2344,120.0961,2.0398145e-06
C0TB40,崇德,2026-03-15,24.166144,121.657414,3.9247725e-06
C0D760,大坪苗圃,2026-03-15,24.5362,121.1108,2.1061133e-08
C2W230,畜試所澎湖,2026-03-15,23.628342,119.513206,0.6565788
C0R880,後壁湖,2026-03-15,21.9457,120.7457,0.3011914
C1I280,埔中,2026-03-15,23.820778,120.642594,2.2593778e-09
467790,墾丁雷達站,2026-03-15,21.948235,120.808028,0.17374516
C0W190,望安,2026-03-15,23.380564,119.494075,0.91844136
C0Z170,卓溪,2026-03-15,23.3443,121.3029,1.4846371e-07
C0F850,東勢,2026-03-15,24.246428,120.833047,1.0182808e-08
466900,淡水,2026-03-15,25.164889,121.448906,0.918051
C0I370,魚池,2026-03-15,23.895703,120.94135,5.7022627e-09
C0C630,大溪,2026-03-15,24.882853,121.265547,0.16336039
C0A520,山佳,2026-03-15,24.974944,121.402008,1.0501927e-06
C0I110,竹山,2026-03-15,23.761225,120.688156,1.8881121e-09
82H840,茶改南部分場,2026-03-15,23.762528,120.7405,2.1974917e-09
C2SD80,再來山,2026-03-15,23.34371,121.44122,2.4972544e-06
C0G660,溪湖,2026-03-15,23.94835,120.479122,3.3076768e-07
C1T800,洛韶,2026-03-15,24.204558,121.453956,9.675119e-08
C1T810,慈恩,2026-03-15,24.192044,121.388386,5.772608e-08
C1E451,象鼻,2026-03-15,24.368617,120.940228,1.9540655e-08
C0AC60,三峽,2026-03-15,24.939025,121.369728,0.72644234
C0I490,萬大林道,2026-03-15,23.928228,121.091411,1.1262938e-08
C1I290,豐丘,2026-03-15,23.668178,120.887417,1.0102736e-08
C1I320,奧萬大,2026-03-15,23.952956,121.178556,1.0336932e-08
C2M910,嘉義大學,2026-03-15,23.471325,120.485903,2.2545952e-09
C0U770,南澳,2026-03-15,24.44935,121.81022,7.28365e-06
C2TB30,吉安,2026-03-15,23.94538,121.54803,8.110383e-08
C0A980,社子,2026-03-15,25.109508,121.469681,1.41714e-06
C0V800,六龜,2026-03-15,22.997889,120.633583,2.5489744e-09
C1G9D0,國一S218K,2026-03-15,23.890641,120.493253,3.1309406e-07
C0E570,白沙屯,2026-03-15,24.549447,120.696803,0.14556192
C2F9A0,中竹林,2026-03-15,24.103556,120.751061,2.7922429e-09
C0FA40,臺中電廠,2026-03-15,24.2146,120.4907,1.7422653e-06
C2G9A0,畜試所彰化,2026-03-15,23.86045,120.557964,2.8859268e-09
C0H9C0,合歡山,2026-03-15,24.143442,121.272547,4.4243578e-08
G2M350,農試溪口農場,2026-03-15,23.58565,120.408111,2.744076e-09
C0U860,頭城,2026-03-15,24.85323,121.8308,2.2050044e-07
C0R580,南州,2026-03-15,22.48591,120.50274,1.5835163e-05
C0D430,峨眉,2026-03-15,24.6905,121.017189,5.2317886e-05
C0G780,秀水,2026-03-15,24.03405,120.503869,2.2595066e-07
72N100,臺南農改場,2026-03-15,23.0605,120.342194,3.4036836e-07
C0S900,蘭嶼高中,2026-03-15,22.04909,121.51214,0.9956775
C2TA60,六十石,2026-03-15,23.22477,121.31861,5.4241976e-08
C1F9W0,德基,2026-03-15,24.254783,121.190261,2.2965878e-08
C2M980,安和,2026-03-15,23.51377,120.31593,5.592647e-06
C1Z120,壽豐,2026-03-15,23.870853,121.508081,9.0682065e-08
C0W160,烏坵,2026-03-15,24.9944,119.44956,0.88610864
C1I240,外大坪,2026-03-15,23.958697,120.917931,6.1162813e-09
C1I550,國六W023K,2026-03-15,23.979067,120.867742,2.5223648e-09
C0R870,興海,2026-03-15,21.9752,120.8439,0.19930363
C0R140,瑪家,2026-03-15,22.682903,120.686639,3.7372413e-08
C0A530,坪林,2026-03-15,24.938183,121.70975,2.698373e-06
C0X260,後壁,2026-03-15,23.366358,120.362326,1.2974506e-06
C0Z230,和平,2026-03-15,24.30717,121.77007,1.513431e-06
C0G770,福興,2026-03-15,24.041289,120.437669,1.7963831e-06
C0H9A0,神木村,2026-03-15,23.532742,120.843667,1.0138603e-08
C0I460,南投,2026-03-15,23.911469,120.687331,2.2383941e-09
C0I480,梅峰,2026-03-15,24.085272,121.173572,2.0473784e-08
C1V570,吉東,2026-03-15,22.85422,120.5454,3.4551024e-09
C2A560,福山,2026-03-15,24.776203,121.502811,6.319005e-07
C0AH30,五分山,2026-03-15,25.07125,121.780794,3.669801e-07
C0FA10,松柏,2026-03-15,24.429115,120.617482,0.00029976037
72S200,東改班鳩分場,2026-03-15,22.829528,121.077694,4.8808636e-07
72HA00,中改埔里分場,2026-03-15,23.903208,120.963364,5.5946807e-09
C2H9W0,大坪頂農水,2026-03-15,24.043122,120.932781,6.0639516e-09
C0C650,平鎮,2026-03-15,24.897503,121.214636,0.045805912
C0S930,延平,2026-03-15,22.902581,121.084058,3.2133514e-07
C0UA60,樟樹山,2026-03-15,24.41393,121.78325,8.071848e-08
C2UC10,出水溪,2026-03-15,24.615822,121.652253,1.47453e-07
C1S670,摩天,2026-03-15,23.199503,121.027,3.241081e-08
C2C590,觀音,2026-03-15,25.027072,121.153317,0.9983157
C0V630,茄萣,2026-03-15,22.906642,120.182608,1.0174198e-06
466940,基隆,2026-03-15,25.133314,121.740475,9.017276e-05
C0X050,東河,2026-03-15,23.296598,120.385608,5.7701284e-09
C0R770,保力,2026-03-15,22.071122,120.764111,0.436206
G2L020,農試嘉義分所,2026-03-15,23.485028,120.473806,2.2439255e-09
C0X240,關子嶺,2026-03-15,23.331169,120.508025,3.7005956e-09
C0I380,集集,2026-03-15,23.828206,120.801467,1.8817055e-09
466990,花蓮,2026-03-15,23.975128,121.613275,7.0887705e-07
C1V220,小關山,2026-03-15,23.154217,120.813603,1.4788005e-08
C1F9G1,慶福山,2026-03-15,24.180853,120.848378,1.0151006e-08
C0FB20,雪山橋,2026-03-15,24.23192,120.9786,1.8095918e-08
C0Z250,瑞穗林道,2026-03-15,23.49284,121.30688,9.8811604e-08
C0D590,新豐,2026-03-15,24.87068,120.97721,0.8524297
C0A870,五指山,2026-03-15,25.132153,121.608692,9.9932295e-06
C0UA50,西帽山,2026-03-15,24.555361,121.802628,8.660787e-08
C2R980,竹田國中,2026-03-15,22.61532,120.52412,1.0118762e-05
C0X160,仁德,2026-03-15,22.968258,120.257689,3.397107e-07
C1H971,六分寮,2026-03-15,23.92507,120.6378,2.5512994e-09
C0W120,西嶼,2026-03-15,23.5626,119.468436,0.84568596
C0G650,員林,2026-03-15,23.946503,120.585597,2.1144434e-07
C0AD50,鶯歌,2026-03-15,24.951533,121.346294,0.6859101
C2H9Q0,北東眼山,2026-03-15,24.120939,121.189303,2.0421561e-08
C2H9T0,名間竹圍,2026-03-15,23.859914,120.637572,1.942741e-09
C0S990,山豬窟,2026-03-15,22.318619,120.857372,0.9999856
C0X190,安平,2026-03-15,22.993161,120.152181,3.6997514e-07
C0K400,斗六,2026-03-15,23.720583,120.541127,2.9122806e-09
12J990,口湖工作站,2026-03-15,23.589978,120.180394,0.0019521102
C0O830,北寮,2026-03-15,23.079561,120.495008,2.1796132e-09
C1D410,白蘭,2026-03-15,24.579364,121.079947,2.0285261e-08
C0S970,加津林,2026-03-15,22.416211,120.926942,0.0008424637
C0D700,關西,2026-03-15,24.7977,121.1732,4.963659e-07
C0U750,龜山島,2026-03-15,24.841667,121.953133,1.801123e-06
C0R810,內獅,2026-03-15,22.305064,120.642986,0.9995871
C1M390,龍美,2026-03-15,23.406728,120.654417,6.284476e-09
C2K290,崙內,2026-03-15,23.69525,120.35601,7.5483294e-05
C2FB60,頭櫃山,2026-03-15,24.129842,120.858925,1.3450053e-08
C1H840,國三N238K,2026-03-15,23.841008,120.707711,2.0341742e-09
CAQ030,崎峰國小,2026-03-15,22.42565,120.49521,1.5835163e-05
C2E520,大湖,2026-03-15,24.414939,120.870872,2.896056e-07
467530,阿里山,2026-03-15,23.508208,120.813242,1.9913106e-08
C1E691,南湖,2026-03-15,24.40135,120.837533,5.6118473e-08
C0FA30,梧棲,2026-03-15,24.256003,120.523381,1.4750378e-06
C1V231,高中,2026-03-15,23.134911,120.716711,6.746221e-09
C0AK30,硬漢嶺,2026-03-15,25.136097,121.426372,2.3368468e-05
C0F9V0,新社,2026-03-15,24.200172,120.815806,9.858605e-09
C0H890,埔里,2026-03-15,23.972169,120.952425,4.8017132e-09
C0R690,墾丁,2026-03-15,21.966756,120.810269,0.93012816
C0SD20,富山,2026-03-15,22.822383,121.190825,4.5060533e-06
C0F0D0,審馬陣,2026-03-15,24.381675,121.4203,3.994087e-08
C2W030,金門農試所,2026-03-15,24.448431,118.451786,0.0011105447
C0R820,白鷺,2026-03-15,22.454275,120.666219,2.3763225e-06
C0FB00,大雪山,2026-03-15,24.254668,121.007374,2.094424e-08
C1V190,南天池,2026-03-15,23.27403,120.91176,2.6478675e-08
C0E940,雪見,2026-03-15,24.42595,121.01347,2.9105664e-08
K2E360,苗栗農改場,2026-03-15,24.495722,120.829111,4.6151904e-06
CAJ050,海口故事園區,2026-03-15,23.57543,120.14121,0.0019521102
C2K280,四湖,2026-03-15,23.6304,120.22717,0.02814252
C2H9D0,三隻寮,2026-03-15,24.093078,120.861578,4.1053845e-09
C0O990,媽廟,2026-03-15,22.99175,120.293525,1.3791897e-07
C0D480,打鐵坑,2026-03-15,24.849664,121.150789,8.97905e-07
C0Z220,和平林道,2026-03-15,24.343922,121.656317,6.622002e-08
C0TA10,花蓮漁港,2026-03-15,23.995322,121.638331,0.75907314
72C440,桃園農改場,2026-03-15,24.950944,121.030583,0.03252109
C1E711,馬拉邦山,2026-03-15,24.367306,120.901656,1.8437524e-08
C0SB20,富岡,2026-03-15,22.792467,121.192669,3.535179e-06
C0D560,竹東,2026-03-15,24.767147,121.057881,4.7473215e-05
C0F9U0,南屯,2026-03-15,24.137006,120.637969,9.558167e-09
C2SD60,明峰,2026-03-15,22.8671,121.11825,3.6572303e-07
C0M720,番路,2026-03-15,23.464657,120.554156,2.8934282e-09
C0F0A0,雪山圈谷,2026-03-15,24.388594,121.236339,4.9990835e-08
C1A9N0,四十份,2026-03-15,24.934158,121.593283,3.5383565e-07
C0U760,東澳,2026-03-15,24.52196,121.83318,4.875588e-06
C0X230,鹽水,2026-03-15,23.272621,120.247641,1.9261206e-06
C2H9H0,苗改南投蜂場,2026-03-15,23.852589,120.693481,1.9331123e-09
C2TB70,達谷寮,2026-03-15,23.38,121.35968,6.8376826e-06
C0R950,萬隆國小,2026-03-15,22.507667,120.587817,5.2145555e-07
467540,大武,2026-03-15,22.35572,120.90374,0.9830708
C0V370,古亭坑,2026-03-15,22.893178,120.401947,2.3177622e-09
C1I340,新興橋,2026-03-15,23.563333,120.868728,5.755147e-09
C0SA80,土坂,2026-03-15,22.453108,120.887572,0.99995935
C0R160,鹽埔,2026-03-15,22.739558,120.530778,3.5538763e-09
C0AC40,大屯山,2026-03-15,25.175675,121.522408,8.776532e-07
466850,五分山雷達站,2026-03-15,25.071182,121.781205,3.5366628e-07
C2H9L0,馬烈霸,2026-03-15,24.1512,121.201772,1.9769939e-08
C1AI50,國三N016K,2026-03-15,25.034164,121.619664,1.2748649e-06
C2V920,匏子寮,2026-03-15,23.04905,120.55319,2.4574716e-09
C1V600,藤枝,2026-03-15,23.071961,120.757042,1.4089244e-08
C1E601,南勢,2026-03-15,24.572486,120.734842,0.0016824123
C0O980,新市,2026-03-15,23.061614,120.298197,4.5315466e-07
C0K420,西螺,2026-03-15,23.800407,120.467394,2.8820049e-09
C0Z050,佳心,2026-03-15,23.34567,121.21316,5.7716612e-08
C0AD30,蘆洲,2026-03-15,25.086594,121.472331,1.2876827e-06
C0V610,梓官,2026-03-15,22.760558,120.267211,0.0019880978
K2F750,種苗改良場,2026-03-15,24.225972,120.800917,9.850241e-09
C0UA80,大溪漁港,2026-03-15,24.941801,121.902955,2.846283e-07
C1AI60,國一39K邊坡,2026-03-15,25.064361,121.383836,5.4657704e-07
C0W150,金寧,2026-03-15,24.457703,118.328989,6.51361e-05
C0R960,內埔,2026-03-15,22.608483,120.570714,8.913281e-06
C2H9S0,龍南,2026-03-15,23.953536,120.833183,5.665187e-09
C0AH40,平等,2026-03-15,25.129142,121.577086,0.0003369539
C0R540,佳冬,2026-03-15,22.419456,120.552375,9.224782e-06
466950,彭佳嶼,2026-03-15,25.627975,122.079744,0.99999565
C0A890,雙溪,2026-03-15,25.036003,121.864242,4.3001783e-05
C0C480,桃園,2026-03-15,24.992425,121.323172,0.6278524
C0AH50,林口,2026-03-15,25.072181,121.38084,4.5516086e-07
A2K360,水試臺西試驗場,2026-03-15,23.717231,120.190522,0.10277944
C2M960,外寮,2026-03-15,23.562643,120.665688,6.784403e-09
C0F9S0,烏日,2026-03-15,24.107058,120.624103,2.5672932e-07
C2N180,鹿陶洋,2026-03-15,23.14325,120.48352,3.8998955e-09
C0C490,八德,2026-03-15,24.928708,121.283289,0.42444837
C0R190,赤山,2026-03-15,22.592333,120.614306,6.4917995e-06
C0T820,天祥,2026-03-15,24.179597,121.495639,2.971995e-07
C1F9E1,龍安,2026-03-15,24.1605,120.831961,9.898171e-09
C2SD50,順那,2026-03-15,23.04166,121.29332,1.8461085e-06
C0V820,小林,2026-03-15,23.148408,120.63325,3.792358e-09
C2G870,芳苑,2026-03-15,23.922303,120.320025,0.75574404
C0E850,大河,2026-03-15,24.618069,120.948578,5.7214813e-05
C1U670,寒溪,2026-03-15,24.634,121.71691,1.15629824e-07
C0N020,城西,2026-03-15,23.0568,120.0956,8.161613e-06
C1Z110,三棧,2026-03-15,24.11557,121.60501,1.8392448e-07
C0R280,檳榔,2026-03-15,22.076078,120.836777,0.99461806
C2H9J0,中台,2026-03-15,23.9996,120.938739,5.1947033e-09
C0F9L0,后里,2026-03-15,24.310436,120.729725,1.1272889e-08
467441,高雄,2026-03-15,22.730432,120.312516,0.008894857
C0Z180,新城,2026-03-15,24.040486,121.604878,6.764719e-07
C0D540,橫山,2026-03-15,24.71116,121.11693,4.6773434e-06
C1D420,太閣南,2026-03-15,24.632808,121.160575,6.0171885e-08
C1E770,公館,2026-03-15,24.526914,120.830806,6.147351e-06
CAN130,水試所海水繁養殖中心,2026-03-15,23.120802,120.07968,9.623055e-06
C1I430,翠華,2026-03-15,24.191961,121.224339,2.941148e-08
C1M400,菜瓜坪,2026-03-15,23.251928,120.576103,3.9688426e-09
C0G730,二林,2026-03-15,23.903325,120.376081,1.8783679e-06
72M360,南改義竹分場,2026-03-15,23.360694,120.279361,1.6940797e-06
V2K620,麥寮合作社,2026-03-15,23.753836,120.294783,0.0002416004
C0Z070,舞鶴,2026-03-15,23.46811,121.37407,2.3796154e-06
C0B040,大武崙,2026-03-15,25.166676,121.706993,0.9264604
C1Z030,紅葉,2026-03-15,23.493119,121.338806,4.168374e-06
C1I050,丹大,2026-03-15,23.753747,121.141147,3.3518887e-08
C0I080,信義,2026-03-15,23.689694,120.851036,3.4785634e-09
C2TB80,庄子底,2026-03-15,23.71794,121.49438,8.849327e-08
C0D750,樂山林道6k,2026-03-15,24.49999,121.08773,2.771207e-08
C2M920,朴子農改,2026-03-15,23.469889,120.259383,5.1459733e-06
C2A880,福隆,2026-03-15,25.017842,121.942083,0.006989715
C0Z160,鳳林,2026-03-15,23.746114,121.453411,8.4134605e-08
C0UB80,翠峰林道6K,2026-03-15,24.49773,121.568625,7.611447e-08
C0V210,復興,2026-03-15,23.222403,120.806089,6.78254e-09
C0H990,昆陽,2026-03-15,24.121322,121.273642,3.757189e-08
C0R741,獅子,2026-03-15,22.202308,120.705236,0.9997917
C0S710,鹿野,2026-03-15,22.917711,121.122994,1.2193311e-07
C0I530,小奇萊,2026-03-15,24.131764,121.295717,3.9074845e-08
C0FA70,大雪山埡口,2026-03-15,24.26867,121.03062,3.498834e-08
C2K630,荷苞,2026-03-15,23.657717,120.595144,3.368968e-09
C0Z080,富源,2026-03-15,23.587642,121.378225,2.1236783e-06
C2M9E0,旺來山,2026-03-15,23.555153,120.486463,2.5022153e-09
C0SB10,美和,2026-03-15,22.682078,121.060236,2.9809084e-05
C2K620,馬光農場,2026-03-15,23.721453,120.378864,3.2273906e-09
C1I140,卡奈托灣,2026-03-15,23.754364,121.087872,1.2091e-08
C0I520,玉山風口,2026-03-15,23.470489,120.955994,4.4530154e-08
C1G691,下水埔,2026-03-15,23.816114,120.5676,2.5484057e-09
C0X110,臺南市南區,2026-03-15,22.961189,120.188378,3.619997e-07
C0V680,仁武,2026-03-15,22.701083,120.347722,0.008894857
C2G840,北斗,2026-03-15,23.877586,120.514222,3.0242458e-07
C2TB90,長橋,2026-03-15,23.6874,121.46186,8.1306574e-08
C0R900,竹坑,2026-03-15,22.1385,120.7022,0.9940177
C0G860,社頭,2026-03-15,23.897647,120.5862,2.2108202e-07
C0X150,安定,2026-03-15,23.102614,120.227839,8.1923224e-07
C0R590,里港,2026-03-15,22.77919,120.49459,3.0677845e-09
C0E610,馬都安,2026-03-15,24.451272,120.930192,1.9930889e-08
C0E550,明德,2026-03-15,24.583486,120.885411,6.713422e-06
C0R150,三地門,2026-03-15,22.709889,120.639944,3.249262e-09
C0G910,花壇,2026-03-15,24.032076,120.549461,1.984666e-07
C1D400,鳥嘴山,2026-03-15,24.71909,121.28387,6.2533665e-08
C0K500,元長,2026-03-15,23.64981,120.315024,0.00020055812
C0F0B0,石岡,2026-03-15,24.276061,120.777644,1.0863614e-08
C2V250,甲仙,2026-03-15,23.080106,120.591758,2.5617686e-09
C0SA20,金崙山,2026-03-15,22.567419,120.959667,6.0249405e-08
C0V350,溪埔,2026-03-15,22.738578,120.446797,3.1305354e-09
C0M660,溪口,2026-03-15,23.604131,120.403569,2.744076e-09
C1S880,壽卡,2026-03-15,22.238911,120.858903,0.99997705
72D680,桃改新埔分場,2026-03-15,24.834444,121.066111,0.0047947075
