站號,站名,日期,lat,lon,BLBTSLS
C0R710,龍磐,2026-02-16,21.931672,120.838942,0.9996954
C1F9D1,白毛台,2026-02-16,24.158325,120.886933,1.75713e-09
C0G940,竹塘,2026-02-16,23.848253,120.386764,6.4947697e-10
467590,恆春,2026-02-16,22.003897,120.746339,0.99988085
C1O850,環湖,2026-02-16,23.148617,120.418633,1.4151289e-09
C0U710,太平山,2026-02-16,24.505486,121.525656,1.799356e-08
C0E820,獅潭,2026-02-16,24.539133,120.920042,1.5648969e-09
C2SD70,二層坪,2026-02-16,22.94105,121.16838,9.741481e-09
C0V880,興達,2026-02-16,22.8778,120.2127,1.1185243e-09
C0S890,關山,2026-02-16,23.0395,121.175017,7.1075257e-09
C0SB30,新蘭,2026-02-16,22.869214,121.223228,2.3410712e-08
C2R970,屏科大,2026-02-16,22.648275,120.619247,6.054808e-05
C1Z130,銅門,2026-02-16,23.965694,121.492842,4.845793e-09
C0AD40,土城,2026-02-16,24.973208,121.445169,2.4754185e-09
CAN140,六官養殖協會,2026-02-16,23.22881,120.29962,2.7790872e-09
C0X180,山上,2026-02-16,23.0757,120.363253,1.4161765e-09
C0F9Z0,雪山東峰,2026-02-16,24.388792,121.268675,1.7963897e-08
C1M480,獨立山,2026-02-16,23.537022,120.607797,1.7490648e-09
C0X220,學甲,2026-02-16,23.230367,120.182187,7.4829226e-10
467650,日月潭,2026-02-16,23.881325,120.90805,1.999046e-09
A2K570,古坑(花卉中心),2026-02-16,23.633531,120.552392,1.4634681e-09
C0K600,箔子寮,2026-02-16,23.6197,120.14,1.5212349e-09
C0G830,埤頭,2026-02-16,23.866003,120.452806,1.0109267e-09
C0S950,七塊厝,2026-02-16,22.954453,121.229922,9.7863815e-09
467110,金門,2026-02-16,24.407306,118.289281,9.392194e-09
C0AH80,深坑,2026-02-16,25.002703,121.628328,1.9739748e-09
C0A970,三貂角,2026-02-16,25.007606,122.002058,2.5431373e-09
C2D730,寶山農場,2026-02-16,24.732444,120.976153,1.4061531e-09
C0K430,褒忠,2026-02-16,23.690938,120.303634,8.013425e-10
467480,嘉義,2026-02-16,23.495925,120.432906,3.5408854e-09
C0V400,阿公店,2026-02-16,22.804194,120.355528,1.4359561e-09
C0E960,觀霧分站,2026-02-16,24.505781,121.113921,1.1265968e-08
467550,玉山,2026-02-16,23.48718,120.95943,2.6125104e-08
C0R440,大漢山,2026-02-16,22.405264,120.753181,1.6144497e-08
C0SD30,東清國小,2026-02-16,22.057128,121.564922,0.99780506
C1F9B1,桐林,2026-02-16,24.066172,120.735194,1.0272794e-09
C2H9U0,鳳鵬,2026-02-16,23.763919,120.788061,7.1119427e-10
C0K390,土庫,2026-02-16,23.679029,120.395574,1.5935869e-09
C1I450,望鄉山,2026-02-16,23.594153,120.944286,1.1358184e-08
C0E910,海埔,2026-02-16,24.648767,120.772435,1.2123741e-09
B2E890,畜試北區分所,2026-02-16,24.527806,120.770972,1.1968562e-09
C0R750,四林格山,2026-02-16,22.076989,120.802439,2.240313e-08
C0F0C0,中坑,2026-02-16,24.248517,120.903319,2.7601912e-09
C1I121,大鞍,2026-02-16,23.678381,120.760017,4.0835335e-09
C2G9E0,移民庄,2026-02-16,23.9784,120.40283,8.535194e-10
72U480,花改蘭陽分場,2026-02-16,24.686306,121.716583,1.601155e-09
C0A770,科教館,2026-02-16,25.096356,121.516507,2.4307227e-09
C0AJ60,六塊厝,2026-02-16,25.24,121.4481,2.6418077e-09
C0R620,墾雷,2026-02-16,21.900836,120.855269,0.99982876
467420,永康,2026-02-16,23.038386,120.2367,1.0806055e-09
C2M530,奮起湖,2026-02-16,23.493903,120.699253,3.3592469e-09
C0I410,名間,2026-02-16,23.837053,120.701447,9.843004e-10
A2C560,農工中心,2026-02-16,24.985917,121.239833,4.388209e-09
C0V740,旗山,2026-02-16,22.888614,120.483597,1.17528e-08
C0Z061,玉里,2026-02-16,23.3215,121.339656,6.2925603e-09
C0S840,南田,2026-02-16,22.279725,120.889208,9.194604e-07
C1I470,杉林溪,2026-02-16,23.639517,120.786444,3.965052e-09
C1X040,東原,2026-02-16,23.291597,120.463822,5.7396327e-10
C0R660,枋寮,2026-02-16,22.367722,120.590647,2.4811432e-05
C1R120,上德文,2026-02-16,22.763272,120.704442,1.2235339e-09
C0K450,大埤,2026-02-16,23.646074,120.431537,1.2403295e-09
C0UA00,土場,2026-02-16,24.576533,121.495333,2.6339135e-09
467080,宜蘭,2026-02-16,24.763975,121.756528,1.4995226e-09
C0N030,四草,2026-02-16,23.0235,120.1116,8.04861e-10
467410,臺南,2026-02-16,22.99328,120.20492,6.833386e-10
C0V650,彌陀,2026-02-16,22.783806,120.246361,4.4128012e-09
C0D660,新竹市東區,2026-02-16,24.798681,120.986942,1.5033715e-09
82S580,茶改東部分場,2026-02-16,22.907694,121.130139,1.577027e-08
C0SB40,興隆,2026-02-16,22.913661,121.257469,4.3067512e-08
467050,新屋,2026-02-16,25.006725,121.047492,5.0049485e-09
C0C710,大溪永福,2026-02-16,24.892936,121.324975,2.996365e-09
C0FA20,溫寮,2026-02-16,24.372177,120.583125,1.3205959e-09
C0V640,湖內,2026-02-16,22.887139,120.2445,1.1188807e-09
C0R910,下寮,2026-02-16,22.3929,120.5548,0.87953705
C0Z020,明里,2026-02-16,23.208717,121.262342,6.739957e-09
C0M770,嘉義梅山,2026-02-16,23.585398,120.555587,1.9497906e-09
C0C660,楊梅,2026-02-16,24.912375,121.143047,2.9970737e-09
C0SD40,牛頭山,2026-02-16,22.676661,121.506944,2.9094734e-05
C1E511,新開,2026-02-16,24.347703,120.827019,2.1957278e-09
G2F820,農試所(霧峰),2026-02-16,24.031261,120.688133,1.0803541e-09
C2M990,大巃頂,2026-02-16,23.5547,120.61439,1.634698e-09
C1I070,和社,2026-02-16,23.591131,120.888861,1.2498668e-09
C2E990,新坪頂,2026-02-16,24.30201,120.8574,3.025112e-09
C0TA80,立霧山,2026-02-16,24.183258,121.641899,1.4009924e-08
C2F000,大肚,2026-02-16,24.15295,120.572117,9.793211e-10
C1S850,豐南,2026-02-16,23.122139,121.262389,5.72801e-09
C2M9B0,西興,2026-02-16,23.2428,120.57617,5.8777955e-10
C2A920,富貴角,2026-02-16,25.263783,121.565258,3.5561478e-09
CAH030,茶改場竹圍站,2026-02-16,23.860083,120.637528,7.300556e-09
C0T960,光復,2026-02-16,23.660694,121.424964,4.1658055e-09
C0F9M0,豐原,2026-02-16,24.254322,120.720692,2.2918782e-09
C0R720,旭海,2026-02-16,22.205403,120.887614,3.1084927e-08
C0V710,苓雅,2026-02-16,22.622742,120.330669,4.0690318e-07
C0C740,觀音工業區,2026-02-16,25.064764,121.114856,5.8232645e-09
CAC040,拉拉山,2026-02-16,24.699317,121.427133,2.023958e-08
C0V790,萬山,2026-02-16,22.905944,120.688056,1.6119903e-09
U2HA30,臺大和社,2026-02-16,23.590856,120.888864,1.2498668e-09
C2H9K0,屯原,2026-02-16,24.067969,121.209389,5.6600675e-09
C0AJ90,澳底,2026-02-16,25.0552,121.9253,2.2742597e-09
C0Z100,東華,2026-02-16,23.89525,121.549833,4.7788076e-09
C0G970,三豐,2026-02-16,23.882,120.2895,4.420663e-08
V2K610,大庄合作社,2026-02-16,23.8068,120.367939,6.369596e-06
C0V900,汕尾,2026-02-16,22.4782,120.4151,0.0015051973
C1R630,龍泉,2026-02-16,22.66701,120.59091,7.32932e-05
C1AC50,關渡,2026-02-16,25.133486,121.469331,3.2230907e-09
C0C800,四稜,2026-02-16,24.64733,121.4293,1.4988943e-08
C0F9I0,神岡,2026-02-16,24.272481,120.658314,1.7873932e-09
C0K460,斗南,2026-02-16,23.678734,120.478359,1.2401947e-09
C2O810,曾文,2026-02-16,23.219681,120.497328,6.246864e-10
467280,後龍,2026-02-16,24.648563,120.831834,1.2223677e-09
C1F9J1,清水林,2026-02-16,24.071242,120.820419,1.2291711e-09
C2A650,火燒寮,2026-02-16,25.002719,121.742892,3.099486e-09
466930,竹子湖,2026-02-16,25.162078,121.544547,4.953588e-09
C1I220,樟湖,2026-02-16,23.905333,120.846983,2.4517082e-09
C0I390,仁愛,2026-02-16,24.022122,121.132206,2.307159e-09
C0Z300,東里,2026-02-16,23.26853,121.30547,6.344043e-09
C1V590,新發,2026-02-16,23.057019,120.646064,1.2311844e-09
C0K510,水林,2026-02-16,23.572924,120.24597,7.6619244e-10
72S590,東改賓朗果園,2026-02-16,22.813889,121.071278,1.9359543e-08
82A750,茶改北部分場,2026-02-16,24.955778,121.631222,4.9574163e-09
C1A750,石碇服務區,2026-02-16,25.00872,121.646242,2.0835018e-09
C0X300,鹿寮,2026-02-16,23.386047,120.477331,1.0186106e-09
G2AI50,關渡,2026-02-16,25.11575,121.492,1.5037452e-08
C0K590,雲林東勢,2026-02-16,23.674192,120.255721,8.078509e-10
C2K310,港尾布雞,2026-02-16,23.74834,120.38439,1.2968626e-09
C0A570,桶後,2026-02-16,24.848222,121.597992,5.372261e-09
C1S800,華源,2026-02-16,22.657883,121.02325,1.6375377e-06
C0G720,溪州,2026-02-16,23.851589,120.499093,1.0057953e-09
C1V160,達卡努瓦,2026-02-16,23.279811,120.705319,2.0862774e-09
C2M410,馬頭山,2026-02-16,23.324361,120.582017,5.8537303e-10
C0V850,蚵仔寮,2026-02-16,22.7256,120.2527,4.498969e-09
C0S740,池上,2026-02-16,23.119628,121.209469,5.409163e-09
C1V390,尖山,2026-02-16,22.813153,120.367789,1.3992612e-09
C0AH70,松山,2026-02-16,25.04871,121.55042,2.422766e-09
C0N010,鯤鯓國小,2026-02-16,23.1879,120.0889,7.942061e-10
C0R550,新埤,2026-02-16,22.467947,120.582894,1.43106345e-05
C0SA60,知本（水試所）,2026-02-16,22.702394,121.082761,0.00032375084
C0T9I0,豐濱,2026-02-16,23.583897,121.514806,3.38885e-09
C0UB00,淡江大學蘭陽校園,2026-02-16,24.823239,121.730383,4.065837e-09
C0W240,九宮,2026-02-16,24.423753,118.240186,9.561887e-09
C0T9N0,富里,2026-02-16,23.171639,121.249378,6.8471406e-09
U2HA50,臺大竹山,2026-02-16,23.756972,120.681556,1.4431224e-09
C0V840,鳳鼻頭,2026-02-16,22.5083,120.3591,0.0013432297
C0X140,西港,2026-02-16,23.125608,120.203108,2.09891e-09
72D080,桃改五峰分場,2026-02-16,24.612194,121.157167,6.3301067e-09
C2H9P0,伊拿谷,2026-02-16,23.963211,121.088264,1.985912e-09
C2K250,崙背,2026-02-16,23.75553,120.31893,8.013425e-10
C2H9F0,柑林,2026-02-16,24.018658,120.847072,6.4369177e-10
C0TA20,加灣,2026-02-16,24.082025,121.608944,8.570174e-09
C0V530,阿蓮,2026-02-16,22.883208,120.327508,8.223322e-10
C0FB30,八仙山苗圃,2026-02-16,24.192719,121.001366,2.6298275e-09
C1O880,關山,2026-02-16,23.173397,120.594092,5.7696636e-10
C0E791,卓蘭,2026-02-16,24.3126,120.8244,2.2040105e-09
C1I030,武界,2026-02-16,23.913225,121.052483,1.7046092e-09
C0R520,崁頂,2026-02-16,22.514781,120.506914,0.7494506
C0R341,牡丹,2026-02-16,22.130036,120.792639,2.4621784e-08
C0R930,萬丹,2026-02-16,22.5885,120.4851,0.03969877
C0S760,紅石,2026-02-16,23.069131,121.126219,1.7042526e-08
C2C410,中央大學,2026-02-16,24.967652,121.185165,4.413138e-09
C1M610,石磐龍,2026-02-16,23.496606,120.663506,2.456019e-09
C0C790,東眼山,2026-02-16,24.8284,121.40888,9.040485e-09
C0UA10,鴛鴦湖,2026-02-16,24.590269,121.412228,2.1047038e-08
V2C260,八德蔬果,2026-02-16,24.978508,121.281819,3.9313544e-08
C0R800,丹路,2026-02-16,22.204481,120.750989,2.2351096e-06
C0G920,永靖,2026-02-16,23.924703,120.547533,9.937475e-10
C2M950,太和,2026-02-16,23.538372,120.702961,3.3221124e-09
C1A630,下盆,2026-02-16,24.771003,121.538622,7.526111e-09
B2N890,畜產試驗所,2026-02-16,23.058972,120.336406,2.6240452e-09
C0UA30,白嶺,2026-02-16,24.527819,121.519031,1.1954741e-08
467571,新竹,2026-02-16,24.828575,121.01455,1.8254889e-09
C1V580,溪南(特生中心),2026-02-16,23.084972,120.788475,4.3347526e-09
C1T970,大農,2026-02-16,23.615233,121.413331,4.493138e-09
C0R650,竹田,2026-02-16,22.58486,120.54344,0.30065954
C1H900,清流,2026-02-16,24.080775,120.962997,1.5824889e-09
C1C510,水尾,2026-02-16,24.940081,121.087161,4.110101e-09
C2N170,茅港尾,2026-02-16,23.2061,120.2624,2.7790872e-09
C0F9X0,大雅(中科園區),2026-02-16,24.21528,120.62445,8.3146084e-10
C0SB60,白守蓮,2026-02-16,23.126769,121.401914,3.4106573e-09
C0O970,虎頭埤,2026-02-16,23.021375,120.347878,1.2913337e-09
C0C730,中大臨海站,2026-02-16,24.966126,121.008581,2.288746e-09
C0X250,新營,2026-02-16,23.310689,120.316681,2.3806048e-09
C0V700,三民,2026-02-16,22.645017,120.311233,4.7534334e-07
C0U870,大礁溪,2026-02-16,24.791042,121.675047,4.8218127e-09
C0E870,高鐵苗栗,2026-02-16,24.60725,120.826094,1.2207577e-09
C0TA30,鹽寮,2026-02-16,23.845606,121.592664,4.8170508e-09
C0M860,新美,2026-02-16,23.338017,120.683169,1.0846508e-09
C1E701,八卦,2026-02-16,24.491756,120.927619,4.45807e-09
C2TA90,加納納,2026-02-16,23.466421,121.359867,6.0687997e-09
C0I420,國姓,2026-02-16,24.037803,120.855072,6.6021577e-10
C2D720,關西工作站,2026-02-16,24.757275,121.184792,2.2294464e-09
C0S960,香蘭,2026-02-16,22.587569,120.993375,5.921323e-09
467620,蘭嶼,2026-02-16,22.0369,121.55843,0.9993687
C0R260,春日,2026-02-16,22.370361,120.628306,5.2144933e-06
72G600,臺中農改場,2026-02-16,24.003028,120.534389,1.1036749e-09
C0Z210,瑞穗,2026-02-16,23.5239,121.39021,4.658838e-09
C0M820,達邦,2026-02-16,23.453994,120.749517,1.952269e-09
C0V860,南寮,2026-02-16,22.7616,120.2339,4.5057704e-09
C0G740,大城,2026-02-16,23.852487,120.320935,4.4249738e-08
C0R920,塭仔,2026-02-16,22.4169,120.5197,0.8824913
C0R470,高樹,2026-02-16,22.826389,120.600806,2.4571175e-06
C0R680,佳樂水,2026-02-16,21.993578,120.861633,0.99973077
C1O870,大棟山,2026-02-16,23.31157,120.52226,2.05293e-09
C0D360,梅花,2026-02-16,24.678347,121.208558,3.8840984e-09
C0Z190,富世,2026-02-16,24.14743,121.6297,3.240696e-09
C0AI10,屈尺,2026-02-16,24.92184,121.54475,2.5403932e-09
B2U990,畜試東區分所,2026-02-16,24.669039,121.832561,1.4113147e-09
C0SB80,長濱漁港,2026-02-16,23.313644,121.459994,2.9673424e-09
C0TA50,和仁,2026-02-16,24.241394,121.712472,4.161319e-09
C0V910,大樹,2026-02-16,22.684645,120.432803,8.39894e-07
C1R610,西大武山,2026-02-16,22.617719,120.7322,8.3123455e-09
C0G900,線西,2026-02-16,24.143358,120.443536,1.3046778e-09
C0M700,竹崎,2026-02-16,23.526178,120.555508,1.6606594e-09
C2E880,三義,2026-02-16,24.405478,120.749819,2.4109144e-09
C0C720,竹圍,2026-02-16,25.112692,121.239824,4.874837e-09
C0F9P0,清水,2026-02-16,24.312297,120.562242,1.1969931e-09
C0Z150,吉安光華,2026-02-16,23.930925,121.595153,4.86231e-09
C0FA80,小雪山天池,2026-02-16,24.28025,121.02627,1.6010887e-08
467300,東吉島,2026-02-16,23.25727,119.66762,0.5008413
C1D640,外坪(五指山),2026-02-16,24.644447,121.090961,4.47057e-09
C2R9A0,高士國小,2026-02-16,22.12553,120.84653,2.5098307e-08
C0F9O0,潭子,2026-02-16,24.213106,120.703933,2.35756e-09
C2H9R0,卓社,2026-02-16,23.887894,121.000086,3.1775667e-09
72T250,花蓮農改場,2026-02-16,23.975222,121.563889,4.8194497e-09
C0E780,銅鑼,2026-02-16,24.489681,120.790853,1.2567227e-09
C1T950,太安,2026-02-16,23.666719,121.370128,9.12339e-09
C0E830,苑裡,2026-02-16,24.439714,120.653053,2.057391e-09
467270,田中,2026-02-16,23.873803,120.581286,9.875933e-10
C0SA10,檳榔四格山,2026-02-16,22.810031,121.109308,1.7945165e-08
C1T830,布洛灣,2026-02-16,24.17184,121.57127,9.28155e-09
C0F970,大坑,2026-02-16,24.173142,120.722289,2.9896858e-09
C1U920,思源,2026-02-16,24.393125,121.347214,1.2318379e-08
C2H9Y0,松茗,2026-02-16,23.8167,120.650765,7.683862e-10
C0A931,三和,2026-02-16,25.233153,121.595236,3.3294134e-09
C0I010,廬山,2026-02-16,24.033311,121.181808,4.277417e-09
C2M940,日野賀,2026-02-16,23.434056,120.727169,2.4108269e-09
C0R860,鼻頭,2026-02-16,22.1043,120.8979,9.750914e-05
C0UB20,壯圍,2026-02-16,24.7359,121.8163,1.3686761e-09
C0R790,九棚,2026-02-16,22.14195,120.889281,3.1950897e-08
C0W110,東莒,2026-02-16,25.9652,119.98069,3.5611453e-08
C1U930,粉鳥林,2026-02-16,24.497088,121.842479,1.7223916e-09
C1I211,蘆竹湳,2026-02-16,23.934019,120.811994,9.565895e-10
C0S830,長濱,2026-02-16,23.286817,121.411975,6.6824826e-09
C1F9F1,伯公龍,2026-02-16,24.272392,120.849047,2.8076448e-09
C0UB90,太平山莊,2026-02-16,24.494171,121.536209,1.8210663e-08
C0E810,西湖,2026-02-16,24.562947,120.7485,1.0738442e-08
C1I440,新高口,2026-02-16,23.478744,120.878939,9.250744e-09
C0O840,王爺宮,2026-02-16,23.222064,120.40085,1.712084e-09
C0T9G0,鳳林山,2026-02-16,23.735269,121.420131,1.1507995e-08
C0X080,佳里,2026-02-16,23.173039,120.145086,7.6195156e-10
C0FB70,大甲溪埔,2026-02-16,24.370625,120.620067,1.3112865e-09
C0Z310,清水斷崖,2026-02-16,24.218294,121.689142,4.0476302e-09
C0M680,太保,2026-02-16,23.455062,120.331455,1.7777882e-09
C1S820,金峰,2026-02-16,22.590969,120.933236,5.0512794e-09
C0AD10,八里,2026-02-16,25.150211,121.403947,4.4267954e-09
C2K240,草嶺,2026-02-16,23.59555,120.693461,2.4526952e-09
C1SA70,都蘭,2026-02-16,22.87794,121.226881,2.2427628e-08
C0K440,二崙,2026-02-16,23.772797,120.408944,9.749171e-10
C1A760,坪林交控,2026-02-16,24.94284,121.713442,3.1282732e-09
C0F9N0,大里,2026-02-16,24.092464,120.701378,1.0357729e-09
C0SA90,達仁林場,2026-02-16,22.264347,120.823972,5.9164456e-09
C1R290,石門山,2026-02-16,22.112611,120.756597,5.622422e-08
42HA10,萬大發電廠,2026-02-16,23.978875,121.139639,1.8882202e-09
C0R890,山海,2026-02-16,21.9878,120.7091,0.99987334
C0T9A0,月眉山,2026-02-16,23.809928,121.539828,5.6840954e-09
C0AC70,信義,2026-02-16,25.037822,121.564597,2.2741642e-09
C0K560,棋山,2026-02-16,23.68645,120.603417,1.3489868e-09
C2FB50,出雲,2026-02-16,24.206469,120.902794,3.3341605e-09
C1Z240,中平林道,2026-02-16,23.42115,121.26763,1.9131116e-08
U2H480,溪頭,2026-02-16,23.670306,120.798194,2.2692983e-09
C0M880,好美里,2026-02-16,23.3364,120.138,7.8008167e-10
C0T9E0,大坑,2026-02-16,23.880628,121.581981,5.9814163e-09
C0K530,臺西,2026-02-16,23.701547,120.197559,2.0546145e-09
C1E900,國一N128K,2026-02-16,24.560997,120.844186,1.0430229e-09
C0AJ50,水湳洞,2026-02-16,25.123695,121.862238,2.292731e-09
C0AI20,白沙灣,2026-02-16,25.283128,121.519058,2.8360032e-09
C2V310,美濃,2026-02-16,22.898792,120.51907,1.2371924e-08
C0A860,大坪,2026-02-16,25.165914,121.632969,3.5394405e-09
C1U850,觀音海岸,2026-02-16,24.38319,121.77856,5.9569834e-09
C2K610,草嶺石壁,2026-02-16,23.602469,120.707731,2.5681042e-09
C0U950,鶯子嶺,2026-02-16,24.89754,121.79244,8.56599e-09
C0O900,善化,2026-02-16,23.112883,120.297219,2.6766778e-09
C0K550,蔦松,2026-02-16,23.514319,120.229736,7.0302125e-10
E2P980,林試六龜中心,2026-02-16,22.991703,120.645722,1.5879676e-09
C0E590,通霄,2026-02-16,24.471892,120.704622,8.135571e-09
C1I310,西巒,2026-02-16,23.754486,120.883956,3.1183187e-09
C0A550,泰平,2026-02-16,24.971197,121.823711,4.6487902e-09
C0I360,水里,2026-02-16,23.812553,120.849792,6.1679184e-10
C0R830,高士,2026-02-16,22.121825,120.836781,3.8465746e-08
C1I101,溪頭,2026-02-16,23.661789,120.807647,4.67183e-09
C0AJ20,野柳,2026-02-16,25.20703,121.690021,2.1453221e-09
C0B060,暖暖,2026-02-16,25.0957,121.7403,2.6227944e-09
C1H920,長豐,2026-02-16,24.102039,120.879897,1.5219634e-09
C2S9B0,利吉,2026-02-16,22.86246,121.15486,1.6359591e-08
C0V360,內門,2026-02-16,22.975481,120.466769,1.3963525e-09
C0R850,林邊,2026-02-16,22.4634,120.5339,0.9689823
C0E930,龍鳳,2026-02-16,24.700034,120.859125,2.211793e-09
C0U910,冬山,2026-02-16,24.63373,121.7937,1.4113147e-09
C1E721,泰安,2026-02-16,24.489017,120.968036,7.696245e-09
82H320,茶改中部分場,2026-02-16,23.875611,120.913583,1.5734717e-09
C0M750,布袋,2026-02-16,23.380878,120.167789,6.206946e-10
C1S860,利嘉,2026-02-16,22.809417,121.050528,4.8648054e-09
E2S980,林試太麻里1,2026-02-16,22.598922,120.980044,5.4790656e-09
C0X170,關廟,2026-02-16,22.963017,120.327797,9.940395e-10
C0V720,林園,2026-02-16,22.507747,120.394511,0.0018555174
C1I510,線浸林道,2026-02-16,23.761508,120.832956,2.953007e-09
C0D690,外湖,2026-02-16,24.917735,120.968711,1.5475926e-08
C0C750,新興坑尾,2026-02-16,25.0061,121.0971,5.2091793e-09
B2Q810,畜試南區分所,2026-02-16,21.945583,120.802167,0.99973077
C0S790,金崙,2026-02-16,22.538122,120.966875,6.674305e-09
C0AH90,福山植物園,2026-02-16,24.760717,121.58135,8.1947045e-09
C0I540,奇萊稜線,2026-02-16,24.109231,121.326456,2.0307366e-08
C0M850,表湖,2026-02-16,23.24186,120.64166,1.1904722e-09
C0S770,大溪山,2026-02-16,22.478475,120.943325,6.5008203e-09
C0AG80,中和,2026-02-16,24.991622,121.491792,2.4754185e-09
C0T790,大禹嶺,2026-02-16,24.186117,121.316086,1.2305839e-08
C0T9B0,水源,2026-02-16,23.991861,121.537169,8.985235e-09
C0R840,牡丹池山,2026-02-16,22.168389,120.841225,1.192609e-08
C1I131,桶頭,2026-02-16,23.641944,120.654117,7.928318e-10
CAL110,布袋國中,2026-02-16,23.35893,120.18026,7.790037e-10
C2M9D0,何竹子腳,2026-02-16,23.53641,120.38203,3.5749177e-09
C0Z290,赤柯山,2026-02-16,23.36893,121.38293,1.850012e-08
C0X280,將軍,2026-02-16,23.214999,120.13577,7.5258777e-10
C0S690,太麻里,2026-02-16,22.60902,120.98533,5.8364633e-09
C0U880,北關,2026-02-16,24.9072,121.8734,2.5537144e-09
CAW010,東引,2026-02-16,26.3588,120.4836,2.9044772e-08
C0G810,埔心,2026-02-16,23.947633,120.525456,9.952384e-10
C0U970,大福,2026-02-16,24.80064,121.81389,1.4971278e-09
C2H9N0,仁愛東眼,2026-02-16,24.026875,121.1205,3.3646013e-09
C1E670,南礦,2026-02-16,24.538278,121.002836,7.3262085e-09
C0M520,東後寮,2026-02-16,23.369908,120.248065,8.360089e-10
C1E461,松安,2026-02-16,24.397972,120.986022,6.1261702e-09
C2N160,西拉雅風管處,2026-02-16,23.189481,120.335297,1.7865684e-09
C2M970,碧湖,2026-02-16,23.568632,120.624165,1.6189663e-09
C0A640,石碇,2026-02-16,24.993969,121.662917,3.1282732e-09
E2S960,林試太麻里2,2026-02-16,22.598,120.99775,5.9976157e-09
C0F9Y0,桃山,2026-02-16,24.432739,121.303808,2.1125464e-08
C1I020,萬大,2026-02-16,23.979817,121.132261,2.3334914e-09
C2UC20,長嶺,2026-02-16,24.70894,121.61162,4.857981e-09
C0U940,羅東,2026-02-16,24.68184,121.74934,1.5972264e-09
C0M650,朴子,2026-02-16,23.43463,120.23902,1.1892058e-09
C1I500,大尖山,2026-02-16,23.858572,120.994889,5.728338e-09
C0FB40,中橫21.6k,2026-02-16,24.2499,121.1455,4.359877e-09
C0G820,田尾,2026-02-16,23.901669,120.509389,9.937475e-10
E2K600,四湖植物園,2026-02-16,23.676986,120.163433,1.3908635e-09
C0S730,綠島,2026-02-16,22.6672,121.47533,0.0002043319
12Q970,東港工作站,2026-02-16,22.479997,120.466058,0.9689823
C1TA00,太魯閣,2026-02-16,24.15773,121.6236,4.340403e-09
466920,臺北,2026-02-16,25.037658,121.514853,2.422766e-09
C0R600,舊泰武,2026-02-16,22.588194,120.664944,1.3504877e-09
C1I260,北坑,2026-02-16,23.9246,121.006903,1.0105449e-09
466910,鞍部,2026-02-16,25.182586,121.529731,8.787645e-09
C1I230,九份二山,2026-02-16,23.961944,120.845,1.2074586e-09
C2M810,里佳,2026-02-16,23.389125,120.716647,3.4284109e-09
C2A660,瑞芳,2026-02-16,25.113169,121.801147,2.5009128e-09
C0R270,琉球嶼,2026-02-16,22.332244,120.362236,3.6517247e-09
C2V580,瑞山,2026-02-16,22.90304,120.43424,1.0481521e-09
C1T990,高寮,2026-02-16,23.394239,121.356808,6.397215e-09
C0G620,芬園,2026-02-16,24.015678,120.6213,9.1876473e-10
C1Z140,荖溪,2026-02-16,23.890575,121.45964,1.4143093e-08
C1I201,中心崙,2026-02-16,23.728722,120.712097,1.2678796e-09
C1I400,凌霄,2026-02-16,24.018778,121.004456,3.4602137e-09
C1M640,十字,2026-02-16,23.492153,120.753683,4.356178e-09
G2P820,農試鳳山分所,2026-02-16,22.646611,120.356083,3.7438375e-07
C0Z270,蕃薯寮,2026-02-16,23.73835,121.540108,4.8170326e-09
C2E420,竹南,2026-02-16,24.70898,120.88897,2.2007425e-09
C0FB10,出雲山苗圃,2026-02-16,24.23105,120.90475,2.774199e-09
C0F9Q0,外埔,2026-02-16,24.347817,120.705686,1.2937423e-09
C0K580,高鐵雲林,2026-02-16,23.737456,120.417944,1.2968626e-09
C2I090,鳳凰,2026-02-16,23.728081,120.787347,1.3602128e-09
C0U990,員山,2026-02-16,24.74435,121.72247,1.602426e-09
C0V770,大社,2026-02-16,22.730306,120.346639,2.4819723e-08
C0X120,麻豆,2026-02-16,23.183289,120.248611,3.8138293e-09
C0C670,龍潭,2026-02-16,24.870056,121.221389,2.0481898e-09
C0D680,香山濕地,2026-02-16,24.783581,120.914988,1.5475926e-08
C0S980,勝林山,2026-02-16,22.430439,120.8938,8.081441e-09
C0V730,大寮,2026-02-16,22.605614,120.395717,0.0013407539
C0R570,麟洛,2026-02-16,22.65078,120.52719,0.0003466979
C2M930,石卓,2026-02-16,23.478744,120.702264,4.2552672e-09
C0G9B0,和美,2026-02-16,24.105169,120.492131,1.9441386e-09
CAG100,王功漁港,2026-02-16,23.96824,120.32586,9.0561414e-08
C0X290,北門,2026-02-16,23.267772,120.125481,7.541627e-10
C2F930,大甲,2026-02-16,24.347667,120.640403,1.975459e-09
C0D650,湖口,2026-02-16,24.904794,121.043628,2.6510094e-09
C0U780,五結,2026-02-16,24.68637,121.79794,1.4113147e-09
C1I250,鯉潭,2026-02-16,23.961922,120.991131,1.2062271e-09
C0R130,阿禮,2026-02-16,22.742908,120.743678,1.5291126e-09
C0X100,臺南市北區,2026-02-16,23.010394,120.194228,6.8535005e-10
C0S920,金峰嘉蘭,2026-02-16,22.594789,120.960825,5.4519926e-09
C0V490,新興,2026-02-16,22.627422,120.298803,1.5547162e-06
C0F9K0,大安,2026-02-16,24.345061,120.588025,1.3112865e-09
467290,古坑,2026-02-16,23.633639,120.551889,1.4634681e-09
C2E970,八甲,2026-02-16,24.535811,120.795983,1.1024526e-09
C0V440,鳳山,2026-02-16,22.646653,120.356122,3.7438375e-07
C1T940,大觀,2026-02-16,23.714206,121.373133,5.9639635e-09
C0E740,造橋,2026-02-16,24.637056,120.864778,1.2192917e-09
C0R100,尾寮山,2026-02-16,22.833111,120.683889,1.6459362e-09
A2K630,臺大雲林校區,2026-02-16,23.730628,120.423903,1.2896156e-09
467990,馬祖,2026-02-16,26.169467,119.923158,4.8797137e-08
C0D580,寶山,2026-02-16,24.735006,121.025192,1.7848825e-09
E2P990,林試扇平站,2026-02-16,22.9677,120.6857,1.1952774e-09
C0AI30,三重,2026-02-16,25.057328,121.500629,2.4307227e-09
C0AH00,汐止,2026-02-16,25.066881,121.658778,1.911834e-09
C1Z040,立山,2026-02-16,23.443356,121.327375,1.5877989e-08
466881,新北,2026-02-16,24.959207,121.525196,2.4643196e-09
C0W130,花嶼,2026-02-16,23.40007,119.32276,0.72802687
C0A950,鼻頭角,2026-02-16,25.129036,121.923372,2.2742597e-09
C0K470,林內,2026-02-16,23.748675,120.609642,1.351374e-09
C2F990,摩天嶺,2026-02-16,24.322458,120.936819,2.9080622e-09
C2E430,南庄,2026-02-16,24.601775,121.000214,1.7073718e-09
82C160,茶改場,2026-02-16,24.908472,121.185333,3.060514e-09
C2TB60,南安,2026-02-16,23.29818,121.26157,6.499903e-09
C0Z320,清水林道,2026-02-16,23.27125,121.188272,1.4231471e-08
C0R760,南仁湖,2026-02-16,22.084681,120.863353,5.622422e-08
C0M670,大林,2026-02-16,23.600616,120.45841,2.143698e-09
C0M800,茶山,2026-02-16,23.299075,120.664767,5.578354e-10
C0A9C0,天母,2026-02-16,25.117494,121.537169,2.3032545e-09
72K220,南改斗南分場,2026-02-16,23.634556,120.477333,1.2401947e-09
72AI40,桃改樹林分場,2026-02-16,24.944503,121.386972,2.3448508e-09
C0S910,蘭嶼燈塔,2026-02-16,22.081197,121.503117,0.9983668
C0B050,八斗子,2026-02-16,25.144754,121.79167,2.1528068e-09
C0U900,內城,2026-02-16,24.71813,121.68766,1.5186432e-09
C0X320,柳營,2026-02-16,23.253328,120.375253,1.923909e-09
C0M790,新港,2026-02-16,23.553269,120.345728,1.4050379e-09
C0F9T0,西屯,2026-02-16,24.179494,120.641275,3.014997e-09
C0E950,松安,2026-02-16,24.39792,120.98599,6.1261702e-09
C0SA30,都歷,2026-02-16,23.020333,121.323642,3.935481e-08
C0C620,蘆竹,2026-02-16,25.084275,121.265767,5.0174314e-09
C0R730,大坪頂,2026-02-16,22.024633,120.69355,0.0012563404
C0AJ40,石門,2026-02-16,25.273672,121.601198,3.4016723e-09
C0E750,苗栗,2026-02-16,24.564569,120.824575,1.0372794e-09
C0T870,鯉魚潭,2026-02-16,23.935639,121.508944,4.8109268e-09
C1V170,排雲,2026-02-16,23.463619,120.954147,2.2069393e-08
C2H950,中寮,2026-02-16,23.884447,120.766406,6.220291e-10
C0R350,貓鼻頭,2026-02-16,21.921774,120.7358,0.9998411
C0V660,岡山,2026-02-16,22.797078,120.294958,4.12205e-09
C1H941,雙冬,2026-02-16,23.967378,120.802189,8.591544e-10
C0AJ70,田寮,2026-02-16,25.2698,121.4886,2.8082767e-09
C0AI00,五股,2026-02-16,25.07445,121.42728,3.894499e-09
C0Z280,德武,2026-02-16,23.47426,121.41071,5.752601e-09
C2RA10,大新,2026-02-16,22.67558,120.57788,7.63628e-05
C0R700,枋山,2026-02-16,22.246844,120.661086,0.99840516
C0C460,復興,2026-02-16,24.820208,121.352281,3.6927552e-09
C2K300,鹿南,2026-02-16,23.63855,120.3636,1.0138018e-09
E2H360,蓮華池,2026-02-16,23.918333,120.885278,1.0787233e-09
C0M640,中埔,2026-02-16,23.42538,120.5229,1.3799055e-09
C0W140,金沙,2026-02-16,24.488292,118.408778,7.9390965e-09
C2A540,四堵,2026-02-16,24.8926,121.745736,4.273747e-09
C0ACA0,新莊,2026-02-16,25.051478,121.446756,3.4343013e-09
C0R220,潮州,2026-02-16,22.534361,120.54,0.7074986
U2HA40,臺大內茅埔,2026-02-16,23.689722,120.851117,7.6017764e-10
467490,臺中,2026-02-16,24.145736,120.684075,3.2992848e-09
C0UB60,明池,2026-02-16,24.650688,121.475277,1.36525085e-08
C0U960,翠峰湖,2026-02-16,24.510856,121.608044,1.745986e-08
E2HA20,林試畢祿溪站,2026-02-16,24.226944,121.308522,6.5120638e-09
C2M9A0,大華,2026-02-16,23.4824,120.67491,2.2409146e-09
C0V890,前鎮,2026-02-16,22.5718,120.3117,2.3933985e-06
C1F941,雪嶺,2026-02-16,24.280586,121.026642,1.6010887e-08
C2H9E0,國姓南港,2026-02-16,23.911108,120.846556,2.5799214e-09
C0AC80,文山,2026-02-16,25.00235,121.575728,2.159638e-09
C0F9R0,龍井,2026-02-16,24.184536,120.528972,1.376286e-09
C0M760,民雄,2026-02-16,23.551754,120.428457,2.143698e-09
C0UA40,西德山,2026-02-16,24.560647,121.752608,9.718506e-09
C2TA70,赤科坪,2026-02-16,23.39885,121.39168,1.8060161e-08
C1T920,中興,2026-02-16,23.769503,121.498653,3.7371897e-09
C0D550,雪霸,2026-02-16,24.526972,121.11605,9.015517e-09
C2F860,梨山,2026-02-16,24.247522,121.243669,1.0654732e-08
C0R320,車城,2026-02-16,22.0744,120.716247,0.9970422
C1S870,南美山,2026-02-16,23.15025,121.382333,5.079665e-09
C0B020,基隆嶼,2026-02-16,25.19141,121.78391,2.2227122e-09
C1U501,牛鬥,2026-02-16,24.637836,121.573656,3.2164458e-09
C0M730,嘉義市東區,2026-02-16,23.457673,120.460531,1.7445936e-09
C2R990,泰武,2026-02-16,22.60686,120.69765,2.9434248e-09
C0S700,知本,2026-02-16,22.684866,121.005642,4.9567164e-09
C1N001,沙崙,2026-02-16,22.935472,120.309406,9.932662e-10
C0V760,橋頭,2026-02-16,22.757806,120.30575,2.5045848e-08
C0G960,福寶,2026-02-16,24.0443,120.3814,1.0422493e-09
C0X210,白河,2026-02-16,23.347466,120.414427,1.1305269e-09
C0S810,東河,2026-02-16,22.972672,121.303986,3.3602486e-08
C2R170,屏東,2026-02-16,22.66027,120.49403,0.00034999623
C0R670,楓港,2026-02-16,22.190131,120.692156,0.99769795
C0FA50,霧峰,2026-02-16,24.0419,120.6995,1.0283634e-09
C0UB10,蘇澳,2026-02-16,24.5969,121.8571,1.1458883e-09
C0G950,防潮門,2026-02-16,24.1835,120.4871,1.3006627e-09
C0M740,六腳,2026-02-16,23.492871,120.290625,1.3368457e-09
C1R250,力里,2026-02-16,22.428117,120.629228,6.3672694e-09
C0K330,虎尾,2026-02-16,23.719183,120.442036,1.2896156e-09
C2FA00,烏石坑,2026-02-16,24.273503,120.947617,2.8685467e-09
C0V620,永安,2026-02-16,22.82315,120.236856,4.1876818e-09
C1I330,楓樹林,2026-02-16,23.986803,121.076117,2.8261216e-09
C0W200,湖西,2026-02-16,23.596314,119.67275,0.3062659
72Q010,高雄農改場,2026-02-16,22.709333,120.525889,3.663217e-05
C0SA40,瑞和,2026-02-16,22.974361,121.156697,9.839049e-09
C0C680,龜山,2026-02-16,25.02846,121.38656,3.1080698e-09
C2V260,月眉,2026-02-16,22.971003,120.539853,1.9051651e-09
C0V450,鳳森,2026-02-16,22.545064,120.392592,0.0011365224
C0FA90,小雪山林道,2026-02-16,24.29515,121.03651,2.0710145e-08
C0U720,南山,2026-02-16,24.43742,121.38167,9.19991e-09
A2N290,臺南蘭花園區,2026-02-16,23.340258,120.379661,1.3590536e-09
C0R560,新園,2026-02-16,22.5434,120.461558,0.0018555174
C0U890,三星,2026-02-16,24.66812,121.65302,1.6375503e-09
C1V300,御油山,2026-02-16,23.001983,120.715364,4.2301647e-09
C0U600,礁溪,2026-02-16,24.817539,121.765608,1.4936509e-09
C1T980,龍澗,2026-02-16,24.023289,121.411328,1.3392454e-08
C0D670,海天一線,2026-02-16,24.831986,120.914438,1.4219017e-08
C0SA00,歷坵,2026-02-16,22.520969,120.89185,6.545724e-09
C0M710,東石,2026-02-16,23.458927,120.15385,6.1656485e-10
C0M780,鹿草,2026-02-16,23.41134,120.30835,1.1814782e-09
C0U520,雙連埤,2026-02-16,24.753033,121.641303,4.5471857e-09
C0B010,七堵,2026-02-16,25.094819,121.71713,2.2609814e-09
C0R480,長治,2026-02-16,22.693128,120.542622,0.00020388135
C1V830,國三S383K,2026-02-16,22.781967,120.426475,3.216337e-08
12Q980,恆春工作站,2026-02-16,22.079678,120.714425,0.9970658
C1O940,東山服務區,2026-02-16,23.286016,120.398472,1.360584e-09
C1U840,東澳嶺,2026-02-16,24.5378,121.8485,6.7962667e-09
C1D630,飛鳳山,2026-02-16,24.766464,121.119178,3.2036618e-09
C0S940,石寧山,2026-02-16,23.223772,121.406639,3.6499839e-09
C0K410,北港,2026-02-16,23.573957,120.292802,7.65049e-10
C2M620,瑞里,2026-02-16,23.545133,120.675197,2.6268194e-09
C0SB70,小港漁港,2026-02-16,23.158558,121.400431,3.426626e-09
C2O950,安南,2026-02-16,23.076694,120.144861,7.3833695e-10
C0F0E0,南湖圈谷,2026-02-16,24.363714,121.444667,2.4059496e-08
467610,成功,2026-02-16,23.097486,121.373428,5.7034044e-09
C0G890,伸港,2026-02-16,24.148933,120.484403,1.3006627e-09
C2E540,龍溪,2026-02-16,24.606489,120.783933,1.0192441e-09
C1V200,梅山,2026-02-16,23.268447,120.823556,1.3931016e-09
C0T9H0,加路蘭山,2026-02-16,23.682947,121.5274,7.4697795e-09
C2O930,玉井,2026-02-16,23.126042,120.46055,1.4151289e-09
C1F911,新伯公,2026-02-16,24.221361,120.841069,2.9950393e-09
C0R490,九如,2026-02-16,22.7405,120.490503,3.8525224e-05
C0X200,左鎮,2026-02-16,23.056758,120.408522,2.6028106e-09
C2TB50,麻汝,2026-02-16,23.42554,121.39358,5.694578e-09
C0FA60,鞍馬山工作站,2026-02-16,24.267064,121.000793,1.0823882e-08
C0SB50,叭嗡嗡,2026-02-16,23.047062,121.343223,5.6117586e-09
C1F891,稍來,2026-02-16,24.265689,121.001142,1.0440743e-08
C2M9C0,紫雲,2026-02-16,23.494914,120.540253,1.9153086e-09
72N240,七股研究中心,2026-02-16,23.081672,120.062894,8.097592e-10
C0C700,中壢,2026-02-16,24.977661,121.256375,4.037884e-09
C0M690,水上,2026-02-16,23.419734,120.388909,2.8593532e-09
C0V690,鼓山,2026-02-16,22.623325,120.275575,1.6607179e-06
C0O860,大內,2026-02-16,23.11885,120.36083,2.1404583e-09
C0Z200,萬榮,2026-02-16,23.709219,121.420106,4.3852637e-09
C0T9D0,和中,2026-02-16,24.26676,121.74103,4.1688897e-09
C2S9A0,北份子寮,2026-02-16,22.78561,121.07813,3.711923e-06
C1O921,楠西,2026-02-16,23.183511,120.484083,1.3983887e-09
C0AJ30,淡水觀海,2026-02-16,25.184591,121.408616,4.423495e-09
C0V810,左營,2026-02-16,22.67491,120.28491,4.7534334e-07
C0UA70,桃源谷,2026-02-16,24.962606,121.888875,5.1380917e-09
C0X130,官田,2026-02-16,23.193217,120.315422,1.7839125e-09
C1H000,翠峰,2026-02-16,24.109397,121.205211,9.8300825e-09
C0UA90,石城,2026-02-16,24.980444,121.951214,2.3151334e-09
C1E681,南勢山,2026-02-16,24.421669,120.923831,5.1051128e-09
C0A9F0,內湖,2026-02-16,25.079422,121.57545,2.2741642e-09
C0K291,宜梧,2026-02-16,23.536281,120.169329,1.4938988e-09
C1K540,口湖,2026-02-16,23.585344,120.180517,1.5196544e-09
C0R780,滿州,2026-02-16,22.024403,120.839892,2.3644012e-05
C0V870,文安,2026-02-16,22.8025,120.2164,4.498969e-09
C0U650,玉蘭,2026-02-16,24.675286,121.587061,4.881424e-09
C0R640,東港,2026-02-16,22.46247,120.44074,0.0012894119
C0AJ80,板橋,2026-02-16,25.0107,121.4489,2.4692695e-09
C0S660,下馬,2026-02-16,23.150427,121.070312,1.4592933e-08
C2N190,烏樹,2026-02-16,23.32393,120.36989,8.3098994e-10
C1H9B1,阿眉,2026-02-16,24.1263,120.994672,6.6386794e-09
C0UA20,多加屯,2026-02-16,24.368614,121.373189,9.776419e-09
C0E730,頭份,2026-02-16,24.688247,120.912206,2.195217e-09
72V140,高改旗南分場,2026-02-16,22.857861,120.516667,3.294476e-08
C0K480,莿桐,2026-02-16,23.761192,120.502372,1.1213739e-09
C0U980,坪林石牌,2026-02-16,24.86478,121.77396,5.0522333e-09
C0T900,西林,2026-02-16,23.8119,121.441458,4.021927e-09
C1I150,青雲,2026-02-16,23.793361,120.949378,6.957777e-10
C2E980,和興,2026-02-16,24.505319,120.923016,3.4850451e-09
467350,澎湖,2026-02-16,23.565503,119.563094,0.33672607
C0G800,埔鹽,2026-02-16,24.000394,120.431683,1.0125669e-09
C0H960,草屯,2026-02-16,23.973672,120.68085,9.365034e-10
C1V780,多納林道,2026-02-16,22.888028,120.737917,2.0543245e-09
C0E920,通霄漁港,2026-02-16,24.498589,120.673876,8.091992e-09
C0Z330,安通山,2026-02-16,23.290728,121.348528,7.849208e-09
C0AH10,永和,2026-02-16,25.01125,121.508111,2.4692695e-09
C0AK10,太平里,2026-02-16,25.134937,121.364899,4.640401e-09
C2G640,鹿港,2026-02-16,24.0753,120.430481,1.958292e-09
C1E890,國三N149K,2026-02-16,24.463414,120.680019,8.150513e-09
C1R110,口社,2026-02-16,22.770111,120.645222,3.7194262e-05
C1M870,國三N285K,2026-02-16,23.550319,120.505833,1.8977449e-09
C1E480,鳳美,2026-02-16,24.554803,121.034747,2.8977913e-09
C0T9M0,靜浦,2026-02-16,23.455167,121.495028,4.4922808e-09
C2H9M0,發祥,2026-02-16,24.154094,121.164517,4.3969055e-09
C2G9C0,埔南,2026-02-16,23.99124,120.46969,1.0125669e-09
C0AI40,石牌,2026-02-16,25.115597,121.513139,2.2741642e-09
C1F871,上谷關,2026-02-16,24.203483,121.018644,2.8719849e-09
C2H9G0,百勝,2026-02-16,24.051142,120.909361,1.0894776e-09
C0G880,二水,2026-02-16,23.810742,120.6173,1.0177056e-09
C0R940,加祿堂,2026-02-16,22.3363,120.6217,0.9984753
C0W220,北竿,2026-02-16,26.220358,119.974881,4.02496e-08
C0O960,崎頂,2026-02-16,22.959547,120.369317,9.675997e-10
C0TA40,秀林,2026-02-16,24.302864,121.731144,8.562756e-09
C0S750,向陽,2026-02-16,23.248397,120.986133,7.632989e-09
C0T9F0,水璉,2026-02-16,23.797131,121.542514,4.48278e-09
C1M600,頭凍,2026-02-16,23.406364,120.603339,1.526618e-09
467660,臺東,2026-02-16,22.752211,121.154586,1.8872217e-05
C1D380,新埔,2026-02-16,24.84745,121.03834,1.8860964e-09
C2G980,田頭村,2026-02-16,23.8263,120.444175,9.749171e-10
C0V750,路竹,2026-02-16,22.854997,120.259439,4.1175947e-09
C0N050,蚵寮,2026-02-16,23.301,120.1104,7.541627e-10
C2X060,下營,2026-02-16,23.226806,120.256291,2.7790872e-09
72M700,南改鹿草分場,2026-02-16,23.416869,120.283061,1.1892058e-09
C1SA50,利嘉林道,2026-02-16,22.82325,121.009389,8.910415e-09
C0UB70,太平山中間站,2026-02-16,24.542003,121.513453,6.615876e-09
C0A940,金山,2026-02-16,25.223628,121.643967,2.4456879e-09
C1V340,大津,2026-02-16,22.888322,120.645986,4.9774382e-08
C0W180,七美,2026-02-16,23.219333,119.444892,0.8115429
C1F9C1,白冷,2026-02-16,24.182844,120.929889,1.7177493e-09
K2E710,苗改生物防治研究中心,2026-02-16,24.422861,120.871833,1.9285493e-09
C0N040,蘆竹溝,2026-02-16,23.2344,120.0961,7.541627e-10
C0TB40,崇德,2026-02-16,24.166144,121.657414,2.9646778e-09
C0D760,大坪苗圃,2026-02-16,24.5362,121.1108,8.773744e-09
C2W230,畜試所澎湖,2026-02-16,23.628342,119.513206,0.05615538
C0R880,後壁湖,2026-02-16,21.9457,120.7457,0.9998729
C1I280,埔中,2026-02-16,23.820778,120.642594,7.7915824e-10
467790,墾丁雷達站,2026-02-16,21.948235,120.808028,0.99972284
C0W190,望安,2026-02-16,23.380564,119.494075,0.47917533
C0Z170,卓溪,2026-02-16,23.3443,121.3029,6.557383e-09
C0F850,東勢,2026-02-16,24.246428,120.833047,3.0503622e-09
466900,淡水,2026-02-16,25.164889,121.448906,2.6417422e-09
C0I370,魚池,2026-02-16,23.895703,120.94135,1.1579592e-09
C0C630,大溪,2026-02-16,24.882853,121.265547,2.5819937e-09
C0A520,山佳,2026-02-16,24.974944,121.402008,2.3160256e-09
C0I110,竹山,2026-02-16,23.761225,120.688156,1.4590477e-09
82H840,茶改南部分場,2026-02-16,23.762528,120.7405,7.2014056e-10
C2SD80,再來山,2026-02-16,23.34371,121.44122,3.5432297e-09
C0G660,溪湖,2026-02-16,23.94835,120.479122,1.0153828e-09
C1T800,洛韶,2026-02-16,24.204558,121.453956,1.5928768e-08
C1T810,慈恩,2026-02-16,24.192044,121.388386,7.804676e-09
C1E451,象鼻,2026-02-16,24.368617,120.940228,3.9122554e-09
C0AC60,三峽,2026-02-16,24.939025,121.369728,2.9748792e-09
C0I490,萬大林道,2026-02-16,23.928228,121.091411,4.6531192e-09
C1I290,豐丘,2026-02-16,23.668178,120.887417,3.3101328e-09
C1I320,奧萬大,2026-02-16,23.952956,121.178556,2.7889642e-09
C2M910,嘉義大學,2026-02-16,23.471325,120.485903,1.7066392e-09
C0U770,南澳,2026-02-16,24.44935,121.81022,1.7342556e-09
C2TB30,吉安,2026-02-16,23.94538,121.54803,4.785859e-09
C0A980,社子,2026-02-16,25.109508,121.469681,2.9479759e-09
C0V800,六龜,2026-02-16,22.997889,120.633583,1.6555013e-09
C1G9D0,國一S218K,2026-02-16,23.890641,120.493253,1.1407028e-09
C0E570,白沙屯,2026-02-16,24.549447,120.696803,1.115542e-08
C2F9A0,中竹林,2026-02-16,24.103556,120.751061,1.0651904e-09
C0FA40,臺中電廠,2026-02-16,24.2146,120.4907,1.3290711e-09
C2G9A0,畜試所彰化,2026-02-16,23.86045,120.557964,9.875933e-10
C0H9C0,合歡山,2026-02-16,24.143442,121.272547,2.1532637e-08
G2M350,農試溪口農場,2026-02-16,23.58565,120.408111,2.173017e-09
C0U860,頭城,2026-02-16,24.85323,121.8308,1.6741949e-09
C0R580,南州,2026-02-16,22.48591,120.50274,0.9689823
C0D430,峨眉,2026-02-16,24.6905,121.017189,1.4778326e-09
C0G780,秀水,2026-02-16,24.03405,120.503869,1.1036749e-09
72N100,臺南農改場,2026-02-16,23.0605,120.342194,2.6240452e-09
C0S900,蘭嶼高中,2026-02-16,22.04909,121.51214,0.99296
C2TA60,六十石,2026-02-16,23.22477,121.31861,1.6466247e-08
C1F9W0,德基,2026-02-16,24.254783,121.190261,1.0312041e-08
C2M980,安和,2026-02-16,23.51377,120.31593,1.3276498e-09
C1Z120,壽豐,2026-02-16,23.870853,121.508081,4.7788076e-09
C0W160,烏坵,2026-02-16,24.9944,119.44956,1.14655606e-07
C1I240,外大坪,2026-02-16,23.958697,120.917931,1.2680538e-09
C1I550,國六W023K,2026-02-16,23.979067,120.867742,6.998972e-10
C0R870,興海,2026-02-16,21.9752,120.8439,0.99973077
C0R140,瑪家,2026-02-16,22.682903,120.686639,9.323294e-10
C0A530,坪林,2026-02-16,24.938183,121.70975,3.440989e-09
C0X260,後壁,2026-02-16,23.366358,120.362326,1.6282939e-09
C0Z230,和平,2026-02-16,24.30717,121.77007,2.9858562e-09
C0G770,福興,2026-02-16,24.041289,120.437669,1.0125669e-09
C0H9A0,神木村,2026-02-16,23.532742,120.843667,3.468083e-09
C0I460,南投,2026-02-16,23.911469,120.687331,9.408074e-10
C0I480,梅峰,2026-02-16,24.085272,121.173572,6.5025443e-09
C1V570,吉東,2026-02-16,22.85422,120.5454,2.754159e-06
C2A560,福山,2026-02-16,24.776203,121.502811,4.697877e-09
C0AH30,五分山,2026-02-16,25.07125,121.780794,6.6694312e-09
C0FA10,松柏,2026-02-16,24.429115,120.617482,2.0674573e-09
72S200,東改班鳩分場,2026-02-16,22.829528,121.077694,2.230498e-08
72HA00,中改埔里分場,2026-02-16,23.903208,120.963364,1.1361039e-09
C2H9W0,大坪頂農水,2026-02-16,24.043122,120.932781,1.2189777e-09
C0C650,平鎮,2026-02-16,24.897503,121.214636,2.6835278e-09
C0S930,延平,2026-02-16,22.902581,121.084058,1.468754e-08
C0UA60,樟樹山,2026-02-16,24.41393,121.78325,5.0973776e-09
C2UC10,出水溪,2026-02-16,24.615822,121.652253,3.5188965e-09
C1S670,摩天,2026-02-16,23.199503,121.027,1.6860753e-08
C2C590,觀音,2026-02-16,25.027072,121.153317,5.8859095e-09
C0V630,茄萣,2026-02-16,22.906642,120.182608,1.1185243e-09
466940,基隆,2026-02-16,25.133314,121.740475,2.171857e-09
C0X050,東河,2026-02-16,23.296598,120.385608,1.3590536e-09
C0R770,保力,2026-02-16,22.071122,120.764111,0.0029658969
G2L020,農試嘉義分所,2026-02-16,23.485028,120.473806,1.7032832e-09
C0X240,關子嶺,2026-02-16,23.331169,120.508025,6.0257055e-10
C0I380,集集,2026-02-16,23.828206,120.801467,6.0734984e-10
466990,花蓮,2026-02-16,23.975128,121.613275,8.57019e-09
C1V220,小關山,2026-02-16,23.154217,120.813603,4.908481e-09
C1F9G1,慶福山,2026-02-16,24.180853,120.848378,2.3505196e-09
C0FB20,雪山橋,2026-02-16,24.23192,120.9786,9.916369e-09
C0Z250,瑞穗林道,2026-02-16,23.49284,121.30688,1.9130898e-08
C0D590,新豐,2026-02-16,24.87068,120.97721,1.4735579e-08
C0A870,五指山,2026-02-16,25.132153,121.608692,5.439394e-09
C0UA50,西帽山,2026-02-16,24.555361,121.802628,6.7193944e-09
C2R980,竹田國中,2026-02-16,22.61532,120.52412,0.2889812
C0X160,仁德,2026-02-16,22.968258,120.257689,9.923421e-10
C1H971,六分寮,2026-02-16,23.92507,120.6378,1.0679102e-09
C0W120,西嶼,2026-02-16,23.5626,119.468436,0.23648033
C0G650,員林,2026-02-16,23.946503,120.585597,9.915494e-10
C0AD50,鶯歌,2026-02-16,24.951533,121.346294,2.5398992e-09
C2H9Q0,北東眼山,2026-02-16,24.120939,121.189303,8.771954e-09
C2H9T0,名間竹圍,2026-02-16,23.859914,120.637572,9.642944e-10
C0S990,山豬窟,2026-02-16,22.318619,120.857372,5.7104583e-09
C0X190,安平,2026-02-16,22.993161,120.152181,7.0557493e-10
C0K400,斗六,2026-02-16,23.720583,120.541127,1.1208393e-09
12J990,口湖工作站,2026-02-16,23.589978,120.180394,1.5212349e-09
C0O830,北寮,2026-02-16,23.079561,120.495008,1.0626761e-09
C1D410,白蘭,2026-02-16,24.579364,121.079947,7.4372943e-09
C0S970,加津林,2026-02-16,22.416211,120.926942,7.967966e-09
C0D700,關西,2026-02-16,24.7977,121.1732,2.2038256e-09
C0U750,龜山島,2026-02-16,24.841667,121.953133,3.5222674e-09
C0R810,內獅,2026-02-16,22.305064,120.642986,0.9984753
C1M390,龍美,2026-02-16,23.406728,120.654417,2.3765219e-09
C2K290,崙內,2026-02-16,23.69525,120.35601,1.0138018e-09
C2FB60,頭櫃山,2026-02-16,24.129842,120.858925,2.8072378e-09
C1H840,國三N238K,2026-02-16,23.841008,120.707711,6.608759e-10
CAQ030,崎峰國小,2026-02-16,22.42565,120.49521,0.9689823
C2E520,大湖,2026-02-16,24.414939,120.870872,1.942556e-09
467530,阿里山,2026-02-16,23.508208,120.813242,1.1443337e-08
C1E691,南湖,2026-02-16,24.40135,120.837533,3.338042e-09
C0FA30,梧棲,2026-02-16,24.256003,120.523381,1.3682585e-09
C1V231,高中,2026-02-16,23.134911,120.716711,1.3010348e-09
C0AK30,硬漢嶺,2026-02-16,25.136097,121.426372,5.9813363e-09
C0F9V0,新社,2026-02-16,24.200172,120.815806,3.017183e-09
C0H890,埔里,2026-02-16,23.972169,120.952425,9.359284e-10
C0R690,墾丁,2026-02-16,21.966756,120.810269,0.21361479
C0SD20,富山,2026-02-16,22.822383,121.190825,3.9956262e-08
C0F0D0,審馬陣,2026-02-16,24.381675,121.4203,1.7148302e-08
C2W030,金門農試所,2026-02-16,24.448431,118.451786,1.1298376e-08
C0R820,白鷺,2026-02-16,22.454275,120.666219,1.4943319e-09
C0FB00,大雪山,2026-02-16,24.254668,121.007374,1.092135e-08
C1V190,南天池,2026-02-16,23.27403,120.91176,8.197597e-09
C0E940,雪見,2026-02-16,24.42595,121.01347,1.1678277e-08
K2E360,苗栗農改場,2026-02-16,24.495722,120.829111,1.1767958e-09
CAJ050,海口故事園區,2026-02-16,23.57543,120.14121,1.5196544e-09
C2K280,四湖,2026-02-16,23.6304,120.22717,1.3908635e-09
C2H9D0,三隻寮,2026-02-16,24.093078,120.861578,1.3065804e-09
C0O990,媽廟,2026-02-16,22.99175,120.293525,1.0757871e-09
C0D480,打鐵坑,2026-02-16,24.849664,121.150789,2.1352144e-09
C0Z220,和平林道,2026-02-16,24.343922,121.656317,6.445508e-09
C0TA10,花蓮漁港,2026-02-16,23.995322,121.638331,2.070188e-09
72C440,桃園農改場,2026-02-16,24.950944,121.030583,2.5849503e-09
C1E711,馬拉邦山,2026-02-16,24.367306,120.901656,4.2110138e-09
C0SB20,富岡,2026-02-16,22.792467,121.192669,4.8740397e-08
C0D560,竹東,2026-02-16,24.767147,121.057881,1.591992e-09
C0F9U0,南屯,2026-02-16,24.137006,120.637969,6.8459394e-09
C2SD60,明峰,2026-02-16,22.8671,121.11825,1.3919071e-08
C0M720,番路,2026-02-16,23.464657,120.554156,7.5063233e-10
C0F0A0,雪山圈谷,2026-02-16,24.388594,121.236339,2.600777e-08
C1A9N0,四十份,2026-02-16,24.934158,121.593283,4.5367203e-09
C0U760,東澳,2026-02-16,24.52196,121.83318,1.791612e-09
C0X230,鹽水,2026-02-16,23.272621,120.247641,7.7105083e-10
C2H9H0,苗改南投蜂場,2026-02-16,23.852589,120.693481,9.808427e-10
C2TB70,達谷寮,2026-02-16,23.38,121.35968,6.7440595e-09
C0R950,萬隆國小,2026-02-16,22.507667,120.587817,8.185191e-06
467540,大武,2026-02-16,22.35572,120.90374,1.2238576e-06
C0V370,古亭坑,2026-02-16,22.893178,120.401947,1.0531641e-09
C1I340,新興橋,2026-02-16,23.563333,120.868728,1.7295649e-09
C0SA80,土坂,2026-02-16,22.453108,120.887572,6.3993144e-09
C0R160,鹽埔,2026-02-16,22.739558,120.530778,3.663217e-05
C0AC40,大屯山,2026-02-16,25.175675,121.522408,1.1919541e-08
466850,五分山雷達站,2026-02-16,25.071182,121.781205,6.7147434e-09
C2H9L0,馬烈霸,2026-02-16,24.1512,121.201772,8.929198e-09
C1AI50,國三N016K,2026-02-16,25.034164,121.619664,2.1977349e-09
C2V920,匏子寮,2026-02-16,23.04905,120.55319,8.7684526e-10
C1V600,藤枝,2026-02-16,23.071961,120.757042,3.6519545e-09
C1E601,南勢,2026-02-16,24.572486,120.734842,9.796672e-09
C0O980,新市,2026-02-16,23.061614,120.298197,2.6766778e-09
C0K420,西螺,2026-02-16,23.800407,120.467394,9.709866e-10
C0Z050,佳心,2026-02-16,23.34567,121.21316,1.5657546e-08
C0AD30,蘆洲,2026-02-16,25.086594,121.472331,3.2623153e-09
C0V610,梓官,2026-02-16,22.760558,120.267211,4.429608e-09
K2F750,種苗改良場,2026-02-16,24.225972,120.800917,3.068206e-09
C0UA80,大溪漁港,2026-02-16,24.941801,121.902955,2.5646532e-09
C1AI60,國一39K邊坡,2026-02-16,25.064361,121.383836,4.085263e-09
C0W150,金寧,2026-02-16,24.457703,118.328989,9.428558e-09
C0R960,內埔,2026-02-16,22.608483,120.570714,0.2889812
V2C250,八德合作社,2026-02-16,24.93775,121.266389,3.4529503e-08
C2H9S0,龍南,2026-02-16,23.953536,120.833183,1.9546276e-09
C0AH40,平等,2026-02-16,25.129142,121.577086,3.7063457e-09
C0R540,佳冬,2026-02-16,22.419456,120.552375,0.8606528
466950,彭佳嶼,2026-02-16,25.627975,122.079744,1.9677808e-08
C0A890,雙溪,2026-02-16,25.036003,121.864242,2.3930196e-09
C0C480,桃園,2026-02-16,24.992425,121.323172,3.980988e-09
C0AH50,林口,2026-02-16,25.072181,121.38084,4.318973e-09
A2K360,水試臺西試驗場,2026-02-16,23.717231,120.190522,2.0546145e-09
C2M960,外寮,2026-02-16,23.562643,120.665688,2.1543882e-09
C0F9S0,烏日,2026-02-16,24.107058,120.624103,1.5664855e-09
C2N180,鹿陶洋,2026-02-16,23.14325,120.48352,1.3983887e-09
C0C490,八德,2026-02-16,24.928708,121.283289,2.5153122e-09
C0R190,赤山,2026-02-16,22.592333,120.614306,0.13484216
C0T820,天祥,2026-02-16,24.179597,121.495639,9.977288e-09
C1F9E1,龍安,2026-02-16,24.1605,120.831961,3.0390785e-09
C2SD50,順那,2026-02-16,23.04166,121.29332,2.8735972e-08
C0V820,小林,2026-02-16,23.148408,120.63325,5.2131227e-10
C2G870,芳苑,2026-02-16,23.922303,120.320025,8.276358e-08
C0E850,大河,2026-02-16,24.618069,120.948578,1.4668019e-09
C1U670,寒溪,2026-02-16,24.634,121.71691,1.630031e-09
C0N020,城西,2026-02-16,23.0568,120.0956,7.735048e-10
C1Z110,三棧,2026-02-16,24.11557,121.60501,1.1131466e-08
C0R280,檳榔,2026-02-16,22.076078,120.836777,1.543687e-07
C2H9J0,中台,2026-02-16,23.9996,120.938739,1.1213119e-09
C0F9L0,后里,2026-02-16,24.310436,120.729725,2.4559579e-09
467441,高雄,2026-02-16,22.730432,120.312516,2.5045848e-08
C0Z180,新城,2026-02-16,24.040486,121.604878,8.55076e-09
C0D540,橫山,2026-02-16,24.71116,121.11693,1.8724327e-09
C1D420,太閣南,2026-02-16,24.632808,121.160575,9.243636e-09
C1E770,公館,2026-02-16,24.526914,120.830806,1.0278928e-09
CAN130,水試所海水繁養殖中心,2026-02-16,23.120802,120.07968,8.04861e-10
C1I430,翠華,2026-02-16,24.191961,121.224339,1.2744702e-08
C1M400,菜瓜坪,2026-02-16,23.251928,120.576103,5.808619e-10
C0G730,二林,2026-02-16,23.903325,120.376081,8.882039e-10
72M360,南改義竹分場,2026-02-16,23.360694,120.279361,8.37228e-10
V2K620,麥寮合作社,2026-02-16,23.753836,120.294783,8.013425e-10
C0Z070,舞鶴,2026-02-16,23.46811,121.37407,6.129361e-09
C0B040,大武崙,2026-02-16,25.166676,121.706993,2.2766249e-09
C1Z030,紅葉,2026-02-16,23.493119,121.338806,5.819334e-09
C1I050,丹大,2026-02-16,23.753747,121.141147,8.788802e-09
C0I080,信義,2026-02-16,23.689694,120.851036,7.6017764e-10
C2TB80,庄子底,2026-02-16,23.71794,121.49438,3.9170414e-09
C0D750,樂山林道6k,2026-02-16,24.49999,121.08773,1.3036362e-08
C2M920,朴子農改,2026-02-16,23.469889,120.259383,1.1892058e-09
C2A880,福隆,2026-02-16,25.017842,121.942083,2.2680866e-09
C0Z160,鳳林,2026-02-16,23.746114,121.453411,3.9650367e-09
C0UB80,翠峰林道6K,2026-02-16,24.49773,121.568625,1.9243542e-08
C0V210,復興,2026-02-16,23.222403,120.806089,1.3492698e-09
C0H990,昆陽,2026-02-16,24.121322,121.273642,1.7407123e-08
C0R741,獅子,2026-02-16,22.202308,120.705236,0.9974972
C0S710,鹿野,2026-02-16,22.917711,121.122994,1.3163767e-08
C0I530,小奇萊,2026-02-16,24.131764,121.295717,1.8180955e-08
C0FA70,大雪山埡口,2026-02-16,24.26867,121.03062,1.58458e-08
C2K630,荷苞,2026-02-16,23.657717,120.595144,1.4709512e-09
C0Z080,富源,2026-02-16,23.587642,121.378225,5.9668994e-09
C2M9E0,旺來山,2026-02-16,23.555153,120.486463,1.882646e-09
C0SB10,美和,2026-02-16,22.682078,121.060236,0.00023877679
C2K620,馬光農場,2026-02-16,23.721453,120.378864,1.2968626e-09
C1I140,卡奈托灣,2026-02-16,23.754364,121.087872,3.4255347e-09
C0I520,玉山風口,2026-02-16,23.470489,120.955994,2.6300544e-08
C1G691,下水埔,2026-02-16,23.816114,120.5676,1.1185157e-09
C0X110,臺南市南區,2026-02-16,22.961189,120.188378,9.8697e-10
C0V680,仁武,2026-02-16,22.701083,120.347722,2.4819723e-08
C2G840,北斗,2026-02-16,23.877586,120.514222,1.1381405e-09
C2TB90,長橋,2026-02-16,23.6874,121.46186,3.9848396e-09
C0R900,竹坑,2026-02-16,22.1385,120.7022,0.99769795
C0G860,社頭,2026-02-16,23.897647,120.5862,1.1499651e-09
C0X150,安定,2026-02-16,23.102614,120.227839,2.6803153e-09
C0R590,里港,2026-02-16,22.77919,120.49459,4.6991342e-08
C0E610,馬都安,2026-02-16,24.451272,120.930192,4.1457517e-09
C0E550,明德,2026-02-16,24.583486,120.885411,1.1509219e-09
C0R150,三地門,2026-02-16,22.709889,120.639944,4.3950735e-05
C0G910,花壇,2026-02-16,24.032076,120.549461,1.0806014e-09
C1D400,鳥嘴山,2026-02-16,24.71909,121.28387,6.346173e-09
C0K500,元長,2026-02-16,23.64981,120.315024,8.0784934e-10
C0F0B0,石岡,2026-02-16,24.276061,120.777644,2.3829219e-09
C2V250,甲仙,2026-02-16,23.080106,120.591758,6.1850947e-10
C0SA20,金崙山,2026-02-16,22.567419,120.959667,7.434897e-09
C0V350,溪埔,2026-02-16,22.738578,120.446797,4.1673893e-08
C0M660,溪口,2026-02-16,23.604131,120.403569,2.173017e-09
C1S880,壽卡,2026-02-16,22.238911,120.858903,1.3418355e-08
72D680,桃改新埔分場,2026-02-16,24.834444,121.066111,1.8707729e-09
