站號,站名,日期,lat,lon,BLBTSLS
C0R710,龍磐,2026-02-09,21.931672,120.838942,0.9999237
C1F9D1,白毛台,2026-02-09,24.158325,120.886933,2.5939195e-09
C0G940,竹塘,2026-02-09,23.848253,120.386764,2.0469089e-09
467590,恆春,2026-02-09,22.003897,120.746339,0.9996453
C1O850,環湖,2026-02-09,23.148617,120.418633,9.668912e-10
C0U710,太平山,2026-02-09,24.505486,121.525656,3.71786e-08
C0E820,獅潭,2026-02-09,24.539133,120.920042,1.3550295e-08
C2SD70,二層坪,2026-02-09,22.94105,121.16838,6.1418156e-08
C0V880,興達,2026-02-09,22.8778,120.2127,0.00023785357
C0S890,關山,2026-02-09,23.0395,121.175017,5.789876e-08
C0SB30,新蘭,2026-02-09,22.869214,121.223228,1.9370168e-07
C2R970,屏科大,2026-02-09,22.648275,120.619247,1.5115438e-08
C1Z130,銅門,2026-02-09,23.965694,121.492842,3.2987394e-08
C0AD40,土城,2026-02-09,24.973208,121.445169,2.4002293e-08
CAN140,六官養殖協會,2026-02-09,23.22881,120.29962,3.4809787e-07
C0X180,山上,2026-02-09,23.0757,120.363253,4.620537e-06
C0F9Z0,雪山東峰,2026-02-09,24.388792,121.268675,3.40917e-08
C1M480,獨立山,2026-02-09,23.537022,120.607797,1.4951074e-09
C0X220,學甲,2026-02-09,23.230367,120.182187,5.323533e-07
467650,日月潭,2026-02-09,23.881325,120.90805,3.1962522e-09
A2K570,古坑(花卉中心),2026-02-09,23.633531,120.552392,8.7394336e-10
C0K600,箔子寮,2026-02-09,23.6197,120.14,2.9748921e-06
C0G830,埤頭,2026-02-09,23.866003,120.452806,1.3634935e-09
C0S950,七塊厝,2026-02-09,22.954453,121.229922,3.087192e-08
467110,金門,2026-02-09,24.407306,118.289281,8.354833e-09
C0AH80,深坑,2026-02-09,25.002703,121.628328,4.6028685e-08
C0A970,三貂角,2026-02-09,25.007606,122.002058,4.243986e-08
C2D730,寶山農場,2026-02-09,24.732444,120.976153,9.782892e-09
C0K430,褒忠,2026-02-09,23.690938,120.303634,9.30827e-08
467480,嘉義,2026-02-09,23.495925,120.432906,1.5625495e-09
C0V400,阿公店,2026-02-09,22.804194,120.355528,0.000103778875
C0E960,觀霧分站,2026-02-09,24.505781,121.113921,1.8382991e-08
467550,玉山,2026-02-09,23.48718,120.95943,4.2107587e-08
C0R440,大漢山,2026-02-09,22.405264,120.753181,2.627843e-08
C0SD30,東清國小,2026-02-09,22.057128,121.564922,0.9825871
C1F9B1,桐林,2026-02-09,24.066172,120.735194,2.3636382e-09
C2H9U0,鳳鵬,2026-02-09,23.763919,120.788061,8.9507457e-10
C0K390,土庫,2026-02-09,23.679029,120.395574,1.6470573e-09
C1I450,望鄉山,2026-02-09,23.594153,120.944286,2.4959293e-08
C0E910,海埔,2026-02-09,24.648767,120.772435,3.3443403e-08
B2E890,畜試北區分所,2026-02-09,24.527806,120.770972,2.5516169e-08
C0R750,四林格山,2026-02-09,22.076989,120.802439,0.9995131
C0F0C0,中坑,2026-02-09,24.248517,120.903319,3.899092e-09
C1I121,大鞍,2026-02-09,23.678381,120.760017,6.437129e-09
C2G9E0,移民庄,2026-02-09,23.9784,120.40283,1.1956753e-07
72U480,花改蘭陽分場,2026-02-09,24.686306,121.716583,1.4016018e-08
C0A770,科教館,2026-02-09,25.096356,121.516507,1.863107e-08
C0AJ60,六塊厝,2026-02-09,25.24,121.4481,4.997873e-07
C0R620,墾雷,2026-02-09,21.900836,120.855269,0.9997218
467420,永康,2026-02-09,23.038386,120.2367,0.00019818137
C2M530,奮起湖,2026-02-09,23.493903,120.699253,4.6252375e-09
C0I410,名間,2026-02-09,23.837053,120.701447,9.841615e-10
A2C560,農工中心,2026-02-09,24.985917,121.239833,7.512375e-08
C0V740,旗山,2026-02-09,22.888614,120.483597,2.7827631e-09
C0Z061,玉里,2026-02-09,23.3215,121.339656,5.4136038e-08
C0S840,南田,2026-02-09,22.279725,120.889208,0.99942595
C1I470,杉林溪,2026-02-09,23.639517,120.786444,7.815848e-09
C1X040,東原,2026-02-09,23.291597,120.463822,8.559828e-10
C0R660,枋寮,2026-02-09,22.367722,120.590647,0.00010716445
C1R120,上德文,2026-02-09,22.763272,120.704442,3.3331877e-09
C0K450,大埤,2026-02-09,23.646074,120.431537,1.4248683e-09
C0UA00,土場,2026-02-09,24.576533,121.495333,3.6090313e-08
467080,宜蘭,2026-02-09,24.763975,121.756528,1.3537017e-08
C0N030,四草,2026-02-09,23.0235,120.1116,0.0015675395
467410,臺南,2026-02-09,22.99328,120.20492,0.00016625218
C0V650,彌陀,2026-02-09,22.783806,120.246361,0.0012520913
C0D660,新竹市東區,2026-02-09,24.798681,120.986942,1.2478855e-08
82S580,茶改東部分場,2026-02-09,22.907694,121.130139,7.790208e-08
C0SB40,興隆,2026-02-09,22.913661,121.257469,2.0538423e-07
467050,新屋,2026-02-09,25.006725,121.047492,1.9583065e-07
C0C710,大溪永福,2026-02-09,24.892936,121.324975,3.933267e-08
C0FA20,溫寮,2026-02-09,24.372177,120.583125,5.4181564e-06
C0V640,湖內,2026-02-09,22.887139,120.2445,0.00015643025
C0R910,下寮,2026-02-09,22.3929,120.5548,0.0002829417
C0Z020,明里,2026-02-09,23.208717,121.262342,4.56914e-08
C0M770,嘉義梅山,2026-02-09,23.585398,120.555587,7.520597e-10
C0C660,楊梅,2026-02-09,24.912375,121.143047,3.9220822e-08
C0SD40,牛頭山,2026-02-09,22.676661,121.506944,0.99941885
C1E511,新開,2026-02-09,24.347703,120.827019,5.4225295e-09
G2F820,農試所(霧峰),2026-02-09,24.031261,120.688133,2.8089784e-09
C2M990,大巃頂,2026-02-09,23.5547,120.61439,2.4040585e-09
C1I070,和社,2026-02-09,23.591131,120.888861,2.0103066e-09
C2E990,新坪頂,2026-02-09,24.30201,120.8574,3.5672687e-09
C0TA80,立霧山,2026-02-09,24.183258,121.641899,6.7045214e-08
C2F000,大肚,2026-02-09,24.15295,120.572117,2.095315e-08
C1S850,豐南,2026-02-09,23.122139,121.262389,3.1233803e-08
C2M9B0,西興,2026-02-09,23.2428,120.57617,9.914795e-10
C2A920,富貴角,2026-02-09,25.263783,121.565258,2.4470313e-07
CAH030,茶改場竹圍站,2026-02-09,23.860083,120.637528,9.699038e-10
C0T960,光復,2026-02-09,23.660694,121.424964,4.0488832e-08
C0F9M0,豐原,2026-02-09,24.254322,120.720692,5.9179808e-09
C0R720,旭海,2026-02-09,22.205403,120.887614,0.9995956
C0V710,苓雅,2026-02-09,22.622742,120.330669,0.004917508
C0C740,觀音工業區,2026-02-09,25.064764,121.114856,2.2733569e-07
CAC040,拉拉山,2026-02-09,24.699317,121.427133,3.5135667e-08
C0V790,萬山,2026-02-09,22.905944,120.688056,2.7275762e-09
U2HA30,臺大和社,2026-02-09,23.590856,120.888864,2.0103066e-09
C2H9K0,屯原,2026-02-09,24.067969,121.209389,1.3090106e-08
C0AJ90,澳底,2026-02-09,25.0552,121.9253,4.871084e-08
C0Z100,東華,2026-02-09,23.89525,121.549833,3.9587892e-08
C0G970,三豐,2026-02-09,23.882,120.2895,0.0043085776
V2K610,大庄合作社,2026-02-09,23.8068,120.367939,1.07516854e-07
C0V900,汕尾,2026-02-09,22.4782,120.4151,0.0004374245
C1R630,龍泉,2026-02-09,22.66701,120.59091,6.760135e-08
C1AC50,關渡,2026-02-09,25.133486,121.469331,1.8182729e-07
C0C800,四稜,2026-02-09,24.64733,121.4293,2.6191062e-08
C0F9I0,神岡,2026-02-09,24.272481,120.658314,8.527632e-09
C0K460,斗南,2026-02-09,23.678734,120.478359,1.390264e-09
C2O810,曾文,2026-02-09,23.219681,120.497328,8.6926855e-10
467280,後龍,2026-02-09,24.648563,120.831834,2.7472668e-08
C1F9J1,清水林,2026-02-09,24.071242,120.820419,2.0215805e-09
C2A650,火燒寮,2026-02-09,25.002719,121.742892,2.8013663e-08
466930,竹子湖,2026-02-09,25.162078,121.544547,4.5414843e-08
C1I220,樟湖,2026-02-09,23.905333,120.846983,3.838203e-09
C0I390,仁愛,2026-02-09,24.022122,121.132206,3.9201806e-09
C0Z300,東里,2026-02-09,23.26853,121.30547,5.1923283e-08
C1V590,新發,2026-02-09,23.057019,120.646064,3.1928156e-09
C0K510,水林,2026-02-09,23.572924,120.24597,5.639004e-08
72S590,東改賓朗果園,2026-02-09,22.813889,121.071278,8.4351586e-07
82A750,茶改北部分場,2026-02-09,24.955778,121.631222,4.069307e-08
C1A750,石碇服務區,2026-02-09,25.00872,121.646242,3.3869068e-08
C0X300,鹿寮,2026-02-09,23.386047,120.477331,8.915935e-10
G2AI50,關渡,2026-02-09,25.11575,121.492,1.8956944e-08
C0K590,雲林東勢,2026-02-09,23.674192,120.255721,9.9285224e-08
C2K310,港尾布雞,2026-02-09,23.74834,120.38439,1.4378774e-09
C0A570,桶後,2026-02-09,24.848222,121.597992,2.9186438e-08
C1S800,華源,2026-02-09,22.657883,121.02325,1.52503935e-05
C0G720,溪州,2026-02-09,23.851589,120.499093,1.319176e-09
C1V160,達卡努瓦,2026-02-09,23.279811,120.705319,3.7660195e-09
C2M410,馬頭山,2026-02-09,23.324361,120.582017,8.011362e-10
C0V850,蚵仔寮,2026-02-09,22.7256,120.2527,0.001286581
C0S740,池上,2026-02-09,23.119628,121.209469,5.326909e-08
C1V390,尖山,2026-02-09,22.813153,120.367789,3.9865896e-05
C0AH70,松山,2026-02-09,25.04871,121.55042,1.8621549e-08
C0N010,鯤鯓國小,2026-02-09,23.1879,120.0889,5.659223e-07
C0R550,新埤,2026-02-09,22.467947,120.582894,3.5478686e-05
C0SA60,知本（水試所）,2026-02-09,22.702394,121.082761,0.00033119717
C0T9I0,豐濱,2026-02-09,23.583897,121.514806,2.2157291e-08
C0UB00,淡江大學蘭陽校園,2026-02-09,24.823239,121.730383,2.6417586e-08
C0W240,九宮,2026-02-09,24.423753,118.240186,3.1745016e-09
C0T9N0,富里,2026-02-09,23.171639,121.249378,4.330152e-08
U2HA50,臺大竹山,2026-02-09,23.756972,120.681556,9.537966e-10
C0V840,鳳鼻頭,2026-02-09,22.5083,120.3591,0.00043104746
C0X140,西港,2026-02-09,23.125608,120.203108,2.6489923e-07
72D080,桃改五峰分場,2026-02-09,24.612194,121.157167,8.110178e-09
C2H9P0,伊拿谷,2026-02-09,23.963211,121.088264,2.6851303e-09
C2K250,崙背,2026-02-09,23.75553,120.31893,9.30827e-08
C2H9F0,柑林,2026-02-09,24.018658,120.847072,1.4225439e-09
C0TA20,加灣,2026-02-09,24.082025,121.608944,1.7561383e-07
C0V530,阿蓮,2026-02-09,22.883208,120.327508,1.1248757e-05
C0FB30,八仙山苗圃,2026-02-09,24.192719,121.001366,3.7486836e-09
C1O880,關山,2026-02-09,23.173397,120.594092,7.4734946e-10
C0E791,卓蘭,2026-02-09,24.3126,120.8244,5.382754e-09
C1I030,武界,2026-02-09,23.913225,121.052483,2.7054108e-09
C0R520,崁頂,2026-02-09,22.514781,120.506914,0.00014591335
C0R341,牡丹,2026-02-09,22.130036,120.792639,0.8000051
C0R930,萬丹,2026-02-09,22.5885,120.4851,0.00011197659
C0S760,紅石,2026-02-09,23.069131,121.126219,3.174376e-08
C2C410,中央大學,2026-02-09,24.967652,121.185165,7.1006994e-08
C1M610,石磐龍,2026-02-09,23.496606,120.663506,3.4178207e-09
C0C790,東眼山,2026-02-09,24.8284,121.40888,1.9470452e-08
C0UA10,鴛鴦湖,2026-02-09,24.590269,121.412228,3.2402035e-08
V2C260,八德蔬果,2026-02-09,24.978508,121.281819,7.5975514e-08
C0R800,丹路,2026-02-09,22.204481,120.750989,0.8662392
C0G920,永靖,2026-02-09,23.924703,120.547533,1.3791589e-08
C2M950,太和,2026-02-09,23.538372,120.702961,4.5689115e-09
C1A630,下盆,2026-02-09,24.771003,121.538622,2.990851e-08
B2N890,畜產試驗所,2026-02-09,23.058972,120.336406,7.0893075e-05
C0UA30,白嶺,2026-02-09,24.527819,121.519031,2.9915928e-08
467571,新竹,2026-02-09,24.828575,121.01455,2.0010956e-08
C1V580,溪南(特生中心),2026-02-09,23.084972,120.788475,9.104425e-09
C1T970,大農,2026-02-09,23.615233,121.413331,3.7572825e-08
C0R650,竹田,2026-02-09,22.58486,120.54344,0.00018279295
C1H900,清流,2026-02-09,24.080775,120.962997,2.713695e-09
C1C510,水尾,2026-02-09,24.940081,121.087161,8.0301405e-08
C2N170,茅港尾,2026-02-09,23.2061,120.2624,3.4809787e-07
C0F9X0,大雅(中科園區),2026-02-09,24.21528,120.62445,9.9530006e-08
C0SB60,白守蓮,2026-02-09,23.126769,121.401914,0.026454296
C0O970,虎頭埤,2026-02-09,23.021375,120.347878,5.4474135e-06
C0C730,中大臨海站,2026-02-09,24.966126,121.008581,4.613768e-08
C0X250,新營,2026-02-09,23.310689,120.316681,2.3681525e-07
C0V700,三民,2026-02-09,22.645017,120.311233,0.006894785
C0U870,大礁溪,2026-02-09,24.791042,121.675047,2.6414915e-08
C0E870,高鐵苗栗,2026-02-09,24.60725,120.826094,2.8067198e-08
C0TA30,鹽寮,2026-02-09,23.845606,121.592664,4.170172e-08
C0M860,新美,2026-02-09,23.338017,120.683169,2.2252957e-09
C1E701,八卦,2026-02-09,24.491756,120.927619,6.045578e-09
C2TA90,加納納,2026-02-09,23.466421,121.359867,2.1790447e-08
C0I420,國姓,2026-02-09,24.037803,120.855072,1.401144e-09
C2D720,關西工作站,2026-02-09,24.757275,121.184792,5.003794e-09
C0S960,香蘭,2026-02-09,22.587569,120.993375,0.01409434
467620,蘭嶼,2026-02-09,22.0369,121.55843,0.9997427
C0R260,春日,2026-02-09,22.370361,120.628306,3.2554692e-06
72G600,臺中農改場,2026-02-09,24.003028,120.534389,1.04695586e-08
C0Z210,瑞穗,2026-02-09,23.5239,121.39021,2.3218206e-08
C0M820,達邦,2026-02-09,23.453994,120.749517,2.7631095e-09
C0V860,南寮,2026-02-09,22.7616,120.2339,0.0014874841
C0G740,大城,2026-02-09,23.852487,120.320935,0.004062178
C0R920,塭仔,2026-02-09,22.4169,120.5197,0.0004797523
C0R470,高樹,2026-02-09,22.826389,120.600806,1.33166e-08
C0R680,佳樂水,2026-02-09,21.993578,120.861633,0.9996732
C1O870,大棟山,2026-02-09,23.31157,120.52226,3.4407266e-09
C0D360,梅花,2026-02-09,24.678347,121.208558,6.225279e-09
C0Z190,富世,2026-02-09,24.14743,121.6297,6.1333577e-07
C0AI10,屈尺,2026-02-09,24.92184,121.54475,2.3117147e-08
B2U990,畜試東區分所,2026-02-09,24.669039,121.832561,1.6338573e-08
C0SB80,長濱漁港,2026-02-09,23.313644,121.459994,0.0006570222
C0TA50,和仁,2026-02-09,24.241394,121.712472,1.3096118e-07
C0V910,大樹,2026-02-09,22.684645,120.432803,1.51544e-07
C1R610,西大武山,2026-02-09,22.617719,120.7322,1.6052963e-08
C0G900,線西,2026-02-09,24.143358,120.443536,2.7501194e-06
C0M700,竹崎,2026-02-09,23.526178,120.555508,7.533087e-10
C2E880,三義,2026-02-09,24.405478,120.749819,9.566575e-09
C0C720,竹圍,2026-02-09,25.112692,121.239824,1.4523438e-07
C0F9P0,清水,2026-02-09,24.312297,120.562242,4.181557e-06
C0Z150,吉安光華,2026-02-09,23.930925,121.595153,4.1582503e-08
C0FA80,小雪山天池,2026-02-09,24.28025,121.02627,2.8310541e-08
467300,東吉島,2026-02-09,23.25727,119.66762,0.99624956
C1D640,外坪(五指山),2026-02-09,24.644447,121.090961,1.0096457e-08
C2R9A0,高士國小,2026-02-09,22.12553,120.84653,0.98294586
C0F9O0,潭子,2026-02-09,24.213106,120.703933,7.2253212e-09
C2H9R0,卓社,2026-02-09,23.887894,121.000086,4.724232e-09
72T250,花蓮農改場,2026-02-09,23.975222,121.563889,3.9460563e-08
C0E780,銅鑼,2026-02-09,24.489681,120.790853,1.7410244e-08
C1T950,太安,2026-02-09,23.666719,121.370128,2.4913016e-08
C0E830,苑裡,2026-02-09,24.439714,120.653053,1.1441454e-07
467270,田中,2026-02-09,23.873803,120.581286,1.2630884e-09
C0SA10,檳榔四格山,2026-02-09,22.810031,121.109308,3.9099788e-07
C1T830,布洛灣,2026-02-09,24.17184,121.57127,2.6909288e-07
C0F970,大坑,2026-02-09,24.173142,120.722289,7.1249264e-09
C1U920,思源,2026-02-09,24.393125,121.347214,2.0228697e-08
C2H9Y0,松茗,2026-02-09,23.8167,120.650765,9.607476e-10
C0A931,三和,2026-02-09,25.233153,121.595236,1.0856741e-07
C0I010,廬山,2026-02-09,24.033311,121.181808,9.075194e-09
C2M940,日野賀,2026-02-09,23.434056,120.727169,4.170321e-09
C0R860,鼻頭,2026-02-09,22.1043,120.8979,0.9985423
C0UB20,壯圍,2026-02-09,24.7359,121.8163,1.3252671e-08
C0R790,九棚,2026-02-09,22.14195,120.889281,0.99976045
C0W110,東莒,2026-02-09,25.9652,119.98069,0.0016181761
C1U930,粉鳥林,2026-02-09,24.497088,121.842479,3.787423e-08
C1I211,蘆竹湳,2026-02-09,23.934019,120.811994,1.640101e-09
C0S830,長濱,2026-02-09,23.286817,121.411975,4.3150063e-08
C1F9F1,伯公龍,2026-02-09,24.272392,120.849047,3.3576968e-09
C0UB90,太平山莊,2026-02-09,24.494171,121.536209,3.7409283e-08
C0E810,西湖,2026-02-09,24.562947,120.7485,1.6339126e-07
C1I440,新高口,2026-02-09,23.478744,120.878939,2.0430834e-08
C0O840,王爺宮,2026-02-09,23.222064,120.40085,1.1425209e-09
C0T9G0,鳳林山,2026-02-09,23.735269,121.420131,5.1229364e-08
C0X080,佳里,2026-02-09,23.173039,120.145086,6.308402e-07
C0FB70,大甲溪埔,2026-02-09,24.370625,120.620067,4.3203618e-06
C0Z310,清水斷崖,2026-02-09,24.218294,121.689142,8.9122544e-08
C0M680,太保,2026-02-09,23.455062,120.331455,2.7450406e-08
C1S820,金峰,2026-02-09,22.590969,120.933236,7.629242e-05
C0AD10,八里,2026-02-09,25.150211,121.403947,6.6310383e-07
C2K240,草嶺,2026-02-09,23.59555,120.693461,3.6211099e-09
C1SA70,都蘭,2026-02-09,22.87794,121.226881,1.7719604e-07
C0K440,二崙,2026-02-09,23.772797,120.408944,1.3673767e-09
C1A760,坪林交控,2026-02-09,24.94284,121.713442,3.8190432e-08
C0F9N0,大里,2026-02-09,24.092464,120.701378,3.0076563e-09
C0SA90,達仁林場,2026-02-09,22.264347,120.823972,9.60741e-08
C1R290,石門山,2026-02-09,22.112611,120.756597,0.9999474
42HA10,萬大發電廠,2026-02-09,23.978875,121.139639,3.2614753e-09
C0R890,山海,2026-02-09,21.9878,120.7091,0.9994499
C0T9A0,月眉山,2026-02-09,23.809928,121.539828,2.729878e-08
C0AC70,信義,2026-02-09,25.037822,121.564597,1.8641877e-08
C0K560,棋山,2026-02-09,23.68645,120.603417,8.661406e-10
C2FB50,出雲,2026-02-09,24.206469,120.902794,4.508324e-09
C1Z240,中平林道,2026-02-09,23.42115,121.26763,4.909972e-08
U2H480,溪頭,2026-02-09,23.670306,120.798194,3.4862884e-09
C0M880,好美里,2026-02-09,23.3364,120.138,5.054236e-07
C0T9E0,大坑,2026-02-09,23.880628,121.581981,5.1929028e-08
C0K530,臺西,2026-02-09,23.701547,120.197559,6.0969132e-06
C1E900,國一N128K,2026-02-09,24.560997,120.844186,2.3681428e-08
C0AJ50,水湳洞,2026-02-09,25.123695,121.862238,4.756077e-08
C0AI20,白沙灣,2026-02-09,25.283128,121.519058,7.369742e-07
C2V310,美濃,2026-02-09,22.898792,120.51907,2.898112e-09
C0A860,大坪,2026-02-09,25.165914,121.632969,1.6502405e-08
C1U850,觀音海岸,2026-02-09,24.38319,121.77856,2.4238487e-08
C2K610,草嶺石壁,2026-02-09,23.602469,120.707731,3.737674e-09
C0U950,鶯子嶺,2026-02-09,24.89754,121.79244,3.8367705e-08
C0O900,善化,2026-02-09,23.112883,120.297219,0.00017914853
C0K550,蔦松,2026-02-09,23.514319,120.229736,6.876618e-08
E2P980,林試六龜中心,2026-02-09,22.991703,120.645722,1.1086774e-09
C0E590,通霄,2026-02-09,24.471892,120.704622,4.5818902e-07
C1I310,西巒,2026-02-09,23.754486,120.883956,4.9868913e-09
C0A550,泰平,2026-02-09,24.971197,121.823711,3.361896e-08
C0I360,水里,2026-02-09,23.812553,120.849792,8.791563e-10
C0R830,高士,2026-02-09,22.121825,120.836781,0.9999168
C1I101,溪頭,2026-02-09,23.661789,120.807647,8.95818e-09
C0AJ20,野柳,2026-02-09,25.20703,121.690021,3.02119e-07
C0B060,暖暖,2026-02-09,25.0957,121.7403,3.2305888e-08
C1H920,長豐,2026-02-09,24.102039,120.879897,2.0616178e-09
C2S9B0,利吉,2026-02-09,22.86246,121.15486,9.238123e-08
C0V360,內門,2026-02-09,22.975481,120.466769,2.0021484e-09
C0R850,林邊,2026-02-09,22.4634,120.5339,0.00034851237
C0E930,龍鳳,2026-02-09,24.700034,120.859125,2.0389491e-08
C0U910,冬山,2026-02-09,24.63373,121.7937,1.6338573e-08
C1E721,泰安,2026-02-09,24.489017,120.968036,1.1124016e-08
82H320,茶改中部分場,2026-02-09,23.875611,120.913583,2.619315e-09
C0M750,布袋,2026-02-09,23.380878,120.167789,1.1859665e-07
C1S860,利嘉,2026-02-09,22.809417,121.050528,1.5025073e-07
E2S980,林試太麻里1,2026-02-09,22.598922,120.980044,0.0014502842
C0X170,關廟,2026-02-09,22.963017,120.327797,7.501881e-06
C0V720,林園,2026-02-09,22.507747,120.394511,0.00019491423
C1I510,線浸林道,2026-02-09,23.761508,120.832956,4.2158836e-09
C0D690,外湖,2026-02-09,24.917735,120.968711,1.767248e-06
C0C750,新興坑尾,2026-02-09,25.0061,121.0971,1.3306158e-07
B2Q810,畜試南區分所,2026-02-09,21.945583,120.802167,0.9996732
C0S790,金崙,2026-02-09,22.538122,120.966875,6.5664084e-05
C0AH90,福山植物園,2026-02-09,24.760717,121.58135,2.9900182e-08
C0I540,奇萊稜線,2026-02-09,24.109231,121.326456,3.379241e-08
C0M850,表湖,2026-02-09,23.24186,120.64166,2.3917464e-09
C0S770,大溪山,2026-02-09,22.478475,120.943325,2.3304538e-06
C0AG80,中和,2026-02-09,24.991622,121.491792,2.4002293e-08
C0T790,大禹嶺,2026-02-09,24.186117,121.316086,2.5449e-08
C0T9B0,水源,2026-02-09,23.991861,121.537169,5.1040832e-08
C0R840,牡丹池山,2026-02-09,22.168389,120.841225,2.2668729e-07
C1I131,桶頭,2026-02-09,23.641944,120.654117,9.2536334e-10
CAL110,布袋國中,2026-02-09,23.35893,120.18026,5.5198717e-07
C2M9D0,何竹子腳,2026-02-09,23.53641,120.38203,1.5965319e-09
C0Z290,赤柯山,2026-02-09,23.36893,121.38293,3.5054605e-08
C0X280,將軍,2026-02-09,23.214999,120.13577,5.4116674e-07
C0S690,太麻里,2026-02-09,22.60902,120.98533,3.62153e-07
C0U880,北關,2026-02-09,24.9072,121.8734,5.3211718e-08
CAW010,東引,2026-02-09,26.3588,120.4836,0.0022643348
C0G810,埔心,2026-02-09,23.947633,120.525456,1.4530663e-08
C0U970,大福,2026-02-09,24.80064,121.81389,1.3561594e-08
C2H9N0,仁愛東眼,2026-02-09,24.026875,121.1205,5.6790133e-09
C1E670,南礦,2026-02-09,24.538278,121.002836,1.06289955e-08
C0M520,東後寮,2026-02-09,23.369908,120.248065,2.900777e-07
C1E461,松安,2026-02-09,24.397972,120.986022,8.681324e-09
C2N160,西拉雅風管處,2026-02-09,23.189481,120.335297,1.9850653e-07
C2M970,碧湖,2026-02-09,23.568632,120.624165,2.3759417e-09
C0A640,石碇,2026-02-09,24.993969,121.662917,3.8190432e-08
E2S960,林試太麻里2,2026-02-09,22.598,120.99775,0.019890204
C0F9Y0,桃山,2026-02-09,24.432739,121.303808,3.493879e-08
C1I020,萬大,2026-02-09,23.979817,121.132261,3.9725685e-09
C2UC20,長嶺,2026-02-09,24.70894,121.61162,2.2983011e-08
C0U940,羅東,2026-02-09,24.68184,121.74934,1.4035734e-08
C0M650,朴子,2026-02-09,23.43463,120.23902,2.6748724e-08
C1I500,大尖山,2026-02-09,23.858572,120.994889,1.1633791e-08
C0FB40,中橫21.6k,2026-02-09,24.2499,121.1455,6.9394908e-09
C0G820,田尾,2026-02-09,23.901669,120.509389,1.3791589e-08
E2K600,四湖植物園,2026-02-09,23.676986,120.163433,4.401923e-06
C0S730,綠島,2026-02-09,22.6672,121.47533,0.99975467
12Q970,東港工作站,2026-02-09,22.479997,120.466058,0.00034851237
C1TA00,太魯閣,2026-02-09,24.15773,121.6236,2.0148858e-07
466920,臺北,2026-02-09,25.037658,121.514853,1.8621549e-08
C0R600,舊泰武,2026-02-09,22.588194,120.664944,5.560574e-09
C1I260,北坑,2026-02-09,23.9246,121.006903,1.8369206e-09
466910,鞍部,2026-02-09,25.182586,121.529731,5.0863473e-08
C1I230,九份二山,2026-02-09,23.961944,120.845,2.4560798e-09
C2M810,里佳,2026-02-09,23.389125,120.716647,5.4701585e-09
C2A660,瑞芳,2026-02-09,25.113169,121.801147,3.109969e-08
C0R270,琉球嶼,2026-02-09,22.332244,120.362236,2.6292728e-06
C2V580,瑞山,2026-02-09,22.90304,120.43424,1.7824465e-09
C1T990,高寮,2026-02-09,23.394239,121.356808,5.626005e-08
C0G620,芬園,2026-02-09,24.015678,120.6213,5.8640697e-09
C1Z140,荖溪,2026-02-09,23.890575,121.45964,8.02088e-08
C1I201,中心崙,2026-02-09,23.728722,120.712097,1.3424979e-09
C1I400,凌霄,2026-02-09,24.018778,121.004456,5.666884e-09
C1M640,十字,2026-02-09,23.492153,120.753683,7.2045414e-09
G2P820,農試鳳山分所,2026-02-09,22.646611,120.356083,0.003161059
C0Z270,蕃薯寮,2026-02-09,23.73835,121.540108,3.1013503e-08
C2E420,竹南,2026-02-09,24.70898,120.88897,1.7538563e-08
C0FB10,出雲山苗圃,2026-02-09,24.23105,120.90475,3.9417665e-09
C0F9Q0,外埔,2026-02-09,24.347817,120.705686,1.27958275e-08
C0K580,高鐵雲林,2026-02-09,23.737456,120.417944,1.4378774e-09
C2I090,鳳凰,2026-02-09,23.728081,120.787347,2.1457558e-09
C0U990,員山,2026-02-09,24.74435,121.72247,1.421438e-08
C0V770,大社,2026-02-09,22.730306,120.346639,0.0006553274
C0X120,麻豆,2026-02-09,23.183289,120.248611,2.9100926e-07
C0C670,龍潭,2026-02-09,24.870056,121.221389,5.493569e-09
C0D680,香山濕地,2026-02-09,24.783581,120.914988,1.767248e-06
C0S980,勝林山,2026-02-09,22.430439,120.8938,1.1642586e-07
C0V730,大寮,2026-02-09,22.605614,120.395717,0.00024586736
C0R570,麟洛,2026-02-09,22.65078,120.52719,1.4672412e-07
C2M930,石卓,2026-02-09,23.478744,120.702264,7.068091e-09
C0G9B0,和美,2026-02-09,24.105169,120.492131,6.5214266e-08
CAG100,王功漁港,2026-02-09,23.96824,120.32586,0.0021402214
C0X290,北門,2026-02-09,23.267772,120.125481,6.968753e-07
C2F930,大甲,2026-02-09,24.347667,120.640403,2.6076219e-08
C0D650,湖口,2026-02-09,24.904794,121.043628,2.9183598e-08
C0U780,五結,2026-02-09,24.68637,121.79794,1.6338573e-08
C1I250,鯉潭,2026-02-09,23.961922,120.991131,2.1082223e-09
C0R130,阿禮,2026-02-09,22.742908,120.743678,3.971932e-09
C0X100,臺南市北區,2026-02-09,23.010394,120.194228,0.0003257571
C0S920,金峰嘉蘭,2026-02-09,22.594789,120.960825,0.0013415605
C0V490,新興,2026-02-09,22.627422,120.298803,0.009331804
C0F9K0,大安,2026-02-09,24.345061,120.588025,4.3203618e-06
467290,古坑,2026-02-09,23.633639,120.551889,8.7394336e-10
C2E970,八甲,2026-02-09,24.535811,120.795983,1.5022918e-08
C0V440,鳳山,2026-02-09,22.646653,120.356122,0.003161059
C1T940,大觀,2026-02-09,23.714206,121.373133,3.112319e-08
C0E740,造橋,2026-02-09,24.637056,120.864778,2.9996777e-08
C0R100,尾寮山,2026-02-09,22.833111,120.683889,4.1172017e-09
A2K630,臺大雲林校區,2026-02-09,23.730628,120.423903,1.4196382e-09
467990,馬祖,2026-02-09,26.169467,119.923158,1.4749703e-06
C0D580,寶山,2026-02-09,24.735006,121.025192,9.607022e-09
E2P990,林試扇平站,2026-02-09,22.9677,120.6857,2.4896236e-09
C0AI30,三重,2026-02-09,25.057328,121.500629,1.863107e-08
C0AH00,汐止,2026-02-09,25.066881,121.658778,3.6663547e-08
C1Z040,立山,2026-02-09,23.443356,121.327375,4.9913947e-08
466881,新北,2026-02-09,24.959207,121.525196,2.3404773e-08
C0W130,花嶼,2026-02-09,23.40007,119.32276,0.99528605
C0A950,鼻頭角,2026-02-09,25.129036,121.923372,4.875825e-08
C0K470,林內,2026-02-09,23.748675,120.609642,8.8107505e-10
C2F990,摩天嶺,2026-02-09,24.322458,120.936819,4.1025117e-09
C2E430,南庄,2026-02-09,24.601775,121.000214,8.129104e-09
82C160,茶改場,2026-02-09,24.908472,121.185333,3.4471526e-08
C2TB60,南安,2026-02-09,23.29818,121.26157,4.792776e-08
C0Z320,清水林道,2026-02-09,23.27125,121.188272,3.670819e-08
C0R760,南仁湖,2026-02-09,22.084681,120.863353,0.9999474
C0M670,大林,2026-02-09,23.600616,120.45841,1.3176069e-09
C0M800,茶山,2026-02-09,23.299075,120.664767,1.0242918e-09
C0A9C0,天母,2026-02-09,25.117494,121.537169,1.8253854e-08
72K220,南改斗南分場,2026-02-09,23.634556,120.477333,1.390264e-09
72AI40,桃改樹林分場,2026-02-09,24.944503,121.386972,1.9719437e-08
C0S910,蘭嶼燈塔,2026-02-09,22.081197,121.503117,0.9900124
C0B050,八斗子,2026-02-09,25.144754,121.79167,3.6366714e-08
C0U900,內城,2026-02-09,24.71813,121.68766,1.3678912e-08
C0X320,柳營,2026-02-09,23.253328,120.375253,1.6441006e-09
C0M790,新港,2026-02-09,23.553269,120.345728,3.321975e-08
C0F9T0,西屯,2026-02-09,24.179494,120.641275,1.1711223e-08
C0E950,松安,2026-02-09,24.39792,120.98599,8.681324e-09
C0SA30,都歷,2026-02-09,23.020333,121.323642,1.8954003e-07
C0C620,蘆竹,2026-02-09,25.084275,121.265767,1.13589245e-07
C0R730,大坪頂,2026-02-09,22.024633,120.69355,0.9999702
C0AJ40,石門,2026-02-09,25.273672,121.601198,2.925581e-07
C0E750,苗栗,2026-02-09,24.564569,120.824575,2.4119503e-08
C0T870,鯉魚潭,2026-02-09,23.935639,121.508944,3.422069e-08
C1V170,排雲,2026-02-09,23.463619,120.954147,3.7861806e-08
C2H950,中寮,2026-02-09,23.884447,120.766406,1.600056e-09
C0R350,貓鼻頭,2026-02-09,21.921774,120.7358,0.9996915
C0V660,岡山,2026-02-09,22.797078,120.294958,0.0008884007
C1H941,雙冬,2026-02-09,23.967378,120.802189,1.8590416e-09
C0AJ70,田寮,2026-02-09,25.2698,121.4886,7.4215467e-07
C0AI00,五股,2026-02-09,25.07445,121.42728,1.7166563e-08
C0Z280,德武,2026-02-09,23.47426,121.41071,2.2651868e-08
C2RA10,大新,2026-02-09,22.67558,120.57788,8.473208e-08
C0R700,枋山,2026-02-09,22.246844,120.661086,0.7067051
C0C460,復興,2026-02-09,24.820208,121.352281,7.578183e-09
C2K300,鹿南,2026-02-09,23.63855,120.3636,5.2233293e-08
E2H360,蓮華池,2026-02-09,23.918333,120.885278,1.9499393e-09
C0M640,中埔,2026-02-09,23.42538,120.5229,8.0274376e-10
C0W140,金沙,2026-02-09,24.488292,118.408778,4.235073e-09
C2A540,四堵,2026-02-09,24.8926,121.745736,4.1243958e-08
C0ACA0,新莊,2026-02-09,25.051478,121.446756,1.9079042e-08
C0R220,潮州,2026-02-09,22.534361,120.54,0.000108136766
U2HA40,臺大內茅埔,2026-02-09,23.689722,120.851117,1.230743e-09
467490,臺中,2026-02-09,24.145736,120.684075,9.476859e-09
C0UB60,明池,2026-02-09,24.650688,121.475277,2.803392e-08
C0U960,翠峰湖,2026-02-09,24.510856,121.608044,3.6603037e-08
E2HA20,林試畢祿溪站,2026-02-09,24.226944,121.308522,1.6324307e-08
C2M9A0,大華,2026-02-09,23.4824,120.67491,3.1025142e-09
C0V890,前鎮,2026-02-09,22.5718,120.3117,0.009219909
C1F941,雪嶺,2026-02-09,24.280586,121.026642,2.8310541e-08
C2H9E0,國姓南港,2026-02-09,23.911108,120.846556,4.0083408e-09
C0AC80,文山,2026-02-09,25.00235,121.575728,2.726324e-08
C0F9R0,龍井,2026-02-09,24.184536,120.528972,3.6929337e-06
C0M760,民雄,2026-02-09,23.551754,120.428457,1.3176069e-09
C0UA40,西德山,2026-02-09,24.560647,121.752608,3.8894157e-08
C2TA70,赤科坪,2026-02-09,23.39885,121.39168,3.7755076e-08
C1T920,中興,2026-02-09,23.769503,121.498653,3.692574e-08
C0D550,雪霸,2026-02-09,24.526972,121.11605,1.5435687e-08
C2F860,梨山,2026-02-09,24.247522,121.243669,2.0052527e-08
C0R320,車城,2026-02-09,22.0744,120.716247,0.99920416
C1S870,南美山,2026-02-09,23.15025,121.382333,1.08072804e-07
C0B020,基隆嶼,2026-02-09,25.19141,121.78391,3.5275942e-08
C1U501,牛鬥,2026-02-09,24.637836,121.573656,2.6625086e-08
C0M730,嘉義市東區,2026-02-09,23.457673,120.460531,1.0044399e-09
C2R990,泰武,2026-02-09,22.60686,120.69765,9.102427e-09
C0S700,知本,2026-02-09,22.684866,121.005642,1.6458499e-07
C1N001,沙崙,2026-02-09,22.935472,120.309406,1.1430038e-05
C0V760,橋頭,2026-02-09,22.757806,120.30575,0.00075889204
C0G960,福寶,2026-02-09,24.0443,120.3814,9.61577e-08
C0X210,白河,2026-02-09,23.347466,120.414427,1.3030266e-09
C0S810,東河,2026-02-09,22.972672,121.303986,2.3529593e-07
C2R170,屏東,2026-02-09,22.66027,120.49403,1.9918674e-07
C0R670,楓港,2026-02-09,22.190131,120.692156,0.9915561
C0FA50,霧峰,2026-02-09,24.0419,120.6995,2.6855964e-09
C0UB10,蘇澳,2026-02-09,24.5969,121.8571,2.583192e-08
C0G950,防潮門,2026-02-09,24.1835,120.4871,2.7151882e-06
C0M740,六腳,2026-02-09,23.492871,120.290625,3.41779e-08
C1R250,力里,2026-02-09,22.428117,120.629228,2.4277536e-08
C0K330,虎尾,2026-02-09,23.719183,120.442036,1.4196382e-09
C2FA00,烏石坑,2026-02-09,24.273503,120.947617,4.044466e-09
C0V620,永安,2026-02-09,22.82315,120.236856,0.001206226
C1I330,楓樹林,2026-02-09,23.986803,121.076117,4.2787307e-09
C0W200,湖西,2026-02-09,23.596314,119.67275,0.9940636
72Q010,高雄農改場,2026-02-09,22.709333,120.525889,6.332549e-08
C0SA40,瑞和,2026-02-09,22.974361,121.156697,6.630179e-08
C0C680,龜山,2026-02-09,25.02846,121.38656,1.7481353e-08
C2V260,月眉,2026-02-09,22.971003,120.539853,1.8720399e-09
C0V450,鳳森,2026-02-09,22.545064,120.392592,1.02058e-05
C0FA90,小雪山林道,2026-02-09,24.29515,121.03651,3.4433807e-08
C0U720,南山,2026-02-09,24.43742,121.38167,2.3921398e-08
A2N290,臺南蘭花園區,2026-02-09,23.340258,120.379661,1.5366002e-09
C0R560,新園,2026-02-09,22.5434,120.461558,0.00019491423
C0U890,三星,2026-02-09,24.66812,121.65302,1.3312232e-08
C1V300,御油山,2026-02-09,23.001983,120.715364,8.911214e-09
C0U600,礁溪,2026-02-09,24.817539,121.765608,1.3366859e-08
C1T980,龍澗,2026-02-09,24.023289,121.411328,4.4083027e-08
C0D670,海天一線,2026-02-09,24.831986,120.914438,8.673157e-07
C0SA00,歷坵,2026-02-09,22.520969,120.89185,1.0394574e-06
C0M710,東石,2026-02-09,23.458927,120.15385,1.1623992e-07
C0M780,鹿草,2026-02-09,23.41134,120.30835,2.3893172e-08
C0U520,雙連埤,2026-02-09,24.753033,121.641303,2.7273384e-08
C0B010,七堵,2026-02-09,25.094819,121.71713,3.5053933e-08
C0R480,長治,2026-02-09,22.693128,120.542622,9.2782784e-08
C1V830,國三S383K,2026-02-09,22.781967,120.426475,1.456146e-08
12Q980,恆春工作站,2026-02-09,22.079678,120.714425,0.9992611
C1O940,東山服務區,2026-02-09,23.286016,120.398472,1.4689605e-09
C1U840,東澳嶺,2026-02-09,24.5378,121.8485,3.6326643e-08
C1D630,飛鳳山,2026-02-09,24.766464,121.119178,8.044947e-09
C0S940,石寧山,2026-02-09,23.223772,121.406639,0.0004404706
C0K410,北港,2026-02-09,23.573957,120.292802,4.9819498e-08
C2M620,瑞里,2026-02-09,23.545133,120.675197,3.838972e-09
C0SB70,小港漁港,2026-02-09,23.158558,121.400431,0.017858973
C2O950,安南,2026-02-09,23.076694,120.144861,0.0013181864
C0F0E0,南湖圈谷,2026-02-09,24.363714,121.444667,4.749396e-08
467610,成功,2026-02-09,23.097486,121.373428,4.3418254e-07
C0G890,伸港,2026-02-09,24.148933,120.484403,2.7151882e-06
C2E540,龍溪,2026-02-09,24.606489,120.783933,3.0339603e-08
C1V200,梅山,2026-02-09,23.268447,120.823556,2.9288754e-09
C0T9H0,加路蘭山,2026-02-09,23.682947,121.5274,3.0742353e-08
C2O930,玉井,2026-02-09,23.126042,120.46055,9.668912e-10
C1F911,新伯公,2026-02-09,24.221361,120.841069,3.4211078e-09
C0R490,九如,2026-02-09,22.7405,120.490503,7.842088e-08
C0X200,左鎮,2026-02-09,23.056758,120.408522,2.705896e-09
C2TB50,麻汝,2026-02-09,23.42554,121.39358,2.141668e-08
C0FA60,鞍馬山工作站,2026-02-09,24.267064,121.000793,1.9339542e-08
C0SB50,叭嗡嗡,2026-02-09,23.047062,121.343223,5.774221e-07
C1F891,稍來,2026-02-09,24.265689,121.001142,1.8828086e-08
C2M9C0,紫雲,2026-02-09,23.494914,120.540253,7.963175e-10
72N240,七股研究中心,2026-02-09,23.081672,120.062894,0.0020134365
C0C700,中壢,2026-02-09,24.977661,121.256375,7.038645e-08
C0M690,水上,2026-02-09,23.419734,120.388909,1.4442679e-09
C0V690,鼓山,2026-02-09,22.623325,120.275575,0.012692491
C0O860,大內,2026-02-09,23.11885,120.36083,9.2457885e-05
C0Z200,萬榮,2026-02-09,23.709219,121.420106,3.6168597e-08
C0T9D0,和中,2026-02-09,24.26676,121.74103,1.3604308e-07
C2S9A0,北份子寮,2026-02-09,22.78561,121.07813,2.2721119e-05
C1O921,楠西,2026-02-09,23.183511,120.484083,9.006059e-10
C0AJ30,淡水觀海,2026-02-09,25.184591,121.408616,7.200135e-07
C0V810,左營,2026-02-09,22.67491,120.28491,0.006894785
C0UA70,桃源谷,2026-02-09,24.962606,121.888875,2.8966543e-08
C0X130,官田,2026-02-09,23.193217,120.315422,2.2192508e-07
C1H000,翠峰,2026-02-09,24.109397,121.205211,1.9724327e-08
C0UA90,石城,2026-02-09,24.980444,121.951214,4.726253e-08
C1E681,南勢山,2026-02-09,24.421669,120.923831,5.935559e-09
C0A9F0,內湖,2026-02-09,25.079422,121.57545,1.8641806e-08
C0K291,宜梧,2026-02-09,23.536281,120.169329,3.1531977e-06
C1K540,口湖,2026-02-09,23.585344,120.180517,3.2114353e-06
C0R780,滿州,2026-02-09,22.024403,120.839892,0.9997945
C0V870,文安,2026-02-09,22.8025,120.2164,0.001286581
C0U650,玉蘭,2026-02-09,24.675286,121.587061,2.2981478e-08
C0R640,東港,2026-02-09,22.46247,120.44074,0.00024757185
C0AJ80,板橋,2026-02-09,25.0107,121.4489,2.4430548e-08
C0S660,下馬,2026-02-09,23.150427,121.070312,3.398555e-08
C2N190,烏樹,2026-02-09,23.32393,120.36989,1.397758e-07
C1H9B1,阿眉,2026-02-09,24.1263,120.994672,1.0130252e-08
C0UA20,多加屯,2026-02-09,24.368614,121.373189,2.1373465e-08
C0E730,頭份,2026-02-09,24.688247,120.912206,1.8325961e-08
72V140,高改旗南分場,2026-02-09,22.857861,120.516667,4.7061754e-08
C0K480,莿桐,2026-02-09,23.761192,120.502372,1.203311e-09
C0U980,坪林石牌,2026-02-09,24.86478,121.77396,2.986496e-08
C0T900,西林,2026-02-09,23.8119,121.441458,3.225085e-08
C1I150,青雲,2026-02-09,23.793361,120.949378,1.1726887e-09
C2E980,和興,2026-02-09,24.505319,120.923016,5.006868e-09
467350,澎湖,2026-02-09,23.565503,119.563094,0.99628025
C0G800,埔鹽,2026-02-09,24.000394,120.431683,7.919213e-08
C0H960,草屯,2026-02-09,23.973672,120.68085,2.367672e-09
C1V780,多納林道,2026-02-09,22.888028,120.737917,4.250287e-09
C0E920,通霄漁港,2026-02-09,24.498589,120.673876,7.7620405e-07
C0Z330,安通山,2026-02-09,23.290728,121.348528,3.0973954e-08
C0AH10,永和,2026-02-09,25.01125,121.508111,2.4430548e-08
C0AK10,太平里,2026-02-09,25.134937,121.364899,5.8385484e-07
C2G640,鹿港,2026-02-09,24.0753,120.430481,7.483458e-08
C1E890,國三N149K,2026-02-09,24.463414,120.680019,3.8940667e-07
C1R110,口社,2026-02-09,22.770111,120.645222,1.2409643e-08
C1M870,國三N285K,2026-02-09,23.550319,120.505833,7.788685e-10
C1E480,鳳美,2026-02-09,24.554803,121.034747,5.579069e-09
C0T9M0,靜浦,2026-02-09,23.455167,121.495028,2.4555655e-08
C2H9M0,發祥,2026-02-09,24.154094,121.164517,6.244818e-09
C2G9C0,埔南,2026-02-09,23.99124,120.46969,7.919213e-08
C0AI40,石牌,2026-02-09,25.115597,121.513139,1.8641877e-08
C1F871,上谷關,2026-02-09,24.203483,121.018644,4.0438954e-09
C2H9G0,百勝,2026-02-09,24.051142,120.909361,1.5432853e-09
C0G880,二水,2026-02-09,23.810742,120.6173,8.847378e-10
C0R940,加祿堂,2026-02-09,22.3363,120.6217,0.0028976405
C0W220,北竿,2026-02-09,26.220358,119.974881,2.0455225e-05
C0O960,崎頂,2026-02-09,22.959547,120.369317,5.2458097e-07
C0TA40,秀林,2026-02-09,24.302864,121.731144,4.3099806e-08
C0S750,向陽,2026-02-09,23.248397,120.986133,1.8561161e-08
C0T9F0,水璉,2026-02-09,23.797131,121.542514,2.987077e-08
C1M600,頭凍,2026-02-09,23.406364,120.603339,2.2025102e-09
467660,臺東,2026-02-09,22.752211,121.154586,0.00018565965
C1D380,新埔,2026-02-09,24.84745,121.03834,1.6131661e-08
C2G980,田頭村,2026-02-09,23.8263,120.444175,1.3673792e-09
C0V750,路竹,2026-02-09,22.854997,120.259439,0.00076730596
C0N050,蚵寮,2026-02-09,23.301,120.1104,6.968753e-07
C2X060,下營,2026-02-09,23.226806,120.256291,3.4809787e-07
72M700,南改鹿草分場,2026-02-09,23.416869,120.283061,2.6748724e-08
C1SA50,利嘉林道,2026-02-09,22.82325,121.009389,3.8376267e-08
C0UB70,太平山中間站,2026-02-09,24.542003,121.513453,2.6350756e-08
C0A940,金山,2026-02-09,25.223628,121.643967,2.912664e-07
C1V340,大津,2026-02-09,22.888322,120.645986,7.039662e-09
C0W180,七美,2026-02-09,23.219333,119.444892,0.99707353
C1F9C1,白冷,2026-02-09,24.182844,120.929889,2.5580333e-09
K2E710,苗改生物防治研究中心,2026-02-09,24.422861,120.871833,1.01346975e-08
C0N040,蘆竹溝,2026-02-09,23.2344,120.0961,6.968753e-07
C0TB40,崇德,2026-02-09,24.166144,121.657414,4.442526e-07
C0D760,大坪苗圃,2026-02-09,24.5362,121.1108,1.2365907e-08
C2W230,畜試所澎湖,2026-02-09,23.628342,119.513206,0.9946068
C0R880,後壁湖,2026-02-09,21.9457,120.7457,0.99937075
C1I280,埔中,2026-02-09,23.820778,120.642594,9.70957e-10
467790,墾丁雷達站,2026-02-09,21.948235,120.808028,0.9998082
C0W190,望安,2026-02-09,23.380564,119.494075,0.99729604
C0Z170,卓溪,2026-02-09,23.3443,121.3029,4.5308422e-08
C0F850,東勢,2026-02-09,24.246428,120.833047,3.4973642e-09
466900,淡水,2026-02-09,25.164889,121.448906,3.539703e-07
C0I370,魚池,2026-02-09,23.895703,120.94135,2.002813e-09
C0C630,大溪,2026-02-09,24.882853,121.265547,3.268801e-08
C0A520,山佳,2026-02-09,24.974944,121.402008,1.9670678e-08
C0I110,竹山,2026-02-09,23.761225,120.688156,9.611563e-10
82H840,茶改南部分場,2026-02-09,23.762528,120.7405,9.1308183e-10
C2SD80,再來山,2026-02-09,23.34371,121.44122,1.2254073e-05
C0G660,溪湖,2026-02-09,23.94835,120.479122,1.600988e-08
C1T800,洛韶,2026-02-09,24.204558,121.453956,6.54795e-08
C1T810,慈恩,2026-02-09,24.192044,121.388386,2.1002926e-08
C1E451,象鼻,2026-02-09,24.368617,120.940228,4.2859347e-09
C0AC60,三峽,2026-02-09,24.939025,121.369728,7.5093666e-08
C0I490,萬大林道,2026-02-09,23.928228,121.091411,6.740227e-09
C1I290,豐丘,2026-02-09,23.668178,120.887417,5.9732987e-09
C1I320,奧萬大,2026-02-09,23.952956,121.178556,5.850306e-09
C2M910,嘉義大學,2026-02-09,23.471325,120.485903,9.338013e-10
C0U770,南澳,2026-02-09,24.44935,121.81022,3.6997225e-08
C2TB30,吉安,2026-02-09,23.94538,121.54803,3.7230333e-08
C0A980,社子,2026-02-09,25.109508,121.469681,2.0823467e-08
C0V800,六龜,2026-02-09,22.997889,120.633583,1.1330028e-09
C1G9D0,國一S218K,2026-02-09,23.890641,120.493253,2.3991308e-08
C0E570,白沙屯,2026-02-09,24.549447,120.696803,2.6011898e-07
C2F9A0,中竹林,2026-02-09,24.103556,120.751061,1.4658622e-09
C0FA40,臺中電廠,2026-02-09,24.2146,120.4907,4.4992776e-06
C2G9A0,畜試所彰化,2026-02-09,23.86045,120.557964,1.2630884e-09
C0H9C0,合歡山,2026-02-09,24.143442,121.272547,3.6546115e-08
G2M350,農試溪口農場,2026-02-09,23.58565,120.408111,1.3806584e-09
C0U860,頭城,2026-02-09,24.85323,121.8308,2.165269e-08
C0R580,南州,2026-02-09,22.48591,120.50274,0.00034851237
C0D430,峨眉,2026-02-09,24.6905,121.017189,9.5098684e-09
C0G780,秀水,2026-02-09,24.03405,120.503869,1.0469538e-08
72N100,臺南農改場,2026-02-09,23.0605,120.342194,7.0893075e-05
C0S900,蘭嶼高中,2026-02-09,22.04909,121.51214,0.983845
C2TA60,六十石,2026-02-09,23.22477,121.31861,3.481413e-08
C1F9W0,德基,2026-02-09,24.254783,121.190261,1.7850263e-08
C2M980,安和,2026-02-09,23.51377,120.31593,3.042798e-08
C1Z120,壽豐,2026-02-09,23.870853,121.508081,3.9587892e-08
C0W160,烏坵,2026-02-09,24.9944,119.44956,0.34227678
C1I240,外大坪,2026-02-09,23.958697,120.917931,2.1699895e-09
C1I550,國六W023K,2026-02-09,23.979067,120.867742,1.4022188e-09
C0R870,興海,2026-02-09,21.9752,120.8439,0.9996732
C0R140,瑪家,2026-02-09,22.682903,120.686639,2.7556883e-09
C0A530,坪林,2026-02-09,24.938183,121.70975,3.577662e-08
C0X260,後壁,2026-02-09,23.366358,120.362326,2.3554334e-07
C0Z230,和平,2026-02-09,24.30717,121.77007,4.0360607e-08
C0G770,福興,2026-02-09,24.041289,120.437669,7.919213e-08
C0H9A0,神木村,2026-02-09,23.532742,120.843667,7.023354e-09
C0I460,南投,2026-02-09,23.911469,120.687331,2.4441724e-09
C0I480,梅峰,2026-02-09,24.085272,121.173572,1.4755181e-08
C1V570,吉東,2026-02-09,22.85422,120.5454,2.4407308e-08
C2A560,福山,2026-02-09,24.776203,121.502811,2.3054401e-08
C0AH30,五分山,2026-02-09,25.07125,121.780794,3.2470023e-08
C0FA10,松柏,2026-02-09,24.429115,120.617482,1.5187184e-07
72S200,東改班鳩分場,2026-02-09,22.829528,121.077694,1.6272242e-06
72HA00,中改埔里分場,2026-02-09,23.903208,120.963364,1.971296e-09
C2H9W0,大坪頂農水,2026-02-09,24.043122,120.932781,2.0414697e-09
C0C650,平鎮,2026-02-09,24.897503,121.214636,2.262475e-08
C0S930,延平,2026-02-09,22.902581,121.084058,6.214652e-08
C0UA60,樟樹山,2026-02-09,24.41393,121.78325,2.4401722e-08
C2UC10,出水溪,2026-02-09,24.615822,121.652253,3.2819578e-08
C1S670,摩天,2026-02-09,23.199503,121.027,2.3692543e-08
C2C590,觀音,2026-02-09,25.027072,121.153317,1.6335979e-07
C0V630,茄萣,2026-02-09,22.906642,120.182608,0.00023785357
466940,基隆,2026-02-09,25.133314,121.740475,3.6377397e-08
C0X050,東河,2026-02-09,23.296598,120.385608,1.5366002e-09
C0R770,保力,2026-02-09,22.071122,120.764111,0.9999427
G2L020,農試嘉義分所,2026-02-09,23.485028,120.473806,9.2198077e-10
C0X240,關子嶺,2026-02-09,23.331169,120.508025,8.429467e-10
C0I380,集集,2026-02-09,23.828206,120.801467,8.7433016e-10
466990,花蓮,2026-02-09,23.975128,121.613275,1.7561383e-07
C1V220,小關山,2026-02-09,23.154217,120.813603,9.128925e-09
C1F9G1,慶福山,2026-02-09,24.180853,120.848378,3.7892565e-09
C0FB20,雪山橋,2026-02-09,24.23192,120.9786,1.5762481e-08
C0Z250,瑞穗林道,2026-02-09,23.49284,121.30688,5.299992e-08
C0D590,新豐,2026-02-09,24.87068,120.97721,3.0631938e-07
C0A870,五指山,2026-02-09,25.132153,121.608692,4.5055835e-08
C0UA50,西帽山,2026-02-09,24.555361,121.802628,3.631549e-08
C2R980,竹田國中,2026-02-09,22.61532,120.52412,9.3483446e-05
C0X160,仁德,2026-02-09,22.968258,120.257689,0.00015407559
C1H971,六分寮,2026-02-09,23.92507,120.6378,1.6026582e-09
C0W120,西嶼,2026-02-09,23.5626,119.468436,0.99665564
C0G650,員林,2026-02-09,23.946503,120.585597,1.287095e-08
C0AD50,鶯歌,2026-02-09,24.951533,121.346294,5.1490133e-08
C2H9Q0,北東眼山,2026-02-09,24.120939,121.189303,1.5444817e-08
C2H9T0,名間竹圍,2026-02-09,23.859914,120.637572,9.699038e-10
C0S990,山豬窟,2026-02-09,22.318619,120.857372,1.6758851e-07
C0X190,安平,2026-02-09,22.993161,120.152181,0.0003580666
C0K400,斗六,2026-02-09,23.720583,120.541127,1.1804421e-09
12J990,口湖工作站,2026-02-09,23.589978,120.180394,2.9748921e-06
C0O830,北寮,2026-02-09,23.079561,120.495008,1.5164319e-09
C1D410,白蘭,2026-02-09,24.579364,121.079947,1.1112056e-08
C0S970,加津林,2026-02-09,22.416211,120.926942,0.5111572
C0D700,關西,2026-02-09,24.7977,121.1732,5.0167235e-09
C0U750,龜山島,2026-02-09,24.841667,121.953133,2.5165416e-08
C0R810,內獅,2026-02-09,22.305064,120.642986,0.0028976405
C1M390,龍美,2026-02-09,23.406728,120.654417,4.127801e-09
C2K290,崙內,2026-02-09,23.69525,120.35601,5.2233293e-08
C2FB60,頭櫃山,2026-02-09,24.129842,120.858925,3.6828796e-09
C1H840,國三N238K,2026-02-09,23.841008,120.707711,8.5460594e-10
CAQ030,崎峰國小,2026-02-09,22.42565,120.49521,0.00034851237
C2E520,大湖,2026-02-09,24.414939,120.870872,9.794486e-09
467530,阿里山,2026-02-09,23.508208,120.813242,2.0619963e-08
C1E691,南湖,2026-02-09,24.40135,120.837533,6.32318e-09
C0FA30,梧棲,2026-02-09,24.256003,120.523381,3.519255e-06
C1V231,高中,2026-02-09,23.134911,120.716711,2.3534221e-09
C0AK30,硬漢嶺,2026-02-09,25.136097,121.426372,5.2408733e-08
C0F9V0,新社,2026-02-09,24.200172,120.815806,3.3483147e-09
C0H890,埔里,2026-02-09,23.972169,120.952425,1.6851163e-09
C0R690,墾丁,2026-02-09,21.966756,120.810269,0.9999802
C0SD20,富山,2026-02-09,22.822383,121.190825,3.6341444e-07
C0F0D0,審馬陣,2026-02-09,24.381675,121.4203,3.721606e-08
C2W030,金門農試所,2026-02-09,24.448431,118.451786,1.7298981e-07
C0R820,白鷺,2026-02-09,22.454275,120.666219,7.825933e-09
C0FB00,大雪山,2026-02-09,24.254668,121.007374,1.949022e-08
C1V190,南天池,2026-02-09,23.27403,120.91176,2.1113701e-08
C0E940,雪見,2026-02-09,24.42595,121.01347,1.5197655e-08
K2E360,苗栗農改場,2026-02-09,24.495722,120.829111,2.2344153e-08
CAJ050,海口故事園區,2026-02-09,23.57543,120.14121,3.2114353e-06
C2K280,四湖,2026-02-09,23.6304,120.22717,4.401923e-06
C2H9D0,三隻寮,2026-02-09,24.093078,120.861578,2.1346485e-09
C0O990,媽廟,2026-02-09,22.99175,120.293525,0.000100623874
C0D480,打鐵坑,2026-02-09,24.849664,121.150789,5.663793e-09
C0Z220,和平林道,2026-02-09,24.343922,121.656317,2.5050626e-08
C0TA10,花蓮漁港,2026-02-09,23.995322,121.638331,0.0001483256
72C440,桃園農改場,2026-02-09,24.950944,121.030583,3.3582175e-08
C1E711,馬拉邦山,2026-02-09,24.367306,120.901656,4.042276e-09
C0SB20,富岡,2026-02-09,22.792467,121.192669,0.00015235491
C0D560,竹東,2026-02-09,24.767147,121.057881,8.838578e-09
C0F9U0,南屯,2026-02-09,24.137006,120.637969,1.1356277e-08
C2SD60,明峰,2026-02-09,22.8671,121.11825,4.9942894e-08
C0M720,番路,2026-02-09,23.464657,120.554156,6.3880434e-10
C0F0A0,雪山圈谷,2026-02-09,24.388594,121.236339,4.305084e-08
C1A9N0,四十份,2026-02-09,24.934158,121.593283,2.6386918e-08
C0U760,東澳,2026-02-09,24.52196,121.83318,3.6026215e-08
C0X230,鹽水,2026-02-09,23.272621,120.247641,4.2559105e-07
C2H9H0,苗改南投蜂場,2026-02-09,23.852589,120.693481,9.923649e-10
C2TB70,達谷寮,2026-02-09,23.38,121.35968,4.9515783e-08
C0R950,萬隆國小,2026-02-09,22.507667,120.587817,8.66205e-06
467540,大武,2026-02-09,22.35572,120.90374,0.9993986
C0V370,古亭坑,2026-02-09,22.893178,120.401947,2.106064e-09
C1I340,新興橋,2026-02-09,23.563333,120.868728,2.6891023e-09
C0SA80,土坂,2026-02-09,22.453108,120.887572,0.0036107893
C0R160,鹽埔,2026-02-09,22.739558,120.530778,6.332549e-08
C0AC40,大屯山,2026-02-09,25.175675,121.522408,4.917329e-08
466850,五分山雷達站,2026-02-09,25.071182,121.781205,3.241217e-08
C2H9L0,馬烈霸,2026-02-09,24.1512,121.201772,1.6003925e-08
C1AI50,國三N016K,2026-02-09,25.034164,121.619664,2.084266e-08
C2V920,匏子寮,2026-02-09,23.04905,120.55319,1.3029471e-09
C1V600,藤枝,2026-02-09,23.071961,120.757042,8.098832e-09
C1E601,南勢,2026-02-09,24.572486,120.734842,8.336053e-08
C0O980,新市,2026-02-09,23.061614,120.298197,0.00017914853
C0K420,西螺,2026-02-09,23.800407,120.467394,1.323776e-09
C0Z050,佳心,2026-02-09,23.34567,121.21316,3.4270986e-08
C0AD30,蘆洲,2026-02-09,25.086594,121.472331,1.8995383e-08
C0V610,梓官,2026-02-09,22.760558,120.267211,0.0012520913
K2F750,種苗改良場,2026-02-09,24.225972,120.800917,3.458452e-09
C0UA80,大溪漁港,2026-02-09,24.941801,121.902955,4.5127994e-08
C1AI60,國一39K邊坡,2026-02-09,25.064361,121.383836,1.6976244e-08
C0W150,金寧,2026-02-09,24.457703,118.328989,8.245425e-09
C0R960,內埔,2026-02-09,22.608483,120.570714,9.3483446e-05
V2C250,八德合作社,2026-02-09,24.93775,121.266389,3.701332e-08
C2H9S0,龍南,2026-02-09,23.953536,120.833183,3.16405e-09
C0AH40,平等,2026-02-09,25.129142,121.577086,5.6991883e-08
C0R540,佳冬,2026-02-09,22.419456,120.552375,0.0002798775
466950,彭佳嶼,2026-02-09,25.627975,122.079744,0.07539369
C0A890,雙溪,2026-02-09,25.036003,121.864242,4.4807134e-08
C0C480,桃園,2026-02-09,24.992425,121.323172,7.5975514e-08
C0AH50,林口,2026-02-09,25.072181,121.38084,1.657186e-08
A2K360,水試臺西試驗場,2026-02-09,23.717231,120.190522,6.0969132e-06
C2M960,外寮,2026-02-09,23.562643,120.665688,3.1124598e-09
C0F9S0,烏日,2026-02-09,24.107058,120.624103,1.1105424e-08
C2N180,鹿陶洋,2026-02-09,23.14325,120.48352,9.006059e-10
C0C490,八德,2026-02-09,24.928708,121.283289,3.588282e-08
C0R190,赤山,2026-02-09,22.592333,120.614306,5.9388087e-05
C0T820,天祥,2026-02-09,24.179597,121.495639,1.732568e-07
C1F9E1,龍安,2026-02-09,24.1605,120.831961,3.3605478e-09
C2SD50,順那,2026-02-09,23.04166,121.29332,1.1912091e-07
C0V820,小林,2026-02-09,23.148408,120.63325,9.532856e-10
C2G870,芳苑,2026-02-09,23.922303,120.320025,0.008677139
C0E850,大河,2026-02-09,24.618069,120.948578,1.0498794e-08
C1U670,寒溪,2026-02-09,24.634,121.71691,1.33695615e-08
C0N020,城西,2026-02-09,23.0568,120.0956,0.0014281818
C1Z110,三棧,2026-02-09,24.11557,121.60501,1.24408e-07
C0R280,檳榔,2026-02-09,22.076078,120.836777,0.999954
C2H9J0,中台,2026-02-09,23.9996,120.938739,1.8432486e-09
C0F9L0,后里,2026-02-09,24.310436,120.729725,6.015947e-09
467441,高雄,2026-02-09,22.730432,120.312516,0.00075889204
C0Z180,新城,2026-02-09,24.040486,121.604878,1.6847434e-07
C0D540,橫山,2026-02-09,24.71116,121.11693,8.420457e-09
C1D420,太閣南,2026-02-09,24.632808,121.160575,1.2838928e-08
C1E770,公館,2026-02-09,24.526914,120.830806,2.2132118e-08
CAN130,水試所海水繁養殖中心,2026-02-09,23.120802,120.07968,0.0015675395
C1I430,翠華,2026-02-09,24.191961,121.224339,2.3065045e-08
C1M400,菜瓜坪,2026-02-09,23.251928,120.576103,9.661465e-10
C0G730,二林,2026-02-09,23.903325,120.376081,1.211543e-07
72M360,南改義竹分場,2026-02-09,23.360694,120.279361,2.6026612e-07
V2K620,麥寮合作社,2026-02-09,23.753836,120.294783,9.30827e-08
C0Z070,舞鶴,2026-02-09,23.46811,121.37407,2.1905878e-08
C0B040,大武崙,2026-02-09,25.166676,121.706993,3.429518e-08
C1Z030,紅葉,2026-02-09,23.493119,121.338806,2.228699e-08
C1I050,丹大,2026-02-09,23.753747,121.141147,2.1744153e-08
C0I080,信義,2026-02-09,23.689694,120.851036,1.230743e-09
C2TB80,庄子底,2026-02-09,23.71794,121.49438,3.9351804e-08
C0D750,樂山林道6k,2026-02-09,24.49999,121.08773,2.1734783e-08
C2M920,朴子農改,2026-02-09,23.469889,120.259383,2.6748776e-08
C2A880,福隆,2026-02-09,25.017842,121.942083,4.7501388e-08
C0Z160,鳳林,2026-02-09,23.746114,121.453411,3.849305e-08
C0UB80,翠峰林道6K,2026-02-09,24.49773,121.568625,3.8483503e-08
C0V210,復興,2026-02-09,23.222403,120.806089,2.3912445e-09
C0H990,昆陽,2026-02-09,24.121322,121.273642,3.0312474e-08
C0R741,獅子,2026-02-09,22.202308,120.705236,0.49568918
C0S710,鹿野,2026-02-09,22.917711,121.122994,3.748921e-08
C0I530,小奇萊,2026-02-09,24.131764,121.295717,3.2007073e-08
C0FA70,大雪山埡口,2026-02-09,24.26867,121.03062,2.8095211e-08
C2K630,荷苞,2026-02-09,23.657717,120.595144,8.2856055e-10
C0Z080,富源,2026-02-09,23.587642,121.378225,4.028147e-08
C2M9E0,旺來山,2026-02-09,23.555153,120.486463,7.693438e-10
C0SB10,美和,2026-02-09,22.682078,121.060236,0.00032176982
C2K620,馬光農場,2026-02-09,23.721453,120.378864,1.4378774e-09
C1I140,卡奈托灣,2026-02-09,23.754364,121.087872,9.099077e-09
C0I520,玉山風口,2026-02-09,23.470489,120.955994,4.2329592e-08
C1G691,下水埔,2026-02-09,23.816114,120.5676,1.1413621e-09
C0X110,臺南市南區,2026-02-09,22.961189,120.188378,0.0001468939
C0V680,仁武,2026-02-09,22.701083,120.347722,0.0006553274
C2G840,北斗,2026-02-09,23.877586,120.514222,2.2637398e-08
C2TB90,長橋,2026-02-09,23.6874,121.46186,3.858832e-08
C0R900,竹坑,2026-02-09,22.1385,120.7022,0.9915561
C0G860,社頭,2026-02-09,23.897647,120.5862,1.848961e-08
C0X150,安定,2026-02-09,23.102614,120.227839,0.00018045164
C0R590,里港,2026-02-09,22.77919,120.49459,6.960677e-08
C0E610,馬都安,2026-02-09,24.451272,120.930192,4.877869e-09
C0E550,明德,2026-02-09,24.583486,120.885411,2.1566915e-08
C0R150,三地門,2026-02-09,22.709889,120.639944,1.7072718e-08
C0G910,花壇,2026-02-09,24.032076,120.549461,9.655538e-09
C1D400,鳥嘴山,2026-02-09,24.71909,121.28387,9.34887e-09
C0K500,元長,2026-02-09,23.64981,120.315024,9.9285224e-08
C0F0B0,石岡,2026-02-09,24.276061,120.777644,5.1605933e-09
C2V250,甲仙,2026-02-09,23.080106,120.591758,1.1276389e-09
C0SA20,金崙山,2026-02-09,22.567419,120.959667,7.177922e-08
C0V350,溪埔,2026-02-09,22.738578,120.446797,9.438079e-08
C0M660,溪口,2026-02-09,23.604131,120.403569,1.3806584e-09
C1S880,壽卡,2026-02-09,22.238911,120.858903,3.3826691e-07
72D680,桃改新埔分場,2026-02-09,24.834444,121.066111,1.6931523e-08
