站號,站名,日期,lat,lon,BLBTSLS
C1O850,環湖,2026-01-08,23.148617,120.418633,5.949668e-10
C0S890,關山,2026-01-08,23.0395,121.175017,3.0226721e-09
CAH030,茶改場竹圍站,2026-01-08,23.860083,120.637528,7.947622e-10
V2K610,大庄合作社,2026-01-08,23.8068,120.367939,4.4680913e-08
G2AI50,關渡,2026-01-08,25.11575,121.492,1.4607247e-08
C1S800,華源,2026-01-08,22.657883,121.02325,0.0027523087
C0R550,新埤,2026-01-08,22.467947,120.582894,2.7266386e-10
C1O880,關山,2026-01-08,23.173397,120.594092,3.9760914e-10
V2C260,八德蔬果,2026-01-08,24.978508,121.281819,4.461653e-08
A2K570,古坑花卉中心,2026-01-08,23.63353,120.55239,1.0309268e-08
C0R260,春日,2026-01-08,22.370361,120.628306,2.6369334e-10
C1I211,蘆竹湳,2026-01-08,23.934019,120.811994,1.3178985e-09
467571,新竹,2026-01-08,24.827853,121.014219,8.565852e-07
C1I260,北坑,2026-01-08,23.9246,121.006903,1.1353565e-09
C0SA40,瑞和,2026-01-08,22.974361,121.156697,3.3330117e-08
C0R490,九如,2026-01-08,22.7405,120.490503,2.6769856e-08
C0D430,峨眉,2026-01-08,24.6905,121.017189,3.921624e-09
C1I240,外大坪,2026-01-08,23.958697,120.917931,1.6030159e-09
C1V570,吉東,2026-01-08,22.85422,120.5454,7.496198e-09
C0D480,打鐵坑,2026-01-08,24.849664,121.150789,3.8198518e-08
V2C250,八德合作社,2026-01-08,24.93775,121.266389,9.4260436e-08
C0C480,桃園,2026-01-08,24.992425,121.323172,4.461653e-08
