站號,站名,日期,lat,lon,BlastGRU-TW
C0R710,龍磐,2026-02-20,21.931672,120.838942,0.0025676372
C1F9D1,白毛台,2026-02-20,24.158325,120.886933,0.0019041129
C0G940,竹塘,2026-02-20,23.848253,120.386764,0.0016125507
467590,恆春,2026-02-20,22.003897,120.746339,0.0005062135
C1O850,環湖,2026-02-20,23.148617,120.418633,0.04553665
C0U710,太平山,2026-02-20,24.505486,121.525656,0.0005920776
C0E820,獅潭,2026-02-20,24.539133,120.920042,0.0027901905
C2SD70,二層坪,2026-02-20,22.94105,121.16838,0.0036075534
C0V880,興達,2026-02-20,22.8778,120.2127,0.013138263
C0S890,關山,2026-02-20,23.0395,121.175017,0.004812013
C0SB30,新蘭,2026-02-20,22.869214,121.223228,0.015843436
C2R970,屏科大,2026-02-20,22.648275,120.619247,0.14519253
C1Z130,銅門,2026-02-20,23.965694,121.492842,0.008482431
C0AD40,土城,2026-02-20,24.973208,121.445169,0.0016204348
CAN140,六官養殖協會,2026-02-20,23.22881,120.29962,0.03452698
C0X180,山上,2026-02-20,23.0757,120.363253,0.0691276
C0F9Z0,雪山東峰,2026-02-20,24.388792,121.268675,0.00049633835
C1M480,獨立山,2026-02-20,23.537022,120.607797,0.0015608349
C0X220,學甲,2026-02-20,23.230367,120.182187,0.004555558
467650,日月潭,2026-02-20,23.881325,120.90805,0.0019763843
A2K570,古坑(花卉中心),2026-02-20,23.633531,120.552392,0.0230097
C0K600,箔子寮,2026-02-20,23.6197,120.14,0.0013920207
C0G830,埤頭,2026-02-20,23.866003,120.452806,0.019526236
C0S950,七塊厝,2026-02-20,22.954453,121.229922,0.0035808044
467110,金門,2026-02-20,24.407306,118.289281,0.00047390425
C0AH80,深坑,2026-02-20,25.002703,121.628328,0.0047602714
C0A970,三貂角,2026-02-20,25.007606,122.002058,0.0278312
C2D730,寶山農場,2026-02-20,24.732444,120.976153,0.0017244017
C0K430,褒忠,2026-02-20,23.690938,120.303634,0.0036140294
467480,嘉義,2026-02-20,23.495925,120.432906,0.08385041
C0V400,阿公店,2026-02-20,22.804194,120.355528,0.11350702
C0E960,觀霧分站,2026-02-20,24.505781,121.113921,0.00080262724
467550,玉山,2026-02-20,23.48718,120.95943,0.0006322198
C0R440,大漢山,2026-02-20,22.405264,120.753181,0.00085524487
C0SD30,東清國小,2026-02-20,22.057128,121.564922,0.005152171
C1F9B1,桐林,2026-02-20,24.066172,120.735194,0.059718914
C2H9U0,鳳鵬,2026-02-20,23.763919,120.788061,0.0067447443
C0K390,土庫,2026-02-20,23.679029,120.395574,0.017740572
C1I450,望鄉山,2026-02-20,23.594153,120.944286,0.00067724136
C0E910,海埔,2026-02-20,24.648767,120.772435,0.0012302839
B2E890,畜試北區分所,2026-02-20,24.527806,120.770972,0.0018763685
C0R750,四林格山,2026-02-20,22.076989,120.802439,0.0013117964
C0F0C0,中坑,2026-02-20,24.248517,120.903319,0.0014643379
C1I121,大鞍,2026-02-20,23.678381,120.760017,0.0014941549
C2G9E0,移民庄,2026-02-20,23.9784,120.40283,0.0013389732
72U480,花改蘭陽分場,2026-02-20,24.686306,121.716583,0.0188722
C0A770,科教館,2026-02-20,25.096356,121.516507,0.0018260343
C0AJ60,六塊厝,2026-02-20,25.24,121.4481,0.022108585
C0R620,墾雷,2026-02-20,21.900836,120.855269,0.00317918
467420,永康,2026-02-20,23.038386,120.2367,0.1837141
C2M530,奮起湖,2026-02-20,23.493903,120.699253,0.0009275219
C0I410,名間,2026-02-20,23.837053,120.701447,0.039956406
A2C560,農工中心,2026-02-20,24.985917,121.239833,0.0021022565
C0V740,旗山,2026-02-20,22.888614,120.483597,0.17143397
C0Z061,玉里,2026-02-20,23.3215,121.339656,0.033459846
C0S840,南田,2026-02-20,22.279725,120.889208,0.026676163
C1I470,杉林溪,2026-02-20,23.639517,120.786444,0.0011431822
C1X040,東原,2026-02-20,23.291597,120.463822,0.014038933
C0R660,枋寮,2026-02-20,22.367722,120.590647,0.2625705
C1R120,上德文,2026-02-20,22.763272,120.704442,0.0032745635
C0K450,大埤,2026-02-20,23.646074,120.431537,0.11076203
C0UA00,土場,2026-02-20,24.576533,121.495333,0.0039182836
467080,宜蘭,2026-02-20,24.763975,121.756528,0.0053861793
C0N030,四草,2026-02-20,23.0235,120.1116,0.0048711724
467410,臺南,2026-02-20,22.99328,120.20492,0.015291319
C0V650,彌陀,2026-02-20,22.783806,120.246361,0.05083977
C0D660,新竹市東區,2026-02-20,24.798681,120.986942,0.0015897056
82S580,茶改東部分場,2026-02-20,22.907694,121.130139,0.0043318104
C0SB40,興隆,2026-02-20,22.913661,121.257469,0.0035720055
467050,新屋,2026-02-20,25.006725,121.047492,0.0014617536
C0C710,大溪永福,2026-02-20,24.892936,121.324975,0.002052125
C0FA20,溫寮,2026-02-20,24.372177,120.583125,0.00088398915
C0V640,湖內,2026-02-20,22.887139,120.2445,0.013136821
C0R910,下寮,2026-02-20,22.3929,120.5548,0.19251488
C0Z020,明里,2026-02-20,23.208717,121.262342,0.00949179
C0M770,嘉義梅山,2026-02-20,23.585398,120.555587,0.027629428
C0C660,楊梅,2026-02-20,24.912375,121.143047,0.002140005
C0SD40,牛頭山,2026-02-20,22.676661,121.506944,0.009136752
C1E511,新開,2026-02-20,24.347703,120.827019,0.005498028
G2F820,農試所(霧峰),2026-02-20,24.031261,120.688133,0.08140945
C2M990,大巃頂,2026-02-20,23.5547,120.61439,0.0015605905
C1I070,和社,2026-02-20,23.591131,120.888861,0.0042109024
C2E990,新坪頂,2026-02-20,24.30201,120.8574,0.0013023062
C0TA80,立霧山,2026-02-20,24.183258,121.641899,0.0017725847
C2F000,大肚,2026-02-20,24.15295,120.572117,0.003306705
C1S850,豐南,2026-02-20,23.122139,121.262389,0.0073350766
C2M9B0,西興,2026-02-20,23.2428,120.57617,0.023048375
C2A920,富貴角,2026-02-20,25.263783,121.565258,0.001346883
C0T960,光復,2026-02-20,23.660694,121.424964,0.18693666
C0F9M0,豐原,2026-02-20,24.254322,120.720692,0.007195416
C0R720,旭海,2026-02-20,22.205403,120.887614,0.0026678995
C0V710,苓雅,2026-02-20,22.622742,120.330669,0.078047626
C0C740,觀音工業區,2026-02-20,25.064764,121.114856,0.0013565012
CAC040,拉拉山,2026-02-20,24.699317,121.427133,0.00039411234
C0V790,萬山,2026-02-20,22.905944,120.688056,0.051833738
U2HA30,臺大和社,2026-02-20,23.590856,120.888864,0.0042109024
C2H9K0,屯原,2026-02-20,24.067969,121.209389,0.0008003981
C0AJ90,澳底,2026-02-20,25.0552,121.9253,0.07985795
C0Z100,東華,2026-02-20,23.89525,121.549833,0.05179903
C0G970,三豐,2026-02-20,23.882,120.2895,0.0006357297
C0V900,汕尾,2026-02-20,22.4782,120.4151,0.18817048
C1R630,龍泉,2026-02-20,22.66701,120.59091,0.1512163
C1AC50,關渡,2026-02-20,25.133486,121.469331,0.002935763
C0C800,四稜,2026-02-20,24.64733,121.4293,0.0008754761
C0F9I0,神岡,2026-02-20,24.272481,120.658314,0.012892341
C0K460,斗南,2026-02-20,23.678734,120.478359,0.1103859
C2O810,曾文,2026-02-20,23.219681,120.497328,0.028185517
467280,後龍,2026-02-20,24.648563,120.831834,0.0011947266
C1F9J1,清水林,2026-02-20,24.071242,120.820419,0.0015752076
C2A650,火燒寮,2026-02-20,25.002719,121.742892,0.0036315036
466930,竹子湖,2026-02-20,25.162078,121.544547,0.0013448634
C1I220,樟湖,2026-02-20,23.905333,120.846983,0.0013232246
C0I390,仁愛,2026-02-20,24.022122,121.132206,0.00083509786
C0Z300,東里,2026-02-20,23.26853,121.30547,0.027968593
C1V590,新發,2026-02-20,23.057019,120.646064,0.0028276236
C0K510,水林,2026-02-20,23.572924,120.24597,0.0047261994
72S590,東改賓朗果園,2026-02-20,22.813889,121.071278,0.0023871833
82A750,茶改北部分場,2026-02-20,24.955778,121.631222,0.002525361
C1A750,石碇服務區,2026-02-20,25.00872,121.646242,0.004343613
C0X300,鹿寮,2026-02-20,23.386047,120.477331,0.06718194
C0K590,雲林東勢,2026-02-20,23.674192,120.255721,0.0046095024
C2K310,港尾布雞,2026-02-20,23.74834,120.38439,0.024317684
C0A570,桶後,2026-02-20,24.848222,121.597992,0.026047472
C1S800,華源,2026-02-20,22.657883,121.02325,0.011723223
C0G720,溪州,2026-02-20,23.851589,120.499093,0.019535808
C1V160,達卡努瓦,2026-02-20,23.279811,120.705319,0.0017049157
C2M410,馬頭山,2026-02-20,23.324361,120.582017,0.009273199
C0V850,蚵仔寮,2026-02-20,22.7256,120.2527,0.05482761
C0S740,池上,2026-02-20,23.119628,121.209469,0.0073086917
C1V390,尖山,2026-02-20,22.813153,120.367789,0.113831036
C0AH70,松山,2026-02-20,25.04871,121.55042,0.0018206182
C0N010,鯤鯓國小,2026-02-20,23.1879,120.0889,0.00558051
C0R550,新埤,2026-02-20,22.467947,120.582894,0.2357121
C0SA60,知本（水試所）,2026-02-20,22.702394,121.082761,0.04138424
C0T9I0,豐濱,2026-02-20,23.583897,121.514806,0.032827992
C0UB00,淡江大學蘭陽校園,2026-02-20,24.823239,121.730383,0.00338945
C0W240,九宮,2026-02-20,24.423753,118.240186,0.00045575036
C0T9N0,富里,2026-02-20,23.171639,121.249378,0.00821459
U2HA50,臺大竹山,2026-02-20,23.756972,120.681556,0.028997166
C0V840,鳳鼻頭,2026-02-20,22.5083,120.3591,0.18252559
C0X140,西港,2026-02-20,23.125608,120.203108,0.047483716
72D080,桃改五峰分場,2026-02-20,24.612194,121.157167,0.0007271313
C2H9P0,伊拿谷,2026-02-20,23.963211,121.088264,0.00088228215
C2K250,崙背,2026-02-20,23.75553,120.31893,0.0036140294
C2H9F0,柑林,2026-02-20,24.018658,120.847072,0.012604079
C0TA20,加灣,2026-02-20,24.082025,121.608944,0.030619433
C0V530,阿蓮,2026-02-20,22.883208,120.327508,0.11799049
C0FB30,八仙山苗圃,2026-02-20,24.192719,121.001366,0.0015453765
C1O880,關山,2026-02-20,23.173397,120.594092,0.031028694
C0E791,卓蘭,2026-02-20,24.3126,120.8244,0.0043824613
C1I030,武界,2026-02-20,23.913225,121.052483,0.0012332264
C0R520,崁頂,2026-02-20,22.514781,120.506914,0.24313453
C0R341,牡丹,2026-02-20,22.130036,120.792639,0.018533913
C0R930,萬丹,2026-02-20,22.5885,120.4851,0.27351576
C0S760,紅石,2026-02-20,23.069131,121.126219,0.0006836844
C2C410,中央大學,2026-02-20,24.967652,121.185165,0.0021205544
C1M610,石磐龍,2026-02-20,23.496606,120.663506,0.0012624261
C0C790,東眼山,2026-02-20,24.8284,121.40888,0.00062478374
C0UA10,鴛鴦湖,2026-02-20,24.590269,121.412228,0.00065470225
C0R800,丹路,2026-02-20,22.204481,120.750989,0.003216905
C0G920,永靖,2026-02-20,23.924703,120.547533,0.016992366
C2M950,太和,2026-02-20,23.538372,120.702961,0.00093963766
C1A630,下盆,2026-02-20,24.771003,121.538622,0.00424336
B2N890,畜產試驗所,2026-02-20,23.058972,120.336406,0.26070422
C0UA30,白嶺,2026-02-20,24.527819,121.519031,0.0007451178
467571,新竹,2026-02-20,24.828575,121.01455,0.0015049302
C1V580,溪南(特生中心),2026-02-20,23.084972,120.788475,0.0012241498
C1T970,大農,2026-02-20,23.615233,121.413331,0.11149172
C0R650,竹田,2026-02-20,22.58486,120.54344,0.25542894
C1H900,清流,2026-02-20,24.080775,120.962997,0.0013482377
C1C510,水尾,2026-02-20,24.940081,121.087161,0.0014618287
C2N170,茅港尾,2026-02-20,23.2061,120.2624,0.03452698
C0F9X0,大雅(中科園區),2026-02-20,24.21528,120.62445,0.007371842
C0SB60,白守蓮,2026-02-20,23.126769,121.401914,0.06668284
C0O970,虎頭埤,2026-02-20,23.021375,120.347878,0.09203664
C0C730,中大臨海站,2026-02-20,24.966126,121.008581,0.0016495066
C0X250,新營,2026-02-20,23.310689,120.316681,0.041186873
C0V700,三民,2026-02-20,22.645017,120.311233,0.03157244
C0U870,大礁溪,2026-02-20,24.791042,121.675047,0.0019700853
C0E870,高鐵苗栗,2026-02-20,24.60725,120.826094,0.0011892057
C0TA30,鹽寮,2026-02-20,23.845606,121.592664,0.06745093
C0M860,新美,2026-02-20,23.338017,120.683169,0.022254309
C1E701,八卦,2026-02-20,24.491756,120.927619,0.0008913611
C2TA90,加納納,2026-02-20,23.466421,121.359867,0.022756282
C0I420,國姓,2026-02-20,24.037803,120.855072,0.01086068
C2D720,關西工作站,2026-02-20,24.757275,121.184792,0.0027703543
C0S960,香蘭,2026-02-20,22.587569,120.993375,0.2747008
467620,蘭嶼,2026-02-20,22.0369,121.55843,0.0002828837
C0R260,春日,2026-02-20,22.370361,120.628306,0.20878518
72G600,臺中農改場,2026-02-20,24.003028,120.534389,0.01812529
C0Z210,瑞穗,2026-02-20,23.5239,121.39021,0.058055267
C0M820,達邦,2026-02-20,23.453994,120.749517,0.0014621337
C0V860,南寮,2026-02-20,22.7616,120.2339,0.05490399
C0G740,大城,2026-02-20,23.852487,120.320935,0.0006355025
C0R920,塭仔,2026-02-20,22.4169,120.5197,0.19366172
C0R470,高樹,2026-02-20,22.826389,120.600806,0.34490183
C0R680,佳樂水,2026-02-20,21.993578,120.861633,0.00267486
C1O870,大棟山,2026-02-20,23.31157,120.52226,0.0019282209
C0D360,梅花,2026-02-20,24.678347,121.208558,0.00095652445
C0Z190,富世,2026-02-20,24.14743,121.6297,0.26199025
C0AI10,屈尺,2026-02-20,24.92184,121.54475,0.0013850011
B2U990,畜試東區分所,2026-02-20,24.669039,121.832561,0.13748014
C0SB80,長濱漁港,2026-02-20,23.313644,121.459994,0.12604403
C0TA50,和仁,2026-02-20,24.241394,121.712472,0.012691141
C0V910,大樹,2026-02-20,22.684645,120.432803,0.14201957
C1R610,西大武山,2026-02-20,22.617719,120.7322,0.001051691
C0G900,線西,2026-02-20,24.143358,120.443536,0.0011159866
C0M700,竹崎,2026-02-20,23.526178,120.555508,0.020650122
C2E880,三義,2026-02-20,24.405478,120.749819,0.0010213496
C0C720,竹圍,2026-02-20,25.112692,121.239824,0.0016119698
C0F9P0,清水,2026-02-20,24.312297,120.562242,0.0009587503
C0Z150,吉安光華,2026-02-20,23.930925,121.595153,0.04951588
C0FA80,小雪山天池,2026-02-20,24.28025,121.02627,0.00068823015
467300,東吉島,2026-02-20,23.25727,119.66762,0.0004768956
C1D640,外坪(五指山),2026-02-20,24.644447,121.090961,0.0011214152
C2R9A0,高士國小,2026-02-20,22.12553,120.84653,0.018341998
C0F9O0,潭子,2026-02-20,24.213106,120.703933,0.00729098
C2H9R0,卓社,2026-02-20,23.887894,121.000086,0.00097114895
72T250,花蓮農改場,2026-02-20,23.975222,121.563889,0.037843242
C0E780,銅鑼,2026-02-20,24.489681,120.790853,0.0019172637
C1T950,太安,2026-02-20,23.666719,121.370128,0.009615989
C0E830,苑裡,2026-02-20,24.439714,120.653053,0.0007421163
467270,田中,2026-02-20,23.873803,120.581286,0.14658408
C0SA10,檳榔四格山,2026-02-20,22.810031,121.109308,0.002073295
C1T830,布洛灣,2026-02-20,24.17184,121.57127,0.046292745
C0F970,大坑,2026-02-20,24.173142,120.722289,0.013788828
C1U920,思源,2026-02-20,24.393125,121.347214,0.00076102297
C2H9Y0,松茗,2026-02-20,23.8167,120.650765,0.004730259
C0A931,三和,2026-02-20,25.233153,121.595236,0.0022946773
C0I010,廬山,2026-02-20,24.033311,121.181808,0.00056214625
C2M940,日野賀,2026-02-20,23.434056,120.727169,0.002188768
C0R860,鼻頭,2026-02-20,22.1043,120.8979,0.027894568
C0UB20,壯圍,2026-02-20,24.7359,121.8163,0.009006879
C0R790,九棚,2026-02-20,22.14195,120.889281,0.011955396
C0W110,東莒,2026-02-20,25.9652,119.98069,0.00046911312
C1U930,粉鳥林,2026-02-20,24.497088,121.842479,0.36595967
C1I211,蘆竹湳,2026-02-20,23.934019,120.811994,0.004968076
C0S830,長濱,2026-02-20,23.286817,121.411975,0.011880149
C1F9F1,伯公龍,2026-02-20,24.272392,120.849047,0.0020479069
C0UB90,太平山莊,2026-02-20,24.494171,121.536209,0.00058402587
C0E810,西湖,2026-02-20,24.562947,120.7485,0.0007665722
C1I440,新高口,2026-02-20,23.478744,120.878939,0.00079045934
C0O840,王爺宮,2026-02-20,23.222064,120.40085,0.1574164
C0T9G0,鳳林山,2026-02-20,23.735269,121.420131,0.064467244
C0X080,佳里,2026-02-20,23.173039,120.145086,0.004874379
C0FB70,大甲溪埔,2026-02-20,24.370625,120.620067,0.0008908648
C0Z310,清水斷崖,2026-02-20,24.218294,121.689142,0.0050884285
C0M680,太保,2026-02-20,23.455062,120.331455,0.091119714
C1S820,金峰,2026-02-20,22.590969,120.933236,0.07726185
C0AD10,八里,2026-02-20,25.150211,121.403947,0.0018450227
C2K240,草嶺,2026-02-20,23.59555,120.693461,0.001775024
C1SA70,都蘭,2026-02-20,22.87794,121.226881,0.012798024
C0K440,二崙,2026-02-20,23.772797,120.408944,0.02527525
C1A760,坪林交控,2026-02-20,24.94284,121.713442,0.008642838
C0F9N0,大里,2026-02-20,24.092464,120.701378,0.059742082
C0SA90,達仁林場,2026-02-20,22.264347,120.823972,0.010350182
C1R290,石門山,2026-02-20,22.112611,120.756597,0.006930684
42HA10,萬大發電廠,2026-02-20,23.978875,121.139639,0.0009896236
C0R890,山海,2026-02-20,21.9878,120.7091,0.000516275
C0T9A0,月眉山,2026-02-20,23.809928,121.539828,0.0019924934
C0AC70,信義,2026-02-20,25.037822,121.564597,0.0024929815
C0K560,棋山,2026-02-20,23.68645,120.603417,0.032098327
C2FB50,出雲,2026-02-20,24.206469,120.902794,0.0011827593
C1Z240,中平林道,2026-02-20,23.42115,121.26763,0.009208278
U2H480,溪頭,2026-02-20,23.670306,120.798194,0.0014379217
C0M880,好美里,2026-02-20,23.3364,120.138,0.005225239
C0T9E0,大坑,2026-02-20,23.880628,121.581981,0.0015782614
C0K530,臺西,2026-02-20,23.701547,120.197559,0.0012388853
C1E900,國一N128K,2026-02-20,24.560997,120.844186,0.0016540722
C0AJ50,水湳洞,2026-02-20,25.123695,121.862238,0.07078243
C0AI20,白沙灣,2026-02-20,25.283128,121.519058,0.0054797735
C2V310,美濃,2026-02-20,22.898792,120.51907,0.17134456
C0A860,大坪,2026-02-20,25.165914,121.632969,0.0010266571
C1U850,觀音海岸,2026-02-20,24.38319,121.77856,0.0015435391
C2K610,草嶺石壁,2026-02-20,23.602469,120.707731,0.0016778685
C0U950,鶯子嶺,2026-02-20,24.89754,121.79244,0.00090280146
C0O900,善化,2026-02-20,23.112883,120.297219,0.2625179
C0K550,蔦松,2026-02-20,23.514319,120.229736,0.0035283489
E2P980,林試六龜中心,2026-02-20,22.991703,120.645722,0.10073198
C0E590,通霄,2026-02-20,24.471892,120.704622,0.0007604739
C1I310,西巒,2026-02-20,23.754486,120.883956,0.006867133
C0A550,泰平,2026-02-20,24.971197,121.823711,0.0027903286
C0I360,水里,2026-02-20,23.812553,120.849792,0.013632307
C0R830,高士,2026-02-20,22.121825,120.836781,0.0034261036
C1I101,溪頭,2026-02-20,23.661789,120.807647,0.00096576376
C0AJ20,野柳,2026-02-20,25.20703,121.690021,0.0075351004
C0B060,暖暖,2026-02-20,25.0957,121.7403,0.0025616237
C1H920,長豐,2026-02-20,24.102039,120.879897,0.0014630118
C2S9B0,利吉,2026-02-20,22.86246,121.15486,0.0041650534
C0V360,內門,2026-02-20,22.975481,120.466769,0.07979472
C0R850,林邊,2026-02-20,22.4634,120.5339,0.26372108
C0E930,龍鳳,2026-02-20,24.700034,120.859125,0.0010745826
C0U910,冬山,2026-02-20,24.63373,121.7937,0.13748014
C1E721,泰安,2026-02-20,24.489017,120.968036,0.0010897892
82H320,茶改中部分場,2026-02-20,23.875611,120.913583,0.003811703
C0M750,布袋,2026-02-20,23.380878,120.167789,0.001936305
C1S860,利嘉,2026-02-20,22.809417,121.050528,0.021646481
E2S980,林試太麻里1,2026-02-20,22.598922,120.980044,0.16315305
C0X170,關廟,2026-02-20,22.963017,120.327797,0.13233234
C0V720,林園,2026-02-20,22.507747,120.394511,0.20243138
C1I510,線浸林道,2026-02-20,23.761508,120.832956,0.002916507
C0D690,外湖,2026-02-20,24.917735,120.968711,0.0007716866
C0C750,新興坑尾,2026-02-20,25.0061,121.0971,0.0014081696
B2Q810,畜試南區分所,2026-02-20,21.945583,120.802167,0.00267486
C0S790,金崙,2026-02-20,22.538122,120.966875,0.009889157
C0AH90,福山植物園,2026-02-20,24.760717,121.58135,0.0030244556
C0I540,奇萊稜線,2026-02-20,24.109231,121.326456,0.00053551886
C0M850,表湖,2026-02-20,23.24186,120.64166,0.0030485191
C0S770,大溪山,2026-02-20,22.478475,120.943325,0.0020727483
C0AG80,中和,2026-02-20,24.991622,121.491792,0.0016204348
C0T790,大禹嶺,2026-02-20,24.186117,121.316086,0.0005806889
C0T9B0,水源,2026-02-20,23.991861,121.537169,0.0010163932
C0R840,牡丹池山,2026-02-20,22.168389,120.841225,0.0017634194
C1I131,桶頭,2026-02-20,23.641944,120.654117,0.02321385
CAL110,布袋國中,2026-02-20,23.35893,120.18026,0.005221255
C2M9D0,何竹子腳,2026-02-20,23.53641,120.38203,0.08410063
C0Z290,赤柯山,2026-02-20,23.36893,121.38293,0.005425613
C0X280,將軍,2026-02-20,23.214999,120.13577,0.004729092
C0S690,太麻里,2026-02-20,22.60902,120.98533,0.004593866
C0U880,北關,2026-02-20,24.9072,121.8734,0.040033575
CAW010,東引,2026-02-20,26.3588,120.4836,0.00040659308
C0G810,埔心,2026-02-20,23.947633,120.525456,0.016958246
C0U970,大福,2026-02-20,24.80064,121.81389,0.0054313745
C2H9N0,仁愛東眼,2026-02-20,24.026875,121.1205,0.0006544779
C1E670,南礦,2026-02-20,24.538278,121.002836,0.0009827155
C0M520,東後寮,2026-02-20,23.369908,120.248065,0.007145667
C1E461,松安,2026-02-20,24.397972,120.986022,0.0008300791
C2N160,西拉雅風管處,2026-02-20,23.189481,120.335297,0.23930162
C2M970,碧湖,2026-02-20,23.568632,120.624165,0.0015900491
C0A640,石碇,2026-02-20,24.993969,121.662917,0.008642838
E2S960,林試太麻里2,2026-02-20,22.598,120.99775,0.2915947
C0F9Y0,桃山,2026-02-20,24.432739,121.303808,0.00041285084
C1I020,萬大,2026-02-20,23.979817,121.132261,0.0008268144
C2UC20,長嶺,2026-02-20,24.70894,121.61162,0.002702281
C0U940,羅東,2026-02-20,24.68184,121.74934,0.019067936
C0M650,朴子,2026-02-20,23.43463,120.23902,0.016509738
C1I500,大尖山,2026-02-20,23.858572,120.994889,0.0008318714
C0FB40,中橫21.6k,2026-02-20,24.2499,121.1455,0.001349843
C0G820,田尾,2026-02-20,23.901669,120.509389,0.016992366
E2K600,四湖植物園,2026-02-20,23.676986,120.163433,0.0013920076
C0S730,綠島,2026-02-20,22.6672,121.47533,0.0017381409
12Q970,東港工作站,2026-02-20,22.479997,120.466058,0.26372108
C1TA00,太魯閣,2026-02-20,24.15773,121.6236,0.25422004
466920,臺北,2026-02-20,25.037658,121.514853,0.0018206207
C0R600,舊泰武,2026-02-20,22.588194,120.664944,0.0040184744
C1I260,北坑,2026-02-20,23.9246,121.006903,0.009851945
466910,鞍部,2026-02-20,25.182586,121.529731,0.0007287158
C1I230,九份二山,2026-02-20,23.961944,120.845,0.0022350056
C2M810,里佳,2026-02-20,23.389125,120.716647,0.001326225
C2A660,瑞芳,2026-02-20,25.113169,121.801147,0.003598523
C0R270,琉球嶼,2026-02-20,22.332244,120.362236,0.105405085
C2V580,瑞山,2026-02-20,22.90304,120.43424,0.12447507
C1T990,高寮,2026-02-20,23.394239,121.356808,0.07579485
C0G620,芬園,2026-02-20,24.015678,120.6213,0.07208674
C1Z140,荖溪,2026-02-20,23.890575,121.45964,0.023882281
C1I201,中心崙,2026-02-20,23.728722,120.712097,0.0020049557
C1I400,凌霄,2026-02-20,24.018778,121.004456,0.0006351779
C1M640,十字,2026-02-20,23.492153,120.753683,0.0010407774
G2P820,農試鳳山分所,2026-02-20,22.646611,120.356083,0.07732178
C0Z270,蕃薯寮,2026-02-20,23.73835,121.540108,0.01034115
C2E420,竹南,2026-02-20,24.70898,120.88897,0.0010913069
C0FB10,出雲山苗圃,2026-02-20,24.23105,120.90475,0.0014680512
C0F9Q0,外埔,2026-02-20,24.347817,120.705686,0.0049737105
C0K580,高鐵雲林,2026-02-20,23.737456,120.417944,0.024317684
C2I090,鳳凰,2026-02-20,23.728081,120.787347,0.0019124764
C0U990,員山,2026-02-20,24.74435,121.72247,0.019236077
C0V770,大社,2026-02-20,22.730306,120.346639,0.04986118
C0X120,麻豆,2026-02-20,23.183289,120.248611,0.06396855
C0C670,龍潭,2026-02-20,24.870056,121.221389,0.0016445615
C0D680,香山濕地,2026-02-20,24.783581,120.914988,0.0007716866
C0S980,勝林山,2026-02-20,22.430439,120.8938,0.003041964
C0V730,大寮,2026-02-20,22.605614,120.395717,0.10647235
C0R570,麟洛,2026-02-20,22.65078,120.52719,0.32788482
C2M930,石卓,2026-02-20,23.478744,120.702264,0.0010654076
C0G9B0,和美,2026-02-20,24.105169,120.492131,0.0011758305
CAG100,王功漁港,2026-02-20,23.96824,120.32586,0.0006163149
C0X290,北門,2026-02-20,23.267772,120.125481,0.004720127
C2F930,大甲,2026-02-20,24.347667,120.640403,0.000879336
C0D650,湖口,2026-02-20,24.904794,121.043628,0.0013442988
C0U780,五結,2026-02-20,24.68637,121.79794,0.13748014
C1I250,鯉潭,2026-02-20,23.961922,120.991131,0.0035939699
C0R130,阿禮,2026-02-20,22.742908,120.743678,0.0019442942
C0X100,臺南市北區,2026-02-20,23.010394,120.194228,0.015276458
C0S920,金峰嘉蘭,2026-02-20,22.594789,120.960825,0.15344374
C0V490,新興,2026-02-20,22.627422,120.298803,0.04582298
C0F9K0,大安,2026-02-20,24.345061,120.588025,0.0008908648
467290,古坑,2026-02-20,23.633639,120.551889,0.0230097
C2E970,八甲,2026-02-20,24.535811,120.795983,0.0017271355
C0V440,鳳山,2026-02-20,22.646653,120.356122,0.07732178
C1T940,大觀,2026-02-20,23.714206,121.373133,0.012667854
C0E740,造橋,2026-02-20,24.637056,120.864778,0.001183693
C0R100,尾寮山,2026-02-20,22.833111,120.683889,0.0017107022
A2K630,臺大雲林校區,2026-02-20,23.730628,120.423903,0.024332216
467990,馬祖,2026-02-20,26.169467,119.923158,0.00044478316
C0D580,寶山,2026-02-20,24.735006,121.025192,0.0024331803
E2P990,林試扇平站,2026-02-20,22.9677,120.6857,0.004617808
C0AI30,三重,2026-02-20,25.057328,121.500629,0.0018260343
C0AH00,汐止,2026-02-20,25.066881,121.658778,0.008557432
C1Z040,立山,2026-02-20,23.443356,121.327375,0.05059933
466881,新北,2026-02-20,24.959207,121.525196,0.0016412734
C0W130,花嶼,2026-02-20,23.40007,119.32276,0.0005050277
C0A950,鼻頭角,2026-02-20,25.129036,121.923372,0.07985795
C0K470,林內,2026-02-20,23.748675,120.609642,0.032155294
C2F990,摩天嶺,2026-02-20,24.322458,120.936819,0.0013966139
C2E430,南庄,2026-02-20,24.601775,121.000214,0.0018297161
82C160,茶改場,2026-02-20,24.908472,121.185333,0.002174095
C2TB60,南安,2026-02-20,23.29818,121.26157,0.01851534
C0Z320,清水林道,2026-02-20,23.27125,121.188272,0.010938901
C0R760,南仁湖,2026-02-20,22.084681,120.863353,0.006930684
C0M670,大林,2026-02-20,23.600616,120.45841,0.062997684
C0M800,茶山,2026-02-20,23.299075,120.664767,0.05128482
C0A9C0,天母,2026-02-20,25.117494,121.537169,0.002355482
72K220,南改斗南分場,2026-02-20,23.634556,120.477333,0.1103859
72AI40,桃改樹林分場,2026-02-20,24.944503,121.386972,0.0021495924
C0S910,蘭嶼燈塔,2026-02-20,22.081197,121.503117,0.0014846729
C0B050,八斗子,2026-02-20,25.144754,121.79167,0.01045635
C0U900,內城,2026-02-20,24.71813,121.68766,0.026587443
C0X320,柳營,2026-02-20,23.253328,120.375253,0.1643381
C0M790,新港,2026-02-20,23.553269,120.345728,0.013229816
C0F9T0,西屯,2026-02-20,24.179494,120.641275,0.010460944
C0E950,松安,2026-02-20,24.39792,120.98599,0.00083007826
C0SA30,都歷,2026-02-20,23.020333,121.323642,0.002958398
C0C620,蘆竹,2026-02-20,25.084275,121.265767,0.0015404102
C0R730,大坪頂,2026-02-20,22.024633,120.69355,0.0019512475
C0AJ40,石門,2026-02-20,25.273672,121.601198,0.001652159
C0E750,苗栗,2026-02-20,24.564569,120.824575,0.001648593
C0T870,鯉魚潭,2026-02-20,23.935639,121.508944,0.011383058
C1V170,排雲,2026-02-20,23.463619,120.954147,0.0006350956
C2H950,中寮,2026-02-20,23.884447,120.766406,0.025364656
C0R350,貓鼻頭,2026-02-20,21.921774,120.7358,0.0005461065
C0V660,岡山,2026-02-20,22.797078,120.294958,0.048674602
C1H941,雙冬,2026-02-20,23.967378,120.802189,0.004726958
C0AJ70,田寮,2026-02-20,25.2698,121.4886,0.0059891213
C0AI00,五股,2026-02-20,25.07445,121.42728,0.002022491
C0Z280,德武,2026-02-20,23.47426,121.41071,0.03326646
C2RA10,大新,2026-02-20,22.67558,120.57788,0.15205261
C0R700,枋山,2026-02-20,22.246844,120.661086,0.009758741
C0C460,復興,2026-02-20,24.820208,121.352281,0.0012308882
C2K300,鹿南,2026-02-20,23.63855,120.3636,0.016536
E2H360,蓮華池,2026-02-20,23.918333,120.885278,0.00575323
C0M640,中埔,2026-02-20,23.42538,120.5229,0.04293549
C0W140,金沙,2026-02-20,24.488292,118.408778,0.00050342915
C2A540,四堵,2026-02-20,24.8926,121.745736,0.0046346523
C0ACA0,新莊,2026-02-20,25.051478,121.446756,0.0021284462
C0R220,潮州,2026-02-20,22.534361,120.54,0.24183927
U2HA40,臺大內茅埔,2026-02-20,23.689722,120.851117,0.009847136
467490,臺中,2026-02-20,24.145736,120.684075,0.01391084
C0UB60,明池,2026-02-20,24.650688,121.475277,0.00062204263
C0U960,翠峰湖,2026-02-20,24.510856,121.608044,0.0006140276
E2HA20,林試畢祿溪站,2026-02-20,24.226944,121.308522,0.0009032501
C2M9A0,大華,2026-02-20,23.4824,120.67491,0.0012492548
C0V890,前鎮,2026-02-20,22.5718,120.3117,0.10934401
C1F941,雪嶺,2026-02-20,24.280586,121.026642,0.00068823015
C2H9E0,國姓南港,2026-02-20,23.911108,120.846556,0.0012194285
C0AC80,文山,2026-02-20,25.00235,121.575728,0.0054190145
C0F9R0,龍井,2026-02-20,24.184536,120.528972,0.0010067717
C0M760,民雄,2026-02-20,23.551754,120.428457,0.062997684
C0UA40,西德山,2026-02-20,24.560647,121.752608,0.0008190619
C2TA70,赤科坪,2026-02-20,23.39885,121.39168,0.0073809824
C1T920,中興,2026-02-20,23.769503,121.498653,0.04536528
C0D550,雪霸,2026-02-20,24.526972,121.11605,0.001121552
C2F860,梨山,2026-02-20,24.247522,121.243669,0.0007173489
C0R320,車城,2026-02-20,22.0744,120.716247,0.0017763365
C1S870,南美山,2026-02-20,23.15025,121.382333,0.0032368477
C0B020,基隆嶼,2026-02-20,25.19141,121.78391,0.007961365
C1U501,牛鬥,2026-02-20,24.637836,121.573656,0.009381957
C0M730,嘉義市東區,2026-02-20,23.457673,120.460531,0.07297189
C2R990,泰武,2026-02-20,22.60686,120.69765,0.005726143
C0S700,知本,2026-02-20,22.684866,121.005642,0.0036177938
C1N001,沙崙,2026-02-20,22.935472,120.309406,0.13221669
C0V760,橋頭,2026-02-20,22.757806,120.30575,0.049968228
C0G960,福寶,2026-02-20,24.0443,120.3814,0.0012148174
C0X210,白河,2026-02-20,23.347466,120.414427,0.07272817
C0S810,東河,2026-02-20,22.972672,121.303986,0.0019089327
C2R170,屏東,2026-02-20,22.66027,120.49403,0.32878846
C0R670,楓港,2026-02-20,22.190131,120.692156,0.0015344272
C0FA50,霧峰,2026-02-20,24.0419,120.6995,0.059226416
C0UB10,蘇澳,2026-02-20,24.5969,121.8571,0.16903771
C0G950,防潮門,2026-02-20,24.1835,120.4871,0.0011085343
C0M740,六腳,2026-02-20,23.492871,120.290625,0.016788488
C1R250,力里,2026-02-20,22.428117,120.629228,0.21644929
C0K330,虎尾,2026-02-20,23.719183,120.442036,0.024332216
C2FA00,烏石坑,2026-02-20,24.273503,120.947617,0.0014056185
C0V620,永安,2026-02-20,22.82315,120.236856,0.048775647
C1I330,楓樹林,2026-02-20,23.986803,121.076117,0.00081598235
C0W200,湖西,2026-02-20,23.596314,119.67275,0.00043455118
72Q010,高雄農改場,2026-02-20,22.709333,120.525889,0.3115309
C0SA40,瑞和,2026-02-20,22.974361,121.156697,0.0035184715
C0C680,龜山,2026-02-20,25.02846,121.38656,0.0012118084
C2V260,月眉,2026-02-20,22.971003,120.539853,0.12258169
C0V450,鳳森,2026-02-20,22.545064,120.392592,0.19855778
C0FA90,小雪山林道,2026-02-20,24.29515,121.03651,0.0006416778
C0U720,南山,2026-02-20,24.43742,121.38167,0.0015828455
A2N290,臺南蘭花園區,2026-02-20,23.340258,120.379661,0.12489221
C0R560,新園,2026-02-20,22.5434,120.461558,0.20243153
C0U890,三星,2026-02-20,24.66812,121.65302,0.014367642
C1V300,御油山,2026-02-20,23.001983,120.715364,0.0012672221
C0U600,礁溪,2026-02-20,24.817539,121.765608,0.0053485245
C1T980,龍澗,2026-02-20,24.023289,121.411328,0.001531943
C0D670,海天一線,2026-02-20,24.831986,120.914438,0.00073786796
C0SA00,歷坵,2026-02-20,22.520969,120.89185,0.0014341357
C0M710,東石,2026-02-20,23.458927,120.15385,0.0018952732
C0M780,鹿草,2026-02-20,23.41134,120.30835,0.016516143
C0U520,雙連埤,2026-02-20,24.753033,121.641303,0.0018920503
C0B010,七堵,2026-02-20,25.094819,121.71713,0.00724721
C0R480,長治,2026-02-20,22.693128,120.542622,0.1917117
C1V830,國三S383K,2026-02-20,22.781967,120.426475,0.16427995
12Q980,恆春工作站,2026-02-20,22.079678,120.714425,0.0017625632
C1O940,東山服務區,2026-02-20,23.286016,120.398472,0.12443484
C1U840,東澳嶺,2026-02-20,24.5378,121.8485,0.0016397015
C1D630,飛鳳山,2026-02-20,24.766464,121.119178,0.0011680529
C0S940,石寧山,2026-02-20,23.223772,121.406639,0.010711296
C0K410,北港,2026-02-20,23.573957,120.292802,0.0047290986
C2M620,瑞里,2026-02-20,23.545133,120.675197,0.0012675481
C0SB70,小港漁港,2026-02-20,23.158558,121.400431,0.058701385
C2O950,安南,2026-02-20,23.076694,120.144861,0.003905452
C0F0E0,南湖圈谷,2026-02-20,24.363714,121.444667,0.0003626127
467610,成功,2026-02-20,23.097486,121.373428,0.034492172
C0G890,伸港,2026-02-20,24.148933,120.484403,0.0011085343
C2E540,龍溪,2026-02-20,24.606489,120.783933,0.0016208413
C1V200,梅山,2026-02-20,23.268447,120.823556,0.004022287
C0T9H0,加路蘭山,2026-02-20,23.682947,121.5274,0.005657968
C2O930,玉井,2026-02-20,23.126042,120.46055,0.045536652
C1F911,新伯公,2026-02-20,24.221361,120.841069,0.00218178
C0R490,九如,2026-02-20,22.7405,120.490503,0.3125731
C0X200,左鎮,2026-02-20,23.056758,120.408522,0.08873345
C2TB50,麻汝,2026-02-20,23.42554,121.39358,0.031734306
C0FA60,鞍馬山工作站,2026-02-20,24.267064,121.000793,0.00060439657
C0SB50,叭嗡嗡,2026-02-20,23.047062,121.343223,0.051664885
C1F891,稍來,2026-02-20,24.265689,121.001142,0.0006225874
C2M9C0,紫雲,2026-02-20,23.494914,120.540253,0.029718928
72N240,七股研究中心,2026-02-20,23.081672,120.062894,0.00486614
C0C700,中壢,2026-02-20,24.977661,121.256375,0.0020361778
C0M690,水上,2026-02-20,23.419734,120.388909,0.123771876
C0V690,鼓山,2026-02-20,22.623325,120.275575,0.04609839
C0O860,大內,2026-02-20,23.11885,120.36083,0.2599716
C0Z200,萬榮,2026-02-20,23.709219,121.420106,0.024198303
C0T9D0,和中,2026-02-20,24.26676,121.74103,0.012739125
C2S9A0,北份子寮,2026-02-20,22.78561,121.07813,0.016293008
C1O921,楠西,2026-02-20,23.183511,120.484083,0.045567214
C0AJ30,淡水觀海,2026-02-20,25.184591,121.408616,0.0018257587
C0V810,左營,2026-02-20,22.67491,120.28491,0.03157244
C0UA70,桃源谷,2026-02-20,24.962606,121.888875,0.001479137
C0X130,官田,2026-02-20,23.193217,120.315422,0.23996793
C1H000,翠峰,2026-02-20,24.109397,121.205211,0.0006538676
C0UA90,石城,2026-02-20,24.980444,121.951214,0.06490196
C1E681,南勢山,2026-02-20,24.421669,120.923831,0.00078638765
C0A9F0,內湖,2026-02-20,25.079422,121.57545,0.0024929778
C0K291,宜梧,2026-02-20,23.536281,120.169329,0.0013709181
C1K540,口湖,2026-02-20,23.585344,120.180517,0.001392884
C0R780,滿州,2026-02-20,22.024403,120.839892,0.010251267
C0V870,文安,2026-02-20,22.8025,120.2164,0.05482761
C0U650,玉蘭,2026-02-20,24.675286,121.587061,0.0026579255
C0R640,東港,2026-02-20,22.46247,120.44074,0.18182439
C0AJ80,板橋,2026-02-20,25.0107,121.4489,0.0016317401
C0S660,下馬,2026-02-20,23.150427,121.070312,0.0017246578
C2N190,烏樹,2026-02-20,23.32393,120.36989,0.097874954
C1H9B1,阿眉,2026-02-20,24.1263,120.994672,0.0007821844
C0UA20,多加屯,2026-02-20,24.368614,121.373189,0.0004988142
C0E730,頭份,2026-02-20,24.688247,120.912206,0.001086838
72V140,高改旗南分場,2026-02-20,22.857861,120.516667,0.17758085
C0K480,莿桐,2026-02-20,23.761192,120.502372,0.12537877
C0U980,坪林石牌,2026-02-20,24.86478,121.77396,0.002389536
C0T900,西林,2026-02-20,23.8119,121.441458,0.013924557
C1I150,青雲,2026-02-20,23.793361,120.949378,0.020512518
C2E980,和興,2026-02-20,24.505319,120.923016,0.0012623102
467350,澎湖,2026-02-20,23.565503,119.563094,0.00040386795
C0G800,埔鹽,2026-02-20,24.000394,120.431683,0.0011809197
C0H960,草屯,2026-02-20,23.973672,120.68085,0.053912554
C1V780,多納林道,2026-02-20,22.888028,120.737917,0.0012196267
C0E920,通霄漁港,2026-02-20,24.498589,120.673876,0.000756168
C0Z330,安通山,2026-02-20,23.290728,121.348528,0.0036398515
C0AH10,永和,2026-02-20,25.01125,121.508111,0.0016317401
C0AK10,太平里,2026-02-20,25.134937,121.364899,0.0017271283
C2G640,鹿港,2026-02-20,24.0753,120.430481,0.0011735781
C1E890,國三N149K,2026-02-20,24.463414,120.680019,0.0007616789
C1R110,口社,2026-02-20,22.770111,120.645222,0.12347563
C1M870,國三N285K,2026-02-20,23.550319,120.505833,0.02962156
C1E480,鳳美,2026-02-20,24.554803,121.034747,0.0016134239
C0T9M0,靜浦,2026-02-20,23.455167,121.495028,0.09737883
C2H9M0,發祥,2026-02-20,24.154094,121.164517,0.0005687694
C2G9C0,埔南,2026-02-20,23.99124,120.46969,0.0011809197
C0AI40,石牌,2026-02-20,25.115597,121.513139,0.0024929815
C1F871,上谷關,2026-02-20,24.203483,121.018644,0.0014098248
C2H9G0,百勝,2026-02-20,24.051142,120.909361,0.002671621
C0G880,二水,2026-02-20,23.810742,120.6173,0.03873554
C0R940,加祿堂,2026-02-20,22.3363,120.6217,0.009449438
C0W220,北竿,2026-02-20,26.220358,119.974881,0.00046856323
C0O960,崎頂,2026-02-20,22.959547,120.369317,0.13362834
C0TA40,秀林,2026-02-20,24.302864,121.731144,0.002205116
C0S750,向陽,2026-02-20,23.248397,120.986133,0.0008811825
C0T9F0,水璉,2026-02-20,23.797131,121.542514,0.0064156316
C1M600,頭凍,2026-02-20,23.406364,120.603339,0.0013921612
467660,臺東,2026-02-20,22.752211,121.154586,0.03089181
C1D380,新埔,2026-02-20,24.84745,121.03834,0.0015327922
C2G980,田頭村,2026-02-20,23.8263,120.444175,0.025275232
C0V750,路竹,2026-02-20,22.854997,120.259439,0.0486138
C0N050,蚵寮,2026-02-20,23.301,120.1104,0.004720127
C2X060,下營,2026-02-20,23.226806,120.256291,0.03452698
72M700,南改鹿草分場,2026-02-20,23.416869,120.283061,0.016509738
C1SA50,利嘉林道,2026-02-20,22.82325,121.009389,0.0020181064
C0UB70,太平山中間站,2026-02-20,24.542003,121.513453,0.0011576182
C0A940,金山,2026-02-20,25.223628,121.643967,0.013592018
C1V340,大津,2026-02-20,22.888322,120.645986,0.21040262
C0W180,七美,2026-02-20,23.219333,119.444892,0.00044673422
C1F9C1,白冷,2026-02-20,24.182844,120.929889,0.0020062393
K2E710,苗改生物防治研究中心,2026-02-20,24.422861,120.871833,0.0025674102
C0N040,蘆竹溝,2026-02-20,23.2344,120.0961,0.004720127
C0TB40,崇德,2026-02-20,24.166144,121.657414,0.14474991
C0D760,大坪苗圃,2026-02-20,24.5362,121.1108,0.0007633349
C2W230,畜試所澎湖,2026-02-20,23.628342,119.513206,0.00039445737
C0R880,後壁湖,2026-02-20,21.9457,120.7457,0.00051854935
C1I280,埔中,2026-02-20,23.820778,120.642594,0.0045671347
467790,墾丁雷達站,2026-02-20,21.948235,120.808028,0.0026382655
C0W190,望安,2026-02-20,23.380564,119.494075,0.00041993923
C0Z170,卓溪,2026-02-20,23.3443,121.3029,0.029376639
C0F850,東勢,2026-02-20,24.246428,120.833047,0.0026571115
466900,淡水,2026-02-20,25.164889,121.448906,0.0057037896
C0I370,魚池,2026-02-20,23.895703,120.94135,0.0041751326
C0C630,大溪,2026-02-20,24.882853,121.265547,0.0016885069
C0A520,山佳,2026-02-20,24.974944,121.402008,0.0023020336
C0I110,竹山,2026-02-20,23.761225,120.688156,0.030827159
82H840,茶改南部分場,2026-02-20,23.762528,120.7405,0.006963565
C2SD80,再來山,2026-02-20,23.34371,121.44122,0.012156203
C0G660,溪湖,2026-02-20,23.94835,120.479122,0.0169249
C1T800,洛韶,2026-02-20,24.204558,121.453956,0.0025454063
C1T810,慈恩,2026-02-20,24.192044,121.388386,0.0008987466
C1E451,象鼻,2026-02-20,24.368617,120.940228,0.0007766823
C0AC60,三峽,2026-02-20,24.939025,121.369728,0.001864636
C0I490,萬大林道,2026-02-20,23.928228,121.091411,0.0005910207
C1I290,豐丘,2026-02-20,23.668178,120.887417,0.003460385
C1I320,奧萬大,2026-02-20,23.952956,121.178556,0.0008357196
C2M910,嘉義大學,2026-02-20,23.471325,120.485903,0.072205186
C0U770,南澳,2026-02-20,24.44935,121.81022,0.3646046
C2TB30,吉安,2026-02-20,23.94538,121.54803,0.0235925
C0A980,社子,2026-02-20,25.109508,121.469681,0.007685029
C0V800,六龜,2026-02-20,22.997889,120.633583,0.10400032
C1G9D0,國一S218K,2026-02-20,23.890641,120.493253,0.018787846
C0E570,白沙屯,2026-02-20,24.549447,120.696803,0.0007555857
C2F9A0,中竹林,2026-02-20,24.103556,120.751061,0.002652975
C0FA40,臺中電廠,2026-02-20,24.2146,120.4907,0.0010861058
C2G9A0,畜試所彰化,2026-02-20,23.86045,120.557964,0.14658408
C0H9C0,合歡山,2026-02-20,24.143442,121.272547,0.0004967623
G2M350,農試溪口農場,2026-02-20,23.58565,120.408111,0.06331298
C0U860,頭城,2026-02-20,24.85323,121.8308,0.022030508
C0R580,南州,2026-02-20,22.48591,120.50274,0.26372108
C0D430,峨眉,2026-02-20,24.6905,121.017189,0.0014303869
C0G780,秀水,2026-02-20,24.03405,120.503869,0.018125298
72N100,臺南農改場,2026-02-20,23.0605,120.342194,0.26070422
C0S900,蘭嶼高中,2026-02-20,22.04909,121.51214,0.008350648
C2TA60,六十石,2026-02-20,23.22477,121.31861,0.0022596526
C1F9W0,德基,2026-02-20,24.254783,121.190261,0.0007377027
C2M980,安和,2026-02-20,23.51377,120.31593,0.016807232
C1Z120,壽豐,2026-02-20,23.870853,121.508081,0.05179903
C0W160,烏坵,2026-02-20,24.9944,119.44956,0.0004228469
C1I240,外大坪,2026-02-20,23.958697,120.917931,0.0030840675
C1I550,國六W023K,2026-02-20,23.979067,120.867742,0.0069815875
C0R870,興海,2026-02-20,21.9752,120.8439,0.00267486
C0R140,瑪家,2026-02-20,22.682903,120.686639,0.017380958
C0A530,坪林,2026-02-20,24.938183,121.70975,0.004405863
C0X260,後壁,2026-02-20,23.366358,120.362326,0.0765342
C0Z230,和平,2026-02-20,24.30717,121.77007,0.04569283
C0G770,福興,2026-02-20,24.041289,120.437669,0.0011809197
C0H9A0,神木村,2026-02-20,23.532742,120.843667,0.0013374131
C0I460,南投,2026-02-20,23.911469,120.687331,0.0540809
C0I480,梅峰,2026-02-20,24.085272,121.173572,0.000700835
C1V570,吉東,2026-02-20,22.85422,120.5454,0.34938815
C2A560,福山,2026-02-20,24.776203,121.502811,0.0030540226
C0AH30,五分山,2026-02-20,25.07125,121.780794,0.0010015172
C0FA10,松柏,2026-02-20,24.429115,120.617482,0.00073770725
72S200,東改班鳩分場,2026-02-20,22.829528,121.077694,0.0029703376
72HA00,中改埔里分場,2026-02-20,23.903208,120.963364,0.004511037
C2H9W0,大坪頂農水,2026-02-20,24.043122,120.932781,0.0032302283
C0C650,平鎮,2026-02-20,24.897503,121.214636,0.0015236775
C0S930,延平,2026-02-20,22.902581,121.084058,0.0040056906
C0UA60,樟樹山,2026-02-20,24.41393,121.78325,0.0018062141
C2UC10,出水溪,2026-02-20,24.615822,121.652253,0.0018536586
C1S670,摩天,2026-02-20,23.199503,121.027,0.0013770668
C2C590,觀音,2026-02-20,25.027072,121.153317,0.0014272729
C0V630,茄萣,2026-02-20,22.906642,120.182608,0.013138263
466940,基隆,2026-02-20,25.133314,121.740475,0.009593532
C0X050,東河,2026-02-20,23.296598,120.385608,0.12489221
C0R770,保力,2026-02-20,22.071122,120.764111,0.0024049035
G2L020,農試嘉義分所,2026-02-20,23.485028,120.473806,0.07196777
C0X240,關子嶺,2026-02-20,23.331169,120.508025,0.014354878
C0I380,集集,2026-02-20,23.828206,120.801467,0.015111002
466990,花蓮,2026-02-20,23.975128,121.613275,0.030619433
C1V220,小關山,2026-02-20,23.154217,120.813603,0.0010555307
C1F9G1,慶福山,2026-02-20,24.180853,120.848378,0.0016076373
C0FB20,雪山橋,2026-02-20,24.23192,120.9786,0.00071122125
C0Z250,瑞穗林道,2026-02-20,23.49284,121.30688,0.009168596
C0D590,新豐,2026-02-20,24.87068,120.97721,0.00072385935
C0A870,五指山,2026-02-20,25.132153,121.608692,0.0005595837
C0UA50,西帽山,2026-02-20,24.555361,121.802628,0.0016704473
C2R980,竹田國中,2026-02-20,22.61532,120.52412,0.2542372
C0X160,仁德,2026-02-20,22.968258,120.257689,0.05200513
C1H971,六分寮,2026-02-20,23.92507,120.6378,0.008050579
C0W120,西嶼,2026-02-20,23.5626,119.468436,0.00040950422
C0G650,員林,2026-02-20,23.946503,120.585597,0.083511166
C0AD50,鶯歌,2026-02-20,24.951533,121.346294,0.007952743
C2H9Q0,北東眼山,2026-02-20,24.120939,121.189303,0.00055610767
C2H9T0,名間竹圍,2026-02-20,23.859914,120.637572,0.008639868
C0S990,山豬窟,2026-02-20,22.318619,120.857372,0.016886447
C0X190,安平,2026-02-20,22.993161,120.152181,0.017956043
C0K400,斗六,2026-02-20,23.720583,120.541127,0.124809206
12J990,口湖工作站,2026-02-20,23.589978,120.180394,0.0013920207
C0O830,北寮,2026-02-20,23.079561,120.495008,0.045768052
C1D410,白蘭,2026-02-20,24.579364,121.079947,0.0009838331
C0S970,加津林,2026-02-20,22.416211,120.926942,0.028177598
C0D700,關西,2026-02-20,24.7977,121.1732,0.0031589714
C0U750,龜山島,2026-02-20,24.841667,121.953133,0.0031691457
C0R810,內獅,2026-02-20,22.305064,120.642986,0.009449438
C1M390,龍美,2026-02-20,23.406728,120.654417,0.002238148
C2K290,崙內,2026-02-20,23.69525,120.35601,0.016536
C2FB60,頭櫃山,2026-02-20,24.129842,120.858925,0.0011363173
C1H840,國三N238K,2026-02-20,23.841008,120.707711,0.012641128
CAQ030,崎峰國小,2026-02-20,22.42565,120.49521,0.26372108
C2E520,大湖,2026-02-20,24.414939,120.870872,0.002563919
467530,阿里山,2026-02-20,23.508208,120.813242,0.0005240129
C1E691,南湖,2026-02-20,24.40135,120.837533,0.0010659443
C0FA30,梧棲,2026-02-20,24.256003,120.523381,0.0010094729
C1V231,高中,2026-02-20,23.134911,120.716711,0.0031201418
C0AK30,硬漢嶺,2026-02-20,25.136097,121.426372,0.0012684182
C0F9V0,新社,2026-02-20,24.200172,120.815806,0.0013560912
C0H890,埔里,2026-02-20,23.972169,120.952425,0.010568904
C0R690,墾丁,2026-02-20,21.966756,120.810269,0.0010112431
C0SD20,富山,2026-02-20,22.822383,121.190825,0.030542303
C0F0D0,審馬陣,2026-02-20,24.381675,121.4203,0.0003440928
C2W030,金門農試所,2026-02-20,24.448431,118.451786,0.00055253314
C0R820,白鷺,2026-02-20,22.454275,120.666219,0.0052813543
C0FB00,大雪山,2026-02-20,24.254668,121.007374,0.00060091115
C1V190,南天池,2026-02-20,23.27403,120.91176,0.00075821544
C0E940,雪見,2026-02-20,24.42595,121.01347,0.0005119382
K2E360,苗栗農改場,2026-02-20,24.495722,120.829111,0.0021346565
CAJ050,海口故事園區,2026-02-20,23.57543,120.14121,0.001392884
C2K280,四湖,2026-02-20,23.6304,120.22717,0.0013920076
C2H9D0,三隻寮,2026-02-20,24.093078,120.861578,0.0014568307
C0O990,媽廟,2026-02-20,22.99175,120.293525,0.18311004
C0D480,打鐵坑,2026-02-20,24.849664,121.150789,0.0017485223
C0Z220,和平林道,2026-02-20,24.343922,121.656317,0.0013190203
C0TA10,花蓮漁港,2026-02-20,23.995322,121.638331,0.019896194
72C440,桃園農改場,2026-02-20,24.950944,121.030583,0.001321534
C1E711,馬拉邦山,2026-02-20,24.367306,120.901656,0.0007452577
C0SB20,富岡,2026-02-20,22.792467,121.192669,0.019168252
C0D560,竹東,2026-02-20,24.767147,121.057881,0.0029517568
C0F9U0,南屯,2026-02-20,24.137006,120.637969,0.010843436
C2SD60,明峰,2026-02-20,22.8671,121.11825,0.005026322
C0M720,番路,2026-02-20,23.464657,120.554156,0.015299579
C0F0A0,雪山圈谷,2026-02-20,24.388594,121.236339,0.00058408314
C1A9N0,四十份,2026-02-20,24.934158,121.593283,0.0023961107
C0U760,東澳,2026-02-20,24.52196,121.83318,0.29966986
C0X230,鹽水,2026-02-20,23.272621,120.247641,0.005051256
C2H9H0,苗改南投蜂場,2026-02-20,23.852589,120.693481,0.040047854
C2TB70,達谷寮,2026-02-20,23.38,121.35968,0.020196084
C0R950,萬隆國小,2026-02-20,22.507667,120.587817,0.22091535
467540,大武,2026-02-20,22.35572,120.90374,0.029531261
C0V370,古亭坑,2026-02-20,22.893178,120.401947,0.124533884
C1I340,新興橋,2026-02-20,23.563333,120.868728,0.0036891128
C0SA80,土坂,2026-02-20,22.453108,120.887572,0.011529693
C0R160,鹽埔,2026-02-20,22.739558,120.530778,0.31153062
C0AC40,大屯山,2026-02-20,25.175675,121.522408,0.0005228544
466850,五分山雷達站,2026-02-20,25.071182,121.781205,0.0009847301
C2H9L0,馬烈霸,2026-02-20,24.1512,121.201772,0.00054656866
C1AI50,國三N016K,2026-02-20,25.034164,121.619664,0.0069358493
C2V920,匏子寮,2026-02-20,23.04905,120.55319,0.04576285
C1V600,藤枝,2026-02-20,23.071961,120.757042,0.0014871096
C1E601,南勢,2026-02-20,24.572486,120.734842,0.0007859179
C0O980,新市,2026-02-20,23.061614,120.298197,0.2625179
C0K420,西螺,2026-02-20,23.800407,120.467394,0.02532439
C0Z050,佳心,2026-02-20,23.34567,121.21316,0.0051574083
C0AD30,蘆洲,2026-02-20,25.086594,121.472331,0.0023716448
C0V610,梓官,2026-02-20,22.760558,120.267211,0.05083977
K2F750,種苗改良場,2026-02-20,24.225972,120.800917,0.0013500918
C0UA80,大溪漁港,2026-02-20,24.941801,121.902955,0.10631898
C1AI60,國一39K邊坡,2026-02-20,25.064361,121.383836,0.001993774
C0W150,金寧,2026-02-20,24.457703,118.328989,0.00047086636
C0R960,內埔,2026-02-20,22.608483,120.570714,0.2542372
C2H9S0,龍南,2026-02-20,23.953536,120.833183,0.001391916
C0AH40,平等,2026-02-20,25.129142,121.577086,0.0022738804
C0R540,佳冬,2026-02-20,22.419456,120.552375,0.18679057
466950,彭佳嶼,2026-02-20,25.627975,122.079744,0.00038071116
C0A890,雙溪,2026-02-20,25.036003,121.864242,0.04409452
C0C480,桃園,2026-02-20,24.992425,121.323172,0.002023706
C0AH50,林口,2026-02-20,25.072181,121.38084,0.0019778674
A2K360,水試臺西試驗場,2026-02-20,23.717231,120.190522,0.0012388853
C2M960,外寮,2026-02-20,23.562643,120.665688,0.0015679589
C0F9S0,烏日,2026-02-20,24.107058,120.624103,0.009589111
C2N180,鹿陶洋,2026-02-20,23.14325,120.48352,0.045567214
C0C490,八德,2026-02-20,24.928708,121.283289,0.0016912291
C0R190,赤山,2026-02-20,22.592333,120.614306,0.22109902
C0T820,天祥,2026-02-20,24.179597,121.495639,0.014160386
C1F9E1,龍安,2026-02-20,24.1605,120.831961,0.0012893578
C2SD50,順那,2026-02-20,23.04166,121.29332,0.0015629476
C0V820,小林,2026-02-20,23.148408,120.63325,0.011614439
C2G870,芳苑,2026-02-20,23.922303,120.320025,0.00059405435
C0E850,大河,2026-02-20,24.618069,120.948578,0.002285486
C1U670,寒溪,2026-02-20,24.634,121.71691,0.015634907
C0N020,城西,2026-02-20,23.0568,120.0956,0.004449624
C1Z110,三棧,2026-02-20,24.11557,121.60501,0.006204443
C0R280,檳榔,2026-02-20,22.076078,120.836777,0.014677668
C2H9J0,中台,2026-02-20,23.9996,120.938739,0.0033682243
C0F9L0,后里,2026-02-20,24.310436,120.729725,0.007916495
467441,高雄,2026-02-20,22.730432,120.312516,0.049968228
C0Z180,新城,2026-02-20,24.040486,121.604878,0.027704692
C0D540,橫山,2026-02-20,24.71116,121.11693,0.002276322
C1D420,太閣南,2026-02-20,24.632808,121.160575,0.0008900516
C1E770,公館,2026-02-20,24.526914,120.830806,0.0017957996
CAN130,水試所海水繁養殖中心,2026-02-20,23.120802,120.07968,0.0048711724
C1I430,翠華,2026-02-20,24.191961,121.224339,0.00064929435
C1M400,菜瓜坪,2026-02-20,23.251928,120.576103,0.022687038
C0G730,二林,2026-02-20,23.903325,120.376081,0.0017218769
72M360,南改義竹分場,2026-02-20,23.360694,120.279361,0.0071536256
V2K620,麥寮合作社,2026-02-20,23.753836,120.294783,0.0036140294
C0Z070,舞鶴,2026-02-20,23.46811,121.37407,0.019539475
C0B040,大武崙,2026-02-20,25.166676,121.706993,0.006668489
C1Z030,紅葉,2026-02-20,23.493119,121.338806,0.029530754
C1I050,丹大,2026-02-20,23.753747,121.141147,0.0006132687
C0I080,信義,2026-02-20,23.689694,120.851036,0.009847136
C2TB80,庄子底,2026-02-20,23.71794,121.49438,0.080069885
C0D750,樂山林道6k,2026-02-20,24.49999,121.08773,0.0006202077
C2M920,朴子農改,2026-02-20,23.469889,120.259383,0.016509747
C2A880,福隆,2026-02-20,25.017842,121.942083,0.07925683
C0Z160,鳳林,2026-02-20,23.746114,121.453411,0.06849172
C0UB80,翠峰林道6K,2026-02-20,24.49773,121.568625,0.00055112777
C0V210,復興,2026-02-20,23.222403,120.806089,0.0026842437
C0H990,昆陽,2026-02-20,24.121322,121.273642,0.0005139805
C0R741,獅子,2026-02-20,22.202308,120.705236,0.0068083275
C0S710,鹿野,2026-02-20,22.917711,121.122994,0.003938547
C0I530,小奇萊,2026-02-20,24.131764,121.295717,0.0005041716
C0FA70,大雪山埡口,2026-02-20,24.26867,121.03062,0.0006906527
C2K630,荷苞,2026-02-20,23.657717,120.595144,0.02264785
C0Z080,富源,2026-02-20,23.587642,121.378225,0.124209724
C2M9E0,旺來山,2026-02-20,23.555153,120.486463,0.029585293
C0SB10,美和,2026-02-20,22.682078,121.060236,0.039122406
C2K620,馬光農場,2026-02-20,23.721453,120.378864,0.024317684
C1I140,卡奈托灣,2026-02-20,23.754364,121.087872,0.0009599778
C0I520,玉山風口,2026-02-20,23.470489,120.955994,0.000631529
C1G691,下水埔,2026-02-20,23.816114,120.5676,0.13905299
C0X110,臺南市南區,2026-02-20,22.961189,120.188378,0.049655933
C0V680,仁武,2026-02-20,22.701083,120.347722,0.04986118
C2G840,北斗,2026-02-20,23.877586,120.514222,0.01883993
C2TB90,長橋,2026-02-20,23.6874,121.46186,0.06355077
C0R900,竹坑,2026-02-20,22.1385,120.7022,0.0015344272
C0G860,社頭,2026-02-20,23.897647,120.5862,0.10730175
C0X150,安定,2026-02-20,23.102614,120.227839,0.051108923
C0R590,里港,2026-02-20,22.77919,120.49459,0.24021745
C0E610,馬都安,2026-02-20,24.451272,120.930192,0.0010107817
C0E550,明德,2026-02-20,24.583486,120.885411,0.013374364
C0R150,三地門,2026-02-20,22.709889,120.639944,0.13528185
C0G910,花壇,2026-02-20,24.032076,120.549461,0.01811123
C1D400,鳥嘴山,2026-02-20,24.71909,121.28387,0.00075496914
C0K500,元長,2026-02-20,23.64981,120.315024,0.0046095024
C0F0B0,石岡,2026-02-20,24.276061,120.777644,0.0077015627
C2V250,甲仙,2026-02-20,23.080106,120.591758,0.041421358
C0SA20,金崙山,2026-02-20,22.567419,120.959667,0.0011482838
C0V350,溪埔,2026-02-20,22.738578,120.446797,0.1665478
C0M660,溪口,2026-02-20,23.604131,120.403569,0.06331298
C1S880,壽卡,2026-02-20,22.238911,120.858903,0.001322438
72D680,桃改新埔分場,2026-02-20,24.834444,121.066111,0.0015261846
