站號,站名,日期,lat,lon,BLBTSLS
C0R710,龍磐,2026-02-04,21.931672,120.838942,0.99982816
C1F9D1,白毛台,2026-02-04,24.158325,120.886933,9.143401e-10
C0G940,竹塘,2026-02-04,23.848253,120.386764,6.663413e-10
467590,恆春,2026-02-04,22.003897,120.746339,0.99938023
C1O850,環湖,2026-02-04,23.148617,120.418633,1.4560342e-09
C0U710,太平山,2026-02-04,24.505486,121.525656,3.1100996e-08
C0E820,獅潭,2026-02-04,24.539133,120.920042,2.4284843e-09
C2SD70,二層坪,2026-02-04,22.94105,121.16838,2.6976403e-09
C0V880,興達,2026-02-04,22.8778,120.2127,0.0007465396
C0S890,關山,2026-02-04,23.0395,121.175017,2.7248723e-09
C0SB30,新蘭,2026-02-04,22.869214,121.223228,3.2501484e-09
C2R970,屏科大,2026-02-04,22.648275,120.619247,3.9957555e-08
C1Z130,銅門,2026-02-04,23.965694,121.492842,1.6001302e-08
C0AD40,土城,2026-02-04,24.973208,121.445169,2.0067066e-08
CAN140,六官養殖協會,2026-02-04,23.22881,120.29962,1.2527977e-07
C0X180,山上,2026-02-04,23.0757,120.363253,3.3792514e-07
C0F9Z0,雪山東峰,2026-02-04,24.388792,121.268675,1.9728766e-08
C1M480,獨立山,2026-02-04,23.537022,120.607797,7.0038597e-10
C0X220,學甲,2026-02-04,23.230367,120.182187,5.024003e-08
467650,日月潭,2026-02-04,23.881325,120.90805,1.3150911e-09
A2K570,古坑(花卉中心),2026-02-04,23.633531,120.552392,1.4222454e-09
C0K600,箔子寮,2026-02-04,23.6197,120.14,4.117737e-06
C0G830,埤頭,2026-02-04,23.866003,120.452806,1.6122178e-09
C0S950,七塊厝,2026-02-04,22.954453,121.229922,2.9172564e-09
467110,金門,2026-02-04,24.407306,118.289281,1.7519305e-08
C0AH80,深坑,2026-02-04,25.002703,121.628328,3.0438198e-08
C0A970,三貂角,2026-02-04,25.007606,122.002058,3.0413183e-08
C2D730,寶山農場,2026-02-04,24.732444,120.976153,2.0688973e-09
C0K430,褒忠,2026-02-04,23.690938,120.303634,1.7067955e-09
467480,嘉義,2026-02-04,23.495925,120.432906,2.5686834e-08
C0V400,阿公店,2026-02-04,22.804194,120.355528,8.704603e-09
C0E960,觀霧分站,2026-02-04,24.505781,121.113921,1.238335e-08
467550,玉山,2026-02-04,23.48718,120.95943,3.174376e-08
C0R440,大漢山,2026-02-04,22.405264,120.753181,3.365367e-08
C0SD30,東清國小,2026-02-04,22.057128,121.564922,0.99097604
C1F9B1,桐林,2026-02-04,24.066172,120.735194,4.0743995e-09
C2H9U0,鳳鵬,2026-02-04,23.763919,120.788061,6.44778e-10
C0K390,土庫,2026-02-04,23.679029,120.395574,1.964592e-09
C1I450,望鄉山,2026-02-04,23.594153,120.944286,1.6583876e-08
C0E910,海埔,2026-02-04,24.648767,120.772435,2.3033557e-09
B2E890,畜試北區分所,2026-02-04,24.527806,120.770972,2.566077e-09
C0R750,四林格山,2026-02-04,22.076989,120.802439,0.025069367
C0F0C0,中坑,2026-02-04,24.248517,120.903319,1.8331301e-09
C1I121,大鞍,2026-02-04,23.678381,120.760017,4.1219397e-09
C2G9E0,移民庄,2026-02-04,23.9784,120.40283,1.3360709e-09
72U480,花改蘭陽分場,2026-02-04,24.686306,121.716583,8.862668e-09
C0A770,科教館,2026-02-04,25.096356,121.516507,1.2598144e-08
C0AJ60,六塊厝,2026-02-04,25.24,121.4481,2.647871e-07
C0R620,墾雷,2026-02-04,21.900836,120.855269,0.9998336
467420,永康,2026-02-04,23.038386,120.2367,5.4112803e-05
C2M530,奮起湖,2026-02-04,23.493903,120.699253,3.122503e-09
C0I410,名間,2026-02-04,23.837053,120.701447,2.2687399e-09
A2C560,農工中心,2026-02-04,24.985917,121.239833,2.2403729e-08
C0V740,旗山,2026-02-04,22.888614,120.483597,1.827737e-08
C0Z061,玉里,2026-02-04,23.3215,121.339656,9.681836e-09
C0S840,南田,2026-02-04,22.279725,120.889208,0.9940547
C1I470,杉林溪,2026-02-04,23.639517,120.786444,5.287943e-09
C1X040,東原,2026-02-04,23.291597,120.463822,6.469967e-10
C0R660,枋寮,2026-02-04,22.367722,120.590647,5.3811345e-08
C1R120,上德文,2026-02-04,22.763272,120.704442,1.4868944e-09
C0K450,大埤,2026-02-04,23.646074,120.431537,7.473898e-09
C0UA00,土場,2026-02-04,24.576533,121.495333,3.1142964e-08
467080,宜蘭,2026-02-04,24.763975,121.756528,8.297629e-09
C0N030,四草,2026-02-04,23.0235,120.1116,3.3974828e-07
467410,臺南,2026-02-04,22.99328,120.20492,1.2430723e-05
C0V650,彌陀,2026-02-04,22.783806,120.246361,8.2964436e-07
C0D660,新竹市東區,2026-02-04,24.798681,120.986942,3.0091483e-09
82S580,茶改東部分場,2026-02-04,22.907694,121.130139,2.8985983e-09
C0SB40,興隆,2026-02-04,22.913661,121.257469,8.827256e-09
467050,新屋,2026-02-04,25.006725,121.047492,1.4331788e-07
C0C710,大溪永福,2026-02-04,24.892936,121.324975,6.975879e-09
C0FA20,溫寮,2026-02-04,24.372177,120.583125,9.812343e-09
C0V640,湖內,2026-02-04,22.887139,120.2445,0.0005791222
C0R910,下寮,2026-02-04,22.3929,120.5548,2.0236595e-05
C0Z020,明里,2026-02-04,23.208717,121.262342,1.1339719e-08
C0M770,嘉義梅山,2026-02-04,23.585398,120.555587,1.689113e-09
C0C660,楊梅,2026-02-04,24.912375,121.143047,9.125025e-09
C0SD40,牛頭山,2026-02-04,22.676661,121.506944,0.059993155
C1E511,新開,2026-02-04,24.347703,120.827019,1.6855245e-09
G2F820,農試所(霧峰),2026-02-04,24.031261,120.688133,6.624361e-09
C2M990,大巃頂,2026-02-04,23.5547,120.61439,1.5400037e-09
C1I070,和社,2026-02-04,23.591131,120.888861,9.785369e-10
C2E990,新坪頂,2026-02-04,24.30201,120.8574,1.2416479e-09
C0TA80,立霧山,2026-02-04,24.183258,121.641899,6.018027e-08
C2F000,大肚,2026-02-04,24.15295,120.572117,5.6426996e-10
C1S850,豐南,2026-02-04,23.122139,121.262389,4.6351905e-09
C2M9B0,西興,2026-02-04,23.2428,120.57617,6.057475e-10
C2A920,富貴角,2026-02-04,25.263783,121.565258,4.6098316e-07
CAH030,茶改場竹圍站,2026-02-04,23.860083,120.637528,1.0610275e-09
C0T960,光復,2026-02-04,23.660694,121.424964,2.395121e-08
C0F9M0,豐原,2026-02-04,24.254322,120.720692,1.1568708e-09
C0R720,旭海,2026-02-04,22.205403,120.887614,4.6395715e-05
C0V710,苓雅,2026-02-04,22.622742,120.330669,2.1886997e-06
C0C740,觀音工業區,2026-02-04,25.064764,121.114856,2.1323812e-07
CAC040,拉拉山,2026-02-04,24.699317,121.427133,3.20235e-08
C0V790,萬山,2026-02-04,22.905944,120.688056,7.274005e-10
U2HA30,臺大和社,2026-02-04,23.590856,120.888864,9.785369e-10
C2H9K0,屯原,2026-02-04,24.067969,121.209389,7.195176e-09
C0AJ90,澳底,2026-02-04,25.0552,121.9253,3.27786e-08
C0Z100,東華,2026-02-04,23.89525,121.549833,1.6675065e-08
C0G970,三豐,2026-02-04,23.882,120.2895,0.00017919994
V2K610,大庄合作社,2026-02-04,23.8068,120.367939,2.063014e-09
C0V900,汕尾,2026-02-04,22.4782,120.4151,1.7916457e-06
C1R630,龍泉,2026-02-04,22.66701,120.59091,1.2786526e-07
C1AC50,關渡,2026-02-04,25.133486,121.469331,4.9265388e-08
C0C800,四稜,2026-02-04,24.64733,121.4293,2.1686251e-08
C0F9I0,神岡,2026-02-04,24.272481,120.658314,2.1018625e-09
C0K460,斗南,2026-02-04,23.678734,120.478359,6.811372e-09
C2O810,曾文,2026-02-04,23.219681,120.497328,8.2026286e-10
467280,後龍,2026-02-04,24.648563,120.831834,2.1972486e-09
C1F9J1,清水林,2026-02-04,24.071242,120.820419,7.144805e-10
C2A650,火燒寮,2026-02-04,25.002719,121.742892,2.2467102e-08
466930,竹子湖,2026-02-04,25.162078,121.544547,2.3736327e-08
C1I220,樟湖,2026-02-04,23.905333,120.846983,1.6108931e-09
C0I390,仁愛,2026-02-04,24.022122,121.132206,1.8589601e-09
C0Z300,東里,2026-02-04,23.26853,121.30547,9.566466e-09
C1V590,新發,2026-02-04,23.057019,120.646064,1.0194463e-09
C0K510,水林,2026-02-04,23.572924,120.24597,8.434232e-09
72S590,東改賓朗果園,2026-02-04,22.813889,121.071278,4.652649e-09
82A750,茶改北部分場,2026-02-04,24.955778,121.631222,4.280798e-08
C1A750,石碇服務區,2026-02-04,25.00872,121.646242,2.6916284e-08
C0X300,鹿寮,2026-02-04,23.386047,120.477331,4.0067127e-09
G2AI50,關渡,2026-02-04,25.11575,121.492,1.37436125e-08
C0K590,雲林東勢,2026-02-04,23.674192,120.255721,2.3816222e-09
C2K310,港尾布雞,2026-02-04,23.74834,120.38439,1.1254451e-09
C0A570,桶後,2026-02-04,24.848222,121.597992,3.2827842e-08
C1S800,華源,2026-02-04,22.657883,121.02325,9.86914e-09
C0G720,溪州,2026-02-04,23.851589,120.499093,1.5718968e-09
C1V160,達卡努瓦,2026-02-04,23.279811,120.705319,1.6522804e-09
C2M410,馬頭山,2026-02-04,23.324361,120.582017,5.78753e-10
C0V850,蚵仔寮,2026-02-04,22.7256,120.2527,8.937164e-07
C0S740,池上,2026-02-04,23.119628,121.209469,4.720062e-09
C1V390,尖山,2026-02-04,22.813153,120.367789,6.8755526e-09
C0AH70,松山,2026-02-04,25.04871,121.55042,1.26143735e-08
C0N010,鯤鯓國小,2026-02-04,23.1879,120.0889,3.689399e-08
C0R550,新埤,2026-02-04,22.467947,120.582894,2.9356107e-08
C0SA60,知本（水試所）,2026-02-04,22.702394,121.082761,3.9899906e-08
C0T9I0,豐濱,2026-02-04,23.583897,121.514806,6.5461983e-09
C0UB00,淡江大學蘭陽校園,2026-02-04,24.823239,121.730383,2.8024404e-08
C0W240,九宮,2026-02-04,24.423753,118.240186,1.380991e-08
C0T9N0,富里,2026-02-04,23.171639,121.249378,1.1067215e-08
U2HA50,臺大竹山,2026-02-04,23.756972,120.681556,3.3479062e-09
C0V840,鳳鼻頭,2026-02-04,22.5083,120.3591,1.6522047e-06
C0X140,西港,2026-02-04,23.125608,120.203108,1.7764256e-07
72D080,桃改五峰分場,2026-02-04,24.612194,121.157167,4.7794004e-09
C2H9P0,伊拿谷,2026-02-04,23.963211,121.088264,1.4430921e-09
C2K250,崙背,2026-02-04,23.75553,120.31893,1.7067955e-09
C2H9F0,柑林,2026-02-04,24.018658,120.847072,6.072039e-10
C0TA20,加灣,2026-02-04,24.082025,121.608944,5.979993e-08
C0V530,阿蓮,2026-02-04,22.883208,120.327508,2.268459e-06
C0FB30,八仙山苗圃,2026-02-04,24.192719,121.001366,1.7316444e-09
C1O880,關山,2026-02-04,23.173397,120.594092,5.13469e-10
C0E791,卓蘭,2026-02-04,24.3126,120.8244,1.7374506e-09
C1I030,武界,2026-02-04,23.913225,121.052483,1.1736956e-09
C0R520,崁頂,2026-02-04,22.514781,120.506914,4.8546724e-07
C0R341,牡丹,2026-02-04,22.130036,120.792639,0.0014912438
C0R930,萬丹,2026-02-04,22.5885,120.4851,7.054006e-07
C0S760,紅石,2026-02-04,23.069131,121.126219,2.7638857e-08
C2C410,中央大學,2026-02-04,24.967652,121.185165,2.2377506e-08
C1M610,石磐龍,2026-02-04,23.496606,120.663506,2.2490845e-09
C0C790,東眼山,2026-02-04,24.8284,121.40888,1.513035e-08
C0UA10,鴛鴦湖,2026-02-04,24.590269,121.412228,2.7506958e-08
V2C260,八德蔬果,2026-02-04,24.978508,121.281819,2.0410775e-08
C0R800,丹路,2026-02-04,22.204481,120.750989,0.6183275
C0G920,永靖,2026-02-04,23.924703,120.547533,1.1440255e-09
C2M950,太和,2026-02-04,23.538372,120.702961,3.0870488e-09
C1A630,下盆,2026-02-04,24.771003,121.538622,2.927112e-08
B2N890,畜產試驗所,2026-02-04,23.058972,120.336406,8.932393e-06
C0UA30,白嶺,2026-02-04,24.527819,121.519031,2.3616339e-08
467571,新竹,2026-02-04,24.828575,121.01455,7.0299344e-09
C1V580,溪南(特生中心),2026-02-04,23.084972,120.788475,5.732754e-09
C1T970,大農,2026-02-04,23.615233,121.413331,2.2158433e-08
C0R650,竹田,2026-02-04,22.58486,120.54344,3.589107e-07
C1H900,清流,2026-02-04,24.080775,120.962997,1.1068434e-09
C1C510,水尾,2026-02-04,24.940081,121.087161,2.8356153e-08
C2N170,茅港尾,2026-02-04,23.2061,120.2624,1.2527977e-07
C0F9X0,大雅(中科園區),2026-02-04,24.21528,120.62445,7.7841406e-10
C0SB60,白守蓮,2026-02-04,23.126769,121.401914,1.1126691e-08
C0O970,虎頭埤,2026-02-04,23.021375,120.347878,5.9489076e-07
C0C730,中大臨海站,2026-02-04,24.966126,121.008581,3.868618e-08
C0X250,新營,2026-02-04,23.310689,120.316681,6.150444e-08
C0V700,三民,2026-02-04,22.645017,120.311233,0.00019959263
C0U870,大礁溪,2026-02-04,24.791042,121.675047,2.6268909e-08
C0E870,高鐵苗栗,2026-02-04,24.60725,120.826094,2.2521238e-09
C0TA30,鹽寮,2026-02-04,23.845606,121.592664,1.738436e-08
C0M860,新美,2026-02-04,23.338017,120.683169,9.795098e-10
C1E701,八卦,2026-02-04,24.491756,120.927619,3.2355882e-09
C2TA90,加納納,2026-02-04,23.466421,121.359867,6.5702026e-09
C0I420,國姓,2026-02-04,24.037803,120.855072,5.8854466e-10
C2D720,關西工作站,2026-02-04,24.757275,121.184792,1.7140542e-09
C0S960,香蘭,2026-02-04,22.587569,120.993375,5.0341228e-08
467620,蘭嶼,2026-02-04,22.0369,121.55843,0.99996686
C0R260,春日,2026-02-04,22.370361,120.628306,9.294499e-09
72G600,臺中農改場,2026-02-04,24.003028,120.534389,8.4479773e-10
C0Z210,瑞穗,2026-02-04,23.5239,121.39021,7.3431923e-09
C0M820,達邦,2026-02-04,23.453994,120.749517,1.4259178e-09
C0V860,南寮,2026-02-04,22.7616,120.2339,1.3074371e-06
C0G740,大城,2026-02-04,23.852487,120.320935,0.00017975527
C0R920,塭仔,2026-02-04,22.4169,120.5197,2.201855e-05
C0R470,高樹,2026-02-04,22.826389,120.600806,1.4597353e-07
C0R680,佳樂水,2026-02-04,21.993578,120.861633,0.9997731
C1O870,大棟山,2026-02-04,23.31157,120.52226,1.8266173e-09
C0D360,梅花,2026-02-04,24.678347,121.208558,2.1699067e-09
C0Z190,富世,2026-02-04,24.14743,121.6297,5.4170687e-07
C0AI10,屈尺,2026-02-04,24.92184,121.54475,1.9207897e-08
B2U990,畜試東區分所,2026-02-04,24.669039,121.832561,8.957565e-09
C0SB80,長濱漁港,2026-02-04,23.313644,121.459994,5.425447e-09
C0TA50,和仁,2026-02-04,24.241394,121.712472,1.9241487e-08
C0V910,大樹,2026-02-04,22.684645,120.432803,4.7151377e-07
C1R610,西大武山,2026-02-04,22.617719,120.7322,1.4328598e-08
C0G900,線西,2026-02-04,24.143358,120.443536,2.4863587e-09
C0M700,竹崎,2026-02-04,23.526178,120.555508,1.7390288e-09
C2E880,三義,2026-02-04,24.405478,120.749819,3.133092e-09
C0C720,竹圍,2026-02-04,25.112692,121.239824,4.0833953e-08
C0F9P0,清水,2026-02-04,24.312297,120.562242,6.3892527e-09
C0Z150,吉安光華,2026-02-04,23.930925,121.595153,1.9740849e-08
C0FA80,小雪山天池,2026-02-04,24.28025,121.02627,1.98115e-08
467300,東吉島,2026-02-04,23.25727,119.66762,0.99558604
C1D640,外坪(五指山),2026-02-04,24.644447,121.090961,3.3553345e-09
C2R9A0,高士國小,2026-02-04,22.12553,120.84653,0.00214348
C0F9O0,潭子,2026-02-04,24.213106,120.703933,1.3004419e-09
C2H9R0,卓社,2026-02-04,23.887894,121.000086,1.9964397e-09
72T250,花蓮農改場,2026-02-04,23.975222,121.563889,1.88025e-08
C0E780,銅鑼,2026-02-04,24.489681,120.790853,2.3870386e-09
C1T950,太安,2026-02-04,23.666719,121.370128,3.553065e-08
C0E830,苑裡,2026-02-04,24.439714,120.653053,9.001118e-09
467270,田中,2026-02-04,23.873803,120.581286,6.1049295e-09
C0SA10,檳榔四格山,2026-02-04,22.810031,121.109308,4.275949e-09
C1T830,布洛灣,2026-02-04,24.17184,121.57127,3.2053845e-07
C0F970,大坑,2026-02-04,24.173142,120.722289,1.1269896e-09
C1U920,思源,2026-02-04,24.393125,121.347214,1.6947226e-08
C2H9Y0,松茗,2026-02-04,23.8167,120.650765,5.930826e-10
C0A931,三和,2026-02-04,25.233153,121.595236,4.37167e-08
C0I010,廬山,2026-02-04,24.033311,121.181808,4.4154786e-09
C2M940,日野賀,2026-02-04,23.434056,120.727169,2.1917193e-09
C0R860,鼻頭,2026-02-04,22.1043,120.8979,0.99737924
C0UB20,壯圍,2026-02-04,24.7359,121.8163,8.457155e-09
C0R790,九棚,2026-02-04,22.14195,120.889281,0.0012846416
C0W110,東莒,2026-02-04,25.9652,119.98069,6.2200456e-06
C1U930,粉鳥林,2026-02-04,24.497088,121.842479,2.2517597e-08
C1I211,蘆竹湳,2026-02-04,23.934019,120.811994,6.2890537e-10
C0S830,長濱,2026-02-04,23.286817,121.411975,9.2229255e-09
C1F9F1,伯公龍,2026-02-04,24.272392,120.849047,1.0052698e-09
C0UB90,太平山莊,2026-02-04,24.494171,121.536209,3.133076e-08
C0E810,西湖,2026-02-04,24.562947,120.7485,2.5372518e-08
C1I440,新高口,2026-02-04,23.478744,120.878939,1.25055655e-08
C0O840,王爺宮,2026-02-04,23.222064,120.40085,3.6314847e-09
C0T9G0,鳳林山,2026-02-04,23.735269,121.420131,6.0958214e-08
C0X080,佳里,2026-02-04,23.173039,120.145086,3.1390755e-08
C0FB70,大甲溪埔,2026-02-04,24.370625,120.620067,9.03173e-09
C0Z310,清水斷崖,2026-02-04,24.218294,121.689142,1.7229544e-08
C0M680,太保,2026-02-04,23.455062,120.331455,1.5480177e-08
C1S820,金峰,2026-02-04,22.590969,120.933236,2.6637379e-08
C0AD10,八里,2026-02-04,25.150211,121.403947,3.5556587e-07
C2K240,草嶺,2026-02-04,23.59555,120.693461,2.3573485e-09
C1SA70,都蘭,2026-02-04,22.87794,121.226881,3.225526e-09
C0K440,二崙,2026-02-04,23.772797,120.408944,1.1327717e-09
C1A760,坪林交控,2026-02-04,24.94284,121.713442,3.8822193e-08
C0F9N0,大里,2026-02-04,24.092464,120.701378,6.0551333e-09
C0SA90,達仁林場,2026-02-04,22.264347,120.823972,3.3706e-07
C1R290,石門山,2026-02-04,22.112611,120.756597,0.93728036
42HA10,萬大發電廠,2026-02-04,23.978875,121.139639,1.5096299e-09
C0R890,山海,2026-02-04,21.9878,120.7091,0.99935704
C0T9A0,月眉山,2026-02-04,23.809928,121.539828,1.3678756e-08
C0AC70,信義,2026-02-04,25.037822,121.564597,1.3400938e-08
C0K560,棋山,2026-02-04,23.68645,120.603417,3.0006202e-09
C2FB50,出雲,2026-02-04,24.206469,120.902794,2.292731e-09
C1Z240,中平林道,2026-02-04,23.42115,121.26763,5.4242495e-08
U2H480,溪頭,2026-02-04,23.670306,120.798194,1.7576864e-09
C0M880,好美里,2026-02-04,23.3364,120.138,5.5924215e-08
C0T9E0,大坑,2026-02-04,23.880628,121.581981,1.7547999e-08
C0K530,臺西,2026-02-04,23.701547,120.197559,2.679413e-07
C1E900,國一N128K,2026-02-04,24.560997,120.844186,2.2541435e-09
C0AJ50,水湳洞,2026-02-04,25.123695,121.862238,3.2977326e-08
C0AI20,白沙灣,2026-02-04,25.283128,121.519058,2.1760663e-06
C2V310,美濃,2026-02-04,22.898792,120.51907,1.8930965e-08
C0A860,大坪,2026-02-04,25.165914,121.632969,1.3996409e-08
C1U850,觀音海岸,2026-02-04,24.38319,121.77856,1.3465685e-08
C2K610,草嶺石壁,2026-02-04,23.602469,120.707731,2.4438553e-09
C0U950,鶯子嶺,2026-02-04,24.89754,121.79244,4.2420762e-08
C0O900,善化,2026-02-04,23.112883,120.297219,2.0507945e-05
C0K550,蔦松,2026-02-04,23.514319,120.229736,1.8315305e-08
E2P980,林試六龜中心,2026-02-04,22.991703,120.645722,2.2453213e-09
C0E590,通霄,2026-02-04,24.471892,120.704622,4.905928e-08
C1I310,西巒,2026-02-04,23.754486,120.883956,2.2647277e-09
C0A550,泰平,2026-02-04,24.971197,121.823711,4.0158195e-08
C0I360,水里,2026-02-04,23.812553,120.849792,6.3772937e-10
C0R830,高士,2026-02-04,22.121825,120.836781,0.8038367
C1I101,溪頭,2026-02-04,23.661789,120.807647,6.144566e-09
C0AJ20,野柳,2026-02-04,25.20703,121.690021,6.593342e-08
C0B060,暖暖,2026-02-04,25.0957,121.7403,2.369756e-08
C1H920,長豐,2026-02-04,24.102039,120.879897,8.123736e-10
C2S9B0,利吉,2026-02-04,22.86246,121.15486,2.9868816e-09
C0V360,內門,2026-02-04,22.975481,120.466769,6.818079e-09
C0R850,林邊,2026-02-04,22.4634,120.5339,8.6888445e-05
C0E930,龍鳳,2026-02-04,24.700034,120.859125,6.699456e-09
C0U910,冬山,2026-02-04,24.63373,121.7937,8.957565e-09
C1E721,泰安,2026-02-04,24.489017,120.968036,6.564616e-09
82H320,茶改中部分場,2026-02-04,23.875611,120.913583,1.083437e-09
C0M750,布袋,2026-02-04,23.380878,120.167789,4.9364058e-08
C1S860,利嘉,2026-02-04,22.809417,121.050528,1.2343333e-08
E2S980,林試太麻里1,2026-02-04,22.598922,120.980044,3.7247805e-08
C0X170,關廟,2026-02-04,22.963017,120.327797,1.8186125e-06
C0V720,林園,2026-02-04,22.507747,120.394511,1.3586717e-06
C1I510,線浸林道,2026-02-04,23.761508,120.832956,2.0948145e-09
C0D690,外湖,2026-02-04,24.917735,120.968711,0.001344138
C0C750,新興坑尾,2026-02-04,25.0061,121.0971,7.075796e-08
B2Q810,畜試南區分所,2026-02-04,21.945583,120.802167,0.9997731
C0S790,金崙,2026-02-04,22.538122,120.966875,4.45423e-08
C0AH90,福山植物園,2026-02-04,24.760717,121.58135,2.9553807e-08
C0I540,奇萊稜線,2026-02-04,24.109231,121.326456,2.636448e-08
C0M850,表湖,2026-02-04,23.24186,120.64166,8.4743956e-10
C0S770,大溪山,2026-02-04,22.478475,120.943325,2.625333e-08
C0AG80,中和,2026-02-04,24.991622,121.491792,2.0067066e-08
C0T790,大禹嶺,2026-02-04,24.186117,121.316086,1.4590123e-08
C0T9B0,水源,2026-02-04,23.991861,121.537169,2.4207255e-08
C0R840,牡丹池山,2026-02-04,22.168389,120.841225,2.9554238e-07
C1I131,桶頭,2026-02-04,23.641944,120.654117,4.9067844e-10
CAL110,布袋國中,2026-02-04,23.35893,120.18026,5.9510356e-08
C2M9D0,何竹子腳,2026-02-04,23.53641,120.38203,2.5987639e-08
C0Z290,赤柯山,2026-02-04,23.36893,121.38293,1.8918513e-08
C0X280,將軍,2026-02-04,23.214999,120.13577,5.234849e-08
C0S690,太麻里,2026-02-04,22.60902,120.98533,1.5946064e-08
C0U880,北關,2026-02-04,24.9072,121.8734,4.7607784e-08
CAW010,東引,2026-02-04,26.3588,120.4836,3.3499698e-06
C0G810,埔心,2026-02-04,23.947633,120.525456,1.1501802e-09
C0U970,大福,2026-02-04,24.80064,121.81389,8.304881e-09
C2H9N0,仁愛東眼,2026-02-04,24.026875,121.1205,2.8786262e-09
C1E670,南礦,2026-02-04,24.538278,121.002836,6.598988e-09
C0M520,東後寮,2026-02-04,23.369908,120.248065,4.223572e-08
C1E461,松安,2026-02-04,24.397972,120.986022,4.9085e-09
C2N160,西拉雅風管處,2026-02-04,23.189481,120.335297,1.2047623e-07
C2M970,碧湖,2026-02-04,23.568632,120.624165,1.514475e-09
C0A640,石碇,2026-02-04,24.993969,121.662917,3.8822193e-08
E2S960,林試太麻里2,2026-02-04,22.598,120.99775,5.2580347e-08
C0F9Y0,桃山,2026-02-04,24.432739,121.303808,2.4219169e-08
C1I020,萬大,2026-02-04,23.979817,121.132261,1.8897008e-09
C2UC20,長嶺,2026-02-04,24.70894,121.61162,1.858954e-08
C0U940,羅東,2026-02-04,24.68184,121.74934,8.864865e-09
C0M650,朴子,2026-02-04,23.43463,120.23902,1.2005949e-08
C1I500,大尖山,2026-02-04,23.858572,120.994889,6.533164e-09
C0FB40,中橫21.6k,2026-02-04,24.2499,121.1455,3.7581622e-09
C0G820,田尾,2026-02-04,23.901669,120.509389,1.1440277e-09
E2K600,四湖植物園,2026-02-04,23.676986,120.163433,4.862081e-07
C0S730,綠島,2026-02-04,22.6672,121.47533,0.010222372
12Q970,東港工作站,2026-02-04,22.479997,120.466058,8.6888445e-05
C1TA00,太魯閣,2026-02-04,24.15773,121.6236,3.627887e-07
466920,臺北,2026-02-04,25.037658,121.514853,1.26143735e-08
C0R600,舊泰武,2026-02-04,22.588194,120.664944,1.6082466e-09
C1I260,北坑,2026-02-04,23.9246,121.006903,9.841052e-10
466910,鞍部,2026-02-04,25.182586,121.529731,3.686747e-08
C1I230,九份二山,2026-02-04,23.961944,120.845,8.544772e-10
C2M810,里佳,2026-02-04,23.389125,120.716647,3.0313845e-09
C2A660,瑞芳,2026-02-04,25.113169,121.801147,2.510549e-08
C0R270,琉球嶼,2026-02-04,22.332244,120.362236,2.823557e-09
C2V580,瑞山,2026-02-04,22.90304,120.43424,6.5385617e-09
C1T990,高寮,2026-02-04,23.394239,121.356808,8.0207085e-09
C0G620,芬園,2026-02-04,24.015678,120.6213,5.390498e-10
C1Z140,荖溪,2026-02-04,23.890575,121.45964,5.8491374e-08
C1I201,中心崙,2026-02-04,23.728722,120.712097,5.794798e-10
C1I400,凌霄,2026-02-04,24.018778,121.004456,2.9637053e-09
C1M640,十字,2026-02-04,23.492153,120.753683,4.90938e-09
G2P820,農試鳳山分所,2026-02-04,22.646611,120.356083,1.2245698e-06
C0Z270,蕃薯寮,2026-02-04,23.73835,121.540108,1.6072633e-08
C2E420,竹南,2026-02-04,24.70898,120.88897,6.12214e-09
C0FB10,出雲山苗圃,2026-02-04,24.23105,120.90475,1.8313443e-09
C0F9Q0,外埔,2026-02-04,24.347817,120.705686,3.068756e-09
C0K580,高鐵雲林,2026-02-04,23.737456,120.417944,1.1254451e-09
C2I090,鳳凰,2026-02-04,23.728081,120.787347,8.740284e-10
C0U990,員山,2026-02-04,24.74435,121.72247,8.859608e-09
C0V770,大社,2026-02-04,22.730306,120.346639,1.3111976e-07
C0X120,麻豆,2026-02-04,23.183289,120.248611,1.6437934e-07
C0C670,龍潭,2026-02-04,24.870056,121.221389,2.8230993e-09
C0D680,香山濕地,2026-02-04,24.783581,120.914988,0.001344138
C0S980,勝林山,2026-02-04,22.430439,120.8938,2.8525836e-08
C0V730,大寮,2026-02-04,22.605614,120.395717,1.7669834e-05
C0R570,麟洛,2026-02-04,22.65078,120.52719,2.4501865e-06
C2M930,石卓,2026-02-04,23.478744,120.702264,4.8051034e-09
C0G9B0,和美,2026-02-04,24.105169,120.492131,1.530484e-09
CAG100,王功漁港,2026-02-04,23.96824,120.32586,0.0010953269
C0X290,北門,2026-02-04,23.267772,120.125481,5.5154626e-08
C2F930,大甲,2026-02-04,24.347667,120.640403,6.5535444e-09
C0D650,湖口,2026-02-04,24.904794,121.043628,2.1765066e-08
C0U780,五結,2026-02-04,24.68637,121.79794,8.957565e-09
C1I250,鯉潭,2026-02-04,23.961922,120.991131,9.919447e-10
C0R130,阿禮,2026-02-04,22.742908,120.743678,1.8464894e-09
C0X100,臺南市北區,2026-02-04,23.010394,120.194228,1.961882e-05
C0S920,金峰嘉蘭,2026-02-04,22.594789,120.960825,3.6157218e-08
C0V490,新興,2026-02-04,22.627422,120.298803,0.00083326164
C0F9K0,大安,2026-02-04,24.345061,120.588025,9.03173e-09
467290,古坑,2026-02-04,23.633639,120.551889,1.4222454e-09
C2E970,八甲,2026-02-04,24.535811,120.795983,2.0165163e-09
C0V440,鳳山,2026-02-04,22.646653,120.356122,1.2245698e-06
C1T940,大觀,2026-02-04,23.714206,121.373133,1.8756435e-08
C0E740,造橋,2026-02-04,24.637056,120.864778,2.2591538e-09
C0R100,尾寮山,2026-02-04,22.833111,120.683889,1.99966e-09
A2K630,臺大雲林校區,2026-02-04,23.730628,120.423903,1.1255996e-09
467990,馬祖,2026-02-04,26.169467,119.923158,3.4315536e-07
C0D580,寶山,2026-02-04,24.735006,121.025192,2.1789521e-09
E2P990,林試扇平站,2026-02-04,22.9677,120.6857,1.03083e-09
C0AI30,三重,2026-02-04,25.057328,121.500629,1.2598144e-08
C0AH00,汐止,2026-02-04,25.066881,121.658778,3.0165115e-08
C1Z040,立山,2026-02-04,23.443356,121.327375,2.4885376e-08
466881,新北,2026-02-04,24.959207,121.525196,2.0077593e-08
C0W130,花嶼,2026-02-04,23.40007,119.32276,0.99732774
C0A950,鼻頭角,2026-02-04,25.129036,121.923372,3.2790105e-08
C0K470,林內,2026-02-04,23.748675,120.609642,3.3079237e-09
C2F990,摩天嶺,2026-02-04,24.322458,120.936819,1.9382922e-09
C2E430,南庄,2026-02-04,24.601775,121.000214,2.1171478e-09
82C160,茶改場,2026-02-04,24.908472,121.185333,9.129221e-09
C2TB60,南安,2026-02-04,23.29818,121.26157,9.417558e-09
C0Z320,清水林道,2026-02-04,23.27125,121.188272,1.9113646e-08
C0R760,南仁湖,2026-02-04,22.084681,120.863353,0.93728036
C0M670,大林,2026-02-04,23.600616,120.45841,1.1014505e-08
C0M800,茶山,2026-02-04,23.299075,120.664767,6.9179856e-10
C0A9C0,天母,2026-02-04,25.117494,121.537169,1.3344288e-08
72K220,南改斗南分場,2026-02-04,23.634556,120.477333,6.811372e-09
72AI40,桃改樹林分場,2026-02-04,24.944503,121.386972,1.5368473e-08
C0S910,蘭嶼燈塔,2026-02-04,22.081197,121.503117,0.9998209
C0B050,八斗子,2026-02-04,25.144754,121.79167,2.909889e-08
C0U900,內城,2026-02-04,24.71813,121.68766,8.876354e-09
C0X320,柳營,2026-02-04,23.253328,120.375253,9.232131e-09
C0M790,新港,2026-02-04,23.553269,120.345728,8.275802e-09
C0F9T0,西屯,2026-02-04,24.179494,120.641275,1.6686192e-09
C0E950,松安,2026-02-04,24.39792,120.98599,4.9085e-09
C0SA30,都歷,2026-02-04,23.020333,121.323642,9.036141e-09
C0C620,蘆竹,2026-02-04,25.084275,121.265767,2.5965095e-08
C0R730,大坪頂,2026-02-04,22.024633,120.69355,0.99575925
C0AJ40,石門,2026-02-04,25.273672,121.601198,5.7865253e-07
C0E750,苗栗,2026-02-04,24.564569,120.824575,2.2927746e-09
C0T870,鯉魚潭,2026-02-04,23.935639,121.508944,1.6457205e-08
C1V170,排雲,2026-02-04,23.463619,120.954147,2.7807483e-08
C2H950,中寮,2026-02-04,23.884447,120.766406,9.0196395e-10
C0R350,貓鼻頭,2026-02-04,21.921774,120.7358,0.99937767
C0V660,岡山,2026-02-04,22.797078,120.294958,6.5260554e-07
C1H941,雙冬,2026-02-04,23.967378,120.802189,6.940149e-10
C0AJ70,田寮,2026-02-04,25.2698,121.4886,2.374653e-06
C0AI00,五股,2026-02-04,25.07445,121.42728,1.1687169e-08
C0Z280,德武,2026-02-04,23.47426,121.41071,6.5712555e-09
C2RA10,大新,2026-02-04,22.67558,120.57788,1.3958478e-07
C0R700,枋山,2026-02-04,22.246844,120.661086,0.45930755
C0C460,復興,2026-02-04,24.820208,121.352281,4.186755e-09
C2K300,鹿南,2026-02-04,23.63855,120.3636,1.8736153e-09
E2H360,蓮華池,2026-02-04,23.918333,120.885278,8.542165e-10
C0M640,中埔,2026-02-04,23.42538,120.5229,3.0934795e-09
C0W140,金沙,2026-02-04,24.488292,118.408778,1.3886217e-08
C2A540,四堵,2026-02-04,24.8926,121.745736,4.6441308e-08
C0ACA0,新莊,2026-02-04,25.051478,121.446756,1.3649618e-08
C0R220,潮州,2026-02-04,22.534361,120.54,3.5553435e-07
U2HA40,臺大內茅埔,2026-02-04,23.689722,120.851117,5.671974e-10
467490,臺中,2026-02-04,24.145736,120.684075,1.3784166e-09
C0UB60,明池,2026-02-04,24.650688,121.475277,2.5279144e-08
C0U960,翠峰湖,2026-02-04,24.510856,121.608044,3.0474794e-08
E2HA20,林試畢祿溪站,2026-02-04,24.226944,121.308522,7.865453e-09
C2M9A0,大華,2026-02-04,23.4824,120.67491,1.6541788e-09
C0V890,前鎮,2026-02-04,22.5718,120.3117,1.509597e-05
C1F941,雪嶺,2026-02-04,24.280586,121.026642,1.9811461e-08
C2H9E0,國姓南港,2026-02-04,23.911108,120.846556,1.6985725e-09
C0AC80,文山,2026-02-04,25.00235,121.575728,1.9054749e-08
C0F9R0,龍井,2026-02-04,24.184536,120.528972,3.9083994e-09
C0M760,民雄,2026-02-04,23.551754,120.428457,1.1014505e-08
C0UA40,西德山,2026-02-04,24.560647,121.752608,3.8873317e-08
C2TA70,赤科坪,2026-02-04,23.39885,121.39168,2.2670065e-08
C1T920,中興,2026-02-04,23.769503,121.498653,1.6590867e-08
C0D550,雪霸,2026-02-04,24.526972,121.11605,9.934316e-09
C2F860,梨山,2026-02-04,24.247522,121.243669,1.2132328e-08
C0R320,車城,2026-02-04,22.0744,120.716247,0.99777675
C1S870,南美山,2026-02-04,23.15025,121.382333,1.0838013e-08
C0B020,基隆嶼,2026-02-04,25.19141,121.78391,2.8354044e-08
C1U501,牛鬥,2026-02-04,24.637836,121.573656,2.0304306e-08
C0M730,嘉義市東區,2026-02-04,23.457673,120.460531,9.419193e-09
C2R990,泰武,2026-02-04,22.60686,120.69765,5.66348e-09
C0S700,知本,2026-02-04,22.684866,121.005642,1.0828508e-08
C1N001,沙崙,2026-02-04,22.935472,120.309406,2.0756647e-06
C0V760,橋頭,2026-02-04,22.757806,120.30575,1.7180442e-07
C0G960,福寶,2026-02-04,24.0443,120.3814,1.7202674e-09
C0X210,白河,2026-02-04,23.347466,120.414427,2.6921612e-09
C0S810,東河,2026-02-04,22.972672,121.303986,9.152479e-09
C2R170,屏東,2026-02-04,22.66027,120.49403,3.0596893e-06
C0R670,楓港,2026-02-04,22.190131,120.692156,0.9155752
C0FA50,霧峰,2026-02-04,24.0419,120.6995,5.2127076e-09
C0UB10,蘇澳,2026-02-04,24.5969,121.8571,1.0459619e-08
C0G950,防潮門,2026-02-04,24.1835,120.4871,2.468822e-09
C0M740,六腳,2026-02-04,23.492871,120.290625,1.2227553e-08
C1R250,力里,2026-02-04,22.428117,120.629228,1.7361322e-09
C0K330,虎尾,2026-02-04,23.719183,120.442036,1.1255996e-09
C2FA00,烏石坑,2026-02-04,24.273503,120.947617,1.9075759e-09
C0V620,永安,2026-02-04,22.82315,120.236856,7.4725887e-07
C1I330,楓樹林,2026-02-04,23.986803,121.076117,1.92106e-09
C0W200,湖西,2026-02-04,23.596314,119.67275,0.99295884
72Q010,高雄農改場,2026-02-04,22.709333,120.525889,1.4697596e-06
C0SA40,瑞和,2026-02-04,22.974361,121.156697,2.7267335e-09
C0C680,龜山,2026-02-04,25.02846,121.38656,1.1249648e-08
C2V260,月眉,2026-02-04,22.971003,120.539853,6.0929244e-09
C0V450,鳳森,2026-02-04,22.545064,120.392592,5.161167e-07
C0FA90,小雪山林道,2026-02-04,24.29515,121.03651,2.5024503e-08
C0U720,南山,2026-02-04,24.43742,121.38167,1.8670486e-08
A2N290,臺南蘭花園區,2026-02-04,23.340258,120.379661,4.3136876e-09
C0R560,新園,2026-02-04,22.5434,120.461558,1.3586717e-06
C0U890,三星,2026-02-04,24.66812,121.65302,8.857277e-09
C1V300,御油山,2026-02-04,23.001983,120.715364,5.5746763e-09
C0U600,礁溪,2026-02-04,24.817539,121.765608,8.301271e-09
C1T980,龍澗,2026-02-04,24.023289,121.411328,5.2378354e-08
C0D670,海天一線,2026-02-04,24.831986,120.914438,0.00010675249
C0SA00,歷坵,2026-02-04,22.520969,120.89185,2.3728088e-08
C0M710,東石,2026-02-04,23.458927,120.15385,4.6764413e-08
C0M780,鹿草,2026-02-04,23.41134,120.30835,1.1623189e-08
C0U520,雙連埤,2026-02-04,24.753033,121.641303,2.4967388e-08
C0B010,七堵,2026-02-04,25.094819,121.71713,2.7855577e-08
C0R480,長治,2026-02-04,22.693128,120.542622,2.707447e-07
C1V830,國三S383K,2026-02-04,22.781967,120.426475,2.6557377e-08
12Q980,恆春工作站,2026-02-04,22.079678,120.714425,0.9977893
C1O940,東山服務區,2026-02-04,23.286016,120.398472,3.936635e-09
C1U840,東澳嶺,2026-02-04,24.5378,121.8485,3.7351032e-08
C1D630,飛鳳山,2026-02-04,24.766464,121.119178,2.2458524e-09
C0S940,石寧山,2026-02-04,23.223772,121.406639,9.465641e-09
C0K410,北港,2026-02-04,23.573957,120.292802,8.222919e-09
C2M620,瑞里,2026-02-04,23.545133,120.675197,2.4004985e-09
C0SB70,小港漁港,2026-02-04,23.158558,121.400431,1.0864795e-08
C2O950,安南,2026-02-04,23.076694,120.144861,2.0901284e-07
C0F0E0,南湖圈谷,2026-02-04,24.363714,121.444667,2.9265873e-08
467610,成功,2026-02-04,23.097486,121.373428,9.954213e-09
C0G890,伸港,2026-02-04,24.148933,120.484403,2.468822e-09
C2E540,龍溪,2026-02-04,24.606489,120.783933,2.3921205e-09
C1V200,梅山,2026-02-04,23.268447,120.823556,1.1760082e-09
C0T9H0,加路蘭山,2026-02-04,23.682947,121.5274,1.8946173e-08
C2O930,玉井,2026-02-04,23.126042,120.46055,1.4560342e-09
C1F911,新伯公,2026-02-04,24.221361,120.841069,9.062786e-10
C0R490,九如,2026-02-04,22.7405,120.490503,1.5999171e-06
C0X200,左鎮,2026-02-04,23.056758,120.408522,1.8690082e-08
C2TB50,麻汝,2026-02-04,23.42554,121.39358,6.424618e-09
C0FA60,鞍馬山工作站,2026-02-04,24.267064,121.000793,1.3581837e-08
C0SB50,叭嗡嗡,2026-02-04,23.047062,121.343223,1.0503281e-08
C1F891,稍來,2026-02-04,24.265689,121.001142,1.3155283e-08
C2M9C0,紫雲,2026-02-04,23.494914,120.540253,2.3455307e-09
72N240,七股研究中心,2026-02-04,23.081672,120.062894,3.4985044e-07
C0C700,中壢,2026-02-04,24.977661,121.256375,2.0554818e-08
C0M690,水上,2026-02-04,23.419734,120.388909,1.8212193e-08
C0V690,鼓山,2026-02-04,22.623325,120.275575,0.0010004458
C0O860,大內,2026-02-04,23.11885,120.36083,3.6675092e-06
C0Z200,萬榮,2026-02-04,23.709219,121.420106,1.7780096e-08
C0T9D0,和中,2026-02-04,24.26676,121.74103,1.9539911e-08
C2S9A0,北份子寮,2026-02-04,22.78561,121.07813,1.1491062e-08
C1O921,楠西,2026-02-04,23.183511,120.484083,1.2604339e-09
C0AJ30,淡水觀海,2026-02-04,25.184591,121.408616,3.684417e-07
C0V810,左營,2026-02-04,22.67491,120.28491,0.00019959263
C0UA70,桃源谷,2026-02-04,24.962606,121.888875,3.0656572e-08
C0X130,官田,2026-02-04,23.193217,120.315422,1.2857276e-07
C1H000,翠峰,2026-02-04,24.109397,121.205211,1.1461292e-08
C0UA90,石城,2026-02-04,24.980444,121.951214,3.308916e-08
C1E681,南勢山,2026-02-04,24.421669,120.923831,2.7229812e-09
C0A9F0,內湖,2026-02-04,25.079422,121.57545,1.3400938e-08
C0K291,宜梧,2026-02-04,23.536281,120.169329,3.4962202e-06
C1K540,口湖,2026-02-04,23.585344,120.180517,4.1870994e-06
C0R780,滿州,2026-02-04,22.024403,120.839892,0.9910732
C0V870,文安,2026-02-04,22.8025,120.2164,8.937164e-07
C0U650,玉蘭,2026-02-04,24.675286,121.587061,1.8521305e-08
C0R640,東港,2026-02-04,22.46247,120.44074,1.5337657e-06
C0AJ80,板橋,2026-02-04,25.0107,121.4489,2.0125174e-08
C0S660,下馬,2026-02-04,23.150427,121.070312,1.7366764e-08
C2N190,烏樹,2026-02-04,23.32393,120.36989,3.0321843e-08
C1H9B1,阿眉,2026-02-04,24.1263,120.994672,6.228117e-09
C0UA20,多加屯,2026-02-04,24.368614,121.373189,1.2732723e-08
C0E730,頭份,2026-02-04,24.688247,120.912206,6.371485e-09
72V140,高改旗南分場,2026-02-04,22.857861,120.516667,1.1555222e-07
C0K480,莿桐,2026-02-04,23.761192,120.502372,4.194684e-09
C0U980,坪林石牌,2026-02-04,24.86478,121.77396,4.425497e-08
C0T900,西林,2026-02-04,23.8119,121.441458,1.4897225e-08
C1I150,青雲,2026-02-04,23.793361,120.949378,5.5556415e-10
C2E980,和興,2026-02-04,24.505319,120.923016,2.4598021e-09
467350,澎湖,2026-02-04,23.565503,119.563094,0.99123293
C0G800,埔鹽,2026-02-04,24.000394,120.431683,1.5854255e-09
C0H960,草屯,2026-02-04,23.973672,120.68085,2.644979e-09
C1V780,多納林道,2026-02-04,22.888028,120.737917,2.743715e-09
C0E920,通霄漁港,2026-02-04,24.498589,120.673876,5.0031087e-08
C0Z330,安通山,2026-02-04,23.290728,121.348528,9.063725e-09
C0AH10,永和,2026-02-04,25.01125,121.508111,2.0125174e-08
C0AK10,太平里,2026-02-04,25.134937,121.364899,1.6225847e-07
C2G640,鹿港,2026-02-04,24.0753,120.430481,1.5667754e-09
C1E890,國三N149K,2026-02-04,24.463414,120.680019,4.871781e-08
C1R110,口社,2026-02-04,22.770111,120.645222,9.782705e-09
C1M870,國三N285K,2026-02-04,23.550319,120.505833,2.160804e-09
C1E480,鳳美,2026-02-04,24.554803,121.034747,2.493706e-09
C0T9M0,靜浦,2026-02-04,23.455167,121.495028,7.49291e-09
C2H9M0,發祥,2026-02-04,24.154094,121.164517,3.208823e-09
C2G9C0,埔南,2026-02-04,23.99124,120.46969,1.5854255e-09
C0AI40,石牌,2026-02-04,25.115597,121.513139,1.3400938e-08
C1F871,上谷關,2026-02-04,24.203483,121.018644,1.9204958e-09
C2H9G0,百勝,2026-02-04,24.051142,120.909361,7.977587e-10
C0G880,二水,2026-02-04,23.810742,120.6173,3.964016e-09
C0R940,加祿堂,2026-02-04,22.3363,120.6217,0.0009829393
C0W220,北竿,2026-02-04,26.220358,119.974881,1.313769e-06
C0O960,崎頂,2026-02-04,22.959547,120.369317,3.8233583e-07
C0TA40,秀林,2026-02-04,24.302864,121.731144,3.604374e-08
C0S750,向陽,2026-02-04,23.248397,120.986133,1.2343451e-08
C0T9F0,水璉,2026-02-04,23.797131,121.542514,1.4185021e-08
C1M600,頭凍,2026-02-04,23.406364,120.603339,1.1798613e-09
467660,臺東,2026-02-04,22.752211,121.154586,8.8720924e-08
C1D380,新埔,2026-02-04,24.84745,121.03834,6.7181767e-09
C2G980,田頭村,2026-02-04,23.8263,120.444175,1.1327717e-09
C0V750,路竹,2026-02-04,22.854997,120.259439,4.6999276e-07
C0N050,蚵寮,2026-02-04,23.301,120.1104,5.515473e-08
C2X060,下營,2026-02-04,23.226806,120.256291,1.2527977e-07
72M700,南改鹿草分場,2026-02-04,23.416869,120.283061,1.2005949e-08
C1SA50,利嘉林道,2026-02-04,22.82325,121.009389,2.9644474e-08
C0UB70,太平山中間站,2026-02-04,24.542003,121.513453,2.080449e-08
C0A940,金山,2026-02-04,25.223628,121.643967,6.743124e-08
C1V340,大津,2026-02-04,22.888322,120.645986,1.0266397e-07
C0W180,七美,2026-02-04,23.219333,119.444892,0.9976703
C1F9C1,白冷,2026-02-04,24.182844,120.929889,8.9447727e-10
K2E710,苗改生物防治研究中心,2026-02-04,24.422861,120.871833,1.7111014e-09
C0N040,蘆竹溝,2026-02-04,23.2344,120.0961,5.5154626e-08
C0TB40,崇德,2026-02-04,24.166144,121.657414,3.5296677e-07
C0D760,大坪苗圃,2026-02-04,24.5362,121.1108,7.878426e-09
C2W230,畜試所澎湖,2026-02-04,23.628342,119.513206,0.99491894
C0R880,後壁湖,2026-02-04,21.9457,120.7457,0.99935603
C1I280,埔中,2026-02-04,23.820778,120.642594,5.937334e-10
467790,墾丁雷達站,2026-02-04,21.948235,120.808028,0.9997958
C0W190,望安,2026-02-04,23.380564,119.494075,0.995705
C0Z170,卓溪,2026-02-04,23.3443,121.3029,7.561032e-09
C0F850,東勢,2026-02-04,24.246428,120.833047,8.940781e-10
466900,淡水,2026-02-04,25.164889,121.448906,9.452185e-08
C0I370,魚池,2026-02-04,23.895703,120.94135,9.0926533e-10
C0C630,大溪,2026-02-04,24.882853,121.265547,6.984293e-09
C0A520,山佳,2026-02-04,24.974944,121.402008,1.5871843e-08
C0I110,竹山,2026-02-04,23.761225,120.688156,3.6540937e-09
82H840,茶改南部分場,2026-02-04,23.762528,120.7405,6.0427624e-10
C2SD80,再來山,2026-02-04,23.34371,121.44122,5.4705342e-09
C0G660,溪湖,2026-02-04,23.94835,120.479122,1.2039493e-09
C1T800,洛韶,2026-02-04,24.204558,121.453956,7.296703e-08
C1T810,慈恩,2026-02-04,24.192044,121.388386,1.06311235e-08
C1E451,象鼻,2026-02-04,24.368617,120.940228,2.2632467e-09
C0AC60,三峽,2026-02-04,24.939025,121.369728,1.472684e-08
C0I490,萬大林道,2026-02-04,23.928228,121.091411,3.593355e-09
C1I290,豐丘,2026-02-04,23.668178,120.887417,3.3059873e-09
C1I320,奧萬大,2026-02-04,23.952956,121.178556,2.1618263e-09
C2M910,嘉義大學,2026-02-04,23.471325,120.485903,6.841684e-09
C0U770,南澳,2026-02-04,24.44935,121.81022,2.2683817e-08
C2TB30,吉安,2026-02-04,23.94538,121.54803,1.787234e-08
C0A980,社子,2026-02-04,25.109508,121.469681,1.6194182e-08
C0V800,六龜,2026-02-04,22.997889,120.633583,2.5506814e-09
C1G9D0,國一S218K,2026-02-04,23.890641,120.493253,1.6427685e-09
C0E570,白沙屯,2026-02-04,24.549447,120.696803,2.8785124e-08
C2F9A0,中竹林,2026-02-04,24.103556,120.751061,7.579177e-10
C0FA40,臺中電廠,2026-02-04,24.2146,120.4907,4.6595314e-09
C2G9A0,畜試所彰化,2026-02-04,23.86045,120.557964,6.1049295e-09
C0H9C0,合歡山,2026-02-04,24.143442,121.272547,2.5279046e-08
G2M350,農試溪口農場,2026-02-04,23.58565,120.408111,1.21525e-08
C0U860,頭城,2026-02-04,24.85323,121.8308,2.3330742e-08
C0R580,南州,2026-02-04,22.48591,120.50274,8.6888445e-05
C0D430,峨眉,2026-02-04,24.6905,121.017189,2.0912974e-09
C0G780,秀水,2026-02-04,24.03405,120.503869,8.4479773e-10
72N100,臺南農改場,2026-02-04,23.0605,120.342194,8.932393e-06
C0S900,蘭嶼高中,2026-02-04,22.04909,121.51214,0.99550873
C2TA60,六十石,2026-02-04,23.22477,121.31861,2.1656366e-08
C1F9W0,德基,2026-02-04,24.254783,121.190261,1.1574032e-08
C2M980,安和,2026-02-04,23.51377,120.31593,1.1844888e-08
C1Z120,壽豐,2026-02-04,23.870853,121.508081,1.6675065e-08
C0W160,烏坵,2026-02-04,24.9944,119.44956,0.06575537
C1I240,外大坪,2026-02-04,23.958697,120.917931,9.501361e-10
C1I550,國六W023K,2026-02-04,23.979067,120.867742,5.6716715e-10
C0R870,興海,2026-02-04,21.9752,120.8439,0.9997731
C0R140,瑪家,2026-02-04,22.682903,120.686639,1.1037591e-09
C0A530,坪林,2026-02-04,24.938183,121.70975,3.608797e-08
C0X260,後壁,2026-02-04,23.366358,120.362326,4.3106056e-08
C0Z230,和平,2026-02-04,24.30717,121.77007,1.9408791e-08
C0G770,福興,2026-02-04,24.041289,120.437669,1.5854255e-09
C0H9A0,神木村,2026-02-04,23.532742,120.843667,4.635995e-09
C0I460,南投,2026-02-04,23.911469,120.687331,2.6621265e-09
C0I480,梅峰,2026-02-04,24.085272,121.173572,8.125011e-09
C1V570,吉東,2026-02-04,22.85422,120.5454,2.5272763e-07
C2A560,福山,2026-02-04,24.776203,121.502811,1.8475227e-08
C0AH30,五分山,2026-02-04,25.07125,121.780794,3.912526e-08
C0FA10,松柏,2026-02-04,24.429115,120.617482,9.37934e-09
72S200,東改班鳩分場,2026-02-04,22.829528,121.077694,4.9358198e-09
72HA00,中改埔里分場,2026-02-04,23.903208,120.963364,9.017679e-10
C2H9W0,大坪頂農水,2026-02-04,24.043122,120.932781,8.672961e-10
C0C650,平鎮,2026-02-04,24.897503,121.214636,4.276063e-09
C0S930,延平,2026-02-04,22.902581,121.084058,2.9355756e-09
C0UA60,樟樹山,2026-02-04,24.41393,121.78325,1.3409376e-08
C2UC10,出水溪,2026-02-04,24.615822,121.652253,2.9234855e-08
C1S670,摩天,2026-02-04,23.199503,121.027,2.543187e-08
C2C590,觀音,2026-02-04,25.027072,121.153317,1.998691e-07
C0V630,茄萣,2026-02-04,22.906642,120.182608,0.0007465396
466940,基隆,2026-02-04,25.133314,121.740475,2.9054412e-08
C0X050,東河,2026-02-04,23.296598,120.385608,4.3136876e-09
C0R770,保力,2026-02-04,22.071122,120.764111,0.9961449
G2L020,農試嘉義分所,2026-02-04,23.485028,120.473806,6.7593198e-09
C0X240,關子嶺,2026-02-04,23.331169,120.508025,5.206783e-10
C0I380,集集,2026-02-04,23.828206,120.801467,6.5356287e-10
466990,花蓮,2026-02-04,23.975128,121.613275,5.9800044e-08
C1V220,小關山,2026-02-04,23.154217,120.813603,5.68608e-09
C1F9G1,慶福山,2026-02-04,24.180853,120.848378,1.1790492e-09
C0FB20,雪山橋,2026-02-04,24.23192,120.9786,1.1212033e-08
C0Z250,瑞穗林道,2026-02-04,23.49284,121.30688,6.257089e-08
C0D590,新豐,2026-02-04,24.87068,120.97721,7.540782e-05
C0A870,五指山,2026-02-04,25.132153,121.608692,2.718836e-08
C0UA50,西帽山,2026-02-04,24.555361,121.802628,3.7199243e-08
C2R980,竹田國中,2026-02-04,22.61532,120.52412,3.3992848e-07
C0X160,仁德,2026-02-04,22.968258,120.257689,0.0003387199
C1H971,六分寮,2026-02-04,23.92507,120.6378,8.594166e-10
C0W120,西嶼,2026-02-04,23.5626,119.468436,0.9956874
C0G650,員林,2026-02-04,23.946503,120.585597,8.895399e-10
C0AD50,鶯歌,2026-02-04,24.951533,121.346294,7.291594e-09
C2H9Q0,北東眼山,2026-02-04,24.120939,121.189303,9.307095e-09
C2H9T0,名間竹圍,2026-02-04,23.859914,120.637572,1.0610275e-09
C0S990,山豬窟,2026-02-04,22.318619,120.857372,9.5261254e-07
C0X190,安平,2026-02-04,22.993161,120.152181,2.7790742e-05
C0K400,斗六,2026-02-04,23.720583,120.541127,3.8459342e-09
12J990,口湖工作站,2026-02-04,23.589978,120.180394,4.117737e-06
C0O830,北寮,2026-02-04,23.079561,120.495008,1.7916633e-09
C1D410,白蘭,2026-02-04,24.579364,121.079947,6.6878383e-09
C0S970,加津林,2026-02-04,22.416211,120.926942,9.97102e-07
C0D700,關西,2026-02-04,24.7977,121.1732,1.698903e-09
C0U750,龜山島,2026-02-04,24.841667,121.953133,3.502653e-08
C0R810,內獅,2026-02-04,22.305064,120.642986,0.0009721484
C1M390,龍美,2026-02-04,23.406728,120.654417,2.1656728e-09
C2K290,崙內,2026-02-04,23.69525,120.35601,1.8736117e-09
C2FB60,頭櫃山,2026-02-04,24.129842,120.858925,1.8512712e-09
C1H840,國三N238K,2026-02-04,23.841008,120.707711,7.8489043e-10
CAQ030,崎峰國小,2026-02-04,22.42565,120.49521,8.6888445e-05
C2E520,大湖,2026-02-04,24.414939,120.870872,1.6915825e-09
467530,阿里山,2026-02-04,23.508208,120.813242,1.3819817e-08
C1E691,南湖,2026-02-04,24.40135,120.837533,1.6920602e-09
C0FA30,梧棲,2026-02-04,24.256003,120.523381,3.7889674e-09
C1V231,高中,2026-02-04,23.134911,120.716711,8.629975e-10
C0AK30,硬漢嶺,2026-02-04,25.136097,121.426372,2.5349395e-08
C0F9V0,新社,2026-02-04,24.200172,120.815806,9.92064e-10
C0H890,埔里,2026-02-04,23.972169,120.952425,9.704979e-10
C0R690,墾丁,2026-02-04,21.966756,120.810269,0.9972433
C0SD20,富山,2026-02-04,22.822383,121.190825,4.31442e-09
C0F0D0,審馬陣,2026-02-04,24.381675,121.4203,2.0346874e-08
C2W030,金門農試所,2026-02-04,24.448431,118.451786,2.2011841e-08
C0R820,白鷺,2026-02-04,22.454275,120.666219,2.7911193e-09
C0FB00,大雪山,2026-02-04,24.254668,121.007374,1.3698338e-08
C1V190,南天池,2026-02-04,23.27403,120.91176,1.3438538e-08
C0E940,雪見,2026-02-04,24.42595,121.01347,1.06164535e-08
K2E360,苗栗農改場,2026-02-04,24.495722,120.829111,2.3941562e-09
CAJ050,海口故事園區,2026-02-04,23.57543,120.14121,4.1870994e-06
C2K280,四湖,2026-02-04,23.6304,120.22717,4.862081e-07
C2H9D0,三隻寮,2026-02-04,24.093078,120.861578,7.502258e-10
C0O990,媽廟,2026-02-04,22.99175,120.293525,3.0603886e-05
C0D480,打鐵坑,2026-02-04,24.849664,121.150789,3.759445e-09
C0Z220,和平林道,2026-02-04,24.343922,121.656317,1.0806637e-08
C0TA10,花蓮漁港,2026-02-04,23.995322,121.638331,3.8180527e-08
72C440,桃園農改場,2026-02-04,24.950944,121.030583,2.2185118e-08
C1E711,馬拉邦山,2026-02-04,24.367306,120.901656,2.1927897e-09
C0SB20,富岡,2026-02-04,22.792467,121.192669,2.2107226e-08
C0D560,竹東,2026-02-04,24.767147,121.057881,2.6013662e-09
C0F9U0,南屯,2026-02-04,24.137006,120.637969,1.4661251e-09
C2SD60,明峰,2026-02-04,22.8671,121.11825,2.6381017e-09
C0M720,番路,2026-02-04,23.464657,120.554156,6.370923e-10
C0F0A0,雪山圈谷,2026-02-04,24.388594,121.236339,2.9606559e-08
C1A9N0,四十份,2026-02-04,24.934158,121.593283,2.2872765e-08
C0U760,東澳,2026-02-04,24.52196,121.83318,2.2284738e-08
C0X230,鹽水,2026-02-04,23.272621,120.247641,5.3816066e-08
C2H9H0,苗改南投蜂場,2026-02-04,23.852589,120.693481,2.4073623e-09
C2TB70,達谷寮,2026-02-04,23.38,121.35968,7.853431e-09
C0R950,萬隆國小,2026-02-04,22.507667,120.587817,1.4853644e-08
467540,大武,2026-02-04,22.35572,120.90374,0.9949924
C0V370,古亭坑,2026-02-04,22.893178,120.401947,8.760133e-09
C1I340,新興橋,2026-02-04,23.563333,120.868728,1.6366822e-09
C0SA80,土坂,2026-02-04,22.453108,120.887572,2.7880066e-07
C0R160,鹽埔,2026-02-04,22.739558,120.530778,1.4697596e-06
C0AC40,大屯山,2026-02-04,25.175675,121.522408,3.6148595e-08
466850,五分山雷達站,2026-02-04,25.071182,121.781205,3.9083716e-08
C2H9L0,馬烈霸,2026-02-04,24.1512,121.201772,9.933558e-09
C1AI50,國三N016K,2026-02-04,25.034164,121.619664,1.823308e-08
C2V920,匏子寮,2026-02-04,23.04905,120.55319,2.1164737e-09
C1V600,藤枝,2026-02-04,23.071961,120.757042,4.9214366e-09
C1E601,南勢,2026-02-04,24.572486,120.734842,1.9168043e-08
C0O980,新市,2026-02-04,23.061614,120.298197,2.0507945e-05
C0K420,西螺,2026-02-04,23.800407,120.467394,1.1137259e-09
C0Z050,佳心,2026-02-04,23.34567,121.21316,1.9047773e-08
C0AD30,蘆洲,2026-02-04,25.086594,121.472331,1.4621686e-08
C0V610,梓官,2026-02-04,22.760558,120.267211,8.2964436e-07
K2F750,種苗改良場,2026-02-04,24.225972,120.800917,1.0209232e-09
C0UA80,大溪漁港,2026-02-04,24.941801,121.902955,3.8133585e-08
C1AI60,國一39K邊坡,2026-02-04,25.064361,121.383836,1.1480503e-08
C0W150,金寧,2026-02-04,24.457703,118.328989,1.8131711e-08
C0R960,內埔,2026-02-04,22.608483,120.570714,3.3992848e-07
V2C250,八德合作社,2026-02-04,24.93775,121.266389,6.9013173e-09
C2H9S0,龍南,2026-02-04,23.953536,120.833183,1.3616172e-09
C0AH40,平等,2026-02-04,25.129142,121.577086,2.455603e-08
C0R540,佳冬,2026-02-04,22.419456,120.552375,1.8086559e-05
466950,彭佳嶼,2026-02-04,25.627975,122.079744,0.98682475
C0A890,雙溪,2026-02-04,25.036003,121.864242,3.159414e-08
C0C480,桃園,2026-02-04,24.992425,121.323172,2.0410775e-08
C0AH50,林口,2026-02-04,25.072181,121.38084,1.1163147e-08
A2K360,水試臺西試驗場,2026-02-04,23.717231,120.190522,2.679413e-07
C2M960,外寮,2026-02-04,23.562643,120.665688,1.9580082e-09
C0F9S0,烏日,2026-02-04,24.107058,120.624103,8.7229635e-10
C2N180,鹿陶洋,2026-02-04,23.14325,120.48352,1.2604339e-09
C0C490,八德,2026-02-04,24.928708,121.283289,6.8683437e-09
C0R190,赤山,2026-02-04,22.592333,120.614306,2.0613852e-07
C0T820,天祥,2026-02-04,24.179597,121.495639,1.9497661e-07
C1F9E1,龍安,2026-02-04,24.1605,120.831961,9.900905e-10
C2SD50,順那,2026-02-04,23.04166,121.29332,6.94916e-09
C0V820,小林,2026-02-04,23.148408,120.63325,5.580823e-10
C2G870,芳苑,2026-02-04,23.922303,120.320025,0.0019406345
C0E850,大河,2026-02-04,24.618069,120.948578,2.189747e-09
C1U670,寒溪,2026-02-04,24.634,121.71691,8.869381e-09
C0N020,城西,2026-02-04,23.0568,120.0956,2.8854174e-07
C1Z110,三棧,2026-02-04,24.11557,121.60501,1.3684476e-07
C0R280,檳榔,2026-02-04,22.076078,120.836777,0.98103774
C2H9J0,中台,2026-02-04,23.9996,120.938739,9.410731e-10
C0F9L0,后里,2026-02-04,24.310436,120.729725,1.512235e-09
467441,高雄,2026-02-04,22.730432,120.312516,1.7180442e-07
C0Z180,新城,2026-02-04,24.040486,121.604878,5.7557756e-08
C0D540,橫山,2026-02-04,24.71116,121.11693,2.122165e-09
C1D420,太閣南,2026-02-04,24.632808,121.160575,6.1407115e-09
C1E770,公館,2026-02-04,24.526914,120.830806,2.175327e-09
CAN130,水試所海水繁養殖中心,2026-02-04,23.120802,120.07968,3.3974828e-07
C1I430,翠華,2026-02-04,24.191961,121.224339,1.4427048e-08
C1M400,菜瓜坪,2026-02-04,23.251928,120.576103,6.132375e-10
C0G730,二林,2026-02-04,23.903325,120.376081,1.5096586e-09
72M360,南改義竹分場,2026-02-04,23.360694,120.279361,4.0258428e-08
V2K620,麥寮合作社,2026-02-04,23.753836,120.294783,1.7067955e-09
C0Z070,舞鶴,2026-02-04,23.46811,121.37407,6.626181e-09
C0B040,大武崙,2026-02-04,25.166676,121.706993,2.7714238e-08
C1Z030,紅葉,2026-02-04,23.493119,121.338806,6.565693e-09
C1I050,丹大,2026-02-04,23.753747,121.141147,1.4620933e-08
C0I080,信義,2026-02-04,23.689694,120.851036,5.671974e-10
C2TB80,庄子底,2026-02-04,23.71794,121.49438,1.976696e-08
C0D750,樂山林道6k,2026-02-04,24.49999,121.08773,1.4507042e-08
C2M920,朴子農改,2026-02-04,23.469889,120.259383,1.2005949e-08
C2A880,福隆,2026-02-04,25.017842,121.942083,3.352886e-08
C0Z160,鳳林,2026-02-04,23.746114,121.453411,1.926451e-08
C0UB80,翠峰林道6K,2026-02-04,24.49773,121.568625,3.2308478e-08
C0V210,復興,2026-02-04,23.222403,120.806089,9.510517e-10
C0H990,昆陽,2026-02-04,24.121322,121.273642,1.9854662e-08
C0R741,獅子,2026-02-04,22.202308,120.705236,0.27906108
C0S710,鹿野,2026-02-04,22.917711,121.122994,3.0503737e-09
C0I530,小奇萊,2026-02-04,24.131764,121.295717,2.1445457e-08
C0FA70,大雪山埡口,2026-02-04,24.26867,121.03062,1.959567e-08
C2K630,荷苞,2026-02-04,23.657717,120.595144,1.1290615e-09
C0Z080,富源,2026-02-04,23.587642,121.378225,2.5417176e-08
C2M9E0,旺來山,2026-02-04,23.555153,120.486463,2.0078885e-09
C0SB10,美和,2026-02-04,22.682078,121.060236,3.6768874e-08
C2K620,馬光農場,2026-02-04,23.721453,120.378864,1.1254451e-09
C1I140,卡奈托灣,2026-02-04,23.754364,121.087872,4.774562e-09
C0I520,玉山風口,2026-02-04,23.470489,120.955994,3.1899383e-08
C1G691,下水埔,2026-02-04,23.816114,120.5676,4.2763078e-09
C0X110,臺南市南區,2026-02-04,22.961189,120.188378,0.00028504495
C0V680,仁武,2026-02-04,22.701083,120.347722,1.3111976e-07
C2G840,北斗,2026-02-04,23.877586,120.514222,1.6322679e-09
C2TB90,長橋,2026-02-04,23.6874,121.46186,1.9216875e-08
C0R900,竹坑,2026-02-04,22.1385,120.7022,0.9155752
C0G860,社頭,2026-02-04,23.897647,120.5862,1.4694089e-09
C0X150,安定,2026-02-04,23.102614,120.227839,8.6632235e-06
C0R590,里港,2026-02-04,22.77919,120.49459,1.2246592e-07
C0E610,馬都安,2026-02-04,24.451272,120.930192,2.0290825e-09
C0E550,明德,2026-02-04,24.583486,120.885411,2.1525277e-09
C0R150,三地門,2026-02-04,22.709889,120.639944,3.3775528e-08
C0G910,花壇,2026-02-04,24.032076,120.549461,8.104143e-10
C1D400,鳥嘴山,2026-02-04,24.71909,121.28387,3.6933328e-09
C0K500,元長,2026-02-04,23.64981,120.315024,2.3816178e-09
C0F0B0,石岡,2026-02-04,24.276061,120.777644,1.380632e-09
C2V250,甲仙,2026-02-04,23.080106,120.591758,1.1756874e-09
C0SA20,金崙山,2026-02-04,22.567419,120.959667,1.4847526e-08
C0V350,溪埔,2026-02-04,22.738578,120.446797,1.7161004e-07
C0M660,溪口,2026-02-04,23.604131,120.403569,1.21525e-08
C1S880,壽卡,2026-02-04,22.238911,120.858903,2.3973453e-07
72D680,桃改新埔分場,2026-02-04,24.834444,121.066111,6.7967982e-09
