站號,站名,日期,lat,lon,BLBTSLS
C0R710,龍磐,2026-01-05,21.931672,120.838942,0.99992776
C1F9D1,白毛台,2026-01-05,24.158325,120.886933,8.887225e-10
C0G940,竹塘,2026-01-05,23.848253,120.386764,1.8842339e-09
467590,恆春,2026-01-05,22.003897,120.746339,0.9921813
C1O850,環湖,2026-01-05,23.148617,120.418633,3.0650343e-10
C0U710,太平山,2026-01-05,24.505486,121.525656,3.3626783e-08
C0E820,獅潭,2026-01-05,24.539133,120.920042,1.05497e-08
C2SD70,二層坪,2026-01-05,22.94105,121.16838,2.763763e-09
C0V880,興達,2026-01-05,22.8778,120.2127,3.3656522e-10
C0S890,關山,2026-01-05,23.0395,121.175017,9.192222e-10
C0SB30,新蘭,2026-01-05,22.869214,121.223228,1.5495132e-07
C2R970,屏科大,2026-01-05,22.648275,120.619247,4.8412363e-10
C1Z130,銅門,2026-01-05,23.965694,121.492842,3.0703016e-09
C0AD40,土城,2026-01-05,24.973208,121.445169,2.0806276e-08
CAN140,六官養殖協會,2026-01-05,23.22881,120.29962,1.0717361e-09
C0X180,山上,2026-01-05,23.0757,120.363253,3.8337525e-10
C0F9Z0,雪山東峰,2026-01-05,24.388792,121.268675,1.9347695e-08
C1M480,獨立山,2026-01-05,23.537022,120.607797,9.905816e-10
C0X220,學甲,2026-01-05,23.230367,120.182187,1.4039181e-09
467650,日月潭,2026-01-05,23.881325,120.90805,2.3895577e-09
A2K570,古坑(花卉中心),2026-01-05,23.633531,120.552392,4.781586e-10
C0K600,箔子寮,2026-01-05,23.6197,120.14,1.0844444e-06
C0G830,埤頭,2026-01-05,23.866003,120.452806,6.838641e-10
C0S950,七塊厝,2026-01-05,22.954453,121.229922,2.6914524e-09
467110,金門,2026-01-05,24.407306,118.289281,0.012022028
C0AH80,深坑,2026-01-05,25.002703,121.628328,6.298603e-08
C0A970,三貂角,2026-01-05,25.007606,122.002058,3.920549e-08
C2D730,寶山農場,2026-01-05,24.732444,120.976153,1.4422068e-08
C0K430,褒忠,2026-01-05,23.690938,120.303634,1.0682647e-09
467480,嘉義,2026-01-05,23.495925,120.432906,8.575434e-10
C0V400,阿公店,2026-01-05,22.804194,120.355528,5.50522e-10
C0E960,觀霧分站,2026-01-05,24.505781,121.113921,1.1801973e-08
467550,玉山,2026-01-05,23.48718,120.95943,2.0728956e-08
C0R440,大漢山,2026-01-05,22.405264,120.753181,1.139292e-08
C0SD30,東清國小,2026-01-05,22.057128,121.564922,0.18285543
C1F9B1,桐林,2026-01-05,24.066172,120.735194,1.0153403e-09
C2H9U0,鳳鵬,2026-01-05,23.763919,120.788061,4.8737747e-10
C0K390,土庫,2026-01-05,23.679029,120.395574,8.440166e-10
C1I450,望鄉山,2026-01-05,23.594153,120.944286,9.359539e-09
C0E910,海埔,2026-01-05,24.648767,120.772435,7.3269945e-08
B2E890,畜試北區分所,2026-01-05,24.527806,120.770972,7.76863e-09
C0R750,四林格山,2026-01-05,22.076989,120.802439,1.6001758e-08
C0F0C0,中坑,2026-01-05,24.248517,120.903319,1.6803148e-09
C1I121,大鞍,2026-01-05,23.678381,120.760017,3.673843e-09
C2G9E0,移民庄,2026-01-05,23.9784,120.40283,2.1861415e-09
72U480,花改蘭陽分場,2026-01-05,24.686306,121.716583,4.397266e-09
C0A770,科教館,2026-01-05,25.096356,121.516507,1.8845512e-08
C0AJ60,六塊厝,2026-01-05,25.24,121.4481,9.490467e-06
C0R620,墾雷,2026-01-05,21.900836,120.855269,0.9998768
467420,永康,2026-01-05,23.038386,120.2367,6.3122596e-10
C2M530,奮起湖,2026-01-05,23.493903,120.699253,2.3544817e-09
C0I410,名間,2026-01-05,23.837053,120.701447,5.30031e-10
A2C560,農工中心,2026-01-05,24.985917,121.239833,6.89154e-07
C0V740,旗山,2026-01-05,22.888614,120.483597,3.0019295e-10
C0Z061,玉里,2026-01-05,23.3215,121.339656,7.0284295e-10
C0S840,南田,2026-01-05,22.279725,120.889208,0.9996846
C1I470,杉林溪,2026-01-05,23.639517,120.786444,3.599364e-09
C1X040,東原,2026-01-05,23.291597,120.463822,4.681899e-10
C0R660,枋寮,2026-01-05,22.367722,120.590647,2.7954974e-10
C1R120,上德文,2026-01-05,22.763272,120.704442,5.863217e-10
C0K450,大埤,2026-01-05,23.646074,120.431537,7.3237877e-10
C0UA00,土場,2026-01-05,24.576533,121.495333,4.1369383e-08
467080,宜蘭,2026-01-05,24.763975,121.756528,4.4663513e-09
C0N030,四草,2026-01-05,23.0235,120.1116,4.954741e-09
467410,臺南,2026-01-05,22.99328,120.20492,4.9153553e-10
C0V650,彌陀,2026-01-05,22.783806,120.246361,6.1404276e-10
C0D660,新竹市東區,2026-01-05,24.798681,120.986942,1.7898306e-07
82S580,茶改東部分場,2026-01-05,22.907694,121.130139,1.1606529e-08
C0SB40,興隆,2026-01-05,22.913661,121.257469,0.90682817
467050,新屋,2026-01-05,25.006725,121.047492,0.56260157
C0C710,大溪永福,2026-01-05,24.892936,121.324975,1.322634e-07
C0FA20,溫寮,2026-01-05,24.372177,120.583125,2.9580423e-08
C0V640,湖內,2026-01-05,22.887139,120.2445,3.3656522e-10
C0R910,下寮,2026-01-05,22.3929,120.5548,4.749573e-10
C0Z020,明里,2026-01-05,23.208717,121.262342,9.539294e-10
C0M770,嘉義梅山,2026-01-05,23.585398,120.555587,3.8754308e-10
C0C660,楊梅,2026-01-05,24.912375,121.143047,5.895344e-07
C0SD40,牛頭山,2026-01-05,22.676661,121.506944,0.98785967
C1E511,新開,2026-01-05,24.347703,120.827019,2.077803e-09
G2F820,農試所(霧峰),2026-01-05,24.031261,120.688133,9.550217e-10
C2M990,大巃頂,2026-01-05,23.5547,120.61439,1.3278751e-09
C1I070,和社,2026-01-05,23.591131,120.888861,1.303208e-09
C2E990,新坪頂,2026-01-05,24.30201,120.8574,1.0472669e-09
C0TA80,立霧山,2026-01-05,24.183258,121.641899,1.169948e-08
C2F000,大肚,2026-01-05,24.15295,120.572117,8.994952e-10
C1S850,豐南,2026-01-05,23.122139,121.262389,9.369323e-10
C2M9B0,西興,2026-01-05,23.2428,120.57617,7.332677e-10
C2A920,富貴角,2026-01-05,25.263783,121.565258,1.1475529e-05
CAH030,茶改場竹圍站,2026-01-05,23.860083,120.637528,7.2517153e-10
C0T960,光復,2026-01-05,23.660694,121.424964,1.8937603e-09
C0F9M0,豐原,2026-01-05,24.254322,120.720692,1.4418156e-09
C0R720,旭海,2026-01-05,22.205403,120.887614,0.912936
C0V710,苓雅,2026-01-05,22.622742,120.330669,1.5800459e-09
C0C740,觀音工業區,2026-01-05,25.064764,121.114856,0.9819971
CAC040,拉拉山,2026-01-05,24.699317,121.427133,8.887335e-08
C0V790,萬山,2026-01-05,22.905944,120.688056,7.602458e-10
U2HA30,臺大和社,2026-01-05,23.590856,120.888864,1.303208e-09
C2H9K0,屯原,2026-01-05,24.067969,121.209389,5.7838023e-09
C0AJ90,澳底,2026-01-05,25.0552,121.9253,4.6594536e-08
C0Z100,東華,2026-01-05,23.89525,121.549833,1.5345792e-09
C0G970,三豐,2026-01-05,23.882,120.2895,0.9312916
V2K610,大庄合作社,2026-01-05,23.8068,120.367939,1.3402311e-09
C0V900,汕尾,2026-01-05,22.4782,120.4151,2.0289187e-10
C1R630,龍泉,2026-01-05,22.66701,120.59091,4.8412363e-10
C1AC50,關渡,2026-01-05,25.133486,121.469331,6.310688e-08
C0C800,四稜,2026-01-05,24.64733,121.4293,7.0744875e-08
C0F9I0,神岡,2026-01-05,24.272481,120.658314,1.7931128e-09
C0K460,斗南,2026-01-05,23.678734,120.478359,7.3237877e-10
C2O810,曾文,2026-01-05,23.219681,120.497328,4.3159157e-10
467280,後龍,2026-01-05,24.648563,120.831834,5.9968976e-08
C1F9J1,清水林,2026-01-05,24.071242,120.820419,9.934292e-10
C2A650,火燒寮,2026-01-05,25.002719,121.742892,2.2803444e-07
466930,竹子湖,2026-01-05,25.162078,121.544547,4.725586e-08
C1I220,樟湖,2026-01-05,23.905333,120.846983,2.8743905e-09
C0I390,仁愛,2026-01-05,24.022122,121.132206,1.981814e-09
C0Z300,東里,2026-01-05,23.26853,121.30547,7.180462e-10
C1V590,新發,2026-01-05,23.057019,120.646064,8.7000335e-10
C0K510,水林,2026-01-05,23.572924,120.24597,1.1151671e-09
72S590,東改賓朗果園,2026-01-05,22.813889,121.071278,7.750958e-09
82A750,茶改北部分場,2026-01-05,24.955778,121.631222,1.265197e-07
C1A750,石碇服務區,2026-01-05,25.00872,121.646242,1.0478092e-07
C0X300,鹿寮,2026-01-05,23.386047,120.477331,5.18322e-10
G2AI50,關渡,2026-01-05,25.11575,121.492,2.113941e-08
C0K590,雲林東勢,2026-01-05,23.674192,120.255721,9.405473e-10
C2K310,港尾布雞,2026-01-05,23.74834,120.38439,7.876979e-10
C0A570,桶後,2026-01-05,24.848222,121.597992,1.0994674e-07
C1S800,華源,2026-01-05,22.657883,121.02325,0.025332578
C0G720,溪州,2026-01-05,23.851589,120.499093,6.838641e-10
C1V160,達卡努瓦,2026-01-05,23.279811,120.705319,1.6534375e-09
C2M410,馬頭山,2026-01-05,23.324361,120.582017,3.4208647e-10
C0V850,蚵仔寮,2026-01-05,22.7256,120.2527,6.4657973e-10
C0S740,池上,2026-01-05,23.119628,121.209469,8.3728546e-10
C1V390,尖山,2026-01-05,22.813153,120.367789,5.50522e-10
C0AH70,松山,2026-01-05,25.04871,121.55042,1.8845512e-08
C0N010,鯤鯓國小,2026-01-05,23.1879,120.0889,1.797945e-09
C0R550,新埤,2026-01-05,22.467947,120.582894,2.743677e-10
C0SA60,知本（水試所）,2026-01-05,22.702394,121.082761,0.5712421
C0T9I0,豐濱,2026-01-05,23.583897,121.514806,8.047275e-10
C0UB00,淡江大學蘭陽校園,2026-01-05,24.823239,121.730383,3.655985e-08
C0W240,九宮,2026-01-05,24.423753,118.240186,0.0008831856
C0T9N0,富里,2026-01-05,23.171639,121.249378,9.896166e-10
U2HA50,臺大竹山,2026-01-05,23.756972,120.681556,4.5244214e-10
C0V840,鳳鼻頭,2026-01-05,22.5083,120.3591,2.0117977e-10
C0X140,西港,2026-01-05,23.125608,120.203108,6.9765804e-10
72D080,桃改五峰分場,2026-01-05,24.612194,121.157167,1.9272854e-08
C2H9P0,伊拿谷,2026-01-05,23.963211,121.088264,1.3083336e-09
C2K250,崙背,2026-01-05,23.75553,120.31893,1.0682647e-09
C2H9F0,柑林,2026-01-05,24.018658,120.847072,6.6303874e-10
C0TA20,加灣,2026-01-05,24.082025,121.608944,9.645892e-09
C0V530,阿蓮,2026-01-05,22.883208,120.327508,5.610686e-10
C0FB30,八仙山苗圃,2026-01-05,24.192719,121.001366,1.5806729e-09
C1O880,關山,2026-01-05,23.173397,120.594092,3.2710243e-10
C0E791,卓蘭,2026-01-05,24.3126,120.8244,2.1897806e-09
C1I030,武界,2026-01-05,23.913225,121.052483,1.4445874e-09
C0R520,崁頂,2026-01-05,22.514781,120.506914,2.7702057e-10
C0R341,牡丹,2026-01-05,22.130036,120.792639,1.1901627e-06
C0R930,萬丹,2026-01-05,22.5885,120.4851,2.418923e-10
C0S760,紅石,2026-01-05,23.069131,121.126219,1.0845581e-08
C2C410,中央大學,2026-01-05,24.967652,121.185165,6.8915466e-07
C1M610,石磐龍,2026-01-05,23.496606,120.663506,1.7096822e-09
C0C790,東眼山,2026-01-05,24.8284,121.40888,1.515521e-07
C0UA10,鴛鴦湖,2026-01-05,24.590269,121.412228,6.6904946e-08
V2C260,八德蔬果,2026-01-05,24.978508,121.281819,1.2653284e-07
C0R800,丹路,2026-01-05,22.204481,120.750989,9.82315e-06
C0G920,永靖,2026-01-05,23.924703,120.547533,6.458365e-10
C2M950,太和,2026-01-05,23.538372,120.702961,2.3039708e-09
C1A630,下盆,2026-01-05,24.771003,121.538622,9.308163e-08
B2N890,畜產試驗所,2026-01-05,23.058972,120.336406,7.24519e-10
C0UA30,白嶺,2026-01-05,24.527819,121.519031,4.169385e-08
467571,新竹,2026-01-05,24.828575,121.01455,6.5475083e-06
C1V580,溪南(特生中心),2026-01-05,23.084972,120.788475,3.078523e-09
C1T970,大農,2026-01-05,23.615233,121.413331,2.024096e-09
C0R650,竹田,2026-01-05,22.58486,120.54344,3.6595252e-10
C1H900,清流,2026-01-05,24.080775,120.962997,1.0585048e-09
C1C510,水尾,2026-01-05,24.940081,121.087161,0.00013810888
C2N170,茅港尾,2026-01-05,23.2061,120.2624,1.0717341e-09
C0F9X0,大雅(中科園區),2026-01-05,24.21528,120.62445,1.3033944e-09
C0SB60,白守蓮,2026-01-05,23.126769,121.401914,4.2364627e-09
C0O970,虎頭埤,2026-01-05,23.021375,120.347878,4.5225576e-10
C0C730,中大臨海站,2026-01-05,24.966126,121.008581,0.032147054
C0X250,新營,2026-01-05,23.310689,120.316681,1.1745824e-09
C0V700,三民,2026-01-05,22.645017,120.311233,5.4013376e-09
C0U870,大礁溪,2026-01-05,24.791042,121.675047,2.5418291e-08
C0E870,高鐵苗栗,2026-01-05,24.60725,120.826094,5.9968976e-08
A2K570,古坑花卉中心,2026-01-05,23.63353,120.55239,6.168251e-09
C0TA30,鹽寮,2026-01-05,23.845606,121.592664,1.535235e-09
C0M860,新美,2026-01-05,23.338017,120.683169,9.769908e-10
C1E701,八卦,2026-01-05,24.491756,120.927619,1.0511858e-08
C2TA90,加納納,2026-01-05,23.466421,121.359867,8.10906e-10
C0I420,國姓,2026-01-05,24.037803,120.855072,6.8911593e-10
C2D720,關西工作站,2026-01-05,24.757275,121.184792,9.537409e-08
C0S960,香蘭,2026-01-05,22.587569,120.993375,2.1861624e-09
467620,蘭嶼,2026-01-05,22.0369,121.55843,0.93068016
C0R260,春日,2026-01-05,22.370361,120.628306,2.680365e-10
72G600,臺中農改場,2026-01-05,24.003028,120.534389,6.2304434e-10
C0Z210,瑞穗,2026-01-05,23.5239,121.39021,1.3083685e-09
C0M820,達邦,2026-01-05,23.453994,120.749517,1.3196693e-09
C0V860,南寮,2026-01-05,22.7616,120.2339,6.1309013e-10
C0G740,大城,2026-01-05,23.852487,120.320935,0.9312916
C0R920,塭仔,2026-01-05,22.4169,120.5197,4.749573e-10
C0R470,高樹,2026-01-05,22.826389,120.600806,2.5022856e-10
C0R680,佳樂水,2026-01-05,21.993578,120.861633,0.99992776
C1O870,大棟山,2026-01-05,23.31157,120.52226,2.7358764e-09
C0D360,梅花,2026-01-05,24.678347,121.208558,2.0520073e-08
C0Z190,富世,2026-01-05,24.14743,121.6297,2.296141e-08
C0AI10,屈尺,2026-01-05,24.92184,121.54475,1.9973625e-08
B2U990,畜試東區分所,2026-01-05,24.669039,121.832561,6.0463736e-09
C0SB80,長濱漁港,2026-01-05,23.313644,121.459994,6.056713e-10
C0TA50,和仁,2026-01-05,24.241394,121.712472,9.879154e-10
C0V910,大樹,2026-01-05,22.684645,120.432803,5.537709e-10
C1R610,西大武山,2026-01-05,22.617719,120.7322,5.293604e-09
C0G900,線西,2026-01-05,24.143358,120.443536,3.3489536e-09
C0M700,竹崎,2026-01-05,23.526178,120.555508,3.399135e-10
C2E880,三義,2026-01-05,24.405478,120.749819,6.93736e-09
C0C720,竹圍,2026-01-05,25.112692,121.239824,0.00013318003
C0F9P0,清水,2026-01-05,24.312297,120.562242,1.00586295e-08
C0Z150,吉安光華,2026-01-05,23.930925,121.595153,3.5668604e-09
C0FA80,小雪山天池,2026-01-05,24.28025,121.02627,1.7523984e-08
467300,東吉島,2026-01-05,23.25727,119.66762,0.9945982
C1D640,外坪(五指山),2026-01-05,24.644447,121.090961,1.6860689e-08
C2R9A0,高士國小,2026-01-05,22.12553,120.84653,1.1901627e-06
C0F9O0,潭子,2026-01-05,24.213106,120.703933,1.4418156e-09
C2H9R0,卓社,2026-01-05,23.887894,121.000086,2.5333482e-09
72T250,花蓮農改場,2026-01-05,23.975222,121.563889,3.490114e-09
C0E780,銅鑼,2026-01-05,24.489681,120.790853,7.76863e-09
C1T950,太安,2026-01-05,23.666719,121.370128,1.2985067e-08
C0E830,苑裡,2026-01-05,24.439714,120.653053,1.8985119e-07
467270,田中,2026-01-05,23.873803,120.581286,7.892861e-10
C0SA10,檳榔四格山,2026-01-05,22.810031,121.109308,5.1927023e-09
C1T830,布洛灣,2026-01-05,24.17184,121.57127,1.8352267e-08
C0F970,大坑,2026-01-05,24.173142,120.722289,1.3513767e-09
C1U920,思源,2026-01-05,24.393125,121.347214,2.4156888e-08
C2H9Y0,松茗,2026-01-05,23.8167,120.650765,5.522879e-10
C0A931,三和,2026-01-05,25.233153,121.595236,3.6316706e-07
C0I010,廬山,2026-01-05,24.033311,121.181808,3.8190704e-09
C2M940,日野賀,2026-01-05,23.434056,120.727169,2.020979e-09
C0R860,鼻頭,2026-01-05,22.1043,120.8979,0.9999262
C0UB20,壯圍,2026-01-05,24.7359,121.8163,4.238726e-09
C0R790,九棚,2026-01-05,22.14195,120.889281,0.09643827
C0W110,東莒,2026-01-05,25.9652,119.98069,0.10675019
C1U930,粉鳥林,2026-01-05,24.497088,121.842479,4.5240354e-09
C1I211,蘆竹湳,2026-01-05,23.934019,120.811994,1.3044564e-09
C0S830,長濱,2026-01-05,23.286817,121.411975,8.1905904e-10
C1F9F1,伯公龍,2026-01-05,24.272392,120.849047,7.694979e-10
C0UB90,太平山莊,2026-01-05,24.494171,121.536209,3.3883286e-08
C0E810,西湖,2026-01-05,24.562947,120.7485,0.9338393
C1I440,新高口,2026-01-05,23.478744,120.878939,6.86892e-09
C0O840,王爺宮,2026-01-05,23.222064,120.40085,8.6195784e-10
C0T9G0,鳳林山,2026-01-05,23.735269,121.420131,8.394062e-09
C0X080,佳里,2026-01-05,23.173039,120.145086,1.5417319e-09
C0FB70,大甲溪埔,2026-01-05,24.370625,120.620067,2.9580423e-08
C0Z310,清水斷崖,2026-01-05,24.218294,121.689142,1.0240104e-09
C0M680,太保,2026-01-05,23.455062,120.331455,8.1600904e-10
C1S820,金峰,2026-01-05,22.590969,120.933236,1.9376787e-09
C0AD10,八里,2026-01-05,25.150211,121.403947,9.504397e-06
C2K240,草嶺,2026-01-05,23.59555,120.693461,1.6373848e-09
C1SA70,都蘭,2026-01-05,22.87794,121.226881,9.121131e-08
C0K440,二崙,2026-01-05,23.772797,120.408944,7.493077e-10
C1A760,坪林交控,2026-01-05,24.94284,121.713442,3.205632e-07
C0F9N0,大里,2026-01-05,24.092464,120.701378,1.0129262e-09
C0SA90,達仁林場,2026-01-05,22.264347,120.823972,1.5961005e-08
C1R290,石門山,2026-01-05,22.112611,120.756597,1.14306786e-07
42HA10,萬大發電廠,2026-01-05,23.978875,121.139639,1.5986039e-09
C0R890,山海,2026-01-05,21.9878,120.7091,0.9921813
C0T9A0,月眉山,2026-01-05,23.809928,121.539828,2.1168693e-09
C0AC70,信義,2026-01-05,25.037822,121.564597,2.0625547e-08
C0K560,棋山,2026-01-05,23.68645,120.603417,4.3195558e-10
C2FB50,出雲,2026-01-05,24.206469,120.902794,2.1893796e-09
C1Z240,中平林道,2026-01-05,23.42115,121.26763,1.3592358e-08
U2H480,溪頭,2026-01-05,23.670306,120.798194,2.213823e-09
C0M880,好美里,2026-01-05,23.3364,120.138,1.1541247e-09
C0T9E0,大坑,2026-01-05,23.880628,121.581981,3.2107517e-09
C0K530,臺西,2026-01-05,23.701547,120.197559,1.7026024e-06
C1E900,國一N128K,2026-01-05,24.560997,120.844186,1.1231532e-08
C0AJ50,水湳洞,2026-01-05,25.123695,121.862238,4.5526722e-08
C0AI20,白沙灣,2026-01-05,25.283128,121.519058,0.00059677113
C2V310,美濃,2026-01-05,22.898792,120.51907,3.0019295e-10
C0A860,大坪,2026-01-05,25.165914,121.632969,1.02695694e-07
C1U850,觀音海岸,2026-01-05,24.38319,121.77856,2.9017846e-09
C2K610,草嶺石壁,2026-01-05,23.602469,120.707731,1.7048303e-09
C0U950,鶯子嶺,2026-01-05,24.89754,121.79244,6.6163075e-08
C0O900,善化,2026-01-05,23.112883,120.297219,7.24519e-10
C0K550,蔦松,2026-01-05,23.514319,120.229736,1.2819396e-09
E2P980,林試六龜中心,2026-01-05,22.991703,120.645722,7.766108e-10
C0E590,通霄,2026-01-05,24.471892,120.704622,0.3187528
C1I310,西巒,2026-01-05,23.754486,120.883956,2.9629026e-09
C0A550,泰平,2026-01-05,24.971197,121.823711,1.0936884e-07
C0I360,水里,2026-01-05,23.812553,120.849792,6.131498e-10
C0R830,高士,2026-01-05,22.121825,120.836781,5.0773718e-08
C1I101,溪頭,2026-01-05,23.661789,120.807647,4.2610173e-09
C0AJ20,野柳,2026-01-05,25.20703,121.690021,2.2255753e-07
C0B060,暖暖,2026-01-05,25.0957,121.7403,1.299103e-07
C1H920,長豐,2026-01-05,24.102039,120.879897,1.0332275e-09
C2S9B0,利吉,2026-01-05,22.86246,121.15486,1.1606529e-08
C0V360,內門,2026-01-05,22.975481,120.466769,3.0983616e-10
C0R850,林邊,2026-01-05,22.4634,120.5339,6.933031e-10
C0E930,龍鳳,2026-01-05,24.700034,120.859125,0.0242349
C0U910,冬山,2026-01-05,24.63373,121.7937,6.0463736e-09
C1E721,泰安,2026-01-05,24.489017,120.968036,7.6123e-09
82H320,茶改中部分場,2026-01-05,23.875611,120.913583,1.9144613e-09
C0M750,布袋,2026-01-05,23.380878,120.167789,2.8733327e-09
C1S860,利嘉,2026-01-05,22.809417,121.050528,2.5071025e-09
E2S980,林試太麻里1,2026-01-05,22.598922,120.980044,2.0265838e-09
C0X170,關廟,2026-01-05,22.963017,120.327797,4.709781e-10
C0V720,林園,2026-01-05,22.507747,120.394511,2.0671605e-10
C1I510,線浸林道,2026-01-05,23.761508,120.832956,3.7408054e-09
C0D690,外湖,2026-01-05,24.917735,120.968711,0.99929446
C0C750,新興坑尾,2026-01-05,25.0061,121.0971,0.019857017
B2Q810,畜試南區分所,2026-01-05,21.945583,120.802167,0.99992776
C0S790,金崙,2026-01-05,22.538122,120.966875,2.4288365e-09
C0AH90,福山植物園,2026-01-05,24.760717,121.58135,8.790163e-08
C0I540,奇萊稜線,2026-01-05,24.109231,121.326456,2.3057963e-08
C0M850,表湖,2026-01-05,23.24186,120.64166,7.412281e-10
C0S770,大溪山,2026-01-05,22.478475,120.943325,2.6036049e-09
C0AG80,中和,2026-01-05,24.991622,121.491792,2.0806276e-08
C0T790,大禹嶺,2026-01-05,24.186117,121.316086,1.3842346e-08
C0T9B0,水源,2026-01-05,23.991861,121.537169,5.7752043e-09
C0R840,牡丹池山,2026-01-05,22.168389,120.841225,8.954869e-08
C1I131,桶頭,2026-01-05,23.641944,120.654117,4.2380768e-10
CAL110,布袋國中,2026-01-05,23.35893,120.18026,1.1541247e-09
C2M9D0,何竹子腳,2026-01-05,23.53641,120.38203,8.575434e-10
467571,新竹,2026-01-05,24.827853,121.014219,6.5475083e-06
C0Z290,赤柯山,2026-01-05,23.36893,121.38293,7.1655526e-09
C0X280,將軍,2026-01-05,23.214999,120.13577,1.4504876e-09
C0S690,太麻里,2026-01-05,22.60902,120.98533,2.3752393e-09
C0U880,北關,2026-01-05,24.9072,121.8734,1.2370371e-07
CAW010,東引,2026-01-05,26.3588,120.4836,0.042475466
C0G810,埔心,2026-01-05,23.947633,120.525456,6.458365e-10
C0U970,大福,2026-01-05,24.80064,121.81389,4.4663513e-09
C2H9N0,仁愛東眼,2026-01-05,24.026875,121.1205,2.9252354e-09
C1E670,南礦,2026-01-05,24.538278,121.002836,1.15944925e-08
C0M520,東後寮,2026-01-05,23.369908,120.248065,7.0264994e-10
C1E461,松安,2026-01-05,24.397972,120.986022,3.333849e-09
C2N160,西拉雅風管處,2026-01-05,23.189481,120.335297,8.37835e-10
C2M970,碧湖,2026-01-05,23.568632,120.624165,1.3172149e-09
C0A640,石碇,2026-01-05,24.993969,121.662917,3.205632e-07
E2S960,林試太麻里2,2026-01-05,22.598,120.99775,2.1896929e-09
C0F9Y0,桃山,2026-01-05,24.432739,121.303808,2.7282123e-08
C1I020,萬大,2026-01-05,23.979817,121.132261,2.0045976e-09
C2UC20,長嶺,2026-01-05,24.70894,121.61162,2.1474069e-08
C0U940,羅東,2026-01-05,24.68184,121.74934,4.397266e-09
C0M650,朴子,2026-01-05,23.43463,120.23902,8.208999e-10
C1I500,大尖山,2026-01-05,23.858572,120.994889,4.2945354e-09
C0FB40,中橫21.6k,2026-01-05,24.2499,121.1455,3.147203e-09
C0G820,田尾,2026-01-05,23.901669,120.509389,6.458365e-10
E2K600,四湖植物園,2026-01-05,23.676986,120.163433,3.5112794e-07
C0S730,綠島,2026-01-05,22.6672,121.47533,0.9900974
12Q970,東港工作站,2026-01-05,22.479997,120.466058,6.933031e-10
C1TA00,太魯閣,2026-01-05,24.15773,121.6236,2.1581565e-08
466920,臺北,2026-01-05,25.037658,121.514853,1.8845512e-08
C0R600,舊泰武,2026-01-05,22.588194,120.664944,5.533919e-10
C1I260,北坑,2026-01-05,23.9246,121.006903,7.7763945e-10
466910,鞍部,2026-01-05,25.182586,121.529731,1.2053749e-07
C1I230,九份二山,2026-01-05,23.961944,120.845,1.6420166e-09
C2M810,里佳,2026-01-05,23.389125,120.716647,2.9544491e-09
C2A660,瑞芳,2026-01-05,25.113169,121.801147,1.5457731e-07
C0R270,琉球嶼,2026-01-05,22.332244,120.362236,4.301807e-09
C2V580,瑞山,2026-01-05,22.90304,120.43424,3.9241732e-10
C1T990,高寮,2026-01-05,23.394239,121.356808,6.4854605e-10
C0G620,芬園,2026-01-05,24.015678,120.6213,9.093781e-10
C1Z140,荖溪,2026-01-05,23.890575,121.45964,1.5866485e-08
C1I201,中心崙,2026-01-05,23.728722,120.712097,8.392985e-10
C1I400,凌霄,2026-01-05,24.018778,121.004456,3.0594987e-09
C1M640,十字,2026-01-05,23.492153,120.753683,3.2755458e-09
G2P820,農試鳳山分所,2026-01-05,22.646611,120.356083,1.5800459e-09
C0Z270,蕃薯寮,2026-01-05,23.73835,121.540108,1.9737527e-09
C2E420,竹南,2026-01-05,24.70898,120.88897,0.0242349
C0FB10,出雲山苗圃,2026-01-05,24.23105,120.90475,1.6797764e-09
C0F9Q0,外埔,2026-01-05,24.347817,120.705686,3.0091138e-09
C0K580,高鐵雲林,2026-01-05,23.737456,120.417944,7.876979e-10
C2I090,鳳凰,2026-01-05,23.728081,120.787347,1.4626644e-09
C0U990,員山,2026-01-05,24.74435,121.72247,4.397266e-09
C0V770,大社,2026-01-05,22.730306,120.346639,1.23006e-09
C0X120,麻豆,2026-01-05,23.183289,120.248611,9.26036e-10
C0C670,龍潭,2026-01-05,24.870056,121.221389,2.566397e-07
C0D680,香山濕地,2026-01-05,24.783581,120.914988,0.9992951
C0S980,勝林山,2026-01-05,22.430439,120.8938,5.4544995e-09
C0V730,大寮,2026-01-05,22.605614,120.395717,1.5800459e-09
C0R570,麟洛,2026-01-05,22.65078,120.52719,2.6021937e-10
C2M930,石卓,2026-01-05,23.478744,120.702264,3.1919267e-09
C0G9B0,和美,2026-01-05,24.105169,120.492131,2.5582871e-09
CAG100,王功漁港,2026-01-05,23.96824,120.32586,0.9737246
C0X290,北門,2026-01-05,23.267772,120.125481,1.4504876e-09
C2F930,大甲,2026-01-05,24.347667,120.640403,2.9580423e-08
C0D650,湖口,2026-01-05,24.904794,121.043628,0.00013810888
C0U780,五結,2026-01-05,24.68637,121.79794,6.0463736e-09
C1I250,鯉潭,2026-01-05,23.961922,120.991131,9.862944e-10
C0R130,阿禮,2026-01-05,22.742908,120.743678,7.7615614e-10
C0X100,臺南市北區,2026-01-05,23.010394,120.194228,4.9153553e-10
C0S920,金峰嘉蘭,2026-01-05,22.594789,120.960825,1.9969997e-09
C0V490,新興,2026-01-05,22.627422,120.298803,1.0097092e-08
C0F9K0,大安,2026-01-05,24.345061,120.588025,2.9580423e-08
467290,古坑,2026-01-05,23.633639,120.551889,4.781586e-10
C2E970,八甲,2026-01-05,24.535811,120.795983,1.1231532e-08
C0V440,鳳山,2026-01-05,22.646653,120.356122,1.5800459e-09
C1T940,大觀,2026-01-05,23.714206,121.373133,3.0196872e-09
C0E740,造橋,2026-01-05,24.637056,120.864778,5.9968976e-08
C0R100,尾寮山,2026-01-05,22.833111,120.683889,8.8583196e-10
A2K630,臺大雲林校區,2026-01-05,23.730628,120.423903,7.876979e-10
467990,馬祖,2026-01-05,26.169467,119.923158,3.1783114e-07
C0D580,寶山,2026-01-05,24.735006,121.025192,1.801279e-08
E2P990,林試扇平站,2026-01-05,22.9677,120.6857,8.8107166e-10
C0AI30,三重,2026-01-05,25.057328,121.500629,1.8845512e-08
C0AH00,汐止,2026-01-05,25.066881,121.658778,1.3542666e-07
C1Z040,立山,2026-01-05,23.443356,121.327375,4.551637e-09
466881,新北,2026-01-05,24.959207,121.525196,2.08363e-08
C0W130,花嶼,2026-01-05,23.40007,119.32276,0.97287476
C0A950,鼻頭角,2026-01-05,25.129036,121.923372,4.6594536e-08
C0K470,林內,2026-01-05,23.748675,120.609642,4.3195558e-10
C2F990,摩天嶺,2026-01-05,24.322458,120.936819,1.785996e-09
C2E430,南庄,2026-01-05,24.601775,121.000214,9.303652e-09
82C160,茶改場,2026-01-05,24.908472,121.185333,5.895344e-07
C2TB60,南安,2026-01-05,23.29818,121.26157,7.609552e-10
C0Z320,清水林道,2026-01-05,23.27125,121.188272,4.765264e-09
C0R760,南仁湖,2026-01-05,22.084681,120.863353,1.14306786e-07
C0M670,大林,2026-01-05,23.600616,120.45841,9.358928e-10
C0M800,茶山,2026-01-05,23.299075,120.664767,7.912652e-10
C0A9C0,天母,2026-01-05,25.117494,121.537169,2.0276287e-08
72K220,南改斗南分場,2026-01-05,23.634556,120.477333,7.3237877e-10
72AI40,桃改樹林分場,2026-01-05,24.944503,121.386972,2.199388e-08
C0S910,蘭嶼燈塔,2026-01-05,22.081197,121.503117,0.10707926
C0B050,八斗子,2026-01-05,25.144754,121.79167,2.4395285e-07
C0U900,內城,2026-01-05,24.71813,121.68766,4.2488275e-09
C0X320,柳營,2026-01-05,23.253328,120.375253,8.6195784e-10
C0M790,新港,2026-01-05,23.553269,120.345728,8.665438e-10
C0F9T0,西屯,2026-01-05,24.179494,120.641275,1.3033944e-09
C0E950,松安,2026-01-05,24.39792,120.98599,3.333849e-09
C0SA30,都歷,2026-01-05,23.020333,121.323642,0.849845
C0C620,蘆竹,2026-01-05,25.084275,121.265767,8.735834e-06
C0R730,大坪頂,2026-01-05,22.024633,120.69355,0.5025397
C0AJ40,石門,2026-01-05,25.273672,121.601198,2.0520798e-05
C0E750,苗栗,2026-01-05,24.564569,120.824575,1.1231532e-08
C0T870,鯉魚潭,2026-01-05,23.935639,121.508944,3.098428e-09
C1V170,排雲,2026-01-05,23.463619,120.954147,1.7632447e-08
C2H950,中寮,2026-01-05,23.884447,120.766406,5.317443e-10
C0R350,貓鼻頭,2026-01-05,21.921774,120.7358,0.9908501
C0V660,岡山,2026-01-05,22.797078,120.294958,6.0964556e-10
C1H941,雙冬,2026-01-05,23.967378,120.802189,1.1642087e-09
C0AJ70,田寮,2026-01-05,25.2698,121.4886,0.0009933335
C0AI00,五股,2026-01-05,25.07445,121.42728,1.7282204e-08
C0Z280,德武,2026-01-05,23.47426,121.41071,7.83462e-10
C2RA10,大新,2026-01-05,22.67558,120.57788,4.8412363e-10
C0R700,枋山,2026-01-05,22.246844,120.661086,0.9190547
C0C460,復興,2026-01-05,24.820208,121.352281,2.4246702e-07
C2K300,鹿南,2026-01-05,23.63855,120.3636,8.440166e-10
E2H360,蓮華池,2026-01-05,23.918333,120.885278,1.1237549e-09
C0M640,中埔,2026-01-05,23.42538,120.5229,3.5673076e-10
C0W140,金沙,2026-01-05,24.488292,118.408778,0.004346542
C2A540,四堵,2026-01-05,24.8926,121.745736,9.28729e-08
C0ACA0,新莊,2026-01-05,25.051478,121.446756,2.115962e-08
C0R220,潮州,2026-01-05,22.534361,120.54,2.7702057e-10
U2HA40,臺大內茅埔,2026-01-05,23.689722,120.851117,8.460974e-10
467490,臺中,2026-01-05,24.145736,120.684075,1.3513767e-09
C0UB60,明池,2026-01-05,24.650688,121.475277,9.824519e-08
C0U960,翠峰湖,2026-01-05,24.510856,121.608044,3.29845e-08
E2HA20,林試畢祿溪站,2026-01-05,24.226944,121.308522,7.8672695e-09
C2M9A0,大華,2026-01-05,23.4824,120.67491,1.5399303e-09
C0V890,前鎮,2026-01-05,22.5718,120.3117,2.5162765e-09
C1F941,雪嶺,2026-01-05,24.280586,121.026642,1.7523984e-08
C2H9E0,國姓南港,2026-01-05,23.911108,120.846556,3.0125136e-09
C0AC80,文山,2026-01-05,25.00235,121.575728,6.48052e-08
C0F9R0,龍井,2026-01-05,24.184536,120.528972,5.289486e-09
C0M760,民雄,2026-01-05,23.551754,120.428457,9.358928e-10
C0UA40,西德山,2026-01-05,24.560647,121.752608,4.1623448e-08
C2TA70,赤科坪,2026-01-05,23.39885,121.39168,7.0533446e-09
C1T920,中興,2026-01-05,23.769503,121.498653,1.2766008e-09
C0D550,雪霸,2026-01-05,24.526972,121.11605,9.217949e-09
C2F860,梨山,2026-01-05,24.247522,121.243669,1.1434698e-08
C0R320,車城,2026-01-05,22.0744,120.716247,0.9951455
C1S870,南美山,2026-01-05,23.15025,121.382333,2.5093463e-09
C0B020,基隆嶼,2026-01-05,25.19141,121.78391,2.2213258e-07
C1U501,牛鬥,2026-01-05,24.637836,121.573656,4.5821437e-08
C0M730,嘉義市東區,2026-01-05,23.457673,120.460531,3.4910708e-10
C2R990,泰武,2026-01-05,22.60686,120.69765,1.5134844e-09
C0S700,知本,2026-01-05,22.684866,121.005642,1.6582696e-09
C1N001,沙崙,2026-01-05,22.935472,120.309406,4.709781e-10
C0V760,橋頭,2026-01-05,22.757806,120.30575,1.23006e-09
C0G960,福寶,2026-01-05,24.0443,120.3814,2.5642912e-09
C0X210,白河,2026-01-05,23.347466,120.414427,5.18322e-10
C0S810,東河,2026-01-05,22.972672,121.303986,0.502975
C2R170,屏東,2026-01-05,22.66027,120.49403,2.6021937e-10
C0R670,楓港,2026-01-05,22.190131,120.692156,0.9952837
C0FA50,霧峰,2026-01-05,24.0419,120.6995,1.0129262e-09
C0UB10,蘇澳,2026-01-05,24.5969,121.8571,5.99757e-09
C0G950,防潮門,2026-01-05,24.1835,120.4871,3.2927845e-09
C0M740,六腳,2026-01-05,23.492871,120.290625,8.32945e-10
C1R250,力里,2026-01-05,22.428117,120.629228,2.6209027e-10
C0K330,虎尾,2026-01-05,23.719183,120.442036,7.876979e-10
C2FA00,烏石坑,2026-01-05,24.273503,120.947617,1.7634555e-09
C0V620,永安,2026-01-05,22.82315,120.236856,6.0964556e-10
C1I330,楓樹林,2026-01-05,23.986803,121.076117,2.2904887e-09
C0W200,湖西,2026-01-05,23.596314,119.67275,0.92343646
72Q010,高雄農改場,2026-01-05,22.709333,120.525889,2.4339364e-10
C0SA40,瑞和,2026-01-05,22.974361,121.156697,2.763763e-09
C0C680,龜山,2026-01-05,25.02846,121.38656,1.6660696e-08
C2V260,月眉,2026-01-05,22.971003,120.539853,2.7575853e-10
C0V450,鳳森,2026-01-05,22.545064,120.392592,2.0671605e-10
C0FA90,小雪山林道,2026-01-05,24.29515,121.03651,2.2500467e-08
C0U720,南山,2026-01-05,24.43742,121.38167,3.8263565e-08
A2N290,臺南蘭花園區,2026-01-05,23.340258,120.379661,6.5007927e-10
C0R560,新園,2026-01-05,22.5434,120.461558,2.0671645e-10
C0U890,三星,2026-01-05,24.66812,121.65302,4.524769e-09
C1V300,御油山,2026-01-05,23.001983,120.715364,2.9553622e-09
C0U600,礁溪,2026-01-05,24.817539,121.765608,4.4663513e-09
C1T980,龍澗,2026-01-05,24.023289,121.411328,2.3994284e-08
C0D670,海天一線,2026-01-05,24.831986,120.914438,0.9993951
C0SA00,歷坵,2026-01-05,22.520969,120.89185,2.7451126e-09
C0M710,東石,2026-01-05,23.458927,120.15385,2.8366742e-09
C0M780,鹿草,2026-01-05,23.41134,120.30835,8.208999e-10
C0U520,雙連埤,2026-01-05,24.753033,121.641303,2.1858423e-08
C0B010,七堵,2026-01-05,25.094819,121.71713,2.0525636e-07
C0R480,長治,2026-01-05,22.693128,120.542622,5.341779e-10
C1V830,國三S383K,2026-01-05,22.781967,120.426475,4.6079413e-10
12Q980,恆春工作站,2026-01-05,22.079678,120.714425,0.9951455
C1O940,東山服務區,2026-01-05,23.286016,120.398472,6.5007927e-10
C1U840,東澳嶺,2026-01-05,24.5378,121.8485,2.1068848e-08
C1D630,飛鳳山,2026-01-05,24.766464,121.119178,2.1195934e-08
C0S940,石寧山,2026-01-05,23.223772,121.406639,3.1467349e-09
C0K410,北港,2026-01-05,23.573957,120.292802,1.1151671e-09
C2M620,瑞里,2026-01-05,23.545133,120.675197,1.7096822e-09
C0SB70,小港漁港,2026-01-05,23.158558,121.400431,4.097046e-09
C2O950,安南,2026-01-05,23.076694,120.144861,4.108502e-09
C0F0E0,南湖圈谷,2026-01-05,24.363714,121.444667,2.5775272e-08
467610,成功,2026-01-05,23.097486,121.373428,3.0354826e-08
C0G890,伸港,2026-01-05,24.148933,120.484403,3.2927845e-09
C2E540,龍溪,2026-01-05,24.606489,120.783933,1.1231532e-08
C1V200,梅山,2026-01-05,23.268447,120.823556,1.1223411e-09
C0T9H0,加路蘭山,2026-01-05,23.682947,121.5274,4.1495407e-09
C2O930,玉井,2026-01-05,23.126042,120.46055,3.0650343e-10
C1F911,新伯公,2026-01-05,24.221361,120.841069,7.2063244e-10
C0R490,九如,2026-01-05,22.7405,120.490503,2.4339364e-10
C0X200,左鎮,2026-01-05,23.056758,120.408522,3.8337525e-10
C2TB50,麻汝,2026-01-05,23.42554,121.39358,7.834605e-10
C0FA60,鞍馬山工作站,2026-01-05,24.267064,121.000793,1.1088555e-08
C0SB50,叭嗡嗡,2026-01-05,23.047062,121.343223,4.2722498e-08
C1F891,稍來,2026-01-05,24.265689,121.001142,1.06262785e-08
C2M9C0,紫雲,2026-01-05,23.494914,120.540253,3.336659e-10
72N240,七股研究中心,2026-01-05,23.081672,120.062894,4.954741e-09
C0C700,中壢,2026-01-05,24.977661,121.256375,1.2653284e-07
C0M690,水上,2026-01-05,23.419734,120.388909,8.160075e-10
C0V690,鼓山,2026-01-05,22.623325,120.275575,1.0097092e-08
C0O860,大內,2026-01-05,23.11885,120.36083,8.37835e-10
C0Z200,萬榮,2026-01-05,23.709219,121.420106,1.7308586e-09
C0T9D0,和中,2026-01-05,24.26676,121.74103,9.881982e-10
C2S9A0,北份子寮,2026-01-05,22.78561,121.07813,0.05460677
C1O921,楠西,2026-01-05,23.183511,120.484083,3.0650343e-10
C0AJ30,淡水觀海,2026-01-05,25.184591,121.408616,9.582496e-06
C0V810,左營,2026-01-05,22.67491,120.28491,5.4013376e-09
C0UA70,桃源谷,2026-01-05,24.962606,121.888875,4.833546e-08
C0X130,官田,2026-01-05,23.193217,120.315422,8.37835e-10
C1H000,翠峰,2026-01-05,24.109397,121.205211,1.0189472e-08
C0UA90,石城,2026-01-05,24.980444,121.951214,4.4870166e-08
C1E681,南勢山,2026-01-05,24.421669,120.923831,4.3337027e-09
C0A9F0,內湖,2026-01-05,25.079422,121.57545,2.0625547e-08
C0K291,宜梧,2026-01-05,23.536281,120.169329,9.504111e-07
C1K540,口湖,2026-01-05,23.585344,120.180517,1.0844444e-06
C0R780,滿州,2026-01-05,22.024403,120.839892,0.99994224
C0V870,文安,2026-01-05,22.8025,120.2164,6.4657973e-10
C0U650,玉蘭,2026-01-05,24.675286,121.587061,2.1516913e-08
C0R640,東港,2026-01-05,22.46247,120.44074,2.0118014e-10
C0AJ80,板橋,2026-01-05,25.0107,121.4489,2.0806276e-08
C0S660,下馬,2026-01-05,23.150427,121.070312,3.4161196e-09
C2N190,烏樹,2026-01-05,23.32393,120.36989,6.5007927e-10
C1H9B1,阿眉,2026-01-05,24.1263,120.994672,5.2904547e-09
C0UA20,多加屯,2026-01-05,24.368614,121.373189,1.3225727e-08
C0E730,頭份,2026-01-05,24.688247,120.912206,0.0242349
72V140,高改旗南分場,2026-01-05,22.857861,120.516667,3.0019295e-10
C0K480,莿桐,2026-01-05,23.761192,120.502372,7.041888e-10
C0U980,坪林石牌,2026-01-05,24.86478,121.77396,7.575846e-08
C0T900,西林,2026-01-05,23.8119,121.441458,1.449799e-09
C1I150,青雲,2026-01-05,23.793361,120.949378,8.6808555e-10
C2E980,和興,2026-01-05,24.505319,120.923016,9.237133e-09
467350,澎湖,2026-01-05,23.565503,119.563094,0.91628796
C0G800,埔鹽,2026-01-05,24.000394,120.431683,2.412842e-09
C0H960,草屯,2026-01-05,23.973672,120.68085,7.840615e-10
C1V780,多納林道,2026-01-05,22.888028,120.737917,1.5145674e-09
C0E920,通霄漁港,2026-01-05,24.498589,120.673876,0.31875265
C0Z330,安通山,2026-01-05,23.290728,121.348528,1.1706036e-09
C0AH10,永和,2026-01-05,25.01125,121.508111,2.0806276e-08
C0AK10,太平里,2026-01-05,25.134937,121.364899,1.2321397e-06
C2G640,鹿港,2026-01-05,24.0753,120.430481,2.5582871e-09
C1E890,國三N149K,2026-01-05,24.463414,120.680019,0.31875265
C1R110,口社,2026-01-05,22.770111,120.645222,6.981466e-10
C1M870,國三N285K,2026-01-05,23.550319,120.505833,3.336659e-10
C1E480,鳳美,2026-01-05,24.554803,121.034747,1.4062343e-08
C0T9M0,靜浦,2026-01-05,23.455167,121.495028,1.3385961e-09
C2H9M0,發祥,2026-01-05,24.154094,121.164517,2.6744325e-09
C2G9C0,埔南,2026-01-05,23.99124,120.46969,2.412842e-09
C0AI40,石牌,2026-01-05,25.115597,121.513139,2.0625547e-08
C1F871,上谷關,2026-01-05,24.203483,121.018644,1.7634555e-09
C2H9G0,百勝,2026-01-05,24.051142,120.909361,6.2949945e-10
C0G880,二水,2026-01-05,23.810742,120.6173,4.0636872e-10
C0R940,加祿堂,2026-01-05,22.3363,120.6217,0.9190546
C0W220,北竿,2026-01-05,26.220358,119.974881,2.7692195e-05
C0O960,崎頂,2026-01-05,22.959547,120.369317,4.709781e-10
C0TA40,秀林,2026-01-05,24.302864,121.731144,1.5618323e-08
C0S750,向陽,2026-01-05,23.248397,120.986133,7.3106303e-09
C0T9F0,水璉,2026-01-05,23.797131,121.542514,1.5690602e-09
C1M600,頭凍,2026-01-05,23.406364,120.603339,1.3428847e-09
467660,臺東,2026-01-05,22.752211,121.154586,0.45936102
C1D380,新埔,2026-01-05,24.84745,121.03834,6.5475083e-06
C2G980,田頭村,2026-01-05,23.8263,120.444175,7.493077e-10
C0V750,路竹,2026-01-05,22.854997,120.259439,6.0964556e-10
C0N050,蚵寮,2026-01-05,23.301,120.1104,1.4504876e-09
C2X060,下營,2026-01-05,23.226806,120.256291,1.0717341e-09
72M700,南改鹿草分場,2026-01-05,23.416869,120.283061,8.208999e-10
C1SA50,利嘉林道,2026-01-05,22.82325,121.009389,9.072788e-09
C0UB70,太平山中間站,2026-01-05,24.542003,121.513453,5.4507687e-08
C0A940,金山,2026-01-05,25.223628,121.643967,1.3979076e-06
C1V340,大津,2026-01-05,22.888322,120.645986,6.895156e-10
C0W180,七美,2026-01-05,23.219333,119.444892,0.9908471
C1F9C1,白冷,2026-01-05,24.182844,120.929889,8.620598e-10
K2E710,苗改生物防治研究中心,2026-01-05,24.422861,120.871833,4.025227e-09
C0N040,蘆竹溝,2026-01-05,23.2344,120.0961,1.4504876e-09
C0TB40,崇德,2026-01-05,24.166144,121.657414,7.2306428e-09
C0D760,大坪苗圃,2026-01-05,24.5362,121.1108,1.3160453e-08
C2W230,畜試所澎湖,2026-01-05,23.628342,119.513206,0.9104386
C0R880,後壁湖,2026-01-05,21.9457,120.7457,0.9921813
C1I280,埔中,2026-01-05,23.820778,120.642594,5.6343863e-10
467790,墾丁雷達站,2026-01-05,21.948235,120.808028,0.99992776
C0W190,望安,2026-01-05,23.380564,119.494075,0.98599315
C0Z170,卓溪,2026-01-05,23.3443,121.3029,7.1262546e-10
C0F850,東勢,2026-01-05,24.246428,120.833047,6.726713e-10
466900,淡水,2026-01-05,25.164889,121.448906,1.078358e-07
C0I370,魚池,2026-01-05,23.895703,120.94135,1.2599917e-09
C0C630,大溪,2026-01-05,24.882853,121.265547,2.5103415e-07
C0A520,山佳,2026-01-05,24.974944,121.402008,2.2405223e-08
C0I110,竹山,2026-01-05,23.761225,120.688156,4.4777188e-10
82H840,茶改南部分場,2026-01-05,23.762528,120.7405,4.814137e-10
C2SD80,再來山,2026-01-05,23.34371,121.44122,7.5554774e-10
C0G660,溪湖,2026-01-05,23.94835,120.479122,6.458365e-10
C1T800,洛韶,2026-01-05,24.204558,121.453956,2.2410736e-08
C1T810,慈恩,2026-01-05,24.192044,121.388386,9.390098e-09
C1E451,象鼻,2026-01-05,24.368617,120.940228,4.3337027e-09
C0AC60,三峽,2026-01-05,24.939025,121.369728,2.1488367e-08
C0I490,萬大林道,2026-01-05,23.928228,121.091411,4.0114463e-09
C1I290,豐丘,2026-01-05,23.668178,120.887417,2.3731155e-09
C1I320,奧萬大,2026-01-05,23.952956,121.178556,2.3366937e-09
C2M910,嘉義大學,2026-01-05,23.471325,120.485903,3.491084e-10
C0U770,南澳,2026-01-05,24.44935,121.81022,4.5240354e-09
C2TB30,吉安,2026-01-05,23.94538,121.54803,3.3084853e-09
C0A980,社子,2026-01-05,25.109508,121.469681,1.1542501e-07
C0V800,六龜,2026-01-05,22.997889,120.633583,7.917015e-10
C1G9D0,國一S218K,2026-01-05,23.890641,120.493253,6.838641e-10
C0E570,白沙屯,2026-01-05,24.549447,120.696803,0.9338393
C2F9A0,中竹林,2026-01-05,24.103556,120.751061,7.399723e-10
C0FA40,臺中電廠,2026-01-05,24.2146,120.4907,6.927747e-09
C2G9A0,畜試所彰化,2026-01-05,23.86045,120.557964,7.892861e-10
C0H9C0,合歡山,2026-01-05,24.143442,121.272547,2.1639519e-08
G2M350,農試溪口農場,2026-01-05,23.58565,120.408111,9.358928e-10
C0U860,頭城,2026-01-05,24.85323,121.8308,1.8055133e-08
C0R580,南州,2026-01-05,22.48591,120.50274,6.933031e-10
C0D430,峨眉,2026-01-05,24.6905,121.017189,1.3317337e-08
C0G780,秀水,2026-01-05,24.03405,120.503869,6.2304434e-10
72N100,臺南農改場,2026-01-05,23.0605,120.342194,7.24519e-10
C0S900,蘭嶼高中,2026-01-05,22.04909,121.51214,0.18442418
C2TA60,六十石,2026-01-05,23.22477,121.31861,5.473331e-09
C1F9W0,德基,2026-01-05,24.254783,121.190261,1.0187393e-08
C2M980,安和,2026-01-05,23.51377,120.31593,8.32945e-10
C1Z120,壽豐,2026-01-05,23.870853,121.508081,1.5345792e-09
C0W160,烏坵,2026-01-05,24.9944,119.44956,0.6185943
C1I240,外大坪,2026-01-05,23.958697,120.917931,1.4132192e-09
C1I550,國六W023K,2026-01-05,23.979067,120.867742,7.801918e-10
C0R870,興海,2026-01-05,21.9752,120.8439,0.99992776
C0R140,瑪家,2026-01-05,22.682903,120.686639,4.6973286e-10
C0A530,坪林,2026-01-05,24.938183,121.70975,2.5140477e-07
C0X260,後壁,2026-01-05,23.366358,120.362326,9.31391e-10
C0Z230,和平,2026-01-05,24.30717,121.77007,1.1338005e-09
C0G770,福興,2026-01-05,24.041289,120.437669,2.4128373e-09
C0H9A0,神木村,2026-01-05,23.532742,120.843667,3.1138732e-09
C0I460,南投,2026-01-05,23.911469,120.687331,7.840615e-10
C0I480,梅峰,2026-01-05,24.085272,121.173572,6.685721e-09
C1V570,吉東,2026-01-05,22.85422,120.5454,2.5022856e-10
C2A560,福山,2026-01-05,24.776203,121.502811,2.1396836e-08
C0AH30,五分山,2026-01-05,25.07125,121.780794,8.5212626e-08
C0FA10,松柏,2026-01-05,24.429115,120.617482,1.8985119e-07
72S200,東改班鳩分場,2026-01-05,22.829528,121.077694,1.1989404e-08
72HA00,中改埔里分場,2026-01-05,23.903208,120.963364,1.2275686e-09
C2H9W0,大坪頂農水,2026-01-05,24.043122,120.932781,9.709755e-10
C0C650,平鎮,2026-01-05,24.897503,121.214636,2.566397e-07
C0S930,延平,2026-01-05,22.902581,121.084058,9.025427e-09
C0UA60,樟樹山,2026-01-05,24.41393,121.78325,2.5252627e-09
C2UC10,出水溪,2026-01-05,24.615822,121.652253,3.804408e-08
C1S670,摩天,2026-01-05,23.199503,121.027,1.2946439e-08
C2C590,觀音,2026-01-05,25.027072,121.153317,0.9819971
C0V630,茄萣,2026-01-05,22.906642,120.182608,3.3656522e-10
466940,基隆,2026-01-05,25.133314,121.740475,2.432538e-07
C0X050,東河,2026-01-05,23.296598,120.385608,6.5007927e-10
C0R770,保力,2026-01-05,22.071122,120.764111,0.7834511
G2L020,農試嘉義分所,2026-01-05,23.485028,120.473806,3.4910708e-10
C0X240,關子嶺,2026-01-05,23.331169,120.508025,4.681899e-10
C0I380,集集,2026-01-05,23.828206,120.801467,5.967978e-10
466990,花蓮,2026-01-05,23.975128,121.613275,9.645892e-09
C1V220,小關山,2026-01-05,23.154217,120.813603,3.7979464e-09
C1F9G1,慶福山,2026-01-05,24.180853,120.848378,1.1224995e-09
C0FB20,雪山橋,2026-01-05,24.23192,120.9786,9.2396e-09
C0Z250,瑞穗林道,2026-01-05,23.49284,121.30688,1.7637122e-08
C0D590,新豐,2026-01-05,24.87068,120.97721,0.9993951
C0A870,五指山,2026-01-05,25.132153,121.608692,7.178538e-08
C0UA50,西帽山,2026-01-05,24.555361,121.802628,2.0972262e-08
C2R980,竹田國中,2026-01-05,22.61532,120.52412,3.6595252e-10
C0X160,仁德,2026-01-05,22.968258,120.257689,5.1460236e-10
C1H971,六分寮,2026-01-05,23.92507,120.6378,1.1947852e-09
C0W120,西嶼,2026-01-05,23.5626,119.468436,0.9560597
C0G650,員林,2026-01-05,23.946503,120.585597,8.6307983e-10
C0AD50,鶯歌,2026-01-05,24.951533,121.346294,2.2417903e-07
C2H9Q0,北東眼山,2026-01-05,24.120939,121.189303,8.195486e-09
C2H9T0,名間竹圍,2026-01-05,23.859914,120.637572,7.2517153e-10
C0S990,山豬窟,2026-01-05,22.318619,120.857372,2.2164224e-08
C0X190,安平,2026-01-05,22.993161,120.152181,5.1421484e-10
C0K400,斗六,2026-01-05,23.720583,120.541127,7.041888e-10
12J990,口湖工作站,2026-01-05,23.589978,120.180394,1.0844444e-06
C0O830,北寮,2026-01-05,23.079561,120.495008,2.673136e-10
C1D410,白蘭,2026-01-05,24.579364,121.079947,1.1550039e-08
C0S970,加津林,2026-01-05,22.416211,120.926942,5.2800715e-09
C0D700,關西,2026-01-05,24.7977,121.1732,1.02295516e-07
C0U750,龜山島,2026-01-05,24.841667,121.953133,6.29733e-08
C0R810,內獅,2026-01-05,22.305064,120.642986,0.9190547
C1M390,龍美,2026-01-05,23.406728,120.654417,1.9894721e-09
C2K290,崙內,2026-01-05,23.69525,120.35601,8.440166e-10
C2FB60,頭櫃山,2026-01-05,24.129842,120.858925,2.1384996e-09
C1H840,國三N238K,2026-01-05,23.841008,120.707711,4.0768539e-10
CAQ030,崎峰國小,2026-01-05,22.42565,120.49521,6.933031e-10
C2E520,大湖,2026-01-05,24.414939,120.870872,4.025227e-09
467530,阿里山,2026-01-05,23.508208,120.813242,8.578907e-09
C1E691,南湖,2026-01-05,24.40135,120.837533,1.4300959e-09
C0FA30,梧棲,2026-01-05,24.256003,120.523381,5.289486e-09
C1V231,高中,2026-01-05,23.134911,120.716711,8.5945107e-10
C0AK30,硬漢嶺,2026-01-05,25.136097,121.426372,3.7619433e-08
C0F9V0,新社,2026-01-05,24.200172,120.815806,8.9372687e-10
C0H890,埔里,2026-01-05,23.972169,120.952425,6.929448e-10
C0R690,墾丁,2026-01-05,21.966756,120.810269,0.9999889
C0SD20,富山,2026-01-05,22.822383,121.190825,2.1460497e-05
C0F0D0,審馬陣,2026-01-05,24.381675,121.4203,1.8824029e-08
C2W030,金門農試所,2026-01-05,24.448431,118.451786,0.0029828106
C0R820,白鷺,2026-01-05,22.454275,120.666219,5.682662e-10
C0FB00,大雪山,2026-01-05,24.254668,121.007374,1.11611875e-08
C1V190,南天池,2026-01-05,23.27403,120.91176,7.128542e-09
C0E940,雪見,2026-01-05,24.42595,121.01347,9.634786e-09
K2E360,苗栗農改場,2026-01-05,24.495722,120.829111,7.814939e-09
CAJ050,海口故事園區,2026-01-05,23.57543,120.14121,1.0844444e-06
C2K280,四湖,2026-01-05,23.6304,120.22717,3.5112794e-07
C2H9D0,三隻寮,2026-01-05,24.093078,120.861578,1.0748293e-09
C0O990,媽廟,2026-01-05,22.99175,120.293525,6.3122596e-10
C0D480,打鐵坑,2026-01-05,24.849664,121.150789,1.6799879e-07
C0Z220,和平林道,2026-01-05,24.343922,121.656317,1.6451452e-09
C0TA10,花蓮漁港,2026-01-05,23.995322,121.638331,1.0323987e-08
72C440,桃園農改場,2026-01-05,24.950944,121.030583,0.00013810888
C1E711,馬拉邦山,2026-01-05,24.367306,120.901656,2.1613316e-09
C0SB20,富岡,2026-01-05,22.792467,121.192669,1.0340646e-05
C0D560,竹東,2026-01-05,24.767147,121.057881,4.653947e-08
C0F9U0,南屯,2026-01-05,24.137006,120.637969,6.728805e-10
C2SD60,明峰,2026-01-05,22.8671,121.11825,1.1606529e-08
C0M720,番路,2026-01-05,23.464657,120.554156,2.874954e-10
C0F0A0,雪山圈谷,2026-01-05,24.388594,121.236339,2.862334e-08
C1A9N0,四十份,2026-01-05,24.934158,121.593283,8.502284e-08
C0U760,東澳,2026-01-05,24.52196,121.83318,4.581827e-09
C0X230,鹽水,2026-01-05,23.272621,120.247641,1.1282908e-09
C2H9H0,苗改南投蜂場,2026-01-05,23.852589,120.693481,5.30031e-10
C2TB70,達谷寮,2026-01-05,23.38,121.35968,7.541713e-10
C0R950,萬隆國小,2026-01-05,22.507667,120.587817,2.716537e-10
467540,大武,2026-01-05,22.35572,120.90374,0.99968505
C0V370,古亭坑,2026-01-05,22.893178,120.401947,3.9241732e-10
C1I340,新興橋,2026-01-05,23.563333,120.868728,1.1274862e-09
C0SA80,土坂,2026-01-05,22.453108,120.887572,4.530659e-09
C0R160,鹽埔,2026-01-05,22.739558,120.530778,2.4339364e-10
C0AC40,大屯山,2026-01-05,25.175675,121.522408,9.87954e-08
466850,五分山雷達站,2026-01-05,25.071182,121.781205,8.456562e-08
C2H9L0,馬烈霸,2026-01-05,24.1512,121.201772,8.195486e-09
C1AI50,國三N016K,2026-01-05,25.034164,121.619664,1.1504137e-07
C2V920,匏子寮,2026-01-05,23.04905,120.55319,3.1255581e-10
C1V600,藤枝,2026-01-05,23.071961,120.757042,2.5238038e-09
C1E601,南勢,2026-01-05,24.572486,120.734842,0.9338393
C0O980,新市,2026-01-05,23.061614,120.298197,7.24519e-10
C0K420,西螺,2026-01-05,23.800407,120.467394,7.493077e-10
C0Z050,佳心,2026-01-05,23.34567,121.21316,5.8885483e-09
C0AD30,蘆洲,2026-01-05,25.086594,121.472331,2.2756492e-08
C0V610,梓官,2026-01-05,22.760558,120.267211,6.1404276e-10
K2F750,種苗改良場,2026-01-05,24.225972,120.800917,8.9372687e-10
C0UA80,大溪漁港,2026-01-05,24.941801,121.902955,9.591755e-08
C1AI60,國一39K邊坡,2026-01-05,25.064361,121.383836,1.6848151e-08
C0W150,金寧,2026-01-05,24.457703,118.328989,0.012022028
C0R960,內埔,2026-01-05,22.608483,120.570714,3.6595252e-10
V2C250,八德合作社,2026-01-05,24.93775,121.266389,2.5103415e-07
C2H9S0,龍南,2026-01-05,23.953536,120.833183,2.2109576e-09
C0AH40,平等,2026-01-05,25.129142,121.577086,5.2685355e-08
C0R540,佳冬,2026-01-05,22.419456,120.552375,4.5921744e-10
466950,彭佳嶼,2026-01-05,25.627975,122.079744,0.99990225
C0A890,雙溪,2026-01-05,25.036003,121.864242,4.188243e-08
C0C480,桃園,2026-01-05,24.992425,121.323172,1.2653284e-07
C0AH50,林口,2026-01-05,25.072181,121.38084,1.5975989e-08
A2K360,水試臺西試驗場,2026-01-05,23.717231,120.190522,1.7026041e-06
C2M960,外寮,2026-01-05,23.562643,120.665688,1.4150074e-09
C0F9S0,烏日,2026-01-05,24.107058,120.624103,6.728805e-10
C2N180,鹿陶洋,2026-01-05,23.14325,120.48352,3.0650343e-10
C0C490,八德,2026-01-05,24.928708,121.283289,2.5103415e-07
C0R190,赤山,2026-01-05,22.592333,120.614306,3.470675e-10
C0T820,天祥,2026-01-05,24.179597,121.495639,1.787534e-08
C1F9E1,龍安,2026-01-05,24.1605,120.831961,9.2835273e-10
C2SD50,順那,2026-01-05,23.04166,121.29332,0.4434836
C0V820,小林,2026-01-05,23.148408,120.63325,4.8154686e-10
C2G870,芳苑,2026-01-05,23.922303,120.320025,0.9737246
C0E850,大河,2026-01-05,24.618069,120.948578,9.368219e-09
C1U670,寒溪,2026-01-05,24.634,121.71691,4.464571e-09
C0N020,城西,2026-01-05,23.0568,120.0956,4.6392326e-09
C1Z110,三棧,2026-01-05,24.11557,121.60501,1.8046354e-08
C0R280,檳榔,2026-01-05,22.076078,120.836777,1.1901627e-06
C2H9J0,中台,2026-01-05,23.9996,120.938739,9.709755e-10
C0F9L0,后里,2026-01-05,24.310436,120.729725,1.5690452e-09
467441,高雄,2026-01-05,22.730432,120.312516,1.23006e-09
C0Z180,新城,2026-01-05,24.040486,121.604878,9.263951e-09
C0D540,橫山,2026-01-05,24.71116,121.11693,1.7725817e-08
C1D420,太閣南,2026-01-05,24.632808,121.160575,2.2690093e-08
C1E770,公館,2026-01-05,24.526914,120.830806,1.1215841e-08
CAN130,水試所海水繁養殖中心,2026-01-05,23.120802,120.07968,4.954741e-09
C1I430,翠華,2026-01-05,24.191961,121.224339,1.3637049e-08
C1M400,菜瓜坪,2026-01-05,23.251928,120.576103,7.332677e-10
C0G730,二林,2026-01-05,23.903325,120.376081,1.8842339e-09
72M360,南改義竹分場,2026-01-05,23.360694,120.279361,7.0264994e-10
V2K620,麥寮合作社,2026-01-05,23.753836,120.294783,1.0682647e-09
C0Z070,舞鶴,2026-01-05,23.46811,121.37407,8.252894e-10
C0B040,大武崙,2026-01-05,25.166676,121.706993,2.050351e-07
C1Z030,紅葉,2026-01-05,23.493119,121.338806,7.937624e-10
C1I050,丹大,2026-01-05,23.753747,121.141147,9.149145e-09
C0I080,信義,2026-01-05,23.689694,120.851036,8.460974e-10
C2TB80,庄子底,2026-01-05,23.71794,121.49438,1.5455417e-09
C0D750,樂山林道6k,2026-01-05,24.49999,121.08773,1.2783363e-08
C2M920,朴子農改,2026-01-05,23.469889,120.259383,8.208999e-10
C2A880,福隆,2026-01-05,25.017842,121.942083,4.6594536e-08
C0Z160,鳳林,2026-01-05,23.746114,121.453411,1.5688089e-09
C0UB80,翠峰林道6K,2026-01-05,24.49773,121.568625,3.5006295e-08
C0V210,復興,2026-01-05,23.222403,120.806089,7.3059014e-10
C0H990,昆陽,2026-01-05,24.121322,121.273642,1.744761e-08
C0R741,獅子,2026-01-05,22.202308,120.705236,0.6588184
C0S710,鹿野,2026-01-05,22.917711,121.122994,4.6716875e-09
C0I530,小奇萊,2026-01-05,24.131764,121.295717,1.8295019e-08
C0FA70,大雪山埡口,2026-01-05,24.26867,121.03062,1.730315e-08
C2K630,荷苞,2026-01-05,23.657717,120.595144,4.781586e-10
C0Z080,富源,2026-01-05,23.587642,121.378225,3.0246676e-09
C2M9E0,旺來山,2026-01-05,23.555153,120.486463,3.336659e-10
C0SB10,美和,2026-01-05,22.682078,121.060236,0.45666316
C2K620,馬光農場,2026-01-05,23.721453,120.378864,7.876979e-10
C1I140,卡奈托灣,2026-01-05,23.754364,121.087872,2.9482177e-09
C0I520,玉山風口,2026-01-05,23.470489,120.955994,2.0833518e-08
C1G691,下水埔,2026-01-05,23.816114,120.5676,7.2237744e-10
C0X110,臺南市南區,2026-01-05,22.961189,120.188378,5.123752e-10
C0V680,仁武,2026-01-05,22.701083,120.347722,1.23006e-09
C2G840,北斗,2026-01-05,23.877586,120.514222,6.838641e-10
C2TB90,長橋,2026-01-05,23.6874,121.46186,1.5771012e-09
C0R900,竹坑,2026-01-05,22.1385,120.7022,0.9952837
C0G860,社頭,2026-01-05,23.897647,120.5862,7.892861e-10
C0X150,安定,2026-01-05,23.102614,120.227839,6.9765804e-10
C0R590,里港,2026-01-05,22.77919,120.49459,3.9982595e-10
C0E610,馬都安,2026-01-05,24.451272,120.930192,3.3758636e-09
C0E550,明德,2026-01-05,24.583486,120.885411,9.984446e-09
C0R150,三地門,2026-01-05,22.709889,120.639944,4.745489e-10
C0G910,花壇,2026-01-05,24.032076,120.549461,6.2304434e-10
C1D400,鳥嘴山,2026-01-05,24.71909,121.28387,3.4253212e-08
C0K500,元長,2026-01-05,23.64981,120.315024,9.405473e-10
C0F0B0,石岡,2026-01-05,24.276061,120.777644,1.5690452e-09
C2V250,甲仙,2026-01-05,23.080106,120.591758,3.453335e-10
C0SA20,金崙山,2026-01-05,22.567419,120.959667,3.755217e-09
C0V350,溪埔,2026-01-05,22.738578,120.446797,4.6079413e-10
C0M660,溪口,2026-01-05,23.604131,120.403569,9.358928e-10
C1S880,壽卡,2026-01-05,22.238911,120.858903,1.204796e-06
72D680,桃改新埔分場,2026-01-05,24.834444,121.066111,6.5475083e-06
