站號,站名,日期,lat,lon,BLBTSLS
C0R710,龍磐,2026-01-06,21.931672,120.838942,0.99985045
C1F9D1,白毛台,2026-01-06,24.158325,120.886933,4.983411e-09
C0G940,竹塘,2026-01-06,23.848253,120.386764,3.9862154e-09
467590,恆春,2026-01-06,22.003897,120.746339,0.9936168
C1O850,環湖,2026-01-06,23.148617,120.418633,4.6554893e-09
C0U710,太平山,2026-01-06,24.505486,121.525656,5.695363e-08
C0E820,獅潭,2026-01-06,24.539133,120.920042,1.1411064e-05
C2SD70,二層坪,2026-01-06,22.94105,121.16838,9.897691e-07
C0V880,興達,2026-01-06,22.8778,120.2127,0.0013663728
C0S890,關山,2026-01-06,23.0395,121.175017,6.4568127e-07
C0SB30,新蘭,2026-01-06,22.869214,121.223228,1.8332226e-05
C2R970,屏科大,2026-01-06,22.648275,120.619247,8.5882673e-10
C1Z130,銅門,2026-01-06,23.965694,121.492842,2.2522924e-08
C0AD40,土城,2026-01-06,24.973208,121.445169,1.2657813e-06
CAN140,六官養殖協會,2026-01-06,23.22881,120.29962,0.03851655
C0X180,山上,2026-01-06,23.0757,120.363253,0.06771128
C0F9Z0,雪山東峰,2026-01-06,24.388792,121.268675,6.330798e-08
C1M480,獨立山,2026-01-06,23.537022,120.607797,2.6042457e-09
C0X220,學甲,2026-01-06,23.230367,120.182187,0.054055806
467650,日月潭,2026-01-06,23.881325,120.90805,5.6915486e-09
A2K570,古坑(花卉中心),2026-01-06,23.633531,120.552392,1.0354647e-09
C0K600,箔子寮,2026-01-06,23.6197,120.14,0.0014343918
C0G830,埤頭,2026-01-06,23.866003,120.452806,3.0836826e-09
C0S950,七塊厝,2026-01-06,22.954453,121.229922,1.4411735e-07
467110,金門,2026-01-06,24.407306,118.289281,0.7094036
C0AH80,深坑,2026-01-06,25.002703,121.628328,8.116764e-07
C0A970,三貂角,2026-01-06,25.007606,122.002058,5.5927893e-07
C2D730,寶山農場,2026-01-06,24.732444,120.976153,0.007674792
C0K430,褒忠,2026-01-06,23.690938,120.303634,0.38697532
467480,嘉義,2026-01-06,23.495925,120.432906,6.0505383e-09
C0V400,阿公店,2026-01-06,22.804194,120.355528,0.97029424
C0E960,觀霧分站,2026-01-06,24.505781,121.113921,4.0796664e-08
467550,玉山,2026-01-06,23.48718,120.95943,5.7704725e-08
C0R440,大漢山,2026-01-06,22.405264,120.753181,2.014895e-08
C0SD30,東清國小,2026-01-06,22.057128,121.564922,0.9868513
C1F9B1,桐林,2026-01-06,24.066172,120.735194,1.4537836e-09
C2H9U0,鳳鵬,2026-01-06,23.763919,120.788061,1.6805264e-09
C0K390,土庫,2026-01-06,23.679029,120.395574,4.0034127e-09
C1I450,望鄉山,2026-01-06,23.594153,120.944286,3.4623085e-08
C0E910,海埔,2026-01-06,24.648767,120.772435,0.20446835
B2E890,畜試北區分所,2026-01-06,24.527806,120.770972,0.006628903
C0R750,四林格山,2026-01-06,22.076989,120.802439,0.03675758
C0F0C0,中坑,2026-01-06,24.248517,120.903319,7.98228e-09
C1I121,大鞍,2026-01-06,23.678381,120.760017,9.2168415e-09
C2G9E0,移民庄,2026-01-06,23.9784,120.40283,0.00091072265
72U480,花改蘭陽分場,2026-01-06,24.686306,121.716583,1.2146701e-07
C0A770,科教館,2026-01-06,25.096356,121.516507,1.5965456e-06
C0AJ60,六塊厝,2026-01-06,25.24,121.4481,0.03346925
C0R620,墾雷,2026-01-06,21.900836,120.855269,0.9994876
467420,永康,2026-01-06,23.038386,120.2367,0.38195065
C2M530,奮起湖,2026-01-06,23.493903,120.699253,6.959479e-09
C0I410,名間,2026-01-06,23.837053,120.701447,1.2716336e-09
A2C560,農工中心,2026-01-06,24.985917,121.239833,0.019946204
C0V740,旗山,2026-01-06,22.888614,120.483597,4.8411117e-08
C0Z061,玉里,2026-01-06,23.3215,121.339656,4.236998e-08
C0S840,南田,2026-01-06,22.279725,120.889208,0.99991155
C1I470,杉林溪,2026-01-06,23.639517,120.786444,1.067316e-08
C1X040,東原,2026-01-06,23.291597,120.463822,2.0057107e-09
C0R660,枋寮,2026-01-06,22.367722,120.590647,5.176398e-08
C1R120,上德文,2026-01-06,22.763272,120.704442,5.275169e-09
C0K450,大埤,2026-01-06,23.646074,120.431537,3.4183358e-09
C0UA00,土場,2026-01-06,24.576533,121.495333,6.819461e-08
467080,宜蘭,2026-01-06,24.763975,121.756528,1.3648231e-07
C0N030,四草,2026-01-06,23.0235,120.1116,0.37769607
467410,臺南,2026-01-06,22.99328,120.20492,0.091207966
C0V650,彌陀,2026-01-06,22.783806,120.246361,0.99344444
C0D660,新竹市東區,2026-01-06,24.798681,120.986942,0.06700398
82S580,茶改東部分場,2026-01-06,22.907694,121.130139,1.3234115e-06
C0SB40,興隆,2026-01-06,22.913661,121.257469,6.494364e-05
467050,新屋,2026-01-06,25.006725,121.047492,0.5913169
C0C710,大溪永福,2026-01-06,24.892936,121.324975,0.009429339
C0FA20,溫寮,2026-01-06,24.372177,120.583125,0.99910355
C0V640,湖內,2026-01-06,22.887139,120.2445,0.0011851033
C0R910,下寮,2026-01-06,22.3929,120.5548,0.0024572567
C0Z020,明里,2026-01-06,23.208717,121.262342,3.961735e-08
C0M770,嘉義梅山,2026-01-06,23.585398,120.555587,2.495914e-09
C0C660,楊梅,2026-01-06,24.912375,121.143047,0.007040936
C0SD40,牛頭山,2026-01-06,22.676661,121.506944,0.99943817
C1E511,新開,2026-01-06,24.347703,120.827019,1.5314864e-08
G2F820,農試所(霧峰),2026-01-06,24.031261,120.688133,1.5209245e-09
C2M990,大巃頂,2026-01-06,23.5547,120.61439,4.189311e-09
C1I070,和社,2026-01-06,23.591131,120.888861,4.154047e-09
C2E990,新坪頂,2026-01-06,24.30201,120.8574,2.0059757e-08
C0TA80,立霧山,2026-01-06,24.183258,121.641899,3.1563424e-08
C2F000,大肚,2026-01-06,24.15295,120.572117,0.025184296
C1S850,豐南,2026-01-06,23.122139,121.262389,6.601912e-08
C2M9B0,西興,2026-01-06,23.2428,120.57617,1.7886858e-09
C2A920,富貴角,2026-01-06,25.263783,121.565258,0.00056284486
CAH030,茶改場竹圍站,2026-01-06,23.860083,120.637528,1.566139e-09
C0T960,光復,2026-01-06,23.660694,121.424964,2.7665017e-08
C0F9M0,豐原,2026-01-06,24.254322,120.720692,9.143336e-09
C0R720,旭海,2026-01-06,22.205403,120.887614,0.99994063
C0V710,苓雅,2026-01-06,22.622742,120.330669,0.75831246
C0C740,觀音工業區,2026-01-06,25.064764,121.114856,0.7758706
CAC040,拉拉山,2026-01-06,24.699317,121.427133,8.660853e-08
C0V790,萬山,2026-01-06,22.905944,120.688056,3.4735776e-09
U2HA30,臺大和社,2026-01-06,23.590856,120.888864,4.154047e-09
C2H9K0,屯原,2026-01-06,24.067969,121.209389,1.931602e-08
C0AJ90,澳底,2026-01-06,25.0552,121.9253,1.0384933e-06
C0Z100,東華,2026-01-06,23.89525,121.549833,2.9410861e-08
C0G970,三豐,2026-01-06,23.882,120.2895,0.9276114
V2K610,大庄合作社,2026-01-06,23.8068,120.367939,0.38344374
C0V900,汕尾,2026-01-06,22.4782,120.4151,0.0013172971
C1R630,龍泉,2026-01-06,22.66701,120.59091,8.319114e-10
C1AC50,關渡,2026-01-06,25.133486,121.469331,0.0014606063
C0C800,四稜,2026-01-06,24.64733,121.4293,8.714824e-08
C0F9I0,神岡,2026-01-06,24.272481,120.658314,2.7606674e-07
C0K460,斗南,2026-01-06,23.678734,120.478359,3.384477e-09
C2O810,曾文,2026-01-06,23.219681,120.497328,2.5565166e-09
467280,後龍,2026-01-06,24.648563,120.831834,0.05027723
C1F9J1,清水林,2026-01-06,24.071242,120.820419,2.4414513e-09
C2A650,火燒寮,2026-01-06,25.002719,121.742892,2.758186e-07
466930,竹子湖,2026-01-06,25.162078,121.544547,1.1391246e-06
C1I220,樟湖,2026-01-06,23.905333,120.846983,6.8440724e-09
C0I390,仁愛,2026-01-06,24.022122,121.132206,6.803244e-09
C0Z300,東里,2026-01-06,23.26853,121.30547,4.029876e-08
C1V590,新發,2026-01-06,23.057019,120.646064,3.810165e-09
C0K510,水林,2026-01-06,23.572924,120.24597,2.2345503e-05
72S590,東改賓朗果園,2026-01-06,22.813889,121.071278,9.542252e-06
82A750,茶改北部分場,2026-01-06,24.955778,121.631222,2.0421314e-07
C1A750,石碇服務區,2026-01-06,25.00872,121.646242,8.0504196e-07
C0X300,鹿寮,2026-01-06,23.386047,120.477331,4.186899e-09
G2AI50,關渡,2026-01-06,25.11575,121.492,1.6914757e-06
C0K590,雲林東勢,2026-01-06,23.674192,120.255721,0.43141985
C2K310,港尾布雞,2026-01-06,23.74834,120.38439,3.7057235e-09
C0A570,桶後,2026-01-06,24.848222,121.597992,1.8705119e-07
C1S800,華源,2026-01-06,22.657883,121.02325,0.0019222302
C0G720,溪州,2026-01-06,23.851589,120.499093,3.0266933e-09
C1V160,達卡努瓦,2026-01-06,23.279811,120.705319,4.815122e-09
C2M410,馬頭山,2026-01-06,23.324361,120.582017,1.7720263e-09
C0V850,蚵仔寮,2026-01-06,22.7256,120.2527,0.99501306
C0S740,池上,2026-01-06,23.119628,121.209469,2.3210531e-07
C1V390,尖山,2026-01-06,22.813153,120.367789,0.92235667
C0AH70,松山,2026-01-06,25.04871,121.55042,1.4969522e-06
C0N010,鯤鯓國小,2026-01-06,23.1879,120.0889,0.060226776
C0R550,新埤,2026-01-06,22.467947,120.582894,3.7219042e-08
C0SA60,知本（水試所）,2026-01-06,22.702394,121.082761,0.49473494
C0T9I0,豐濱,2026-01-06,23.583897,121.514806,2.1777483e-08
C0UB00,淡江大學蘭陽校園,2026-01-06,24.823239,121.730383,7.161375e-08
C0W240,九宮,2026-01-06,24.423753,118.240186,0.015637284
C0T9N0,富里,2026-01-06,23.171639,121.249378,3.622742e-08
U2HA50,臺大竹山,2026-01-06,23.756972,120.681556,1.31244e-09
C0V840,鳳鼻頭,2026-01-06,22.5083,120.3591,0.0011551
C0X140,西港,2026-01-06,23.125608,120.203108,0.047039036
72D080,桃改五峰分場,2026-01-06,24.612194,121.157167,2.8429858e-08
C2H9P0,伊拿谷,2026-01-06,23.963211,121.088264,4.5127115e-09
C2K250,崙背,2026-01-06,23.75553,120.31893,0.38530365
C2H9F0,柑林,2026-01-06,24.018658,120.847072,1.0692839e-09
C0TA20,加灣,2026-01-06,24.082025,121.608944,4.3826486e-08
C0V530,阿蓮,2026-01-06,22.883208,120.327508,0.14616755
C0FB30,八仙山苗圃,2026-01-06,24.192719,121.001366,7.680364e-09
C1O880,關山,2026-01-06,23.173397,120.594092,1.7501761e-09
C0E791,卓蘭,2026-01-06,24.3126,120.8244,1.3738502e-08
C1I030,武界,2026-01-06,23.913225,121.052483,4.8620503e-09
C0R520,崁頂,2026-01-06,22.514781,120.506914,0.00062859233
C0R341,牡丹,2026-01-06,22.130036,120.792639,0.23243494
C0R930,萬丹,2026-01-06,22.5885,120.4851,0.0008358255
C0S760,紅石,2026-01-06,23.069131,121.126219,2.1388798e-08
C2C410,中央大學,2026-01-06,24.967652,121.185165,0.015020793
C1M610,石磐龍,2026-01-06,23.496606,120.663506,5.1198277e-09
C0C790,東眼山,2026-01-06,24.8284,121.40888,1.13989785e-07
C0UA10,鴛鴦湖,2026-01-06,24.590269,121.412228,6.010192e-08
V2C260,八德蔬果,2026-01-06,24.978508,121.281819,0.022242062
C0R800,丹路,2026-01-06,22.204481,120.750989,0.9978205
C0G920,永靖,2026-01-06,23.924703,120.547533,1.7115814e-05
C2M950,太和,2026-01-06,23.538372,120.702961,6.9061237e-09
C1A630,下盆,2026-01-06,24.771003,121.538622,1.2054726e-07
B2N890,畜產試驗所,2026-01-06,23.058972,120.336406,0.30548
C0UA30,白嶺,2026-01-06,24.527819,121.519031,5.0244342e-08
C1V580,溪南(特生中心),2026-01-06,23.084972,120.788475,1.0731296e-08
C1T970,大農,2026-01-06,23.615233,121.413331,2.5033765e-08
C0R650,竹田,2026-01-06,22.58486,120.54344,0.0004207316
C1H900,清流,2026-01-06,24.080775,120.962997,4.9364126e-09
C1C510,水尾,2026-01-06,24.940081,121.087161,0.10032198
C2N170,茅港尾,2026-01-06,23.2061,120.2624,0.04421184
C0F9X0,大雅(中科園區),2026-01-06,24.21528,120.62445,0.75693214
C0SB60,白守蓮,2026-01-06,23.126769,121.401914,0.9998492
C0O970,虎頭埤,2026-01-06,23.021375,120.347878,0.06685008
C0C730,中大臨海站,2026-01-06,24.966126,121.008581,0.3037996
C0X250,新營,2026-01-06,23.310689,120.316681,0.025755456
C0V700,三民,2026-01-06,22.645017,120.311233,0.9791121
C0U870,大礁溪,2026-01-06,24.791042,121.675047,6.4397604e-08
C0E870,高鐵苗栗,2026-01-06,24.60725,120.826094,0.05203791
A2K570,古坑花卉中心,2026-01-06,23.63353,120.55239,4.236172e-09
C0TA30,鹽寮,2026-01-06,23.845606,121.592664,3.1050675e-08
C0M860,新美,2026-01-06,23.338017,120.683169,2.8727627e-09
C1E701,八卦,2026-01-06,24.491756,120.927619,4.200435e-08
C2TA90,加納納,2026-01-06,23.466421,121.359867,1.914652e-08
C0I420,國姓,2026-01-06,24.037803,120.855072,1.1396458e-09
C2D720,關西工作站,2026-01-06,24.757275,121.184792,2.2853767e-06
C0S960,香蘭,2026-01-06,22.587569,120.993375,0.7172416
467620,蘭嶼,2026-01-06,22.0369,121.55843,0.99021053
C0R260,春日,2026-01-06,22.370361,120.628306,1.940298e-08
72G600,臺中農改場,2026-01-06,24.003028,120.534389,4.073337e-05
C0Z210,瑞穗,2026-01-06,23.5239,121.39021,2.6218402e-08
C0M820,達邦,2026-01-06,23.453994,120.749517,4.1996e-09
C0V860,南寮,2026-01-06,22.7616,120.2339,0.9937306
C0G740,大城,2026-01-06,23.852487,120.320935,0.9174439
C0R920,塭仔,2026-01-06,22.4169,120.5197,0.0027305502
C0R470,高樹,2026-01-06,22.826389,120.600806,3.1851517e-09
C0R680,佳樂水,2026-01-06,21.993578,120.861633,0.9994078
C1O870,大棟山,2026-01-06,23.31157,120.52226,4.9924207e-09
C0D360,梅花,2026-01-06,24.678347,121.208558,1.8337488e-07
C0Z190,富世,2026-01-06,24.14743,121.6297,5.481851e-06
C0AI10,屈尺,2026-01-06,24.92184,121.54475,9.569851e-07
B2U990,畜試東區分所,2026-01-06,24.669039,121.832561,1.362251e-07
C0SB80,長濱漁港,2026-01-06,23.313644,121.459994,0.99942297
C0TA50,和仁,2026-01-06,24.241394,121.712472,1.9176455e-06
C0V910,大樹,2026-01-06,22.684645,120.432803,5.6098138e-08
C1R610,西大武山,2026-01-06,22.617719,120.7322,1.8951559e-08
C0G900,線西,2026-01-06,24.143358,120.443536,0.99908745
C0M700,竹崎,2026-01-06,23.526178,120.555508,3.0238427e-09
C2E880,三義,2026-01-06,24.405478,120.749819,1.3891789e-06
C0C720,竹圍,2026-01-06,25.112692,121.239824,0.46907225
C0F9P0,清水,2026-01-06,24.312297,120.562242,0.99913806
C0Z150,吉安光華,2026-01-06,23.930925,121.595153,3.1991267e-08
C0FA80,小雪山天池,2026-01-06,24.28025,121.02627,3.487055e-08
467300,東吉島,2026-01-06,23.25727,119.66762,0.9990323
C1D640,外坪(五指山),2026-01-06,24.644447,121.090961,6.656623e-07
C2R9A0,高士國小,2026-01-06,22.12553,120.84653,0.5577493
C0F9O0,潭子,2026-01-06,24.213106,120.703933,8.147498e-09
C2H9R0,卓社,2026-01-06,23.887894,121.000086,8.58973e-09
72T250,花蓮農改場,2026-01-06,23.975222,121.563889,3.0001754e-08
C0E780,銅鑼,2026-01-06,24.489681,120.790853,0.0005858821
C1T950,太安,2026-01-06,23.666719,121.370128,9.034572e-09
C0E830,苑裡,2026-01-06,24.439714,120.653053,0.91628695
467270,田中,2026-01-06,23.873803,120.581286,1.3457873e-09
C0SA10,檳榔四格山,2026-01-06,22.810031,121.109308,1.9392141e-06
C1T830,布洛灣,2026-01-06,24.17184,121.57127,4.5084633e-08
C0F970,大坑,2026-01-06,24.173142,120.722289,9.3024095e-09
C1U920,思源,2026-01-06,24.393125,121.347214,4.3931102e-08
C2H9Y0,松茗,2026-01-06,23.8167,120.650765,1.8909918e-09
C0A931,三和,2026-01-06,25.233153,121.595236,0.00021226854
C0I010,廬山,2026-01-06,24.033311,121.181808,1.098222e-08
C2M940,日野賀,2026-01-06,23.434056,120.727169,5.4942397e-09
C0R860,鼻頭,2026-01-06,22.1043,120.8979,0.99966353
C0UB20,壯圍,2026-01-06,24.7359,121.8163,1.4142641e-07
C0R790,九棚,2026-01-06,22.14195,120.889281,0.9999366
C0W110,東莒,2026-01-06,25.9652,119.98069,0.9922661
C1U930,粉鳥林,2026-01-06,24.497088,121.842479,2.3419001e-07
C1I211,蘆竹湳,2026-01-06,23.934019,120.811994,2.1221813e-09
C0S830,長濱,2026-01-06,23.286817,121.411975,3.187408e-08
C1F9F1,伯公龍,2026-01-06,24.272392,120.849047,2.5379535e-08
C0UB90,太平山莊,2026-01-06,24.494171,121.536209,5.7046368e-08
C0E810,西湖,2026-01-06,24.562947,120.7485,0.9972452
C1I440,新高口,2026-01-06,23.478744,120.878939,2.4592685e-08
C0O840,王爺宮,2026-01-06,23.222064,120.40085,2.4515727e-09
C0T9G0,鳳林山,2026-01-06,23.735269,121.420131,2.978361e-08
C0X080,佳里,2026-01-06,23.173039,120.145086,0.05306242
C0FB70,大甲溪埔,2026-01-06,24.370625,120.620067,0.9987792
C0Z310,清水斷崖,2026-01-06,24.218294,121.689142,7.840867e-07
C0M680,太保,2026-01-06,23.455062,120.331455,0.00038817897
C1S820,金峰,2026-01-06,22.590969,120.933236,0.0009832775
C0AD10,八里,2026-01-06,25.150211,121.403947,0.030435052
C2K240,草嶺,2026-01-06,23.59555,120.693461,5.367703e-09
C1SA70,都蘭,2026-01-06,22.87794,121.226881,1.3607551e-05
C0K440,二崙,2026-01-06,23.772797,120.408944,3.505104e-09
C1A760,坪林交控,2026-01-06,24.94284,121.713442,3.8718335e-07
C0F9N0,大里,2026-01-06,24.092464,120.701378,1.3230768e-09
C0SA90,達仁林場,2026-01-06,22.264347,120.823972,2.905796e-08
C1R290,石門山,2026-01-06,22.112611,120.756597,0.9999213
42HA10,萬大發電廠,2026-01-06,23.978875,121.139639,5.710273e-09
C0R890,山海,2026-01-06,21.9878,120.7091,0.9894743
C0T9A0,月眉山,2026-01-06,23.809928,121.539828,1.8502485e-08
C0AC70,信義,2026-01-06,25.037822,121.564597,1.4956622e-06
C0K560,棋山,2026-01-06,23.68645,120.603417,8.3692625e-10
C2FB50,出雲,2026-01-06,24.206469,120.902794,8.891824e-09
C1Z240,中平林道,2026-01-06,23.42115,121.26763,2.6135172e-08
U2H480,溪頭,2026-01-06,23.670306,120.798194,7.2019586e-09
C0M880,好美里,2026-01-06,23.3364,120.138,0.046721317
C0T9E0,大坑,2026-01-06,23.880628,121.581981,2.1774078e-08
C0K530,臺西,2026-01-06,23.701547,120.197559,0.97691876
C1E900,國一N128K,2026-01-06,24.560997,120.844186,0.0004773349
C0AJ50,水湳洞,2026-01-06,25.123695,121.862238,1.0093945e-06
C0AI20,白沙灣,2026-01-06,25.283128,121.519058,0.033928595
C2V310,美濃,2026-01-06,22.898792,120.51907,5.8635692e-08
C0A860,大坪,2026-01-06,25.165914,121.632969,2.1071483e-07
C1U850,觀音海岸,2026-01-06,24.38319,121.77856,3.5053265e-08
C2K610,草嶺石壁,2026-01-06,23.602469,120.707731,5.6271934e-09
C0U950,鶯子嶺,2026-01-06,24.89754,121.79244,8.0032905e-08
C0O900,善化,2026-01-06,23.112883,120.297219,0.49833572
C0K550,蔦松,2026-01-06,23.514319,120.229736,3.95817e-06
E2P980,林試六龜中心,2026-01-06,22.991703,120.645722,1.1053624e-09
C0E590,通霄,2026-01-06,24.471892,120.704622,0.9432351
C1I310,西巒,2026-01-06,23.754486,120.883956,7.0049717e-09
C0A550,泰平,2026-01-06,24.971197,121.823711,1.9107053e-07
C0I360,水里,2026-01-06,23.812553,120.849792,1.355083e-09
C0R830,高士,2026-01-06,22.121825,120.836781,0.999033
C1I101,溪頭,2026-01-06,23.661789,120.807647,1.2112236e-08
C0AJ20,野柳,2026-01-06,25.20703,121.690021,0.013274925
C0B060,暖暖,2026-01-06,25.0957,121.7403,7.396717e-07
C1H920,長豐,2026-01-06,24.102039,120.879897,3.3053569e-09
C2S9B0,利吉,2026-01-06,22.86246,121.15486,2.2456172e-06
C0V360,內門,2026-01-06,22.975481,120.466769,1.4108713e-08
C0R850,林邊,2026-01-06,22.4634,120.5339,0.003540898
C0E930,龍鳳,2026-01-06,24.700034,120.859125,0.99417037
C0U910,冬山,2026-01-06,24.63373,121.7937,1.362251e-07
C1E721,泰安,2026-01-06,24.489017,120.968036,3.6596894e-08
82H320,茶改中部分場,2026-01-06,23.875611,120.913583,4.555111e-09
C0M750,布袋,2026-01-06,23.380878,120.167789,9.5943185e-05
C1S860,利嘉,2026-01-06,22.809417,121.050528,8.730762e-08
E2S980,林試太麻里1,2026-01-06,22.598922,120.980044,0.049507514
C0X170,關廟,2026-01-06,22.963017,120.327797,0.048461743
C0V720,林園,2026-01-06,22.507747,120.394511,0.001061668
C1I510,線浸林道,2026-01-06,23.761508,120.832956,7.490781e-09
C0D690,外湖,2026-01-06,24.917735,120.968711,0.9999546
C0C750,新興坑尾,2026-01-06,25.0061,121.0971,0.21312247
B2Q810,畜試南區分所,2026-01-06,21.945583,120.802167,0.9992992
C0S790,金崙,2026-01-06,22.538122,120.966875,0.0002891303
C0AH90,福山植物園,2026-01-06,24.760717,121.58135,1.10002325e-07
C0I540,奇萊稜線,2026-01-06,24.109231,121.326456,5.186825e-08
C0M850,表湖,2026-01-06,23.24186,120.64166,3.196374e-09
C0S770,大溪山,2026-01-06,22.478475,120.943325,4.3482837e-06
C0AG80,中和,2026-01-06,24.991622,121.491792,1.2623733e-06
C0T790,大禹嶺,2026-01-06,24.186117,121.316086,4.0099717e-08
C0T9B0,水源,2026-01-06,23.991861,121.537169,2.0735124e-08
C0R840,牡丹池山,2026-01-06,22.168389,120.841225,8.8803597e-07
C1I131,桶頭,2026-01-06,23.641944,120.654117,1.5724876e-09
CAL110,布袋國中,2026-01-06,23.35893,120.18026,0.047098394
C2M9D0,何竹子腳,2026-01-06,23.53641,120.38203,6.9181607e-09
467571,新竹,2026-01-06,24.827853,121.014219,0.081724405
C0Z290,赤柯山,2026-01-06,23.36893,121.38293,2.5089214e-08
C0X280,將軍,2026-01-06,23.214999,120.13577,0.061614063
C0S690,太麻里,2026-01-06,22.60902,120.98533,5.921845e-07
C0U880,北關,2026-01-06,24.9072,121.8734,2.1435148e-06
CAW010,東引,2026-01-06,26.3588,120.4836,0.9909568
C0G810,埔心,2026-01-06,23.947633,120.525456,2.739875e-05
C0U970,大福,2026-01-06,24.80064,121.81389,1.4055578e-07
C2H9N0,仁愛東眼,2026-01-06,24.026875,121.1205,9.914686e-09
C1E670,南礦,2026-01-06,24.538278,121.002836,3.6757797e-08
C0M520,東後寮,2026-01-06,23.369908,120.248065,0.008260223
C1E461,松安,2026-01-06,24.397972,120.986022,3.629077e-08
C2N160,西拉雅風管處,2026-01-06,23.189481,120.335297,0.01775793
C2M970,碧湖,2026-01-06,23.568632,120.624165,4.1396198e-09
C0A640,石碇,2026-01-06,24.993969,121.662917,3.8175324e-07
E2S960,林試太麻里2,2026-01-06,22.598,120.99775,0.8110939
C0F9Y0,桃山,2026-01-06,24.432739,121.303808,6.974233e-08
C1I020,萬大,2026-01-06,23.979817,121.132261,6.8781496e-09
C2UC20,長嶺,2026-01-06,24.70894,121.61162,1.1984437e-07
C0U940,羅東,2026-01-06,24.68184,121.74934,1.2468463e-07
C0M650,朴子,2026-01-06,23.43463,120.23902,0.00026435225
C1I500,大尖山,2026-01-06,23.858572,120.994889,1.6320072e-08
C0FB40,中橫21.6k,2026-01-06,24.2499,121.1455,1.2730732e-08
C0G820,田尾,2026-01-06,23.901669,120.509389,2.4434861e-05
E2K600,四湖植物園,2026-01-06,23.676986,120.163433,0.95596915
C0S730,綠島,2026-01-06,22.6672,121.47533,0.9994528
12Q970,東港工作站,2026-01-06,22.479997,120.466058,0.0050197304
C1TA00,太魯閣,2026-01-06,24.15773,121.6236,2.2022829e-07
466920,臺北,2026-01-06,25.037658,121.514853,1.4969507e-06
C0R600,舊泰武,2026-01-06,22.588194,120.664944,1.09246e-08
C1I260,北坑,2026-01-06,23.9246,121.006903,3.0143987e-09
466910,鞍部,2026-01-06,25.182586,121.529731,3.732337e-07
C1I230,九份二山,2026-01-06,23.961944,120.845,3.402795e-09
C2M810,里佳,2026-01-06,23.389125,120.716647,7.165539e-09
C2A660,瑞芳,2026-01-06,25.113169,121.801147,6.0287516e-07
C0R270,琉球嶼,2026-01-06,22.332244,120.362236,5.3612187e-08
C2V580,瑞山,2026-01-06,22.90304,120.43424,1.7852171e-08
C1T990,高寮,2026-01-06,23.394239,121.356808,5.246414e-08
C0G620,芬園,2026-01-06,24.015678,120.6213,2.1248823e-07
C1Z140,荖溪,2026-01-06,23.890575,121.45964,3.3420573e-08
C1I201,中心崙,2026-01-06,23.728722,120.712097,2.8473148e-09
C1I400,凌霄,2026-01-06,24.018778,121.004456,9.679731e-09
C1M640,十字,2026-01-06,23.492153,120.753683,9.696361e-09
G2P820,農試鳳山分所,2026-01-06,22.646611,120.356083,0.6616204
C0Z270,蕃薯寮,2026-01-06,23.73835,121.540108,2.045021e-08
C2E420,竹南,2026-01-06,24.70898,120.88897,0.97654545
C0FB10,出雲山苗圃,2026-01-06,24.23105,120.90475,7.988859e-09
C0F9Q0,外埔,2026-01-06,24.347817,120.705686,3.74498e-07
C0K580,高鐵雲林,2026-01-06,23.737456,120.417944,3.5963856e-09
C2I090,鳳凰,2026-01-06,23.728081,120.787347,4.694814e-09
C0U990,員山,2026-01-06,24.74435,121.72247,1.2603786e-07
C0V770,大社,2026-01-06,22.730306,120.346639,0.9938115
C0X120,麻豆,2026-01-06,23.183289,120.248611,0.039557513
C0C670,龍潭,2026-01-06,24.870056,121.221389,1.1808647e-06
C0D680,香山濕地,2026-01-06,24.783581,120.914988,0.9999539
C0S980,勝林山,2026-01-06,22.430439,120.8938,7.573837e-08
C0V730,大寮,2026-01-06,22.605614,120.395717,0.0027880126
C0R570,麟洛,2026-01-06,22.65078,120.52719,1.9603036e-08
C2M930,石卓,2026-01-06,23.478744,120.702264,9.570973e-09
C0G9B0,和美,2026-01-06,24.105169,120.492131,0.0008499358
CAG100,王功漁港,2026-01-06,23.96824,120.32586,0.06106097
C0X290,北門,2026-01-06,23.267772,120.125481,0.06245125
C2F930,大甲,2026-01-06,24.347667,120.640403,5.1222214e-06
C0D650,湖口,2026-01-06,24.904794,121.043628,0.02354383
C0U780,五結,2026-01-06,24.68637,121.79794,1.362251e-07
C1I250,鯉潭,2026-01-06,23.961922,120.991131,3.6185e-09
C0R130,阿禮,2026-01-06,22.742908,120.743678,6.1900542e-09
C0X100,臺南市北區,2026-01-06,23.010394,120.194228,0.13755494
C0S920,金峰嘉蘭,2026-01-06,22.594789,120.960825,0.043389477
C0V490,新興,2026-01-06,22.627422,120.298803,0.990608
C0F9K0,大安,2026-01-06,24.345061,120.588025,0.9988712
467290,古坑,2026-01-06,23.633639,120.551889,1.0354647e-09
C2E970,八甲,2026-01-06,24.535811,120.795983,0.00010331598
C0V440,鳳山,2026-01-06,22.646653,120.356122,0.6616204
C1T940,大觀,2026-01-06,23.714206,121.373133,2.0378566e-08
C0E740,造橋,2026-01-06,24.637056,120.864778,0.068328016
C0R100,尾寮山,2026-01-06,22.833111,120.683889,6.388217e-09
A2K630,臺大雲林校區,2026-01-06,23.730628,120.423903,3.5557883e-09
467990,馬祖,2026-01-06,26.169467,119.923158,0.00040753622
C0D580,寶山,2026-01-06,24.735006,121.025192,0.0012273444
E2P990,林試扇平站,2026-01-06,22.9677,120.6857,3.294644e-09
C0AI30,三重,2026-01-06,25.057328,121.500629,1.5965456e-06
C0AH00,汐止,2026-01-06,25.066881,121.658778,1.3571411e-06
C1Z040,立山,2026-01-06,23.443356,121.327375,3.1256807e-08
466881,新北,2026-01-06,24.959207,121.525196,1.1222398e-06
C0W130,花嶼,2026-01-06,23.40007,119.32276,0.9987798
C0A950,鼻頭角,2026-01-06,25.129036,121.923372,1.1002359e-06
C0K470,林內,2026-01-06,23.748675,120.609642,7.9509577e-10
C2F990,摩天嶺,2026-01-06,24.322458,120.936819,8.27162e-09
C2E430,南庄,2026-01-06,24.601775,121.000214,0.00029431187
82C160,茶改場,2026-01-06,24.908472,121.185333,0.0024452598
C2TB60,南安,2026-01-06,23.29818,121.26157,3.582469e-08
C0Z320,清水林道,2026-01-06,23.27125,121.188272,2.743282e-08
C0R760,南仁湖,2026-01-06,22.084681,120.863353,0.9999211
C0M670,大林,2026-01-06,23.600616,120.45841,6.1596683e-09
C0M800,茶山,2026-01-06,23.299075,120.664767,1.7143387e-09
C0A9C0,天母,2026-01-06,25.117494,121.537169,1.4290927e-06
72K220,南改斗南分場,2026-01-06,23.634556,120.477333,3.3362726e-09
72AI40,桃改樹林分場,2026-01-06,24.944503,121.386972,1.5547265e-06
C0S910,蘭嶼燈塔,2026-01-06,22.081197,121.503117,0.95343745
C0B050,八斗子,2026-01-06,25.144754,121.79167,1.4489352e-06
C0U900,內城,2026-01-06,24.71813,121.68766,1.16995736e-07
C0X320,柳營,2026-01-06,23.253328,120.375253,5.775094e-09
C0M790,新港,2026-01-06,23.553269,120.345728,0.00030045392
C0F9T0,西屯,2026-01-06,24.179494,120.641275,2.0150684e-07
C0E950,松安,2026-01-06,24.39792,120.98599,3.62907e-08
C0SA30,都歷,2026-01-06,23.020333,121.323642,3.8346097e-05
C0C620,蘆竹,2026-01-06,25.084275,121.265767,0.2953468
C0R730,大坪頂,2026-01-06,22.024633,120.69355,0.99995476
C0AJ40,石門,2026-01-06,25.273672,121.601198,0.0013371998
C0E750,苗栗,2026-01-06,24.564569,120.824575,0.0005434779
C0T870,鯉魚潭,2026-01-06,23.935639,121.508944,2.3685946e-08
C1V170,排雲,2026-01-06,23.463619,120.954147,5.1951517e-08
C2H950,中寮,2026-01-06,23.884447,120.766406,9.732302e-10
C0R350,貓鼻頭,2026-01-06,21.921774,120.7358,0.9949563
C0V660,岡山,2026-01-06,22.797078,120.294958,0.9931103
C1H941,雙冬,2026-01-06,23.967378,120.802189,2.1732494e-09
C0AJ70,田寮,2026-01-06,25.2698,121.4886,0.03557733
C0AI00,五股,2026-01-06,25.07445,121.42728,4.977021e-07
C0Z280,德武,2026-01-06,23.47426,121.41071,1.9989518e-08
C2RA10,大新,2026-01-06,22.67558,120.57788,8.4036533e-10
C0R700,枋山,2026-01-06,22.246844,120.661086,0.9992551
C0C460,復興,2026-01-06,24.820208,121.352281,3.3225328e-07
C2K300,鹿南,2026-01-06,23.63855,120.3636,0.26756048
E2H360,蓮華池,2026-01-06,23.918333,120.885278,3.2929603e-09
C0M640,中埔,2026-01-06,23.42538,120.5229,2.7676983e-09
C0W140,金沙,2026-01-06,24.488292,118.408778,0.8091986
C2A540,四堵,2026-01-06,24.8926,121.745736,2.3347575e-07
C0ACA0,新莊,2026-01-06,25.051478,121.446756,1.5899436e-06
C0R220,潮州,2026-01-06,22.534361,120.54,0.00039627985
U2HA40,臺大內茅埔,2026-01-06,23.689722,120.851117,2.4009883e-09
467490,臺中,2026-01-06,24.145736,120.684075,8.351137e-09
C0UB60,明池,2026-01-06,24.650688,121.475277,9.104063e-08
C0U960,翠峰湖,2026-01-06,24.510856,121.608044,5.6316843e-08
E2HA20,林試畢祿溪站,2026-01-06,24.226944,121.308522,2.6688234e-08
C2M9A0,大華,2026-01-06,23.4824,120.67491,4.690142e-09
C0V890,前鎮,2026-01-06,22.5718,120.3117,0.93283904
C1F941,雪嶺,2026-01-06,24.280586,121.026642,3.487055e-08
C2H9E0,國姓南港,2026-01-06,23.911108,120.846556,7.1536586e-09
C0AC80,文山,2026-01-06,25.00235,121.575728,9.648644e-07
C0F9R0,龍井,2026-01-06,24.184536,120.528972,0.9993665
C0M760,民雄,2026-01-06,23.551754,120.428457,6.384258e-09
C0UA40,西德山,2026-01-06,24.560647,121.752608,4.966021e-08
C2TA70,赤科坪,2026-01-06,23.39885,121.39168,2.6204804e-08
C1T920,中興,2026-01-06,23.769503,121.498653,2.724593e-08
C0D550,雪霸,2026-01-06,24.526972,121.11605,3.7712685e-08
C2F860,梨山,2026-01-06,24.247522,121.243669,2.6424892e-08
C0R320,車城,2026-01-06,22.0744,120.716247,0.99881285
C1S870,南美山,2026-01-06,23.15025,121.382333,6.386386e-07
C0B020,基隆嶼,2026-01-06,25.19141,121.78391,1.163794e-06
C1U501,牛鬥,2026-01-06,24.637836,121.573656,1.9084708e-07
C0M730,嘉義市東區,2026-01-06,23.457673,120.460531,5.7370415e-09
C2R990,泰武,2026-01-06,22.60686,120.69765,1.1621061e-08
C0S700,知本,2026-01-06,22.684866,121.005642,1.1998388e-07
C1N001,沙崙,2026-01-06,22.935472,120.309406,0.06814763
C0V760,橋頭,2026-01-06,22.757806,120.30575,0.9951265
C0G960,福寶,2026-01-06,24.0443,120.3814,0.0020874348
C0X210,白河,2026-01-06,23.347466,120.414427,5.6117266e-09
C0S810,東河,2026-01-06,22.972672,121.303986,8.175123e-05
C2R170,屏東,2026-01-06,22.66027,120.49403,2.0232209e-08
C0R670,楓港,2026-01-06,22.190131,120.692156,0.9999566
C0FA50,霧峰,2026-01-06,24.0419,120.6995,1.3750712e-09
C0UB10,蘇澳,2026-01-06,24.5969,121.8571,1.5073569e-07
C0G950,防潮門,2026-01-06,24.1835,120.4871,0.9990908
C0M740,六腳,2026-01-06,23.492871,120.290625,0.00023567249
C1R250,力里,2026-01-06,22.428117,120.629228,4.6315606e-07
C0K330,虎尾,2026-01-06,23.719183,120.442036,3.5260248e-09
C2FA00,烏石坑,2026-01-06,24.273503,120.947617,8.286543e-09
C0V620,永安,2026-01-06,22.82315,120.236856,0.9933969
C1I330,楓樹林,2026-01-06,23.986803,121.076117,7.9065465e-09
C0W200,湖西,2026-01-06,23.596314,119.67275,0.99854827
72Q010,高雄農改場,2026-01-06,22.709333,120.525889,1.3072117e-08
C0SA40,瑞和,2026-01-06,22.974361,121.156697,1.142507e-06
C0C680,龜山,2026-01-06,25.02846,121.38656,4.1025572e-07
C2V260,月眉,2026-01-06,22.971003,120.539853,8.664914e-09
C0V450,鳳森,2026-01-06,22.545064,120.392592,0.00012964221
C0FA90,小雪山林道,2026-01-06,24.29515,121.03651,4.2715328e-08
C0U720,南山,2026-01-06,24.43742,121.38167,5.232673e-08
A2N290,臺南蘭花園區,2026-01-06,23.340258,120.379661,6.5795582e-09
C0R560,新園,2026-01-06,22.5434,120.461558,0.001061668
C0U890,三星,2026-01-06,24.66812,121.65302,1.0117936e-07
C1V300,御油山,2026-01-06,23.001983,120.715364,1.0412682e-08
C0U600,礁溪,2026-01-06,24.817539,121.765608,1.3120057e-07
C1T980,龍澗,2026-01-06,24.023289,121.411328,3.8158685e-08
C0D670,海天一線,2026-01-06,24.831986,120.914438,0.99995273
C0SA00,歷坵,2026-01-06,22.520969,120.89185,1.3995909e-06
C0M710,東石,2026-01-06,23.458927,120.15385,8.252887e-05
C0M780,鹿草,2026-01-06,23.41134,120.30835,0.00018422828
C0U520,雙連埤,2026-01-06,24.753033,121.641303,6.493933e-08
C0B010,七堵,2026-01-06,25.094819,121.71713,1.0586062e-06
C0R480,長治,2026-01-06,22.693128,120.542622,1.02854e-09
C1V830,國三S383K,2026-01-06,22.781967,120.426475,8.09244e-09
12Q980,恆春工作站,2026-01-06,22.079678,120.714425,0.99881697
C1O940,東山服務區,2026-01-06,23.286016,120.398472,5.5120735e-09
C1U840,東澳嶺,2026-01-06,24.5378,121.8485,4.519932e-08
C1D630,飛鳳山,2026-01-06,24.766464,121.119178,5.6123945e-06
C0S940,石寧山,2026-01-06,23.223772,121.406639,0.99958247
C0K410,北港,2026-01-06,23.573957,120.292802,2.1344831e-05
C2M620,瑞里,2026-01-06,23.545133,120.675197,6.081546e-09
C0SB70,小港漁港,2026-01-06,23.158558,121.400431,0.99983734
C2O950,安南,2026-01-06,23.076694,120.144861,0.2731444
C0F0E0,南湖圈谷,2026-01-06,24.363714,121.444667,7.473516e-08
467610,成功,2026-01-06,23.097486,121.373428,4.6421734e-05
C0G890,伸港,2026-01-06,24.148933,120.484403,0.99893963
C2E540,龍溪,2026-01-06,24.606489,120.783933,0.00091254205
C1V200,梅山,2026-01-06,23.268447,120.823556,3.6531598e-09
C0T9H0,加路蘭山,2026-01-06,23.682947,121.5274,2.0811079e-08
C2O930,玉井,2026-01-06,23.126042,120.46055,4.697976e-09
C1F911,新伯公,2026-01-06,24.221361,120.841069,1.3482415e-08
C0R490,九如,2026-01-06,22.7405,120.490503,1.4130986e-08
C0X200,左鎮,2026-01-06,23.056758,120.408522,9.45875e-08
C2TB50,麻汝,2026-01-06,23.42554,121.39358,1.8825896e-08
C0FA60,鞍馬山工作站,2026-01-06,24.267064,121.000793,2.779041e-08
C0SB50,叭嗡嗡,2026-01-06,23.047062,121.343223,9.245216e-05
C1F891,稍來,2026-01-06,24.265689,121.001142,2.704922e-08
C2M9C0,紫雲,2026-01-06,23.494914,120.540253,3.4358998e-09
72N240,七股研究中心,2026-01-06,23.081672,120.062894,0.38912982
C0C700,中壢,2026-01-06,24.977661,121.256375,0.013829602
C0M690,水上,2026-01-06,23.419734,120.388909,6.145492e-09
C0V690,鼓山,2026-01-06,22.623325,120.275575,0.9906464
C0O860,大內,2026-01-06,23.11885,120.36083,0.23573229
C0Z200,萬榮,2026-01-06,23.709219,121.420106,2.503768e-08
C0T9D0,和中,2026-01-06,24.26676,121.74103,1.9777196e-06
C2S9A0,北份子寮,2026-01-06,22.78561,121.07813,0.003710285
C1O921,楠西,2026-01-06,23.183511,120.484083,3.941571e-09
C0AJ30,淡水觀海,2026-01-06,25.184591,121.408616,0.03703279
C0V810,左營,2026-01-06,22.67491,120.28491,0.97906023
C0UA70,桃源谷,2026-01-06,24.962606,121.888875,1.14627184e-07
C0X130,官田,2026-01-06,23.193217,120.315422,0.020193502
C1H000,翠峰,2026-01-06,24.109397,121.205211,2.899573e-08
C0UA90,石城,2026-01-06,24.980444,121.951214,9.3117734e-07
C1E681,南勢山,2026-01-06,24.421669,120.923831,4.002201e-08
C0A9F0,內湖,2026-01-06,25.079422,121.57545,1.5468157e-06
C0K291,宜梧,2026-01-06,23.536281,120.169329,0.0015806668
C1K540,口湖,2026-01-06,23.585344,120.180517,0.0014572227
C0R780,滿州,2026-01-06,22.024403,120.839892,0.99996126
C0V870,文安,2026-01-06,22.8025,120.2164,0.99501306
C0U650,玉蘭,2026-01-06,24.675286,121.587061,1.1826505e-07
C0R640,東港,2026-01-06,22.46247,120.44074,0.0011422487
C0AJ80,板橋,2026-01-06,25.0107,121.4489,1.3006518e-06
C0S660,下馬,2026-01-06,23.150427,121.070312,2.6314643e-08
C2N190,烏樹,2026-01-06,23.32393,120.36989,0.01475812
C1H9B1,阿眉,2026-01-06,24.1263,120.994672,1.8077461e-08
C0UA20,多加屯,2026-01-06,24.368614,121.373189,3.9026133e-08
C0E730,頭份,2026-01-06,24.688247,120.912206,0.9783541
72V140,高改旗南分場,2026-01-06,22.857861,120.516667,1.8244736e-08
C0K480,莿桐,2026-01-06,23.761192,120.502372,2.3257687e-09
C0U980,坪林石牌,2026-01-06,24.86478,121.77396,5.9088478e-08
C0T900,西林,2026-01-06,23.8119,121.441458,2.231017e-08
C1I150,青雲,2026-01-06,23.793361,120.949378,1.875403e-09
C2E980,和興,2026-01-06,24.505319,120.923016,5.2169074e-08
467350,澎湖,2026-01-06,23.565503,119.563094,0.99859214
C0G800,埔鹽,2026-01-06,24.000394,120.431683,0.0009987529
C0H960,草屯,2026-01-06,23.973672,120.68085,8.6269636e-10
C1V780,多納林道,2026-01-06,22.888028,120.737917,5.6285887e-09
C0E920,通霄漁港,2026-01-06,24.498589,120.673876,0.9759318
C0Z330,安通山,2026-01-06,23.290728,121.348528,2.3184795e-08
C0AH10,永和,2026-01-06,25.01125,121.508111,1.3476048e-06
C0AK10,太平里,2026-01-06,25.134937,121.364899,0.020921733
C2G640,鹿港,2026-01-06,24.0753,120.430481,0.0014217403
C1E890,國三N149K,2026-01-06,24.463414,120.680019,0.9117574
C1R110,口社,2026-01-06,22.770111,120.645222,4.798196e-10
C1M870,國三N285K,2026-01-06,23.550319,120.505833,3.2538017e-09
C1E480,鳳美,2026-01-06,24.554803,121.034747,4.6098624e-08
C0T9M0,靜浦,2026-01-06,23.455167,121.495028,2.8679136e-08
C2H9M0,發祥,2026-01-06,24.154094,121.164517,1.11574625e-08
C2G9C0,埔南,2026-01-06,23.99124,120.46969,0.00094349653
C0AI40,石牌,2026-01-06,25.115597,121.513139,1.5468157e-06
C1F871,上谷關,2026-01-06,24.203483,121.018644,8.275865e-09
C2H9G0,百勝,2026-01-06,24.051142,120.909361,2.1270685e-09
C0G880,二水,2026-01-06,23.810742,120.6173,8.964089e-10
C0R940,加祿堂,2026-01-06,22.3363,120.6217,0.99744755
C0W220,北竿,2026-01-06,26.220358,119.974881,0.026034392
C0O960,崎頂,2026-01-06,22.959547,120.369317,0.008642919
C0TA40,秀林,2026-01-06,24.302864,121.731144,4.5407653e-08
C0S750,向陽,2026-01-06,23.248397,120.986133,2.8229607e-08
C0T9F0,水璉,2026-01-06,23.797131,121.542514,2.0162828e-08
C1M600,頭凍,2026-01-06,23.406364,120.603339,3.7731445e-09
467660,臺東,2026-01-06,22.752211,121.154586,0.99915093
C1D380,新埔,2026-01-06,24.84745,121.03834,0.023663398
C2G980,田頭村,2026-01-06,23.8263,120.444175,3.5071304e-09
C0V750,路竹,2026-01-06,22.854997,120.259439,0.9898559
C0N050,蚵寮,2026-01-06,23.301,120.1104,0.06245125
C2X060,下營,2026-01-06,23.226806,120.256291,0.044349317
72M700,南改鹿草分場,2026-01-06,23.416869,120.283061,0.00026050291
C1SA50,利嘉林道,2026-01-06,22.82325,121.009389,2.7920047e-08
C0UB70,太平山中間站,2026-01-06,24.542003,121.513453,5.1755983e-08
C0A940,金山,2026-01-06,25.223628,121.643967,0.01501085
C1V340,大津,2026-01-06,22.888322,120.645986,1.3006503e-09
C0W180,七美,2026-01-06,23.219333,119.444892,0.998966
C1F9C1,白冷,2026-01-06,24.182844,120.929889,4.868927e-09
K2E710,苗改生物防治研究中心,2026-01-06,24.422861,120.871833,1.2468452e-05
C0N040,蘆竹溝,2026-01-06,23.2344,120.0961,0.06272463
C0TB40,崇德,2026-01-06,24.166144,121.657414,7.886134e-06
C0D760,大坪苗圃,2026-01-06,24.5362,121.1108,3.6724717e-08
C2W230,畜試所澎湖,2026-01-06,23.628342,119.513206,0.9973174
C0R880,後壁湖,2026-01-06,21.9457,120.7457,0.9860519
C1I280,埔中,2026-01-06,23.820778,120.642594,1.9159223e-09
467790,墾丁雷達站,2026-01-06,21.948235,120.808028,0.9996657
C0W190,望安,2026-01-06,23.380564,119.494075,0.99820197
C0Z170,卓溪,2026-01-06,23.3443,121.3029,3.9541405e-08
C0F850,東勢,2026-01-06,24.246428,120.833047,1.4215248e-08
466900,淡水,2026-01-06,25.164889,121.448906,0.0140362205
C0I370,魚池,2026-01-06,23.895703,120.94135,3.1263705e-09
C0C630,大溪,2026-01-06,24.882853,121.265547,0.0032293182
C0A520,山佳,2026-01-06,24.974944,121.402008,1.5645522e-06
C0I110,竹山,2026-01-06,23.761225,120.688156,1.3158514e-09
82H840,茶改南部分場,2026-01-06,23.762528,120.7405,1.8328119e-09
C2SD80,再來山,2026-01-06,23.34371,121.44122,0.98861974
C0G660,溪湖,2026-01-06,23.94835,120.479122,3.0719326e-05
C1T800,洛韶,2026-01-06,24.204558,121.453956,2.8113007e-08
C1T810,慈恩,2026-01-06,24.192044,121.388386,4.085483e-08
C1E451,象鼻,2026-01-06,24.368617,120.940228,8.028636e-09
C0AC60,三峽,2026-01-06,24.939025,121.369728,0.09371919
C0I490,萬大林道,2026-01-06,23.928228,121.091411,1.1648045e-08
C1I290,豐丘,2026-01-06,23.668178,120.887417,8.249326e-09
C1I320,奧萬大,2026-01-06,23.952956,121.178556,7.920281e-09
C2M910,嘉義大學,2026-01-06,23.471325,120.485903,4.2938146e-09
C0U770,南澳,2026-01-06,24.44935,121.81022,2.3389762e-07
C2TB30,吉安,2026-01-06,23.94538,121.54803,2.707069e-08
C0A980,社子,2026-01-06,25.109508,121.469681,1.5729541e-06
C0V800,六龜,2026-01-06,22.997889,120.633583,1.1377042e-09
C1G9D0,國一S218K,2026-01-06,23.890641,120.493253,4.5047647e-05
C0E570,白沙屯,2026-01-06,24.549447,120.696803,0.99904466
C2F9A0,中竹林,2026-01-06,24.103556,120.751061,1.2974565e-09
C0FA40,臺中電廠,2026-01-06,24.2146,120.4907,0.9994704
C2G9A0,畜試所彰化,2026-01-06,23.86045,120.557964,1.3453612e-09
C0H9C0,合歡山,2026-01-06,24.143442,121.272547,5.3756665e-08
G2M350,農試溪口農場,2026-01-06,23.58565,120.408111,7.305473e-09
C0U860,頭城,2026-01-06,24.85323,121.8308,1.3365857e-07
C0R580,南州,2026-01-06,22.48591,120.50274,0.005064504
C0D430,峨眉,2026-01-06,24.6905,121.017189,0.005277142
C0G780,秀水,2026-01-06,24.03405,120.503869,4.0873605e-05
72N100,臺南農改場,2026-01-06,23.0605,120.342194,0.2750688
C0S900,蘭嶼高中,2026-01-06,22.04909,121.51214,0.9877231
C2TA60,六十石,2026-01-06,23.22477,121.31861,2.6124905e-08
C1F9W0,德基,2026-01-06,24.254783,121.190261,2.2795241e-08
C2M980,安和,2026-01-06,23.51377,120.31593,0.00017930986
C1Z120,壽豐,2026-01-06,23.870853,121.508081,2.9410861e-08
C0W160,烏坵,2026-01-06,24.9944,119.44956,0.98705935
C1I240,外大坪,2026-01-06,23.958697,120.917931,3.5043888e-09
C1I550,國六W023K,2026-01-06,23.979067,120.867742,1.2981792e-09
C0R870,興海,2026-01-06,21.9752,120.8439,0.99934316
C0R140,瑪家,2026-01-06,22.682903,120.686639,4.4974593e-09
C0A530,坪林,2026-01-06,24.938183,121.70975,2.6392917e-07
C0X260,後壁,2026-01-06,23.366358,120.362326,0.02599244
C0Z230,和平,2026-01-06,24.30717,121.77007,1.6594625e-07
C0G770,福興,2026-01-06,24.041289,120.437669,0.0013955063
C0H9A0,神木村,2026-01-06,23.532742,120.843667,9.6216e-09
C0I460,南投,2026-01-06,23.911469,120.687331,8.417353e-10
C0I480,梅峰,2026-01-06,24.085272,121.173572,2.2266425e-08
C1V570,吉東,2026-01-06,22.85422,120.5454,3.951967e-09
C2A560,福山,2026-01-06,24.776203,121.502811,1.2413756e-07
C0AH30,五分山,2026-01-06,25.07125,121.780794,9.986449e-08
C0FA10,松柏,2026-01-06,24.429115,120.617482,0.9632552
72S200,東改班鳩分場,2026-01-06,22.829528,121.077694,2.6782227e-05
72HA00,中改埔里分場,2026-01-06,23.903208,120.963364,3.000088e-09
C2H9W0,大坪頂農水,2026-01-06,24.043122,120.932781,3.5892724e-09
C0C650,平鎮,2026-01-06,24.897503,121.214636,0.0023764705
C0S930,延平,2026-01-06,22.902581,121.084058,6.1766536e-07
C0UA60,樟樹山,2026-01-06,24.41393,121.78325,3.7319985e-08
C2UC10,出水溪,2026-01-06,24.615822,121.652253,5.3362243e-08
C1S670,摩天,2026-01-06,23.199503,121.027,1.7095136e-08
C2C590,觀音,2026-01-06,25.027072,121.153317,0.2903361
C0V630,茄萣,2026-01-06,22.906642,120.182608,0.0013297842
466940,基隆,2026-01-06,25.133314,121.740475,1.3482424e-06
C0X050,東河,2026-01-06,23.296598,120.385608,5.858178e-09
C0R770,保力,2026-01-06,22.071122,120.764111,0.99988616
G2L020,農試嘉義分所,2026-01-06,23.485028,120.473806,4.129557e-09
C0X240,關子嶺,2026-01-06,23.331169,120.508025,1.7222175e-09
C0I380,集集,2026-01-06,23.828206,120.801467,1.340763e-09
466990,花蓮,2026-01-06,23.975128,121.613275,4.43141e-08
C1V220,小關山,2026-01-06,23.154217,120.813603,1.22862085e-08
C1F9G1,慶福山,2026-01-06,24.180853,120.848378,1.7439657e-08
C0FB20,雪山橋,2026-01-06,24.23192,120.9786,2.5849367e-08
C0Z250,瑞穗林道,2026-01-06,23.49284,121.30688,2.6404237e-08
C0D590,新豐,2026-01-06,24.87068,120.97721,0.9997275
C0A870,五指山,2026-01-06,25.132153,121.608692,7.62578e-07
C0UA50,西帽山,2026-01-06,24.555361,121.802628,4.5228816e-08
C2R980,竹田國中,2026-01-06,22.61532,120.52412,0.0003887241
C0X160,仁德,2026-01-06,22.968258,120.257689,0.11347831
C1H971,六分寮,2026-01-06,23.92507,120.6378,1.6305565e-09
C0W120,西嶼,2026-01-06,23.5626,119.468436,0.998274
C0G650,員林,2026-01-06,23.946503,120.585597,1.3276602e-06
C0AD50,鶯歌,2026-01-06,24.951533,121.346294,0.05410725
C2H9Q0,北東眼山,2026-01-06,24.120939,121.189303,1.998517e-08
C2H9T0,名間竹圍,2026-01-06,23.859914,120.637572,1.5672237e-09
C0S990,山豬窟,2026-01-06,22.318619,120.857372,4.6093348e-08
C0X190,安平,2026-01-06,22.993161,120.152181,0.15179917
C0K400,斗六,2026-01-06,23.720583,120.541127,2.2747368e-09
12J990,口湖工作站,2026-01-06,23.589978,120.180394,0.0014343904
C0O830,北寮,2026-01-06,23.079561,120.495008,2.8572706e-09
C1D410,白蘭,2026-01-06,24.579364,121.079947,3.6791043e-08
C0S970,加津林,2026-01-06,22.416211,120.926942,0.96362776
C0D700,關西,2026-01-06,24.7977,121.1732,2.7269227e-06
C0U750,龜山島,2026-01-06,24.841667,121.953133,6.791397e-08
C0R810,內獅,2026-01-06,22.305064,120.642986,0.99745476
C1M390,龍美,2026-01-06,23.406728,120.654417,5.418549e-09
C2K290,崙內,2026-01-06,23.69525,120.35601,0.26756048
C2FB60,頭櫃山,2026-01-06,24.129842,120.858925,6.5444006e-09
C1H840,國三N238K,2026-01-06,23.841008,120.707711,1.4510466e-09
CAQ030,崎峰國小,2026-01-06,22.42565,120.49521,0.005064504
C2E520,大湖,2026-01-06,24.414939,120.870872,9.397863e-06
467530,阿里山,2026-01-06,23.508208,120.813242,2.270152e-08
C1E691,南湖,2026-01-06,24.40135,120.837533,2.300159e-07
C0FA30,梧棲,2026-01-06,24.256003,120.523381,0.99936026
C1V231,高中,2026-01-06,23.134911,120.716711,3.4119132e-09
C0AK30,硬漢嶺,2026-01-06,25.136097,121.426372,1.4318566e-06
C0F9V0,新社,2026-01-06,24.200172,120.815806,1.40745255e-08
C0H890,埔里,2026-01-06,23.972169,120.952425,2.3160078e-09
C0R690,墾丁,2026-01-06,21.966756,120.810269,0.99996865
C0SD20,富山,2026-01-06,22.822383,121.190825,3.7576952e-05
C0F0D0,審馬陣,2026-01-06,24.381675,121.4203,8.001642e-08
C2W030,金門農試所,2026-01-06,24.448431,118.451786,0.013637573
C0R820,白鷺,2026-01-06,22.454275,120.666219,1.2484045e-08
C0FB00,大雪山,2026-01-06,24.254668,121.007374,2.798317e-08
C1V190,南天池,2026-01-06,23.27403,120.91176,3.1050202e-08
C0E940,雪見,2026-01-06,24.42595,121.01347,3.726237e-08
K2E360,苗栗農改場,2026-01-06,24.495722,120.829111,0.0028652425
CAJ050,海口故事園區,2026-01-06,23.57543,120.14121,0.0014373946
C2K280,四湖,2026-01-06,23.6304,120.22717,0.9611168
C2H9D0,三隻寮,2026-01-06,24.093078,120.861578,2.6684404e-09
C0O990,媽廟,2026-01-06,22.99175,120.293525,0.31391186
C0D480,打鐵坑,2026-01-06,24.849664,121.150789,1.0323563e-06
C0Z220,和平林道,2026-01-06,24.343922,121.656317,3.199499e-08
C0TA10,花蓮漁港,2026-01-06,23.995322,121.638331,0.9911793
72C440,桃園農改場,2026-01-06,24.950944,121.030583,0.053691793
C1E711,馬拉邦山,2026-01-06,24.367306,120.901656,8.214329e-09
C0SB20,富岡,2026-01-06,22.792467,121.192669,0.99761814
C0D560,竹東,2026-01-06,24.767147,121.057881,0.0019349406
C0F9U0,南屯,2026-01-06,24.137006,120.637969,1.8539897e-05
C2SD60,明峰,2026-01-06,22.8671,121.11825,3.7004853e-07
C0M720,番路,2026-01-06,23.464657,120.554156,2.0595543e-09
C0F0A0,雪山圈谷,2026-01-06,24.388594,121.236339,7.2746914e-08
C1A9N0,四十份,2026-01-06,24.934158,121.593283,2.1825329e-07
C0U760,東澳,2026-01-06,24.52196,121.83318,2.089124e-07
C0X230,鹽水,2026-01-06,23.272621,120.247641,0.040973388
C2H9H0,苗改南投蜂場,2026-01-06,23.852589,120.693481,1.2194707e-09
C2TB70,達谷寮,2026-01-06,23.38,121.35968,4.4846807e-08
C0R950,萬隆國小,2026-01-06,22.507667,120.587817,2.5968513e-08
467540,大武,2026-01-06,22.35572,120.90374,0.9999083
C0V370,古亭坑,2026-01-06,22.893178,120.401947,3.5852445e-08
C1I340,新興橋,2026-01-06,23.563333,120.868728,4.020638e-09
C0SA80,土坂,2026-01-06,22.453108,120.887572,0.012921409
C0R160,鹽埔,2026-01-06,22.739558,120.530778,1.1579597e-08
C0AC40,大屯山,2026-01-06,25.175675,121.522408,1.9289021e-07
466850,五分山雷達站,2026-01-06,25.071182,121.781205,9.877655e-08
C2H9L0,馬烈霸,2026-01-06,24.1512,121.201772,2.2165027e-08
C1AI50,國三N016K,2026-01-06,25.034164,121.619664,1.1613371e-06
C2V920,匏子寮,2026-01-06,23.04905,120.55319,2.4470737e-09
C1V600,藤枝,2026-01-06,23.071961,120.757042,9.568966e-09
C1E601,南勢,2026-01-06,24.572486,120.734842,0.93910295
C0O980,新市,2026-01-06,23.061614,120.298197,0.450609
C0K420,西螺,2026-01-06,23.800407,120.467394,3.4177816e-09
C0Z050,佳心,2026-01-06,23.34567,121.21316,2.609358e-08
C0AD30,蘆洲,2026-01-06,25.086594,121.472331,1.611947e-06
C0V610,梓官,2026-01-06,22.760558,120.267211,0.99317616
K2F750,種苗改良場,2026-01-06,24.225972,120.800917,1.2257629e-08
C0UA80,大溪漁港,2026-01-06,24.941801,121.902955,1.6566556e-06
C1AI60,國一39K邊坡,2026-01-06,25.064361,121.383836,4.2630964e-07
C0W150,金寧,2026-01-06,24.457703,118.328989,0.77428603
C0R960,內埔,2026-01-06,22.608483,120.570714,0.00024805387
V2C250,八德合作社,2026-01-06,24.93775,121.266389,0.008927017
C2H9S0,龍南,2026-01-06,23.953536,120.833183,5.460745e-09
C0AH40,平等,2026-01-06,25.129142,121.577086,8.777605e-06
C0R540,佳冬,2026-01-06,22.419456,120.552375,0.0018473731
466950,彭佳嶼,2026-01-06,25.627975,122.079744,0.9999184
C0A890,雙溪,2026-01-06,25.036003,121.864242,7.598629e-07
C0C480,桃園,2026-01-06,24.992425,121.323172,0.024830712
C0AH50,林口,2026-01-06,25.072181,121.38084,3.307267e-07
A2K360,水試臺西試驗場,2026-01-06,23.717231,120.190522,0.9789139
C2M960,外寮,2026-01-06,23.562643,120.665688,4.8587037e-09
C0F9S0,烏日,2026-01-06,24.107058,120.624103,9.444544e-08
C2N180,鹿陶洋,2026-01-06,23.14325,120.48352,3.938077e-09
C0C490,八德,2026-01-06,24.928708,121.283289,0.008755546
C0R190,赤山,2026-01-06,22.592333,120.614306,0.0001321813
C0T820,天祥,2026-01-06,24.179597,121.495639,3.8742893e-08
C1F9E1,龍安,2026-01-06,24.1605,120.831961,1.4361157e-08
C2SD50,順那,2026-01-06,23.04166,121.29332,9.403556e-06
C0V820,小林,2026-01-06,23.148408,120.63325,1.9194777e-09
C2G870,芳苑,2026-01-06,23.922303,120.320025,0.9776084
C0E850,大河,2026-01-06,24.618069,120.948578,0.0039412803
C1U670,寒溪,2026-01-06,24.634,121.71691,1.0156955e-07
C0N020,城西,2026-01-06,23.0568,120.0956,0.31235448
C1Z110,三棧,2026-01-06,24.11557,121.60501,3.6189576e-08
C0R280,檳榔,2026-01-06,22.076078,120.836777,0.9999691
C2H9J0,中台,2026-01-06,23.9996,120.938739,2.5010367e-09
C0F9L0,后里,2026-01-06,24.310436,120.729725,7.789819e-09
467441,高雄,2026-01-06,22.730432,120.312516,0.99455136
C0Z180,新城,2026-01-06,24.040486,121.604878,4.3790138e-08
C0D540,橫山,2026-01-06,24.71116,121.11693,0.00029486744
C1D420,太閣南,2026-01-06,24.632808,121.160575,8.7674245e-08
C1E770,公館,2026-01-06,24.526914,120.830806,0.000712076
CAN130,水試所海水繁養殖中心,2026-01-06,23.120802,120.07968,0.37769607
C1I430,翠華,2026-01-06,24.191961,121.224339,3.037226e-08
C1M400,菜瓜坪,2026-01-06,23.251928,120.576103,1.7363342e-09
C0G730,二林,2026-01-06,23.903325,120.376081,0.0002318252
72M360,南改義竹分場,2026-01-06,23.360694,120.279361,0.007832202
V2K620,麥寮合作社,2026-01-06,23.753836,120.294783,0.42597815
C0Z070,舞鶴,2026-01-06,23.46811,121.37407,1.9052315e-08
C0B040,大武崙,2026-01-06,25.166676,121.706993,1.0487986e-06
C1Z030,紅葉,2026-01-06,23.493119,121.338806,1.995786e-08
C1I050,丹大,2026-01-06,23.753747,121.141147,3.234973e-08
C0I080,信義,2026-01-06,23.689694,120.851036,2.4009883e-09
C2TB80,庄子底,2026-01-06,23.71794,121.49438,2.7507745e-08
C0D750,樂山林道6k,2026-01-06,24.49999,121.08773,4.2646292e-08
C2M920,朴子農改,2026-01-06,23.469889,120.259383,0.0002722618
C2A880,福隆,2026-01-06,25.017842,121.942083,1.0224875e-06
C0Z160,鳳林,2026-01-06,23.746114,121.453411,2.6921315e-08
C0UB80,翠峰林道6K,2026-01-06,24.49773,121.568625,5.8109187e-08
C0V210,復興,2026-01-06,23.222403,120.806089,3.3372844e-09
C0H990,昆陽,2026-01-06,24.121322,121.273642,4.4209667e-08
C0R741,獅子,2026-01-06,22.202308,120.705236,0.99775374
C0S710,鹿野,2026-01-06,22.917711,121.122994,1.6674086e-07
C0I530,小奇萊,2026-01-06,24.131764,121.295717,4.754662e-08
C0FA70,大雪山埡口,2026-01-06,24.26867,121.03062,3.4510606e-08
C2K630,荷苞,2026-01-06,23.657717,120.595144,1.1708694e-09
C0Z080,富源,2026-01-06,23.587642,121.378225,2.3964555e-08
C2M9E0,旺來山,2026-01-06,23.555153,120.486463,3.086101e-09
C0SB10,美和,2026-01-06,22.682078,121.060236,0.40304118
C2K620,馬光農場,2026-01-06,23.721453,120.378864,3.7081205e-09
C1I140,卡奈托灣,2026-01-06,23.754364,121.087872,1.3087659e-08
C0I520,玉山風口,2026-01-06,23.470489,120.955994,5.8008304e-08
C1G691,下水埔,2026-01-06,23.816114,120.5676,1.8884578e-09
C0X110,臺南市南區,2026-01-06,22.961189,120.188378,0.12853554
C0V680,仁武,2026-01-06,22.701083,120.347722,0.9938115
C2G840,北斗,2026-01-06,23.877586,120.514222,3.6176178e-05
C2TB90,長橋,2026-01-06,23.6874,121.46186,2.686894e-08
C0R900,竹坑,2026-01-06,22.1385,120.7022,0.9999566
C0G860,社頭,2026-01-06,23.897647,120.5862,5.991353e-07
C0X150,安定,2026-01-06,23.102614,120.227839,0.5042089
C0R590,里港,2026-01-06,22.77919,120.49459,3.117583e-08
C0E610,馬都安,2026-01-06,24.451272,120.930192,4.5142286e-08
C0E550,明德,2026-01-06,24.583486,120.885411,0.0002011286
C0R150,三地門,2026-01-06,22.709889,120.639944,8.1552826e-10
C0G910,花壇,2026-01-06,24.032076,120.549461,2.7297636e-05
C1D400,鳥嘴山,2026-01-06,24.71909,121.28387,1.1611992e-07
C0K500,元長,2026-01-06,23.64981,120.315024,0.43555388
C0F0B0,石岡,2026-01-06,24.276061,120.777644,8.83578e-09
C2V250,甲仙,2026-01-06,23.080106,120.591758,1.63371e-09
C0SA20,金崙山,2026-01-06,22.567419,120.959667,6.813493e-08
C0V350,溪埔,2026-01-06,22.738578,120.446797,5.0731703e-08
C0M660,溪口,2026-01-06,23.604131,120.403569,7.2848656e-09
C1S880,壽卡,2026-01-06,22.238911,120.858903,6.0146467e-06
72D680,桃改新埔分場,2026-01-06,24.834444,121.066111,0.028293328
