站號,站名,日期,lat,lon,BLBTSLS
C0R710,龍磐,2026-01-08,21.931672,120.838942,0.9971367
C1F9D1,白毛台,2026-01-08,24.158325,120.886933,5.2743343e-09
C0G940,竹塘,2026-01-08,23.848253,120.386764,7.2703603e-09
467590,恆春,2026-01-08,22.003897,120.746339,0.9891155
C1O850,環湖,2026-01-08,23.148617,120.418633,1.1372421e-09
C0U710,太平山,2026-01-08,24.505486,121.525656,4.56421e-08
C0E820,獅潭,2026-01-08,24.539133,120.920042,1.5303993e-06
C2SD70,二層坪,2026-01-08,22.94105,121.16838,1.3140186e-08
C0V880,興達,2026-01-08,22.8778,120.2127,0.25764948
C0S890,關山,2026-01-08,23.0395,121.175017,1.434432e-08
C0SB30,新蘭,2026-01-08,22.869214,121.223228,1.995782e-08
C2R970,屏科大,2026-01-08,22.648275,120.619247,4.3211752e-08
C1Z130,銅門,2026-01-08,23.965694,121.492842,2.4528786e-08
C0AD40,土城,2026-01-08,24.973208,121.445169,1.4134713e-07
CAN140,六官養殖協會,2026-01-08,23.22881,120.29962,0.0015659506
C0X180,山上,2026-01-08,23.0757,120.363253,0.0010249171
C0F9Z0,雪山東峰,2026-01-08,24.388792,121.268675,4.6644153e-08
C1M480,獨立山,2026-01-08,23.537022,120.607797,2.697054e-09
C0X220,學甲,2026-01-08,23.230367,120.182187,0.0121950125
467650,日月潭,2026-01-08,23.881325,120.90805,5.6002536e-09
A2K570,古坑(花卉中心),2026-01-08,23.633531,120.552392,1.8603434e-09
C0K600,箔子寮,2026-01-08,23.6197,120.14,0.8905473
C0G830,埤頭,2026-01-08,23.866003,120.452806,3.6444883e-09
C0S950,七塊厝,2026-01-08,22.954453,121.229922,1.0005397e-08
467110,金門,2026-01-08,24.407306,118.289281,0.89423305
C0AH80,深坑,2026-01-08,25.002703,121.628328,2.050345e-07
C0A970,三貂角,2026-01-08,25.007606,122.002058,1.4717538e-07
C2D730,寶山農場,2026-01-08,24.732444,120.976153,5.7042075e-06
C0K430,褒忠,2026-01-08,23.690938,120.303634,0.009487487
467480,嘉義,2026-01-08,23.495925,120.432906,1.8571279e-09
C0V400,阿公店,2026-01-08,22.804194,120.355528,0.004467237
C0E960,觀霧分站,2026-01-08,24.505781,121.113921,2.3227996e-08
467550,玉山,2026-01-08,23.48718,120.95943,4.5378997e-08
C0R440,大漢山,2026-01-08,22.405264,120.753181,1.6491926e-08
C0SD30,東清國小,2026-01-08,22.057128,121.564922,0.99786323
C1F9B1,桐林,2026-01-08,24.066172,120.735194,3.0436438e-09
C2H9U0,鳳鵬,2026-01-08,23.763919,120.788061,1.499554e-09
C0K390,土庫,2026-01-08,23.679029,120.395574,4.3633874e-09
C1I450,望鄉山,2026-01-08,23.594153,120.944286,2.702854e-08
C0E910,海埔,2026-01-08,24.648767,120.772435,0.0008807796
B2E890,畜試北區分所,2026-01-08,24.527806,120.770972,1.4037366e-05
C0R750,四林格山,2026-01-08,22.076989,120.802439,0.69381773
C0F0C0,中坑,2026-01-08,24.248517,120.903319,6.355027e-09
C1I121,大鞍,2026-01-08,23.678381,120.760017,8.286764e-09
C2G9E0,移民庄,2026-01-08,23.9784,120.40283,0.000597139
72U480,花改蘭陽分場,2026-01-08,24.686306,121.716583,1.5167306e-08
C0A770,科教館,2026-01-08,25.096356,121.516507,1.0138316e-07
C0AJ60,六塊厝,2026-01-08,25.24,121.4481,0.0009894016
C0R620,墾雷,2026-01-08,21.900836,120.855269,0.99112904
467420,永康,2026-01-08,23.038386,120.2367,0.014526074
C2M530,奮起湖,2026-01-08,23.493903,120.699253,5.8980354e-09
C0I410,名間,2026-01-08,23.837053,120.701447,1.4514064e-09
A2C560,農工中心,2026-01-08,24.985917,121.239833,0.00015454496
C0V740,旗山,2026-01-08,22.888614,120.483597,2.648639e-09
C0Z061,玉里,2026-01-08,23.3215,121.339656,1.2361946e-08
C0S840,南田,2026-01-08,22.279725,120.889208,0.99915296
C1I470,杉林溪,2026-01-08,23.639517,120.786444,9.209179e-09
C1X040,東原,2026-01-08,23.291597,120.463822,1.1736531e-09
C0R660,枋寮,2026-01-08,22.367722,120.590647,5.064974e-05
C1R120,上德文,2026-01-08,22.763272,120.704442,2.986107e-09
C0K450,大埤,2026-01-08,23.646074,120.431537,3.7787333e-09
C0UA00,土場,2026-01-08,24.576533,121.495333,4.529546e-08
467080,宜蘭,2026-01-08,24.763975,121.756528,1.582206e-08
C0N030,四草,2026-01-08,23.0235,120.1116,0.4114649
467410,臺南,2026-01-08,22.99328,120.20492,0.09534496
C0V650,彌陀,2026-01-08,22.783806,120.246361,0.13513334
C0D660,新竹市東區,2026-01-08,24.798681,120.986942,4.3966495e-05
82S580,茶改東部分場,2026-01-08,22.907694,121.130139,1.3174166e-08
C0SB40,興隆,2026-01-08,22.913661,121.257469,3.3357463e-08
467050,新屋,2026-01-08,25.006725,121.047492,0.008820101
C0C710,大溪永福,2026-01-08,24.892936,121.324975,6.781713e-05
C0FA20,溫寮,2026-01-08,24.372177,120.583125,0.96085024
C0V640,湖內,2026-01-08,22.887139,120.2445,0.22336645
C0R910,下寮,2026-01-08,22.3929,120.5548,0.0002131894
C0Z020,明里,2026-01-08,23.208717,121.262342,1.1134758e-08
C0M770,嘉義梅山,2026-01-08,23.585398,120.555587,1.1737695e-09
C0C660,楊梅,2026-01-08,24.912375,121.143047,6.714903e-05
C0SD40,牛頭山,2026-01-08,22.676661,121.506944,0.9998534
C1E511,新開,2026-01-08,24.347703,120.827019,3.6009382e-08
G2F820,農試所(霧峰),2026-01-08,24.031261,120.688133,3.1452407e-09
C2M990,大巃頂,2026-01-08,23.5547,120.61439,3.4455272e-09
C1I070,和社,2026-01-08,23.591131,120.888861,2.8125757e-09
C2E990,新坪頂,2026-01-08,24.30201,120.8574,1.3900633e-08
C0TA80,立霧山,2026-01-08,24.183258,121.641899,2.9596169e-08
C2F000,大肚,2026-01-08,24.15295,120.572117,4.1160554e-05
C1S850,豐南,2026-01-08,23.122139,121.262389,1.19450085e-08
C2M9B0,西興,2026-01-08,23.2428,120.57617,1.5615157e-09
C2A920,富貴角,2026-01-08,25.263783,121.565258,4.3504966e-05
CAH030,茶改場竹圍站,2026-01-08,23.860083,120.637528,1.757502e-09
C0T960,光復,2026-01-08,23.660694,121.424964,2.2982354e-08
C0F9M0,豐原,2026-01-08,24.254322,120.720692,8.292507e-08
C0R720,旭海,2026-01-08,22.205403,120.887614,0.9992434
C0V710,苓雅,2026-01-08,22.622742,120.330669,0.27441454
C0C740,觀音工業區,2026-01-08,25.064764,121.114856,0.044926293
CAC040,拉拉山,2026-01-08,24.699317,121.427133,6.716719e-08
C0V790,萬山,2026-01-08,22.905944,120.688056,2.67251e-09
U2HA30,臺大和社,2026-01-08,23.590856,120.888864,2.8125757e-09
C2H9K0,屯原,2026-01-08,24.067969,121.209389,1.6030903e-08
C0AJ90,澳底,2026-01-08,25.0552,121.9253,2.1799036e-07
C0Z100,東華,2026-01-08,23.89525,121.549833,2.7517926e-08
C0G970,三豐,2026-01-08,23.882,120.2895,0.97399664
V2K610,大庄合作社,2026-01-08,23.8068,120.367939,0.013026061
C0V900,汕尾,2026-01-08,22.4782,120.4151,2.074137e-05
C1R630,龍泉,2026-01-08,22.66701,120.59091,1.376345e-07
C1AC50,關渡,2026-01-08,25.133486,121.469331,2.5170897e-05
C0C800,四稜,2026-01-08,24.64733,121.4293,5.998099e-08
C0F9I0,神岡,2026-01-08,24.272481,120.658314,1.8011626e-07
C0K460,斗南,2026-01-08,23.678734,120.478359,3.7519383e-09
C2O810,曾文,2026-01-08,23.219681,120.497328,1.2087306e-09
467280,後龍,2026-01-08,24.648563,120.831834,0.00032121508
C1F9J1,清水林,2026-01-08,24.071242,120.820419,3.3557568e-09
C2A650,火燒寮,2026-01-08,25.002719,121.742892,1.2336925e-07
466930,竹子湖,2026-01-08,25.162078,121.544547,2.9192935e-07
C1I220,樟湖,2026-01-08,23.905333,120.846983,6.5305725e-09
C0I390,仁愛,2026-01-08,24.022122,121.132206,5.5251888e-09
C0Z300,東里,2026-01-08,23.26853,121.30547,1.2230632e-08
C1V590,新發,2026-01-08,23.057019,120.646064,3.7814947e-09
C0K510,水林,2026-01-08,23.572924,120.24597,0.0044893543
72S590,東改賓朗果園,2026-01-08,22.813889,121.071278,6.9632534e-08
82A750,茶改北部分場,2026-01-08,24.955778,121.631222,9.47858e-08
C1A750,石碇服務區,2026-01-08,25.00872,121.646242,2.099562e-07
C0X300,鹿寮,2026-01-08,23.386047,120.477331,1.4832743e-09
G2AI50,關渡,2026-01-08,25.11575,121.492,1.0701519e-07
C0K590,雲林東勢,2026-01-08,23.674192,120.255721,0.008074695
C2K310,港尾布雞,2026-01-08,23.74834,120.38439,3.9848853e-09
C0A570,桶後,2026-01-08,24.848222,121.597992,7.787266e-08
C1S800,華源,2026-01-08,22.657883,121.02325,8.1339897e-07
C0G720,溪州,2026-01-08,23.851589,120.499093,3.5872465e-09
C1V160,達卡努瓦,2026-01-08,23.279811,120.705319,4.909408e-09
C2M410,馬頭山,2026-01-08,23.324361,120.582017,1.2201687e-09
C0V850,蚵仔寮,2026-01-08,22.7256,120.2527,0.15517145
C0S740,池上,2026-01-08,23.119628,121.209469,1.5136095e-08
C1V390,尖山,2026-01-08,22.813153,120.367789,0.0023622902
C0AH70,松山,2026-01-08,25.04871,121.55042,9.8884755e-08
C0N010,鯤鯓國小,2026-01-08,23.1879,120.0889,0.028600002
C0R550,新埤,2026-01-08,22.467947,120.582894,1.7789102e-05
C0SA60,知本（水試所）,2026-01-08,22.702394,121.082761,1.5728127e-05
C0T9I0,豐濱,2026-01-08,23.583897,121.514806,1.6776738e-08
C0UB00,淡江大學蘭陽校園,2026-01-08,24.823239,121.730383,3.3665803e-08
C0W240,九宮,2026-01-08,24.423753,118.240186,0.02792401
C0T9N0,富里,2026-01-08,23.171639,121.249378,1.1074901e-08
U2HA50,臺大竹山,2026-01-08,23.756972,120.681556,1.317642e-09
C0V840,鳳鼻頭,2026-01-08,22.5083,120.3591,1.9020701e-05
C0X140,西港,2026-01-08,23.125608,120.203108,0.002036209
72D080,桃改五峰分場,2026-01-08,24.612194,121.157167,1.38471785e-08
C2H9P0,伊拿谷,2026-01-08,23.963211,121.088264,3.7215049e-09
C2K250,崙背,2026-01-08,23.75553,120.31893,0.0094359815
C2H9F0,柑林,2026-01-08,24.018658,120.847072,2.2662185e-09
C0TA20,加灣,2026-01-08,24.082025,121.608944,5.2712494e-08
C0V530,阿蓮,2026-01-08,22.883208,120.327508,0.010872975
C0FB30,八仙山苗圃,2026-01-08,24.192719,121.001366,6.176786e-09
C1O880,關山,2026-01-08,23.173397,120.594092,1.0355042e-09
C0E791,卓蘭,2026-01-08,24.3126,120.8244,3.510532e-08
C1I030,武界,2026-01-08,23.913225,121.052483,4.0480934e-09
C0R520,崁頂,2026-01-08,22.514781,120.506914,3.14513e-05
C0R341,牡丹,2026-01-08,22.130036,120.792639,0.002697859
C0R930,萬丹,2026-01-08,22.5885,120.4851,3.7445375e-06
C0S760,紅石,2026-01-08,23.069131,121.126219,1.8346421e-08
C2C410,中央大學,2026-01-08,24.967652,121.185165,0.00013118457
C1M610,石磐龍,2026-01-08,23.496606,120.663506,4.5315574e-09
C0C790,東眼山,2026-01-08,24.8284,121.40888,5.5565266e-08
C0UA10,鴛鴦湖,2026-01-08,24.590269,121.412228,5.262921e-08
V2C260,八德蔬果,2026-01-08,24.978508,121.281819,0.00012828068
C0R800,丹路,2026-01-08,22.204481,120.750989,0.016903762
C0G920,永靖,2026-01-08,23.924703,120.547533,6.427706e-06
C2M950,太和,2026-01-08,23.538372,120.702961,5.8298437e-09
C1A630,下盆,2026-01-08,24.771003,121.538622,6.0399444e-08
B2N890,畜產試驗所,2026-01-08,23.058972,120.336406,0.0034421906
C0UA30,白嶺,2026-01-08,24.527819,121.519031,4.4567713e-08
C1V580,溪南(特生中心),2026-01-08,23.084972,120.788475,8.735739e-09
C1T970,大農,2026-01-08,23.615233,121.413331,2.1774284e-08
C0R650,竹田,2026-01-08,22.58486,120.54344,1.8214649e-05
C1H900,清流,2026-01-08,24.080775,120.962997,3.3319165e-09
C1C510,水尾,2026-01-08,24.940081,121.087161,0.00094757305
C2N170,茅港尾,2026-01-08,23.2061,120.2624,0.0019048786
C0F9X0,大雅(中科園區),2026-01-08,24.21528,120.62445,0.0046553994
C0SB60,白守蓮,2026-01-08,23.126769,121.401914,0.99535465
C0O970,虎頭埤,2026-01-08,23.021375,120.347878,0.0023970355
C0C730,中大臨海站,2026-01-08,24.966126,121.008581,0.009039412
C0X250,新營,2026-01-08,23.310689,120.316681,0.00084054004
C0V700,三民,2026-01-08,22.645017,120.311233,0.40236497
C0U870,大礁溪,2026-01-08,24.791042,121.675047,2.5690507e-08
C0E870,高鐵苗栗,2026-01-08,24.60725,120.826094,0.00038683155
A2K570,古坑花卉中心,2026-01-08,23.63353,120.55239,1.0309268e-08
C0TA30,鹽寮,2026-01-08,23.845606,121.592664,2.879314e-08
C0M860,新美,2026-01-08,23.338017,120.683169,2.778181e-09
C1E701,八卦,2026-01-08,24.491756,120.927619,1.8809313e-08
C2TA90,加納納,2026-01-08,23.466421,121.359867,1.4340409e-08
C0I420,國姓,2026-01-08,24.037803,120.855072,2.2963151e-09
C2D720,關西工作站,2026-01-08,24.757275,121.184792,7.114147e-08
C0S960,香蘭,2026-01-08,22.587569,120.993375,9.6890355e-05
467620,蘭嶼,2026-01-08,22.0369,121.55843,0.9980005
C0R260,春日,2026-01-08,22.370361,120.628306,2.1576934e-06
72G600,臺中農改場,2026-01-08,24.003028,120.534389,4.8151755e-06
C0Z210,瑞穗,2026-01-08,23.5239,121.39021,1.7798046e-08
C0M820,達邦,2026-01-08,23.453994,120.749517,3.9362744e-09
C0V860,南寮,2026-01-08,22.7616,120.2339,0.15810117
C0G740,大城,2026-01-08,23.852487,120.320935,0.97292787
C0R920,塭仔,2026-01-08,22.4169,120.5197,0.00022501995
C0R470,高樹,2026-01-08,22.826389,120.600806,2.2768866e-08
C0R680,佳樂水,2026-01-08,21.993578,120.861633,0.9898858
C1O870,大棟山,2026-01-08,23.31157,120.52226,4.9956213e-09
C0D360,梅花,2026-01-08,24.678347,121.208558,2.7282331e-08
C0Z190,富世,2026-01-08,24.14743,121.6297,8.669618e-07
C0AI10,屈尺,2026-01-08,24.92184,121.54475,1.2385753e-07
B2U990,畜試東區分所,2026-01-08,24.669039,121.832561,1.8736912e-08
C0SB80,長濱漁港,2026-01-08,23.313644,121.459994,0.5708462
C0TA50,和仁,2026-01-08,24.241394,121.712472,8.136418e-07
C0V910,大樹,2026-01-08,22.684645,120.432803,6.224818e-08
C1R610,西大武山,2026-01-08,22.617719,120.7322,1.2761997e-08
C0G900,線西,2026-01-08,24.143358,120.443536,0.81671053
C0M700,竹崎,2026-01-08,23.526178,120.555508,1.2012884e-09
C2E880,三義,2026-01-08,24.405478,120.749819,2.4586527e-07
C0C720,竹圍,2026-01-08,25.112692,121.239824,0.00561055
C0F9P0,清水,2026-01-08,24.312297,120.562242,0.84456396
C0Z150,吉安光華,2026-01-08,23.930925,121.595153,3.405186e-08
C0FA80,小雪山天池,2026-01-08,24.28025,121.02627,3.5027735e-08
467300,東吉島,2026-01-08,23.25727,119.66762,0.9989961
C1D640,外坪(五指山),2026-01-08,24.644447,121.090961,7.648061e-08
C2R9A0,高士國小,2026-01-08,22.12553,120.84653,0.02366282
C0F9O0,潭子,2026-01-08,24.213106,120.703933,1.2082694e-07
C2H9R0,卓社,2026-01-08,23.887894,121.000086,6.93912e-09
72T250,花蓮農改場,2026-01-08,23.975222,121.563889,3.1843275e-08
C0E780,銅鑼,2026-01-08,24.489681,120.790853,4.5294787e-06
C1T950,太安,2026-01-08,23.666719,121.370128,1.6382574e-08
C0E830,苑裡,2026-01-08,24.439714,120.653053,0.009972289
467270,田中,2026-01-08,23.873803,120.581286,3.0993914e-09
C0SA10,檳榔四格山,2026-01-08,22.810031,121.109308,4.3311925e-08
C1T830,布洛灣,2026-01-08,24.17184,121.57127,4.40547e-08
C0F970,大坑,2026-01-08,24.173142,120.722289,2.2936312e-07
C1U920,思源,2026-01-08,24.393125,121.347214,2.8544015e-08
C2H9Y0,松茗,2026-01-08,23.8167,120.650765,1.6569102e-09
C0A931,三和,2026-01-08,25.233153,121.595236,1.2966444e-05
C0I010,廬山,2026-01-08,24.033311,121.181808,1.1225899e-08
C2M940,日野賀,2026-01-08,23.434056,120.727169,5.6118017e-09
C0R860,鼻頭,2026-01-08,22.1043,120.8979,0.9944227
C0UB20,壯圍,2026-01-08,24.7359,121.8163,1.5753134e-08
C0R790,九棚,2026-01-08,22.14195,120.889281,0.99971604
C0W110,東莒,2026-01-08,25.9652,119.98069,0.8811143
C1U930,粉鳥林,2026-01-08,24.497088,121.842479,9.3395336e-08
C1I211,蘆竹湳,2026-01-08,23.934019,120.811994,3.4171364e-09
C0S830,長濱,2026-01-08,23.286817,121.411975,1.200517e-08
C1F9F1,伯公龍,2026-01-08,24.272392,120.849047,1.6051187e-08
C0UB90,太平山莊,2026-01-08,24.494171,121.536209,4.5855185e-08
C0E810,西湖,2026-01-08,24.562947,120.7485,0.8427133
C1I440,新高口,2026-01-08,23.478744,120.878939,2.1657605e-08
C0O840,王爺宮,2026-01-08,23.222064,120.40085,1.5601136e-09
C0T9G0,鳳林山,2026-01-08,23.735269,121.420131,2.7188412e-08
C0X080,佳里,2026-01-08,23.173039,120.145086,0.025571635
C0FB70,大甲溪埔,2026-01-08,24.370625,120.620067,0.9132602
C0Z310,清水斷崖,2026-01-08,24.218294,121.689142,3.680038e-07
C0M680,太保,2026-01-08,23.455062,120.331455,0.0001386947
C1S820,金峰,2026-01-08,22.590969,120.933236,2.4643173e-06
C0AD10,八里,2026-01-08,25.150211,121.403947,0.0018247102
C2K240,草嶺,2026-01-08,23.59555,120.693461,4.499261e-09
C1SA70,都蘭,2026-01-08,22.87794,121.226881,1.9220762e-08
C0K440,二崙,2026-01-08,23.772797,120.408944,3.7701593e-09
C1A760,坪林交控,2026-01-08,24.94284,121.713442,1.7345634e-07
C0F9N0,大里,2026-01-08,24.092464,120.701378,3.263087e-09
C0SA90,達仁林場,2026-01-08,22.264347,120.823972,1.2589256e-08
C1R290,石門山,2026-01-08,22.112611,120.756597,0.99863416
42HA10,萬大發電廠,2026-01-08,23.978875,121.139639,4.693829e-09
C0R890,山海,2026-01-08,21.9878,120.7091,0.9801089
C0T9A0,月眉山,2026-01-08,23.809928,121.539828,1.7389567e-08
C0AC70,信義,2026-01-08,25.037822,121.564597,1.0094496e-07
C0K560,棋山,2026-01-08,23.68645,120.603417,1.8889694e-09
C2FB50,出雲,2026-01-08,24.206469,120.902794,7.1288686e-09
C1Z240,中平林道,2026-01-08,23.42115,121.26763,2.6170838e-08
U2H480,溪頭,2026-01-08,23.670306,120.798194,4.647008e-09
C0M880,好美里,2026-01-08,23.3364,120.138,0.009273606
C0T9E0,大坑,2026-01-08,23.880628,121.581981,2.3313572e-08
C0K530,臺西,2026-01-08,23.701547,120.197559,0.9494852
C1E900,國一N128K,2026-01-08,24.560997,120.844186,2.4542918e-05
C0AJ50,水湳洞,2026-01-08,25.123695,121.862238,2.1462915e-07
C0AI20,白沙灣,2026-01-08,25.283128,121.519058,0.0011448736
C2V310,美濃,2026-01-08,22.898792,120.51907,2.779628e-09
C0A860,大坪,2026-01-08,25.165914,121.632969,8.433914e-08
C1U850,觀音海岸,2026-01-08,24.38319,121.77856,1.6051922e-08
C2K610,草嶺石壁,2026-01-08,23.602469,120.707731,4.6771795e-09
C0U950,鶯子嶺,2026-01-08,24.89754,121.79244,6.086144e-08
C0O900,善化,2026-01-08,23.112883,120.297219,0.008098245
C0K550,蔦松,2026-01-08,23.514319,120.229736,0.03407919
E2P980,林試六龜中心,2026-01-08,22.991703,120.645722,3.5561547e-09
C0E590,通霄,2026-01-08,24.471892,120.704622,0.79912007
C1I310,西巒,2026-01-08,23.754486,120.883956,6.385159e-09
C0A550,泰平,2026-01-08,24.971197,121.823711,8.739459e-08
C0I360,水里,2026-01-08,23.812553,120.849792,1.5429085e-09
C0R830,高士,2026-01-08,22.121825,120.836781,0.9954554
C1I101,溪頭,2026-01-08,23.661789,120.807647,1.0414469e-08
C0AJ20,野柳,2026-01-08,25.20703,121.690021,0.00030662317
C0B060,暖暖,2026-01-08,25.0957,121.7403,1.8832813e-07
C1H920,長豐,2026-01-08,24.102039,120.879897,3.251779e-09
C2S9B0,利吉,2026-01-08,22.86246,121.15486,1.4309671e-08
C0V360,內門,2026-01-08,22.975481,120.466769,2.2853524e-09
C0R850,林邊,2026-01-08,22.4634,120.5339,0.00026808458
C0E930,龍鳳,2026-01-08,24.700034,120.859125,0.0006545291
C0U910,冬山,2026-01-08,24.63373,121.7937,1.8736912e-08
C1E721,泰安,2026-01-08,24.489017,120.968036,1.9209034e-08
82H320,茶改中部分場,2026-01-08,23.875611,120.913583,4.6707163e-09
C0M750,布袋,2026-01-08,23.380878,120.167789,0.33950335
C1S860,利嘉,2026-01-08,22.809417,121.050528,4.061297e-08
E2S980,林試太麻里1,2026-01-08,22.598922,120.980044,1.6340247e-05
C0X170,關廟,2026-01-08,22.963017,120.327797,0.002930012
C0V720,林園,2026-01-08,22.507747,120.394511,1.625982e-05
C1I510,線浸林道,2026-01-08,23.761508,120.832956,6.1613603e-09
C0D690,外湖,2026-01-08,24.917735,120.968711,0.99734485
C0C750,新興坑尾,2026-01-08,25.0061,121.0971,0.0026444017
B2Q810,畜試南區分所,2026-01-08,21.945583,120.802167,0.9885595
C0S790,金崙,2026-01-08,22.538122,120.966875,1.5289464e-06
C0AH90,福山植物園,2026-01-08,24.760717,121.58135,5.8785748e-08
C0I540,奇萊稜線,2026-01-08,24.109231,121.326456,3.9956948e-08
C0M850,表湖,2026-01-08,23.24186,120.64166,2.958182e-09
C0S770,大溪山,2026-01-08,22.478475,120.943325,2.8232174e-07
C0AG80,中和,2026-01-08,24.991622,121.491792,1.4122034e-07
C0T790,大禹嶺,2026-01-08,24.186117,121.316086,3.2037367e-08
C0T9B0,水源,2026-01-08,23.991861,121.537169,2.6639157e-08
C0R840,牡丹池山,2026-01-08,22.168389,120.841225,1.5838335e-08
C1I131,桶頭,2026-01-08,23.641944,120.654117,1.4144272e-09
CAL110,布袋國中,2026-01-08,23.35893,120.18026,0.009346485
C2M9D0,何竹子腳,2026-01-08,23.53641,120.38203,1.8670585e-09
467571,新竹,2026-01-08,24.827853,121.014219,0.00059500884
C0Z290,赤柯山,2026-01-08,23.36893,121.38293,2.0734966e-08
C0X280,將軍,2026-01-08,23.214999,120.13577,0.01545203
C0S690,太麻里,2026-01-08,22.60902,120.98533,1.037298e-07
C0U880,北關,2026-01-08,24.9072,121.8734,6.3590375e-07
CAW010,東引,2026-01-08,26.3588,120.4836,0.9281435
C0G810,埔心,2026-01-08,23.947633,120.525456,7.566302e-06
C0U970,大福,2026-01-08,24.80064,121.81389,1.592339e-08
C2H9N0,仁愛東眼,2026-01-08,24.026875,121.1205,7.575683e-09
C1E670,南礦,2026-01-08,24.538278,121.002836,2.0971942e-08
C0M520,東後寮,2026-01-08,23.369908,120.248065,0.002578307
C1E461,松安,2026-01-08,24.397972,120.986022,1.5832446e-08
C2N160,西拉雅風管處,2026-01-08,23.189481,120.335297,0.0005220837
C2M970,碧湖,2026-01-08,23.568632,120.624165,3.4239933e-09
C0A640,石碇,2026-01-08,24.993969,121.662917,1.7333761e-07
E2S960,林試太麻里2,2026-01-08,22.598,120.99775,0.00013333543
C0F9Y0,桃山,2026-01-08,24.432739,121.303808,4.848116e-08
C1I020,萬大,2026-01-08,23.979817,121.132261,5.579825e-09
C2UC20,長嶺,2026-01-08,24.70894,121.61162,3.6046835e-08
C0U940,羅東,2026-01-08,24.68184,121.74934,1.5315361e-08
C0M650,朴子,2026-01-08,23.43463,120.23902,0.00057554245
C1I500,大尖山,2026-01-08,23.858572,120.994889,1.3509186e-08
C0FB40,中橫21.6k,2026-01-08,24.2499,121.1455,9.2320604e-09
C0G820,田尾,2026-01-08,23.901669,120.509389,7.1266672e-06
E2K600,四湖植物園,2026-01-08,23.676986,120.163433,0.9011678
C0S730,綠島,2026-01-08,22.6672,121.47533,0.99974567
12Q970,東港工作站,2026-01-08,22.479997,120.466058,0.00033261572
C1TA00,太魯閣,2026-01-08,24.15773,121.6236,6.306357e-08
466920,臺北,2026-01-08,25.037658,121.514853,9.8884755e-08
C0R600,舊泰武,2026-01-08,22.588194,120.664944,4.354583e-09
C1I260,北坑,2026-01-08,23.9246,121.006903,2.6201095e-09
466910,鞍部,2026-01-08,25.182586,121.529731,1.9088093e-07
C1I230,九份二山,2026-01-08,23.961944,120.845,4.3480926e-09
C2M810,里佳,2026-01-08,23.389125,120.716647,7.276603e-09
C2A660,瑞芳,2026-01-08,25.113169,121.801147,1.7376429e-07
C0R270,琉球嶼,2026-01-08,22.332244,120.362236,0.0009525434
C2V580,瑞山,2026-01-08,22.90304,120.43424,2.4053108e-09
C1T990,高寮,2026-01-08,23.394239,121.356808,1.2808061e-08
C0G620,芬園,2026-01-08,24.015678,120.6213,5.3173017e-07
C1Z140,荖溪,2026-01-08,23.890575,121.45964,3.570858e-08
C1I201,中心崙,2026-01-08,23.728722,120.712097,2.2352455e-09
C1I400,凌霄,2026-01-08,24.018778,121.004456,7.57408e-09
C1M640,十字,2026-01-08,23.492153,120.753683,8.4287e-09
G2P820,農試鳳山分所,2026-01-08,22.646611,120.356083,0.18459228
C0Z270,蕃薯寮,2026-01-08,23.73835,121.540108,1.7748755e-08
C2E420,竹南,2026-01-08,24.70898,120.88897,0.0003137522
C0FB10,出雲山苗圃,2026-01-08,24.23105,120.90475,6.355803e-09
C0F9Q0,外埔,2026-01-08,24.347817,120.705686,3.0790213e-07
C0K580,高鐵雲林,2026-01-08,23.737456,120.417944,3.9869836e-09
C2I090,鳳凰,2026-01-08,23.728081,120.787347,3.2525669e-09
C0U990,員山,2026-01-08,24.74435,121.72247,1.5327313e-08
C0V770,大社,2026-01-08,22.730306,120.346639,0.048445947
C0X120,麻豆,2026-01-08,23.183289,120.248611,0.0012295647
C0C670,龍潭,2026-01-08,24.870056,121.221389,1.2590594e-07
C0D680,香山濕地,2026-01-08,24.783581,120.914988,0.9972809
C0S980,勝林山,2026-01-08,22.430439,120.8938,4.566239e-08
C0V730,大寮,2026-01-08,22.605614,120.395717,4.082709e-05
C0R570,麟洛,2026-01-08,22.65078,120.52719,4.2134822e-08
C2M930,石卓,2026-01-08,23.478744,120.702264,8.240378e-09
C0G9B0,和美,2026-01-08,24.105169,120.492131,0.00031917501
CAG100,王功漁港,2026-01-08,23.96824,120.32586,0.8736635
C0X290,北門,2026-01-08,23.267772,120.125481,0.015770959
C2F930,大甲,2026-01-08,24.347667,120.640403,5.0880976e-06
C0D650,湖口,2026-01-08,24.904794,121.043628,0.00036514434
C0U780,五結,2026-01-08,24.68637,121.79794,1.8736912e-08
C1I250,鯉潭,2026-01-08,23.961922,120.991131,3.0661407e-09
C0R130,阿禮,2026-01-08,22.742908,120.743678,3.6590104e-09
C0X100,臺南市北區,2026-01-08,23.010394,120.194228,0.14873125
C0S920,金峰嘉蘭,2026-01-08,22.594789,120.960825,1.6028866e-05
C0V490,新興,2026-01-08,22.627422,120.298803,0.6194458
C0F9K0,大安,2026-01-08,24.345061,120.588025,0.9340804
467290,古坑,2026-01-08,23.633639,120.551889,1.8603434e-09
C2E970,八甲,2026-01-08,24.535811,120.795983,4.662633e-06
C0V440,鳳山,2026-01-08,22.646653,120.356122,0.18459228
C1T940,大觀,2026-01-08,23.714206,121.373133,1.9297241e-08
C0E740,造橋,2026-01-08,24.637056,120.864778,0.0004979826
C0R100,尾寮山,2026-01-08,22.833111,120.683889,3.8000985e-09
A2K630,臺大雲林校區,2026-01-08,23.730628,120.423903,3.9684034e-09
467990,馬祖,2026-01-08,26.169467,119.923158,4.028406e-05
C0D580,寶山,2026-01-08,24.735006,121.025192,1.9843264e-06
E2P990,林試扇平站,2026-01-08,22.9677,120.6857,3.7755563e-09
C0AI30,三重,2026-01-08,25.057328,121.500629,1.0138316e-07
C0AH00,汐止,2026-01-08,25.066881,121.658778,2.9748762e-07
C1Z040,立山,2026-01-08,23.443356,121.327375,2.0995957e-08
466881,新北,2026-01-08,24.959207,121.525196,1.349719e-07
C0W130,花嶼,2026-01-08,23.40007,119.32276,0.99862844
C0A950,鼻頭角,2026-01-08,25.129036,121.923372,2.2531715e-07
C0K470,林內,2026-01-08,23.748675,120.609642,1.8571101e-09
C2F990,摩天嶺,2026-01-08,24.322458,120.936819,6.5546817e-09
C2E430,南庄,2026-01-08,24.601775,121.000214,8.4419264e-07
82C160,茶改場,2026-01-08,24.908472,121.185333,3.1577107e-05
C2TB60,南安,2026-01-08,23.29818,121.26157,1.2152616e-08
C0Z320,清水林道,2026-01-08,23.27125,121.188272,1.7179795e-08
C0R760,南仁湖,2026-01-08,22.084681,120.863353,0.99859977
C0M670,大林,2026-01-08,23.600616,120.45841,1.9475235e-09
C0M800,茶山,2026-01-08,23.299075,120.664767,1.5759887e-09
C0A9C0,天母,2026-01-08,25.117494,121.537169,9.986182e-08
72K220,南改斗南分場,2026-01-08,23.634556,120.477333,3.683568e-09
72AI40,桃改樹林分場,2026-01-08,24.944503,121.386972,9.582539e-08
C0S910,蘭嶼燈塔,2026-01-08,22.081197,121.503117,0.99743223
C0B050,八斗子,2026-01-08,25.144754,121.79167,3.290608e-07
C0U900,內城,2026-01-08,24.71813,121.68766,1.4875361e-08
C0X320,柳營,2026-01-08,23.253328,120.375253,1.7185096e-09
C0M790,新港,2026-01-08,23.553269,120.345728,0.0005023882
C0F9T0,西屯,2026-01-08,24.179494,120.641275,6.1126167e-07
C0E950,松安,2026-01-08,24.39792,120.98599,1.5832446e-08
C0SA30,都歷,2026-01-08,23.020333,121.323642,2.9952812e-08
C0C620,蘆竹,2026-01-08,25.084275,121.265767,0.0023297044
C0R730,大坪頂,2026-01-08,22.024633,120.69355,0.9997229
C0AJ40,石門,2026-01-08,25.273672,121.601198,9.339585e-05
C0E750,苗栗,2026-01-08,24.564569,120.824575,2.67821e-05
C0T870,鯉魚潭,2026-01-08,23.935639,121.508944,2.5629916e-08
C1V170,排雲,2026-01-08,23.463619,120.954147,4.0680728e-08
C2H950,中寮,2026-01-08,23.884447,120.766406,2.3898905e-09
C0R350,貓鼻頭,2026-01-08,21.921774,120.7358,0.9877232
C0V660,岡山,2026-01-08,22.797078,120.294958,0.13211802
C1H941,雙冬,2026-01-08,23.967378,120.802189,3.320484e-09
C0AJ70,田寮,2026-01-08,25.2698,121.4886,0.0012617019
C0AI00,五股,2026-01-08,25.07445,121.42728,6.718141e-08
C0Z280,德武,2026-01-08,23.47426,121.41071,1.4620125e-08
C2RA10,大新,2026-01-08,22.67558,120.57788,1.454398e-07
C0R700,枋山,2026-01-08,22.246844,120.661086,0.21589994
C0C460,復興,2026-01-08,24.820208,121.352281,8.122628e-08
C2K300,鹿南,2026-01-08,23.63855,120.3636,0.00060134026
E2H360,蓮華池,2026-01-08,23.918333,120.885278,3.297649e-09
C0M640,中埔,2026-01-08,23.42538,120.5229,1.3030266e-09
C0W140,金沙,2026-01-08,24.488292,118.408778,0.93914706
C2A540,四堵,2026-01-08,24.8926,121.745736,1.0232362e-07
C0ACA0,新莊,2026-01-08,25.051478,121.446756,1.0366513e-07
C0R220,潮州,2026-01-08,22.534361,120.54,1.723241e-05
U2HA40,臺大內茅埔,2026-01-08,23.689722,120.851117,1.9164743e-09
467490,臺中,2026-01-08,24.145736,120.684075,3.9185682e-07
C0UB60,明池,2026-01-08,24.650688,121.475277,6.392425e-08
C0U960,翠峰湖,2026-01-08,24.510856,121.608044,4.5146248e-08
E2HA20,林試畢祿溪站,2026-01-08,24.226944,121.308522,2.1119018e-08
C2M9A0,大華,2026-01-08,23.4824,120.67491,4.3812425e-09
C0V890,前鎮,2026-01-08,22.5718,120.3117,0.5533986
C1F941,雪嶺,2026-01-08,24.280586,121.026642,3.5027735e-08
C2H9E0,國姓南港,2026-01-08,23.911108,120.846556,6.7811556e-09
C0AC80,文山,2026-01-08,25.00235,121.575728,1.6852047e-07
C0F9R0,龍井,2026-01-08,24.184536,120.528972,0.83856773
C0M760,民雄,2026-01-08,23.551754,120.428457,1.9754023e-09
C0UA40,西德山,2026-01-08,24.560647,121.752608,4.0829903e-08
C2TA70,赤科坪,2026-01-08,23.39885,121.39168,2.1684473e-08
C1T920,中興,2026-01-08,23.769503,121.498653,2.289175e-08
C0D550,雪霸,2026-01-08,24.526972,121.11605,1.987228e-08
C2F860,梨山,2026-01-08,24.247522,121.243669,2.6777617e-08
C0R320,車城,2026-01-08,22.0744,120.716247,0.99872106
C1S870,南美山,2026-01-08,23.15025,121.382333,4.0684455e-08
C0B020,基隆嶼,2026-01-08,25.19141,121.78391,2.8198806e-07
C1U501,牛鬥,2026-01-08,24.637836,121.573656,5.1268266e-08
C0M730,嘉義市東區,2026-01-08,23.457673,120.460531,1.3218912e-09
C2R990,泰武,2026-01-08,22.60686,120.69765,6.5558448e-09
C0S700,知本,2026-01-08,22.684866,121.005642,4.0546794e-08
C1N001,沙崙,2026-01-08,22.935472,120.309406,0.0043593906
C0V760,橋頭,2026-01-08,22.757806,120.30575,0.073004
C0G960,福寶,2026-01-08,24.0443,120.3814,0.00043587107
C0X210,白河,2026-01-08,23.347466,120.414427,1.4111101e-09
C0S810,東河,2026-01-08,22.972672,121.303986,3.3024598e-08
C2R170,屏東,2026-01-08,22.66027,120.49403,4.259524e-08
C0R670,楓港,2026-01-08,22.190131,120.692156,0.8608228
C0FA50,霧峰,2026-01-08,24.0419,120.6995,3.1755552e-09
C0UB10,蘇澳,2026-01-08,24.5969,121.8571,4.0447073e-08
C0G950,防潮門,2026-01-08,24.1835,120.4871,0.81771237
C0M740,六腳,2026-01-08,23.492871,120.290625,0.00046266377
C1R250,力里,2026-01-08,22.428117,120.629228,8.859541e-09
C0K330,虎尾,2026-01-08,23.719183,120.442036,3.9667536e-09
C2FA00,烏石坑,2026-01-08,24.273503,120.947617,6.512437e-09
C0V620,永安,2026-01-08,22.82315,120.236856,0.13463975
C1I330,楓樹林,2026-01-08,23.986803,121.076117,6.435288e-09
C0W200,湖西,2026-01-08,23.596314,119.67275,0.99557066
72Q010,高雄農改場,2026-01-08,22.709333,120.525889,5.182434e-08
C0SA40,瑞和,2026-01-08,22.974361,121.156697,1.3602681e-08
C0C680,龜山,2026-01-08,25.02846,121.38656,5.764279e-08
C2V260,月眉,2026-01-08,22.971003,120.539853,1.8205721e-09
C0V450,鳳森,2026-01-08,22.545064,120.392592,1.4539586e-06
C0FA90,小雪山林道,2026-01-08,24.29515,121.03651,4.206833e-08
C0U720,南山,2026-01-08,24.43742,121.38167,4.036153e-08
A2N290,臺南蘭花園區,2026-01-08,23.340258,120.379661,1.5912512e-09
C0R560,新園,2026-01-08,22.5434,120.461558,1.625982e-05
C0U890,三星,2026-01-08,24.66812,121.65302,1.46971235e-08
C1V300,御油山,2026-01-08,23.001983,120.715364,8.476049e-09
C0U600,礁溪,2026-01-08,24.817539,121.765608,1.5730645e-08
C1T980,龍澗,2026-01-08,24.023289,121.411328,3.499001e-08
C0D670,海天一線,2026-01-08,24.831986,120.914438,0.99698603
C0SA00,歷坵,2026-01-08,22.520969,120.89185,1.8122519e-07
C0M710,東石,2026-01-08,23.458927,120.15385,0.32004076
C0M780,鹿草,2026-01-08,23.41134,120.30835,0.00048653988
C0U520,雙連埤,2026-01-08,24.753033,121.641303,2.4695956e-08
C0B010,七堵,2026-01-08,25.094819,121.71713,2.6795226e-07
C0R480,長治,2026-01-08,22.693128,120.542622,2.0562076e-07
C1V830,國三S383K,2026-01-08,22.781967,120.426475,1.4730857e-08
12Q980,恆春工作站,2026-01-08,22.079678,120.714425,0.9987214
C1O940,東山服務區,2026-01-08,23.286016,120.398472,1.5509753e-09
C1U840,東澳嶺,2026-01-08,24.5378,121.8485,3.433956e-08
C1D630,飛鳳山,2026-01-08,24.766464,121.119178,1.6566511e-07
C0S940,石寧山,2026-01-08,23.223772,121.406639,0.91940844
C0K410,北港,2026-01-08,23.573957,120.292802,0.0041135107
C2M620,瑞里,2026-01-08,23.545133,120.675197,4.9669184e-09
C0SB70,小港漁港,2026-01-08,23.158558,121.400431,0.993963
C2O950,安南,2026-01-08,23.076694,120.144861,0.25783435
C0F0E0,南湖圈谷,2026-01-08,24.363714,121.444667,5.419534e-08
467610,成功,2026-01-08,23.097486,121.373428,1.0494293e-07
C0G890,伸港,2026-01-08,24.148933,120.484403,0.76357603
C2E540,龍溪,2026-01-08,24.606489,120.783933,5.8403883e-05
C1V200,梅山,2026-01-08,23.268447,120.823556,3.8088133e-09
C0T9H0,加路蘭山,2026-01-08,23.682947,121.5274,1.9487691e-08
C2O930,玉井,2026-01-08,23.126042,120.46055,1.1376282e-09
C1F911,新伯公,2026-01-08,24.221361,120.841069,2.188508e-08
C0R490,九如,2026-01-08,22.7405,120.490503,5.3285756e-08
C0X200,左鎮,2026-01-08,23.056758,120.408522,2.421902e-09
C2TB50,麻汝,2026-01-08,23.42554,121.39358,1.3836037e-08
C0FA60,鞍馬山工作站,2026-01-08,24.267064,121.000793,2.2111148e-08
C0SB50,叭嗡嗡,2026-01-08,23.047062,121.343223,1.4167682e-07
C1F891,稍來,2026-01-08,24.265689,121.001142,2.1473495e-08
C2M9C0,紫雲,2026-01-08,23.494914,120.540253,1.1956331e-09
72N240,七股研究中心,2026-01-08,23.081672,120.062894,0.4141171
C0C700,中壢,2026-01-08,24.977661,121.256375,9.155134e-05
C0M690,水上,2026-01-08,23.419734,120.388909,1.7669671e-09
C0V690,鼓山,2026-01-08,22.623325,120.275575,0.6308111
C0O860,大內,2026-01-08,23.11885,120.36083,0.0044625145
C0Z200,萬榮,2026-01-08,23.709219,121.420106,2.0555799e-08
C0T9D0,和中,2026-01-08,24.26676,121.74103,8.520471e-07
C2S9A0,北份子寮,2026-01-08,22.78561,121.07813,1.2660167e-06
C1O921,楠西,2026-01-08,23.183511,120.484083,1.121821e-09
C0AJ30,淡水觀海,2026-01-08,25.184591,121.408616,0.0020824843
C0V810,左營,2026-01-08,22.67491,120.28491,0.39629823
C0UA70,桃源谷,2026-01-08,24.962606,121.888875,6.392998e-08
C0X130,官田,2026-01-08,23.193217,120.315422,0.00059089373
C1H000,翠峰,2026-01-08,24.109397,121.205211,2.3928518e-08
C0UA90,石城,2026-01-08,24.980444,121.951214,2.0883711e-07
C1E681,南勢山,2026-01-08,24.421669,120.923831,1.5216827e-08
C0A9F0,內湖,2026-01-08,25.079422,121.57545,1.0148938e-07
C0K291,宜梧,2026-01-08,23.536281,120.169329,0.87946296
C1K540,口湖,2026-01-08,23.585344,120.180517,0.89396846
C0R780,滿州,2026-01-08,22.024403,120.839892,0.99761534
C0V870,文安,2026-01-08,22.8025,120.2164,0.15517145
C0U650,玉蘭,2026-01-08,24.675286,121.587061,3.5844035e-08
C0R640,東港,2026-01-08,22.46247,120.44074,1.889278e-05
C0AJ80,板橋,2026-01-08,25.0107,121.4489,1.428572e-07
C0S660,下馬,2026-01-08,23.150427,121.070312,1.4453213e-08
C2N190,烏樹,2026-01-08,23.32393,120.36989,0.00014385176
C1H9B1,阿眉,2026-01-08,24.1263,120.994672,1.2901279e-08
C0UA20,多加屯,2026-01-08,24.368614,121.373189,2.7973243e-08
C0E730,頭份,2026-01-08,24.688247,120.912206,0.00032338622
72V140,高改旗南分場,2026-01-08,22.857861,120.516667,3.3935542e-08
C0K480,莿桐,2026-01-08,23.761192,120.502372,3.270458e-09
C0U980,坪林石牌,2026-01-08,24.86478,121.77396,4.429145e-08
C0T900,西林,2026-01-08,23.8119,121.441458,2.0237959e-08
C1I150,青雲,2026-01-08,23.793361,120.949378,2.057179e-09
C2E980,和興,2026-01-08,24.505319,120.923016,1.9486205e-08
467350,澎湖,2026-01-08,23.565503,119.563094,0.9962605
C0G800,埔鹽,2026-01-08,24.000394,120.431683,0.00039320058
C0H960,草屯,2026-01-08,23.973672,120.68085,2.9766105e-09
C1V780,多納林道,2026-01-08,22.888028,120.737917,5.56864e-09
C0E920,通霄漁港,2026-01-08,24.498589,120.673876,0.9241466
C0Z330,安通山,2026-01-08,23.290728,121.348528,1.1975782e-08
C0AH10,永和,2026-01-08,25.01125,121.508111,1.4577904e-07
C0AK10,太平里,2026-01-08,25.134937,121.364899,0.0009034344
C2G640,鹿港,2026-01-08,24.0753,120.430481,0.0003404428
C1E890,國三N149K,2026-01-08,24.463414,120.680019,0.741762
C1R110,口社,2026-01-08,22.770111,120.645222,1.670992e-07
C1M870,國三N285K,2026-01-08,23.550319,120.505833,1.1930317e-09
C1E480,鳳美,2026-01-08,24.554803,121.034747,2.2736318e-08
C0T9M0,靜浦,2026-01-08,23.455167,121.495028,1.899071e-08
C2H9M0,發祥,2026-01-08,24.154094,121.164517,8.42555e-09
C2G9C0,埔南,2026-01-08,23.99124,120.46969,0.0003831499
C0AI40,石牌,2026-01-08,25.115597,121.513139,1.0148938e-07
C1F871,上谷關,2026-01-08,24.203483,121.018644,6.499184e-09
C2H9G0,百勝,2026-01-08,24.051142,120.909361,2.134856e-09
C0G880,二水,2026-01-08,23.810742,120.6173,2.0893915e-09
C0R940,加祿堂,2026-01-08,22.3363,120.6217,2.5464728e-05
C0W220,北竿,2026-01-08,26.220358,119.974881,0.005353923
C0O960,崎頂,2026-01-08,22.959547,120.369317,0.00038707798
C0TA40,秀林,2026-01-08,24.302864,121.731144,3.019384e-08
C0S750,向陽,2026-01-08,23.248397,120.986133,2.0966983e-08
C0T9F0,水璉,2026-01-08,23.797131,121.542514,1.8391443e-08
C1M600,頭凍,2026-01-08,23.406364,120.603339,3.4531524e-09
467660,臺東,2026-01-08,22.752211,121.154586,0.012277126
C1D380,新埔,2026-01-08,24.84745,121.03834,0.00016044376
C2G980,田頭村,2026-01-08,23.8263,120.444175,3.7699577e-09
C0V750,路竹,2026-01-08,22.854997,120.259439,0.081590705
C0N050,蚵寮,2026-01-08,23.301,120.1104,0.015770944
C2X060,下營,2026-01-08,23.226806,120.256291,0.0019169991
72M700,南改鹿草分場,2026-01-08,23.416869,120.283061,0.0005368937
C1SA50,利嘉林道,2026-01-08,22.82325,121.009389,2.0922041e-08
C0UB70,太平山中間站,2026-01-08,24.542003,121.513453,4.6886324e-08
C0A940,金山,2026-01-08,25.223628,121.643967,0.0003970085
C1V340,大津,2026-01-08,22.888322,120.645986,3.1993522e-08
C0W180,七美,2026-01-08,23.219333,119.444892,0.99927247
C1F9C1,白冷,2026-01-08,24.182844,120.929889,5.2358953e-09
K2E710,苗改生物防治研究中心,2026-01-08,24.422861,120.871833,5.1594395e-07
C0N040,蘆竹溝,2026-01-08,23.2344,120.0961,0.016069757
C0TB40,崇德,2026-01-08,24.166144,121.657414,8.3819765e-07
C0D760,大坪苗圃,2026-01-08,24.5362,121.1108,2.2398643e-08
C2W230,畜試所澎湖,2026-01-08,23.628342,119.513206,0.9935199
C0R880,後壁湖,2026-01-08,21.9457,120.7457,0.9717114
C1I280,埔中,2026-01-08,23.820778,120.642594,1.6878633e-09
467790,墾丁雷達站,2026-01-08,21.948235,120.808028,0.9931198
C0W190,望安,2026-01-08,23.380564,119.494075,0.9984719
C0Z170,卓溪,2026-01-08,23.3443,121.3029,1.212939e-08
C0F850,東勢,2026-01-08,24.246428,120.833047,2.5323493e-08
466900,淡水,2026-01-08,25.164889,121.448906,0.0001405254
C0I370,魚池,2026-01-08,23.895703,120.94135,3.3716743e-09
C0C630,大溪,2026-01-08,24.882853,121.265547,2.8409095e-05
C0A520,山佳,2026-01-08,24.974944,121.402008,9.6323085e-08
C0I110,竹山,2026-01-08,23.761225,120.688156,1.3147802e-09
82H840,茶改南部分場,2026-01-08,23.762528,120.7405,1.5487789e-09
C2SD80,再來山,2026-01-08,23.34371,121.44122,0.0029067132
C0G660,溪湖,2026-01-08,23.94835,120.479122,8.477033e-06
C1T800,洛韶,2026-01-08,24.204558,121.453956,2.9847534e-08
C1T810,慈恩,2026-01-08,24.192044,121.388386,2.7690515e-08
C1E451,象鼻,2026-01-08,24.368617,120.940228,7.119153e-09
C0AC60,三峽,2026-01-08,24.939025,121.369728,0.00015789224
C0I490,萬大林道,2026-01-08,23.928228,121.091411,9.476046e-09
C1I290,豐丘,2026-01-08,23.668178,120.887417,6.8987247e-09
C1I320,奧萬大,2026-01-08,23.952956,121.178556,8.008204e-09
C2M910,嘉義大學,2026-01-08,23.471325,120.485903,1.2950854e-09
C0U770,南澳,2026-01-08,24.44935,121.81022,9.2623296e-08
C2TB30,吉安,2026-01-08,23.94538,121.54803,2.910311e-08
C0A980,社子,2026-01-08,25.109508,121.469681,1.4511726e-07
C0V800,六龜,2026-01-08,22.997889,120.633583,3.7707633e-09
C1G9D0,國一S218K,2026-01-08,23.890641,120.493253,1.100047e-05
C0E570,白沙屯,2026-01-08,24.549447,120.696803,0.93376195
C2F9A0,中竹林,2026-01-08,24.103556,120.751061,2.3527937e-09
C0FA40,臺中電廠,2026-01-08,24.2146,120.4907,0.8532816
C2G9A0,畜試所彰化,2026-01-08,23.86045,120.557964,3.099817e-09
C0H9C0,合歡山,2026-01-08,24.143442,121.272547,4.4019504e-08
G2M350,農試溪口農場,2026-01-08,23.58565,120.408111,1.9860296e-09
C0U860,頭城,2026-01-08,24.85323,121.8308,4.120401e-08
C0R580,南州,2026-01-08,22.48591,120.50274,0.00033817458
C0D430,峨眉,2026-01-08,24.6905,121.017189,5.0492627e-06
C0G780,秀水,2026-01-08,24.03405,120.503869,4.954785e-06
72N100,臺南農改場,2026-01-08,23.0605,120.342194,0.0032569633
C0S900,蘭嶼高中,2026-01-08,22.04909,121.51214,0.9977093
C2TA60,六十石,2026-01-08,23.22477,121.31861,1.799943e-08
C1F9W0,德基,2026-01-08,24.254783,121.190261,2.3331053e-08
C2M980,安和,2026-01-08,23.51377,120.31593,0.0004201284
C1Z120,壽豐,2026-01-08,23.870853,121.508081,2.7517926e-08
C0W160,烏坵,2026-01-08,24.9944,119.44956,0.9569808
C1I240,外大坪,2026-01-08,23.958697,120.917931,3.679783e-09
C1I550,國六W023K,2026-01-08,23.979067,120.867742,2.4065543e-09
C0R870,興海,2026-01-08,21.9752,120.8439,0.9888022
C0R140,瑪家,2026-01-08,22.682903,120.686639,2.4744462e-09
C0A530,坪林,2026-01-08,24.938183,121.70975,1.3591016e-07
C0X260,後壁,2026-01-08,23.366358,120.362326,0.00023903712
C0Z230,和平,2026-01-08,24.30717,121.77007,3.6468197e-08
C0G770,福興,2026-01-08,24.041289,120.437669,0.00040646287
C0H9A0,神木村,2026-01-08,23.532742,120.843667,8.293516e-09
C0I460,南投,2026-01-08,23.911469,120.687331,2.9812581e-09
C0I480,梅峰,2026-01-08,24.085272,121.173572,1.7488189e-08
C1V570,吉東,2026-01-08,22.85422,120.5454,3.8298683e-08
C2A560,福山,2026-01-08,24.776203,121.502811,3.5951118e-08
C0AH30,五分山,2026-01-08,25.07125,121.780794,6.512303e-08
C0FA10,松柏,2026-01-08,24.429115,120.617482,0.016491795
72S200,東改班鳩分場,2026-01-08,22.829528,121.077694,9.658046e-08
72HA00,中改埔里分場,2026-01-08,23.903208,120.963364,3.2998702e-09
C2H9W0,大坪頂農水,2026-01-08,24.043122,120.932781,2.8501674e-09
C0C650,平鎮,2026-01-08,24.897503,121.214636,2.0760963e-05
C0S930,延平,2026-01-08,22.902581,121.084058,1.1742694e-08
C0UA60,樟樹山,2026-01-08,24.41393,121.78325,1.6154138e-08
C2UC10,出水溪,2026-01-08,24.615822,121.652253,3.8940254e-08
C1S670,摩天,2026-01-08,23.199503,121.027,1.6365833e-08
C2C590,觀音,2026-01-08,25.027072,121.153317,0.009760984
C0V630,茄萣,2026-01-08,22.906642,120.182608,0.2563834
466940,基隆,2026-01-08,25.133314,121.740475,3.1565534e-07
C0X050,東河,2026-01-08,23.296598,120.385608,1.5637839e-09
C0R770,保力,2026-01-08,22.071122,120.764111,0.99962497
G2L020,農試嘉義分所,2026-01-08,23.485028,120.473806,1.291718e-09
C0X240,關子嶺,2026-01-08,23.331169,120.508025,1.3580587e-09
C0I380,集集,2026-01-08,23.828206,120.801467,1.5297748e-09
466990,花蓮,2026-01-08,23.975128,121.613275,5.2946266e-08
C1V220,小關山,2026-01-08,23.154217,120.813603,1.0196219e-08
C1F9G1,慶福山,2026-01-08,24.180853,120.848378,1.2798123e-08
C0FB20,雪山橋,2026-01-08,24.23192,120.9786,1.9107121e-08
C0Z250,瑞穗林道,2026-01-08,23.49284,121.30688,3.0721193e-08
C0D590,新豐,2026-01-08,24.87068,120.97721,0.9813705
C0A870,五指山,2026-01-08,25.132153,121.608692,2.733667e-07
C0UA50,西帽山,2026-01-08,24.555361,121.802628,3.443427e-08
C2R980,竹田國中,2026-01-08,22.61532,120.52412,1.5699592e-05
C0X160,仁德,2026-01-08,22.968258,120.257689,0.054762732
C1H971,六分寮,2026-01-08,23.92507,120.6378,3.1279332e-09
C0W120,西嶼,2026-01-08,23.5626,119.468436,0.9963881
C0G650,員林,2026-01-08,23.946503,120.585597,3.775263e-06
C0AD50,鶯歌,2026-01-08,24.951533,121.346294,0.00028432405
C2H9Q0,北東眼山,2026-01-08,24.120939,121.189303,1.8996326e-08
C2H9T0,名間竹圍,2026-01-08,23.859914,120.637572,1.75772e-09
C0S990,山豬窟,2026-01-08,22.318619,120.857372,1.4405216e-08
C0X190,安平,2026-01-08,22.993161,120.152181,0.1582792
C0K400,斗六,2026-01-08,23.720583,120.541127,3.2206264e-09
12J990,口湖工作站,2026-01-08,23.589978,120.180394,0.8905473
C0O830,北寮,2026-01-08,23.079561,120.495008,1.4366739e-09
C1D410,白蘭,2026-01-08,24.579364,121.079947,2.0991592e-08
C0S970,加津林,2026-01-08,22.416211,120.926942,0.00012647374
C0D700,關西,2026-01-08,24.7977,121.1732,7.494228e-08
C0U750,龜山島,2026-01-08,24.841667,121.953133,4.7597798e-08
C0R810,內獅,2026-01-08,22.305064,120.642986,2.5827574e-05
C1M390,龍美,2026-01-08,23.406728,120.654417,5.567652e-09
C2K290,崙內,2026-01-08,23.69525,120.35601,0.00060133997
C2FB60,頭櫃山,2026-01-08,24.129842,120.858925,5.063115e-09
C1H840,國三N238K,2026-01-08,23.841008,120.707711,1.316612e-09
CAQ030,崎峰國小,2026-01-08,22.42565,120.49521,0.00033817458
C2E520,大湖,2026-01-08,24.414939,120.870872,4.2729098e-07
467530,阿里山,2026-01-08,23.508208,120.813242,2.2338146e-08
C1E691,南湖,2026-01-08,24.40135,120.837533,4.025789e-08
C0FA30,梧棲,2026-01-08,24.256003,120.523381,0.797886
C1V231,高中,2026-01-08,23.134911,120.716711,3.469962e-09
C0AK30,硬漢嶺,2026-01-08,25.136097,121.426372,3.032436e-07
C0F9V0,新社,2026-01-08,24.200172,120.815806,1.4810022e-08
C0H890,埔里,2026-01-08,23.972169,120.952425,2.0848971e-09
C0R690,墾丁,2026-01-08,21.966756,120.810269,0.9998054
C0SD20,富山,2026-01-08,22.822383,121.190825,3.3310286e-08
C0F0D0,審馬陣,2026-01-08,24.381675,121.4203,4.8650396e-08
C2W030,金門農試所,2026-01-08,24.448431,118.451786,0.004431852
C0R820,白鷺,2026-01-08,22.454275,120.666219,4.701248e-09
C0FB00,大雪山,2026-01-08,24.254668,121.007374,2.2259291e-08
C1V190,南天池,2026-01-08,23.27403,120.91176,2.238011e-08
C0E940,雪見,2026-01-08,24.42595,121.01347,1.9712292e-08
K2E360,苗栗農改場,2026-01-08,24.495722,120.829111,9.680464e-06
CAJ050,海口故事園區,2026-01-08,23.57543,120.14121,0.8914375
C2K280,四湖,2026-01-08,23.6304,120.22717,0.92263675
C2H9D0,三隻寮,2026-01-08,24.093078,120.861578,3.5192655e-09
C0O990,媽廟,2026-01-08,22.99175,120.293525,0.010010328
C0D480,打鐵坑,2026-01-08,24.849664,121.150789,1.2076174e-07
C0Z220,和平林道,2026-01-08,24.343922,121.656317,1.4047009e-08
C0TA10,花蓮漁港,2026-01-08,23.995322,121.638331,0.99121344
72C440,桃園農改場,2026-01-08,24.950944,121.030583,0.0007921816
C1E711,馬拉邦山,2026-01-08,24.367306,120.901656,6.3503744e-09
C0SB20,富岡,2026-01-08,22.792467,121.192669,0.0008242838
C0D560,竹東,2026-01-08,24.767147,121.057881,4.8893885e-06
C0F9U0,南屯,2026-01-08,24.137006,120.637969,5.7753994e-07
C2SD60,明峰,2026-01-08,22.8671,121.11825,1.0299166e-08
C0M720,番路,2026-01-08,23.464657,120.554156,1.3798107e-09
C0F0A0,雪山圈谷,2026-01-08,24.388594,121.236339,5.5302944e-08
C1A9N0,四十份,2026-01-08,24.934158,121.593283,8.5942894e-08
C0U760,東澳,2026-01-08,24.52196,121.83318,8.4555786e-08
C0X230,鹽水,2026-01-08,23.272621,120.247641,0.007220332
C2H9H0,苗改南投蜂場,2026-01-08,23.852589,120.693481,1.4338268e-09
C2TB70,達谷寮,2026-01-08,23.38,121.35968,1.2660509e-08
C0R950,萬隆國小,2026-01-08,22.507667,120.587817,4.7669896e-06
467540,大武,2026-01-08,22.35572,120.90374,0.9991079
C0V370,古亭坑,2026-01-08,22.893178,120.401947,2.796448e-09
C1I340,新興橋,2026-01-08,23.563333,120.868728,3.4154617e-09
C0SA80,土坂,2026-01-08,22.453108,120.887572,8.619646e-06
C0R160,鹽埔,2026-01-08,22.739558,120.530778,4.7242523e-08
C0AC40,大屯山,2026-01-08,25.175675,121.522408,1.2859753e-07
466850,五分山雷達站,2026-01-08,25.071182,121.781205,6.458433e-08
C2H9L0,馬烈霸,2026-01-08,24.1512,121.201772,2.0240199e-08
C1AI50,國三N016K,2026-01-08,25.034164,121.619664,1.732249e-07
C2V920,匏子寮,2026-01-08,23.04905,120.55319,1.4714451e-09
C1V600,藤枝,2026-01-08,23.071961,120.757042,7.6858155e-09
C1E601,南勢,2026-01-08,24.572486,120.734842,0.33528244
C0O980,新市,2026-01-08,23.061614,120.298197,0.00724269
C0K420,西螺,2026-01-08,23.800407,120.467394,3.7145125e-09
C0Z050,佳心,2026-01-08,23.34567,121.21316,1.8063847e-08
C0AD30,蘆洲,2026-01-08,25.086594,121.472331,1.0529139e-07
C0V610,梓官,2026-01-08,22.760558,120.267211,0.13324717
K2F750,種苗改良場,2026-01-08,24.225972,120.800917,1.782281e-08
C0UA80,大溪漁港,2026-01-08,24.941801,121.902955,3.9123026e-07
C1AI60,國一39K邊坡,2026-01-08,25.064361,121.383836,6.359929e-08
C0W150,金寧,2026-01-08,24.457703,118.328989,0.9261074
C0R960,內埔,2026-01-08,22.608483,120.570714,1.1314644e-05
V2C250,八德合作社,2026-01-08,24.93775,121.266389,5.9310656e-05
C2H9S0,龍南,2026-01-08,23.953536,120.833183,5.296038e-09
C0AH40,平等,2026-01-08,25.129142,121.577086,8.5053955e-07
C0R540,佳冬,2026-01-08,22.419456,120.552375,0.00017721596
466950,彭佳嶼,2026-01-08,25.627975,122.079744,0.99990207
C0A890,雙溪,2026-01-08,25.036003,121.864242,1.8178464e-07
C0C480,桃園,2026-01-08,24.992425,121.323172,0.00014092016
C0AH50,林口,2026-01-08,25.072181,121.38084,5.8337395e-08
A2K360,水試臺西試驗場,2026-01-08,23.717231,120.190522,0.95195913
C2M960,外寮,2026-01-08,23.562643,120.665688,4.115851e-09
C0F9S0,烏日,2026-01-08,24.107058,120.624103,7.990888e-06
C2N180,鹿陶洋,2026-01-08,23.14325,120.48352,1.121143e-09
C0C490,八德,2026-01-08,24.928708,121.283289,5.8241756e-05
C0R190,赤山,2026-01-08,22.592333,120.614306,6.3800217e-06
C0T820,天祥,2026-01-08,24.179597,121.495639,3.8220747e-08
C1F9E1,龍安,2026-01-08,24.1605,120.831961,1.3877108e-08
C2SD50,順那,2026-01-08,23.04166,121.29332,2.1208955e-08
C0V820,小林,2026-01-08,23.148408,120.63325,1.4749575e-09
C2G870,芳苑,2026-01-08,23.922303,120.320025,0.9792888
C0E850,大河,2026-01-08,24.618069,120.948578,3.5771034e-06
C1U670,寒溪,2026-01-08,24.634,121.71691,1.4624559e-08
C0N020,城西,2026-01-08,23.0568,120.0956,0.2990816
C1Z110,三棧,2026-01-08,24.11557,121.60501,3.532415e-08
C0R280,檳榔,2026-01-08,22.076078,120.836777,0.9997082
C2H9J0,中台,2026-01-08,23.9996,120.938739,2.4917424e-09
C0F9L0,后里,2026-01-08,24.310436,120.729725,5.9238676e-08
467441,高雄,2026-01-08,22.730432,120.312516,0.0490575
C0Z180,新城,2026-01-08,24.040486,121.604878,5.1013387e-08
C0D540,橫山,2026-01-08,24.71116,121.11693,9.105432e-07
C1D420,太閣南,2026-01-08,24.632808,121.160575,3.0591792e-08
C1E770,公館,2026-01-08,24.526914,120.830806,1.8496137e-05
CAN130,水試所海水繁養殖中心,2026-01-08,23.120802,120.07968,0.4114649
C1I430,翠華,2026-01-08,24.191961,121.224339,3.0450273e-08
C1M400,菜瓜坪,2026-01-08,23.251928,120.576103,1.520214e-09
C0G730,二林,2026-01-08,23.903325,120.376081,0.0005873546
72M360,南改義竹分場,2026-01-08,23.360694,120.279361,0.002512422
V2K620,麥寮合作社,2026-01-08,23.753836,120.294783,0.012558608
C0Z070,舞鶴,2026-01-08,23.46811,121.37407,1.4117059e-08
C0B040,大武崙,2026-01-08,25.166676,121.706993,2.5890503e-07
C1Z030,紅葉,2026-01-08,23.493119,121.338806,1.45413654e-08
C1I050,丹大,2026-01-08,23.753747,121.141147,2.6045399e-08
C0I080,信義,2026-01-08,23.689694,120.851036,1.9164743e-09
C2TB80,庄子底,2026-01-08,23.71794,121.49438,2.1270532e-08
C0D750,樂山林道6k,2026-01-08,24.49999,121.08773,2.7075286e-08
C2M920,朴子農改,2026-01-08,23.469889,120.259383,0.0007756194
C2A880,福隆,2026-01-08,25.017842,121.942083,2.1718917e-07
C0Z160,鳳林,2026-01-08,23.746114,121.453411,2.0908598e-08
C0UB80,翠峰林道6K,2026-01-08,24.49773,121.568625,4.6881762e-08
C0V210,復興,2026-01-08,23.222403,120.806089,3.1961789e-09
C0H990,昆陽,2026-01-08,24.121322,121.273642,3.5977187e-08
C0R741,獅子,2026-01-08,22.202308,120.705236,0.068873964
C0S710,鹿野,2026-01-08,22.917711,121.122994,9.741072e-09
C0I530,小奇萊,2026-01-08,24.131764,121.295717,3.882382e-08
C0FA70,大雪山埡口,2026-01-08,24.26867,121.03062,3.4743284e-08
C2K630,荷苞,2026-01-08,23.657717,120.595144,1.8848378e-09
C0Z080,富源,2026-01-08,23.587642,121.378225,2.3378494e-08
C2M9E0,旺來山,2026-01-08,23.555153,120.486463,1.197941e-09
C0SB10,美和,2026-01-08,22.682078,121.060236,1.4320178e-05
C2K620,馬光農場,2026-01-08,23.721453,120.378864,3.98655e-09
C1I140,卡奈托灣,2026-01-08,23.754364,121.087872,1.0851168e-08
C0I520,玉山風口,2026-01-08,23.470489,120.955994,4.5590852e-08
C1G691,下水埔,2026-01-08,23.816114,120.5676,2.9144758e-09
C0X110,臺南市南區,2026-01-08,22.961189,120.188378,0.059771925
C0V680,仁武,2026-01-08,22.701083,120.347722,0.048445947
C2G840,北斗,2026-01-08,23.877586,120.514222,1.0184742e-05
C2TB90,長橋,2026-01-08,23.6874,121.46186,2.0871541e-08
C0R900,竹坑,2026-01-08,22.1385,120.7022,0.8608228
C0G860,社頭,2026-01-08,23.897647,120.5862,4.288626e-06
C0X150,安定,2026-01-08,23.102614,120.227839,0.028235678
C0R590,里港,2026-01-08,22.77919,120.49459,4.3864453e-08
C0E610,馬都安,2026-01-08,24.451272,120.930192,1.40865035e-08
C0E550,明德,2026-01-08,24.583486,120.885411,8.355748e-06
C0R150,三地門,2026-01-08,22.709889,120.639944,4.5201475e-08
C0G910,花壇,2026-01-08,24.032076,120.549461,3.28047e-06
C1D400,鳥嘴山,2026-01-08,24.71909,121.28387,3.3426502e-08
C0K500,元長,2026-01-08,23.64981,120.315024,0.008325671
C0F0B0,石岡,2026-01-08,24.276061,120.777644,4.251748e-08
C2V250,甲仙,2026-01-08,23.080106,120.591758,1.2873719e-09
C0SA20,金崙山,2026-01-08,22.567419,120.959667,3.8582133e-08
C0V350,溪埔,2026-01-08,22.738578,120.446797,4.24631e-08
C0M660,溪口,2026-01-08,23.604131,120.403569,1.986253e-09
C1S880,壽卡,2026-01-08,22.238911,120.858903,1.5331992e-08
72D680,桃改新埔分場,2026-01-08,24.834444,121.066111,0.00021206061
