站號,站名,日期,lat,lon,BLBTSLS
C1O850,環湖,2026-01-30,23.148617,120.418633,1.0462347e-09
C0S890,關山,2026-01-30,23.0395,121.175017,2.3151157e-09
C1R120,上德文,2026-01-30,22.763272,120.704442,1.9004036e-09
CAH030,茶改場竹圍站,2026-01-30,23.860083,120.637528,7.3014156e-10
V2K610,大庄合作社,2026-01-30,23.8068,120.367939,2.6705445e-08
G2AI50,關渡,2026-01-30,25.11575,121.492,1.306895e-08
C1S800,華源,2026-01-30,22.657883,121.02325,1.5108462e-08
C0R550,新埤,2026-01-30,22.467947,120.582894,3.7023307e-10
C1O880,關山,2026-01-30,23.173397,120.594092,3.7302011e-10
V2C260,八德蔬果,2026-01-30,24.978508,121.281819,1.25506086e-08
C0R260,春日,2026-01-30,22.370361,120.628306,3.6086628e-10
C1I211,蘆竹湳,2026-01-30,23.934019,120.811994,7.625331e-10
C1I260,北坑,2026-01-30,23.9246,121.006903,6.2376965e-10
467290,古坑,2026-01-30,23.633639,120.551889,5.1839516e-10
C0SA40,瑞和,2026-01-30,22.974361,121.156697,2.0807496e-09
C0R490,九如,2026-01-30,22.7405,120.490503,1.5202386e-06
C0D430,峨眉,2026-01-30,24.6905,121.017189,2.7778577e-09
C1I240,外大坪,2026-01-30,23.958697,120.917931,1.016848e-09
C1V570,吉東,2026-01-30,22.85422,120.5454,1.8934108e-08
C0D480,打鐵坑,2026-01-30,24.849664,121.150789,8.516709e-09
V2C250,八德合作社,2026-01-30,24.93775,121.266389,1.1151229e-08
C0C480,桃園,2026-01-30,24.992425,121.323172,1.25506086e-08
