站號,站名,日期,lat,lon,BLBTSLS
C0R710,龍磐,2026-04-18,21.931672,120.838942,0.9997323
C1F9D1,白毛台,2026-04-18,24.158325,120.886933,5.355782e-07
C0G940,竹塘,2026-04-18,23.848253,120.386764,3.157797e-07
467590,恆春,2026-04-18,22.003897,120.746339,0.9980165
C0U710,太平山,2026-04-18,24.505486,121.525656,1.8516633e-09
C0E820,獅潭,2026-04-18,24.539133,120.920042,1.431944e-06
C2SD70,二層坪,2026-04-18,22.94105,121.16838,1.0156951e-05
C0V880,興達,2026-04-18,22.8778,120.2127,9.508717e-07
C0SB30,新蘭,2026-04-18,22.869214,121.223228,0.02036598
C2R970,屏科大,2026-04-18,22.648275,120.619247,0.99992126
C1Z130,銅門,2026-04-18,23.965694,121.492842,0.0004403629
C0AD40,土城,2026-04-18,24.973208,121.445169,1.2703775e-05
CAN140,六官養殖協會,2026-04-18,23.22881,120.29962,0.6754839
C0X180,山上,2026-04-18,23.0757,120.363253,0.9961354
C0F9Z0,雪山東峰,2026-04-18,24.388792,121.268675,7.36617e-09
C1M480,獨立山,2026-04-18,23.537022,120.607797,1.3716848e-08
C0X220,學甲,2026-04-18,23.230367,120.182187,1.7042097e-05
467650,日月潭,2026-04-18,23.881325,120.90805,4.4142595e-08
A2K570,古坑(花卉中心),2026-04-18,23.633531,120.552392,0.26112863
C0K600,箔子寮,2026-04-18,23.6197,120.14,6.132825e-08
C0G830,埤頭,2026-04-18,23.866003,120.452806,1.5796926e-05
C0S950,七塊厝,2026-04-18,22.954453,121.229922,2.319367e-07
467110,金門,2026-04-18,24.407306,118.289281,1.4630669e-08
C0AH80,深坑,2026-04-18,25.002703,121.628328,3.0555438e-07
C0A970,三貂角,2026-04-18,25.007606,122.002058,2.2884956e-06
C2D730,寶山農場,2026-04-18,24.732444,120.976153,1.7528397e-08
C0K430,褒忠,2026-04-18,23.690938,120.303634,1.549723e-06
467480,嘉義,2026-04-18,23.495925,120.432906,0.9957739
C0V400,阿公店,2026-04-18,22.804194,120.355528,0.9972137
C2S800,華源,2026-04-18,22.65783,121.0232,0.4857186
C2SA40,瑞和,2026-04-18,22.974361,121.156697,9.631052e-06
C0E960,觀霧分站,2026-04-18,24.505781,121.113921,3.5117624e-09
467550,玉山,2026-04-18,23.48718,120.95943,2.4375346e-08
C0R440,大漢山,2026-04-18,22.405264,120.753181,2.175966e-09
C0SD30,東清國小,2026-04-18,22.057128,121.564922,5.642507e-06
C1F9B1,桐林,2026-04-18,24.066172,120.735194,7.3578067e-06
C2I210,蘆竹湳,2026-04-18,23.93398,120.81209,3.8996443e-08
C2H9U0,鳳鵬,2026-04-18,23.763919,120.788061,1.6849332e-07
C0K390,土庫,2026-04-18,23.679029,120.395574,1.3435944e-05
C1I450,望鄉山,2026-04-18,23.594153,120.944286,8.87268e-09
C0E910,海埔,2026-04-18,24.648767,120.772435,1.9445164e-07
B2E890,畜試北區分所,2026-04-18,24.527806,120.770972,1.8985264e-07
C0R750,四林格山,2026-04-18,22.076989,120.802439,1.275497e-07
C0F0C0,中坑,2026-04-18,24.248517,120.903319,9.180684e-08
C1I121,大鞍,2026-04-18,23.678381,120.760017,2.3156412e-09
C2G9E0,移民庄,2026-04-18,23.9784,120.40283,8.961123e-08
72U480,花改蘭陽分場,2026-04-18,24.686306,121.716583,0.00010209413
C0A770,科教館,2026-04-18,25.096356,121.516507,3.8182425e-06
C0AJ60,六塊厝,2026-04-18,25.24,121.4481,8.703948e-07
C0R620,墾雷,2026-04-18,21.900836,120.855269,0.9998018
467420,永康,2026-04-18,23.038386,120.2367,0.011601281
C2M530,奮起湖,2026-04-18,23.493903,120.699253,4.5006687e-09
C0I410,名間,2026-04-18,23.837053,120.701447,0.066402085
A2C560,農工中心,2026-04-18,24.985917,121.239833,1.9253334e-09
C0V740,旗山,2026-04-18,22.888614,120.483597,0.9997413
C0Z061,玉里,2026-04-18,23.3215,121.339656,0.18301393
C0S840,南田,2026-04-18,22.279725,120.889208,0.9986146
C1I470,杉林溪,2026-04-18,23.639517,120.786444,2.4164757e-09
C1X040,東原,2026-04-18,23.291597,120.463822,0.0030463343
C0R660,枋寮,2026-04-18,22.367722,120.590647,0.9999067
C1R120,上德文,2026-04-18,22.763272,120.704442,0.9998503
C0K450,大埤,2026-04-18,23.646074,120.431537,0.034745697
C0UA00,土場,2026-04-18,24.576533,121.495333,1.8039435e-08
467080,宜蘭,2026-04-18,24.763975,121.756528,0.00010715944
C0N030,四草,2026-04-18,23.0235,120.1116,3.5093733e-05
467410,臺南,2026-04-18,22.99328,120.20492,2.454576e-07
C0V650,彌陀,2026-04-18,22.783806,120.246361,0.09051485
C0D660,新竹市東區,2026-04-18,24.798681,120.986942,6.797148e-09
82S580,茶改東部分場,2026-04-18,22.907694,121.130139,0.00021747578
C0SB40,興隆,2026-04-18,22.913661,121.257469,0.9994542
467050,新屋,2026-04-18,25.006725,121.047492,3.4765868e-09
C0C710,大溪永福,2026-04-18,24.892936,121.324975,1.2905685e-08
C0FA20,溫寮,2026-04-18,24.372177,120.583125,2.5419503e-08
C0V640,湖內,2026-04-18,22.887139,120.2445,9.482745e-07
C0R910,下寮,2026-04-18,22.3929,120.5548,0.99994284
C0Z020,明里,2026-04-18,23.208717,121.262342,0.00033299995
C0M770,嘉義梅山,2026-04-18,23.585398,120.555587,0.91019404
C0C660,楊梅,2026-04-18,24.912375,121.143047,2.7593123e-09
C0SD40,牛頭山,2026-04-18,22.676661,121.506944,1.9224485e-06
C1E511,新開,2026-04-18,24.347703,120.827019,0.00026697502
G2F820,農試所(霧峰),2026-04-18,24.031261,120.688133,6.634183e-05
C2M990,大巃頂,2026-04-18,23.5547,120.61439,1.680568e-09
C1I070,和社,2026-04-18,23.591131,120.888861,6.1914003e-09
C2E990,新坪頂,2026-04-18,24.30201,120.8574,0.00013135091
C0TA80,立霧山,2026-04-18,24.183258,121.641899,1.4279155e-09
C2F000,大肚,2026-04-18,24.15295,120.572117,1.4127448e-07
C1S850,豐南,2026-04-18,23.122139,121.262389,1.1422309e-07
C2M9B0,西興,2026-04-18,23.2428,120.57617,9.0809845e-05
C2A920,富貴角,2026-04-18,25.263783,121.565258,1.2061281e-07
C0T960,光復,2026-04-18,23.660694,121.424964,0.02373416
C0F9M0,豐原,2026-04-18,24.254322,120.720692,0.010543194
C0R720,旭海,2026-04-18,22.205403,120.887614,0.116882116
C0V710,苓雅,2026-04-18,22.622742,120.330669,0.38924056
C0C740,觀音工業區,2026-04-18,25.064764,121.114856,9.4759915e-09
CAC040,拉拉山,2026-04-18,24.699317,121.427133,3.2716372e-09
C0V790,萬山,2026-04-18,22.905944,120.688056,0.9998422
U2HA30,臺大和社,2026-04-18,23.590856,120.888864,6.1914003e-09
C2H9K0,屯原,2026-04-18,24.067969,121.209389,2.2380953e-09
C0AJ90,澳底,2026-04-18,25.0552,121.9253,2.0397043e-07
C0Z100,東華,2026-04-18,23.89525,121.549833,0.013193575
C0G970,三豐,2026-04-18,23.882,120.2895,1.459839e-08
C0V900,汕尾,2026-04-18,22.4782,120.4151,0.9997788
C1R630,龍泉,2026-04-18,22.66701,120.59091,0.9999203
C1AC50,關渡,2026-04-18,25.133486,121.469331,2.929132e-07
C0C800,四稜,2026-04-18,24.64733,121.4293,2.5015807e-09
C0F9I0,神岡,2026-04-18,24.272481,120.658314,1.745307e-06
C0K460,斗南,2026-04-18,23.678734,120.478359,0.034597162
C2O810,曾文,2026-04-18,23.219681,120.497328,0.938539
467280,後龍,2026-04-18,24.648563,120.831834,1.1691152e-07
C1F9J1,清水林,2026-04-18,24.071242,120.820419,1.9901258e-08
C2A650,火燒寮,2026-04-18,25.002719,121.742892,1.01395505e-08
466930,竹子湖,2026-04-18,25.162078,121.544547,2.5621547e-09
C1I220,樟湖,2026-04-18,23.905333,120.846983,1.4587055e-09
C0I390,仁愛,2026-04-18,24.022122,121.132206,2.2291657e-09
C0Z300,東里,2026-04-18,23.26853,121.30547,0.11406467
C1V590,新發,2026-04-18,23.057019,120.646064,0.0020453124
C0K510,水林,2026-04-18,23.572924,120.24597,2.8938612e-07
72S590,東改賓朗果園,2026-04-18,22.813889,121.071278,0.00025782522
82A750,茶改北部分場,2026-04-18,24.955778,121.631222,5.1704356e-09
C1A750,石碇服務區,2026-04-18,25.00872,121.646242,1.2995891e-06
C0X300,鹿寮,2026-04-18,23.386047,120.477331,0.98635215
C0K590,雲林東勢,2026-04-18,23.674192,120.255721,1.9763227e-06
C2K310,港尾布雞,2026-04-18,23.74834,120.38439,0.0001353373
C0A570,桶後,2026-04-18,24.848222,121.597992,1.0473034e-08
C0G720,溪州,2026-04-18,23.851589,120.499093,1.5823463e-05
C1V160,達卡努瓦,2026-04-18,23.279811,120.705319,3.3139167e-09
C2M410,馬頭山,2026-04-18,23.324361,120.582017,0.028289322
C0V850,蚵仔寮,2026-04-18,22.7256,120.2527,0.13205662
C0S740,池上,2026-04-18,23.119628,121.209469,7.440042e-07
C1V390,尖山,2026-04-18,22.813153,120.367789,0.9972596
C0AH70,松山,2026-04-18,25.04871,121.55042,2.8688357e-06
C0N010,鯤鯓國小,2026-04-18,23.1879,120.0889,9.017693e-06
C0SA60,知本（水試所）,2026-04-18,22.702394,121.082761,0.9843895
C0T9I0,豐濱,2026-04-18,23.583897,121.514806,0.99038434
C0UB00,淡江大學蘭陽校園,2026-04-18,24.823239,121.730383,1.9155506e-08
C0W240,九宮,2026-04-18,24.423753,118.240186,1.2448236e-08
C0T9N0,富里,2026-04-18,23.171639,121.249378,0.00022224973
U2HA50,臺大竹山,2026-04-18,23.756972,120.681556,0.0034105822
C0V840,鳳鼻頭,2026-04-18,22.5083,120.3591,0.9997675
C0X140,西港,2026-04-18,23.125608,120.203108,0.0035410682
72D080,桃改五峰分場,2026-04-18,24.612194,121.157167,2.173983e-09
C2H9P0,伊拿谷,2026-04-18,23.963211,121.088264,8.136304e-08
C2K250,崙背,2026-04-18,23.75553,120.31893,1.5182377e-06
C2H9F0,柑林,2026-04-18,24.018658,120.847072,0.00045068708
C0TA20,加灣,2026-04-18,24.082025,121.608944,0.00044717646
C0V530,阿蓮,2026-04-18,22.883208,120.327508,0.00081102893
C0FB30,八仙山苗圃,2026-04-18,24.192719,121.001366,1.3158426e-07
C0E791,卓蘭,2026-04-18,24.3126,120.8244,0.00010984964
C2R260,春日,2026-04-18,22.370361,120.628306,0.99994403
C1I030,武界,2026-04-18,23.913225,121.052483,1.1530982e-07
C0R520,崁頂,2026-04-18,22.514781,120.506914,0.9999516
C0R341,牡丹,2026-04-18,22.130036,120.792639,0.9965918
C0R930,萬丹,2026-04-18,22.5885,120.4851,0.9997958
C0S760,紅石,2026-04-18,23.069131,121.126219,3.8079055e-09
C2C410,中央大學,2026-04-18,24.967652,121.185165,1.8709763e-09
C1M610,石磐龍,2026-04-18,23.496606,120.663506,1.39138425e-08
C2C830,中德,2026-04-18,24.981862,121.291344,5.2120517e-09
C0C790,東眼山,2026-04-18,24.8284,121.40888,3.4381877e-09
C0UA10,鴛鴦湖,2026-04-18,24.590269,121.412228,2.2739386e-09
C0R800,丹路,2026-04-18,22.204481,120.750989,0.99940974
C2R240,萬巒,2026-04-18,22.527306,120.625111,0.9999192
C0G920,永靖,2026-04-18,23.924703,120.547533,1.9390366e-06
C2M950,太和,2026-04-18,23.538372,120.702961,4.7362407e-09
C1A630,下盆,2026-04-18,24.771003,121.538622,7.3730857e-09
B2N890,畜產試驗所,2026-04-18,23.058972,120.336406,0.99827164
C0UA30,白嶺,2026-04-18,24.527819,121.519031,1.2896403e-09
467571,新竹,2026-04-18,24.828575,121.01455,4.1217985e-09
C1V580,溪南(特生中心),2026-04-18,23.084972,120.788475,2.5682326e-08
C1T970,大農,2026-04-18,23.615233,121.413331,0.0013266192
C0R650,竹田,2026-04-18,22.58486,120.54344,0.99994636
C1H900,清流,2026-04-18,24.080775,120.962997,2.5222938e-08
C1C510,水尾,2026-04-18,24.940081,121.087161,2.0067286e-09
C2N170,茅港尾,2026-04-18,23.2061,120.2624,0.6754839
C0F9X0,大雅(中科園區),2026-04-18,24.21528,120.62445,8.9122095e-06
C0SB60,白守蓮,2026-04-18,23.126769,121.401914,0.10301643
C0O970,虎頭埤,2026-04-18,23.021375,120.347878,0.99504024
C0C730,中大臨海站,2026-04-18,24.966126,121.008581,6.1160597e-09
C0X250,新營,2026-04-18,23.310689,120.316681,0.10034738
C0V700,三民,2026-04-18,22.645017,120.311233,0.03172915
C0U870,大礁溪,2026-04-18,24.791042,121.675047,1.668566e-08
C0E870,高鐵苗栗,2026-04-18,24.60725,120.826094,1.19050384e-07
C2S890,關山,2026-04-18,23.0395,121.175017,4.833532e-06
C0TA30,鹽寮,2026-04-18,23.845606,121.592664,0.028527372
C0M860,新美,2026-04-18,23.338017,120.683169,3.1044194e-05
C1E701,八卦,2026-04-18,24.491756,120.927619,9.406211e-06
C2TA90,加納納,2026-04-18,23.466421,121.359867,0.8592471
C0I420,國姓,2026-04-18,24.037803,120.855072,0.0001357356
C2D720,關西工作站,2026-04-18,24.757275,121.184792,2.8423227e-07
C2AK30,信賢,2026-04-18,24.84108,121.53492,7.4323028e-09
C0S960,香蘭,2026-04-18,22.587569,120.993375,1.5224528e-05
467620,蘭嶼,2026-04-18,22.0369,121.55843,4.381228e-08
C2UC40,中城,2026-04-18,24.62865,121.74745,1.339249e-06
72G600,臺中農改場,2026-04-18,24.003028,120.534389,1.9468189e-06
C0Z210,瑞穗,2026-04-18,23.5239,121.39021,0.99443597
C0M820,達邦,2026-04-18,23.453994,120.749517,2.3960395e-08
C0V860,南寮,2026-04-18,22.7616,120.2339,0.13205662
C0G740,大城,2026-04-18,23.852487,120.320935,1.4533879e-08
C0R920,塭仔,2026-04-18,22.4169,120.5197,0.99994355
C0R470,高樹,2026-04-18,22.826389,120.600806,0.99994385
C0R680,佳樂水,2026-04-18,21.993578,120.861633,0.99980295
C1O870,大棟山,2026-04-18,23.31157,120.52226,1.2474834e-08
C0D360,梅花,2026-04-18,24.678347,121.208558,2.541479e-09
C0Z190,富世,2026-04-18,24.14743,121.6297,3.145593e-06
C0AI10,屈尺,2026-04-18,24.92184,121.54475,3.4938137e-06
B2U990,畜試東區分所,2026-04-18,24.669039,121.832561,2.8637896e-06
C0SB80,長濱漁港,2026-04-18,23.313644,121.459994,0.97946393
C0TA50,和仁,2026-04-18,24.241394,121.712472,0.98774314
C2AK40,漁光,2026-04-18,24.96875,121.72132,4.709909e-09
C0V910,大樹,2026-04-18,22.684645,120.432803,0.9983674
C1R610,西大武山,2026-04-18,22.617719,120.7322,2.6840294e-09
C0G900,線西,2026-04-18,24.143358,120.443536,1.800235e-06
C0M700,竹崎,2026-04-18,23.526178,120.555508,0.889896
C2E880,三義,2026-04-18,24.405478,120.749819,9.988065e-09
C0C720,竹圍,2026-04-18,25.112692,121.239824,1.4056122e-08
C0F9P0,清水,2026-04-18,24.312297,120.562242,2.4981998e-07
C0Z150,吉安光華,2026-04-18,23.930925,121.595153,0.7327671
C0FA80,小雪山天池,2026-04-18,24.28025,121.02627,5.4171747e-09
467300,東吉島,2026-04-18,23.25727,119.66762,0.9674274
C1D640,外坪(五指山),2026-04-18,24.644447,121.090961,1.4551401e-09
C2R9A0,高士國小,2026-04-18,22.12553,120.84653,0.9977077
C0F9O0,潭子,2026-04-18,24.213106,120.703933,0.015408927
C2H9R0,卓社,2026-04-18,23.887894,121.000086,2.2598519e-09
72T250,花蓮農改場,2026-04-18,23.975222,121.563889,0.5085641
C0E780,銅鑼,2026-04-18,24.489681,120.790853,1.4052335e-07
C1T950,太安,2026-04-18,23.666719,121.370128,6.4744756e-09
C0E830,苑裡,2026-04-18,24.439714,120.653053,1.614847e-08
467270,田中,2026-04-18,23.873803,120.581286,0.00030146245
C0SA10,檳榔四格山,2026-04-18,22.810031,121.109308,4.409839e-05
C1T830,布洛灣,2026-04-18,24.17184,121.57127,1.375872e-08
C0F970,大坑,2026-04-18,24.173142,120.722289,0.021027198
C1U920,思源,2026-04-18,24.393125,121.347214,2.8993172e-09
C2H9Y0,松茗,2026-04-18,23.8167,120.650765,5.2611448e-08
C0A931,三和,2026-04-18,25.233153,121.595236,4.4841503e-08
C0I010,廬山,2026-04-18,24.033311,121.181808,3.0467513e-09
C2M940,日野賀,2026-04-18,23.434056,120.727169,3.063814e-09
C0R860,鼻頭,2026-04-18,22.1043,120.8979,0.9998353
C2I260,北坑,2026-04-18,23.92463,121.00683,0.00010169334
C0UB20,壯圍,2026-04-18,24.7359,121.8163,0.00057306036
C0R790,九棚,2026-04-18,22.14195,120.889281,0.56894404
C0W110,東莒,2026-04-18,25.9652,119.98069,3.984173e-08
C1U930,粉鳥林,2026-04-18,24.497088,121.842479,1.7666127e-06
C0S830,長濱,2026-04-18,23.286817,121.411975,0.017125538
C1F9F1,伯公龍,2026-04-18,24.272392,120.849047,0.010869663
C0UB90,太平山莊,2026-04-18,24.494171,121.536209,1.8961819e-09
C0E810,西湖,2026-04-18,24.562947,120.7485,1.2834326e-08
C1I440,新高口,2026-04-18,23.478744,120.878939,4.2269224e-09
C0O840,王爺宮,2026-04-18,23.222064,120.40085,0.99779665
C0T9G0,鳳林山,2026-04-18,23.735269,121.420131,3.457179e-09
C0X080,佳里,2026-04-18,23.173039,120.145086,6.230239e-06
C0FB70,大甲溪埔,2026-04-18,24.370625,120.620067,2.5542025e-08
C0Z310,清水斷崖,2026-04-18,24.218294,121.689142,0.8951482
C0M680,太保,2026-04-18,23.455062,120.331455,0.0632819
C1S820,金峰,2026-04-18,22.590969,120.933236,2.925647e-06
C0AD10,八里,2026-04-18,25.150211,121.403947,1.1706711e-06
C2K240,草嶺,2026-04-18,23.59555,120.693461,6.379815e-09
C1SA70,都蘭,2026-04-18,22.87794,121.226881,0.012114525
C0K440,二崙,2026-04-18,23.772797,120.408944,0.00018326257
C1A760,坪林交控,2026-04-18,24.94284,121.713442,1.1357902e-08
C0F9N0,大里,2026-04-18,24.092464,120.701378,7.40981e-06
C0SA90,達仁林場,2026-04-18,22.264347,120.823972,8.3936555e-07
C1R290,石門山,2026-04-18,22.112611,120.756597,0.005280858
42HA10,萬大發電廠,2026-04-18,23.978875,121.139639,3.7763486e-09
C0R890,山海,2026-04-18,21.9878,120.7091,0.99797535
C0T9A0,月眉山,2026-04-18,23.809928,121.539828,3.76753e-08
C0AC70,信義,2026-04-18,25.037822,121.564597,7.2167268e-06
C0K560,棋山,2026-04-18,23.68645,120.603417,0.003965039
C2FB50,出雲,2026-04-18,24.206469,120.902794,3.0814974e-08
C1Z240,中平林道,2026-04-18,23.42115,121.26763,2.03367e-09
U2H480,溪頭,2026-04-18,23.670306,120.798194,8.9666713e-10
C0M880,好美里,2026-04-18,23.3364,120.138,2.6913879e-06
C0T9E0,大坑,2026-04-18,23.880628,121.581981,1.9287366e-07
C0K530,臺西,2026-04-18,23.701547,120.197559,3.091255e-07
C1E900,國一N128K,2026-04-18,24.560997,120.844186,6.5877984e-08
C0AJ50,水湳洞,2026-04-18,25.123695,121.862238,1.9377077e-07
C0AI20,白沙灣,2026-04-18,25.283128,121.519058,6.53695e-07
C2V310,美濃,2026-04-18,22.898792,120.51907,0.9997366
C0A860,大坪,2026-04-18,25.165914,121.632969,5.899647e-06
C1U850,觀音海岸,2026-04-18,24.38319,121.77856,1.7421671e-08
C2K610,草嶺石壁,2026-04-18,23.602469,120.707731,5.4975207e-09
C0U950,鶯子嶺,2026-04-18,24.89754,121.79244,4.2994692e-09
C0O900,善化,2026-04-18,23.112883,120.297219,0.9982084
C0K550,蔦松,2026-04-18,23.514319,120.229736,1.6685843e-07
E2P980,林試六龜中心,2026-04-18,22.991703,120.645722,0.99984837
C0E590,通霄,2026-04-18,24.471892,120.704622,2.020687e-08
C1I310,西巒,2026-04-18,23.754486,120.883956,1.857841e-08
C0A550,泰平,2026-04-18,24.971197,121.823711,8.048738e-09
C2UC30,金洋,2026-04-18,24.42465,121.74573,9.189394e-05
C0I360,水里,2026-04-18,23.812553,120.849792,6.28606e-05
C0R830,高士,2026-04-18,22.121825,120.836781,0.00016264549
C1I101,溪頭,2026-04-18,23.661789,120.807647,2.4227753e-09
C0AJ20,野柳,2026-04-18,25.20703,121.690021,4.588178e-08
C0B060,暖暖,2026-04-18,25.0957,121.7403,8.4922675e-08
C1H920,長豐,2026-04-18,24.102039,120.879897,1.5510197e-07
C2S9B0,利吉,2026-04-18,22.86246,121.15486,0.00018191854
C0V360,內門,2026-04-18,22.975481,120.466769,0.9992117
C0R850,林邊,2026-04-18,22.4634,120.5339,0.99993736
C0E930,龍鳳,2026-04-18,24.700034,120.859125,6.3993753e-09
C0U910,冬山,2026-04-18,24.63373,121.7937,2.8637896e-06
C1E721,泰安,2026-04-18,24.489017,120.968036,1.0723276e-08
82H320,茶改中部分場,2026-04-18,23.875611,120.913583,3.1337996e-07
C0M750,布袋,2026-04-18,23.380878,120.167789,8.530548e-08
C1S860,利嘉,2026-04-18,22.809417,121.050528,5.6965693e-08
E2S980,林試太麻里1,2026-04-18,22.598922,120.980044,2.7391356e-05
C0X170,關廟,2026-04-18,22.963017,120.327797,0.010829451
C0V720,林園,2026-04-18,22.507747,120.394511,0.9997808
C2M9G0,沄水,2026-04-18,23.38293,120.52666,0.64616615
C1I510,線浸林道,2026-04-18,23.761508,120.832956,1.4479612e-09
C0D690,外湖,2026-04-18,24.917735,120.968711,5.5971032e-09
C0C750,新興坑尾,2026-04-18,25.0061,121.0971,2.4783098e-09
B2Q810,畜試南區分所,2026-04-18,21.945583,120.802167,0.99980295
C0S790,金崙,2026-04-18,22.538122,120.966875,5.5659577e-05
C0AH90,福山植物園,2026-04-18,24.760717,121.58135,5.5961427e-09
C0I540,奇萊稜線,2026-04-18,24.109231,121.326456,1.2349385e-08
C0M850,表湖,2026-04-18,23.24186,120.64166,4.300954e-06
C0S770,大溪山,2026-04-18,22.478475,120.943325,1.5184906e-08
C0AG80,中和,2026-04-18,24.991622,121.491792,1.2703775e-05
C0T790,大禹嶺,2026-04-18,24.186117,121.316086,6.759294e-09
C0T9B0,水源,2026-04-18,23.991861,121.537169,4.1971893e-09
C0R840,牡丹池山,2026-04-18,22.168389,120.841225,7.032558e-06
C1I131,桶頭,2026-04-18,23.641944,120.654117,0.00019918979
CAL110,布袋國中,2026-04-18,23.35893,120.18026,2.6913879e-06
C2M9D0,何竹子腳,2026-04-18,23.53641,120.38203,0.99611527
C0Z290,赤柯山,2026-04-18,23.36893,121.38293,1.6695592e-08
C0X280,將軍,2026-04-18,23.214999,120.13577,1.8777462e-05
C0S690,太麻里,2026-04-18,22.60902,120.98533,5.739671e-08
C0U880,北關,2026-04-18,24.9072,121.8734,3.1398354e-06
CAW010,東引,2026-04-18,26.3588,120.4836,6.974485e-08
C0G810,埔心,2026-04-18,23.947633,120.525456,1.9123765e-06
C0U970,大福,2026-04-18,24.80064,121.81389,0.00010812635
C2H9N0,仁愛東眼,2026-04-18,24.026875,121.1205,1.6240229e-09
C1E670,南礦,2026-04-18,24.538278,121.002836,3.953226e-09
C0M520,東後寮,2026-04-18,23.369908,120.248065,8.6193705e-07
C1E461,松安,2026-04-18,24.397972,120.986022,2.659802e-09
C2N160,西拉雅風管處,2026-04-18,23.189481,120.335297,0.99621964
C2O850,環湖,2026-04-18,23.148665,120.4186,0.99283767
C2M970,碧湖,2026-04-18,23.568632,120.624165,1.7248177e-09
C0A640,石碇,2026-04-18,24.993969,121.662917,1.1357902e-08
E2S960,林試太麻里2,2026-04-18,22.598,120.99775,2.1408494e-05
C0F9Y0,桃山,2026-04-18,24.432739,121.303808,7.99241e-09
C1I020,萬大,2026-04-18,23.979817,121.132261,2.1945137e-09
C2UC20,長嶺,2026-04-18,24.70894,121.61162,2.1459533e-08
C0U940,羅東,2026-04-18,24.68184,121.74934,0.00010261934
C0M650,朴子,2026-04-18,23.43463,120.23902,6.740648e-07
C1I500,大尖山,2026-04-18,23.858572,120.994889,1.69936e-09
C0FB40,中橫21.6k,2026-04-18,24.2499,121.1455,1.8410561e-09
C0G820,田尾,2026-04-18,23.901669,120.509389,1.9123765e-06
E2K600,四湖植物園,2026-04-18,23.676986,120.163433,5.20656e-07
C0S730,綠島,2026-04-18,22.6672,121.47533,5.144413e-06
12Q970,東港工作站,2026-04-18,22.479997,120.466058,0.999937
C1TA00,太魯閣,2026-04-18,24.15773,121.6236,8.1581376e-08
466920,臺北,2026-04-18,25.037658,121.514853,2.8688357e-06
C0R600,舊泰武,2026-04-18,22.588194,120.664944,0.2793088
466910,鞍部,2026-04-18,25.182586,121.529731,2.3153144e-09
C1I230,九份二山,2026-04-18,23.961944,120.845,1.9223181e-08
C2M810,里佳,2026-04-18,23.389125,120.716647,1.9930422e-09
C2A660,瑞芳,2026-04-18,25.113169,121.801147,1.456198e-07
C0R270,琉球嶼,2026-04-18,22.332244,120.362236,0.00047483822
C2V580,瑞山,2026-04-18,22.90304,120.43424,0.9995938
C1T990,高寮,2026-04-18,23.394239,121.356808,0.9278599
C0G620,芬園,2026-04-18,24.015678,120.6213,1.5066224e-06
C1Z140,荖溪,2026-04-18,23.890575,121.45964,1.28574e-09
C1I201,中心崙,2026-04-18,23.728722,120.712097,1.6028233e-09
C1I400,凌霄,2026-04-18,24.018778,121.004456,1.593125e-09
C1M640,十字,2026-04-18,23.492153,120.753683,2.3595168e-09
G2P820,農試鳳山分所,2026-04-18,22.646611,120.356083,0.38816923
C0Z270,蕃薯寮,2026-04-18,23.73835,121.540108,1.6066463e-06
C2E420,竹南,2026-04-18,24.70898,120.88897,6.1884724e-09
C2D480,打鐵坑,2026-04-18,24.849664,121.150789,1.6399925e-08
C0FB10,出雲山苗圃,2026-04-18,24.23105,120.90475,9.180684e-08
C0F9Q0,外埔,2026-04-18,24.347817,120.705686,1.555655e-06
C0K580,高鐵雲林,2026-04-18,23.737456,120.417944,0.00012202079
C2I090,鳳凰,2026-04-18,23.728081,120.787347,1.5316112e-09
C0U990,員山,2026-04-18,24.74435,121.72247,0.000103884224
C0V770,大社,2026-04-18,22.730306,120.346639,0.8777185
C0X120,麻豆,2026-04-18,23.183289,120.248611,0.9484206
C0C670,龍潭,2026-04-18,24.870056,121.221389,1.4139694e-08
C0D680,香山濕地,2026-04-18,24.783581,120.914988,5.5971032e-09
C0S980,勝林山,2026-04-18,22.430439,120.8938,2.8285443e-08
C0V730,大寮,2026-04-18,22.605614,120.395717,0.8105913
C0R570,麟洛,2026-04-18,22.65078,120.52719,0.9998816
C2M930,石卓,2026-04-18,23.478744,120.702264,2.3620699e-09
C0G9B0,和美,2026-04-18,24.105169,120.492131,9.233936e-07
C2I240,外大坪,2026-04-18,23.9587,120.91788,2.4846e-06
CAG100,王功漁港,2026-04-18,23.96824,120.32586,2.3929704e-08
C0X290,北門,2026-04-18,23.267772,120.125481,1.8777444e-05
C2F930,大甲,2026-04-18,24.347667,120.640403,3.2512226e-08
C0D650,湖口,2026-04-18,24.904794,121.043628,2.8429898e-09
C0U780,五結,2026-04-18,24.68637,121.79794,2.8637896e-06
C1I250,鯉潭,2026-04-18,23.961922,120.991131,3.455e-06
C0R130,阿禮,2026-04-18,22.742908,120.743678,0.0001861853
C0X100,臺南市北區,2026-04-18,23.010394,120.194228,2.498295e-07
C0S920,金峰嘉蘭,2026-04-18,22.594789,120.960825,2.7307979e-06
C0V490,新興,2026-04-18,22.627422,120.298803,0.14442009
C0F9K0,大安,2026-04-18,24.345061,120.588025,3.304199e-08
467290,古坑,2026-04-18,23.633639,120.551889,0.99914736
C2E970,八甲,2026-04-18,24.535811,120.795983,5.217435e-08
C0V440,鳳山,2026-04-18,22.646653,120.356122,0.38816923
C1T940,大觀,2026-04-18,23.714206,121.373133,2.0150165e-07
C0E740,造橋,2026-04-18,24.637056,120.864778,2.0465311e-08
C0R100,尾寮山,2026-04-18,22.833111,120.683889,8.442841e-05
A2K630,臺大雲林校區,2026-04-18,23.730628,120.423903,0.0001226664
467990,馬祖,2026-04-18,26.169467,119.923158,1.113952e-07
C0D580,寶山,2026-04-18,24.735006,121.025192,2.7163738e-08
E2P990,林試扇平站,2026-04-18,22.9677,120.6857,0.9992664
C0AI30,三重,2026-04-18,25.057328,121.500629,3.8182425e-06
C0AH00,汐止,2026-04-18,25.066881,121.658778,2.7238063e-06
C1Z040,立山,2026-04-18,23.443356,121.327375,0.0045349044
466881,新北,2026-04-18,24.959207,121.525196,1.0963585e-05
C0W130,花嶼,2026-04-18,23.40007,119.32276,0.96127117
C0A950,鼻頭角,2026-04-18,25.129036,121.923372,0.31677932
C0K470,林內,2026-04-18,23.748675,120.609642,0.004488523
C2F990,摩天嶺,2026-04-18,24.322458,120.936819,6.745207e-08
C2E430,南庄,2026-04-18,24.601775,121.000214,1.40094425e-08
82C160,茶改場,2026-04-18,24.908472,121.185333,2.2415558e-09
C2TB60,南安,2026-04-18,23.29818,121.26157,0.03713509
C0Z320,清水林道,2026-04-18,23.27125,121.188272,3.9280117e-08
C0R760,南仁湖,2026-04-18,22.084681,120.863353,0.004667632
C0M670,大林,2026-04-18,23.600616,120.45841,0.5736256
C0M800,茶山,2026-04-18,23.299075,120.664767,1.3936259e-05
C0A9C0,天母,2026-04-18,25.117494,121.537169,6.624245e-06
72K220,南改斗南分場,2026-04-18,23.634556,120.477333,0.031491492
72AI40,桃改樹林分場,2026-04-18,24.944503,121.386972,1.8615301e-05
C0S910,蘭嶼燈塔,2026-04-18,22.081197,121.503117,6.8387504e-07
C0B050,八斗子,2026-04-18,25.144754,121.79167,3.997597e-07
C0U900,內城,2026-04-18,24.71813,121.68766,0.0002659502
C0X320,柳營,2026-04-18,23.253328,120.375253,0.9980312
C0M790,新港,2026-04-18,23.553269,120.345728,3.3440378e-07
C0F9T0,西屯,2026-04-18,24.179494,120.641275,1.1080384e-05
C0E950,松安,2026-04-18,24.39792,120.98599,2.659802e-09
C0SA30,都歷,2026-04-18,23.020333,121.323642,0.9991399
C0C620,蘆竹,2026-04-18,25.084275,121.265767,8.095218e-09
C0R730,大坪頂,2026-04-18,22.024633,120.69355,0.9986188
C0AJ40,石門,2026-04-18,25.273672,121.601198,1.8224723e-07
C0E750,苗栗,2026-04-18,24.564569,120.824575,6.6753266e-08
C0T870,鯉魚潭,2026-04-18,23.935639,121.508944,0.013998564
C1V170,排雲,2026-04-18,23.463619,120.954147,1.9745256e-08
C2H950,中寮,2026-04-18,23.884447,120.766406,1.9818299e-05
C0R350,貓鼻頭,2026-04-18,21.921774,120.7358,0.9979726
C0V660,岡山,2026-04-18,22.797078,120.294958,0.081244394
C1H941,雙冬,2026-04-18,23.967378,120.802189,4.2493363e-07
C0AJ70,田寮,2026-04-18,25.2698,121.4886,6.8396315e-07
C0AI00,五股,2026-04-18,25.07445,121.42728,1.5323944e-07
C0Z280,德武,2026-04-18,23.47426,121.41071,0.9266914
C2RA10,大新,2026-04-18,22.67558,120.57788,0.9999203
C0R700,枋山,2026-04-18,22.246844,120.661086,0.9995632
C0C460,復興,2026-04-18,24.820208,121.352281,3.2795155e-09
C2AA10,中八仙,2026-04-18,25.11576,121.49199,1.35395785e-05
C2K300,鹿南,2026-04-18,23.63855,120.3636,2.0559796e-06
E2H360,蓮華池,2026-04-18,23.918333,120.885278,3.0628704e-05
C0M640,中埔,2026-04-18,23.42538,120.5229,0.9612903
C2C810,八德蔬果,2026-04-18,24.97858,121.28187,5.2120517e-09
C2M9F0,安溪寮,2026-04-18,23.350334,120.208039,2.147341e-06
C0W140,金沙,2026-04-18,24.488292,118.408778,1.4324854e-08
C2A540,四堵,2026-04-18,24.8926,121.745736,1.30949e-08
C0ACA0,新莊,2026-04-18,25.051478,121.446756,3.0988464e-05
C0R220,潮州,2026-04-18,22.534361,120.54,0.99995244
U2HA40,臺大內茅埔,2026-04-18,23.689722,120.851117,3.515477e-08
467490,臺中,2026-04-18,24.145736,120.684075,0.02729705
C0UB60,明池,2026-04-18,24.650688,121.475277,2.142807e-09
C0U960,翠峰湖,2026-04-18,24.510856,121.608044,1.7269113e-09
E2HA20,林試畢祿溪站,2026-04-18,24.226944,121.308522,2.8166074e-09
C2M9A0,大華,2026-04-18,23.4824,120.67491,1.5104831e-08
C0V890,前鎮,2026-04-18,22.5718,120.3117,0.97945505
C1F941,雪嶺,2026-04-18,24.280586,121.026642,5.4171747e-09
C2H9E0,國姓南港,2026-04-18,23.911108,120.846556,1.3148905e-09
C0AC80,文山,2026-04-18,25.00235,121.575728,1.658163e-08
C0F9R0,龍井,2026-04-18,24.184536,120.528972,1.908063e-07
C0M760,民雄,2026-04-18,23.551754,120.428457,0.5736256
C0UA40,西德山,2026-04-18,24.560647,121.752608,2.3415567e-09
C2TA70,赤科坪,2026-04-18,23.39885,121.39168,1.9829987e-08
C1T920,中興,2026-04-18,23.769503,121.498653,0.0025911152
C0D550,雪霸,2026-04-18,24.526972,121.11605,3.764145e-09
C2F860,梨山,2026-04-18,24.247522,121.243669,3.8331476e-09
C0R320,車城,2026-04-18,22.0744,120.716247,0.99815845
C1S870,南美山,2026-04-18,23.15025,121.382333,7.8252623e-07
C0B020,基隆嶼,2026-04-18,25.19141,121.78391,3.2901752e-07
C1U501,牛鬥,2026-04-18,24.637836,121.573656,2.2987402e-07
C0M730,嘉義市東區,2026-04-18,23.457673,120.460531,0.9981734
C2R990,泰武,2026-04-18,22.60686,120.69765,1.10997746e-07
C0S700,知本,2026-04-18,22.684866,121.005642,7.6292515e-08
C1N001,沙崙,2026-04-18,22.935472,120.309406,0.011158005
C0V760,橋頭,2026-04-18,22.757806,120.30575,0.87268996
C2V570,吉東,2026-04-18,22.85418,120.54539,0.9999449
C0G960,福寶,2026-04-18,24.0443,120.3814,3.6712572e-07
C0X210,白河,2026-04-18,23.347466,120.414427,0.996432
C0S810,東河,2026-04-18,22.972672,121.303986,0.9901784
C2R170,屏東,2026-04-18,22.66027,120.49403,0.9998816
C0R670,楓港,2026-04-18,22.190131,120.692156,0.9982804
C0FA50,霧峰,2026-04-18,24.0419,120.6995,7.0117044e-06
C0UB10,蘇澳,2026-04-18,24.5969,121.8571,2.2766504e-07
C0G950,防潮門,2026-04-18,24.1835,120.4871,1.3662899e-06
C0M740,六腳,2026-04-18,23.492871,120.290625,9.932696e-07
C1R250,力里,2026-04-18,22.428117,120.629228,0.99990124
C0K330,虎尾,2026-04-18,23.719183,120.442036,0.00012278541
C2FA00,烏石坑,2026-04-18,24.273503,120.947617,7.11845e-08
C0V620,永安,2026-04-18,22.82315,120.236856,0.08123536
C1I330,楓樹林,2026-04-18,23.986803,121.076117,2.5058309e-09
C0W200,湖西,2026-04-18,23.596314,119.67275,0.71502876
72Q010,高雄農改場,2026-04-18,22.709333,120.525889,0.9999174
C0C680,龜山,2026-04-18,25.02846,121.38656,2.6927015e-08
C2V260,月眉,2026-04-18,22.971003,120.539853,0.98005956
C0V450,鳳森,2026-04-18,22.545064,120.392592,0.9997654
C0FA90,小雪山林道,2026-04-18,24.29515,121.03651,1.0052377e-08
C0U720,南山,2026-04-18,24.43742,121.38167,1.4830225e-09
A2N290,臺南蘭花園區,2026-04-18,23.340258,120.379661,0.99337137
C0R560,新園,2026-04-18,22.5434,120.461558,0.9997808
C0U890,三星,2026-04-18,24.66812,121.65302,5.042338e-05
C1V300,御油山,2026-04-18,23.001983,120.715364,2.6933334e-08
C0U600,礁溪,2026-04-18,24.817539,121.765608,0.00010549705
C1T980,龍澗,2026-04-18,24.023289,121.411328,1.1888679e-09
C0D670,海天一線,2026-04-18,24.831986,120.914438,4.4722244e-09
C0SA00,歷坵,2026-04-18,22.520969,120.89185,5.3230707e-07
C0M710,東石,2026-04-18,23.458927,120.15385,7.929022e-08
C0M780,鹿草,2026-04-18,23.41134,120.30835,6.5795604e-07
C0U520,雙連埤,2026-04-18,24.753033,121.641303,1.4047385e-08
C0B010,七堵,2026-04-18,25.094819,121.71713,2.8130208e-07
C0R480,長治,2026-04-18,22.693128,120.542622,0.99990076
C1V830,國三S383K,2026-04-18,22.781967,120.426475,0.99941707
12Q980,恆春工作站,2026-04-18,22.079678,120.714425,0.99815845
C1O940,東山服務區,2026-04-18,23.286016,120.398472,0.99346954
C1U840,東澳嶺,2026-04-18,24.5378,121.8485,4.6260844e-09
C1D630,飛鳳山,2026-04-18,24.766464,121.119178,2.0968651e-09
C0S940,石寧山,2026-04-18,23.223772,121.406639,0.008876489
C0K410,北港,2026-04-18,23.573957,120.292802,2.8105833e-07
C2M620,瑞里,2026-04-18,23.545133,120.675197,1.24591635e-08
C0SB70,小港漁港,2026-04-18,23.158558,121.400431,0.0728199
C2O950,安南,2026-04-18,23.076694,120.144861,1.5085349e-05
C0F0E0,南湖圈谷,2026-04-18,24.363714,121.444667,1.3023314e-08
467610,成功,2026-04-18,23.097486,121.373428,0.9979982
C0G890,伸港,2026-04-18,24.148933,120.484403,1.3202222e-06
C2E540,龍溪,2026-04-18,24.606489,120.783933,7.111109e-08
C1V200,梅山,2026-04-18,23.268447,120.823556,1.2039774e-08
C0T9H0,加路蘭山,2026-04-18,23.682947,121.5274,1.818144e-08
C2O930,玉井,2026-04-18,23.126042,120.46055,0.99283767
C1F911,新伯公,2026-04-18,24.221361,120.841069,0.03581959
C0X200,左鎮,2026-04-18,23.056758,120.408522,0.99941504
C2TB50,麻汝,2026-04-18,23.42554,121.39358,0.9317267
C0FA60,鞍馬山工作站,2026-04-18,24.267064,121.000793,2.558458e-09
C0SB50,叭嗡嗡,2026-04-18,23.047062,121.343223,0.99839187
C2R550,新埤,2026-04-18,22.467947,120.582894,0.99991095
C1F891,稍來,2026-04-18,24.265689,121.001142,2.430046e-09
C2M9C0,紫雲,2026-04-18,23.494914,120.540253,0.99400884
72N240,七股研究中心,2026-04-18,23.081672,120.062894,3.5093733e-05
C0C700,中壢,2026-04-18,24.977661,121.256375,4.5579442e-09
C0M690,水上,2026-04-18,23.419734,120.388909,0.9713181
C0V690,鼓山,2026-04-18,22.623325,120.275575,0.14442009
C0O860,大內,2026-04-18,23.11885,120.36083,0.99827796
C0Z200,萬榮,2026-04-18,23.709219,121.420106,5.712317e-05
C0T9D0,和中,2026-04-18,24.26676,121.74103,0.98707724
C2S9A0,北份子寮,2026-04-18,22.78561,121.07813,0.7101232
C1O921,楠西,2026-04-18,23.183511,120.484083,0.9926371
C0AJ30,淡水觀海,2026-04-18,25.184591,121.408616,1.1823545e-06
C0V810,左營,2026-04-18,22.67491,120.28491,0.03172915
C0UA70,桃源谷,2026-04-18,24.962606,121.888875,9.49001e-09
C0X130,官田,2026-04-18,23.193217,120.315422,0.9961345
C1H000,翠峰,2026-04-18,24.109397,121.205211,3.9700234e-09
C0UA90,石城,2026-04-18,24.980444,121.951214,6.892986e-06
C1E681,南勢山,2026-04-18,24.421669,120.923831,2.4454032e-06
C0A9F0,內湖,2026-04-18,25.079422,121.57545,7.2167268e-06
C0K291,宜梧,2026-04-18,23.536281,120.169329,5.6999056e-08
C1K540,口湖,2026-04-18,23.585344,120.180517,6.132825e-08
C0R780,滿州,2026-04-18,22.024403,120.839892,0.99971515
C0V870,文安,2026-04-18,22.8025,120.2164,0.13205662
C0U650,玉蘭,2026-04-18,24.675286,121.587061,2.1205112e-08
C0R640,東港,2026-04-18,22.46247,120.44074,0.9997675
C0AJ80,板橋,2026-04-18,25.0107,121.4489,1.2703775e-05
C0S660,下馬,2026-04-18,23.150427,121.070312,3.590416e-09
C2N190,烏樹,2026-04-18,23.32393,120.36989,0.17598316
C1H9B1,阿眉,2026-04-18,24.1263,120.994672,1.5790005e-09
C0UA20,多加屯,2026-04-18,24.368614,121.373189,5.561974e-09
C0E730,頭份,2026-04-18,24.688247,120.912206,6.3161045e-09
72V140,高改旗南分場,2026-04-18,22.857861,120.516667,0.9847386
C2R490,九如,2026-04-18,22.74049,120.490555,0.9999174
C0K480,莿桐,2026-04-18,23.761192,120.502372,0.3444384
C0U980,坪林石牌,2026-04-18,24.86478,121.77396,6.931765e-09
C0T900,西林,2026-04-18,23.8119,121.441458,4.9298327e-05
C1I150,青雲,2026-04-18,23.793361,120.949378,1.23206555e-05
C2E980,和興,2026-04-18,24.505319,120.923016,0.00022721814
467350,澎湖,2026-04-18,23.565503,119.563094,0.98108566
C0G800,埔鹽,2026-04-18,24.000394,120.431683,2.6699112e-07
C0H960,草屯,2026-04-18,23.973672,120.68085,0.00017667387
C1V780,多納林道,2026-04-18,22.888028,120.737917,9.907684e-05
C0E920,通霄漁港,2026-04-18,24.498589,120.673876,2.014599e-08
C0Z330,安通山,2026-04-18,23.290728,121.348528,0.00011489579
C0AH10,永和,2026-04-18,25.01125,121.508111,1.35282735e-05
C0AK10,太平里,2026-04-18,25.134937,121.364899,2.4875542e-06
C2G640,鹿港,2026-04-18,24.0753,120.430481,9.515856e-07
C1E890,國三N149K,2026-04-18,24.463414,120.680019,2.025356e-08
C1R110,口社,2026-04-18,22.770111,120.645222,0.99990886
C1M870,國三N285K,2026-04-18,23.550319,120.505833,0.993443
C1E480,鳳美,2026-04-18,24.554803,121.034747,8.240596e-05
C0T9M0,靜浦,2026-04-18,23.455167,121.495028,0.9972071
C2H9M0,發祥,2026-04-18,24.154094,121.164517,3.2761893e-09
C2G9C0,埔南,2026-04-18,23.99124,120.46969,2.6699112e-07
C0AI40,石牌,2026-04-18,25.115597,121.513139,7.2167268e-06
C1F871,上谷關,2026-04-18,24.203483,121.018644,7.11845e-08
C2H9G0,百勝,2026-04-18,24.051142,120.909361,2.3896355e-05
C0G880,二水,2026-04-18,23.810742,120.6173,5.5720655e-05
C0R940,加祿堂,2026-04-18,22.3363,120.6217,0.99907464
C0W220,北竿,2026-04-18,26.220358,119.974881,1.1510765e-07
C0O960,崎頂,2026-04-18,22.959547,120.369317,0.0093076555
C0TA40,秀林,2026-04-18,24.302864,121.731144,2.9255813e-09
C0S750,向陽,2026-04-18,23.248397,120.986133,7.420942e-09
C0T9F0,水璉,2026-04-18,23.797131,121.542514,2.3654109e-06
C1M600,頭凍,2026-04-18,23.406364,120.603339,1.4266524e-09
467660,臺東,2026-04-18,22.752211,121.154586,0.51811934
C1D380,新埔,2026-04-18,24.84745,121.03834,3.6654229e-09
C2G980,田頭村,2026-04-18,23.8263,120.444175,0.00020442388
C0V750,路竹,2026-04-18,22.854997,120.259439,0.086104296
C0N050,蚵寮,2026-04-18,23.301,120.1104,1.8777462e-05
C2X060,下營,2026-04-18,23.226806,120.256291,0.6754839
72M700,南改鹿草分場,2026-04-18,23.416869,120.283061,6.525053e-07
C1SA50,利嘉林道,2026-04-18,22.82325,121.009389,1.490996e-08
C0UB70,太平山中間站,2026-04-18,24.542003,121.513453,1.2652271e-09
C0A940,金山,2026-04-18,25.223628,121.643967,4.6638772e-07
C1V340,大津,2026-04-18,22.888322,120.645986,0.999955
C0W180,七美,2026-04-18,23.219333,119.444892,0.99208194
C1F9C1,白冷,2026-04-18,24.182844,120.929889,7.137442e-07
K2E710,苗改生物防治研究中心,2026-04-18,24.422861,120.871833,4.965059e-06
C0N040,蘆竹溝,2026-04-18,23.2344,120.0961,1.8446832e-05
C0TB40,崇德,2026-04-18,24.166144,121.657414,0.00012016833
C0D760,大坪苗圃,2026-04-18,24.5362,121.1108,3.1268534e-09
C2D430,峨眉,2026-04-18,24.6905,121.017189,1.250206e-08
C2W230,畜試所澎湖,2026-04-18,23.628342,119.513206,0.9129448
C0R880,後壁湖,2026-04-18,21.9457,120.7457,0.99797535
C1I280,埔中,2026-04-18,23.820778,120.642594,4.510003e-08
467790,墾丁雷達站,2026-04-18,21.948235,120.808028,0.99978626
C0W190,望安,2026-04-18,23.380564,119.494075,0.98615867
C0Z170,卓溪,2026-04-18,23.3443,121.3029,0.6483174
C0F850,東勢,2026-04-18,24.246428,120.833047,0.13861458
466900,淡水,2026-04-18,25.164889,121.448906,1.6738467e-06
C0I370,魚池,2026-04-18,23.895703,120.94135,8.689802e-06
C0C630,大溪,2026-04-18,24.882853,121.265547,2.7162272e-09
C0A520,山佳,2026-04-18,24.974944,121.402008,2.2265986e-05
C0I110,竹山,2026-04-18,23.761225,120.688156,0.0050433828
82H840,茶改南部分場,2026-04-18,23.762528,120.7405,1.750767e-07
C2SD80,再來山,2026-04-18,23.34371,121.44122,0.354743
C0G660,溪湖,2026-04-18,23.94835,120.479122,2.0593902e-06
C1T800,洛韶,2026-04-18,24.204558,121.453956,9.732302e-10
C1T810,慈恩,2026-04-18,24.192044,121.388386,1.3524338e-09
C1E451,象鼻,2026-04-18,24.368617,120.940228,2.4454032e-06
C0AC60,三峽,2026-04-18,24.939025,121.369728,6.263621e-08
C0I490,萬大林道,2026-04-18,23.928228,121.091411,1.7909867e-09
C1I290,豐丘,2026-04-18,23.668178,120.887417,5.4948583e-09
C1I320,奧萬大,2026-04-18,23.952956,121.178556,2.9082523e-08
C2M910,嘉義大學,2026-04-18,23.471325,120.485903,0.9979435
C0U770,南澳,2026-04-18,24.44935,121.81022,1.7666127e-06
C2TB30,吉安,2026-04-18,23.94538,121.54803,0.1299344
C0A980,社子,2026-04-18,25.109508,121.469681,3.8586517e-05
C0V800,六龜,2026-04-18,22.997889,120.633583,0.9998813
C1G9D0,國一S218K,2026-04-18,23.890641,120.493253,2.39478e-06
C0E570,白沙屯,2026-04-18,24.549447,120.696803,1.27501e-08
C2F9A0,中竹林,2026-04-18,24.103556,120.751061,1.3900376e-06
C0FA40,臺中電廠,2026-04-18,24.2146,120.4907,6.0084903e-07
C2G9A0,畜試所彰化,2026-04-18,23.86045,120.557964,0.00030146245
C0H9C0,合歡山,2026-04-18,24.143442,121.272547,1.5784263e-08
G2M350,農試溪口農場,2026-04-18,23.58565,120.408111,0.5963513
C0U860,頭城,2026-04-18,24.85323,121.8308,1.04709925e-05
C0R580,南州,2026-04-18,22.48591,120.50274,0.999937
C0G780,秀水,2026-04-18,24.03405,120.503869,1.9468189e-06
72N100,臺南農改場,2026-04-18,23.0605,120.342194,0.9982584
C0S900,蘭嶼高中,2026-04-18,22.04909,121.51214,4.3451087e-06
C2TA60,六十石,2026-04-18,23.22477,121.31861,2.1183233e-09
C1F9W0,德基,2026-04-18,24.254783,121.190261,3.0626515e-09
C2M980,安和,2026-04-18,23.51377,120.31593,9.932696e-07
C1Z120,壽豐,2026-04-18,23.870853,121.508081,0.013193575
C0W160,烏坵,2026-04-18,24.9944,119.44956,6.377957e-08
C1I550,國六W023K,2026-04-18,23.979067,120.867742,8.477882e-06
C0R870,興海,2026-04-18,21.9752,120.8439,0.99980295
C0R140,瑪家,2026-04-18,22.682903,120.686639,0.61875963
C0A530,坪林,2026-04-18,24.938183,121.70975,7.27226e-09
C0X260,後壁,2026-04-18,23.366358,120.362326,0.0017475863
C0Z230,和平,2026-04-18,24.30717,121.77007,0.99207497
C0G770,福興,2026-04-18,24.041289,120.437669,2.6699112e-07
C0H9A0,神木村,2026-04-18,23.532742,120.843667,2.6186304e-09
C0I460,南投,2026-04-18,23.911469,120.687331,0.0001973658
C0I480,梅峰,2026-04-18,24.085272,121.173572,2.9031133e-09
C2D770,巨埔,2026-04-18,24.84435,121.11442,1.846117e-08
C2A560,福山,2026-04-18,24.776203,121.502811,2.7317219e-08
C0AH30,五分山,2026-04-18,25.07125,121.780794,4.1326147e-09
C0FA10,松柏,2026-04-18,24.429115,120.617482,1.6078825e-08
72S200,東改班鳩分場,2026-04-18,22.829528,121.077694,0.0010011238
72HA00,中改埔里分場,2026-04-18,23.903208,120.963364,1.2934912e-05
C2H9W0,大坪頂農水,2026-04-18,24.043122,120.932781,3.811973e-06
C0C650,平鎮,2026-04-18,24.897503,121.214636,2.8661677e-09
C0S930,延平,2026-04-18,22.902581,121.084058,5.0163766e-05
C0UA60,樟樹山,2026-04-18,24.41393,121.78325,6.904586e-08
C2UC10,出水溪,2026-04-18,24.615822,121.652253,1.0280227e-08
C1S670,摩天,2026-04-18,23.199503,121.027,2.9167002e-09
C2C590,觀音,2026-04-18,25.027072,121.153317,7.885763e-09
C0V630,茄萣,2026-04-18,22.906642,120.182608,9.508717e-07
466940,基隆,2026-04-18,25.133314,121.740475,3.912463e-07
C0X050,東河,2026-04-18,23.296598,120.385608,0.99337137
C0R770,保力,2026-04-18,22.071122,120.764111,0.9994335
G2L020,農試嘉義分所,2026-04-18,23.485028,120.473806,0.99794036
C0X240,關子嶺,2026-04-18,23.331169,120.508025,0.0007422415
C0I380,集集,2026-04-18,23.828206,120.801467,8.846728e-05
466990,花蓮,2026-04-18,23.975128,121.613275,0.0004410763
C1V220,小關山,2026-04-18,23.154217,120.813603,3.772727e-09
C1F9G1,慶福山,2026-04-18,24.180853,120.848378,1.8893306e-08
C0FB20,雪山橋,2026-04-18,24.23192,120.9786,2.0449966e-09
C0Z250,瑞穗林道,2026-04-18,23.49284,121.30688,2.345893e-09
C0D590,新豐,2026-04-18,24.87068,120.97721,4.1829558e-09
C2N200,口宵里,2026-04-18,23.15987,120.45988,0.087678716
C0A870,五指山,2026-04-18,25.132153,121.608692,2.0973532e-09
C0UA50,西帽山,2026-04-18,24.555361,121.802628,4.6823656e-09
C2R980,竹田國中,2026-04-18,22.61532,120.52412,0.99994665
C0X160,仁德,2026-04-18,22.968258,120.257689,1.7101548e-06
C1H971,六分寮,2026-04-18,23.92507,120.6378,6.575333e-08
C2D790,石鹿,2026-04-18,24.56551,121.15841,1.5834309e-09
C0W120,西嶼,2026-04-18,23.5626,119.468436,0.98561525
C0G650,員林,2026-04-18,23.946503,120.585597,2.9678065e-05
C0AD50,鶯歌,2026-04-18,24.951533,121.346294,4.251886e-08
C2H9Q0,北東眼山,2026-04-18,24.120939,121.189303,3.3554048e-09
C2H9T0,名間竹圍,2026-04-18,23.859914,120.637572,2.9552557e-05
C0S990,山豬窟,2026-04-18,22.318619,120.857372,2.8285769e-05
C0X190,安平,2026-04-18,22.993161,120.152181,3.0847053e-07
C0K400,斗六,2026-04-18,23.720583,120.541127,0.3429997
12J990,口湖工作站,2026-04-18,23.589978,120.180394,6.132825e-08
C0O830,北寮,2026-04-18,23.079561,120.495008,0.98886466
C1D410,白蘭,2026-04-18,24.579364,121.079947,3.93322e-09
C0S970,加津林,2026-04-18,22.416211,120.926942,0.72248083
C0D700,關西,2026-04-18,24.7977,121.1732,4.0461507e-07
C0U750,龜山島,2026-04-18,24.841667,121.953133,2.8104697e-08
C0R810,內獅,2026-04-18,22.305064,120.642986,0.9995632
C2EA10,拉庫斯,2026-04-18,24.53637,121.02137,5.280374e-09
C1M390,龍美,2026-04-18,23.406728,120.654417,3.1046334e-09
C2K290,崙內,2026-04-18,23.69525,120.35601,2.0559796e-06
C2FB60,頭櫃山,2026-04-18,24.129842,120.858925,2.4200826e-09
C1H840,國三N238K,2026-04-18,23.841008,120.707711,1.6742762e-06
CAQ030,崎峰國小,2026-04-18,22.42565,120.49521,0.999937
C2E520,大湖,2026-04-18,24.414939,120.870872,3.3963015e-06
467530,阿里山,2026-04-18,23.508208,120.813242,4.7867443e-09
C1E691,南湖,2026-04-18,24.40135,120.837533,3.421521e-08
C0FA30,梧棲,2026-04-18,24.256003,120.523381,1.908063e-07
C1V231,高中,2026-04-18,23.134911,120.716711,5.6867444e-05
C0AK30,硬漢嶺,2026-04-18,25.136097,121.426372,2.6678448e-09
C0F9V0,新社,2026-04-18,24.200172,120.815806,0.0002903288
C0H890,埔里,2026-04-18,23.972169,120.952425,0.0011595639
C0R690,墾丁,2026-04-18,21.966756,120.810269,0.9933763
C0SD20,富山,2026-04-18,22.822383,121.190825,0.16697608
C0F0D0,審馬陣,2026-04-18,24.381675,121.4203,5.9426615e-09
C2W030,金門農試所,2026-04-18,24.448431,118.451786,4.3221398e-08
C0R820,白鷺,2026-04-18,22.454275,120.666219,0.07560617
C0FB00,大雪山,2026-04-18,24.254668,121.007374,2.6132618e-09
C2O880,南化,2026-04-18,23.17332,120.59413,0.7681044
C1V190,南天池,2026-04-18,23.27403,120.91176,9.064693e-09
C0E940,雪見,2026-04-18,24.42595,121.01347,3.1600451e-09
K2E360,苗栗農改場,2026-04-18,24.495722,120.829111,2.7273808e-07
CAJ050,海口故事園區,2026-04-18,23.57543,120.14121,6.132825e-08
C2K280,四湖,2026-04-18,23.6304,120.22717,5.20656e-07
C2H9D0,三隻寮,2026-04-18,24.093078,120.861578,1.4479591e-08
C0O990,媽廟,2026-04-18,22.99175,120.293525,0.010697436
C0Z220,和平林道,2026-04-18,24.343922,121.656317,3.0152055e-08
C0TA10,花蓮漁港,2026-04-18,23.995322,121.638331,0.86685616
72C440,桃園農改場,2026-04-18,24.950944,121.030583,3.1020349e-09
C1E711,馬拉邦山,2026-04-18,24.367306,120.901656,1.1131104e-06
C0SB20,富岡,2026-04-18,22.792467,121.192669,0.09583235
C0D560,竹東,2026-04-18,24.767147,121.057881,3.315145e-08
C0F9U0,南屯,2026-04-18,24.137006,120.637969,0.0001579091
C2SD60,明峰,2026-04-18,22.8671,121.11825,0.0018190355
C0M720,番路,2026-04-18,23.464657,120.554156,0.40463325
C0F0A0,雪山圈谷,2026-04-18,24.388594,121.236339,1.4114743e-08
C1A9N0,四十份,2026-04-18,24.934158,121.593283,3.5703522e-09
C0U760,東澳,2026-04-18,24.52196,121.83318,1.1989345e-06
C0X230,鹽水,2026-04-18,23.272621,120.247641,2.147341e-06
C2H9H0,苗改南投蜂場,2026-04-18,23.852589,120.693481,0.07046609
C2TB70,達谷寮,2026-04-18,23.38,121.35968,0.35634798
C0R950,萬隆國小,2026-04-18,22.507667,120.587817,0.99991095
467540,大武,2026-04-18,22.35572,120.90374,0.9989092
C0V370,古亭坑,2026-04-18,22.893178,120.401947,0.9996225
C1I340,新興橋,2026-04-18,23.563333,120.868728,4.0511697e-08
C2C480,桃園,2026-04-18,24.992425,121.323172,5.2120517e-09
C0SA80,土坂,2026-04-18,22.453108,120.887572,2.1849351e-05
C0R160,鹽埔,2026-04-18,22.739558,120.530778,0.9999174
C0AC40,大屯山,2026-04-18,25.175675,121.522408,2.5835112e-09
466850,五分山雷達站,2026-04-18,25.071182,121.781205,4.0567505e-09
C2H9L0,馬烈霸,2026-04-18,24.1512,121.201772,3.1782639e-09
C1AI50,國三N016K,2026-04-18,25.034164,121.619664,3.0420264e-08
C2V920,匏子寮,2026-04-18,23.04905,120.55319,0.6041048
C1V600,藤枝,2026-04-18,23.071961,120.757042,4.8400775e-08
C1E601,南勢,2026-04-18,24.572486,120.734842,1.2944735e-08
C0O980,新市,2026-04-18,23.061614,120.298197,0.9982472
C0K420,西螺,2026-04-18,23.800407,120.467394,0.00018548415
C0Z050,佳心,2026-04-18,23.34567,121.21316,9.3237436e-09
C0AD30,蘆洲,2026-04-18,25.086594,121.472331,5.1848183e-05
C0V610,梓官,2026-04-18,22.760558,120.267211,0.090587005
K2F750,種苗改良場,2026-04-18,24.225972,120.800917,0.00068037666
C0UA80,大溪漁港,2026-04-18,24.941801,121.902955,5.1011983e-07
C1AI60,國一39K邊坡,2026-04-18,25.064361,121.383836,6.745259e-08
C0W150,金寧,2026-04-18,24.457703,118.328989,7.206592e-08
C0R960,內埔,2026-04-18,22.608483,120.570714,0.99994725
C2H9S0,龍南,2026-04-18,23.953536,120.833183,2.7721574e-09
C0AH40,平等,2026-04-18,25.129142,121.577086,5.8811738e-09
C0R540,佳冬,2026-04-18,22.419456,120.552375,0.9999424
466950,彭佳嶼,2026-04-18,25.627975,122.079744,6.558161e-05
C0A890,雙溪,2026-04-18,25.036003,121.864242,1.404277e-07
C0AH50,林口,2026-04-18,25.072181,121.38084,2.475193e-08
A2K360,水試臺西試驗場,2026-04-18,23.717231,120.190522,3.1751244e-07
C2M960,外寮,2026-04-18,23.562643,120.665688,2.3710896e-08
C0F9S0,烏日,2026-04-18,24.107058,120.624103,3.1038718e-07
C2N180,鹿陶洋,2026-04-18,23.14325,120.48352,0.9926371
C0C490,八德,2026-04-18,24.928708,121.283289,3.349439e-09
C0R190,赤山,2026-04-18,22.592333,120.614306,0.9999511
C0T820,天祥,2026-04-18,24.179597,121.495639,3.6996923e-09
C1F9E1,龍安,2026-04-18,24.1605,120.831961,0.00012256304
C2SD50,順那,2026-04-18,23.04166,121.29332,0.97144794
C0V820,小林,2026-04-18,23.148408,120.63325,0.00048507375
C2G870,芳苑,2026-04-18,23.922303,120.320025,2.448625e-08
C0E850,大河,2026-04-18,24.618069,120.948578,4.735376e-08
C1U670,寒溪,2026-04-18,24.634,121.71691,5.904785e-05
C0N020,城西,2026-04-18,23.0568,120.0956,2.5023797e-05
C1Z110,三棧,2026-04-18,24.11557,121.60501,1.540415e-09
C0R280,檳榔,2026-04-18,22.076078,120.836777,0.44770822
C2H9J0,中台,2026-04-18,23.9996,120.938739,6.2126587e-06
C0F9L0,后里,2026-04-18,24.310436,120.729725,0.004789761
467441,高雄,2026-04-18,22.730432,120.312516,0.8777185
C2N210,岩坑,2026-04-18,23.24614,120.47458,0.9313676
C0Z180,新城,2026-04-18,24.040486,121.604878,0.0003961873
C0D540,橫山,2026-04-18,24.71116,121.11693,1.7400351e-08
C1D420,太閣南,2026-04-18,24.632808,121.160575,6.3572914e-10
C1E770,公館,2026-04-18,24.526914,120.830806,8.890981e-08
CAN130,水試所海水繁養殖中心,2026-04-18,23.120802,120.07968,3.5093733e-05
C1I430,翠華,2026-04-18,24.191961,121.224339,4.858185e-09
C1M400,菜瓜坪,2026-04-18,23.251928,120.576103,0.00011502185
C0G730,二林,2026-04-18,23.903325,120.376081,9.562528e-08
72M360,南改義竹分場,2026-04-18,23.360694,120.279361,8.7074187e-07
V2K620,麥寮合作社,2026-04-18,23.753836,120.294783,1.549723e-06
C0Z070,舞鶴,2026-04-18,23.46811,121.37407,0.8006293
C0B040,大武崙,2026-04-18,25.166676,121.706993,3.8297514e-08
C1Z030,紅葉,2026-04-18,23.493119,121.338806,0.907596
C1I050,丹大,2026-04-18,23.753747,121.141147,5.698772e-09
467290,古坑,2026-04-18,23.380729,120.336861,0.00023877382
C0I080,信義,2026-04-18,23.689694,120.851036,3.515477e-08
C2TB80,庄子底,2026-04-18,23.71794,121.49438,0.0026022086
C0D750,樂山林道6k,2026-04-18,24.49999,121.08773,2.0174897e-09
C2M920,朴子農改,2026-04-18,23.469889,120.259383,6.740648e-07
C2A880,福隆,2026-04-18,25.017842,121.942083,9.564364e-06
C0Z160,鳳林,2026-04-18,23.746114,121.453411,0.0017329331
C0UB80,翠峰林道6K,2026-04-18,24.49773,121.568625,2.1136335e-09
C0V210,復興,2026-04-18,23.222403,120.806089,3.0511633e-06
C0H990,昆陽,2026-04-18,24.121322,121.273642,8.970525e-09
C0R741,獅子,2026-04-18,22.202308,120.705236,0.9996223
C0S710,鹿野,2026-04-18,22.917711,121.122994,1.3761615e-06
C0I530,小奇萊,2026-04-18,24.131764,121.295717,1.1469449e-08
C0FA70,大雪山埡口,2026-04-18,24.26867,121.03062,6.242365e-09
C2K630,荷苞,2026-04-18,23.657717,120.595144,0.18081087
C0Z080,富源,2026-04-18,23.587642,121.378225,0.0025118112
C2M9E0,旺來山,2026-04-18,23.555153,120.486463,0.99283236
C0SB10,美和,2026-04-18,22.682078,121.060236,0.97654927
C2K620,馬光農場,2026-04-18,23.721453,120.378864,0.0001353373
C1I140,卡奈托灣,2026-04-18,23.754364,121.087872,1.7141294e-09
C0I520,玉山風口,2026-04-18,23.470489,120.955994,2.4674955e-08
C1G691,下水埔,2026-04-18,23.816114,120.5676,0.1028738
C0X110,臺南市南區,2026-04-18,22.961189,120.188378,1.5445825e-06
C0V680,仁武,2026-04-18,22.701083,120.347722,0.8777185
C2G840,北斗,2026-04-18,23.877586,120.514222,2.42327e-06
C2TB90,長橋,2026-04-18,23.6874,121.46186,0.0012395598
C0R900,竹坑,2026-04-18,22.1385,120.7022,0.9982804
C0G860,社頭,2026-04-18,23.897647,120.5862,7.920833e-05
C0X150,安定,2026-04-18,23.102614,120.227839,0.028895698
C0R590,里港,2026-04-18,22.77919,120.49459,0.99950397
C0E610,馬都安,2026-04-18,24.451272,120.930192,3.3992324e-05
C0E550,明德,2026-04-18,24.583486,120.885411,0.0002529819
C0R150,三地門,2026-04-18,22.709889,120.639944,0.99992347
C0G910,花壇,2026-04-18,24.032076,120.549461,1.8185101e-06
C1D400,鳥嘴山,2026-04-18,24.71909,121.28387,1.0002206e-09
C0K500,元長,2026-04-18,23.64981,120.315024,2.0189802e-06
C0F0B0,石岡,2026-04-18,24.276061,120.777644,0.0027721294
C2V250,甲仙,2026-04-18,23.080106,120.591758,0.95901734
C0SA20,金崙山,2026-04-18,22.567419,120.959667,8.526542e-09
C0V350,溪埔,2026-04-18,22.738578,120.446797,0.9995153
C0M660,溪口,2026-04-18,23.604131,120.403569,0.5963513
C1S880,壽卡,2026-04-18,22.238911,120.858903,3.8434578e-06
72D680,桃改新埔分場,2026-04-18,24.834444,121.066111,3.6898402e-09
