站號,站名,日期,lat,lon,BLBTSLS
C0R710,龍磐,2026-05-01,21.931672,120.838942,0.024238339
C1F9D1,白毛台,2026-05-01,24.158325,120.886933,7.9596524e-10
C0G940,竹塘,2026-05-01,23.848253,120.386764,3.9280863e-08
467590,恆春,2026-05-01,22.003897,120.746339,0.08303794
C0U710,太平山,2026-05-01,24.505486,121.525656,7.3800503e-09
C0E820,獅潭,2026-05-01,24.539133,120.920042,2.7696259e-09
C2SD70,二層坪,2026-05-01,22.94105,121.16838,2.1765383e-07
C0V880,興達,2026-05-01,22.8778,120.2127,0.99947023
C0SB30,新蘭,2026-05-01,22.869214,121.223228,8.072757e-05
C2R970,屏科大,2026-05-01,22.648275,120.619247,0.99978554
C1Z130,銅門,2026-05-01,23.965694,121.492842,5.437716e-08
C0AD40,土城,2026-05-01,24.973208,121.445169,3.2380885e-09
CAN140,六官養殖協會,2026-05-01,23.22881,120.29962,0.0135179935
C0X180,山上,2026-05-01,23.0757,120.363253,0.9969232
C0F9Z0,雪山東峰,2026-05-01,24.388792,121.268675,1.2907827e-08
C1M480,獨立山,2026-05-01,23.537022,120.607797,4.655336e-10
C0X220,學甲,2026-05-01,23.230367,120.182187,0.45053765
467650,日月潭,2026-05-01,23.881325,120.90805,1.1867496e-09
A2K570,古坑(花卉中心),2026-05-01,23.633531,120.552392,9.119788e-07
C0K600,箔子寮,2026-05-01,23.6197,120.14,0.024685295
C0G830,埤頭,2026-05-01,23.866003,120.452806,8.641514e-08
C0S950,七塊厝,2026-05-01,22.954453,121.229922,2.2802721e-08
467110,金門,2026-05-01,24.407306,118.289281,1.4704436e-06
C0AH80,深坑,2026-05-01,25.002703,121.628328,1.1834996e-08
C0A970,三貂角,2026-05-01,25.007606,122.002058,2.0285441e-07
C2D730,寶山農場,2026-05-01,24.732444,120.976153,2.718281e-08
C0K430,褒忠,2026-05-01,23.690938,120.303634,2.7213006e-05
467480,嘉義,2026-05-01,23.495925,120.432906,3.9061845e-07
C0V400,阿公店,2026-05-01,22.804194,120.355528,0.99937254
C2S800,華源,2026-05-01,22.65783,121.0232,2.4542707e-05
C2SA40,瑞和,2026-05-01,22.974361,121.156697,2.7996765e-07
C0E960,觀霧分站,2026-05-01,24.505781,121.113921,4.150008e-09
467550,玉山,2026-05-01,23.48718,120.95943,1.6601124e-08
C0R440,大漢山,2026-05-01,22.405264,120.753181,4.01715e-09
C0SD30,東清國小,2026-05-01,22.057128,121.564922,0.03269871
C1F9B1,桐林,2026-05-01,24.066172,120.735194,3.018975e-08
C2I210,蘆竹湳,2026-05-01,23.93398,120.81209,6.8209893e-10
C2H9U0,鳳鵬,2026-05-01,23.763919,120.788061,1.5159026e-09
C0K390,土庫,2026-05-01,23.679029,120.395574,1.4096241e-06
C1I450,望鄉山,2026-05-01,23.594153,120.944286,7.040307e-09
C0E910,海埔,2026-05-01,24.648767,120.772435,3.3304892e-07
B2E890,畜試北區分所,2026-05-01,24.527806,120.770972,5.563629e-09
C0R750,四林格山,2026-05-01,22.076989,120.802439,0.0004468895
C0F0C0,中坑,2026-05-01,24.248517,120.903319,1.4183986e-09
C1I121,大鞍,2026-05-01,23.678381,120.760017,1.3368331e-09
C2G9E0,移民庄,2026-05-01,23.9784,120.40283,1.1647334e-06
72U480,花改蘭陽分場,2026-05-01,24.686306,121.716583,2.7198563e-09
C0A770,科教館,2026-05-01,25.096356,121.516507,3.7793892e-09
C0AJ60,六塊厝,2026-05-01,25.24,121.4481,2.2902618e-06
C0R620,墾雷,2026-05-01,21.900836,120.855269,0.034792095
467420,永康,2026-05-01,23.038386,120.2367,0.99894327
C2M530,奮起湖,2026-05-01,23.493903,120.699253,1.0456941e-09
C0I410,名間,2026-05-01,23.837053,120.701447,5.7775317e-08
A2C560,農工中心,2026-05-01,24.985917,121.239833,8.398662e-08
C0V740,旗山,2026-05-01,22.888614,120.483597,0.009938844
C0Z061,玉里,2026-05-01,23.3215,121.339656,5.3534075e-07
C0S840,南田,2026-05-01,22.279725,120.889208,0.15852335
C1I470,杉林溪,2026-05-01,23.639517,120.786444,1.2413188e-09
C1X040,東原,2026-05-01,23.291597,120.463822,5.7172944e-08
C0R660,枋寮,2026-05-01,22.367722,120.590647,0.999097
C0K450,大埤,2026-05-01,23.646074,120.431537,6.3128405e-06
C0UA00,土場,2026-05-01,24.576533,121.495333,1.0758554e-08
467080,宜蘭,2026-05-01,24.763975,121.756528,2.452625e-09
C0N030,四草,2026-05-01,23.0235,120.1116,0.9991646
467410,臺南,2026-05-01,22.99328,120.20492,0.999492
C0V650,彌陀,2026-05-01,22.783806,120.246361,0.9996933
C0D660,新竹市東區,2026-05-01,24.798681,120.986942,7.204737e-08
82S580,茶改東部分場,2026-05-01,22.907694,121.130139,3.0325577e-07
C0SB40,興隆,2026-05-01,22.913661,121.257469,0.00021642268
467050,新屋,2026-05-01,25.006725,121.047492,1.2334235e-06
C0C710,大溪永福,2026-05-01,24.892936,121.324975,8.6298854e-08
C0FA20,溫寮,2026-05-01,24.372177,120.583125,1.9590556e-07
C0V640,湖內,2026-05-01,22.887139,120.2445,0.99945307
C0R910,下寮,2026-05-01,22.3929,120.5548,0.996799
C0Z020,明里,2026-05-01,23.208717,121.262342,6.256713e-07
C0M770,嘉義梅山,2026-05-01,23.585398,120.555587,3.4447734e-08
C0C660,楊梅,2026-05-01,24.912375,121.143047,5.5204513e-08
C0SD40,牛頭山,2026-05-01,22.676661,121.506944,0.024093537
C1E511,新開,2026-05-01,24.347703,120.827019,2.026267e-09
G2F820,農試所(霧峰),2026-05-01,24.031261,120.688133,6.857116e-08
C2M990,大巃頂,2026-05-01,23.5547,120.61439,6.4184175e-10
C1I070,和社,2026-05-01,23.591131,120.888861,7.1057327e-10
C2E990,新坪頂,2026-05-01,24.30201,120.8574,1.5359438e-09
C0TA80,立霧山,2026-05-01,24.183258,121.641899,1.1933918e-08
C2F000,大肚,2026-05-01,24.15295,120.572117,2.521547e-09
C1S850,豐南,2026-05-01,23.122139,121.262389,2.7844742e-08
C2M9B0,西興,2026-05-01,23.2428,120.57617,1.3215609e-09
C2A920,富貴角,2026-05-01,25.263783,121.565258,1.09264796e-07
C0T960,光復,2026-05-01,23.660694,121.424964,2.3160354e-08
C0F9M0,豐原,2026-05-01,24.254322,120.720692,1.0952682e-08
C0R720,旭海,2026-05-01,22.205403,120.887614,0.06393674
C0V710,苓雅,2026-05-01,22.622742,120.330669,0.9997097
C0C740,觀音工業區,2026-05-01,25.064764,121.114856,2.8158413e-06
CAC040,拉拉山,2026-05-01,24.699317,121.427133,7.740735e-09
C0V790,萬山,2026-05-01,22.905944,120.688056,1.5325712e-05
U2HA30,臺大和社,2026-05-01,23.590856,120.888864,7.1057327e-10
C2H9K0,屯原,2026-05-01,24.067969,121.209389,3.6676746e-09
C0AJ90,澳底,2026-05-01,25.0552,121.9253,1.3186074e-07
C0Z100,東華,2026-05-01,23.89525,121.549833,2.3338174e-08
C0G970,三豐,2026-05-01,23.882,120.2895,7.6789336e-05
C0V900,汕尾,2026-05-01,22.4782,120.4151,0.99842197
C1R630,龍泉,2026-05-01,22.66701,120.59091,0.9997972
C1AC50,關渡,2026-05-01,25.133486,121.469331,1.4151492e-07
C0C800,四稜,2026-05-01,24.64733,121.4293,5.1103446e-09
C0F9I0,神岡,2026-05-01,24.272481,120.658314,4.409865e-09
C0K460,斗南,2026-05-01,23.678734,120.478359,5.5423448e-06
C2O810,曾文,2026-05-01,23.219681,120.497328,2.463995e-07
467280,後龍,2026-05-01,24.648563,120.831834,1.9298847e-07
C1F9J1,清水林,2026-05-01,24.071242,120.820419,6.183762e-10
C2A650,火燒寮,2026-05-01,25.002719,121.742892,4.1613664e-09
466930,竹子湖,2026-05-01,25.162078,121.544547,4.375889e-09
C1I220,樟湖,2026-05-01,23.905333,120.846983,9.996217e-10
C0I390,仁愛,2026-05-01,24.022122,121.132206,1.3480377e-09
C0Z300,東里,2026-05-01,23.26853,121.30547,3.9832804e-07
C1V590,新發,2026-05-01,23.057019,120.646064,3.6746628e-09
C0K510,水林,2026-05-01,23.572924,120.24597,2.4727758e-06
72S590,東改賓朗果園,2026-05-01,22.813889,121.071278,3.8126966e-08
82A750,茶改北部分場,2026-05-01,24.955778,121.631222,3.6009982e-09
C1A750,石碇服務區,2026-05-01,25.00872,121.646242,8.536485e-09
C0X300,鹿寮,2026-05-01,23.386047,120.477331,5.5332382e-08
C0K590,雲林東勢,2026-05-01,23.674192,120.255721,6.123711e-05
C2K310,港尾布雞,2026-05-01,23.74834,120.38439,8.703002e-07
C0A570,桶後,2026-05-01,24.848222,121.597992,1.085566e-08
C0G720,溪州,2026-05-01,23.851589,120.499093,8.048848e-08
C1V160,達卡努瓦,2026-05-01,23.279811,120.705319,8.36615e-10
C2M410,馬頭山,2026-05-01,23.324361,120.582017,2.0120032e-08
C0V850,蚵仔寮,2026-05-01,22.7256,120.2527,0.99969375
C0S740,池上,2026-05-01,23.119628,121.209469,1.3918135e-07
C1V390,尖山,2026-05-01,22.813153,120.367789,0.9989704
C0AH70,松山,2026-05-01,25.04871,121.55042,3.6635077e-09
C0N010,鯤鯓國小,2026-05-01,23.1879,120.0889,0.97308826
C0SA60,知本（水試所）,2026-05-01,22.702394,121.082761,0.047782596
C0T9I0,豐濱,2026-05-01,23.583897,121.514806,4.7894222e-08
C0UB00,淡江大學蘭陽校園,2026-05-01,24.823239,121.730383,3.3499246e-09
C0W240,九宮,2026-05-01,24.423753,118.240186,6.5233485e-07
C0T9N0,富里,2026-05-01,23.171639,121.249378,3.8837933e-07
U2HA50,臺大竹山,2026-05-01,23.756972,120.681556,8.608185e-08
C0V840,鳳鼻頭,2026-05-01,22.5083,120.3591,0.998282
C0X140,西港,2026-05-01,23.125608,120.203108,0.16783014
72D080,桃改五峰分場,2026-05-01,24.612194,121.157167,9.326069e-10
C2H9P0,伊拿谷,2026-05-01,23.963211,121.088264,8.6538426e-10
C2K250,崙背,2026-05-01,23.75553,120.31893,2.2967597e-05
C2H9F0,柑林,2026-05-01,24.018658,120.847072,2.1170066e-09
C0TA20,加灣,2026-05-01,24.082025,121.608944,2.140757e-06
C0V530,阿蓮,2026-05-01,22.883208,120.327508,0.9992519
C0FB30,八仙山苗圃,2026-05-01,24.192719,121.001366,1.4423436e-09
C0E791,卓蘭,2026-05-01,24.3126,120.8244,1.86413e-09
C2R260,春日,2026-05-01,22.370361,120.628306,0.9982288
C1I030,武界,2026-05-01,23.913225,121.052483,9.510154e-10
C0R520,崁頂,2026-05-01,22.514781,120.506914,0.9997563
C0R341,牡丹,2026-05-01,22.130036,120.792639,0.70968854
C0R930,萬丹,2026-05-01,22.5885,120.4851,0.99954253
C0S760,紅石,2026-05-01,23.069131,121.126219,4.68033e-09
C2C410,中央大學,2026-05-01,24.967652,121.185165,7.1599956e-08
C1M610,石磐龍,2026-05-01,23.496606,120.663506,8.650724e-10
C2C830,中德,2026-05-01,24.981862,121.291344,2.1984847e-07
C0C790,東眼山,2026-05-01,24.8284,121.40888,2.9420217e-09
C0UA10,鴛鴦湖,2026-05-01,24.590269,121.412228,8.242217e-09
C0R800,丹路,2026-05-01,22.204481,120.750989,0.8820851
C2R240,萬巒,2026-05-01,22.527306,120.625111,0.9997114
C0G920,永靖,2026-05-01,23.924703,120.547533,5.168442e-07
C2M950,太和,2026-05-01,23.538372,120.702961,1.0331901e-09
C1A630,下盆,2026-05-01,24.771003,121.538622,5.1558606e-09
B2N890,畜產試驗所,2026-05-01,23.058972,120.336406,0.9988424
C0UA30,白嶺,2026-05-01,24.527819,121.519031,5.0117976e-09
467571,新竹,2026-05-01,24.828575,121.01455,7.243069e-08
C1V580,溪南(特生中心),2026-05-01,23.084972,120.788475,1.4705304e-09
C1T970,大農,2026-05-01,23.615233,121.413331,7.951921e-08
C0R650,竹田,2026-05-01,22.58486,120.54344,0.9998198
C1H900,清流,2026-05-01,24.080775,120.962997,9.1787494e-10
C1C510,水尾,2026-05-01,24.940081,121.087161,1.2264627e-07
C2N170,茅港尾,2026-05-01,23.2061,120.2624,0.0135179935
C0F9X0,大雅(中科園區),2026-05-01,24.21528,120.62445,7.190333e-09
C0SB60,白守蓮,2026-05-01,23.126769,121.401914,0.009801932
C0O970,虎頭埤,2026-05-01,23.021375,120.347878,0.9964731
C0C730,中大臨海站,2026-05-01,24.966126,121.008581,1.194236e-07
C0X250,新營,2026-05-01,23.310689,120.316681,0.0016490143
C0V700,三民,2026-05-01,22.645017,120.311233,0.9993606
C0U870,大礁溪,2026-05-01,24.791042,121.675047,3.963237e-09
C0E870,高鐵苗栗,2026-05-01,24.60725,120.826094,2.0918434e-07
C2S890,關山,2026-05-01,23.0395,121.175017,1.3983954e-07
C0TA30,鹽寮,2026-05-01,23.845606,121.592664,3.0985596e-08
C0M860,新美,2026-05-01,23.338017,120.683169,9.976141e-10
C1E701,八卦,2026-05-01,24.491756,120.927619,1.029274e-09
C2TA90,加納納,2026-05-01,23.466421,121.359867,2.4433438e-08
C0I420,國姓,2026-05-01,24.037803,120.855072,1.7254462e-09
C2D720,關西工作站,2026-05-01,24.757275,121.184792,5.3036397e-09
C2AK30,信賢,2026-05-01,24.84108,121.53492,6.2614918e-09
C0S960,香蘭,2026-05-01,22.587569,120.993375,2.5222918e-05
467620,蘭嶼,2026-05-01,22.0369,121.55843,0.034486115
C2UC40,中城,2026-05-01,24.62865,121.74745,2.9828509e-09
72G600,臺中農改場,2026-05-01,24.003028,120.534389,3.4342322e-06
C0Z210,瑞穗,2026-05-01,23.5239,121.39021,6.293799e-08
C0M820,達邦,2026-05-01,23.453994,120.749517,7.7407747e-10
C0V860,南寮,2026-05-01,22.7616,120.2339,0.99969375
C0G740,大城,2026-05-01,23.852487,120.320935,6.766183e-05
C0R920,塭仔,2026-05-01,22.4169,120.5197,0.99683434
C0R470,高樹,2026-05-01,22.826389,120.600806,0.9996437
C0R680,佳樂水,2026-05-01,21.993578,120.861633,0.03605303
C1O870,大棟山,2026-05-01,23.31157,120.52226,1.1053581e-09
C0D360,梅花,2026-05-01,24.678347,121.208558,1.2801217e-09
C0Z190,富世,2026-05-01,24.14743,121.6297,3.222005e-07
C0AI10,屈尺,2026-05-01,24.92184,121.54475,2.9360459e-09
B2U990,畜試東區分所,2026-05-01,24.669039,121.832561,3.137984e-09
C0SB80,長濱漁港,2026-05-01,23.313644,121.459994,7.8427365e-07
C0TA50,和仁,2026-05-01,24.241394,121.712472,4.7074008e-07
C2AK40,漁光,2026-05-01,24.96875,121.72132,3.5681056e-09
C0V910,大樹,2026-05-01,22.684645,120.432803,0.9993679
C1R610,西大武山,2026-05-01,22.617719,120.7322,3.1265852e-09
C0G900,線西,2026-05-01,24.143358,120.443536,6.346379e-06
C0M700,竹崎,2026-05-01,23.526178,120.555508,2.868406e-08
C2E880,三義,2026-05-01,24.405478,120.749819,1.480301e-09
C0C720,竹圍,2026-05-01,25.112692,121.239824,1.5740917e-06
C0F9P0,清水,2026-05-01,24.312297,120.562242,2.4392369e-08
C0Z150,吉安光華,2026-05-01,23.930925,121.595153,4.1949903e-08
C0FA80,小雪山天池,2026-05-01,24.28025,121.02627,1.0811069e-08
467300,東吉島,2026-05-01,23.25727,119.66762,0.98843163
C1D640,外坪(五指山),2026-05-01,24.644447,121.090961,1.2739763e-09
C2R9A0,高士國小,2026-05-01,22.12553,120.84653,0.79866815
C0F9O0,潭子,2026-05-01,24.213106,120.703933,1.6020296e-08
C2H9R0,卓社,2026-05-01,23.887894,121.000086,1.5293284e-09
72T250,花蓮農改場,2026-05-01,23.975222,121.563889,3.0463635e-08
C0E780,銅鑼,2026-05-01,24.489681,120.790853,4.6629456e-09
C1T950,太安,2026-05-01,23.666719,121.370128,6.4129626e-09
C0E830,苑裡,2026-05-01,24.439714,120.653053,7.801836e-08
467270,田中,2026-05-01,23.873803,120.581286,6.284239e-08
C0SA10,檳榔四格山,2026-05-01,22.810031,121.109308,1.8472866e-08
C1T830,布洛灣,2026-05-01,24.17184,121.57127,8.6736975e-08
C0F970,大坑,2026-05-01,24.173142,120.722289,1.0157746e-08
C1U920,思源,2026-05-01,24.393125,121.347214,3.19907e-09
C2H9Y0,松茗,2026-05-01,23.8167,120.650765,9.362731e-10
C0A931,三和,2026-05-01,25.233153,121.595236,1.6067329e-08
C0I010,廬山,2026-05-01,24.033311,121.181808,2.323933e-09
C2M940,日野賀,2026-05-01,23.434056,120.727169,8.1953727e-10
C0R860,鼻頭,2026-05-01,22.1043,120.8979,0.049890324
C2I260,北坑,2026-05-01,23.92463,121.00683,8.5815866e-10
C0UB20,壯圍,2026-05-01,24.7359,121.8163,2.5891593e-09
C0R790,九棚,2026-05-01,22.14195,120.889281,0.043207567
C0W110,東莒,2026-05-01,25.9652,119.98069,3.388901e-07
C1U930,粉鳥林,2026-05-01,24.497088,121.842479,2.7758977e-06
C0S830,長濱,2026-05-01,23.286817,121.411975,3.054474e-08
C1F9F1,伯公龍,2026-05-01,24.272392,120.849047,2.0609336e-09
C0UB90,太平山莊,2026-05-01,24.494171,121.536209,7.5041235e-09
C0E810,西湖,2026-05-01,24.562947,120.7485,4.656162e-07
C1I440,新高口,2026-05-01,23.478744,120.878939,4.7117865e-09
C0O840,王爺宮,2026-05-01,23.222064,120.40085,1.4806846e-05
C0T9G0,鳳林山,2026-05-01,23.735269,121.420131,1.7697305e-08
C0X080,佳里,2026-05-01,23.173039,120.145086,0.9686568
C0FB70,大甲溪埔,2026-05-01,24.370625,120.620067,1.4150964e-07
C0Z310,清水斷崖,2026-05-01,24.218294,121.689142,9.150056e-08
C0M680,太保,2026-05-01,23.455062,120.331455,0.0057539474
C1S820,金峰,2026-05-01,22.590969,120.933236,2.074351e-06
C0AD10,八里,2026-05-01,25.150211,121.403947,2.0931575e-06
C2K240,草嶺,2026-05-01,23.59555,120.693461,8.7118734e-10
C1SA70,都蘭,2026-05-01,22.87794,121.226881,6.0144903e-05
C0K440,二崙,2026-05-01,23.772797,120.408944,1.2822929e-07
C1A760,坪林交控,2026-05-01,24.94284,121.713442,5.7755565e-09
C0F9N0,大里,2026-05-01,24.092464,120.701378,5.4172602e-08
C0SA90,達仁林場,2026-05-01,22.264347,120.823972,0.12649412
C1R290,石門山,2026-05-01,22.112611,120.756597,0.0039390745
42HA10,萬大發電廠,2026-05-01,23.978875,121.139639,1.157107e-09
C0R890,山海,2026-05-01,21.9878,120.7091,0.09399753
C0T9A0,月眉山,2026-05-01,23.809928,121.539828,3.394135e-09
C0AC70,信義,2026-05-01,25.037822,121.564597,3.8978283e-09
C0K560,棋山,2026-05-01,23.68645,120.603417,2.7040718e-07
C2FB50,出雲,2026-05-01,24.206469,120.902794,1.4884833e-09
C1Z240,中平林道,2026-05-01,23.42115,121.26763,3.3419365e-08
U2H480,溪頭,2026-05-01,23.670306,120.798194,8.216439e-10
C0M880,好美里,2026-05-01,23.3364,120.138,0.04014547
C0T9E0,大坑,2026-05-01,23.880628,121.581981,1.0479828e-08
C0K530,臺西,2026-05-01,23.701547,120.197559,0.0010273149
C1E900,國一N128K,2026-05-01,24.560997,120.844186,1.3734913e-08
C0AJ50,水湳洞,2026-05-01,25.123695,121.862238,1.2126434e-07
C0AI20,白沙灣,2026-05-01,25.283128,121.519058,2.3471866e-06
C2V310,美濃,2026-05-01,22.898792,120.51907,0.014894172
C0A860,大坪,2026-05-01,25.165914,121.632969,2.2801188e-09
C1U850,觀音海岸,2026-05-01,24.38319,121.77856,6.2827743e-09
C2K610,草嶺石壁,2026-05-01,23.602469,120.707731,8.7616486e-10
C0U950,鶯子嶺,2026-05-01,24.89754,121.79244,4.094827e-09
C0O900,善化,2026-05-01,23.112883,120.297219,0.99915904
C0K550,蔦松,2026-05-01,23.514319,120.229736,8.667306e-06
E2P980,林試六龜中心,2026-05-01,22.991703,120.645722,6.145074e-05
C0E590,通霄,2026-05-01,24.471892,120.704622,1.9628088e-07
C1I310,西巒,2026-05-01,23.754486,120.883956,1.4368547e-09
C0A550,泰平,2026-05-01,24.971197,121.823711,3.8939123e-09
C2UC30,金洋,2026-05-01,24.42465,121.74573,1.5150358e-05
C0I360,水里,2026-05-01,23.812553,120.849792,3.858079e-09
C0R830,高士,2026-05-01,22.121825,120.836781,0.002941796
C1I101,溪頭,2026-05-01,23.661789,120.807647,1.5089245e-09
C0AJ20,野柳,2026-05-01,25.20703,121.690021,9.4400747e-07
C0B060,暖暖,2026-05-01,25.0957,121.7403,7.561781e-09
C1H920,長豐,2026-05-01,24.102039,120.879897,8.085677e-10
C2S9B0,利吉,2026-05-01,22.86246,121.15486,5.563032e-07
C0V360,內門,2026-05-01,22.975481,120.466769,0.0038756048
C0R850,林邊,2026-05-01,22.4634,120.5339,0.9971488
C0E930,龍鳳,2026-05-01,24.700034,120.859125,7.700623e-07
C0U910,冬山,2026-05-01,24.63373,121.7937,3.137984e-09
C1E721,泰安,2026-05-01,24.489017,120.968036,1.8927744e-09
82H320,茶改中部分場,2026-05-01,23.875611,120.913583,1.0328177e-09
C0M750,布袋,2026-05-01,23.380878,120.167789,0.00059565535
C1S860,利嘉,2026-05-01,22.809417,121.050528,1.3315101e-08
E2S980,林試太麻里1,2026-05-01,22.598922,120.980044,0.00051718985
C0X170,關廟,2026-05-01,22.963017,120.327797,0.99926835
C0V720,林園,2026-05-01,22.507747,120.394511,0.998345
C2M9G0,沄水,2026-05-01,23.38293,120.52666,5.1863474e-09
C1I510,線浸林道,2026-05-01,23.761508,120.832956,1.1875331e-09
C0D690,外湖,2026-05-01,24.917735,120.968711,6.0328166e-06
C0C750,新興坑尾,2026-05-01,25.0061,121.0971,4.005527e-07
B2Q810,畜試南區分所,2026-05-01,21.945583,120.802167,0.03605303
C0S790,金崙,2026-05-01,22.538122,120.966875,1.1684459e-06
C0AH90,福山植物園,2026-05-01,24.760717,121.58135,4.8098165e-09
C0I540,奇萊稜線,2026-05-01,24.109231,121.326456,1.2079912e-08
C0M850,表湖,2026-05-01,23.24186,120.64166,7.007307e-10
C0S770,大溪山,2026-05-01,22.478475,120.943325,0.00045789915
C0AG80,中和,2026-05-01,24.991622,121.491792,3.2380885e-09
C0T790,大禹嶺,2026-05-01,24.186117,121.316086,8.975231e-09
C0T9B0,水源,2026-05-01,23.991861,121.537169,8.415961e-09
C0R840,牡丹池山,2026-05-01,22.168389,120.841225,0.031165538
C1I131,桶頭,2026-05-01,23.641944,120.654117,4.3794044e-09
CAL110,布袋國中,2026-05-01,23.35893,120.18026,0.04014547
C2M9D0,何竹子腳,2026-05-01,23.53641,120.38203,5.542882e-07
C0Z290,赤柯山,2026-05-01,23.36893,121.38293,2.1116037e-08
C0X280,將軍,2026-05-01,23.214999,120.13577,0.46019244
C0S690,太麻里,2026-05-01,22.60902,120.98533,1.701044e-08
C0U880,北關,2026-05-01,24.9072,121.8734,2.1106413e-08
CAW010,東引,2026-05-01,26.3588,120.4836,3.048346e-07
C0G810,埔心,2026-05-01,23.947633,120.525456,6.3083354e-07
C0U970,大福,2026-05-01,24.80064,121.81389,2.478494e-09
C2H9N0,仁愛東眼,2026-05-01,24.026875,121.1205,1.9283544e-09
C1E670,南礦,2026-05-01,24.538278,121.002836,1.5980491e-09
C0M520,東後寮,2026-05-01,23.369908,120.248065,0.0009734001
C1E461,松安,2026-05-01,24.397972,120.986022,1.3981141e-09
C2N160,西拉雅風管處,2026-05-01,23.189481,120.335297,0.10602945
C2O850,環湖,2026-05-01,23.148665,120.4186,2.8726532e-05
C2M970,碧湖,2026-05-01,23.568632,120.624165,6.311357e-10
C0A640,石碇,2026-05-01,24.993969,121.662917,5.7755565e-09
E2S960,林試太麻里2,2026-05-01,22.598,120.99775,3.7522736e-05
C0F9Y0,桃山,2026-05-01,24.432739,121.303808,1.3391637e-08
C1I020,萬大,2026-05-01,23.979817,121.132261,1.3567227e-09
C2UC20,長嶺,2026-05-01,24.70894,121.61162,9.6134745e-09
C0U940,羅東,2026-05-01,24.68184,121.74934,2.751786e-09
C0M650,朴子,2026-05-01,23.43463,120.23902,0.00017423638
C1I500,大尖山,2026-05-01,23.858572,120.994889,3.2898715e-09
C0FB40,中橫21.6k,2026-05-01,24.2499,121.1455,2.0063573e-09
C0G820,田尾,2026-05-01,23.901669,120.509389,6.3083354e-07
E2K600,四湖植物園,2026-05-01,23.676986,120.163433,0.0003484815
C0S730,綠島,2026-05-01,22.6672,121.47533,0.015323643
12Q970,東港工作站,2026-05-01,22.479997,120.466058,0.9973957
C1TA00,太魯閣,2026-05-01,24.15773,121.6236,3.30352e-06
466920,臺北,2026-05-01,25.037658,121.514853,3.6635077e-09
C0R600,舊泰武,2026-05-01,22.588194,120.664944,0.00012293749
466910,鞍部,2026-05-01,25.182586,121.529731,5.2541624e-09
C1I230,九份二山,2026-05-01,23.961944,120.845,6.524095e-10
C2M810,里佳,2026-05-01,23.389125,120.716647,1.066225e-09
C2A660,瑞芳,2026-05-01,25.113169,121.801147,8.24151e-09
C0R270,琉球嶼,2026-05-01,22.332244,120.362236,0.011923805
C2V580,瑞山,2026-05-01,22.90304,120.43424,0.033647854
C1T990,高寮,2026-05-01,23.394239,121.356808,1.5508319e-07
C0G620,芬園,2026-05-01,24.015678,120.6213,1.0775377e-07
C1Z140,荖溪,2026-05-01,23.890575,121.45964,1.5246023e-08
C1I201,中心崙,2026-05-01,23.728722,120.712097,5.262063e-10
C1I400,凌霄,2026-05-01,24.018778,121.004456,1.945203e-09
C1M640,十字,2026-05-01,23.492153,120.753683,1.4453785e-09
G2P820,農試鳳山分所,2026-05-01,22.646611,120.356083,0.9996908
C0Z270,蕃薯寮,2026-05-01,23.73835,121.540108,6.3508954e-09
C2E420,竹南,2026-05-01,24.70898,120.88897,4.9471515e-07
C2D480,打鐵坑,2026-05-01,24.849664,121.150789,3.4387846e-09
C0FB10,出雲山苗圃,2026-05-01,24.23105,120.90475,1.4175547e-09
C0F9Q0,外埔,2026-05-01,24.347817,120.705686,3.26749e-09
C0K580,高鐵雲林,2026-05-01,23.737456,120.417944,7.675672e-07
C2I090,鳳凰,2026-05-01,23.728081,120.787347,7.477116e-10
C0U990,員山,2026-05-01,24.74435,121.72247,2.779771e-09
C0V770,大社,2026-05-01,22.730306,120.346639,0.9996945
C0X120,麻豆,2026-05-01,23.183289,120.248611,0.04954583
C0C670,龍潭,2026-05-01,24.870056,121.221389,3.901339e-09
C0D680,香山濕地,2026-05-01,24.783581,120.914988,6.0328166e-06
C0S980,勝林山,2026-05-01,22.430439,120.8938,3.0662243e-08
C0V730,大寮,2026-05-01,22.605614,120.395717,0.99668276
C0R570,麟洛,2026-05-01,22.65078,120.52719,0.9997397
C2M930,石卓,2026-05-01,23.478744,120.702264,1.4281089e-09
C0G9B0,和美,2026-05-01,24.105169,120.492131,2.8543545e-05
C2I240,外大坪,2026-05-01,23.9587,120.91788,8.147866e-10
CAG100,王功漁港,2026-05-01,23.96824,120.32586,4.661084e-05
C0X290,北門,2026-05-01,23.267772,120.125481,0.46019208
C2F930,大甲,2026-05-01,24.347667,120.640403,6.5967987e-09
C0D650,湖口,2026-05-01,24.904794,121.043628,2.2113214e-08
C0U780,五結,2026-05-01,24.68637,121.79794,3.137984e-09
C1I250,鯉潭,2026-05-01,23.961922,120.991131,8.3692625e-10
C0R130,阿禮,2026-05-01,22.742908,120.743678,1.6488215e-08
C0X100,臺南市北區,2026-05-01,23.010394,120.194228,0.9995172
C0S920,金峰嘉蘭,2026-05-01,22.594789,120.960825,2.089693e-06
C0V490,新興,2026-05-01,22.627422,120.298803,0.9994855
C0F9K0,大安,2026-05-01,24.345061,120.588025,1.00356905e-08
C2E970,八甲,2026-05-01,24.535811,120.795983,8.9467225e-09
C0V440,鳳山,2026-05-01,22.646653,120.356122,0.9996908
C1T940,大觀,2026-05-01,23.714206,121.373133,5.5171117e-09
C0E740,造橋,2026-05-01,24.637056,120.864778,1.0811301e-07
C0R100,尾寮山,2026-05-01,22.833111,120.683889,1.4426442e-08
A2K630,臺大雲林校區,2026-05-01,23.730628,120.423903,7.4792763e-07
467990,馬祖,2026-05-01,26.169467,119.923158,3.7448945e-07
C0D580,寶山,2026-05-01,24.735006,121.025192,7.928958e-09
E2P990,林試扇平站,2026-05-01,22.9677,120.6857,1.6384814e-07
C0AI30,三重,2026-05-01,25.057328,121.500629,3.7793892e-09
C0AH00,汐止,2026-05-01,25.066881,121.658778,1.4255351e-08
C1Z040,立山,2026-05-01,23.443356,121.327375,2.9387758e-08
466881,新北,2026-05-01,24.959207,121.525196,3.1532958e-09
C0W130,花嶼,2026-05-01,23.40007,119.32276,0.9956865
C0A950,鼻頭角,2026-05-01,25.129036,121.923372,0.00044952065
C0K470,林內,2026-05-01,23.748675,120.609642,3.7146955e-07
C2F990,摩天嶺,2026-05-01,24.322458,120.936819,1.4140011e-09
C2E430,南庄,2026-05-01,24.601775,121.000214,4.0108263e-09
82C160,茶改場,2026-05-01,24.908472,121.185333,3.476887e-08
C2TB60,南安,2026-05-01,23.29818,121.26157,2.3884797e-07
C0Z320,清水林道,2026-05-01,23.27125,121.188272,5.065677e-08
C0R760,南仁湖,2026-05-01,22.084681,120.863353,0.0038835194
C0M670,大林,2026-05-01,23.600616,120.45841,2.1853197e-07
C0M800,茶山,2026-05-01,23.299075,120.664767,1.9051143e-09
C0A9C0,天母,2026-05-01,25.117494,121.537169,3.8693173e-09
72K220,南改斗南分場,2026-05-01,23.634556,120.477333,4.43194e-06
72AI40,桃改樹林分場,2026-05-01,24.944503,121.386972,3.5942187e-09
C0S910,蘭嶼燈塔,2026-05-01,22.081197,121.503117,0.02762967
C0B050,八斗子,2026-05-01,25.144754,121.79167,1.8065949e-08
C0U900,內城,2026-05-01,24.71813,121.68766,2.702301e-09
C0X320,柳營,2026-05-01,23.253328,120.375253,0.00078890915
C0M790,新港,2026-05-01,23.553269,120.345728,0.0008751499
C0F9T0,西屯,2026-05-01,24.179494,120.641275,1.232496e-08
C0E950,松安,2026-05-01,24.39792,120.98599,1.3981141e-09
C0SA30,都歷,2026-05-01,23.020333,121.323642,0.000107704334
C0C620,蘆竹,2026-05-01,25.084275,121.265767,7.0065175e-07
C0R730,大坪頂,2026-05-01,22.024633,120.69355,0.021054229
C0AJ40,石門,2026-05-01,25.273672,121.601198,1.9690427e-07
C0E750,苗栗,2026-05-01,24.564569,120.824575,1.4288152e-08
C0T870,鯉魚潭,2026-05-01,23.935639,121.508944,1.2040324e-08
C1V170,排雲,2026-05-01,23.463619,120.954147,1.38530964e-08
C2H950,中寮,2026-05-01,23.884447,120.766406,7.3380395e-09
C0R350,貓鼻頭,2026-05-01,21.921774,120.7358,0.08469734
C0V660,岡山,2026-05-01,22.797078,120.294958,0.99969274
C1H941,雙冬,2026-05-01,23.967378,120.802189,6.981466e-10
C0AJ70,田寮,2026-05-01,25.2698,121.4886,2.3929808e-06
C0AI00,五股,2026-05-01,25.07445,121.42728,2.5746467e-09
C0Z280,德武,2026-05-01,23.47426,121.41071,3.4870418e-08
C2RA10,大新,2026-05-01,22.67558,120.57788,0.9997972
C0R700,枋山,2026-05-01,22.246844,120.661086,0.8110882
C0C460,復興,2026-05-01,24.820208,121.352281,2.1689468e-09
C2AA10,中八仙,2026-05-01,25.11576,121.49199,4.107938e-09
C2K300,鹿南,2026-05-01,23.63855,120.3636,0.00058856054
E2H360,蓮華池,2026-05-01,23.918333,120.885278,7.790364e-10
C0M640,中埔,2026-05-01,23.42538,120.5229,1.4888703e-08
C2C810,八德蔬果,2026-05-01,24.97858,121.28187,2.1984889e-07
C2M9F0,安溪寮,2026-05-01,23.350334,120.208039,0.034055244
C0W140,金沙,2026-05-01,24.488292,118.408778,9.702042e-07
C2A540,四堵,2026-05-01,24.8926,121.745736,4.328713e-09
C0ACA0,新莊,2026-05-01,25.051478,121.446756,3.6711743e-09
C0R220,潮州,2026-05-01,22.534361,120.54,0.9997468
U2HA40,臺大內茅埔,2026-05-01,23.689722,120.851117,1.1823574e-09
467490,臺中,2026-05-01,24.145736,120.684075,1.7485053e-08
C0UB60,明池,2026-05-01,24.650688,121.475277,5.0567834e-09
C0U960,翠峰湖,2026-05-01,24.510856,121.608044,7.0920474e-09
E2HA20,林試畢祿溪站,2026-05-01,24.226944,121.308522,4.4946806e-09
C2M9A0,大華,2026-05-01,23.4824,120.67491,7.855869e-10
C0V890,前鎮,2026-05-01,22.5718,120.3117,0.9997414
C1F941,雪嶺,2026-05-01,24.280586,121.026642,1.0811069e-08
C2H9E0,國姓南港,2026-05-01,23.911108,120.846556,1.0428299e-09
C0AC80,文山,2026-05-01,25.00235,121.575728,4.376298e-09
C0F9R0,龍井,2026-05-01,24.184536,120.528972,7.7908226e-07
C0M760,民雄,2026-05-01,23.551754,120.428457,2.1853197e-07
C0UA40,西德山,2026-05-01,24.560647,121.752608,3.78711e-09
C2TA70,赤科坪,2026-05-01,23.39885,121.39168,1.1494985e-08
C1T920,中興,2026-05-01,23.769503,121.498653,1.8714267e-08
C0D550,雪霸,2026-05-01,24.526972,121.11605,3.3603171e-09
C2F860,梨山,2026-05-01,24.247522,121.243669,7.562488e-09
C0R320,車城,2026-05-01,22.0744,120.716247,0.0428588
C1S870,南美山,2026-05-01,23.15025,121.382333,7.0090573e-07
C0B020,基隆嶼,2026-05-01,25.19141,121.78391,1.4822851e-08
C1U501,牛鬥,2026-05-01,24.637836,121.573656,1.2615192e-08
C0M730,嘉義市東區,2026-05-01,23.457673,120.460531,1.029318e-07
C2R990,泰武,2026-05-01,22.60686,120.69765,5.5452376e-09
C0S700,知本,2026-05-01,22.684866,121.005642,1.212895e-08
C1N001,沙崙,2026-05-01,22.935472,120.309406,0.9993787
C0V760,橋頭,2026-05-01,22.757806,120.30575,0.99971116
C2V570,吉東,2026-05-01,22.85418,120.54539,0.9996934
C0G960,福寶,2026-05-01,24.0443,120.3814,4.3259565e-06
C0X210,白河,2026-05-01,23.347466,120.414427,7.061287e-05
C0S810,東河,2026-05-01,22.972672,121.303986,0.0001914085
C2R170,屏東,2026-05-01,22.66027,120.49403,0.9997397
C0R670,楓港,2026-05-01,22.190131,120.692156,0.65450704
C0FA50,霧峰,2026-05-01,24.0419,120.6995,4.6448836e-08
C0UB10,蘇澳,2026-05-01,24.5969,121.8571,4.757352e-07
C0G950,防潮門,2026-05-01,24.1835,120.4871,5.9917465e-06
C0M740,六腳,2026-05-01,23.492871,120.290625,0.00028589848
C1R250,力里,2026-05-01,22.428117,120.629228,0.9981308
C0K330,虎尾,2026-05-01,23.719183,120.442036,6.7473945e-07
C2FA00,烏石坑,2026-05-01,24.273503,120.947617,1.4124215e-09
C0V620,永安,2026-05-01,22.82315,120.236856,0.99969304
C1I330,楓樹林,2026-05-01,23.986803,121.076117,1.4451194e-09
C0W200,湖西,2026-05-01,23.596314,119.67275,0.9944783
72Q010,高雄農改場,2026-05-01,22.709333,120.525889,0.999655
C0C680,龜山,2026-05-01,25.02846,121.38656,2.1908666e-09
C2V260,月眉,2026-05-01,22.971003,120.539853,0.0056934953
C0V450,鳳森,2026-05-01,22.545064,120.392592,0.99721193
C0FA90,小雪山林道,2026-05-01,24.29515,121.03651,1.5394466e-08
C0U720,南山,2026-05-01,24.43742,121.38167,4.2688835e-09
A2N290,臺南蘭花園區,2026-05-01,23.340258,120.379661,0.00010810604
C0R560,新園,2026-05-01,22.5434,120.461558,0.998345
C0U890,三星,2026-05-01,24.66812,121.65302,2.4786597e-09
C1V300,御油山,2026-05-01,23.001983,120.715364,1.4119313e-09
C0U600,礁溪,2026-05-01,24.817539,121.765608,2.427586e-09
C1T980,龍澗,2026-05-01,24.023289,121.411328,6.629733e-09
C0D670,海天一線,2026-05-01,24.831986,120.914438,3.970181e-06
C0SA00,歷坵,2026-05-01,22.520969,120.89185,2.122428e-05
C0M710,東石,2026-05-01,23.458927,120.15385,0.00038141353
C0M780,鹿草,2026-05-01,23.41134,120.30835,0.00010379055
C0U520,雙連埤,2026-05-01,24.753033,121.641303,4.411497e-09
C0B010,七堵,2026-05-01,25.094819,121.71713,1.3680008e-08
C0R480,長治,2026-05-01,22.693128,120.542622,0.9997872
C1V830,國三S383K,2026-05-01,22.781967,120.426475,0.9946778
12Q980,恆春工作站,2026-05-01,22.079678,120.714425,0.0428588
C1O940,東山服務區,2026-05-01,23.286016,120.398472,9.43904e-05
C1U840,東澳嶺,2026-05-01,24.5378,121.8485,4.9643236e-09
C1D630,飛鳳山,2026-05-01,24.766464,121.119178,1.6239518e-09
C0S940,石寧山,2026-05-01,23.223772,121.406639,4.624618e-07
C0K410,北港,2026-05-01,23.573957,120.292802,2.3327175e-06
C2M620,瑞里,2026-05-01,23.545133,120.675197,8.7030544e-10
C0SB70,小港漁港,2026-05-01,23.158558,121.400431,0.008121041
C2O950,安南,2026-05-01,23.076694,120.144861,0.99911803
C0F0E0,南湖圈谷,2026-05-01,24.363714,121.444667,2.1109392e-08
467610,成功,2026-05-01,23.097486,121.373428,0.0067741713
C0G890,伸港,2026-05-01,24.148933,120.484403,5.8894047e-06
C2E540,龍溪,2026-05-01,24.606489,120.783933,1.6945739e-08
C1V200,梅山,2026-05-01,23.268447,120.823556,7.0447226e-10
C0T9H0,加路蘭山,2026-05-01,23.682947,121.5274,4.6989976e-09
C2O930,玉井,2026-05-01,23.126042,120.46055,2.8726532e-05
C1F911,新伯公,2026-05-01,24.221361,120.841069,2.493026e-09
C0X200,左鎮,2026-05-01,23.056758,120.408522,0.5069679
C2TB50,麻汝,2026-05-01,23.42554,121.39358,2.4193222e-08
C0FA60,鞍馬山工作站,2026-05-01,24.267064,121.000793,6.6784565e-09
C0SB50,叭嗡嗡,2026-05-01,23.047062,121.343223,0.014128337
C2R550,新埤,2026-05-01,22.467947,120.582894,0.9989156
C1F891,稍來,2026-05-01,24.265689,121.001142,6.3899352e-09
C2M9C0,紫雲,2026-05-01,23.494914,120.540253,6.081061e-08
72N240,七股研究中心,2026-05-01,23.081672,120.062894,0.9991646
C0C700,中壢,2026-05-01,24.977661,121.256375,1.4941423e-07
C0M690,水上,2026-05-01,23.419734,120.388909,2.1961293e-07
C0V690,鼓山,2026-05-01,22.623325,120.275575,0.9994855
C0O860,大內,2026-05-01,23.11885,120.36083,0.9987781
C0Z200,萬榮,2026-05-01,23.709219,121.420106,1.1587485e-08
C0T9D0,和中,2026-05-01,24.26676,121.74103,5.007821e-07
C2S9A0,北份子寮,2026-05-01,22.78561,121.07813,7.8677615e-05
C1O921,楠西,2026-05-01,23.183511,120.484083,1.2897455e-05
C0AJ30,淡水觀海,2026-05-01,25.184591,121.408616,2.2131817e-06
C0V810,左營,2026-05-01,22.67491,120.28491,0.9993606
C0UA70,桃源谷,2026-05-01,24.962606,121.888875,5.5445395e-09
C0X130,官田,2026-05-01,23.193217,120.315422,0.121096954
C1H000,翠峰,2026-05-01,24.109397,121.205211,5.6845617e-09
C0UA90,石城,2026-05-01,24.980444,121.951214,4.0469726e-07
C1E681,南勢山,2026-05-01,24.421669,120.923831,1.0812797e-09
C0A9F0,內湖,2026-05-01,25.079422,121.57545,3.8978283e-09
C0K291,宜梧,2026-05-01,23.536281,120.169329,0.03756064
C1K540,口湖,2026-05-01,23.585344,120.180517,0.024685295
C0R780,滿州,2026-05-01,22.024403,120.839892,0.04136434
C0V870,文安,2026-05-01,22.8025,120.2164,0.99969375
C0U650,玉蘭,2026-05-01,24.675286,121.587061,9.542647e-09
C0R640,東港,2026-05-01,22.46247,120.44074,0.998282
C0AJ80,板橋,2026-05-01,25.0107,121.4489,3.2380885e-09
C0S660,下馬,2026-05-01,23.150427,121.070312,2.9605259e-08
C2N190,烏樹,2026-05-01,23.32393,120.36989,0.027328694
C1H9B1,阿眉,2026-05-01,24.1263,120.994672,3.19365e-09
C0UA20,多加屯,2026-05-01,24.368614,121.373189,6.8382526e-09
C0E730,頭份,2026-05-01,24.688247,120.912206,5.219884e-07
72V140,高改旗南分場,2026-05-01,22.857861,120.516667,0.92284644
C2R490,九如,2026-05-01,22.74049,120.490555,0.999655
C0K480,莿桐,2026-05-01,23.761192,120.502372,3.8267035e-06
C0U980,坪林石牌,2026-05-01,24.86478,121.77396,4.073444e-09
C0T900,西林,2026-05-01,23.8119,121.441458,8.553859e-09
C1I150,青雲,2026-05-01,23.793361,120.949378,1.2644382e-09
C2E980,和興,2026-05-01,24.505319,120.923016,1.0859321e-09
467350,澎湖,2026-05-01,23.565503,119.563094,0.9952789
C0G800,埔鹽,2026-05-01,24.000394,120.431683,3.120435e-06
C0H960,草屯,2026-05-01,23.973672,120.68085,1.150918e-08
C1V780,多納林道,2026-05-01,22.888028,120.737917,7.787853e-10
C0E920,通霄漁港,2026-05-01,24.498589,120.673876,2.3631532e-07
C0Z330,安通山,2026-05-01,23.290728,121.348528,2.2227812e-08
C0AH10,永和,2026-05-01,25.01125,121.508111,3.2967686e-09
C0AK10,太平里,2026-05-01,25.134937,121.364899,5.144044e-09
C2G640,鹿港,2026-05-01,24.0753,120.430481,2.9263836e-05
C1E890,國三N149K,2026-05-01,24.463414,120.680019,1.8133912e-07
C1R110,口社,2026-05-01,22.770111,120.645222,0.99966437
C1M870,國三N285K,2026-05-01,23.550319,120.505833,4.7115282e-08
C1E480,鳳美,2026-05-01,24.554803,121.034747,9.575735e-10
C0T9M0,靜浦,2026-05-01,23.455167,121.495028,1.4295519e-07
C2H9M0,發祥,2026-05-01,24.154094,121.164517,1.6935842e-09
C2G9C0,埔南,2026-05-01,23.99124,120.46969,3.120435e-06
C0AI40,石牌,2026-05-01,25.115597,121.513139,3.8978283e-09
C1F871,上谷關,2026-05-01,24.203483,121.018644,1.4115893e-09
C2H9G0,百勝,2026-05-01,24.051142,120.909361,8.392137e-10
C0G880,二水,2026-05-01,23.810742,120.6173,3.9939275e-07
C0R940,加祿堂,2026-05-01,22.3363,120.6217,0.96961945
C0W220,北竿,2026-05-01,26.220358,119.974881,7.356422e-07
C0O960,崎頂,2026-05-01,22.959547,120.369317,0.99824387
C0TA40,秀林,2026-05-01,24.302864,121.731144,8.440814e-09
C0S750,向陽,2026-05-01,23.248397,120.986133,3.8733416e-09
C0T9F0,水璉,2026-05-01,23.797131,121.542514,5.6814615e-09
C1M600,頭凍,2026-05-01,23.406364,120.603339,5.841116e-10
467660,臺東,2026-05-01,22.752211,121.154586,0.90132296
C1D380,新埔,2026-05-01,24.84745,121.03834,3.296783e-08
C2G980,田頭村,2026-05-01,23.8263,120.444175,1.3570217e-07
C0V750,路竹,2026-05-01,22.854997,120.259439,0.99967915
C0N050,蚵寮,2026-05-01,23.301,120.1104,0.46019244
C2X060,下營,2026-05-01,23.226806,120.256291,0.0135179935
72M700,南改鹿草分場,2026-05-01,23.416869,120.283061,0.00015336601
C1SA50,利嘉林道,2026-05-01,22.82325,121.009389,3.3033336e-09
C0UB70,太平山中間站,2026-05-01,24.542003,121.513453,3.78454e-09
C0A940,金山,2026-05-01,25.223628,121.643967,1.6628464e-07
C1V340,大津,2026-05-01,22.888322,120.645986,0.6011475
C0W180,七美,2026-05-01,23.219333,119.444892,0.94486386
C1F9C1,白冷,2026-05-01,24.182844,120.929889,7.9503665e-10
K2E710,苗改生物防治研究中心,2026-05-01,24.422861,120.871833,3.760464e-09
C0N040,蘆竹溝,2026-05-01,23.2344,120.0961,0.46828848
C0TB40,崇德,2026-05-01,24.166144,121.657414,8.439906e-07
C0D760,大坪苗圃,2026-05-01,24.5362,121.1108,1.9227793e-09
C2D430,峨眉,2026-05-01,24.6905,121.017189,2.1430083e-08
C2W230,畜試所澎湖,2026-05-01,23.628342,119.513206,0.995295
C0R880,後壁湖,2026-05-01,21.9457,120.7457,0.09399753
C1I280,埔中,2026-05-01,23.820778,120.642594,9.279509e-10
467790,墾丁雷達站,2026-05-01,21.948235,120.808028,0.03156763
C0W190,望安,2026-05-01,23.380564,119.494075,0.9868794
C0Z170,卓溪,2026-05-01,23.3443,121.3029,2.4516237e-07
C0F850,東勢,2026-05-01,24.246428,120.833047,3.0318703e-09
466900,淡水,2026-05-01,25.164889,121.448906,1.4782825e-06
C0I370,魚池,2026-05-01,23.895703,120.94135,7.9504425e-10
C0C630,大溪,2026-05-01,24.882853,121.265547,4.5118615e-08
C0A520,山佳,2026-05-01,24.974944,121.402008,3.669893e-09
C0I110,竹山,2026-05-01,23.761225,120.688156,8.94241e-08
82H840,茶改南部分場,2026-05-01,23.762528,120.7405,1.188172e-09
C2SD80,再來山,2026-05-01,23.34371,121.44122,2.8776121e-08
C0G660,溪湖,2026-05-01,23.94835,120.479122,6.398896e-07
C1T800,洛韶,2026-05-01,24.204558,121.453956,1.26092985e-08
C1T810,慈恩,2026-05-01,24.192044,121.388386,5.740325e-09
C1E451,象鼻,2026-05-01,24.368617,120.940228,1.0812797e-09
C0AC60,三峽,2026-05-01,24.939025,121.369728,1.5381353e-06
C0I490,萬大林道,2026-05-01,23.928228,121.091411,2.3997155e-09
C1I290,豐丘,2026-05-01,23.668178,120.887417,1.09212e-09
C1I320,奧萬大,2026-05-01,23.952956,121.178556,1.3702459e-09
C2M910,嘉義大學,2026-05-01,23.471325,120.485903,6.075079e-08
C0U770,南澳,2026-05-01,24.44935,121.81022,2.772461e-06
C2TB30,吉安,2026-05-01,23.94538,121.54803,2.04538e-08
C0A980,社子,2026-05-01,25.109508,121.469681,5.04301e-09
C0V800,六龜,2026-05-01,22.997889,120.633583,0.00014182457
C1G9D0,國一S218K,2026-05-01,23.890641,120.493253,2.4875303e-06
C0E570,白沙屯,2026-05-01,24.549447,120.696803,5.3873674e-07
C2F9A0,中竹林,2026-05-01,24.103556,120.751061,1.3765826e-09
C0FA40,臺中電廠,2026-05-01,24.2146,120.4907,1.8234474e-06
C2G9A0,畜試所彰化,2026-05-01,23.86045,120.557964,6.284239e-08
C0H9C0,合歡山,2026-05-01,24.143442,121.272547,1.5689503e-08
G2M350,農試溪口農場,2026-05-01,23.58565,120.408111,3.0506814e-07
C0U860,頭城,2026-05-01,24.85323,121.8308,4.6465916e-09
C0R580,南州,2026-05-01,22.48591,120.50274,0.9973957
C0G780,秀水,2026-05-01,24.03405,120.503869,3.4342322e-06
72N100,臺南農改場,2026-05-01,23.0605,120.342194,0.99881995
C0S900,蘭嶼高中,2026-05-01,22.04909,121.51214,0.022886189
C2TA60,六十石,2026-05-01,23.22477,121.31861,2.790615e-08
C1F9W0,德基,2026-05-01,24.254783,121.190261,6.1717107e-09
C2M980,安和,2026-05-01,23.51377,120.31593,0.00028589848
C1Z120,壽豐,2026-05-01,23.870853,121.508081,2.3338174e-08
C0W160,烏坵,2026-05-01,24.9944,119.44956,0.9891033
C1I550,國六W023K,2026-05-01,23.979067,120.867742,1.1801652e-09
C0R870,興海,2026-05-01,21.9752,120.8439,0.03605303
C0R140,瑪家,2026-05-01,22.682903,120.686639,0.0029718291
C0A530,坪林,2026-05-01,24.938183,121.70975,4.5617448e-09
C0X260,後壁,2026-05-01,23.366358,120.362326,0.00047512504
C0Z230,和平,2026-05-01,24.30717,121.77007,1.1236814e-06
C0G770,福興,2026-05-01,24.041289,120.437669,3.120435e-06
C0H9A0,神木村,2026-05-01,23.532742,120.843667,1.0569735e-09
C0I460,南投,2026-05-01,23.911469,120.687331,1.2447524e-08
C0I480,梅峰,2026-05-01,24.085272,121.173572,4.092539e-09
C2D770,巨埔,2026-05-01,24.84435,121.11442,1.558021e-08
C2A560,福山,2026-05-01,24.776203,121.502811,1.0255844e-08
C0AH30,五分山,2026-05-01,25.07125,121.780794,3.447013e-09
C0FA10,松柏,2026-05-01,24.429115,120.617482,9.091084e-08
72S200,東改班鳩分場,2026-05-01,22.829528,121.077694,7.381715e-08
72HA00,中改埔里分場,2026-05-01,23.903208,120.963364,7.97018e-10
C2H9W0,大坪頂農水,2026-05-01,24.043122,120.932781,7.693379e-10
C0C650,平鎮,2026-05-01,24.897503,121.214636,3.147565e-08
C0S930,延平,2026-05-01,22.902581,121.084058,1.3132613e-07
C0UA60,樟樹山,2026-05-01,24.41393,121.78325,8.278359e-09
C2UC10,出水溪,2026-05-01,24.615822,121.652253,3.2429714e-09
C1S670,摩天,2026-05-01,23.199503,121.027,5.060402e-09
C2C590,觀音,2026-05-01,25.027072,121.153317,1.2140601e-06
C0V630,茄萣,2026-05-01,22.906642,120.182608,0.99947023
466940,基隆,2026-05-01,25.133314,121.740475,1.7082847e-08
C0X050,東河,2026-05-01,23.296598,120.385608,0.00010810604
C0R770,保力,2026-05-01,22.071122,120.764111,0.0545965
G2L020,農試嘉義分所,2026-05-01,23.485028,120.473806,5.9371924e-08
C0X240,關子嶺,2026-05-01,23.331169,120.508025,3.0832064e-09
C0I380,集集,2026-05-01,23.828206,120.801467,4.8690754e-09
466990,花蓮,2026-05-01,23.975128,121.613275,2.155022e-06
C1V220,小關山,2026-05-01,23.154217,120.813603,2.1796462e-09
C1F9G1,慶福山,2026-05-01,24.180853,120.848378,9.84246e-10
C0FB20,雪山橋,2026-05-01,24.23192,120.9786,5.4294533e-09
C0Z250,瑞穗林道,2026-05-01,23.49284,121.30688,4.0714262e-08
C0D590,新豐,2026-05-01,24.87068,120.97721,1.3916597e-06
C2N200,口宵里,2026-05-01,23.15987,120.45988,3.9627476e-08
C0A870,五指山,2026-05-01,25.132153,121.608692,4.0189208e-09
C0UA50,西帽山,2026-05-01,24.555361,121.802628,4.947177e-09
C2R980,竹田國中,2026-05-01,22.61532,120.52412,0.99981934
C0X160,仁德,2026-05-01,22.968258,120.257689,0.99939895
C1H971,六分寮,2026-05-01,23.92507,120.6378,9.311671e-10
C2D790,石鹿,2026-05-01,24.56551,121.15841,2.9354579e-09
C0W120,西嶼,2026-05-01,23.5626,119.468436,0.9943075
C0G650,員林,2026-05-01,23.946503,120.585597,3.6092004e-07
C0AD50,鶯歌,2026-05-01,24.951533,121.346294,9.2867646e-07
C2H9Q0,北東眼山,2026-05-01,24.120939,121.189303,4.9786513e-09
C2H9T0,名間竹圍,2026-05-01,23.859914,120.637572,3.0824596e-09
C0S990,山豬窟,2026-05-01,22.318619,120.857372,0.60859835
C0X190,安平,2026-05-01,22.993161,120.152181,0.99952555
C0K400,斗六,2026-05-01,23.720583,120.541127,3.4077927e-06
12J990,口湖工作站,2026-05-01,23.589978,120.180394,0.024685295
C0O830,北寮,2026-05-01,23.079561,120.495008,0.00040643188
C1D410,白蘭,2026-05-01,24.579364,121.079947,1.6565815e-09
C0S970,加津林,2026-05-01,22.416211,120.926942,2.5417079e-05
C0D700,關西,2026-05-01,24.7977,121.1732,5.9534733e-09
C0U750,龜山島,2026-05-01,24.841667,121.953133,5.434768e-09
C0R810,內獅,2026-05-01,22.305064,120.642986,0.8110882
C2EA10,拉庫斯,2026-05-01,24.53637,121.02137,1.4384451e-09
C1M390,龍美,2026-05-01,23.406728,120.654417,8.0324003e-10
C2K290,崙內,2026-05-01,23.69525,120.35601,0.00058856054
C2FB60,頭櫃山,2026-05-01,24.129842,120.858925,1.5405913e-09
C1H840,國三N238K,2026-05-01,23.841008,120.707711,5.05073e-09
CAQ030,崎峰國小,2026-05-01,22.42565,120.49521,0.9973957
C2E520,大湖,2026-05-01,24.414939,120.870872,3.4825665e-09
467530,阿里山,2026-05-01,23.508208,120.813242,4.6760644e-09
C1E691,南湖,2026-05-01,24.40135,120.837533,1.6776313e-09
C0FA30,梧棲,2026-05-01,24.256003,120.523381,7.7908226e-07
C1V231,高中,2026-05-01,23.134911,120.716711,7.2688866e-10
C0AK30,硬漢嶺,2026-05-01,25.136097,121.426372,5.8201666e-09
C0F9V0,新社,2026-05-01,24.200172,120.815806,1.5964862e-09
C0H890,埔里,2026-05-01,23.972169,120.952425,8.848795e-10
C0R690,墾丁,2026-05-01,21.966756,120.810269,0.0071023544
C0SD20,富山,2026-05-01,22.822383,121.190825,0.0024065594
C0F0D0,審馬陣,2026-05-01,24.381675,121.4203,1.0354198e-08
C2W030,金門農試所,2026-05-01,24.448431,118.451786,0.22547092
C0R820,白鷺,2026-05-01,22.454275,120.666219,0.00015145064
C0FB00,大雪山,2026-05-01,24.254668,121.007374,6.761073e-09
C2O880,南化,2026-05-01,23.17332,120.59413,2.6125702e-08
C1V190,南天池,2026-05-01,23.27403,120.91176,4.629518e-09
C0E940,雪見,2026-05-01,24.42595,121.01347,4.0658987e-09
K2E360,苗栗農改場,2026-05-01,24.495722,120.829111,6.6003225e-09
CAJ050,海口故事園區,2026-05-01,23.57543,120.14121,0.024685295
C2K280,四湖,2026-05-01,23.6304,120.22717,0.0003484815
C2H9D0,三隻寮,2026-05-01,24.093078,120.861578,6.164202e-10
C0O990,媽廟,2026-05-01,22.99175,120.293525,0.99893516
C0Z220,和平林道,2026-05-01,24.343922,121.656317,6.176527e-09
C0TA10,花蓮漁港,2026-05-01,23.995322,121.638331,0.01606182
72C440,桃園農改場,2026-05-01,24.950944,121.030583,2.7481734e-08
C1E711,馬拉邦山,2026-05-01,24.367306,120.901656,1.20352e-09
C0SB20,富岡,2026-05-01,22.792467,121.192669,0.0012208329
C0D560,竹東,2026-05-01,24.767147,121.057881,1.3874594e-08
C0F9U0,南屯,2026-05-01,24.137006,120.637969,3.672745e-08
C2SD60,明峰,2026-05-01,22.8671,121.11825,4.171055e-08
C0M720,番路,2026-05-01,23.464657,120.554156,2.8107257e-09
C0F0A0,雪山圈谷,2026-05-01,24.388594,121.236339,1.8349011e-08
C1A9N0,四十份,2026-05-01,24.934158,121.593283,2.933001e-09
C0U760,東澳,2026-05-01,24.52196,121.83318,1.257001e-06
C0X230,鹽水,2026-05-01,23.272621,120.247641,0.034055244
C2H9H0,苗改南投蜂場,2026-05-01,23.852589,120.693481,6.736991e-08
C2TB70,達谷寮,2026-05-01,23.38,121.35968,5.4252947e-08
C0R950,萬隆國小,2026-05-01,22.507667,120.587817,0.99865687
467540,大武,2026-05-01,22.35572,120.90374,0.15738633
C0V370,古亭坑,2026-05-01,22.893178,120.401947,0.08489095
C1I340,新興橋,2026-05-01,23.563333,120.868728,9.2215136e-10
C2C480,桃園,2026-05-01,24.992425,121.323172,2.1984889e-07
C0SA80,土坂,2026-05-01,22.453108,120.887572,0.07232141
C0R160,鹽埔,2026-05-01,22.739558,120.530778,0.999655
C0AC40,大屯山,2026-05-01,25.175675,121.522408,5.6489804e-09
466850,五分山雷達站,2026-05-01,25.071182,121.781205,3.4618375e-09
C2H9L0,馬烈霸,2026-05-01,24.1512,121.201772,5.598673e-09
C1AI50,國三N016K,2026-05-01,25.034164,121.619664,4.368059e-09
C2V920,匏子寮,2026-05-01,23.04905,120.55319,2.7227989e-06
C1V600,藤枝,2026-05-01,23.071961,120.757042,1.2057739e-09
C1E601,南勢,2026-05-01,24.572486,120.734842,3.0798876e-07
C0O980,新市,2026-05-01,23.061614,120.298197,0.99902713
C0K420,西螺,2026-05-01,23.800407,120.467394,1.15957576e-07
C0Z050,佳心,2026-05-01,23.34567,121.21316,2.9783044e-08
C0AD30,蘆洲,2026-05-01,25.086594,121.472331,3.787912e-09
C0V610,梓官,2026-05-01,22.760558,120.267211,0.999693
K2F750,種苗改良場,2026-05-01,24.225972,120.800917,1.8247126e-09
C0UA80,大溪漁港,2026-05-01,24.941801,121.902955,9.591642e-09
C1AI60,國一39K邊坡,2026-05-01,25.064361,121.383836,2.4932827e-09
C0W150,金寧,2026-05-01,24.457703,118.328989,0.0005160354
C0R960,內埔,2026-05-01,22.608483,120.570714,0.9998163
C2H9S0,龍南,2026-05-01,23.953536,120.833183,7.5895634e-10
C0AH40,平等,2026-05-01,25.129142,121.577086,7.003796e-09
C0R540,佳冬,2026-05-01,22.419456,120.552375,0.99674696
466950,彭佳嶼,2026-05-01,25.627975,122.079744,0.9994574
C0A890,雙溪,2026-05-01,25.036003,121.864242,9.507006e-08
C0AH50,林口,2026-05-01,25.072181,121.38084,2.3048894e-09
A2K360,水試臺西試驗場,2026-05-01,23.717231,120.190522,0.0013494766
C2M960,外寮,2026-05-01,23.562643,120.665688,8.205774e-10
C0F9S0,烏日,2026-05-01,24.107058,120.624103,8.81112e-06
C2N180,鹿陶洋,2026-05-01,23.14325,120.48352,1.2897455e-05
C0C490,八德,2026-05-01,24.928708,121.283289,6.84003e-08
C0R190,赤山,2026-05-01,22.592333,120.614306,0.99981666
C0T820,天祥,2026-05-01,24.179597,121.495639,3.3679676e-08
C1F9E1,龍安,2026-05-01,24.1605,120.831961,1.4935255e-09
C2SD50,順那,2026-05-01,23.04166,121.29332,7.744416e-06
C0V820,小林,2026-05-01,23.148408,120.63325,1.4703229e-09
C2G870,芳苑,2026-05-01,23.922303,120.320025,2.8361857e-05
C0E850,大河,2026-05-01,24.618069,120.948578,8.007302e-09
C1U670,寒溪,2026-05-01,24.634,121.71691,2.5004454e-09
C0N020,城西,2026-05-01,23.0568,120.0956,0.99913645
C1Z110,三棧,2026-05-01,24.11557,121.60501,1.9738703e-08
C0R280,檳榔,2026-05-01,22.076078,120.836777,0.011593487
C2H9J0,中台,2026-05-01,23.9996,120.938739,8.2295354e-10
C0F9L0,后里,2026-05-01,24.310436,120.729725,5.8767555e-09
467441,高雄,2026-05-01,22.730432,120.312516,0.9996945
C2N210,岩坑,2026-05-01,23.24614,120.47458,1.8310891e-07
C0Z180,新城,2026-05-01,24.040486,121.604878,1.935755e-06
C0D540,橫山,2026-05-01,24.71116,121.11693,5.1230904e-09
C1D420,太閣南,2026-05-01,24.632808,121.160575,2.4181679e-09
C1E770,公館,2026-05-01,24.526914,120.830806,1.6489913e-08
CAN130,水試所海水繁養殖中心,2026-05-01,23.120802,120.07968,0.9991646
C1I430,翠華,2026-05-01,24.191961,121.224339,9.264976e-09
C1M400,菜瓜坪,2026-05-01,23.251928,120.576103,1.5703745e-09
C0G730,二林,2026-05-01,23.903325,120.376081,1.1430105e-06
72M360,南改義竹分場,2026-05-01,23.360694,120.279361,0.0008525029
V2K620,麥寮合作社,2026-05-01,23.753836,120.294783,2.7213006e-05
C0Z070,舞鶴,2026-05-01,23.46811,121.37407,2.1114305e-08
C0B040,大武崙,2026-05-01,25.166676,121.706993,6.400245e-07
C1Z030,紅葉,2026-05-01,23.493119,121.338806,3.0005932e-08
C1I050,丹大,2026-05-01,23.753747,121.141147,5.320215e-09
467290,古坑,2026-05-01,23.380729,120.336861,0.00067217124
C0I080,信義,2026-05-01,23.689694,120.851036,1.1823574e-09
C2TB80,庄子底,2026-05-01,23.71794,121.49438,2.0288512e-08
C0D750,樂山林道6k,2026-05-01,24.49999,121.08773,6.019103e-09
C2M920,朴子農改,2026-05-01,23.469889,120.259383,0.00017423638
C2A880,福隆,2026-05-01,25.017842,121.942083,4.895768e-07
C0Z160,鳳林,2026-05-01,23.746114,121.453411,1.7999017e-08
C0UB80,翠峰林道6K,2026-05-01,24.49773,121.568625,8.066611e-09
C0V210,復興,2026-05-01,23.222403,120.806089,6.161651e-10
C0H990,昆陽,2026-05-01,24.121322,121.273642,1.1169302e-08
C0R741,獅子,2026-05-01,22.202308,120.705236,0.83887726
C0S710,鹿野,2026-05-01,22.917711,121.122994,2.8455194e-08
C0I530,小奇萊,2026-05-01,24.131764,121.295717,1.2854512e-08
C0FA70,大雪山埡口,2026-05-01,24.26867,121.03062,1.1351188e-08
C2K630,荷苞,2026-05-01,23.657717,120.595144,2.5798275e-07
C0Z080,富源,2026-05-01,23.587642,121.378225,4.2654428e-08
C2M9E0,旺來山,2026-05-01,23.555153,120.486463,3.7739238e-08
C0SB10,美和,2026-05-01,22.682078,121.060236,0.027031718
C2K620,馬光農場,2026-05-01,23.721453,120.378864,8.703002e-07
C1I140,卡奈托灣,2026-05-01,23.754364,121.087872,2.0694655e-09
C0I520,玉山風口,2026-05-01,23.470489,120.955994,1.6749464e-08
C1G691,下水埔,2026-05-01,23.816114,120.5676,8.057601e-07
C0X110,臺南市南區,2026-05-01,22.961189,120.188378,0.9994371
C0V680,仁武,2026-05-01,22.701083,120.347722,0.9996945
C2G840,北斗,2026-05-01,23.877586,120.514222,1.8822376e-06
C2TB90,長橋,2026-05-01,23.6874,121.46186,1.709745e-08
C0R900,竹坑,2026-05-01,22.1385,120.7022,0.65450704
C0G860,社頭,2026-05-01,23.897647,120.5862,1.4355278e-06
C0X150,安定,2026-05-01,23.102614,120.227839,0.99899787
C0R590,里港,2026-05-01,22.77919,120.49459,0.9866593
C0E610,馬都安,2026-05-01,24.451272,120.930192,9.909273e-10
C0E550,明德,2026-05-01,24.583486,120.885411,1.1685073e-08
C0R150,三地門,2026-05-01,22.709889,120.639944,0.9997873
C0G910,花壇,2026-05-01,24.032076,120.549461,3.3512383e-06
C1D400,鳥嘴山,2026-05-01,24.71909,121.28387,1.6431038e-09
C0K500,元長,2026-05-01,23.64981,120.315024,7.616412e-05
C0F0B0,石岡,2026-05-01,24.276061,120.777644,4.536141e-09
C2V250,甲仙,2026-05-01,23.080106,120.591758,2.496637e-07
C0SA20,金崙山,2026-05-01,22.567419,120.959667,6.3914833e-09
C0V350,溪埔,2026-05-01,22.738578,120.446797,0.99884945
C0M660,溪口,2026-05-01,23.604131,120.403569,3.0506814e-07
C1S880,壽卡,2026-05-01,22.238911,120.858903,0.02951249
72D680,桃改新埔分場,2026-05-01,24.834444,121.066111,3.773888e-08
