站號,站名,日期,lat,lon,BLBTSLS
C0R710,龍磐,2026-01-06,21.931672,120.838942,0.99540466
C1F9D1,白毛台,2026-01-06,24.158325,120.886933,1.3181045e-09
C0G940,竹塘,2026-01-06,23.848253,120.386764,9.791287e-10
467590,恆春,2026-01-06,22.003897,120.746339,0.9469023
C1O850,環湖,2026-01-06,23.148617,120.418633,3.0045819e-10
C0U710,太平山,2026-01-06,24.505486,121.525656,4.1449788e-08
C0E820,獅潭,2026-01-06,24.539133,120.920042,1.2098936e-08
C2SD70,二層坪,2026-01-06,22.94105,121.16838,7.191828e-09
C0V880,興達,2026-01-06,22.8778,120.2127,2.960461e-10
C0S890,關山,2026-01-06,23.0395,121.175017,1.0390853e-09
C0SB30,新蘭,2026-01-06,22.869214,121.223228,5.370969e-05
C2R970,屏科大,2026-01-06,22.648275,120.619247,5.4147553e-10
C1Z130,銅門,2026-01-06,23.965694,121.492842,4.9666626e-09
C0AD40,土城,2026-01-06,24.973208,121.445169,3.3873462e-08
CAN140,六官養殖協會,2026-01-06,23.22881,120.29962,5.4564325e-10
C0X180,山上,2026-01-06,23.0757,120.363253,3.4870049e-10
C0F9Z0,雪山東峰,2026-01-06,24.388792,121.268675,2.4338831e-08
C1M480,獨立山,2026-01-06,23.537022,120.607797,1.1387332e-09
C0X220,學甲,2026-01-06,23.230367,120.182187,5.137923e-10
467650,日月潭,2026-01-06,23.881325,120.90805,3.5349135e-09
A2K570,古坑(花卉中心),2026-01-06,23.633531,120.552392,4.4859594e-10
C0K600,箔子寮,2026-01-06,23.6197,120.14,9.199514e-06
C0G830,埤頭,2026-01-06,23.866003,120.452806,4.3523218e-10
C0S950,七塊厝,2026-01-06,22.954453,121.229922,5.1767906e-09
467110,金門,2026-01-06,24.407306,118.289281,0.8112431
C0AH80,深坑,2026-01-06,25.002703,121.628328,7.255942e-08
C0A970,三貂角,2026-01-06,25.007606,122.002058,3.339394e-08
C2D730,寶山農場,2026-01-06,24.732444,120.976153,4.1656328e-08
C0K430,褒忠,2026-01-06,23.690938,120.303634,6.7503747e-10
467480,嘉義,2026-01-06,23.495925,120.432906,5.311645e-10
C0V400,阿公店,2026-01-06,22.804194,120.355528,4.4097445e-10
C0E960,觀霧分站,2026-01-06,24.505781,121.113921,1.41199665e-08
467550,玉山,2026-01-06,23.48718,120.95943,2.5262322e-08
C0R440,大漢山,2026-01-06,22.405264,120.753181,1.2220186e-08
C0SD30,東清國小,2026-01-06,22.057128,121.564922,0.7368345
C1F9B1,桐林,2026-01-06,24.066172,120.735194,7.824555e-10
C2H9U0,鳳鵬,2026-01-06,23.763919,120.788061,5.9484423e-10
C0K390,土庫,2026-01-06,23.679029,120.395574,5.1720805e-10
C1I450,望鄉山,2026-01-06,23.594153,120.944286,1.115525e-08
C0E910,海埔,2026-01-06,24.648767,120.772435,8.282562e-07
B2E890,畜試北區分所,2026-01-06,24.527806,120.770972,8.663046e-09
C0R750,四林格山,2026-01-06,22.076989,120.802439,2.2106931e-08
C0F0C0,中坑,2026-01-06,24.248517,120.903319,2.5008937e-09
C1I121,大鞍,2026-01-06,23.678381,120.760017,4.660127e-09
C2G9E0,移民庄,2026-01-06,23.9784,120.40283,1.1393415e-09
72U480,花改蘭陽分場,2026-01-06,24.686306,121.716583,5.768973e-09
C0A770,科教館,2026-01-06,25.096356,121.516507,2.2849742e-08
C0AJ60,六塊厝,2026-01-06,25.24,121.4481,3.4290092e-06
C0R620,墾雷,2026-01-06,21.900836,120.855269,0.98929435
467420,永康,2026-01-06,23.038386,120.2367,4.4857712e-10
C2M530,奮起湖,2026-01-06,23.493903,120.699253,2.770133e-09
C0I410,名間,2026-01-06,23.837053,120.701447,6.166742e-10
A2C560,農工中心,2026-01-06,24.985917,121.239833,9.287978e-07
C0V740,旗山,2026-01-06,22.888614,120.483597,2.5512642e-10
C0Z061,玉里,2026-01-06,23.3215,121.339656,8.1664275e-10
C0S840,南田,2026-01-06,22.279725,120.889208,0.99954206
C1I470,杉林溪,2026-01-06,23.639517,120.786444,4.70062e-09
C1X040,東原,2026-01-06,23.291597,120.463822,4.530086e-10
C0R660,枋寮,2026-01-06,22.367722,120.590647,2.2655387e-10
C1R120,上德文,2026-01-06,22.763272,120.704442,7.455001e-10
C0K450,大埤,2026-01-06,23.646074,120.431537,5.050747e-10
C0UA00,土場,2026-01-06,24.576533,121.495333,6.799511e-08
467080,宜蘭,2026-01-06,24.763975,121.756528,4.5970934e-09
C0N030,四草,2026-01-06,23.0235,120.1116,1.1315364e-09
467410,臺南,2026-01-06,22.99328,120.20492,3.1368577e-10
C0V650,彌陀,2026-01-06,22.783806,120.246361,5.975256e-10
C0D660,新竹市東區,2026-01-06,24.798681,120.986942,9.023009e-07
82S580,茶改東部分場,2026-01-06,22.907694,121.130139,8.4803546e-08
C0SB40,興隆,2026-01-06,22.913661,121.257469,0.9958313
467050,新屋,2026-01-06,25.006725,121.047492,0.5126106
C0C710,大溪永福,2026-01-06,24.892936,121.324975,2.3982602e-07
C0FA20,溫寮,2026-01-06,24.372177,120.583125,3.673677e-08
C0V640,湖內,2026-01-06,22.887139,120.2445,2.960461e-10
C0R910,下寮,2026-01-06,22.3929,120.5548,3.659574e-10
C0Z020,明里,2026-01-06,23.208717,121.262342,1.0796023e-09
C0M770,嘉義梅山,2026-01-06,23.585398,120.555587,3.5156877e-10
C0C660,楊梅,2026-01-06,24.912375,121.143047,9.831546e-07
C0SD40,牛頭山,2026-01-06,22.676661,121.506944,0.98663604
C1E511,新開,2026-01-06,24.347703,120.827019,1.9775472e-09
G2F820,農試所(霧峰),2026-01-06,24.031261,120.688133,7.278765e-10
C2M990,大巃頂,2026-01-06,23.5547,120.61439,1.6512031e-09
C1I070,和社,2026-01-06,23.591131,120.888861,1.9395423e-09
C2E990,新坪頂,2026-01-06,24.30201,120.8574,1.2155648e-09
C0TA80,立霧山,2026-01-06,24.183258,121.641899,1.6177017e-08
C2F000,大肚,2026-01-06,24.15295,120.572117,6.2769145e-10
C1S850,豐南,2026-01-06,23.122139,121.262389,1.0092351e-09
C2M9B0,西興,2026-01-06,23.2428,120.57617,8.812784e-10
C2A920,富貴角,2026-01-06,25.263783,121.565258,5.2717955e-06
CAH030,茶改場竹圍站,2026-01-06,23.860083,120.637528,8.3415963e-10
C0T960,光復,2026-01-06,23.660694,121.424964,2.5875944e-09
C0F9M0,豐原,2026-01-06,24.254322,120.720692,1.400623e-09
C0R720,旭海,2026-01-06,22.205403,120.887614,0.93552506
C0V710,苓雅,2026-01-06,22.622742,120.330669,1.8687223e-09
C0C740,觀音工業區,2026-01-06,25.064764,121.114856,0.9317996
CAC040,拉拉山,2026-01-06,24.699317,121.427133,1.0728374e-07
C0V790,萬山,2026-01-06,22.905944,120.688056,6.241338e-10
U2HA30,臺大和社,2026-01-06,23.590856,120.888864,1.9395423e-09
C2H9K0,屯原,2026-01-06,24.067969,121.209389,7.216121e-09
C0AJ90,澳底,2026-01-06,25.0552,121.9253,3.880694e-08
C0Z100,東華,2026-01-06,23.89525,121.549833,2.720043e-09
C0G970,三豐,2026-01-06,23.882,120.2895,0.9648861
V2K610,大庄合作社,2026-01-06,23.8068,120.367939,7.226999e-10
C0V900,汕尾,2026-01-06,22.4782,120.4151,1.7889579e-10
C1R630,龍泉,2026-01-06,22.66701,120.59091,5.4147553e-10
C1AC50,關渡,2026-01-06,25.133486,121.469331,5.3693544e-08
C0C800,四稜,2026-01-06,24.64733,121.4293,9.6659335e-08
C0F9I0,神岡,2026-01-06,24.272481,120.658314,1.4398396e-09
C0K460,斗南,2026-01-06,23.678734,120.478359,5.050747e-10
C2O810,曾文,2026-01-06,23.219681,120.497328,4.360698e-10
467280,後龍,2026-01-06,24.648563,120.831834,5.0982896e-07
C1F9J1,清水林,2026-01-06,24.071242,120.820419,1.3981807e-09
C2A650,火燒寮,2026-01-06,25.002719,121.742892,2.1029567e-07
466930,竹子湖,2026-01-06,25.162078,121.544547,4.1116635e-08
C1I220,樟湖,2026-01-06,23.905333,120.846983,4.188313e-09
C0I390,仁愛,2026-01-06,24.022122,121.132206,2.7755964e-09
C0Z300,東里,2026-01-06,23.26853,121.30547,8.330657e-10
C1V590,新發,2026-01-06,23.057019,120.646064,9.345246e-10
C0K510,水林,2026-01-06,23.572924,120.24597,7.043379e-10
72S590,東改賓朗果園,2026-01-06,22.813889,121.071278,1.6281955e-08
82A750,茶改北部分場,2026-01-06,24.955778,121.631222,1.3880755e-07
C1A750,石碇服務區,2026-01-06,25.00872,121.646242,9.205004e-08
C0X300,鹿寮,2026-01-06,23.386047,120.477331,4.4874143e-10
G2AI50,關渡,2026-01-06,25.11575,121.492,2.585849e-08
C0K590,雲林東勢,2026-01-06,23.674192,120.255721,6.2478533e-10
C2K310,港尾布雞,2026-01-06,23.74834,120.38439,4.84083e-10
C0A570,桶後,2026-01-06,24.848222,121.597992,1.4427619e-07
C1S800,華源,2026-01-06,22.657883,121.02325,0.0047046132
C0G720,溪州,2026-01-06,23.851589,120.499093,4.3523218e-10
C1V160,達卡努瓦,2026-01-06,23.279811,120.705319,1.9827102e-09
C2M410,馬頭山,2026-01-06,23.324361,120.582017,3.4777922e-10
C0V850,蚵仔寮,2026-01-06,22.7256,120.2527,6.203881e-10
C0S740,池上,2026-01-06,23.119628,121.209469,8.934031e-10
C1V390,尖山,2026-01-06,22.813153,120.367789,4.4097445e-10
C0AH70,松山,2026-01-06,25.04871,121.55042,2.2849742e-08
C0N010,鯤鯓國小,2026-01-06,23.1879,120.0889,5.714585e-10
C0R550,新埤,2026-01-06,22.467947,120.582894,2.2630339e-10
C0SA60,知本（水試所）,2026-01-06,22.702394,121.082761,0.15748845
C0T9I0,豐濱,2026-01-06,23.583897,121.514806,1.3305472e-09
C0UB00,淡江大學蘭陽校園,2026-01-06,24.823239,121.730383,3.61087e-08
C0W240,九宮,2026-01-06,24.423753,118.240186,0.4850708
C0T9N0,富里,2026-01-06,23.171639,121.249378,1.0862926e-09
U2HA50,臺大竹山,2026-01-06,23.756972,120.681556,4.488099e-10
C0V840,鳳鼻頭,2026-01-06,22.5083,120.3591,1.7805564e-10
C0X140,西港,2026-01-06,23.125608,120.203108,4.2880177e-10
72D080,桃改五峰分場,2026-01-06,24.612194,121.157167,2.1441204e-08
C2H9P0,伊拿谷,2026-01-06,23.963211,121.088264,1.7032182e-09
C2K250,崙背,2026-01-06,23.75553,120.31893,6.7503747e-10
C2H9F0,柑林,2026-01-06,24.018658,120.847072,9.248728e-10
C0TA20,加灣,2026-01-06,24.082025,121.608944,2.9437969e-08
C0V530,阿蓮,2026-01-06,22.883208,120.327508,4.481538e-10
C0FB30,八仙山苗圃,2026-01-06,24.192719,121.001366,2.3657492e-09
C1O880,關山,2026-01-06,23.173397,120.594092,3.498937e-10
C0E791,卓蘭,2026-01-06,24.3126,120.8244,2.0802853e-09
C1I030,武界,2026-01-06,23.913225,121.052483,2.0240496e-09
C0R520,崁頂,2026-01-06,22.514781,120.506914,2.0895777e-10
C0R341,牡丹,2026-01-06,22.130036,120.792639,1.1765808e-06
C0R930,萬丹,2026-01-06,22.5885,120.4851,1.9971394e-10
C0S760,紅石,2026-01-06,23.069131,121.126219,1.0912272e-08
C2C410,中央大學,2026-01-06,24.967652,121.185165,9.287978e-07
C1M610,石磐龍,2026-01-06,23.496606,120.663506,2.0813133e-09
C0C790,東眼山,2026-01-06,24.8284,121.40888,2.3545215e-07
C0UA10,鴛鴦湖,2026-01-06,24.590269,121.412228,8.595388e-08
V2C260,八德蔬果,2026-01-06,24.978508,121.281819,1.7650606e-07
C0R800,丹路,2026-01-06,22.204481,120.750989,1.1947106e-05
C0G920,永靖,2026-01-06,23.924703,120.547533,4.0404238e-10
C2M950,太和,2026-01-06,23.538372,120.702961,2.7240667e-09
C1A630,下盆,2026-01-06,24.771003,121.538622,1.259708e-07
B2N890,畜產試驗所,2026-01-06,23.058972,120.336406,5.007123e-10
C0UA30,白嶺,2026-01-06,24.527819,121.519031,4.698507e-08
467571,新竹,2026-01-06,24.828575,121.01455,3.0900763e-05
C1V580,溪南(特生中心),2026-01-06,23.084972,120.788475,3.654247e-09
C1T970,大農,2026-01-06,23.615233,121.413331,2.7211224e-09
C0R650,竹田,2026-01-06,22.58486,120.54344,2.9726943e-10
C1H900,清流,2026-01-06,24.080775,120.962997,1.3925571e-09
C1C510,水尾,2026-01-06,24.940081,121.087161,0.0004913435
C2N170,茅港尾,2026-01-06,23.2061,120.2624,5.4564325e-10
C0F9X0,大雅(中科園區),2026-01-06,24.21528,120.62445,9.464554e-10
C0SB60,白守蓮,2026-01-06,23.126769,121.401914,4.9234927e-09
C0O970,虎頭埤,2026-01-06,23.021375,120.347878,4.0222928e-10
C0C730,中大臨海站,2026-01-06,24.966126,121.008581,0.08958215
C0X250,新營,2026-01-06,23.310689,120.316681,5.8047317e-10
C0V700,三民,2026-01-06,22.645017,120.311233,5.1407483e-09
C0U870,大礁溪,2026-01-06,24.791042,121.675047,3.0546957e-08
C0E870,高鐵苗栗,2026-01-06,24.60725,120.826094,5.0982896e-07
A2K570,古坑花卉中心,2026-01-06,23.63353,120.55239,4.236172e-09
C0TA30,鹽寮,2026-01-06,23.845606,121.592664,2.7993885e-09
C0M860,新美,2026-01-06,23.338017,120.683169,1.1787862e-09
C1E701,八卦,2026-01-06,24.491756,120.927619,1.2077977e-08
C2TA90,加納納,2026-01-06,23.466421,121.359867,8.941651e-10
C0I420,國姓,2026-01-06,24.037803,120.855072,9.474777e-10
C2D720,關西工作站,2026-01-06,24.757275,121.184792,2.3756692e-07
C0S960,香蘭,2026-01-06,22.587569,120.993375,1.7572607e-09
467620,蘭嶼,2026-01-06,22.0369,121.55843,0.9558025
C0R260,春日,2026-01-06,22.370361,120.628306,2.255639e-10
72G600,臺中農改場,2026-01-06,24.003028,120.534389,3.870629e-10
C0Z210,瑞穗,2026-01-06,23.5239,121.39021,1.841878e-09
C0M820,達邦,2026-01-06,23.453994,120.749517,1.6747347e-09
C0V860,南寮,2026-01-06,22.7616,120.2339,5.9891536e-10
C0G740,大城,2026-01-06,23.852487,120.320935,0.9648861
C0R920,塭仔,2026-01-06,22.4169,120.5197,3.659574e-10
C0R470,高樹,2026-01-06,22.826389,120.600806,2.4964936e-10
C0R680,佳樂水,2026-01-06,21.993578,120.861633,0.99540466
C1O870,大棟山,2026-01-06,23.31157,120.52226,3.1426801e-09
C0D360,梅花,2026-01-06,24.678347,121.208558,3.1754844e-08
C0Z190,富世,2026-01-06,24.14743,121.6297,9.016569e-08
C0AI10,屈尺,2026-01-06,24.92184,121.54475,3.21665e-08
B2U990,畜試東區分所,2026-01-06,24.669039,121.832561,9.112815e-09
C0SB80,長濱漁港,2026-01-06,23.313644,121.459994,6.6065414e-10
C0TA50,和仁,2026-01-06,24.241394,121.712472,9.1374036e-10
C0V910,大樹,2026-01-06,22.684645,120.432803,4.3682233e-10
C1R610,西大武山,2026-01-06,22.617719,120.7322,5.2782894e-09
C0G900,線西,2026-01-06,24.143358,120.443536,2.1423534e-09
C0M700,竹崎,2026-01-06,23.526178,120.555508,3.0568664e-10
C2E880,三義,2026-01-06,24.405478,120.749819,6.1530456e-09
C0C720,竹圍,2026-01-06,25.112692,121.239824,7.490335e-05
C0F9P0,清水,2026-01-06,24.312297,120.562242,7.930017e-09
C0Z150,吉安光華,2026-01-06,23.930925,121.595153,6.4830146e-09
C0FA80,小雪山天池,2026-01-06,24.28025,121.02627,2.3582805e-08
467300,東吉島,2026-01-06,23.25727,119.66762,0.9921028
C1D640,外坪(五指山),2026-01-06,24.644447,121.090961,1.9855458e-08
C2R9A0,高士國小,2026-01-06,22.12553,120.84653,1.1765808e-06
C0F9O0,潭子,2026-01-06,24.213106,120.703933,1.400623e-09
C2H9R0,卓社,2026-01-06,23.887894,121.000086,3.6688852e-09
72T250,花蓮農改場,2026-01-06,23.975222,121.563889,6.1584466e-09
C0E780,銅鑼,2026-01-06,24.489681,120.790853,8.663046e-09
C1T950,太安,2026-01-06,23.666719,121.370128,1.9804245e-08
C0E830,苑裡,2026-01-06,24.439714,120.653053,1.1427152e-06
467270,田中,2026-01-06,23.873803,120.581286,6.289726e-10
C0SA10,檳榔四格山,2026-01-06,22.810031,121.109308,9.8212185e-09
C1T830,布洛灣,2026-01-06,24.17184,121.57127,4.7671026e-08
C0F970,大坑,2026-01-06,24.173142,120.722289,1.2248251e-09
C1U920,思源,2026-01-06,24.393125,121.347214,3.3749124e-08
C2H9Y0,松茗,2026-01-06,23.8167,120.650765,6.7228006e-10
C0A931,三和,2026-01-06,25.233153,121.595236,3.0169403e-07
C0I010,廬山,2026-01-06,24.033311,121.181808,5.195694e-09
C2M940,日野賀,2026-01-06,23.434056,120.727169,2.5692113e-09
C0R860,鼻頭,2026-01-06,22.1043,120.8979,0.9999081
C0UB20,壯圍,2026-01-06,24.7359,121.8163,4.3834323e-09
C0R790,九棚,2026-01-06,22.14195,120.889281,0.060594812
C0W110,東莒,2026-01-06,25.9652,119.98069,0.022675592
C1U930,粉鳥林,2026-01-06,24.497088,121.842479,6.8466446e-09
C1I211,蘆竹湳,2026-01-06,23.934019,120.811994,1.6886974e-09
C0S830,長濱,2026-01-06,23.286817,121.411975,9.404845e-10
C1F9F1,伯公龍,2026-01-06,24.272392,120.849047,9.092098e-10
C0UB90,太平山莊,2026-01-06,24.494171,121.536209,4.1670155e-08
C0E810,西湖,2026-01-06,24.562947,120.7485,0.99223876
C1I440,新高口,2026-01-06,23.478744,120.878939,8.451092e-09
C0O840,王爺宮,2026-01-06,23.222064,120.40085,6.738103e-10
C0T9G0,鳳林山,2026-01-06,23.735269,121.420131,1.5159237e-08
C0X080,佳里,2026-01-06,23.173039,120.145086,5.436456e-10
C0FB70,大甲溪埔,2026-01-06,24.370625,120.620067,3.673677e-08
C0Z310,清水斷崖,2026-01-06,24.218294,121.689142,9.81288e-10
C0M680,太保,2026-01-06,23.455062,120.331455,5.2090776e-10
C1S820,金峰,2026-01-06,22.590969,120.933236,1.6396319e-09
C0AD10,八里,2026-01-06,25.150211,121.403947,3.356215e-06
C2K240,草嶺,2026-01-06,23.59555,120.693461,2.0819526e-09
C1SA70,都蘭,2026-01-06,22.87794,121.226881,1.8700977e-05
C0K440,二崙,2026-01-06,23.772797,120.408944,4.656215e-10
C1A760,坪林交控,2026-01-06,24.94284,121.713442,3.4153894e-07
C0F9N0,大里,2026-01-06,24.092464,120.701378,7.844549e-10
C0SA90,達仁林場,2026-01-06,22.264347,120.823972,2.1420684e-08
C1R290,石門山,2026-01-06,22.112611,120.756597,1.4712121e-07
42HA10,萬大發電廠,2026-01-06,23.978875,121.139639,2.264434e-09
C0R890,山海,2026-01-06,21.9878,120.7091,0.9469023
C0T9A0,月眉山,2026-01-06,23.809928,121.539828,2.902803e-09
C0AC70,信義,2026-01-06,25.037822,121.564597,2.5200817e-08
C0K560,棋山,2026-01-06,23.68645,120.603417,4.1241396e-10
C2FB50,出雲,2026-01-06,24.206469,120.902794,3.1252734e-09
C1Z240,中平林道,2026-01-06,23.42115,121.26763,2.615492e-08
U2H480,溪頭,2026-01-06,23.670306,120.798194,3.090566e-09
C0M880,好美里,2026-01-06,23.3364,120.138,4.8819715e-10
C0T9E0,大坑,2026-01-06,23.880628,121.581981,4.7741704e-09
C0K530,臺西,2026-01-06,23.701547,120.197559,1.4504778e-05
C1E900,國一N128K,2026-01-06,24.560997,120.844186,1.4322095e-08
C0AJ50,水湳洞,2026-01-06,25.123695,121.862238,3.807181e-08
C0AI20,白沙灣,2026-01-06,25.283128,121.519058,0.00014289955
C2V310,美濃,2026-01-06,22.898792,120.51907,2.5512642e-10
C0A860,大坪,2026-01-06,25.165914,121.632969,8.3147114e-08
C1U850,觀音海岸,2026-01-06,24.38319,121.77856,3.2067184e-09
C2K610,草嶺石壁,2026-01-06,23.602469,120.707731,2.1644793e-09
C0U950,鶯子嶺,2026-01-06,24.89754,121.79244,6.5126756e-08
C0O900,善化,2026-01-06,23.112883,120.297219,5.007123e-10
C0K550,蔦松,2026-01-06,23.514319,120.229736,7.7119644e-10
E2P980,林試六龜中心,2026-01-06,22.991703,120.645722,6.0430966e-10
C0E590,通霄,2026-01-06,24.471892,120.704622,0.92440337
C1I310,西巒,2026-01-06,23.754486,120.883956,3.9012344e-09
C0A550,泰平,2026-01-06,24.971197,121.823711,1.1475088e-07
C0I360,水里,2026-01-06,23.812553,120.849792,8.017706e-10
C0R830,高士,2026-01-06,22.121825,120.836781,6.8452245e-08
C1I101,溪頭,2026-01-06,23.661789,120.807647,5.490008e-09
C0AJ20,野柳,2026-01-06,25.20703,121.690021,1.8886394e-07
C0B060,暖暖,2026-01-06,25.0957,121.7403,1.13208465e-07
C1H920,長豐,2026-01-06,24.102039,120.879897,1.51088e-09
C2S9B0,利吉,2026-01-06,22.86246,121.15486,8.4803546e-08
C0V360,內門,2026-01-06,22.975481,120.466769,2.92788e-10
C0R850,林邊,2026-01-06,22.4634,120.5339,4.766644e-10
C0E930,龍鳳,2026-01-06,24.700034,120.859125,0.67016417
C0U910,冬山,2026-01-06,24.63373,121.7937,9.112815e-09
C1E721,泰安,2026-01-06,24.489017,120.968036,8.631709e-09
82H320,茶改中部分場,2026-01-06,23.875611,120.913583,2.9514529e-09
C0M750,布袋,2026-01-06,23.380878,120.167789,1.1658976e-09
C1S860,利嘉,2026-01-06,22.809417,121.050528,2.3115108e-09
E2S980,林試太麻里1,2026-01-06,22.598922,120.980044,1.6694979e-09
C0X170,關廟,2026-01-06,22.963017,120.327797,4.1634043e-10
C0V720,林園,2026-01-06,22.507747,120.394511,1.801277e-10
C1I510,線浸林道,2026-01-06,23.761508,120.832956,4.8388937e-09
C0D690,外湖,2026-01-06,24.917735,120.968711,0.99870086
C0C750,新興坑尾,2026-01-06,25.0061,121.0971,0.038826387
B2Q810,畜試南區分所,2026-01-06,21.945583,120.802167,0.99540466
C0S790,金崙,2026-01-06,22.538122,120.966875,2.4734457e-09
C0AH90,福山植物園,2026-01-06,24.760717,121.58135,1.1650394e-07
C0I540,奇萊稜線,2026-01-06,24.109231,121.326456,2.8242585e-08
C0M850,表湖,2026-01-06,23.24186,120.64166,8.5524354e-10
C0S770,大溪山,2026-01-06,22.478475,120.943325,2.66333e-09
C0AG80,中和,2026-01-06,24.991622,121.491792,3.3873462e-08
C0T790,大禹嶺,2026-01-06,24.186117,121.316086,1.790332e-08
C0T9B0,水源,2026-01-06,23.991861,121.537169,9.114849e-09
C0R840,牡丹池山,2026-01-06,22.168389,120.841225,1.243442e-07
C1I131,桶頭,2026-01-06,23.641944,120.654117,5.5309535e-10
CAL110,布袋國中,2026-01-06,23.35893,120.18026,4.8819715e-10
C2M9D0,何竹子腳,2026-01-06,23.53641,120.38203,5.311645e-10
467571,新竹,2026-01-06,24.827853,121.014219,3.0900763e-05
C0Z290,赤柯山,2026-01-06,23.36893,121.38293,8.461883e-09
C0X280,將軍,2026-01-06,23.214999,120.13577,5.180354e-10
C0S690,太麻里,2026-01-06,22.60902,120.98533,2.0834303e-09
C0U880,北關,2026-01-06,24.9072,121.8734,1.0499118e-07
CAW010,東引,2026-01-06,26.3588,120.4836,0.001643159
C0G810,埔心,2026-01-06,23.947633,120.525456,4.0404238e-10
C0U970,大福,2026-01-06,24.80064,121.81389,4.5970934e-09
C2H9N0,仁愛東眼,2026-01-06,24.026875,121.1205,3.9806083e-09
C1E670,南礦,2026-01-06,24.538278,121.002836,1.1909542e-08
C0M520,東後寮,2026-01-06,23.369908,120.248065,4.2342307e-10
C1E461,松安,2026-01-06,24.397972,120.986022,4.5133484e-09
C2N160,西拉雅風管處,2026-01-06,23.189481,120.335297,5.6758054e-10
C2M970,碧湖,2026-01-06,23.568632,120.624165,1.6328813e-09
C0A640,石碇,2026-01-06,24.993969,121.662917,3.4153894e-07
E2S960,林試太麻里2,2026-01-06,22.598,120.99775,1.7638491e-09
C0F9Y0,桃山,2026-01-06,24.432739,121.303808,3.266009e-08
C1I020,萬大,2026-01-06,23.979817,121.132261,2.8047062e-09
C2UC20,長嶺,2026-01-06,24.70894,121.61162,3.5095947e-08
C0U940,羅東,2026-01-06,24.68184,121.74934,5.768973e-09
C0M650,朴子,2026-01-06,23.43463,120.23902,4.7853543e-10
C1I500,大尖山,2026-01-06,23.858572,120.994889,4.9929634e-09
C0FB40,中橫21.6k,2026-01-06,24.2499,121.1455,5.0369824e-09
C0G820,田尾,2026-01-06,23.901669,120.509389,4.0404238e-10
E2K600,四湖植物園,2026-01-06,23.676986,120.163433,1.8324636e-06
C0S730,綠島,2026-01-06,22.6672,121.47533,0.9885858
12Q970,東港工作站,2026-01-06,22.479997,120.466058,4.766644e-10
C1TA00,太魯閣,2026-01-06,24.15773,121.6236,7.574762e-08
466920,臺北,2026-01-06,25.037658,121.514853,2.2849742e-08
C0R600,舊泰武,2026-01-06,22.588194,120.664944,6.2549e-10
C1I260,北坑,2026-01-06,23.9246,121.006903,1.1677938e-09
466910,鞍部,2026-01-06,25.182586,121.529731,1.02326155e-07
C1I230,九份二山,2026-01-06,23.961944,120.845,2.243947e-09
C2M810,里佳,2026-01-06,23.389125,120.716647,3.612018e-09
C2A660,瑞芳,2026-01-06,25.113169,121.801147,1.3322233e-07
C0R270,琉球嶼,2026-01-06,22.332244,120.362236,1.7679852e-09
C2V580,瑞山,2026-01-06,22.90304,120.43424,3.312095e-10
C1T990,高寮,2026-01-06,23.394239,121.356808,7.0315e-10
C0G620,芬園,2026-01-06,24.015678,120.6213,7.6186435e-10
C1Z140,荖溪,2026-01-06,23.890575,121.45964,2.3631525e-08
C1I201,中心崙,2026-01-06,23.728722,120.712097,9.871093e-10
C1I400,凌霄,2026-01-06,24.018778,121.004456,4.155521e-09
C1M640,十字,2026-01-06,23.492153,120.753683,4.344412e-09
G2P820,農試鳳山分所,2026-01-06,22.646611,120.356083,1.8687223e-09
C0Z270,蕃薯寮,2026-01-06,23.73835,121.540108,2.6133267e-09
C2E420,竹南,2026-01-06,24.70898,120.88897,0.67016435
C0FB10,出雲山苗圃,2026-01-06,24.23105,120.90475,2.4999494e-09
C0F9Q0,外埔,2026-01-06,24.347817,120.705686,2.4497637e-09
C0K580,高鐵雲林,2026-01-06,23.737456,120.417944,4.84083e-10
C2I090,鳳凰,2026-01-06,23.728081,120.787347,1.9323971e-09
C0U990,員山,2026-01-06,24.74435,121.72247,5.768973e-09
C0V770,大社,2026-01-06,22.730306,120.346639,1.0066512e-09
C0X120,麻豆,2026-01-06,23.183289,120.248611,4.8361143e-10
C0C670,龍潭,2026-01-06,24.870056,121.221389,4.3881653e-07
C0D680,香山濕地,2026-01-06,24.783581,120.914988,0.99870145
C0S980,勝林山,2026-01-06,22.430439,120.8938,6.341563e-09
C0V730,大寮,2026-01-06,22.605614,120.395717,1.8687223e-09
C0R570,麟洛,2026-01-06,22.65078,120.52719,2.365134e-10
C2M930,石卓,2026-01-06,23.478744,120.702264,4.2439923e-09
C0G9B0,和美,2026-01-06,24.105169,120.492131,1.625495e-09
CAG100,王功漁港,2026-01-06,23.96824,120.32586,0.99110436
C0X290,北門,2026-01-06,23.267772,120.125481,5.180354e-10
C2F930,大甲,2026-01-06,24.347667,120.640403,3.673677e-08
C0D650,湖口,2026-01-06,24.904794,121.043628,0.0004913435
C0U780,五結,2026-01-06,24.68637,121.79794,9.112815e-09
C1I250,鯉潭,2026-01-06,23.961922,120.991131,1.441942e-09
C0R130,阿禮,2026-01-06,22.742908,120.743678,9.621522e-10
C0X100,臺南市北區,2026-01-06,23.010394,120.194228,3.1368577e-10
C0S920,金峰嘉蘭,2026-01-06,22.594789,120.960825,1.6569165e-09
C0V490,新興,2026-01-06,22.627422,120.298803,9.627475e-09
C0F9K0,大安,2026-01-06,24.345061,120.588025,3.673677e-08
467290,古坑,2026-01-06,23.633639,120.551889,4.4859594e-10
C2E970,八甲,2026-01-06,24.535811,120.795983,1.4322095e-08
C0V440,鳳山,2026-01-06,22.646653,120.356122,1.8687223e-09
C1T940,大觀,2026-01-06,23.714206,121.373133,3.82122e-09
C0E740,造橋,2026-01-06,24.637056,120.864778,5.0982896e-07
C0R100,尾寮山,2026-01-06,22.833111,120.683889,1.0788427e-09
A2K630,臺大雲林校區,2026-01-06,23.730628,120.423903,4.84083e-10
467990,馬祖,2026-01-06,26.169467,119.923158,3.489065e-07
C0D580,寶山,2026-01-06,24.735006,121.025192,2.5533696e-08
E2P990,林試扇平站,2026-01-06,22.9677,120.6857,7.2907697e-10
C0AI30,三重,2026-01-06,25.057328,121.500629,2.2849742e-08
C0AH00,汐止,2026-01-06,25.066881,121.658778,1.1589158e-07
C1Z040,立山,2026-01-06,23.443356,121.327375,6.6564048e-09
466881,新北,2026-01-06,24.959207,121.525196,3.4132558e-08
C0W130,花嶼,2026-01-06,23.40007,119.32276,0.94477254
C0A950,鼻頭角,2026-01-06,25.129036,121.923372,3.886605e-08
C0K470,林內,2026-01-06,23.748675,120.609642,4.1241396e-10
C2F990,摩天嶺,2026-01-06,24.322458,120.936819,2.6438793e-09
C2E430,南庄,2026-01-06,24.601775,121.000214,1.359521e-08
82C160,茶改場,2026-01-06,24.908472,121.185333,9.831546e-07
C2TB60,南安,2026-01-06,23.29818,121.26157,8.7954205e-10
C0Z320,清水林道,2026-01-06,23.27125,121.188272,6.149561e-09
C0R760,南仁湖,2026-01-06,22.084681,120.863353,1.4712121e-07
C0M670,大林,2026-01-06,23.600616,120.45841,6.053144e-10
C0M800,茶山,2026-01-06,23.299075,120.664767,9.657412e-10
C0A9C0,天母,2026-01-06,25.117494,121.537169,2.462e-08
72K220,南改斗南分場,2026-01-06,23.634556,120.477333,5.050747e-10
72AI40,桃改樹林分場,2026-01-06,24.944503,121.386972,4.023916e-08
C0S910,蘭嶼燈塔,2026-01-06,22.081197,121.503117,0.14250776
C0B050,八斗子,2026-01-06,25.144754,121.79167,2.0569668e-07
C0U900,內城,2026-01-06,24.71813,121.68766,5.6008624e-09
C0X320,柳營,2026-01-06,23.253328,120.375253,6.738103e-10
C0M790,新港,2026-01-06,23.553269,120.345728,5.135914e-10
C0F9T0,西屯,2026-01-06,24.179494,120.641275,9.464554e-10
C0E950,松安,2026-01-06,24.39792,120.98599,4.5133484e-09
C0SA30,都歷,2026-01-06,23.020333,121.323642,0.992594
C0C620,蘆竹,2026-01-06,25.084275,121.265767,6.398264e-06
C0R730,大坪頂,2026-01-06,22.024633,120.69355,0.0028991534
C0AJ40,石門,2026-01-06,25.273672,121.601198,8.921241e-06
C0E750,苗栗,2026-01-06,24.564569,120.824575,1.4322095e-08
C0T870,鯉魚潭,2026-01-06,23.935639,121.508944,5.077108e-09
C1V170,排雲,2026-01-06,23.463619,120.954147,2.1490498e-08
C2H950,中寮,2026-01-06,23.884447,120.766406,7.0590067e-10
C0R350,貓鼻頭,2026-01-06,21.921774,120.7358,0.9416802
C0V660,岡山,2026-01-06,22.797078,120.294958,5.9403243e-10
C1H941,雙冬,2026-01-06,23.967378,120.802189,1.6532545e-09
C0AJ70,田寮,2026-01-06,25.2698,121.4886,0.00018823109
C0AI00,五股,2026-01-06,25.07445,121.42728,2.1637248e-08
C0Z280,德武,2026-01-06,23.47426,121.41071,8.651466e-10
C2RA10,大新,2026-01-06,22.67558,120.57788,5.4147553e-10
C0R700,枋山,2026-01-06,22.246844,120.661086,0.7670123
C0C460,復興,2026-01-06,24.820208,121.352281,3.8714163e-07
C2K300,鹿南,2026-01-06,23.63855,120.3636,5.1720805e-10
E2H360,蓮華池,2026-01-06,23.918333,120.885278,1.5953721e-09
C0M640,中埔,2026-01-06,23.42538,120.5229,3.2139486e-10
C0W140,金沙,2026-01-06,24.488292,118.408778,0.7152469
C2A540,四堵,2026-01-06,24.8926,121.745736,8.9913755e-08
C0ACA0,新莊,2026-01-06,25.051478,121.446756,2.637937e-08
C0R220,潮州,2026-01-06,22.534361,120.54,2.0895817e-10
U2HA40,臺大內茅埔,2026-01-06,23.689722,120.851117,1.1844385e-09
467490,臺中,2026-01-06,24.145736,120.684075,1.2248251e-09
C0UB60,明池,2026-01-06,24.650688,121.475277,1.2736967e-07
C0U960,翠峰湖,2026-01-06,24.510856,121.608044,4.084961e-08
E2HA20,林試畢祿溪站,2026-01-06,24.226944,121.308522,1.05300595e-08
C2M9A0,大華,2026-01-06,23.4824,120.67491,1.9052524e-09
C0V890,前鎮,2026-01-06,22.5718,120.3117,2.9554863e-09
C1F941,雪嶺,2026-01-06,24.280586,121.026642,2.3582805e-08
C2H9E0,國姓南港,2026-01-06,23.911108,120.846556,4.3715347e-09
C0AC80,文山,2026-01-06,25.00235,121.575728,7.457511e-08
C0F9R0,龍井,2026-01-06,24.184536,120.528972,3.7578682e-09
C0M760,民雄,2026-01-06,23.551754,120.428457,6.053144e-10
C0UA40,西德山,2026-01-06,24.560647,121.752608,4.7992067e-08
C2TA70,赤科坪,2026-01-06,23.39885,121.39168,9.154731e-09
C1T920,中興,2026-01-06,23.769503,121.498653,1.9797475e-09
C0D550,雪霸,2026-01-06,24.526972,121.11605,1.1401551e-08
C2F860,梨山,2026-01-06,24.247522,121.243669,1.5593647e-08
C0R320,車城,2026-01-06,22.0744,120.716247,0.959629
C1S870,南美山,2026-01-06,23.15025,121.382333,2.7892832e-09
C0B020,基隆嶼,2026-01-06,25.19141,121.78391,1.8703994e-07
C1U501,牛鬥,2026-01-06,24.637836,121.573656,8.04518e-08
C0M730,嘉義市東區,2026-01-06,23.457673,120.460531,3.088685e-10
C2R990,泰武,2026-01-06,22.60686,120.69765,1.4117428e-09
C0S700,知本,2026-01-06,22.684866,121.005642,1.5748438e-09
C1N001,沙崙,2026-01-06,22.935472,120.309406,4.1634043e-10
C0V760,橋頭,2026-01-06,22.757806,120.30575,1.0066512e-09
C0G960,福寶,2026-01-06,24.0443,120.3814,1.3953887e-09
C0X210,白河,2026-01-06,23.347466,120.414427,4.4874143e-10
C0S810,東河,2026-01-06,22.972672,121.303986,0.9446266
C2R170,屏東,2026-01-06,22.66027,120.49403,2.365134e-10
C0R670,楓港,2026-01-06,22.190131,120.692156,0.9602919
C0FA50,霧峰,2026-01-06,24.0419,120.6995,7.844549e-10
C0UB10,蘇澳,2026-01-06,24.5969,121.8571,9.091289e-09
C0G950,防潮門,2026-01-06,24.1835,120.4871,2.0947626e-09
C0M740,六腳,2026-01-06,23.492871,120.290625,5.087313e-10
C1R250,力里,2026-01-06,22.428117,120.629228,2.2425808e-10
C0K330,虎尾,2026-01-06,23.719183,120.442036,4.84083e-10
C2FA00,烏石坑,2026-01-06,24.273503,120.947617,2.6046878e-09
C0V620,永安,2026-01-06,22.82315,120.236856,5.9403243e-10
C1I330,楓樹林,2026-01-06,23.986803,121.076117,3.1396845e-09
C0W200,湖西,2026-01-06,23.596314,119.67275,0.92511135
72Q010,高雄農改場,2026-01-06,22.709333,120.525889,2.1786352e-10
C0SA40,瑞和,2026-01-06,22.974361,121.156697,7.191828e-09
C0C680,龜山,2026-01-06,25.02846,121.38656,2.710996e-08
C2V260,月眉,2026-01-06,22.971003,120.539853,2.445542e-10
C0V450,鳳森,2026-01-06,22.545064,120.392592,1.8012805e-10
C0FA90,小雪山林道,2026-01-06,24.29515,121.03651,2.9387927e-08
C0U720,南山,2026-01-06,24.43742,121.38167,5.521536e-08
A2N290,臺南蘭花園區,2026-01-06,23.340258,120.379661,5.23781e-10
C0R560,新園,2026-01-06,22.5434,120.461558,1.801277e-10
C0U890,三星,2026-01-06,24.66812,121.65302,5.8988228e-09
C1V300,御油山,2026-01-06,23.001983,120.715364,3.5153478e-09
C0U600,礁溪,2026-01-06,24.817539,121.765608,4.5970934e-09
C1T980,龍澗,2026-01-06,24.023289,121.411328,2.3777833e-08
C0D670,海天一線,2026-01-06,24.831986,120.914438,0.9990686
C0SA00,歷坵,2026-01-06,22.520969,120.89185,2.818612e-09
C0M710,東石,2026-01-06,23.458927,120.15385,1.1583524e-09
C0M780,鹿草,2026-01-06,23.41134,120.30835,4.7853455e-10
C0U520,雙連埤,2026-01-06,24.753033,121.641303,3.489936e-08
C0B010,七堵,2026-01-06,25.094819,121.71713,1.7490248e-07
C0R480,長治,2026-01-06,22.693128,120.542622,5.914277e-10
C1V830,國三S383K,2026-01-06,22.781967,120.426475,3.6359046e-10
12Q980,恆春工作站,2026-01-06,22.079678,120.714425,0.959629
C1O940,東山服務區,2026-01-06,23.286016,120.398472,5.23781e-10
C1U840,東澳嶺,2026-01-06,24.5378,121.8485,2.2842247e-08
C1D630,飛鳳山,2026-01-06,24.766464,121.119178,3.5744016e-08
C0S940,石寧山,2026-01-06,23.223772,121.406639,3.5386845e-09
C0K410,北港,2026-01-06,23.573957,120.292802,7.043379e-10
C2M620,瑞里,2026-01-06,23.545133,120.675197,2.0813133e-09
C0SB70,小港漁港,2026-01-06,23.158558,121.400431,4.7538347e-09
C2O950,安南,2026-01-06,23.076694,120.144861,9.905192e-10
C0F0E0,南湖圈谷,2026-01-06,24.363714,121.444667,3.1212124e-08
467610,成功,2026-01-06,23.097486,121.373428,5.6169018e-08
C0G890,伸港,2026-01-06,24.148933,120.484403,2.0947626e-09
C2E540,龍溪,2026-01-06,24.606489,120.783933,1.4322095e-08
C1V200,梅山,2026-01-06,23.268447,120.823556,1.384519e-09
C0T9H0,加路蘭山,2026-01-06,23.682947,121.5274,4.9924584e-09
C2O930,玉井,2026-01-06,23.126042,120.46055,3.0045819e-10
C1F911,新伯公,2026-01-06,24.221361,120.841069,8.9545027e-10
C0R490,九如,2026-01-06,22.7405,120.490503,2.1786352e-10
C0X200,左鎮,2026-01-06,23.056758,120.408522,3.4870049e-10
C2TB50,麻汝,2026-01-06,23.42554,121.39358,8.651466e-10
C0FA60,鞍馬山工作站,2026-01-06,24.267064,121.000793,1.5647096e-08
C0SB50,叭嗡嗡,2026-01-06,23.047062,121.343223,8.3230574e-08
C1F891,稍來,2026-01-06,24.265689,121.001142,1.5098841e-08
C2M9C0,紫雲,2026-01-06,23.494914,120.540253,2.975905e-10
72N240,七股研究中心,2026-01-06,23.081672,120.062894,1.1315364e-09
C0C700,中壢,2026-01-06,24.977661,121.256375,1.7650606e-07
C0M690,水上,2026-01-06,23.419734,120.388909,5.2090776e-10
C0V690,鼓山,2026-01-06,22.623325,120.275575,9.627475e-09
C0O860,大內,2026-01-06,23.11885,120.36083,5.6758054e-10
C0Z200,萬榮,2026-01-06,23.709219,121.420106,2.321917e-09
C0T9D0,和中,2026-01-06,24.26676,121.74103,9.138589e-10
C2S9A0,北份子寮,2026-01-06,22.78561,121.07813,0.011133462
C1O921,楠西,2026-01-06,23.183511,120.484083,3.0045819e-10
C0AJ30,淡水觀海,2026-01-06,25.184591,121.408616,3.3629626e-06
C0V810,左營,2026-01-06,22.67491,120.28491,5.1407483e-09
C0UA70,桃源谷,2026-01-06,24.962606,121.888875,4.2465448e-08
C0X130,官田,2026-01-06,23.193217,120.315422,5.6758054e-10
C1H000,翠峰,2026-01-06,24.109397,121.205211,1.3197076e-08
C0UA90,石城,2026-01-06,24.980444,121.951214,3.7602504e-08
C1E681,南勢山,2026-01-06,24.421669,120.923831,5.0924607e-09
C0A9F0,內湖,2026-01-06,25.079422,121.57545,2.5200817e-08
C0K291,宜梧,2026-01-06,23.536281,120.169329,7.652878e-06
C1K540,口湖,2026-01-06,23.585344,120.180517,9.199514e-06
C0R780,滿州,2026-01-06,22.024403,120.839892,0.9999528
C0V870,文安,2026-01-06,22.8025,120.2164,6.203881e-10
C0U650,玉蘭,2026-01-06,24.675286,121.587061,3.5043303e-08
C0R640,東港,2026-01-06,22.46247,120.44074,1.7805564e-10
C0AJ80,板橋,2026-01-06,25.0107,121.4489,3.3873462e-08
C0S660,下馬,2026-01-06,23.150427,121.070312,3.8238595e-09
C2N190,烏樹,2026-01-06,23.32393,120.36989,5.23781e-10
C1H9B1,阿眉,2026-01-06,24.1263,120.994672,7.902506e-09
C0UA20,多加屯,2026-01-06,24.368614,121.373189,1.6833312e-08
C0E730,頭份,2026-01-06,24.688247,120.912206,0.67016435
72V140,高改旗南分場,2026-01-06,22.857861,120.516667,2.5512642e-10
C0K480,莿桐,2026-01-06,23.761192,120.502372,5.0658655e-10
C0U980,坪林石牌,2026-01-06,24.86478,121.77396,7.441739e-08
C0T900,西林,2026-01-06,23.8119,121.441458,2.1662843e-09
C1I150,青雲,2026-01-06,23.793361,120.949378,1.3043195e-09
C2E980,和興,2026-01-06,24.505319,120.923016,1.0784543e-08
467350,澎湖,2026-01-06,23.565503,119.563094,0.90711385
C0G800,埔鹽,2026-01-06,24.000394,120.431683,1.3394057e-09
C0H960,草屯,2026-01-06,23.973672,120.68085,9.0608504e-10
C1V780,多納林道,2026-01-06,22.888028,120.737917,1.5844369e-09
C0E920,通霄漁港,2026-01-06,24.498589,120.673876,0.92440337
C0Z330,安通山,2026-01-06,23.290728,121.348528,1.328554e-09
C0AH10,永和,2026-01-06,25.01125,121.508111,3.3873462e-08
C0AK10,太平里,2026-01-06,25.134937,121.364899,6.0682066e-07
C2G640,鹿港,2026-01-06,24.0753,120.430481,1.625495e-09
C1E890,國三N149K,2026-01-06,24.463414,120.680019,0.92440337
C1R110,口社,2026-01-06,22.770111,120.645222,7.1993594e-10
C1M870,國三N285K,2026-01-06,23.550319,120.505833,2.975905e-10
C1E480,鳳美,2026-01-06,24.554803,121.034747,1.6325458e-08
C0T9M0,靜浦,2026-01-06,23.455167,121.495028,1.9407855e-09
C2H9M0,發祥,2026-01-06,24.154094,121.164517,3.2947696e-09
C2G9C0,埔南,2026-01-06,23.99124,120.46969,1.3394057e-09
C0AI40,石牌,2026-01-06,25.115597,121.513139,2.5200817e-08
C1F871,上谷關,2026-01-06,24.203483,121.018644,2.6046878e-09
C2H9G0,百勝,2026-01-06,24.051142,120.909361,9.329361e-10
C0G880,二水,2026-01-06,23.810742,120.6173,4.0569106e-10
C0R940,加祿堂,2026-01-06,22.3363,120.6217,0.7670123
C0W220,北竿,2026-01-06,26.220358,119.974881,9.151632e-06
C0O960,崎頂,2026-01-06,22.959547,120.369317,4.1634043e-10
C0TA40,秀林,2026-01-06,24.302864,121.731144,1.738602e-08
C0S750,向陽,2026-01-06,23.248397,120.986133,9.216754e-09
C0T9F0,水璉,2026-01-06,23.797131,121.542514,2.3043312e-09
C1M600,頭凍,2026-01-06,23.406364,120.603339,1.7077072e-09
467660,臺東,2026-01-06,22.752211,121.154586,0.117801234
C1D380,新埔,2026-01-06,24.84745,121.03834,3.0900763e-05
C2G980,田頭村,2026-01-06,23.8263,120.444175,4.656215e-10
C0V750,路竹,2026-01-06,22.854997,120.259439,5.9403243e-10
C0N050,蚵寮,2026-01-06,23.301,120.1104,5.180354e-10
C2X060,下營,2026-01-06,23.226806,120.256291,5.456453e-10
72M700,南改鹿草分場,2026-01-06,23.416869,120.283061,4.7853455e-10
C1SA50,利嘉林道,2026-01-06,22.82325,121.009389,8.952355e-09
C0UB70,太平山中間站,2026-01-06,24.542003,121.513453,6.6658984e-08
C0A940,金山,2026-01-06,25.223628,121.643967,8.996398e-07
C1V340,大津,2026-01-06,22.888322,120.645986,7.843008e-10
C0W180,七美,2026-01-06,23.219333,119.444892,0.97060734
C1F9C1,白冷,2026-01-06,24.182844,120.929889,1.2824483e-09
K2E710,苗改生物防治研究中心,2026-01-06,24.422861,120.871833,4.391751e-09
C0N040,蘆竹溝,2026-01-06,23.2344,120.0961,5.180354e-10
C0TB40,崇德,2026-01-06,24.166144,121.657414,1.5988427e-08
C0D760,大坪苗圃,2026-01-06,24.5362,121.1108,1.3481669e-08
C2W230,畜試所澎湖,2026-01-06,23.628342,119.513206,0.8835385
C0R880,後壁湖,2026-01-06,21.9457,120.7457,0.9469023
C1I280,埔中,2026-01-06,23.820778,120.642594,6.840702e-10
467790,墾丁雷達站,2026-01-06,21.948235,120.808028,0.99540466
C0W190,望安,2026-01-06,23.380564,119.494075,0.94849896
C0Z170,卓溪,2026-01-06,23.3443,121.3029,7.707082e-10
C0F850,東勢,2026-01-06,24.246428,120.833047,8.3587814e-10
466900,淡水,2026-01-06,25.164889,121.448906,8.533672e-08
C0I370,魚池,2026-01-06,23.895703,120.94135,1.7766019e-09
C0C630,大溪,2026-01-06,24.882853,121.265547,4.452897e-07
C0A520,山佳,2026-01-06,24.974944,121.402008,4.1379405e-08
C0I110,竹山,2026-01-06,23.761225,120.688156,4.4552623e-10
82H840,茶改南部分場,2026-01-06,23.762528,120.7405,5.8807e-10
C2SD80,再來山,2026-01-06,23.34371,121.44122,8.192356e-10
C0G660,溪湖,2026-01-06,23.94835,120.479122,4.0404238e-10
C1T800,洛韶,2026-01-06,24.204558,121.453956,3.5946936e-08
C1T810,慈恩,2026-01-06,24.192044,121.388386,1.1818326e-08
C1E451,象鼻,2026-01-06,24.368617,120.940228,5.0924607e-09
C0AC60,三峽,2026-01-06,24.939025,121.369728,3.8860716e-08
C0I490,萬大林道,2026-01-06,23.928228,121.091411,5.187139e-09
C1I290,豐丘,2026-01-06,23.668178,120.887417,3.12401e-09
C1I320,奧萬大,2026-01-06,23.952956,121.178556,3.1892184e-09
C2M910,嘉義大學,2026-01-06,23.471325,120.485903,3.088685e-10
C0U770,南澳,2026-01-06,24.44935,121.81022,6.8466446e-09
C2TB30,吉安,2026-01-06,23.94538,121.54803,5.681635e-09
C0A980,社子,2026-01-06,25.109508,121.469681,9.03256e-08
C0V800,六龜,2026-01-06,22.997889,120.633583,6.074078e-10
C1G9D0,國一S218K,2026-01-06,23.890641,120.493253,4.3523218e-10
C0E570,白沙屯,2026-01-06,24.549447,120.696803,0.99223876
C2F9A0,中竹林,2026-01-06,24.103556,120.751061,8.4315255e-10
C0FA40,臺中電廠,2026-01-06,24.2146,120.4907,4.786005e-09
C2G9A0,畜試所彰化,2026-01-06,23.86045,120.557964,6.289726e-10
C0H9C0,合歡山,2026-01-06,24.143442,121.272547,2.6886832e-08
G2M350,農試溪口農場,2026-01-06,23.58565,120.408111,6.053144e-10
C0U860,頭城,2026-01-06,24.85323,121.8308,1.6325055e-08
C0R580,南州,2026-01-06,22.48591,120.50274,4.766644e-10
C0D430,峨眉,2026-01-06,24.6905,121.017189,3.4774242e-08
C0G780,秀水,2026-01-06,24.03405,120.503869,3.870629e-10
72N100,臺南農改場,2026-01-06,23.0605,120.342194,5.007123e-10
C0S900,蘭嶼高中,2026-01-06,22.04909,121.51214,0.51327497
C2TA60,六十石,2026-01-06,23.22477,121.31861,6.745153e-09
C1F9W0,德基,2026-01-06,24.254783,121.190261,1.4935207e-08
C2M980,安和,2026-01-06,23.51377,120.31593,5.087313e-10
C1Z120,壽豐,2026-01-06,23.870853,121.508081,2.720043e-09
C0W160,烏坵,2026-01-06,24.9944,119.44956,0.8632419
C1I240,外大坪,2026-01-06,23.958697,120.917931,1.949627e-09
C1I550,國六W023K,2026-01-06,23.979067,120.867742,1.0611549e-09
C0R870,興海,2026-01-06,21.9752,120.8439,0.99540466
C0R140,瑪家,2026-01-06,22.682903,120.686639,5.6825644e-10
C0A530,坪林,2026-01-06,24.938183,121.70975,2.677525e-07
C0X260,後壁,2026-01-06,23.366358,120.362326,5.6043864e-10
C0Z230,和平,2026-01-06,24.30717,121.77007,1.2462295e-09
C0G770,福興,2026-01-06,24.041289,120.437669,1.3394057e-09
C0H9A0,神木村,2026-01-06,23.532742,120.843667,4.115247e-09
C0I460,南投,2026-01-06,23.911469,120.687331,9.0608504e-10
C0I480,梅峰,2026-01-06,24.085272,121.173572,8.256583e-09
C1V570,吉東,2026-01-06,22.85422,120.5454,2.4964936e-10
C2A560,福山,2026-01-06,24.776203,121.502811,3.5199523e-08
C0AH30,五分山,2026-01-06,25.07125,121.780794,8.826301e-08
C0FA10,松柏,2026-01-06,24.429115,120.617482,1.1427152e-06
72S200,東改班鳩分場,2026-01-06,22.829528,121.077694,2.8489406e-08
72HA00,中改埔里分場,2026-01-06,23.903208,120.963364,1.7338587e-09
C2H9W0,大坪頂農水,2026-01-06,24.043122,120.932781,1.2969418e-09
C0C650,平鎮,2026-01-06,24.897503,121.214636,4.3881693e-07
C0S930,延平,2026-01-06,22.902581,121.084058,4.9211856e-08
C0UA60,樟樹山,2026-01-06,24.41393,121.78325,2.7510039e-09
C2UC10,出水溪,2026-01-06,24.615822,121.652253,5.8228345e-08
C1S670,摩天,2026-01-06,23.199503,121.027,1.4842769e-08
C2C590,觀音,2026-01-06,25.027072,121.153317,0.9317996
C0V630,茄萣,2026-01-06,22.906642,120.182608,2.960461e-10
466940,基隆,2026-01-06,25.133314,121.740475,2.0348605e-07
C0X050,東河,2026-01-06,23.296598,120.385608,5.23781e-10
C0R770,保力,2026-01-06,22.071122,120.764111,0.015687848
G2L020,農試嘉義分所,2026-01-06,23.485028,120.473806,3.088685e-10
C0X240,關子嶺,2026-01-06,23.331169,120.508025,4.530086e-10
C0I380,集集,2026-01-06,23.828206,120.801467,7.8348744e-10
466990,花蓮,2026-01-06,23.975128,121.613275,2.9437969e-08
C1V220,小關山,2026-01-06,23.154217,120.813603,4.7076996e-09
C1F9G1,慶福山,2026-01-06,24.180853,120.848378,1.6128853e-09
C0FB20,雪山橋,2026-01-06,24.23192,120.9786,1.3336986e-08
C0Z250,瑞穗林道,2026-01-06,23.49284,121.30688,3.3283104e-08
C0D590,新豐,2026-01-06,24.87068,120.97721,0.9990686
C0A870,五指山,2026-01-06,25.132153,121.608692,6.09774e-08
C0UA50,西帽山,2026-01-06,24.555361,121.802628,2.268979e-08
C2R980,竹田國中,2026-01-06,22.61532,120.52412,2.9726943e-10
C0X160,仁德,2026-01-06,22.968258,120.257689,3.86559e-10
C1H971,六分寮,2026-01-06,23.92507,120.6378,1.3742767e-09
C0W120,西嶼,2026-01-06,23.5626,119.468436,0.94065136
C0G650,員林,2026-01-06,23.946503,120.585597,7.1007333e-10
C0AD50,鶯歌,2026-01-06,24.951533,121.346294,4.4356128e-07
C2H9Q0,北東眼山,2026-01-06,24.120939,121.189303,1.1286809e-08
C2H9T0,名間竹圍,2026-01-06,23.859914,120.637572,8.3415963e-10
C0S990,山豬窟,2026-01-06,22.318619,120.857372,3.1656754e-08
C0X190,安平,2026-01-06,22.993161,120.152181,3.2078853e-10
C0K400,斗六,2026-01-06,23.720583,120.541127,5.0658655e-10
12J990,口湖工作站,2026-01-06,23.589978,120.180394,9.199514e-06
C0O830,北寮,2026-01-06,23.079561,120.495008,2.7147862e-10
C1D410,白蘭,2026-01-06,24.579364,121.079947,1.1875925e-08
C0S970,加津林,2026-01-06,22.416211,120.926942,7.0593065e-09
C0D700,關西,2026-01-06,24.7977,121.1732,2.6465406e-07
C0U750,龜山島,2026-01-06,24.841667,121.953133,5.7411274e-08
C0R810,內獅,2026-01-06,22.305064,120.642986,0.7670123
C1M390,龍美,2026-01-06,23.406728,120.654417,2.5380977e-09
C2K290,崙內,2026-01-06,23.69525,120.35601,5.1720805e-10
C2FB60,頭櫃山,2026-01-06,24.129842,120.858925,3.0679952e-09
C1H840,國三N238K,2026-01-06,23.841008,120.707711,5.0645416e-10
CAQ030,崎峰國小,2026-01-06,22.42565,120.49521,4.766644e-10
C2E520,大湖,2026-01-06,24.414939,120.870872,4.391751e-09
467530,阿里山,2026-01-06,23.508208,120.813242,1.04284235e-08
C1E691,南湖,2026-01-06,24.40135,120.837533,1.6722896e-09
C0FA30,梧棲,2026-01-06,24.256003,120.523381,3.7578682e-09
C1V231,高中,2026-01-06,23.134911,120.716711,9.2230085e-10
C0AK30,硬漢嶺,2026-01-06,25.136097,121.426372,3.3216768e-08
C0F9V0,新社,2026-01-06,24.200172,120.815806,1.1135326e-09
C0H890,埔里,2026-01-06,23.972169,120.952425,9.425892e-10
C0R690,墾丁,2026-01-06,21.966756,120.810269,0.9999732
C0SD20,富山,2026-01-06,22.822383,121.190825,6.386707e-05
C0F0D0,審馬陣,2026-01-06,24.381675,121.4203,2.3379119e-08
C2W030,金門農試所,2026-01-06,24.448431,118.451786,0.66266304
C0R820,白鷺,2026-01-06,22.454275,120.666219,5.658877e-10
C0FB00,大雪山,2026-01-06,24.254668,121.007374,1.5759115e-08
C1V190,南天池,2026-01-06,23.27403,120.91176,9.071732e-09
C0E940,雪見,2026-01-06,24.42595,121.01347,1.19279555e-08
K2E360,苗栗農改場,2026-01-06,24.495722,120.829111,8.9408205e-09
CAJ050,海口故事園區,2026-01-06,23.57543,120.14121,9.199514e-06
C2K280,四湖,2026-01-06,23.6304,120.22717,1.8324636e-06
C2H9D0,三隻寮,2026-01-06,24.093078,120.861578,1.5098256e-09
C0O990,媽廟,2026-01-06,22.99175,120.293525,4.4857712e-10
C0D480,打鐵坑,2026-01-06,24.849664,121.150789,3.3384455e-07
C0Z220,和平林道,2026-01-06,24.343922,121.656317,1.8422293e-09
C0TA10,花蓮漁港,2026-01-06,23.995322,121.638331,3.3377447e-08
72C440,桃園農改場,2026-01-06,24.950944,121.030583,0.0004913435
C1E711,馬拉邦山,2026-01-06,24.367306,120.901656,2.5458795e-09
C0SB20,富岡,2026-01-06,22.792467,121.192669,2.9236611e-05
C0D560,竹東,2026-01-06,24.767147,121.057881,1.07365004e-07
C0F9U0,南屯,2026-01-06,24.137006,120.637969,4.41647e-10
C2SD60,明峰,2026-01-06,22.8671,121.11825,8.4803546e-08
C0M720,番路,2026-01-06,23.464657,120.554156,2.8792674e-10
C0F0A0,雪山圈谷,2026-01-06,24.388594,121.236339,3.3084305e-08
C1A9N0,四十份,2026-01-06,24.934158,121.593283,1.194277e-07
C0U760,東澳,2026-01-06,24.52196,121.83318,6.88357e-09
C0X230,鹽水,2026-01-06,23.272621,120.247641,4.8663806e-10
C2H9H0,苗改南投蜂場,2026-01-06,23.852589,120.693481,6.166742e-10
C2TB70,達谷寮,2026-01-06,23.38,121.35968,8.1786483e-10
C0R950,萬隆國小,2026-01-06,22.507667,120.587817,2.2600187e-10
467540,大武,2026-01-06,22.35572,120.90374,0.99954355
C0V370,古亭坑,2026-01-06,22.893178,120.401947,3.312095e-10
C1I340,新興橋,2026-01-06,23.563333,120.868728,1.4799341e-09
C0SA80,土坂,2026-01-06,22.453108,120.887572,5.9110317e-09
C0R160,鹽埔,2026-01-06,22.739558,120.530778,2.1786352e-10
C0AC40,大屯山,2026-01-06,25.175675,121.522408,8.631383e-08
466850,五分山雷達站,2026-01-06,25.071182,121.781205,8.76149e-08
C2H9L0,馬烈霸,2026-01-06,24.1512,121.201772,1.1286809e-08
C1AI50,國三N016K,2026-01-06,25.034164,121.619664,1.00458244e-07
C2V920,匏子寮,2026-01-06,23.04905,120.55319,2.9574246e-10
C1V600,藤枝,2026-01-06,23.071961,120.757042,3.0223148e-09
C1E601,南勢,2026-01-06,24.572486,120.734842,0.99223876
C0O980,新市,2026-01-06,23.061614,120.298197,5.007123e-10
C0K420,西螺,2026-01-06,23.800407,120.467394,4.656215e-10
C0Z050,佳心,2026-01-06,23.34567,121.21316,7.257683e-09
C0AD30,蘆洲,2026-01-06,25.086594,121.472331,2.8134785e-08
C0V610,梓官,2026-01-06,22.760558,120.267211,5.975256e-10
K2F750,種苗改良場,2026-01-06,24.225972,120.800917,1.1135326e-09
C0UA80,大溪漁港,2026-01-06,24.941801,121.902955,7.527751e-08
C1AI60,國一39K邊坡,2026-01-06,25.064361,121.383836,2.1004608e-08
C0W150,金寧,2026-01-06,24.457703,118.328989,0.8112431
C0R960,內埔,2026-01-06,22.608483,120.570714,2.9726943e-10
V2C250,八德合作社,2026-01-06,24.93775,121.266389,4.452897e-07
C2H9S0,龍南,2026-01-06,23.953536,120.833183,2.9420273e-09
C0AH40,平等,2026-01-06,25.129142,121.577086,4.4921457e-08
C0R540,佳冬,2026-01-06,22.419456,120.552375,3.5790845e-10
466950,彭佳嶼,2026-01-06,25.627975,122.079744,0.9997065
C0A890,雙溪,2026-01-06,25.036003,121.864242,3.538997e-08
C0C480,桃園,2026-01-06,24.992425,121.323172,1.7650606e-07
C0AH50,林口,2026-01-06,25.072181,121.38084,1.9924503e-08
A2K360,水試臺西試驗場,2026-01-06,23.717231,120.190522,1.4504778e-05
C2M960,外寮,2026-01-06,23.562643,120.665688,1.7467044e-09
C0F9S0,烏日,2026-01-06,24.107058,120.624103,4.41647e-10
C2N180,鹿陶洋,2026-01-06,23.14325,120.48352,3.0045819e-10
C0C490,八德,2026-01-06,24.928708,121.283289,4.452897e-07
C0R190,赤山,2026-01-06,22.592333,120.614306,2.8840216e-10
C0T820,天祥,2026-01-06,24.179597,121.495639,4.0538673e-08
C1F9E1,龍安,2026-01-06,24.1605,120.831961,1.1549307e-09
C2SD50,順那,2026-01-06,23.04166,121.29332,0.93204874
C0V820,小林,2026-01-06,23.148408,120.63325,5.1581994e-10
C2G870,芳苑,2026-01-06,23.922303,120.320025,0.99110436
C0E850,大河,2026-01-06,24.618069,120.948578,1.4362033e-08
C1U670,寒溪,2026-01-06,24.634,121.71691,5.8432805e-09
C0N020,城西,2026-01-06,23.0568,120.0956,1.0623052e-09
C1Z110,三棧,2026-01-06,24.11557,121.60501,3.6385725e-08
C0R280,檳榔,2026-01-06,22.076078,120.836777,1.1765808e-06
C2H9J0,中台,2026-01-06,23.9996,120.938739,1.2969418e-09
C0F9L0,后里,2026-01-06,24.310436,120.729725,1.4438547e-09
467441,高雄,2026-01-06,22.730432,120.312516,1.0066512e-09
C0Z180,新城,2026-01-06,24.040486,121.604878,2.7405573e-08
C0D540,橫山,2026-01-06,24.71116,121.11693,2.5011715e-08
C1D420,太閣南,2026-01-06,24.632808,121.160575,2.6561429e-08
C1E770,公館,2026-01-06,24.526914,120.830806,1.4531439e-08
CAN130,水試所海水繁養殖中心,2026-01-06,23.120802,120.07968,1.1315364e-09
C1I430,翠華,2026-01-06,24.191961,121.224339,1.828717e-08
C1M400,菜瓜坪,2026-01-06,23.251928,120.576103,8.812784e-10
C0G730,二林,2026-01-06,23.903325,120.376081,9.791287e-10
72M360,南改義竹分場,2026-01-06,23.360694,120.279361,4.234239e-10
V2K620,麥寮合作社,2026-01-06,23.753836,120.294783,6.7503747e-10
C0Z070,舞鶴,2026-01-06,23.46811,121.37407,9.089896e-10
C0B040,大武崙,2026-01-06,25.166676,121.706993,1.7338076e-07
C1Z030,紅葉,2026-01-06,23.493119,121.338806,8.7120894e-10
C1I050,丹大,2026-01-06,23.753747,121.141147,1.1255143e-08
C0I080,信義,2026-01-06,23.689694,120.851036,1.1844385e-09
C2TB80,庄子底,2026-01-06,23.71794,121.49438,2.1283428e-09
C0D750,樂山林道6k,2026-01-06,24.49999,121.08773,1.5468991e-08
C2M920,朴子農改,2026-01-06,23.469889,120.259383,4.7853455e-10
C2A880,福隆,2026-01-06,25.017842,121.942083,3.880694e-08
C0Z160,鳳林,2026-01-06,23.746114,121.453411,2.152076e-09
C0UB80,翠峰林道6K,2026-01-06,24.49773,121.568625,4.2579806e-08
C0V210,復興,2026-01-06,23.222403,120.806089,8.618658e-10
C0H990,昆陽,2026-01-06,24.121322,121.273642,2.1946109e-08
C0R741,獅子,2026-01-06,22.202308,120.705236,0.23469363
C0S710,鹿野,2026-01-06,22.917711,121.122994,1.3598608e-08
C0I530,小奇萊,2026-01-06,24.131764,121.295717,2.2947837e-08
C0FA70,大雪山埡口,2026-01-06,24.26867,121.03062,2.3321398e-08
C2K630,荷苞,2026-01-06,23.657717,120.595144,4.4859594e-10
C0Z080,富源,2026-01-06,23.587642,121.378225,4.2993378e-09
C2M9E0,旺來山,2026-01-06,23.555153,120.486463,2.975905e-10
C0SB10,美和,2026-01-06,22.682078,121.060236,0.11694945
C2K620,馬光農場,2026-01-06,23.721453,120.378864,4.84083e-10
C1I140,卡奈托灣,2026-01-06,23.754364,121.087872,3.7509076e-09
C0I520,玉山風口,2026-01-06,23.470489,120.955994,2.5375662e-08
C1G691,下水埔,2026-01-06,23.816114,120.5676,5.0102567e-10
C0X110,臺南市南區,2026-01-06,22.961189,120.188378,3.8451986e-10
C0V680,仁武,2026-01-06,22.701083,120.347722,1.0066512e-09
C2G840,北斗,2026-01-06,23.877586,120.514222,4.3523218e-10
C2TB90,長橋,2026-01-06,23.6874,121.46186,2.1570403e-09
C0R900,竹坑,2026-01-06,22.1385,120.7022,0.9602919
C0G860,社頭,2026-01-06,23.897647,120.5862,6.289726e-10
C0X150,安定,2026-01-06,23.102614,120.227839,4.2880177e-10
C0R590,里港,2026-01-06,22.77919,120.49459,3.162377e-10
C0E610,馬都安,2026-01-06,24.451272,120.930192,3.9872496e-09
C0E550,明德,2026-01-06,24.583486,120.885411,1.2026347e-08
C0R150,三地門,2026-01-06,22.709889,120.639944,5.31505e-10
C0G910,花壇,2026-01-06,24.032076,120.549461,3.870629e-10
C1D400,鳥嘴山,2026-01-06,24.71909,121.28387,4.6172186e-08
C0K500,元長,2026-01-06,23.64981,120.315024,6.2478533e-10
C0F0B0,石岡,2026-01-06,24.276061,120.777644,1.4438547e-09
C2V250,甲仙,2026-01-06,23.080106,120.591758,3.386419e-10
C0SA20,金崙山,2026-01-06,22.567419,120.959667,3.3713656e-09
C0V350,溪埔,2026-01-06,22.738578,120.446797,3.6359046e-10
C0M660,溪口,2026-01-06,23.604131,120.403569,6.053144e-10
C1S880,壽卡,2026-01-06,22.238911,120.858903,1.6101156e-06
72D680,桃改新埔分場,2026-01-06,24.834444,121.066111,3.0900763e-05
