站號,站名,日期,lat,lon,BlastGRU-TW
C0R710,龍磐,2026-07-27,21.931672,120.838942,0.9538647
C1F9D1,白毛台,2026-07-27,24.158325,120.886933,0.9911187
C0G940,竹塘,2026-07-27,23.848253,120.386764,0.24199042
467590,恆春,2026-07-27,22.003897,120.746339,0.8809943
C0U710,太平山,2026-07-27,24.505486,121.525656,0.5789966
C0E820,獅潭,2026-07-27,24.539133,120.920042,0.97759116
C2SD70,二層坪,2026-07-27,22.94105,121.16838,0.18116057
C0V880,興達,2026-07-27,22.8778,120.2127,0.06501378
C0SB30,新蘭,2026-07-27,22.869214,121.223228,0.19222915
C2R970,屏科大,2026-07-27,22.648275,120.619247,0.025475452
C1Z130,銅門,2026-07-27,23.965694,121.492842,0.045822922
C0AD40,土城,2026-07-27,24.973208,121.445169,0.57772964
CAN140,六官養殖協會,2026-07-27,23.22881,120.29962,0.054575853
C0X180,山上,2026-07-27,23.0757,120.363253,0.04957643
C0F9Z0,雪山東峰,2026-07-27,24.388792,121.268675,0.072065875
C1M480,獨立山,2026-07-27,23.537022,120.607797,0.92437893
C0X220,學甲,2026-07-27,23.230367,120.182187,0.0640565
467650,日月潭,2026-07-27,23.881325,120.90805,0.9373955
A2K570,古坑(花卉中心),2026-07-27,23.633531,120.552392,0.3492307
C0K600,箔子寮,2026-07-27,23.6197,120.14,0.08420835
C0G830,埤頭,2026-07-27,23.866003,120.452806,0.2291049
C0S950,七塊厝,2026-07-27,22.954453,121.229922,0.4853946
467110,金門,2026-07-27,24.407306,118.289281,0.3453101
C0AH80,深坑,2026-07-27,25.002703,121.628328,0.20731118
C0A970,三貂角,2026-07-27,25.007606,122.002058,0.5682665
C2D730,寶山農場,2026-07-27,24.732444,120.976153,0.99252653
C0K430,褒忠,2026-07-27,23.690938,120.303634,0.08696701
467480,嘉義,2026-07-27,23.495925,120.432906,0.31659234
C0V400,阿公店,2026-07-27,22.804194,120.355528,0.056038376
C2S800,華源,2026-07-27,22.65783,121.0232,0.43843123
C2SA40,瑞和,2026-07-27,22.974361,121.156697,0.17906561
C0E960,觀霧分站,2026-07-27,24.505781,121.113921,0.8761839
467550,玉山,2026-07-27,23.48718,120.95943,0.002546012
C0R440,大漢山,2026-07-27,22.405264,120.753181,0.3822575
C0SD30,東清國小,2026-07-27,22.057128,121.564922,0.9106053
C1F9B1,桐林,2026-07-27,24.066172,120.735194,0.33830795
C2I210,蘆竹湳,2026-07-27,23.93398,120.81209,0.9938752
C2H9U0,鳳鵬,2026-07-27,23.763919,120.788061,0.19033915
C0K390,土庫,2026-07-27,23.679029,120.395574,0.252228
C1I450,望鄉山,2026-07-27,23.594153,120.944286,0.025127875
C0E910,海埔,2026-07-27,24.648767,120.772435,0.8117456
B2E890,畜試北區分所,2026-07-27,24.527806,120.770972,0.9013331
C0R750,四林格山,2026-07-27,22.076989,120.802439,0.94799876
C0F0C0,中坑,2026-07-27,24.248517,120.903319,0.9874086
C1I121,大鞍,2026-07-27,23.678381,120.760017,0.86043036
C2G9E0,移民庄,2026-07-27,23.9784,120.40283,0.20529328
72U480,花改蘭陽分場,2026-07-27,24.686306,121.716583,0.6870313
C0A770,科教館,2026-07-27,25.096356,121.516507,0.44153443
C0AJ60,六塊厝,2026-07-27,25.24,121.4481,0.28496897
C0R620,墾雷,2026-07-27,21.900836,120.855269,0.8984579
467290,古坑,2026-07-27,23.633536,120.551906,0.3492307
467420,永康,2026-07-27,23.038386,120.2367,0.05028371
C2M530,奮起湖,2026-07-27,23.493903,120.699253,0.923589
C0I410,名間,2026-07-27,23.837053,120.701447,0.093671106
A2C560,農工中心,2026-07-27,24.985917,121.239833,0.99236774
C0V740,旗山,2026-07-27,22.888614,120.483597,0.028798526
C0Z061,玉里,2026-07-27,23.3215,121.339656,0.086314954
C0S840,南田,2026-07-27,22.279725,120.889208,0.04827032
C1I470,杉林溪,2026-07-27,23.639517,120.786444,0.7139277
C1X040,東原,2026-07-27,23.291597,120.463822,0.1576701
C0R660,枋寮,2026-07-27,22.367722,120.590647,0.059559718
C0K450,大埤,2026-07-27,23.646074,120.431537,0.269295
C0UA00,土場,2026-07-27,24.576533,121.495333,0.025563499
467080,宜蘭,2026-07-27,24.763975,121.756528,0.6144817
C0N030,四草,2026-07-27,23.0235,120.1116,0.0630455
467410,臺南,2026-07-27,22.99328,120.20492,0.051723164
C0V650,彌陀,2026-07-27,22.783806,120.246361,0.09058259
C0D660,新竹市東區,2026-07-27,24.798681,120.986942,0.9896684
82S580,茶改東部分場,2026-07-27,22.907694,121.130139,0.22839509
C0SB40,興隆,2026-07-27,22.913661,121.257469,0.17049319
467050,新屋,2026-07-27,25.006725,121.047492,0.984399
C0C710,大溪永福,2026-07-27,24.892936,121.324975,0.9918025
C0FA20,溫寮,2026-07-27,24.372177,120.583125,0.7559182
C0V640,湖內,2026-07-27,22.887139,120.2445,0.06548603
C0R910,下寮,2026-07-27,22.3929,120.5548,0.076591164
C0Z020,明里,2026-07-27,23.208717,121.262342,0.08529226
C0M770,嘉義梅山,2026-07-27,23.585398,120.555587,0.82040286
C0C660,楊梅,2026-07-27,24.912375,121.143047,0.99410635
C0SD40,牛頭山,2026-07-27,22.676661,121.506944,0.6424728
C1E511,新開,2026-07-27,24.347703,120.827019,0.995577
G2F820,農試所(霧峰),2026-07-27,24.031261,120.688133,0.2907888
C2M990,大巃頂,2026-07-27,23.5547,120.61439,0.818625
C1I070,和社,2026-07-27,23.591131,120.888861,0.97446877
C2E990,新坪頂,2026-07-27,24.30201,120.8574,0.99670583
C0TA80,立霧山,2026-07-27,24.183258,121.641899,0.9016735
C2F000,大肚,2026-07-27,24.15295,120.572117,0.9945328
C1S850,豐南,2026-07-27,23.122139,121.262389,0.66209096
C2M9B0,西興,2026-07-27,23.2428,120.57617,0.9061304
C2A920,富貴角,2026-07-27,25.263783,121.565258,0.8188206
C0T960,光復,2026-07-27,23.660694,121.424964,0.09208399
C0F9M0,豐原,2026-07-27,24.254322,120.720692,0.9878613
C0R720,旭海,2026-07-27,22.205403,120.887614,0.069689326
C0V710,苓雅,2026-07-27,22.622742,120.330669,0.10313886
C0C740,觀音工業區,2026-07-27,25.064764,121.114856,0.9841542
CAC040,拉拉山,2026-07-27,24.699317,121.427133,0.83130413
C0V790,萬山,2026-07-27,22.905944,120.688056,0.037592854
U2HA30,臺大和社,2026-07-27,23.590856,120.888864,0.97446877
C2H9K0,屯原,2026-07-27,24.067969,121.209389,0.5844751
C0AJ90,澳底,2026-07-27,25.0552,121.9253,0.14220884
C0Z100,東華,2026-07-27,23.89525,121.549833,0.107262075
C0G970,三豐,2026-07-27,23.882,120.2895,0.10319539
C0V900,汕尾,2026-07-27,22.4782,120.4151,0.054586828
C1R630,龍泉,2026-07-27,22.66701,120.59091,0.024014054
C1AC50,關渡,2026-07-27,25.133486,121.469331,0.47842073
C0C800,四稜,2026-07-27,24.64733,121.4293,0.98289293
C0F9I0,神岡,2026-07-27,24.272481,120.658314,0.979525
C0K460,斗南,2026-07-27,23.678734,120.478359,0.28016362
C2O810,曾文,2026-07-27,23.219681,120.497328,0.12367928
467280,後龍,2026-07-27,24.648563,120.831834,0.86659294
C1F9J1,清水林,2026-07-27,24.071242,120.820419,0.9942068
C2A650,火燒寮,2026-07-27,25.002719,121.742892,0.56662726
466930,竹子湖,2026-07-27,25.162078,121.544547,0.99230385
C1I220,樟湖,2026-07-27,23.905333,120.846983,0.96171814
C0I390,仁愛,2026-07-27,24.022122,121.132206,0.8374539
C0Z300,東里,2026-07-27,23.26853,121.30547,0.09095907
C1V590,新發,2026-07-27,23.057019,120.646064,0.48235112
C0K510,水林,2026-07-27,23.572924,120.24597,0.067326926
72S590,東改賓朗果園,2026-07-27,22.813889,121.071278,0.92860806
82A750,茶改北部分場,2026-07-27,24.955778,121.631222,0.7328747
C1A750,石碇服務區,2026-07-27,25.00872,121.646242,0.21277888
C0X300,鹿寮,2026-07-27,23.386047,120.477331,0.42616734
C0K590,雲林東勢,2026-07-27,23.674192,120.255721,0.09703274
C2K310,港尾布雞,2026-07-27,23.74834,120.38439,0.23007919
C0A570,桶後,2026-07-27,24.848222,121.597992,0.07903478
C0G720,溪州,2026-07-27,23.851589,120.499093,0.2388677
C1V160,達卡努瓦,2026-07-27,23.279811,120.705319,0.8775007
C2M410,馬頭山,2026-07-27,23.324361,120.582017,0.26758736
C0V850,蚵仔寮,2026-07-27,22.7256,120.2527,0.090202995
C0S740,池上,2026-07-27,23.119628,121.209469,0.17423563
C1V390,尖山,2026-07-27,22.813153,120.367789,0.0562856
C0AH70,松山,2026-07-27,25.04871,121.55042,0.48886162
C0N010,鯤鯓國小,2026-07-27,23.1879,120.0889,0.06050441
C0SA60,知本（水試所）,2026-07-27,22.702394,121.082761,0.1281785
C0T9I0,豐濱,2026-07-27,23.583897,121.514806,0.27625236
C0UB00,淡江大學蘭陽校園,2026-07-27,24.823239,121.730383,0.9914122
C0W240,九宮,2026-07-27,24.423753,118.240186,0.35391775
C0T9N0,富里,2026-07-27,23.171639,121.249378,0.09027332
U2HA50,臺大竹山,2026-07-27,23.756972,120.681556,0.088037886
C0V840,鳳鼻頭,2026-07-27,22.5083,120.3591,0.05585659
C0X140,西港,2026-07-27,23.125608,120.203108,0.049812302
72D080,桃改五峰分場,2026-07-27,24.612194,121.157167,0.99657947
C2H9P0,伊拿谷,2026-07-27,23.963211,121.088264,0.9730684
C2K250,崙背,2026-07-27,23.75553,120.31893,0.08959783
C2H9F0,柑林,2026-07-27,24.018658,120.847072,0.6936161
C0TA20,加灣,2026-07-27,24.082025,121.608944,0.039387017
C0V530,阿蓮,2026-07-27,22.883208,120.327508,0.046039417
C0FB30,八仙山苗圃,2026-07-27,24.192719,121.001366,0.9836828
C0E791,卓蘭,2026-07-27,24.3126,120.8244,0.99593514
C2R260,春日,2026-07-27,22.370361,120.628306,0.09425917
C1I030,武界,2026-07-27,23.913225,121.052483,0.9669682
C0R520,崁頂,2026-07-27,22.514781,120.506914,0.050894573
C0R341,牡丹,2026-07-27,22.130036,120.792639,0.06172576
C0R930,萬丹,2026-07-27,22.5885,120.4851,0.041835766
C0S760,紅石,2026-07-27,23.069131,121.126219,0.41592616
C2C410,中央大學,2026-07-27,24.967652,121.185165,0.99330217
C1M610,石磐龍,2026-07-27,23.496606,120.663506,0.9629587
C2C830,中德,2026-07-27,24.981862,121.291344,0.98904884
C0C790,東眼山,2026-07-27,24.8284,121.40888,0.69202286
C0UA10,鴛鴦湖,2026-07-27,24.590269,121.412228,0.7604524
C0R800,丹路,2026-07-27,22.204481,120.750989,0.03889959
C2R240,萬巒,2026-07-27,22.527306,120.625111,0.06276374
C0G920,永靖,2026-07-27,23.924703,120.547533,0.19667576
C2M950,太和,2026-07-27,23.538372,120.702961,0.9263927
C1A630,下盆,2026-07-27,24.771003,121.538622,0.11177061
B2N890,畜產試驗所,2026-07-27,23.058972,120.336406,0.049211193
C0UA30,白嶺,2026-07-27,24.527819,121.519031,0.92445606
467571,新竹,2026-07-27,24.828575,121.01455,0.9904306
C1V580,溪南(特生中心),2026-07-27,23.084972,120.788475,0.38043562
C1T970,大農,2026-07-27,23.615233,121.413331,0.28456193
C0R650,竹田,2026-07-27,22.58486,120.54344,0.045600127
C1H900,清流,2026-07-27,24.080775,120.962997,0.97342604
C1C510,水尾,2026-07-27,24.940081,121.087161,0.99247175
C2N170,茅港尾,2026-07-27,23.2061,120.2624,0.05457586
C0F9X0,大雅(中科園區),2026-07-27,24.21528,120.62445,0.9677157
C0SB60,白守蓮,2026-07-27,23.126769,121.401914,0.17831846
C0O970,虎頭埤,2026-07-27,23.021375,120.347878,0.05049542
C0C730,中大臨海站,2026-07-27,24.966126,121.008581,0.98862034
C0X250,新營,2026-07-27,23.310689,120.316681,0.058585305
C0V700,三民,2026-07-27,22.645017,120.311233,0.13260235
C0U870,大礁溪,2026-07-27,24.791042,121.675047,0.9940412
C0E870,高鐵苗栗,2026-07-27,24.60725,120.826094,0.8532509
C2S890,關山,2026-07-27,23.0395,121.175017,0.1695365
C0TA30,鹽寮,2026-07-27,23.845606,121.592664,0.10570771
C0M860,新美,2026-07-27,23.338017,120.683169,0.88403654
C1E701,八卦,2026-07-27,24.491756,120.927619,0.99712175
C2TA90,加納納,2026-07-27,23.466421,121.359867,0.34210238
C0I420,國姓,2026-07-27,24.037803,120.855072,0.8235183
C2D720,關西工作站,2026-07-27,24.757275,121.184792,0.8689874
C2AK30,信賢,2026-07-27,24.84108,121.53492,0.08340967
C0S960,香蘭,2026-07-27,22.587569,120.993375,0.9508012
467620,蘭嶼,2026-07-27,22.0369,121.55843,0.8344619
C2UC40,中城,2026-07-27,24.62865,121.74745,0.7097059
72G600,臺中農改場,2026-07-27,24.003028,120.534389,0.18493608
C0Z210,瑞穗,2026-07-27,23.5239,121.39021,0.2691632
C0M820,達邦,2026-07-27,23.453994,120.749517,0.96325
C0V860,南寮,2026-07-27,22.7616,120.2339,0.090202995
C0G740,大城,2026-07-27,23.852487,120.320935,0.10846608
C0R920,塭仔,2026-07-27,22.4169,120.5197,0.07496885
C0R470,高樹,2026-07-27,22.826389,120.600806,0.021337973
C0R680,佳樂水,2026-07-27,21.993578,120.861633,0.8659656
C1O870,大棟山,2026-07-27,23.31157,120.52226,0.726784
C0D360,梅花,2026-07-27,24.678347,121.208558,0.9949613
C0Z190,富世,2026-07-27,24.14743,121.6297,0.6667978
C0AI10,屈尺,2026-07-27,24.92184,121.54475,0.72888947
B2U990,畜試東區分所,2026-07-27,24.669039,121.832561,0.66893303
C0SB80,長濱漁港,2026-07-27,23.313644,121.459994,0.1878472
C0TA50,和仁,2026-07-27,24.241394,121.712472,0.65551054
C2AK40,漁光,2026-07-27,24.96875,121.72132,0.9877559
C0V910,大樹,2026-07-27,22.684645,120.432803,0.023401225
C1R610,西大武山,2026-07-27,22.617719,120.7322,0.4809675
C0K500,元長,2026-07-27,23.642858,120.31966,0.09703274
C0G900,線西,2026-07-27,24.143358,120.443536,0.20891322
C0M700,竹崎,2026-07-27,23.526178,120.555508,0.69422257
C2E880,三義,2026-07-27,24.405478,120.749819,0.99535275
C0C720,竹圍,2026-07-27,25.112692,121.239824,0.9729323
C0F9P0,清水,2026-07-27,24.312297,120.562242,0.72171265
C0Z150,吉安光華,2026-07-27,23.930925,121.595153,0.10347067
C0FA80,小雪山天池,2026-07-27,24.28025,121.02627,0.15098871
467300,東吉島,2026-07-27,23.25727,119.66762,0.5360724
C1D640,外坪(五指山),2026-07-27,24.644447,121.090961,0.99495703
C2R9A0,高士國小,2026-07-27,22.12553,120.84653,0.044086512
C0F9O0,潭子,2026-07-27,24.213106,120.703933,0.9782814
C2H9R0,卓社,2026-07-27,23.887894,121.000086,0.6847875
72T250,花蓮農改場,2026-07-27,23.975222,121.563889,0.10544065
C0E780,銅鑼,2026-07-27,24.489681,120.790853,0.96795344
C1T950,太安,2026-07-27,23.666719,121.370128,0.059474014
C0E830,苑裡,2026-07-27,24.439714,120.653053,0.82598054
467270,田中,2026-07-27,23.873803,120.581286,0.22061905
C0SA10,檳榔四格山,2026-07-27,22.810031,121.109308,0.9670071
C1T830,布洛灣,2026-07-27,24.17184,121.57127,0.02374161
C0F970,大坑,2026-07-27,24.173142,120.722289,0.953397
C1U920,思源,2026-07-27,24.393125,121.347214,0.9050856
C2H9Y0,松茗,2026-07-27,23.8167,120.650765,0.3753554
C0A931,三和,2026-07-27,25.233153,121.595236,0.8860004
C0I010,廬山,2026-07-27,24.033311,121.181808,0.8782322
C2M940,日野賀,2026-07-27,23.434056,120.727169,0.95951515
C0R860,鼻頭,2026-07-27,22.1043,120.8979,0.82703704
C2I260,北坑,2026-07-27,23.92463,121.00683,0.99021655
C0UB20,壯圍,2026-07-27,24.7359,121.8163,0.5991349
C0R790,九棚,2026-07-27,22.14195,120.889281,0.9607309
C0W110,東莒,2026-07-27,25.9652,119.98069,0.9870092
C1U930,粉鳥林,2026-07-27,24.497088,121.842479,0.11610953
C0S830,長濱,2026-07-27,23.286817,121.411975,0.33701494
C1F9F1,伯公龍,2026-07-27,24.272392,120.849047,0.9967889
C0UB90,太平山莊,2026-07-27,24.494171,121.536209,0.5634198
C0E810,西湖,2026-07-27,24.562947,120.7485,0.9019862
C1I440,新高口,2026-07-27,23.478744,120.878939,0.33498612
C0O840,王爺宮,2026-07-27,23.222064,120.40085,0.13773598
C0T9G0,鳳林山,2026-07-27,23.735269,121.420131,0.83746177
C0X080,佳里,2026-07-27,23.173039,120.145086,0.06068245
C0FB70,大甲溪埔,2026-07-27,24.370625,120.620067,0.8206945
C0Z310,清水斷崖,2026-07-27,24.218294,121.689142,0.8407992
C0M680,太保,2026-07-27,23.455062,120.331455,0.059113134
C1S820,金峰,2026-07-27,22.590969,120.933236,0.44824767
C0AD10,八里,2026-07-27,25.150211,121.403947,0.30039123
C2K240,草嶺,2026-07-27,23.59555,120.693461,0.9678958
C1SA70,都蘭,2026-07-27,22.87794,121.226881,0.19694786
C0K440,二崙,2026-07-27,23.772797,120.408944,0.22194457
C1A760,坪林交控,2026-07-27,24.94284,121.713442,0.423398
C0F9N0,大里,2026-07-27,24.092464,120.701378,0.28827885
C0SA90,達仁林場,2026-07-27,22.264347,120.823972,0.920931
C1R290,石門山,2026-07-27,22.112611,120.756597,0.97088844
42HA10,萬大發電廠,2026-07-27,23.978875,121.139639,0.9292492
C0R890,山海,2026-07-27,21.9878,120.7091,0.8354299
C0T9A0,月眉山,2026-07-27,23.809928,121.539828,0.63969153
C0AC70,信義,2026-07-27,25.037822,121.564597,0.48370016
C0K560,棋山,2026-07-27,23.68645,120.603417,0.3329512
C2FB50,出雲,2026-07-27,24.206469,120.902794,0.99171287
C1Z240,中平林道,2026-07-27,23.42115,121.26763,0.67218167
U2H480,溪頭,2026-07-27,23.670306,120.798194,0.90014094
C0M880,好美里,2026-07-27,23.3364,120.138,0.06601585
C0T9E0,大坑,2026-07-27,23.880628,121.581981,0.04211212
C0K530,臺西,2026-07-27,23.701547,120.197559,0.0971321
C1E900,國一N128K,2026-07-27,24.560997,120.844186,0.90164715
C0AJ50,水湳洞,2026-07-27,25.123695,121.862238,0.14729916
C0AI20,白沙灣,2026-07-27,25.283128,121.519058,0.33080208
C2V310,美濃,2026-07-27,22.898792,120.51907,0.028111216
C0A860,大坪,2026-07-27,25.165914,121.632969,0.5658539
C1U850,觀音海岸,2026-07-27,24.38319,121.77856,0.7838706
C2K610,草嶺石壁,2026-07-27,23.602469,120.707731,0.96588176
C0U950,鶯子嶺,2026-07-27,24.89754,121.79244,0.99060833
C0O900,善化,2026-07-27,23.112883,120.297219,0.04826443
C0K550,蔦松,2026-07-27,23.514319,120.229736,0.07611172
E2P980,林試六龜中心,2026-07-27,22.991703,120.645722,0.08282528
C0E590,通霄,2026-07-27,24.471892,120.704622,0.88143915
C1I310,西巒,2026-07-27,23.754486,120.883956,0.9162867
C0A550,泰平,2026-07-27,24.971197,121.823711,0.68021387
C2UC30,金洋,2026-07-27,24.42465,121.74573,0.12772854
C0I360,水里,2026-07-27,23.812553,120.849792,0.114915766
C0R830,高士,2026-07-27,22.121825,120.836781,0.96637607
C1I101,溪頭,2026-07-27,23.661789,120.807647,0.6518887
C0AJ20,野柳,2026-07-27,25.20703,121.690021,0.29384515
C0B060,暖暖,2026-07-27,25.0957,121.7403,0.23716469
C1H920,長豐,2026-07-27,24.102039,120.879897,0.989246
C2S9B0,利吉,2026-07-27,22.86246,121.15486,0.22435746
C0V360,內門,2026-07-27,22.975481,120.466769,0.035839207
C0R850,林邊,2026-07-27,22.4634,120.5339,0.07592977
C0E930,龍鳳,2026-07-27,24.700034,120.859125,0.99172
C0U910,冬山,2026-07-27,24.63373,121.7937,0.66893303
C1E721,泰安,2026-07-27,24.489017,120.968036,0.98580295
82H320,茶改中部分場,2026-07-27,23.875611,120.913583,0.97894764
C0M750,布袋,2026-07-27,23.380878,120.167789,0.087056436
C1S860,利嘉,2026-07-27,22.809417,121.050528,0.97480595
E2S980,林試太麻里1,2026-07-27,22.598922,120.980044,0.1327462
C0X170,關廟,2026-07-27,22.963017,120.327797,0.04659185
C0V720,林園,2026-07-27,22.507747,120.394511,0.056683946
C2M9G0,沄水,2026-07-27,23.38293,120.52666,0.7886337
C1I510,線浸林道,2026-07-27,23.761508,120.832956,0.8772713
C0D690,外湖,2026-07-27,24.917735,120.968711,0.99261075
C0C750,新興坑尾,2026-07-27,25.0061,121.0971,0.9911211
B2Q810,畜試南區分所,2026-07-27,21.945583,120.802167,0.8659656
C0S790,金崙,2026-07-27,22.538122,120.966875,0.57382035
C0AH90,福山植物園,2026-07-27,24.760717,121.58135,0.13443583
C0I540,奇萊稜線,2026-07-27,24.109231,121.326456,0.0034267239
C0M850,表湖,2026-07-27,23.24186,120.64166,0.95477545
C0S770,大溪山,2026-07-27,22.478475,120.943325,0.5201155
C0AG80,中和,2026-07-27,24.991622,121.491792,0.57772964
C0T790,大禹嶺,2026-07-27,24.186117,121.316086,0.044203516
C0T9B0,水源,2026-07-27,23.991861,121.537169,0.053516578
C0R840,牡丹池山,2026-07-27,22.168389,120.841225,0.91698474
C1I131,桶頭,2026-07-27,23.641944,120.654117,0.15217103
CAL110,布袋國中,2026-07-27,23.35893,120.18026,0.06601585
C2M9D0,何竹子腳,2026-07-27,23.53641,120.38203,0.28495786
C0Z290,赤柯山,2026-07-27,23.36893,121.38293,0.9712026
C0X280,將軍,2026-07-27,23.214999,120.13577,0.0640565
C0S690,太麻里,2026-07-27,22.60902,120.98533,0.97339535
C0U880,北關,2026-07-27,24.9072,121.8734,0.095028244
CAW010,東引,2026-07-27,26.3588,120.4836,0.99899346
C0G810,埔心,2026-07-27,23.947633,120.525456,0.187941
C0U970,大福,2026-07-27,24.80064,121.81389,0.60541743
C2H9N0,仁愛東眼,2026-07-27,24.026875,121.1205,0.5761814
C1E670,南礦,2026-07-27,24.538278,121.002836,0.99365985
C0M520,東後寮,2026-07-27,23.369908,120.248065,0.06702669
C1E461,松安,2026-07-27,24.397972,120.986022,0.9920445
C2N160,西拉雅風管處,2026-07-27,23.189481,120.335297,0.05438459
C2O850,環湖,2026-07-27,23.148665,120.4186,0.09460547
C2M970,碧湖,2026-07-27,23.568632,120.624165,0.8219918
C0A640,石碇,2026-07-27,24.993969,121.662917,0.423398
E2S960,林試太麻里2,2026-07-27,22.598,120.99775,0.9485958
C0F9Y0,桃山,2026-07-27,24.432739,121.303808,0.05859727
C1I020,萬大,2026-07-27,23.979817,121.132261,0.8297841
C2UC20,長嶺,2026-07-27,24.70894,121.61162,0.08966944
C0U940,羅東,2026-07-27,24.68184,121.74934,0.6773319
C0M650,朴子,2026-07-27,23.43463,120.23902,0.06560725
C1I500,大尖山,2026-07-27,23.858572,120.994889,0.32068542
C0FB40,中橫21.6k,2026-07-27,24.2499,121.1455,0.98695916
C0G820,田尾,2026-07-27,23.901669,120.509389,0.187941
E2K600,四湖植物園,2026-07-27,23.676986,120.163433,0.10211844
C0S730,綠島,2026-07-27,22.6672,121.47533,0.7250608
12Q970,東港工作站,2026-07-27,22.479997,120.466058,0.074283324
C1TA00,太魯閣,2026-07-27,24.15773,121.6236,0.024552539
466920,臺北,2026-07-27,25.037658,121.514853,0.48886162
C0R600,舊泰武,2026-07-27,22.588194,120.664944,0.04080685
466910,鞍部,2026-07-27,25.182586,121.529731,0.9902925
C1I230,九份二山,2026-07-27,23.961944,120.845,0.99406004
C2M810,里佳,2026-07-27,23.389125,120.716647,0.9165648
C2A660,瑞芳,2026-07-27,25.113169,121.801147,0.26049194
C0R270,琉球嶼,2026-07-27,22.332244,120.362236,0.16824166
C2V580,瑞山,2026-07-27,22.90304,120.43424,0.036399387
C1T990,高寮,2026-07-27,23.394239,121.356808,0.22524497
C0G620,芬園,2026-07-27,24.015678,120.6213,0.31708524
C1Z140,荖溪,2026-07-27,23.890575,121.45964,0.92929375
C1I201,中心崙,2026-07-27,23.728722,120.712097,0.96835357
C1I400,凌霄,2026-07-27,24.018778,121.004456,0.5818969
C1M640,十字,2026-07-27,23.492153,120.753683,0.776214
G2P820,農試鳳山分所,2026-07-27,22.646611,120.356083,0.10380374
C0Z270,蕃薯寮,2026-07-27,23.73835,121.540108,0.19745588
C2E420,竹南,2026-07-27,24.70898,120.88897,0.9936798
C2D480,打鐵坑,2026-07-27,24.849664,121.150789,0.95330346
C0FB10,出雲山苗圃,2026-07-27,24.23105,120.90475,0.9874086
C0F9Q0,外埔,2026-07-27,24.347817,120.705686,0.95764
C0K580,高鐵雲林,2026-07-27,23.737456,120.417944,0.23007919
C2I090,鳳凰,2026-07-27,23.728081,120.787347,0.97197795
C0U990,員山,2026-07-27,24.74435,121.72247,0.66666317
C0V770,大社,2026-07-27,22.730306,120.346639,0.081476405
C0X120,麻豆,2026-07-27,23.183289,120.248611,0.050762586
C0C670,龍潭,2026-07-27,24.870056,121.221389,0.95314515
C0D680,香山濕地,2026-07-27,24.783581,120.914988,0.99261075
C0S980,勝林山,2026-07-27,22.430439,120.8938,0.18182592
C0V730,大寮,2026-07-27,22.605614,120.395717,0.075664006
C0R570,麟洛,2026-07-27,22.65078,120.52719,0.02000163
C2M930,石卓,2026-07-27,23.478744,120.702264,0.7833885
C0G9B0,和美,2026-07-27,24.105169,120.492131,0.2172954
C2I240,外大坪,2026-07-27,23.9587,120.91788,0.98894715
CAG100,王功漁港,2026-07-27,23.96824,120.32586,0.2170512
C0X290,北門,2026-07-27,23.267772,120.125481,0.0640565
C2F930,大甲,2026-07-27,24.347667,120.640403,0.92289793
C0D650,湖口,2026-07-27,24.904794,121.043628,0.9941054
C0U780,五結,2026-07-27,24.68637,121.79794,0.66893303
C1I250,鯉潭,2026-07-27,23.961922,120.991131,0.9885943
C0R130,阿禮,2026-07-27,22.742908,120.743678,0.07169037
C0X100,臺南市北區,2026-07-27,23.010394,120.194228,0.05109884
C0S920,金峰嘉蘭,2026-07-27,22.594789,120.960825,0.9655546
C0V490,新興,2026-07-27,22.627422,120.298803,0.12906836
C0F9K0,大安,2026-07-27,24.345061,120.588025,0.77993774
C2E970,八甲,2026-07-27,24.535811,120.795983,0.976243
C0V440,鳳山,2026-07-27,22.646653,120.356122,0.10380374
C1T940,大觀,2026-07-27,23.714206,121.373133,0.62586945
C0E740,造橋,2026-07-27,24.637056,120.864778,0.9928501
C0R100,尾寮山,2026-07-27,22.833111,120.683889,0.07295964
A2K630,臺大雲林校區,2026-07-27,23.730628,120.423903,0.23709087
467990,馬祖,2026-07-27,26.169467,119.923158,0.99557555
C0D580,寶山,2026-07-27,24.735006,121.025192,0.99243814
E2P990,林試扇平站,2026-07-27,22.9677,120.6857,0.20435353
C0AI30,三重,2026-07-27,25.057328,121.500629,0.44153443
C0AH00,汐止,2026-07-27,25.066881,121.658778,0.15272148
C1Z040,立山,2026-07-27,23.443356,121.327375,0.5437221
466881,新北,2026-07-27,24.959207,121.525196,0.6333137
C0W130,花嶼,2026-07-27,23.40007,119.32276,0.70425606
C0A950,鼻頭角,2026-07-27,25.129036,121.923372,0.19732685
C0K470,林內,2026-07-27,23.748675,120.609642,0.28761774
C2F990,摩天嶺,2026-07-27,24.322458,120.936819,0.98967314
C2E430,南庄,2026-07-27,24.601775,121.000214,0.99612814
82C160,茶改場,2026-07-27,24.908472,121.185333,0.99548006
C2TB60,南安,2026-07-27,23.29818,121.26157,0.098816164
C0Z320,清水林道,2026-07-27,23.27125,121.188272,0.13998194
C0R760,南仁湖,2026-07-27,22.084681,120.863353,0.9701972
C0M670,大林,2026-07-27,23.600616,120.45841,0.3276319
C0M800,茶山,2026-07-27,23.299075,120.664767,0.83163655
C0A9C0,天母,2026-07-27,25.117494,121.537169,0.48449904
72K220,南改斗南分場,2026-07-27,23.634556,120.477333,0.28858483
72AI40,桃改樹林分場,2026-07-27,24.944503,121.386972,0.6243793
C0S910,蘭嶼燈塔,2026-07-27,22.081197,121.503117,0.89224476
C0B050,八斗子,2026-07-27,25.144754,121.79167,0.15497267
C0U900,內城,2026-07-27,24.71813,121.68766,0.7070835
C0X320,柳營,2026-07-27,23.253328,120.375253,0.09212229
C0M790,新港,2026-07-27,23.553269,120.345728,0.0666572
C0F9T0,西屯,2026-07-27,24.179494,120.641275,0.89251244
C0E950,松安,2026-07-27,24.39792,120.98599,0.9920445
C0SA30,都歷,2026-07-27,23.020333,121.323642,0.17237452
C0C620,蘆竹,2026-07-27,25.084275,121.265767,0.98005515
C0R730,大坪頂,2026-07-27,22.024633,120.69355,0.9545643
C0AJ40,石門,2026-07-27,25.273672,121.601198,0.6610519
C0E750,苗栗,2026-07-27,24.564569,120.824575,0.8906332
C0T870,鯉魚潭,2026-07-27,23.935639,121.508944,0.115832314
C1V170,排雲,2026-07-27,23.463619,120.954147,0.0033628547
C2H950,中寮,2026-07-27,23.884447,120.766406,0.42961377
C0R350,貓鼻頭,2026-07-27,21.921774,120.7358,0.8899293
C0V660,岡山,2026-07-27,22.797078,120.294958,0.090916045
C1H941,雙冬,2026-07-27,23.967378,120.802189,0.9940977
C0AJ70,田寮,2026-07-27,25.2698,121.4886,0.33040464
C0AI00,五股,2026-07-27,25.07445,121.42728,0.966443
C0Z280,德武,2026-07-27,23.47426,121.41071,0.31090102
C2RA10,大新,2026-07-27,22.67558,120.57788,0.024014054
C0C460,復興,2026-07-27,24.820208,121.352281,0.9935838
C2AA10,中八仙,2026-07-27,25.11576,121.49199,0.43522376
E2H360,蓮華池,2026-07-27,23.918333,120.885278,0.9901476
C0M640,中埔,2026-07-27,23.42538,120.5229,0.6968274
C2C810,八德蔬果,2026-07-27,24.97858,121.28187,0.98904884
C2M9F0,安溪寮,2026-07-27,23.350334,120.208039,0.06601585
C0W140,金沙,2026-07-27,24.488292,118.408778,0.36140138
C2A540,四堵,2026-07-27,24.8926,121.745736,0.56809634
C0ACA0,新莊,2026-07-27,25.051478,121.446756,0.4963995
C0R220,潮州,2026-07-27,22.534361,120.54,0.05335096
U2HA40,臺大內茅埔,2026-07-27,23.689722,120.851117,0.9033289
467490,臺中,2026-07-27,24.145736,120.684075,0.8850892
C0UB60,明池,2026-07-27,24.650688,121.475277,0.9785916
C0U960,翠峰湖,2026-07-27,24.510856,121.608044,0.619773
E2HA20,林試畢祿溪站,2026-07-27,24.226944,121.308522,0.5104727
C2M9A0,大華,2026-07-27,23.4824,120.67491,0.9637158
C0V890,前鎮,2026-07-27,22.5718,120.3117,0.09942354
C1F941,雪嶺,2026-07-27,24.280586,121.026642,0.15098871
C2H9E0,國姓南港,2026-07-27,23.911108,120.846556,0.9484243
C0AC80,文山,2026-07-27,25.00235,121.575728,0.7200033
C0F9R0,龍井,2026-07-27,24.184536,120.528972,0.24038845
C0M760,民雄,2026-07-27,23.551754,120.428457,0.3276319
C0UA40,西德山,2026-07-27,24.560647,121.752608,0.9928658
C2TA70,赤科坪,2026-07-27,23.39885,121.39168,0.3139559
C1T920,中興,2026-07-27,23.769503,121.498653,0.11550121
C0D550,雪霸,2026-07-27,24.526972,121.11605,0.88981414
C2F860,梨山,2026-07-27,24.247522,121.243669,0.4719062
C0R320,車城,2026-07-27,22.0744,120.716247,0.72463125
C1S870,南美山,2026-07-27,23.15025,121.382333,0.23218769
C0B020,基隆嶼,2026-07-27,25.19141,121.78391,0.17540328
C1U501,牛鬥,2026-07-27,24.637836,121.573656,0.0738369
C0M730,嘉義市東區,2026-07-27,23.457673,120.460531,0.3046906
C2R990,泰武,2026-07-27,22.60686,120.69765,0.9125307
C0S700,知本,2026-07-27,22.684866,121.005642,0.9748135
C1N001,沙崙,2026-07-27,22.935472,120.309406,0.046026092
C0V760,橋頭,2026-07-27,22.757806,120.30575,0.08115487
C2V570,吉東,2026-07-27,22.85418,120.54539,0.020829583
C0G960,福寶,2026-07-27,24.0443,120.3814,0.19813727
C0X210,白河,2026-07-27,23.347466,120.414427,0.0949116
C0S810,東河,2026-07-27,22.972672,121.303986,0.17727123
C2R170,屏東,2026-07-27,22.66027,120.49403,0.02000163
C0R670,楓港,2026-07-27,22.190131,120.692156,0.047121473
C0FA50,霧峰,2026-07-27,24.0419,120.6995,0.2995753
C0UB10,蘇澳,2026-07-27,24.5969,121.8571,0.11034084
C0G950,防潮門,2026-07-27,24.1835,120.4871,0.20891322
C0M740,六腳,2026-07-27,23.492871,120.290625,0.062135972
C1R250,力里,2026-07-27,22.428117,120.629228,0.08960964
C0K330,虎尾,2026-07-27,23.719183,120.442036,0.24714072
C2FA00,烏石坑,2026-07-27,24.273503,120.947617,0.98919755
C0V620,永安,2026-07-27,22.82315,120.236856,0.09058255
C1I330,楓樹林,2026-07-27,23.986803,121.076117,0.72881633
C0W200,湖西,2026-07-27,23.596314,119.67275,0.53854185
72Q010,高雄農改場,2026-07-27,22.709333,120.525889,0.02059637
C2K301,鹿南,2026-07-27,23.643341,120.3683,0.10351256
C0C680,龜山,2026-07-27,25.02846,121.38656,0.9880101
C2V260,月眉,2026-07-27,22.971003,120.539853,0.03734178
C0V450,鳳森,2026-07-27,22.545064,120.392592,0.066442385
C0FA90,小雪山林道,2026-07-27,24.29515,121.03651,0.026073076
C0U720,南山,2026-07-27,24.43742,121.38167,0.9289061
A2N290,臺南蘭花園區,2026-07-27,23.340258,120.379661,0.097157404
C0R560,新園,2026-07-27,22.5434,120.461558,0.056683946
C0U890,三星,2026-07-27,24.66812,121.65302,0.8175805
C1V300,御油山,2026-07-27,23.001983,120.715364,0.40379438
C0U600,礁溪,2026-07-27,24.817539,121.765608,0.6260672
C1T980,龍澗,2026-07-27,24.023289,121.411328,0.8106582
C0R700,枋山,2026-07-27,22.247814,120.660794,0.055291902
C0D670,海天一線,2026-07-27,24.831986,120.914438,0.99279356
C0SA00,歷坵,2026-07-27,22.520969,120.89185,0.023600513
C0M710,東石,2026-07-27,23.458927,120.15385,0.08686741
C0M780,鹿草,2026-07-27,23.41134,120.30835,0.065298945
C0U520,雙連埤,2026-07-27,24.753033,121.641303,0.9941876
C0B010,七堵,2026-07-27,25.094819,121.71713,0.18410164
C0R480,長治,2026-07-27,22.693128,120.542622,0.023861593
C1V830,國三S383K,2026-07-27,22.781967,120.426475,0.019974064
12Q980,恆春工作站,2026-07-27,22.079678,120.714425,0.72463125
C1O940,東山服務區,2026-07-27,23.286016,120.398472,0.099727616
C1U840,東澳嶺,2026-07-27,24.5378,121.8485,0.9781887
C1D630,飛鳳山,2026-07-27,24.766464,121.119178,0.99556
C0S940,石寧山,2026-07-27,23.223772,121.406639,0.29086047
C0K410,北港,2026-07-27,23.573957,120.292802,0.06716929
C2M620,瑞里,2026-07-27,23.545133,120.675197,0.951264
C0SB70,小港漁港,2026-07-27,23.158558,121.400431,0.17959726
C2O950,安南,2026-07-27,23.076694,120.144861,0.06329813
C0F0E0,南湖圈谷,2026-07-27,24.363714,121.444667,0.0019110406
467610,成功,2026-07-27,23.097486,121.373428,0.14277793
C0G890,伸港,2026-07-27,24.148933,120.484403,0.21779776
C2E540,龍溪,2026-07-27,24.606489,120.783933,0.8296599
C1V200,梅山,2026-07-27,23.268447,120.823556,0.9438503
C0T9H0,加路蘭山,2026-07-27,23.682947,121.5274,0.92870015
C2O930,玉井,2026-07-27,23.126042,120.46055,0.09460547
C1F911,新伯公,2026-07-27,24.221361,120.841069,0.9963693
C0X200,左鎮,2026-07-27,23.056758,120.408522,0.03803993
C2TB50,麻汝,2026-07-27,23.42554,121.39358,0.34334922
C0FA60,鞍馬山工作站,2026-07-27,24.267064,121.000793,0.49773943
C0SB50,叭嗡嗡,2026-07-27,23.047062,121.343223,0.14047243
C2R550,新埤,2026-07-27,22.467947,120.582894,0.06300169
C1F891,稍來,2026-07-27,24.265689,121.001142,0.52418894
C2M9C0,紫雲,2026-07-27,23.494914,120.540253,0.5424357
72N240,七股研究中心,2026-07-27,23.081672,120.062894,0.0630455
C0C700,中壢,2026-07-27,24.977661,121.256375,0.9910847
C0M690,水上,2026-07-27,23.419734,120.388909,0.29314327
C0V690,鼓山,2026-07-27,22.623325,120.275575,0.12906836
C0O860,大內,2026-07-27,23.11885,120.36083,0.049158275
C0Z200,萬榮,2026-07-27,23.709219,121.420106,0.12374444
C0T9D0,和中,2026-07-27,24.26676,121.74103,0.6353034
C2S9A0,北份子寮,2026-07-27,22.78561,121.07813,0.36265227
C1O921,楠西,2026-07-27,23.183511,120.484083,0.10237052
C0AJ30,淡水觀海,2026-07-27,25.184591,121.408616,0.2906294
C0V810,左營,2026-07-27,22.67491,120.28491,0.13260235
C0UA70,桃源谷,2026-07-27,24.962606,121.888875,0.804518
C0X130,官田,2026-07-27,23.193217,120.315422,0.0543203
C1H000,翠峰,2026-07-27,24.109397,121.205211,0.16820066
C0UA90,石城,2026-07-27,24.980444,121.951214,0.42097282
C1E681,南勢山,2026-07-27,24.421669,120.923831,0.9973454
C0A9F0,內湖,2026-07-27,25.079422,121.57545,0.48370016
C0K291,宜梧,2026-07-27,23.536281,120.169329,0.08466875
C1K540,口湖,2026-07-27,23.585344,120.180517,0.0842084
C0R780,滿州,2026-07-27,22.024403,120.839892,0.8795035
C0V870,文安,2026-07-27,22.8025,120.2164,0.090202995
C0U650,玉蘭,2026-07-27,24.675286,121.587061,0.09100523
C0R640,東港,2026-07-27,22.46247,120.44074,0.05585659
C0AJ80,板橋,2026-07-27,25.0107,121.4489,0.57772964
C0S660,下馬,2026-07-27,23.150427,121.070312,0.48602575
C2N190,烏樹,2026-07-27,23.32393,120.36989,0.060001552
C1H9B1,阿眉,2026-07-27,24.1263,120.994672,0.86428696
C0UA20,多加屯,2026-07-27,24.368614,121.373189,0.10920104
C0E730,頭份,2026-07-27,24.688247,120.912206,0.99324423
72V140,高改旗南分場,2026-07-27,22.857861,120.516667,0.01807168
C2R490,九如,2026-07-27,22.74049,120.490555,0.02059637
C0K480,莿桐,2026-07-27,23.761192,120.502372,0.24077429
C0U980,坪林石牌,2026-07-27,24.86478,121.77396,0.9923478
C0T900,西林,2026-07-27,23.8119,121.441458,0.13226348
C1I150,青雲,2026-07-27,23.793361,120.949378,0.49873853
C2E980,和興,2026-07-27,24.505319,120.923016,0.9959915
467350,澎湖,2026-07-27,23.565503,119.563094,0.6253168
C0G800,埔鹽,2026-07-27,24.000394,120.431683,0.20707525
C0H960,草屯,2026-07-27,23.973672,120.68085,0.289646
C1V780,多納林道,2026-07-27,22.888028,120.737917,0.8888234
C0E920,通霄漁港,2026-07-27,24.498589,120.673876,0.8025404
C0Z330,安通山,2026-07-27,23.290728,121.348528,0.15594411
C0AH10,永和,2026-07-27,25.01125,121.508111,0.5537757
C0AK10,太平里,2026-07-27,25.134937,121.364899,0.57532793
C2G640,鹿港,2026-07-27,24.0753,120.430481,0.20843711
C1E890,國三N149K,2026-07-27,24.463414,120.680019,0.90204865
C1M870,國三N285K,2026-07-27,23.550319,120.505833,0.6140598
C1E480,鳳美,2026-07-27,24.554803,121.034747,0.9939935
C0T9M0,靜浦,2026-07-27,23.455167,121.495028,0.2383553
C2H9M0,發祥,2026-07-27,24.154094,121.164517,0.9905788
C2G9C0,埔南,2026-07-27,23.99124,120.46969,0.20707525
C0AI40,石牌,2026-07-27,25.115597,121.513139,0.48370016
C1F871,上谷關,2026-07-27,24.203483,121.018644,0.98919755
C2H9G0,百勝,2026-07-27,24.051142,120.909361,0.98533964
C0G880,二水,2026-07-27,23.810742,120.6173,0.2765704
C0R940,加祿堂,2026-07-27,22.3363,120.6217,0.0388329
C0W220,北竿,2026-07-27,26.220358,119.974881,0.99118763
C0O960,崎頂,2026-07-27,22.959547,120.369317,0.04843528
C0TA40,秀林,2026-07-27,24.302864,121.731144,0.9912012
C0S750,向陽,2026-07-27,23.248397,120.986133,0.39580932
C0T9F0,水璉,2026-07-27,23.797131,121.542514,0.16463375
C1M600,頭凍,2026-07-27,23.406364,120.603339,0.82363296
467660,臺東,2026-07-27,22.752211,121.154586,0.47890967
C1D380,新埔,2026-07-27,24.84745,121.03834,0.9934435
C2G980,田頭村,2026-07-27,23.8263,120.444175,0.22194457
C0V750,路竹,2026-07-27,22.854997,120.259439,0.09158333
C0N050,蚵寮,2026-07-27,23.301,120.1104,0.0640565
C2X060,下營,2026-07-27,23.226806,120.256291,0.05457586
72M700,南改鹿草分場,2026-07-27,23.416869,120.283061,0.06545769
C1SA50,利嘉林道,2026-07-27,22.82325,121.009389,0.4181014
C0UB70,太平山中間站,2026-07-27,24.542003,121.513453,0.14850673
C0A940,金山,2026-07-27,25.223628,121.643967,0.28859782
C1V340,大津,2026-07-27,22.888322,120.645986,0.04628762
C0W180,七美,2026-07-27,23.219333,119.444892,0.7004056
C1F9C1,白冷,2026-07-27,24.182844,120.929889,0.991236
K2E710,苗改生物防治研究中心,2026-07-27,24.422861,120.871833,0.988654
C0N040,蘆竹溝,2026-07-27,23.2344,120.0961,0.06399064
C0TB40,崇德,2026-07-27,24.166144,121.657414,0.5338717
C0D760,大坪苗圃,2026-07-27,24.5362,121.1108,0.98515993
C2D430,峨眉,2026-07-27,24.6905,121.017189,0.9930201
C2W230,畜試所澎湖,2026-07-27,23.628342,119.513206,0.6182456
C0R880,後壁湖,2026-07-27,21.9457,120.7457,0.8354299
C1I280,埔中,2026-07-27,23.820778,120.642594,0.40799135
467790,墾丁雷達站,2026-07-27,21.948235,120.808028,0.911358
C0W190,望安,2026-07-27,23.380564,119.494075,0.70248353
C0Z170,卓溪,2026-07-27,23.3443,121.3029,0.09949884
C0F850,東勢,2026-07-27,24.246428,120.833047,0.99609965
466900,淡水,2026-07-27,25.164889,121.448906,0.2706429
C0I370,魚池,2026-07-27,23.895703,120.94135,0.99045193
C0C630,大溪,2026-07-27,24.882853,121.265547,0.9945191
C0A520,山佳,2026-07-27,24.974944,121.402008,0.6225203
C0I110,竹山,2026-07-27,23.761225,120.688156,0.087960854
82H840,茶改南部分場,2026-07-27,23.762528,120.7405,0.26565242
C2SD80,再來山,2026-07-27,23.34371,121.44122,0.3242178
C0G660,溪湖,2026-07-27,23.94835,120.479122,0.17949279
C1T800,洛韶,2026-07-27,24.204558,121.453956,0.81514883
C1T810,慈恩,2026-07-27,24.192044,121.388386,0.368325
C1E451,象鼻,2026-07-27,24.368617,120.940228,0.9973454
C0AC60,三峽,2026-07-27,24.939025,121.369728,0.97755396
C0I490,萬大林道,2026-07-27,23.928228,121.091411,0.47657287
C1I290,豐丘,2026-07-27,23.668178,120.887417,0.86638445
C1I320,奧萬大,2026-07-27,23.952956,121.178556,0.49708185
C2M910,嘉義大學,2026-07-27,23.471325,120.485903,0.38958713
C0U770,南澳,2026-07-27,24.44935,121.81022,0.11610953
C2TB30,吉安,2026-07-27,23.94538,121.54803,0.1086741
C0A980,社子,2026-07-27,25.109508,121.469681,0.48581153
C0V800,六龜,2026-07-27,22.997889,120.633583,0.07505315
C1G9D0,國一S218K,2026-07-27,23.890641,120.493253,0.1995016
C0E570,白沙屯,2026-07-27,24.549447,120.696803,0.84874797
C2F9A0,中竹林,2026-07-27,24.103556,120.751061,0.9841844
C0FA40,臺中電廠,2026-07-27,24.2146,120.4907,0.23848349
C2G9A0,畜試所彰化,2026-07-27,23.86045,120.557964,0.22061905
C0H9C0,合歡山,2026-07-27,24.143442,121.272547,0.008317544
G2M350,農試溪口農場,2026-07-27,23.58565,120.408111,0.29504013
C0U860,頭城,2026-07-27,24.85323,121.8308,0.5809199
C0R580,南州,2026-07-27,22.48591,120.50274,0.074283324
C0G780,秀水,2026-07-27,24.03405,120.503869,0.18493608
72N100,臺南農改場,2026-07-27,23.0605,120.342194,0.049527157
C0S900,蘭嶼高中,2026-07-27,22.04909,121.51214,0.9172989
C2TA60,六十石,2026-07-27,23.22477,121.31861,0.9665372
C1F9W0,德基,2026-07-27,24.254783,121.190261,0.6534475
C2M980,安和,2026-07-27,23.51377,120.31593,0.062135972
C1Z120,壽豐,2026-07-27,23.870853,121.508081,0.107262075
C0W160,烏坵,2026-07-27,24.9944,119.44956,0.7430638
C1I550,國六W023K,2026-07-27,23.979067,120.867742,0.96224743
C0R870,興海,2026-07-27,21.9752,120.8439,0.8659656
C0R140,瑪家,2026-07-27,22.682903,120.686639,0.018948749
C0A530,坪林,2026-07-27,24.938183,121.70975,0.5154841
C0X260,後壁,2026-07-27,23.366358,120.362326,0.05767132
C0Z230,和平,2026-07-27,24.30717,121.77007,0.6485541
C0G770,福興,2026-07-27,24.041289,120.437669,0.20707525
C0H9A0,神木村,2026-07-27,23.532742,120.843667,0.7740977
C0I460,南投,2026-07-27,23.911469,120.687331,0.2821355
C0I480,梅峰,2026-07-27,24.085272,121.173572,0.40933055
C2D770,巨埔,2026-07-27,24.84435,121.11442,0.99207443
C2A560,福山,2026-07-27,24.776203,121.502811,0.085602246
C0AH30,五分山,2026-07-27,25.07125,121.780794,0.9870987
C0FA10,松柏,2026-07-27,24.429115,120.617482,0.78146446
72S200,東改班鳩分場,2026-07-27,22.829528,121.077694,0.88183177
72HA00,中改埔里分場,2026-07-27,23.903208,120.963364,0.9906779
C2H9W0,大坪頂農水,2026-07-27,24.043122,120.932781,0.98843235
C0C650,平鎮,2026-07-27,24.897503,121.214636,0.9945763
C0S930,延平,2026-07-27,22.902581,121.084058,0.24976595
C0UA60,樟樹山,2026-07-27,24.41393,121.78325,0.5588862
C2UC10,出水溪,2026-07-27,24.615822,121.652253,0.80484515
C1S670,摩天,2026-07-27,23.199503,121.027,0.5975849
C2C590,觀音,2026-07-27,25.027072,121.153317,0.99360013
C0V630,茄萣,2026-07-27,22.906642,120.182608,0.06501378
466940,基隆,2026-07-27,25.133314,121.740475,0.16090237
C0X050,東河,2026-07-27,23.296598,120.385608,0.09715723
C0R770,保力,2026-07-27,22.071122,120.764111,0.89819044
G2L020,農試嘉義分所,2026-07-27,23.485028,120.473806,0.41668177
C0X240,關子嶺,2026-07-27,23.331169,120.508025,0.6868009
C0I380,集集,2026-07-27,23.828206,120.801467,0.108118966
466990,花蓮,2026-07-27,23.975128,121.613275,0.03937069
C1V220,小關山,2026-07-27,23.154217,120.813603,0.38115144
C1F9G1,慶福山,2026-07-27,24.180853,120.848378,0.9945998
C0FB20,雪山橋,2026-07-27,24.23192,120.9786,0.63420165
C0Z250,瑞穗林道,2026-07-27,23.49284,121.30688,0.5909736
C0D590,新豐,2026-07-27,24.87068,120.97721,0.9969501
C2N200,口宵里,2026-07-27,23.15987,120.45988,0.23916453
C0A870,五指山,2026-07-27,25.132153,121.608692,0.99084127
C0UA50,西帽山,2026-07-27,24.555361,121.802628,0.97576016
C2R980,竹田國中,2026-07-27,22.61532,120.52412,0.046843693
C0X160,仁德,2026-07-27,22.968258,120.257689,0.049930185
C1H971,六分寮,2026-07-27,23.92507,120.6378,0.9887713
C2D790,石鹿,2026-07-27,24.56551,121.15841,0.9797289
C0W120,西嶼,2026-07-27,23.5626,119.468436,0.6070799
C0G650,員林,2026-07-27,23.946503,120.585597,0.17929508
C0AD50,鶯歌,2026-07-27,24.951533,121.346294,0.98494047
C2H9Q0,北東眼山,2026-07-27,24.120939,121.189303,0.46412048
C2H9T0,名間竹圍,2026-07-27,23.859914,120.637572,0.15117358
C0S990,山豬窟,2026-07-27,22.318619,120.857372,0.6214838
C0X190,安平,2026-07-27,22.993161,120.152181,0.051001538
C0K400,斗六,2026-07-27,23.720583,120.541127,0.2515749
12J990,口湖工作站,2026-07-27,23.589978,120.180394,0.08420835
C0O830,北寮,2026-07-27,23.079561,120.495008,0.038881302
C1D410,白蘭,2026-07-27,24.579364,121.079947,0.9913446
C0S970,加津林,2026-07-27,22.416211,120.926942,0.9616374
C0D700,關西,2026-07-27,24.7977,121.1732,0.83813584
C0U750,龜山島,2026-07-27,24.841667,121.953133,0.3856852
C0R810,內獅,2026-07-27,22.305064,120.642986,0.055291902
C2EA10,拉庫斯,2026-07-27,24.53637,121.02137,0.9953014
C1M390,龍美,2026-07-27,23.406728,120.654417,0.96017116
C2K290,崙內,2026-07-27,23.69525,120.35601,0.10351256
C2FB60,頭櫃山,2026-07-27,24.129842,120.858925,0.9806047
C1H840,國三N238K,2026-07-27,23.841008,120.707711,0.1094778
CAQ030,崎峰國小,2026-07-27,22.42565,120.49521,0.074283324
C2E520,大湖,2026-07-27,24.414939,120.870872,0.9902699
467530,阿里山,2026-07-27,23.508208,120.813242,0.3716707
C1E691,南湖,2026-07-27,24.40135,120.837533,0.99459845
C0FA30,梧棲,2026-07-27,24.256003,120.523381,0.24038845
C1V231,高中,2026-07-27,23.134911,120.716711,0.9561765
C0AK30,硬漢嶺,2026-07-27,25.136097,121.426372,0.99271244
C0F9V0,新社,2026-07-27,24.200172,120.815806,0.99677294
C0H890,埔里,2026-07-27,23.972169,120.952425,0.9781347
C0R690,墾丁,2026-07-27,21.966756,120.810269,0.9819414
C0SD20,富山,2026-07-27,22.822383,121.190825,0.20872346
C0F0D0,審馬陣,2026-07-27,24.381675,121.4203,0.12808171
C2W030,金門農試所,2026-07-27,24.448431,118.451786,0.66753304
C0R820,白鷺,2026-07-27,22.454275,120.666219,0.020374825
C0FB00,大雪山,2026-07-27,24.254668,121.007374,0.48759884
C2O880,南化,2026-07-27,23.17332,120.59413,0.22909173
C1V190,南天池,2026-07-27,23.27403,120.91176,0.24282017
C0E940,雪見,2026-07-27,24.42595,121.01347,0.8204205
K2E360,苗栗農改場,2026-07-27,24.495722,120.829111,0.933312
CAJ050,海口故事園區,2026-07-27,23.57543,120.14121,0.08420835
C2K280,四湖,2026-07-27,23.6304,120.22717,0.10211859
C2H9D0,三隻寮,2026-07-27,24.093078,120.861578,0.9941131
C0O990,媽廟,2026-07-27,22.99175,120.293525,0.05061306
C0Z220,和平林道,2026-07-27,24.343922,121.656317,0.5418734
C0TA10,花蓮漁港,2026-07-27,23.995322,121.638331,0.24705894
72C440,桃園農改場,2026-07-27,24.950944,121.030583,0.9922986
C1E711,馬拉邦山,2026-07-27,24.367306,120.901656,0.9973649
C0SB20,富岡,2026-07-27,22.792467,121.192669,0.21202192
C0D560,竹東,2026-07-27,24.767147,121.057881,0.992164
C0F9U0,南屯,2026-07-27,24.137006,120.637969,0.7944698
C2SD60,明峰,2026-07-27,22.8671,121.11825,0.908566
C0M720,番路,2026-07-27,23.464657,120.554156,0.92069817
C0F0A0,雪山圈谷,2026-07-27,24.388594,121.236339,0.016986106
C1A9N0,四十份,2026-07-27,24.934158,121.593283,0.9953183
C0U760,東澳,2026-07-27,24.52196,121.83318,0.13120909
C0X230,鹽水,2026-07-27,23.272621,120.247641,0.06601585
C2H9H0,苗改南投蜂場,2026-07-27,23.852589,120.693481,0.09096846
C2TB70,達谷寮,2026-07-27,23.38,121.35968,0.26911485
C0R950,萬隆國小,2026-07-27,22.507667,120.587817,0.06978451
467540,大武,2026-07-27,22.35572,120.90374,0.032936376
C0V370,古亭坑,2026-07-27,22.893178,120.401947,0.03333084
C1I340,新興橋,2026-07-27,23.563333,120.868728,0.9666793
C2C480,桃園,2026-07-27,24.992425,121.323172,0.98904884
C0SA80,土坂,2026-07-27,22.453108,120.887572,0.037333366
C0R160,鹽埔,2026-07-27,22.739558,120.530778,0.02059637
C0AC40,大屯山,2026-07-27,25.175675,121.522408,0.98106384
466850,五分山雷達站,2026-07-27,25.071182,121.781205,0.98829067
C2H9L0,馬烈霸,2026-07-27,24.1512,121.201772,0.6297598
C1AI50,國三N016K,2026-07-27,25.034164,121.619664,0.6524849
C2V920,匏子寮,2026-07-27,23.04905,120.55319,0.06123127
C1V600,藤枝,2026-07-27,23.071961,120.757042,0.48447397
C1E601,南勢,2026-07-27,24.572486,120.734842,0.96101606
C0O980,新市,2026-07-27,23.061614,120.298197,0.048581634
C0K420,西螺,2026-07-27,23.800407,120.467394,0.23862375
C0Z050,佳心,2026-07-27,23.34567,121.21316,0.87667423
C0AD30,蘆洲,2026-07-27,25.086594,121.472331,0.49279517
C0V610,梓官,2026-07-27,22.760558,120.267211,0.090916045
K2F750,種苗改良場,2026-07-27,24.225972,120.800917,0.996591
C0UA80,大溪漁港,2026-07-27,24.941801,121.902955,0.64323413
C1AI60,國一39K邊坡,2026-07-27,25.064361,121.383836,0.97748125
C0W150,金寧,2026-07-27,24.457703,118.328989,0.39376777
C0R960,內埔,2026-07-27,22.608483,120.570714,0.048168648
C2H9S0,龍南,2026-07-27,23.953536,120.833183,0.9871637
C0AH40,平等,2026-07-27,25.129142,121.577086,0.9890735
C0R540,佳冬,2026-07-27,22.419456,120.552375,0.076885074
466950,彭佳嶼,2026-07-27,25.627975,122.079744,0.8888186
C0A890,雙溪,2026-07-27,25.036003,121.864242,0.16742119
C0AH50,林口,2026-07-27,25.072181,121.38084,0.9886759
A2K360,水試臺西試驗場,2026-07-27,23.717231,120.190522,0.09464206
C2M960,外寮,2026-07-27,23.562643,120.665688,0.96578526
C0F9S0,烏日,2026-07-27,24.107058,120.624103,0.23628466
C2N180,鹿陶洋,2026-07-27,23.14325,120.48352,0.10237052
C0C490,八德,2026-07-27,24.928708,121.283289,0.9931729
C0R190,赤山,2026-07-27,22.592333,120.614306,0.04858668
C0T820,天祥,2026-07-27,24.179597,121.495639,0.025256414
C1F9E1,龍安,2026-07-27,24.1605,120.831961,0.9968038
C2SD50,順那,2026-07-27,23.04166,121.29332,0.18204643
C0V820,小林,2026-07-27,23.148408,120.63325,0.8772226
C2G870,芳苑,2026-07-27,23.922303,120.320025,0.12023076
C0E850,大河,2026-07-27,24.618069,120.948578,0.9934016
C1U670,寒溪,2026-07-27,24.634,121.71691,0.8006664
C0N020,城西,2026-07-27,23.0568,120.0956,0.06362244
C1Z110,三棧,2026-07-27,24.11557,121.60501,0.1352706
C0R280,檳榔,2026-07-27,22.076078,120.836777,0.96654195
C2H9J0,中台,2026-07-27,23.9996,120.938739,0.9890175
C0F9L0,后里,2026-07-27,24.310436,120.729725,0.9919324
467441,高雄,2026-07-27,22.730432,120.312516,0.081476405
C2N210,岩坑,2026-07-27,23.24614,120.47458,0.13166644
C0Z180,新城,2026-07-27,24.040486,121.604878,0.039743
C0D540,橫山,2026-07-27,24.71116,121.11693,0.99414366
C1D420,太閣南,2026-07-27,24.632808,121.160575,0.9623198
C1E770,公館,2026-07-27,24.526914,120.830806,0.9184664
CAN130,水試所海水繁養殖中心,2026-07-27,23.120802,120.07968,0.0630455
C1I430,翠華,2026-07-27,24.191961,121.224339,0.3349567
C1M400,菜瓜坪,2026-07-27,23.251928,120.576103,0.8313994
C0G730,二林,2026-07-27,23.903325,120.376081,0.20382015
72M360,南改義竹分場,2026-07-27,23.360694,120.279361,0.067133084
V2K620,麥寮合作社,2026-07-27,23.753836,120.294783,0.08696701
C0Z070,舞鶴,2026-07-27,23.46811,121.37407,0.35738638
C0B040,大武崙,2026-07-27,25.166676,121.706993,0.31926656
C1Z030,紅葉,2026-07-27,23.493119,121.338806,0.3191985
C1I050,丹大,2026-07-27,23.753747,121.141147,0.018561883
C0I080,信義,2026-07-27,23.689694,120.851036,0.9033289
C2TB80,庄子底,2026-07-27,23.71794,121.49438,0.110323146
C0D750,樂山林道6k,2026-07-27,24.49999,121.08773,0.79688644
C2M920,朴子農改,2026-07-27,23.469889,120.259383,0.06560725
C2A880,福隆,2026-07-27,25.017842,121.942083,0.40279213
C0Z160,鳳林,2026-07-27,23.746114,121.453411,0.112205744
C0UB80,翠峰林道6K,2026-07-27,24.49773,121.568625,0.49504614
C0V210,復興,2026-07-27,23.222403,120.806089,0.95649344
C0H990,昆陽,2026-07-27,24.121322,121.273642,0.006092706
C0R741,獅子,2026-07-27,22.202308,120.705236,0.054811206
C0S710,鹿野,2026-07-27,22.917711,121.122994,0.47944054
C0I530,小奇萊,2026-07-27,24.131764,121.295717,0.01299941
C0FA70,大雪山埡口,2026-07-27,24.26867,121.03062,0.18165472
C2K630,荷苞,2026-07-27,23.657717,120.595144,0.53076786
C0Z080,富源,2026-07-27,23.587642,121.378225,0.36190432
C2M9E0,旺來山,2026-07-27,23.555153,120.486463,0.6493294
C0SB10,美和,2026-07-27,22.682078,121.060236,0.13397051
C2K620,馬光農場,2026-07-27,23.721453,120.378864,0.23007919
C1I140,卡奈托灣,2026-07-27,23.754364,121.087872,0.5054908
C0I520,玉山風口,2026-07-27,23.470489,120.955994,0.0025016158
C1G691,下水埔,2026-07-27,23.816114,120.5676,0.25009307
C0X110,臺南市南區,2026-07-27,22.961189,120.188378,0.049705677
C0V680,仁武,2026-07-27,22.701083,120.347722,0.081476405
C2G840,北斗,2026-07-27,23.877586,120.514222,0.20863698
C2TB90,長橋,2026-07-27,23.6874,121.46186,0.112980306
C0R900,竹坑,2026-07-27,22.1385,120.7022,0.047121473
C0G860,社頭,2026-07-27,23.897647,120.5862,0.19463457
C0X150,安定,2026-07-27,23.102614,120.227839,0.044910256
C0R590,里港,2026-07-27,22.77919,120.49459,0.017585935
C0E610,馬都安,2026-07-27,24.451272,120.930192,0.99756235
C0E550,明德,2026-07-27,24.583486,120.885411,0.8668215
C0R150,三地門,2026-07-27,22.709889,120.639944,0.025119029
C0G910,花壇,2026-07-27,24.032076,120.549461,0.19346927
C1D400,鳥嘴山,2026-07-27,24.71909,121.28387,0.9931506
C0F0B0,石岡,2026-07-27,24.276061,120.777644,0.99478185
C2V250,甲仙,2026-07-27,23.080106,120.591758,0.08863875
C0SA20,金崙山,2026-07-27,22.567419,120.959667,0.78878576
C0V350,溪埔,2026-07-27,22.738578,120.446797,0.019033344
C0M660,溪口,2026-07-27,23.604131,120.403569,0.29504013
C1S880,壽卡,2026-07-27,22.238911,120.858903,0.9050589
72D680,桃改新埔分場,2026-07-27,24.834444,121.066111,0.99314356
