站號,站名,日期,lat,lon,BlastGRU-TW
C0R710,龍磐,2026-02-03,21.931672,120.838942,0.0008119394
C1F9D1,白毛台,2026-02-03,24.158325,120.886933,0.0019472648
C0G940,竹塘,2026-02-03,23.848253,120.386764,0.0011679132
467590,恆春,2026-02-03,22.003897,120.746339,0.00011538492
C1O850,環湖,2026-02-03,23.148617,120.418633,0.004058825
C0U710,太平山,2026-02-03,24.505486,121.525656,0.00034502355
C0E820,獅潭,2026-02-03,24.539133,120.920042,0.0016753912
C2SD70,二層坪,2026-02-03,22.94105,121.16838,0.002662648
C0V880,興達,2026-02-03,22.8778,120.2127,0.0088892765
C0S890,關山,2026-02-03,23.0395,121.175017,0.0034120963
C0SB30,新蘭,2026-02-03,22.869214,121.223228,0.002045729
C2R970,屏科大,2026-02-03,22.648275,120.619247,0.041981433
C1Z130,銅門,2026-02-03,23.965694,121.492842,0.0015655913
C0AD40,土城,2026-02-03,24.973208,121.445169,0.0015307618
CAN140,六官養殖協會,2026-02-03,23.22881,120.29962,0.0128745
C0X180,山上,2026-02-03,23.0757,120.363253,0.0119200125
C0F9Z0,雪山東峰,2026-02-03,24.388792,121.268675,0.0004002143
C1M480,獨立山,2026-02-03,23.537022,120.607797,0.0017728776
C0X220,學甲,2026-02-03,23.230367,120.182187,0.0034299137
467650,日月潭,2026-02-03,23.881325,120.90805,0.0034640653
A2K570,古坑(花卉中心),2026-02-03,23.633531,120.552392,0.011221914
C0K600,箔子寮,2026-02-03,23.6197,120.14,0.00079840963
C0G830,埤頭,2026-02-03,23.866003,120.452806,0.0054330593
C0S950,七塊厝,2026-02-03,22.954453,121.229922,0.0025467859
467110,金門,2026-02-03,24.407306,118.289281,0.0010644925
C0AH80,深坑,2026-02-03,25.002703,121.628328,0.003360417
C0A970,三貂角,2026-02-03,25.007606,122.002058,0.0039009766
C2D730,寶山農場,2026-02-03,24.732444,120.976153,0.0028991783
C0K430,褒忠,2026-02-03,23.690938,120.303634,0.0035883475
467480,嘉義,2026-02-03,23.495925,120.432906,0.00998062
C0V400,阿公店,2026-02-03,22.804194,120.355528,0.022814805
C0E960,觀霧分站,2026-02-03,24.505781,121.113921,0.00062253216
467550,玉山,2026-02-03,23.48718,120.95943,0.00042870693
C0R440,大漢山,2026-02-03,22.405264,120.753181,0.0008125621
C0SD30,東清國小,2026-02-03,22.057128,121.564922,0.0018159022
C1F9B1,桐林,2026-02-03,24.066172,120.735194,0.006164056
C2H9U0,鳳鵬,2026-02-03,23.763919,120.788061,0.0043407474
C0K390,土庫,2026-02-03,23.679029,120.395574,0.008129756
C1I450,望鄉山,2026-02-03,23.594153,120.944286,0.0004967523
C0E910,海埔,2026-02-03,24.648767,120.772435,0.0013767955
B2E890,畜試北區分所,2026-02-03,24.527806,120.770972,0.0009857842
C0R750,四林格山,2026-02-03,22.076989,120.802439,0.0012898478
C0F0C0,中坑,2026-02-03,24.248517,120.903319,0.0020994162
C1I121,大鞍,2026-02-03,23.678381,120.760017,0.0006536614
C2G9E0,移民庄,2026-02-03,23.9784,120.40283,0.0010019859
72U480,花改蘭陽分場,2026-02-03,24.686306,121.716583,0.0016768377
C0A770,科教館,2026-02-03,25.096356,121.516507,0.0034955682
C0AJ60,六塊厝,2026-02-03,25.24,121.4481,0.0014381709
C0R620,墾雷,2026-02-03,21.900836,120.855269,0.0007964211
467420,永康,2026-02-03,23.038386,120.2367,0.02325774
C2M530,奮起湖,2026-02-03,23.493903,120.699253,0.0009095105
C0I410,名間,2026-02-03,23.837053,120.701447,0.010076517
A2C560,農工中心,2026-02-03,24.985917,121.239833,0.0016756073
C0V740,旗山,2026-02-03,22.888614,120.483597,0.019247502
C0Z061,玉里,2026-02-03,23.3215,121.339656,0.0010350443
C0S840,南田,2026-02-03,22.279725,120.889208,0.015042687
C1I470,杉林溪,2026-02-03,23.639517,120.786444,0.00054701196
C1X040,東原,2026-02-03,23.291597,120.463822,0.0031122454
C0R660,枋寮,2026-02-03,22.367722,120.590647,0.03638898
C1R120,上德文,2026-02-03,22.763272,120.704442,0.0057075443
C0K450,大埤,2026-02-03,23.646074,120.431537,0.013781663
C0UA00,土場,2026-02-03,24.576533,121.495333,0.0017766503
467080,宜蘭,2026-02-03,24.763975,121.756528,0.0009895148
C0N030,四草,2026-02-03,23.0235,120.1116,0.0024927896
467410,臺南,2026-02-03,22.99328,120.20492,0.005211748
C0V650,彌陀,2026-02-03,22.783806,120.246361,0.02423552
C0D660,新竹市東區,2026-02-03,24.798681,120.986942,0.001913303
82S580,茶改東部分場,2026-02-03,22.907694,121.130139,0.001857753
C0SB40,興隆,2026-02-03,22.913661,121.257469,0.0027389224
467050,新屋,2026-02-03,25.006725,121.047492,0.0011941248
C0C710,大溪永福,2026-02-03,24.892936,121.324975,0.00032168857
C0FA20,溫寮,2026-02-03,24.372177,120.583125,0.0006124271
C0V640,湖內,2026-02-03,22.887139,120.2445,0.00902182
C0R910,下寮,2026-02-03,22.3929,120.5548,0.06994523
C0Z020,明里,2026-02-03,23.208717,121.262342,0.00127695
C0M770,嘉義梅山,2026-02-03,23.585398,120.555587,0.0055949125
C0C660,楊梅,2026-02-03,24.912375,121.143047,0.0018092223
C0SD40,牛頭山,2026-02-03,22.676661,121.506944,0.00097041565
C1E511,新開,2026-02-03,24.347703,120.827019,0.0035278879
G2F820,農試所(霧峰),2026-02-03,24.031261,120.688133,0.0076356707
C2M990,大巃頂,2026-02-03,23.5547,120.61439,0.0013196492
C1I070,和社,2026-02-03,23.591131,120.888861,0.004567356
C2E990,新坪頂,2026-02-03,24.30201,120.8574,0.0030690185
C0TA80,立霧山,2026-02-03,24.183258,121.641899,0.00047813795
C2F000,大肚,2026-02-03,24.15295,120.572117,0.0023559693
C1S850,豐南,2026-02-03,23.122139,121.262389,0.004676462
C2M9B0,西興,2026-02-03,23.2428,120.57617,0.01205369
C2A920,富貴角,2026-02-03,25.263783,121.565258,0.0003328463
CAH030,茶改場竹圍站,2026-02-03,23.860083,120.637528,0.0055846474
C0T960,光復,2026-02-03,23.660694,121.424964,0.01050389
C0F9M0,豐原,2026-02-03,24.254322,120.720692,0.002694105
C0R720,旭海,2026-02-03,22.205403,120.887614,0.0039703967
C0V710,苓雅,2026-02-03,22.622742,120.330669,0.0822508
C0C740,觀音工業區,2026-02-03,25.064764,121.114856,0.0007287856
CAC040,拉拉山,2026-02-03,24.699317,121.427133,0.00025729084
C0V790,萬山,2026-02-03,22.905944,120.688056,0.0035476042
U2HA30,臺大和社,2026-02-03,23.590856,120.888864,0.004567356
C2H9K0,屯原,2026-02-03,24.067969,121.209389,0.00088210235
C0AJ90,澳底,2026-02-03,25.0552,121.9253,0.008321892
C0Z100,東華,2026-02-03,23.89525,121.549833,0.0022262733
C0G970,三豐,2026-02-03,23.882,120.2895,0.00047985473
V2K610,大庄合作社,2026-02-03,23.8068,120.367939,0.0020298238
C0V900,汕尾,2026-02-03,22.4782,120.4151,0.08777137
C1R630,龍泉,2026-02-03,22.66701,120.59091,0.04144114
C1AC50,關渡,2026-02-03,25.133486,121.469331,0.0022674114
C0C800,四稜,2026-02-03,24.64733,121.4293,0.0006773404
C0F9I0,神岡,2026-02-03,24.272481,120.658314,0.0019224947
C0K460,斗南,2026-02-03,23.678734,120.478359,0.01403056
C2O810,曾文,2026-02-03,23.219681,120.497328,0.00426361
467280,後龍,2026-02-03,24.648563,120.831834,0.0012451771
C1F9J1,清水林,2026-02-03,24.071242,120.820419,0.0019460012
C2A650,火燒寮,2026-02-03,25.002719,121.742892,0.0007182012
466930,竹子湖,2026-02-03,25.162078,121.544547,0.0003432421
C1I220,樟湖,2026-02-03,23.905333,120.846983,0.00238333
C0I390,仁愛,2026-02-03,24.022122,121.132206,0.0017860093
C0Z300,東里,2026-02-03,23.26853,121.30547,0.0009846921
C1V590,新發,2026-02-03,23.057019,120.646064,0.0016274885
C0K510,水林,2026-02-03,23.572924,120.24597,0.003831934
72S590,東改賓朗果園,2026-02-03,22.813889,121.071278,0.004354255
82A750,茶改北部分場,2026-02-03,24.955778,121.631222,0.00043103204
C1A750,石碇服務區,2026-02-03,25.00872,121.646242,0.0018574047
C0X300,鹿寮,2026-02-03,23.386047,120.477331,0.006739545
G2AI50,關渡,2026-02-03,25.11575,121.492,0.0045529986
C0K590,雲林東勢,2026-02-03,23.674192,120.255721,0.0044378126
C2K310,港尾布雞,2026-02-03,23.74834,120.38439,0.008654518
C0A570,桶後,2026-02-03,24.848222,121.597992,0.0018693436
C1S800,華源,2026-02-03,22.657883,121.02325,0.0054959008
C0G720,溪州,2026-02-03,23.851589,120.499093,0.0055094124
C1V160,達卡努瓦,2026-02-03,23.279811,120.705319,0.0007124487
C2M410,馬頭山,2026-02-03,23.324361,120.582017,0.0025943913
C0V850,蚵仔寮,2026-02-03,22.7256,120.2527,0.025138678
C0S740,池上,2026-02-03,23.119628,121.209469,0.005512543
C1V390,尖山,2026-02-03,22.813153,120.367789,0.023997875
C0AH70,松山,2026-02-03,25.04871,121.55042,0.0035282231
C0N010,鯤鯓國小,2026-02-03,23.1879,120.0889,0.003164213
C0R550,新埤,2026-02-03,22.467947,120.582894,0.03442763
C0SA60,知本（水試所）,2026-02-03,22.702394,121.082761,0.006304078
C0T9I0,豐濱,2026-02-03,23.583897,121.514806,0.0005433283
C0UB00,淡江大學蘭陽校園,2026-02-03,24.823239,121.730383,0.0005695753
C0W240,九宮,2026-02-03,24.423753,118.240186,0.0011563997
C0T9N0,富里,2026-02-03,23.171639,121.249378,0.0012009444
U2HA50,臺大竹山,2026-02-03,23.756972,120.681556,0.009093519
C0V840,鳳鼻頭,2026-02-03,22.5083,120.3591,0.087203786
C0X140,西港,2026-02-03,23.125608,120.203108,0.01646687
72D080,桃改五峰分場,2026-02-03,24.612194,121.157167,0.0011780182
C2H9P0,伊拿谷,2026-02-03,23.963211,121.088264,0.005596866
C2K250,崙背,2026-02-03,23.75553,120.31893,0.0035883475
C2H9F0,柑林,2026-02-03,24.018658,120.847072,0.011292071
C0TA20,加灣,2026-02-03,24.082025,121.608944,0.0026695265
C0V530,阿蓮,2026-02-03,22.883208,120.327508,0.021180121
C0FB30,八仙山苗圃,2026-02-03,24.192719,121.001366,0.0023196982
C1O880,關山,2026-02-03,23.173397,120.594092,0.005625513
C0E791,卓蘭,2026-02-03,24.3126,120.8244,0.0030764341
C1I030,武界,2026-02-03,23.913225,121.052483,0.0019792288
C0R520,崁頂,2026-02-03,22.514781,120.506914,0.05552984
C0R341,牡丹,2026-02-03,22.130036,120.792639,0.0071554612
C0R930,萬丹,2026-02-03,22.5885,120.4851,0.074135855
C0S760,紅石,2026-02-03,23.069131,121.126219,0.0004256648
C2C410,中央大學,2026-02-03,24.967652,121.185165,0.0016520732
C1M610,石磐龍,2026-02-03,23.496606,120.663506,0.0012569292
C0C790,東眼山,2026-02-03,24.8284,121.40888,0.0001747305
C0UA10,鴛鴦湖,2026-02-03,24.590269,121.412228,0.00045019822
V2C260,八德蔬果,2026-02-03,24.978508,121.281819,0.0020630832
C0R800,丹路,2026-02-03,22.204481,120.750989,0.0007904575
C0G920,永靖,2026-02-03,23.924703,120.547533,0.0057665147
C2M950,太和,2026-02-03,23.538372,120.702961,0.00091971277
C1A630,下盆,2026-02-03,24.771003,121.538622,0.0015060769
B2N890,畜產試驗所,2026-02-03,23.058972,120.336406,0.026437165
C0UA30,白嶺,2026-02-03,24.527819,121.519031,0.00038781355
467571,新竹,2026-02-03,24.828575,121.01455,0.0011886939
C1V580,溪南(特生中心),2026-02-03,23.084972,120.788475,0.00084383466
C1T970,大農,2026-02-03,23.615233,121.413331,0.0068176757
C0R650,竹田,2026-02-03,22.58486,120.54344,0.042214427
C1H900,清流,2026-02-03,24.080775,120.962997,0.0030383882
C1C510,水尾,2026-02-03,24.940081,121.087161,0.0012341758
C2N170,茅港尾,2026-02-03,23.2061,120.2624,0.012874493
C0F9X0,大雅(中科園區),2026-02-03,24.21528,120.62445,0.0024000236
C0SB60,白守蓮,2026-02-03,23.126769,121.401914,0.0016668147
C0O970,虎頭埤,2026-02-03,23.021375,120.347878,0.015404521
C0C730,中大臨海站,2026-02-03,24.966126,121.008581,0.0015122225
C0X250,新營,2026-02-03,23.310689,120.316681,0.012794692
C0V700,三民,2026-02-03,22.645017,120.311233,0.025169112
C0U870,大礁溪,2026-02-03,24.791042,121.675047,0.00052096945
C0E870,高鐵苗栗,2026-02-03,24.60725,120.826094,0.0012537618
C0TA30,鹽寮,2026-02-03,23.845606,121.592664,0.0026038392
C0M860,新美,2026-02-03,23.338017,120.683169,0.008752324
C1E701,八卦,2026-02-03,24.491756,120.927619,0.001729612
C2TA90,加納納,2026-02-03,23.466421,121.359867,0.00062373595
C0I420,國姓,2026-02-03,24.037803,120.855072,0.010281618
C2D720,關西工作站,2026-02-03,24.757275,121.184792,0.005731263
C0S960,香蘭,2026-02-03,22.587569,120.993375,0.016857658
467620,蘭嶼,2026-02-03,22.0369,121.55843,0.0019085947
C0R260,春日,2026-02-03,22.370361,120.628306,0.031179182
72G600,臺中農改場,2026-02-03,24.003028,120.534389,0.008789713
C0Z210,瑞穗,2026-02-03,23.5239,121.39021,0.00056138274
C0M820,達邦,2026-02-03,23.453994,120.749517,0.0015055628
C0V860,南寮,2026-02-03,22.7616,120.2339,0.02500171
C0G740,大城,2026-02-03,23.852487,120.320935,0.00047923558
C0R920,塭仔,2026-02-03,22.4169,120.5197,0.070861936
C0R470,高樹,2026-02-03,22.826389,120.600806,0.0274235
C0R680,佳樂水,2026-02-03,21.993578,120.861633,0.0007918979
C1O870,大棟山,2026-02-03,23.31157,120.52226,0.0014602912
C0D360,梅花,2026-02-03,24.678347,121.208558,0.0026305264
C0Z190,富世,2026-02-03,24.14743,121.6297,0.24219571
C0AI10,屈尺,2026-02-03,24.92184,121.54475,0.0015107603
B2U990,畜試東區分所,2026-02-03,24.669039,121.832561,0.012652375
C0SB80,長濱漁港,2026-02-03,23.313644,121.459994,0.008244921
C0TA50,和仁,2026-02-03,24.241394,121.712472,0.0012136168
C0V910,大樹,2026-02-03,22.684645,120.432803,0.05592381
C1R610,西大武山,2026-02-03,22.617719,120.7322,0.00063262176
C0G900,線西,2026-02-03,24.143358,120.443536,0.0014670708
C0M700,竹崎,2026-02-03,23.526178,120.555508,0.0042442023
C2E880,三義,2026-02-03,24.405478,120.749819,0.0005350949
C0C720,竹圍,2026-02-03,25.112692,121.239824,0.0014522515
C0F9P0,清水,2026-02-03,24.312297,120.562242,0.0007395032
C0Z150,吉安光華,2026-02-03,23.930925,121.595153,0.004864822
C0FA80,小雪山天池,2026-02-03,24.28025,121.02627,0.0005088749
467300,東吉島,2026-02-03,23.25727,119.66762,0.0002841471
C1D640,外坪(五指山),2026-02-03,24.644447,121.090961,0.0014224667
C2R9A0,高士國小,2026-02-03,22.12553,120.84653,0.0072135944
C0F9O0,潭子,2026-02-03,24.213106,120.703933,0.0026427926
C2H9R0,卓社,2026-02-03,23.887894,121.000086,0.0011318086
72T250,花蓮農改場,2026-02-03,23.975222,121.563889,0.0040371134
C0E780,銅鑼,2026-02-03,24.489681,120.790853,0.00093887345
C1T950,太安,2026-02-03,23.666719,121.370128,0.0022177708
C0E830,苑裡,2026-02-03,24.439714,120.653053,0.000624994
467270,田中,2026-02-03,23.873803,120.581286,0.02959937
C0SA10,檳榔四格山,2026-02-03,22.810031,121.109308,0.003527486
C1T830,布洛灣,2026-02-03,24.17184,121.57127,0.04540548
C0F970,大坑,2026-02-03,24.173142,120.722289,0.0037265827
C1U920,思源,2026-02-03,24.393125,121.347214,0.00045376085
C2H9Y0,松茗,2026-02-03,23.8167,120.650765,0.003806063
C0A931,三和,2026-02-03,25.233153,121.595236,0.00050040334
C0I010,廬山,2026-02-03,24.033311,121.181808,0.0013628581
C2M940,日野賀,2026-02-03,23.434056,120.727169,0.0009144049
C0R860,鼻頭,2026-02-03,22.1043,120.8979,0.003056298
C0UB20,壯圍,2026-02-03,24.7359,121.8163,0.001190587
C0R790,九棚,2026-02-03,22.14195,120.889281,0.0121003585
C0W110,東莒,2026-02-03,25.9652,119.98069,0.00019637017
C1U930,粉鳥林,2026-02-03,24.497088,121.842479,0.011735921
C1I211,蘆竹湳,2026-02-03,23.934019,120.811994,0.0069671073
C0S830,長濱,2026-02-03,23.286817,121.411975,0.00083501433
C1F9F1,伯公龍,2026-02-03,24.272392,120.849047,0.006616703
C0UB90,太平山莊,2026-02-03,24.494171,121.536209,0.00034129716
C0E810,西湖,2026-02-03,24.562947,120.7485,0.00056534226
C1I440,新高口,2026-02-03,23.478744,120.878939,0.00060037815
C0O840,王爺宮,2026-02-03,23.222064,120.40085,0.013406636
C0T9G0,鳳林山,2026-02-03,23.735269,121.420131,0.01332041
C0X080,佳里,2026-02-03,23.173039,120.145086,0.0029011462
C0FB70,大甲溪埔,2026-02-03,24.370625,120.620067,0.000607367
C0Z310,清水斷崖,2026-02-03,24.218294,121.689142,0.00094112096
C0M680,太保,2026-02-03,23.455062,120.331455,0.021869825
C1S820,金峰,2026-02-03,22.590969,120.933236,0.010308768
C0AD10,八里,2026-02-03,25.150211,121.403947,0.0019696814
C2K240,草嶺,2026-02-03,23.59555,120.693461,0.0014945634
C1SA70,都蘭,2026-02-03,22.87794,121.226881,0.0020043775
C0K440,二崙,2026-02-03,23.772797,120.408944,0.0080590295
C1A760,坪林交控,2026-02-03,24.94284,121.713442,0.0007124769
C0F9N0,大里,2026-02-03,24.092464,120.701378,0.0050514545
C0SA90,達仁林場,2026-02-03,22.264347,120.823972,0.0061000595
C1R290,石門山,2026-02-03,22.112611,120.756597,0.0029484944
42HA10,萬大發電廠,2026-02-03,23.978875,121.139639,0.0023815248
C0R890,山海,2026-02-03,21.9878,120.7091,0.00011887874
C0T9A0,月眉山,2026-02-03,23.809928,121.539828,0.0004949945
C0AC70,信義,2026-02-03,25.037822,121.564597,0.004384085
C0K560,棋山,2026-02-03,23.68645,120.603417,0.016147647
C2FB50,出雲,2026-02-03,24.206469,120.902794,0.0015186368
C1Z240,中平林道,2026-02-03,23.42115,121.26763,0.003802852
U2H480,溪頭,2026-02-03,23.670306,120.798194,0.0016804553
C0M880,好美里,2026-02-03,23.3364,120.138,0.003662894
C0T9E0,大坑,2026-02-03,23.880628,121.581981,0.000525552
C0K530,臺西,2026-02-03,23.701547,120.197559,0.0007346929
C1E900,國一N128K,2026-02-03,24.560997,120.844186,0.0011104557
C0AJ50,水湳洞,2026-02-03,25.123695,121.862238,0.007492131
C0AI20,白沙灣,2026-02-03,25.283128,121.519058,0.0005965971
C2V310,美濃,2026-02-03,22.898792,120.51907,0.01901109
C0A860,大坪,2026-02-03,25.165914,121.632969,0.00034294295
C1U850,觀音海岸,2026-02-03,24.38319,121.77856,0.00050559203
C2K610,草嶺石壁,2026-02-03,23.602469,120.707731,0.0014184422
C0U950,鶯子嶺,2026-02-03,24.89754,121.79244,0.00019796117
C0O900,善化,2026-02-03,23.112883,120.297219,0.025047379
C0K550,蔦松,2026-02-03,23.514319,120.229736,0.0027306774
E2P980,林試六龜中心,2026-02-03,22.991703,120.645722,0.013121845
C0E590,通霄,2026-02-03,24.471892,120.704622,0.00086618366
C1I310,西巒,2026-02-03,23.754486,120.883956,0.0028442969
C0A550,泰平,2026-02-03,24.971197,121.823711,0.00060048205
C0I360,水里,2026-02-03,23.812553,120.849792,0.008987973
C0R830,高士,2026-02-03,22.121825,120.836781,0.0022047774
C1I101,溪頭,2026-02-03,23.661789,120.807647,0.00046602267
C0AJ20,野柳,2026-02-03,25.20703,121.690021,0.001814849
C0B060,暖暖,2026-02-03,25.0957,121.7403,0.0011236571
C1H920,長豐,2026-02-03,24.102039,120.879897,0.0015049974
C2S9B0,利吉,2026-02-03,22.86246,121.15486,0.0018357248
C0V360,內門,2026-02-03,22.975481,120.466769,0.005697079
C0R850,林邊,2026-02-03,22.4634,120.5339,0.09200986
C0E930,龍鳳,2026-02-03,24.700034,120.859125,0.0013055034
C0U910,冬山,2026-02-03,24.63373,121.7937,0.012652375
C1E721,泰安,2026-02-03,24.489017,120.968036,0.0009379096
82H320,茶改中部分場,2026-02-03,23.875611,120.913583,0.005821822
C0M750,布袋,2026-02-03,23.380878,120.167789,0.0019224975
C1S860,利嘉,2026-02-03,22.809417,121.050528,0.0019428522
E2S980,林試太麻里1,2026-02-03,22.598922,120.980044,0.013962792
C0X170,關廟,2026-02-03,22.963017,120.327797,0.018005894
C0V720,林園,2026-02-03,22.507747,120.394511,0.08735184
C1I510,線浸林道,2026-02-03,23.761508,120.832956,0.0015947929
C0D690,外湖,2026-02-03,24.917735,120.968711,0.0006321234
C0C750,新興坑尾,2026-02-03,25.0061,121.0971,0.00095252163
B2Q810,畜試南區分所,2026-02-03,21.945583,120.802167,0.0007918979
C0S790,金崙,2026-02-03,22.538122,120.966875,0.027242173
C0AH90,福山植物園,2026-02-03,24.760717,121.58135,0.0010989242
C0I540,奇萊稜線,2026-02-03,24.109231,121.326456,0.0004095306
C0M850,表湖,2026-02-03,23.24186,120.64166,0.0012748354
C0S770,大溪山,2026-02-03,22.478475,120.943325,0.0123917945
C0AG80,中和,2026-02-03,24.991622,121.491792,0.0015307618
C0T790,大禹嶺,2026-02-03,24.186117,121.316086,0.00051280606
C0T9B0,水源,2026-02-03,23.991861,121.537169,0.0003190235
C0R840,牡丹池山,2026-02-03,22.168389,120.841225,0.0027216233
C1I131,桶頭,2026-02-03,23.641944,120.654117,0.007365223
CAL110,布袋國中,2026-02-03,23.35893,120.18026,0.0036522266
C2M9D0,何竹子腳,2026-02-03,23.53641,120.38203,0.009790493
C0Z290,赤柯山,2026-02-03,23.36893,121.38293,0.0013114193
C0X280,將軍,2026-02-03,23.214999,120.13577,0.0035311817
C0S690,太麻里,2026-02-03,22.60902,120.98533,0.0031804587
C0U880,北關,2026-02-03,24.9072,121.8734,0.009000953
CAW010,東引,2026-02-03,26.3588,120.4836,0.0001968058
C0G810,埔心,2026-02-03,23.947633,120.525456,0.005758283
C0U970,大福,2026-02-03,24.80064,121.81389,0.0009866032
C2H9N0,仁愛東眼,2026-02-03,24.026875,121.1205,0.0011375183
C1E670,南礦,2026-02-03,24.538278,121.002836,0.00093288976
C0M520,東後寮,2026-02-03,23.369908,120.248065,0.004421817
C1E461,松安,2026-02-03,24.397972,120.986022,0.0015060963
C2N160,西拉雅風管處,2026-02-03,23.189481,120.335297,0.022416625
C2M970,碧湖,2026-02-03,23.568632,120.624165,0.0013529127
C0A640,石碇,2026-02-03,24.993969,121.662917,0.0007124769
E2S960,林試太麻里2,2026-02-03,22.598,120.99775,0.017301068
C0F9Y0,桃山,2026-02-03,24.432739,121.303808,0.00032084383
C1I020,萬大,2026-02-03,23.979817,121.132261,0.0017597541
C2UC20,長嶺,2026-02-03,24.70894,121.61162,0.0007119048
C0U940,羅東,2026-02-03,24.68184,121.74934,0.0016779334
C0M650,朴子,2026-02-03,23.43463,120.23902,0.008125497
C1I500,大尖山,2026-02-03,23.858572,120.994889,0.00091446424
C0FB40,中橫21.6k,2026-02-03,24.2499,121.1455,0.0018350125
C0G820,田尾,2026-02-03,23.901669,120.509389,0.0057665147
E2K600,四湖植物園,2026-02-03,23.676986,120.163433,0.0008467004
C0S730,綠島,2026-02-03,22.6672,121.47533,0.0009247639
12Q970,東港工作站,2026-02-03,22.479997,120.466058,0.092009835
C1TA00,太魯閣,2026-02-03,24.15773,121.6236,0.17431201
466920,臺北,2026-02-03,25.037658,121.514853,0.0035282231
C0R600,舊泰武,2026-02-03,22.588194,120.664944,0.005199836
C1I260,北坑,2026-02-03,23.9246,121.006903,0.0040168483
466910,鞍部,2026-02-03,25.182586,121.529731,0.00021208749
C1I230,九份二山,2026-02-03,23.961944,120.845,0.004276533
C2M810,里佳,2026-02-03,23.389125,120.716647,0.00067491253
C2A660,瑞芳,2026-02-03,25.113169,121.801147,0.0014128757
C0R270,琉球嶼,2026-02-03,22.332244,120.362236,0.018970802
C2V580,瑞山,2026-02-03,22.90304,120.43424,0.009423947
C1T990,高寮,2026-02-03,23.394239,121.356808,0.0009947759
C0G620,芬園,2026-02-03,24.015678,120.6213,0.021382064
C1Z140,荖溪,2026-02-03,23.890575,121.45964,0.0039056581
C1I201,中心崙,2026-02-03,23.728722,120.712097,0.0027298087
C1I400,凌霄,2026-02-03,24.018778,121.004456,0.0010868878
C1M640,十字,2026-02-03,23.492153,120.753683,0.000608024
G2P820,農試鳳山分所,2026-02-03,22.646611,120.356083,0.08283443
C0Z270,蕃薯寮,2026-02-03,23.73835,121.540108,0.001181593
C2E420,竹南,2026-02-03,24.70898,120.88897,0.0012771131
C0FB10,出雲山苗圃,2026-02-03,24.23105,120.90475,0.0021111048
C0F9Q0,外埔,2026-02-03,24.347817,120.705686,0.0015732598
C0K580,高鐵雲林,2026-02-03,23.737456,120.417944,0.008654518
C2I090,鳳凰,2026-02-03,23.728081,120.787347,0.0025765686
C0U990,員山,2026-02-03,24.74435,121.72247,0.0016787787
C0V770,大社,2026-02-03,22.730306,120.346639,0.035582513
C0X120,麻豆,2026-02-03,23.183289,120.248611,0.01759163
C0C670,龍潭,2026-02-03,24.870056,121.221389,0.0018228361
C0D680,香山濕地,2026-02-03,24.783581,120.914988,0.0006321234
C0S980,勝林山,2026-02-03,22.430439,120.8938,0.0018965185
C0V730,大寮,2026-02-03,22.605614,120.395717,0.102658756
C0R570,麟洛,2026-02-03,22.65078,120.52719,0.043249294
C2M930,石卓,2026-02-03,23.478744,120.702264,0.0006212691
C0G9B0,和美,2026-02-03,24.105169,120.492131,0.0013994998
CAG100,王功漁港,2026-02-03,23.96824,120.32586,0.00048018282
C0X290,北門,2026-02-03,23.267772,120.125481,0.0034888727
C2F930,大甲,2026-02-03,24.347667,120.640403,0.000738298
C0D650,湖口,2026-02-03,24.904794,121.043628,0.0010231385
C0U780,五結,2026-02-03,24.68637,121.79794,0.012652375
C1I250,鯉潭,2026-02-03,23.961922,120.991131,0.0030779818
C0R130,阿禮,2026-02-03,22.742908,120.743678,0.0036294835
C0X100,臺南市北區,2026-02-03,23.010394,120.194228,0.0050571114
C0S920,金峰嘉蘭,2026-02-03,22.594789,120.960825,0.013586329
C0V490,新興,2026-02-03,22.627422,120.298803,0.028728021
C0F9K0,大安,2026-02-03,24.345061,120.588025,0.000607367
467290,古坑,2026-02-03,23.633639,120.551889,0.011221935
C2E970,八甲,2026-02-03,24.535811,120.795983,0.0010304266
C0V440,鳳山,2026-02-03,22.646653,120.356122,0.08283443
C1T940,大觀,2026-02-03,23.714206,121.373133,0.0014250625
C0E740,造橋,2026-02-03,24.637056,120.864778,0.0012605123
C0R100,尾寮山,2026-02-03,22.833111,120.683889,0.0030417775
A2K630,臺大雲林校區,2026-02-03,23.730628,120.423903,0.008725181
467990,馬祖,2026-02-03,26.169467,119.923158,0.00018335033
C0D580,寶山,2026-02-03,24.735006,121.025192,0.0039876187
E2P990,林試扇平站,2026-02-03,22.9677,120.6857,0.0033011418
C0AI30,三重,2026-02-03,25.057328,121.500629,0.0034955682
C0AH00,汐止,2026-02-03,25.066881,121.658778,0.0022865147
C1Z040,立山,2026-02-03,23.443356,121.327375,0.0041097226
466881,新北,2026-02-03,24.959207,121.525196,0.0015741986
C0W130,花嶼,2026-02-03,23.40007,119.32276,0.0002972704
C0A950,鼻頭角,2026-02-03,25.129036,121.923372,0.008321883
C0K470,林內,2026-02-03,23.748675,120.609642,0.015442114
C2F990,摩天嶺,2026-02-03,24.322458,120.936819,0.0019573208
C2E430,南庄,2026-02-03,24.601775,121.000214,0.0023387892
82C160,茶改場,2026-02-03,24.908472,121.185333,0.0017149028
C2TB60,南安,2026-02-03,23.29818,121.26157,0.0009051239
C0Z320,清水林道,2026-02-03,23.27125,121.188272,0.0017930194
C0R760,南仁湖,2026-02-03,22.084681,120.863353,0.0029484944
C0M670,大林,2026-02-03,23.600616,120.45841,0.0069742664
C0M800,茶山,2026-02-03,23.299075,120.664767,0.02045797
C0A9C0,天母,2026-02-03,25.117494,121.537169,0.004299439
72K220,南改斗南分場,2026-02-03,23.634556,120.477333,0.01403056
72AI40,桃改樹林分場,2026-02-03,24.944503,121.386972,0.0012368561
C0S910,蘭嶼燈塔,2026-02-03,22.081197,121.503117,0.0018482246
C0B050,八斗子,2026-02-03,25.144754,121.79167,0.0028299976
C0U900,內城,2026-02-03,24.71813,121.68766,0.0020263281
C0X320,柳營,2026-02-03,23.253328,120.375253,0.01035366
C0M790,新港,2026-02-03,23.553269,120.345728,0.0076199477
C0F9T0,西屯,2026-02-03,24.179494,120.641275,0.002328139
C0E950,松安,2026-02-03,24.39792,120.98599,0.001506097
C0SA30,都歷,2026-02-03,23.020333,121.323642,0.0028844406
C0C620,蘆竹,2026-02-03,25.084275,121.265767,0.0011061408
C0R730,大坪頂,2026-02-03,22.024633,120.69355,0.00042902707
C0AJ40,石門,2026-02-03,25.273672,121.601198,0.000369298
C0E750,苗栗,2026-02-03,24.564569,120.824575,0.0011168103
C0T870,鯉魚潭,2026-02-03,23.935639,121.508944,0.0018648827
C1V170,排雲,2026-02-03,23.463619,120.954147,0.00043145564
C2H950,中寮,2026-02-03,23.884447,120.766406,0.015522526
C0R350,貓鼻頭,2026-02-03,21.921774,120.7358,0.000115052026
C0V660,岡山,2026-02-03,22.797078,120.294958,0.023837443
C1H941,雙冬,2026-02-03,23.967378,120.802189,0.010477167
C0AJ70,田寮,2026-02-03,25.2698,121.4886,0.0006216004
C0AI00,五股,2026-02-03,25.07445,121.42728,0.0047471505
C0Z280,德武,2026-02-03,23.47426,121.41071,0.0006848485
C2RA10,大新,2026-02-03,22.67558,120.57788,0.041429795
C0R700,枋山,2026-02-03,22.246844,120.661086,0.0007299182
C0C460,復興,2026-02-03,24.820208,121.352281,0.0009002773
C2K300,鹿南,2026-02-03,23.63855,120.3636,0.008513045
E2H360,蓮華池,2026-02-03,23.918333,120.885278,0.010344675
C0M640,中埔,2026-02-03,23.42538,120.5229,0.00542265
C0W140,金沙,2026-02-03,24.488292,118.408778,0.001039524
C2A540,四堵,2026-02-03,24.8926,121.745736,0.00058562786
C0ACA0,新莊,2026-02-03,25.051478,121.446756,0.0073906975
C0R220,潮州,2026-02-03,22.534361,120.54,0.05503104
U2HA40,臺大內茅埔,2026-02-03,23.689722,120.851117,0.007315974
467490,臺中,2026-02-03,24.145736,120.684075,0.0034011574
C0UB60,明池,2026-02-03,24.650688,121.475277,0.00042658794
C0U960,翠峰湖,2026-02-03,24.510856,121.608044,0.00035582698
E2HA20,林試畢祿溪站,2026-02-03,24.226944,121.308522,0.000907752
C2M9A0,大華,2026-02-03,23.4824,120.67491,0.001303224
C0V890,前鎮,2026-02-03,22.5718,120.3117,0.08404401
C1F941,雪嶺,2026-02-03,24.280586,121.026642,0.0005088749
C2H9E0,國姓南港,2026-02-03,23.911108,120.846556,0.0021917778
C0AC80,文山,2026-02-03,25.00235,121.575728,0.0024325913
C0F9R0,龍井,2026-02-03,24.184536,120.528972,0.0009813341
C0M760,民雄,2026-02-03,23.551754,120.428457,0.0069742664
C0UA40,西德山,2026-02-03,24.560647,121.752608,0.0004388062
C2TA70,赤科坪,2026-02-03,23.39885,121.39168,0.0010407185
C1T920,中興,2026-02-03,23.769503,121.498653,0.0021645608
C0D550,雪霸,2026-02-03,24.526972,121.11605,0.0008436148
C2F860,梨山,2026-02-03,24.247522,121.243669,0.0005812972
C0R320,車城,2026-02-03,22.0744,120.716247,0.00017441575
C1S870,南美山,2026-02-03,23.15025,121.382333,0.0006469175
C0B020,基隆嶼,2026-02-03,25.19141,121.78391,0.0024094295
C1U501,牛鬥,2026-02-03,24.637836,121.573656,0.0028686025
C0M730,嘉義市東區,2026-02-03,23.457673,120.460531,0.0068110595
C2R990,泰武,2026-02-03,22.60686,120.69765,0.0085497005
C0S700,知本,2026-02-03,22.684866,121.005642,0.0029215962
C1N001,沙崙,2026-02-03,22.935472,120.309406,0.017581865
C0V760,橋頭,2026-02-03,22.757806,120.30575,0.03533656
C0G960,福寶,2026-02-03,24.0443,120.3814,0.0011534496
C0X210,白河,2026-02-03,23.347466,120.414427,0.0051461644
C0S810,東河,2026-02-03,22.972672,121.303986,0.0027912785
C2R170,屏東,2026-02-03,22.66027,120.49403,0.043601364
C0R670,楓港,2026-02-03,22.190131,120.692156,0.00010871192
C0FA50,霧峰,2026-02-03,24.0419,120.6995,0.005427435
C0UB10,蘇澳,2026-02-03,24.5969,121.8571,0.015880318
C0G950,防潮門,2026-02-03,24.1835,120.4871,0.0014514716
C0M740,六腳,2026-02-03,23.492871,120.290625,0.00847437
C1R250,力里,2026-02-03,22.428117,120.629228,0.01868262
C0K330,虎尾,2026-02-03,23.719183,120.442036,0.008725181
C2FA00,烏石坑,2026-02-03,24.273503,120.947617,0.0019863767
C0V620,永安,2026-02-03,22.82315,120.236856,0.023687178
C1I330,楓樹林,2026-02-03,23.986803,121.076117,0.00138999
C0W200,湖西,2026-02-03,23.596314,119.67275,0.00027538306
72Q010,高雄農改場,2026-02-03,22.709333,120.525889,0.03429719
C0SA40,瑞和,2026-02-03,22.974361,121.156697,0.0025976854
C0C680,龜山,2026-02-03,25.02846,121.38656,0.0009270908
C2V260,月眉,2026-02-03,22.971003,120.539853,0.012441625
C0V450,鳳森,2026-02-03,22.545064,120.392592,0.08620636
C0FA90,小雪山林道,2026-02-03,24.29515,121.03651,0.00045421786
C0U720,南山,2026-02-03,24.43742,121.38167,0.00076690246
A2N290,臺南蘭花園區,2026-02-03,23.340258,120.379661,0.0059945052
C0R560,新園,2026-02-03,22.5434,120.461558,0.08735184
C0U890,三星,2026-02-03,24.66812,121.65302,0.0015043147
C1V300,御油山,2026-02-03,23.001983,120.715364,0.00087655074
C0U600,礁溪,2026-02-03,24.817539,121.765608,0.0009935778
C1T980,龍澗,2026-02-03,24.023289,121.411328,0.00062463194
C0D670,海天一線,2026-02-03,24.831986,120.914438,0.0006051254
C0SA00,歷坵,2026-02-03,22.520969,120.89185,0.009179778
C0M710,東石,2026-02-03,23.458927,120.15385,0.0018943092
C0M780,鹿草,2026-02-03,23.41134,120.30835,0.008206002
C0U520,雙連埤,2026-02-03,24.753033,121.641303,0.0005794314
C0B010,七堵,2026-02-03,25.094819,121.71713,0.0022688804
C0R480,長治,2026-02-03,22.693128,120.542622,0.04333512
C1V830,國三S383K,2026-02-03,22.781967,120.426475,0.04162652
12Q980,恆春工作站,2026-02-03,22.079678,120.714425,0.00017204598
C1O940,東山服務區,2026-02-03,23.286016,120.398472,0.0060968893
C1U840,東澳嶺,2026-02-03,24.5378,121.8485,0.0009104065
C1D630,飛鳳山,2026-02-03,24.766464,121.119178,0.0024902083
C0S940,石寧山,2026-02-03,23.223772,121.406639,0.0011951533
C0K410,北港,2026-02-03,23.573957,120.292802,0.0038510165
C2M620,瑞里,2026-02-03,23.545133,120.675197,0.0012332111
C0SB70,小港漁港,2026-02-03,23.158558,121.400431,0.0016184981
C2O950,安南,2026-02-03,23.076694,120.144861,0.0021571007
C0F0E0,南湖圈谷,2026-02-03,24.363714,121.444667,0.0002991973
467610,成功,2026-02-03,23.097486,121.373428,0.0019669076
C0G890,伸港,2026-02-03,24.148933,120.484403,0.0014514716
C2E540,龍溪,2026-02-03,24.606489,120.783933,0.0011442886
C1V200,梅山,2026-02-03,23.268447,120.823556,0.000926991
C0T9H0,加路蘭山,2026-02-03,23.682947,121.5274,0.000728295
C2O930,玉井,2026-02-03,23.126042,120.46055,0.004058825
C1F911,新伯公,2026-02-03,24.221361,120.841069,0.005213459
C0R490,九如,2026-02-03,22.7405,120.490503,0.034561805
C0X200,左鎮,2026-02-03,23.056758,120.408522,0.0078942925
C2TB50,麻汝,2026-02-03,23.42554,121.39358,0.0006745463
C0FA60,鞍馬山工作站,2026-02-03,24.267064,121.000793,0.0005377288
C0SB50,叭嗡嗡,2026-02-03,23.047062,121.343223,0.001906211
C1F891,稍來,2026-02-03,24.265689,121.001142,0.0005559747
C2M9C0,紫雲,2026-02-03,23.494914,120.540253,0.0051949243
72N240,七股研究中心,2026-02-03,23.081672,120.062894,0.0024771013
C0C700,中壢,2026-02-03,24.977661,121.256375,0.0020315102
C0M690,水上,2026-02-03,23.419734,120.388909,0.013505606
C0V690,鼓山,2026-02-03,22.623325,120.275575,0.028809248
C0O860,大內,2026-02-03,23.11885,120.36083,0.01875802
C0Z200,萬榮,2026-02-03,23.709219,121.420106,0.0018643353
C0T9D0,和中,2026-02-03,24.26676,121.74103,0.0012183598
C2S9A0,北份子寮,2026-02-03,22.78561,121.07813,0.0058231167
C1O921,楠西,2026-02-03,23.183511,120.484083,0.0042991308
C0AJ30,淡水觀海,2026-02-03,25.184591,121.408616,0.001970512
C0V810,左營,2026-02-03,22.67491,120.28491,0.025169112
C0UA70,桃源谷,2026-02-03,24.962606,121.888875,0.0006170598
C0X130,官田,2026-02-03,23.193217,120.315422,0.021960294
C1H000,翠峰,2026-02-03,24.109397,121.205211,0.0006028147
C0UA90,石城,2026-02-03,24.980444,121.951214,0.006934414
C1E681,南勢山,2026-02-03,24.421669,120.923831,0.0013315444
C0A9F0,內湖,2026-02-03,25.079422,121.57545,0.004384085
C0K291,宜梧,2026-02-03,23.536281,120.169329,0.00079140934
C1K540,口湖,2026-02-03,23.585344,120.180517,0.00079892983
C0R780,滿州,2026-02-03,22.024403,120.839892,0.0013515359
C0V870,文安,2026-02-03,22.8025,120.2164,0.025138678
C0U650,玉蘭,2026-02-03,24.675286,121.587061,0.00070235715
C0R640,東港,2026-02-03,22.46247,120.44074,0.0870611
C0AJ80,板橋,2026-02-03,25.0107,121.4489,0.0015148061
C0S660,下馬,2026-02-03,23.150427,121.070312,0.0006873151
C2N190,烏樹,2026-02-03,23.32393,120.36989,0.009149071
C1H9B1,阿眉,2026-02-03,24.1263,120.994672,0.0009238833
C0UA20,多加屯,2026-02-03,24.368614,121.373189,0.00043890497
C0E730,頭份,2026-02-03,24.688247,120.912206,0.0012860997
72V140,高改旗南分場,2026-02-03,22.857861,120.516667,0.019476507
C0K480,莿桐,2026-02-03,23.761192,120.502372,0.020331366
C0U980,坪林石牌,2026-02-03,24.86478,121.77396,0.0003447932
C0T900,西林,2026-02-03,23.8119,121.441458,0.0012043868
C1I150,青雲,2026-02-03,23.793361,120.949378,0.037174024
C2E980,和興,2026-02-03,24.505319,120.923016,0.0035180333
467350,澎湖,2026-02-03,23.565503,119.563094,0.0002726013
C0G800,埔鹽,2026-02-03,24.000394,120.431683,0.001115587
C0H960,草屯,2026-02-03,23.973672,120.68085,0.0119617
C1V780,多納林道,2026-02-03,22.888028,120.737917,0.0013844346
C0E920,通霄漁港,2026-02-03,24.498589,120.673876,0.00087700604
C0Z330,安通山,2026-02-03,23.290728,121.348528,0.0006417714
C0AH10,永和,2026-02-03,25.01125,121.508111,0.0015148061
C0AK10,太平里,2026-02-03,25.134937,121.364899,0.0012868604
C2G640,鹿港,2026-02-03,24.0753,120.430481,0.0013999508
C1E890,國三N149K,2026-02-03,24.463414,120.680019,0.0008624237
C1R110,口社,2026-02-03,22.770111,120.645222,0.054685805
C1M870,國三N285K,2026-02-03,23.550319,120.505833,0.005433982
C1E480,鳳美,2026-02-03,24.554803,121.034747,0.0030804954
C0T9M0,靜浦,2026-02-03,23.455167,121.495028,0.00066674297
C2H9M0,發祥,2026-02-03,24.154094,121.164517,0.0016933817
C2G9C0,埔南,2026-02-03,23.99124,120.46969,0.001115587
C0AI40,石牌,2026-02-03,25.115597,121.513139,0.004384085
C1F871,上谷關,2026-02-03,24.203483,121.018644,0.0019908112
C2H9G0,百勝,2026-02-03,24.051142,120.909361,0.0020862494
C0G880,二水,2026-02-03,23.810742,120.6173,0.022049861
C0R940,加祿堂,2026-02-03,22.3363,120.6217,0.0006909117
C0W220,北竿,2026-02-03,26.220358,119.974881,0.00019059952
C0O960,崎頂,2026-02-03,22.959547,120.369317,0.021528056
C0TA40,秀林,2026-02-03,24.302864,121.731144,0.0010389454
C0S750,向陽,2026-02-03,23.248397,120.986133,0.0008108701
C0T9F0,水璉,2026-02-03,23.797131,121.542514,0.00086366385
C1M600,頭凍,2026-02-03,23.406364,120.603339,0.0013527309
467660,臺東,2026-02-03,22.752211,121.154586,0.006347821
C1D380,新埔,2026-02-03,24.84745,121.03834,0.001141588
C2G980,田頭村,2026-02-03,23.8263,120.444175,0.0080590295
C0V750,路竹,2026-02-03,22.854997,120.259439,0.023999473
C0N050,蚵寮,2026-02-03,23.301,120.1104,0.0034888727
C2X060,下營,2026-02-03,23.226806,120.256291,0.0128745
72M700,南改鹿草分場,2026-02-03,23.416869,120.283061,0.008125497
C1SA50,利嘉林道,2026-02-03,22.82325,121.009389,0.0010200907
C0UB70,太平山中間站,2026-02-03,24.542003,121.513453,0.00031787198
C0A940,金山,2026-02-03,25.223628,121.643967,0.0015055436
C1V340,大津,2026-02-03,22.888322,120.645986,0.039132107
C0W180,七美,2026-02-03,23.219333,119.444892,0.00027965638
C1F9C1,白冷,2026-02-03,24.182844,120.929889,0.0019844992
K2E710,苗改生物防治研究中心,2026-02-03,24.422861,120.871833,0.0013818931
C0N040,蘆竹溝,2026-02-03,23.2344,120.0961,0.0034888727
C0TB40,崇德,2026-02-03,24.166144,121.657414,0.06259296
C0D760,大坪苗圃,2026-02-03,24.5362,121.1108,0.00073000265
C2W230,畜試所澎湖,2026-02-03,23.628342,119.513206,0.00028096186
C0R880,後壁湖,2026-02-03,21.9457,120.7457,0.000119217715
C1I280,埔中,2026-02-03,23.820778,120.642594,0.0037899953
467790,墾丁雷達站,2026-02-03,21.948235,120.808028,0.0007976871
C0W190,望安,2026-02-03,23.380564,119.494075,0.0002804716
C0Z170,卓溪,2026-02-03,23.3443,121.3029,0.0008352013
C0F850,東勢,2026-02-03,24.246428,120.833047,0.0062921764
466900,淡水,2026-02-03,25.164889,121.448906,0.004913291
C0I370,魚池,2026-02-03,23.895703,120.94135,0.007218593
C0C630,大溪,2026-02-03,24.882853,121.265547,0.0011605899
C0A520,山佳,2026-02-03,24.974944,121.402008,0.0012693602
C0I110,竹山,2026-02-03,23.761225,120.688156,0.009159897
82H840,茶改南部分場,2026-02-03,23.762528,120.7405,0.0050824787
C2SD80,再來山,2026-02-03,23.34371,121.44122,0.0048305537
C0G660,溪湖,2026-02-03,23.94835,120.479122,0.005747654
C1T800,洛韶,2026-02-03,24.204558,121.453956,0.0006973755
C1T810,慈恩,2026-02-03,24.192044,121.388386,0.0008757656
C1E451,象鼻,2026-02-03,24.368617,120.940228,0.001473113
C0AC60,三峽,2026-02-03,24.939025,121.369728,0.001785608
C0I490,萬大林道,2026-02-03,23.928228,121.091411,0.0007389861
C1I290,豐丘,2026-02-03,23.668178,120.887417,0.0010945174
C1I320,奧萬大,2026-02-03,23.952956,121.178556,0.0020969324
C2M910,嘉義大學,2026-02-03,23.471325,120.485903,0.0074154814
C0U770,南澳,2026-02-03,24.44935,121.81022,0.011713642
C2TB30,吉安,2026-02-03,23.94538,121.54803,0.0029335218
C0A980,社子,2026-02-03,25.109508,121.469681,0.006256183
C0V800,六龜,2026-02-03,22.997889,120.633583,0.015833808
C1G9D0,國一S218K,2026-02-03,23.890641,120.493253,0.0066956826
C0E570,白沙屯,2026-02-03,24.549447,120.696803,0.00057539
C2F9A0,中竹林,2026-02-03,24.103556,120.751061,0.0023183478
C0FA40,臺中電廠,2026-02-03,24.2146,120.4907,0.0010865527
C2G9A0,畜試所彰化,2026-02-03,23.86045,120.557964,0.02959937
C0H9C0,合歡山,2026-02-03,24.143442,121.272547,0.00040164773
G2M350,農試溪口農場,2026-02-03,23.58565,120.408111,0.0066826544
C0U860,頭城,2026-02-03,24.85323,121.8308,0.0018164469
C0R580,南州,2026-02-03,22.48591,120.50274,0.09200986
C0D430,峨眉,2026-02-03,24.6905,121.017189,0.002468252
C0G780,秀水,2026-02-03,24.03405,120.503869,0.008789713
72N100,臺南農改場,2026-02-03,23.0605,120.342194,0.026437165
C0S900,蘭嶼高中,2026-02-03,22.04909,121.51214,0.0018580148
C2TA60,六十石,2026-02-03,23.22477,121.31861,0.00060131884
C1F9W0,德基,2026-02-03,24.254783,121.190261,0.00066395424
C2M980,安和,2026-02-03,23.51377,120.31593,0.008540995
C1Z120,壽豐,2026-02-03,23.870853,121.508081,0.0022262733
C0W160,烏坵,2026-02-03,24.9944,119.44956,0.00021111885
C1I240,外大坪,2026-02-03,23.958697,120.917931,0.0058044116
C1I550,國六W023K,2026-02-03,23.979067,120.867742,0.007735714
C0R870,興海,2026-02-03,21.9752,120.8439,0.0007918979
C0R140,瑪家,2026-02-03,22.682903,120.686639,0.009456359
C0A530,坪林,2026-02-03,24.938183,121.70975,0.0005586287
C0X260,後壁,2026-02-03,23.366358,120.362326,0.016918259
C0Z230,和平,2026-02-03,24.30717,121.77007,0.000970528
C0G770,福興,2026-02-03,24.041289,120.437669,0.001115587
C0H9A0,神木村,2026-02-03,23.532742,120.843667,0.0006304266
C0I460,南投,2026-02-03,23.911469,120.687331,0.011721379
C0I480,梅峰,2026-02-03,24.085272,121.173572,0.00082815246
C1V570,吉東,2026-02-03,22.85422,120.5454,0.027560772
C2A560,福山,2026-02-03,24.776203,121.502811,0.00077476585
C0AH30,五分山,2026-02-03,25.07125,121.780794,0.0002585812
C0FA10,松柏,2026-02-03,24.429115,120.617482,0.000629117
72S200,東改班鳩分場,2026-02-03,22.829528,121.077694,0.0049445974
72HA00,中改埔里分場,2026-02-03,23.903208,120.963364,0.007592935
C2H9W0,大坪頂農水,2026-02-03,24.043122,120.932781,0.00542167
C0C650,平鎮,2026-02-03,24.897503,121.214636,0.0012933065
C0S930,延平,2026-02-03,22.902581,121.084058,0.0017838428
C0UA60,樟樹山,2026-02-03,24.41393,121.78325,0.0005478298
C2UC10,出水溪,2026-02-03,24.615822,121.652253,0.00086704403
C1S670,摩天,2026-02-03,23.199503,121.027,0.00040390083
C2C590,觀音,2026-02-03,25.027072,121.153317,0.0007065156
C0V630,茄萣,2026-02-03,22.906642,120.182608,0.008889267
466940,基隆,2026-02-03,25.133314,121.740475,0.0026763526
C0X050,東河,2026-02-03,23.296598,120.385608,0.0059945052
C0R770,保力,2026-02-03,22.071122,120.764111,0.00038582593
G2L020,農試嘉義分所,2026-02-03,23.485028,120.473806,0.0075557465
C0X240,關子嶺,2026-02-03,23.331169,120.508025,0.004418781
C0I380,集集,2026-02-03,23.828206,120.801467,0.009393632
466990,花蓮,2026-02-03,23.975128,121.613275,0.0026695265
C1V220,小關山,2026-02-03,23.154217,120.813603,0.0007522456
C1F9G1,慶福山,2026-02-03,24.180853,120.848378,0.0019454374
C0FB20,雪山橋,2026-02-03,24.23192,120.9786,0.0006306577
C0Z250,瑞穗林道,2026-02-03,23.49284,121.30688,0.0022151056
C0D590,新豐,2026-02-03,24.87068,120.97721,0.0005853385
C0A870,五指山,2026-02-03,25.132153,121.608692,0.0001752618
C0UA50,西帽山,2026-02-03,24.555361,121.802628,0.0009350762
C2R980,竹田國中,2026-02-03,22.61532,120.52412,0.041611295
C0X160,仁德,2026-02-03,22.968258,120.257689,0.014071286
C1H971,六分寮,2026-02-03,23.92507,120.6378,0.004588409
C0W120,西嶼,2026-02-03,23.5626,119.468436,0.0002835366
C0G650,員林,2026-02-03,23.946503,120.585597,0.023294995
C0AD50,鶯歌,2026-02-03,24.951533,121.346294,0.00045888647
C2H9Q0,北東眼山,2026-02-03,24.120939,121.189303,0.00066664704
C2H9T0,名間竹圍,2026-02-03,23.859914,120.637572,0.0055846474
C0S990,山豬窟,2026-02-03,22.318619,120.857372,0.013028937
C0X190,安平,2026-02-03,22.993161,120.152181,0.005511072
C0K400,斗六,2026-02-03,23.720583,120.541127,0.020706795
12J990,口湖工作站,2026-02-03,23.589978,120.180394,0.00079840963
C0O830,北寮,2026-02-03,23.079561,120.495008,0.003940426
C1D410,白蘭,2026-02-03,24.579364,121.079947,0.0009027554
C0S970,加津林,2026-02-03,22.416211,120.926942,0.11050379
C0D700,關西,2026-02-03,24.7977,121.1732,0.0062287585
C0U750,龜山島,2026-02-03,24.841667,121.953133,0.0008022717
C0R810,內獅,2026-02-03,22.305064,120.642986,0.0006909117
C1M390,龍美,2026-02-03,23.406728,120.654417,0.0009265852
C2K290,崙內,2026-02-03,23.69525,120.35601,0.008513045
C2FB60,頭櫃山,2026-02-03,24.129842,120.858925,0.0013707692
C1H840,國三N238K,2026-02-03,23.841008,120.707711,0.005164006
CAQ030,崎峰國小,2026-02-03,22.42565,120.49521,0.09200986
C2E520,大湖,2026-02-03,24.414939,120.870872,0.0013461873
467530,阿里山,2026-02-03,23.508208,120.813242,0.00037906246
C1E691,南湖,2026-02-03,24.40135,120.837533,0.0022287236
C0FA30,梧棲,2026-02-03,24.256003,120.523381,0.00097645505
C1V231,高中,2026-02-03,23.134911,120.716711,0.0013602615
C0AK30,硬漢嶺,2026-02-03,25.136097,121.426372,0.0005735229
C0F9V0,新社,2026-02-03,24.200172,120.815806,0.0030799403
C0H890,埔里,2026-02-03,23.972169,120.952425,0.008472639
C0R690,墾丁,2026-02-03,21.966756,120.810269,0.0012704507
C0SD20,富山,2026-02-03,22.822383,121.190825,0.0018730584
C0F0D0,審馬陣,2026-02-03,24.381675,121.4203,0.00030088818
C2W030,金門農試所,2026-02-03,24.448431,118.451786,0.0009863239
C0R820,白鷺,2026-02-03,22.454275,120.666219,0.029669557
C0FB00,大雪山,2026-02-03,24.254668,121.007374,0.0005332215
C1V190,南天池,2026-02-03,23.27403,120.91176,0.0006716118
C0E940,雪見,2026-02-03,24.42595,121.01347,0.000619191
K2E360,苗栗農改場,2026-02-03,24.495722,120.829111,0.0010646923
CAJ050,海口故事園區,2026-02-03,23.57543,120.14121,0.00079892983
C2K280,四湖,2026-02-03,23.6304,120.22717,0.0008467004
C2H9D0,三隻寮,2026-02-03,24.093078,120.861578,0.0017825053
C0O990,媽廟,2026-02-03,22.99175,120.293525,0.024141835
C0D480,打鐵坑,2026-02-03,24.849664,121.150789,0.0017332515
C0Z220,和平林道,2026-02-03,24.343922,121.656317,0.0007678875
C0TA10,花蓮漁港,2026-02-03,23.995322,121.638331,0.0021984745
72C440,桃園農改場,2026-02-03,24.950944,121.030583,0.0010471238
C1E711,馬拉邦山,2026-02-03,24.367306,120.901656,0.0016332524
C0SB20,富岡,2026-02-03,22.792467,121.192669,0.0078003034
C0D560,竹東,2026-02-03,24.767147,121.057881,0.0033505044
C0F9U0,南屯,2026-02-03,24.137006,120.637969,0.0040534334
C2SD60,明峰,2026-02-03,22.8671,121.11825,0.0018811767
C0M720,番路,2026-02-03,23.464657,120.554156,0.0041447356
C0F0A0,雪山圈谷,2026-02-03,24.388594,121.236339,0.00037345957
C1A9N0,四十份,2026-02-03,24.934158,121.593283,0.0002923398
C0U760,東澳,2026-02-03,24.52196,121.83318,0.009424241
C0X230,鹽水,2026-02-03,23.272621,120.247641,0.0036085255
C2H9H0,苗改南投蜂場,2026-02-03,23.852589,120.693481,0.009787189
C2TB70,達谷寮,2026-02-03,23.38,121.35968,0.000760924
C0R950,萬隆國小,2026-02-03,22.507667,120.587817,0.032723
467540,大武,2026-02-03,22.35572,120.90374,0.015881363
C0V370,古亭坑,2026-02-03,22.893178,120.401947,0.008980262
C1I340,新興橋,2026-02-03,23.563333,120.868728,0.0026792192
C0SA80,土坂,2026-02-03,22.453108,120.887572,0.07427705
C0R160,鹽埔,2026-02-03,22.739558,120.530778,0.03429719
C0AC40,大屯山,2026-02-03,25.175675,121.522408,0.0001781323
466850,五分山雷達站,2026-02-03,25.071182,121.781205,0.00025508937
C2H9L0,馬烈霸,2026-02-03,24.1512,121.201772,0.00066333817
C1AI50,國三N016K,2026-02-03,25.034164,121.619664,0.001494451
C2V920,匏子寮,2026-02-03,23.04905,120.55319,0.008361597
C1V600,藤枝,2026-02-03,23.071961,120.757042,0.0010279361
C1E601,南勢,2026-02-03,24.572486,120.734842,0.00054502336
C0O980,新市,2026-02-03,23.061614,120.298197,0.025047379
C0K420,西螺,2026-02-03,23.800407,120.467394,0.008189917
C0Z050,佳心,2026-02-03,23.34567,121.21316,0.0010307698
C0AD30,蘆洲,2026-02-03,25.086594,121.472331,0.008673349
C0V610,梓官,2026-02-03,22.760558,120.267211,0.02423559
K2F750,種苗改良場,2026-02-03,24.225972,120.800917,0.0029833992
C0UA80,大溪漁港,2026-02-03,24.941801,121.902955,0.02044826
C1AI60,國一39K邊坡,2026-02-03,25.064361,121.383836,0.004143317
C0W150,金寧,2026-02-03,24.457703,118.328989,0.0010731698
C0R960,內埔,2026-02-03,22.608483,120.570714,0.041611295
V2C250,八德合作社,2026-02-03,24.93775,121.266389,0.0011994422
C2H9S0,龍南,2026-02-03,23.953536,120.833183,0.0026736073
C0AH40,平等,2026-02-03,25.129142,121.577086,0.0004788666
C0R540,佳冬,2026-02-03,22.419456,120.552375,0.06821987
466950,彭佳嶼,2026-02-03,25.627975,122.079744,0.0005137777
C0A890,雙溪,2026-02-03,25.036003,121.864242,0.0054018665
C0C480,桃園,2026-02-03,24.992425,121.323172,0.0020630832
C0AH50,林口,2026-02-03,25.072181,121.38084,0.0033055753
A2K360,水試臺西試驗場,2026-02-03,23.717231,120.190522,0.0007346929
C2M960,外寮,2026-02-03,23.562643,120.665688,0.0015372555
C0F9S0,烏日,2026-02-03,24.107058,120.624103,0.006715708
C2N180,鹿陶洋,2026-02-03,23.14325,120.48352,0.0042991308
C0C490,八德,2026-02-03,24.928708,121.283289,0.001193671
C0R190,赤山,2026-02-03,22.592333,120.614306,0.039168034
C0T820,天祥,2026-02-03,24.179597,121.495639,0.01563812
C1F9E1,龍安,2026-02-03,24.1605,120.831961,0.0028713564
C2SD50,順那,2026-02-03,23.04166,121.29332,0.0035028874
C0V820,小林,2026-02-03,23.148408,120.63325,0.0041176225
C2G870,芳苑,2026-02-03,23.922303,120.320025,0.0004304949
C0E850,大河,2026-02-03,24.618069,120.948578,0.00355576
C1U670,寒溪,2026-02-03,24.634,121.71691,0.0015690753
C0N020,城西,2026-02-03,23.0568,120.0956,0.0023428192
C1Z110,三棧,2026-02-03,24.11557,121.60501,0.0063667134
C0R280,檳榔,2026-02-03,22.076078,120.836777,0.005490722
C2H9J0,中台,2026-02-03,23.9996,120.938739,0.0042285267
C0F9L0,后里,2026-02-03,24.310436,120.729725,0.0048374604
467441,高雄,2026-02-03,22.730432,120.312516,0.03533656
C0Z180,新城,2026-02-03,24.040486,121.604878,0.002526405
C0D540,橫山,2026-02-03,24.71116,121.11693,0.003368967
C1D420,太閣南,2026-02-03,24.632808,121.160575,0.0010568796
C1E770,公館,2026-02-03,24.526914,120.830806,0.0011786827
CAN130,水試所海水繁養殖中心,2026-02-03,23.120802,120.07968,0.0024927896
C1I430,翠華,2026-02-03,24.191961,121.224339,0.0005076775
C1M400,菜瓜坪,2026-02-03,23.251928,120.576103,0.0116226645
C0G730,二林,2026-02-03,23.903325,120.376081,0.0012128951
72M360,南改義竹分場,2026-02-03,23.360694,120.279361,0.0044921553
V2K620,麥寮合作社,2026-02-03,23.753836,120.294783,0.0035883475
C0Z070,舞鶴,2026-02-03,23.46811,121.37407,0.000604404
C0B040,大武崙,2026-02-03,25.166676,121.706993,0.002152998
C1Z030,紅葉,2026-02-03,23.493119,121.338806,0.00066666835
C1I050,丹大,2026-02-03,23.753747,121.141147,0.00059855153
C0I080,信義,2026-02-03,23.689694,120.851036,0.007315981
C2TB80,庄子底,2026-02-03,23.71794,121.49438,0.0036242139
C0D750,樂山林道6k,2026-02-03,24.49999,121.08773,0.0005512207
C2M920,朴子農改,2026-02-03,23.469889,120.259383,0.008125497
C2A880,福隆,2026-02-03,25.017842,121.942083,0.008143244
C0Z160,鳳林,2026-02-03,23.746114,121.453411,0.0032938153
C0UB80,翠峰林道6K,2026-02-03,24.49773,121.568625,0.0003259463
C0V210,復興,2026-02-03,23.222403,120.806089,0.0013996569
C0H990,昆陽,2026-02-03,24.121322,121.273642,0.0004289005
C0R741,獅子,2026-02-03,22.202308,120.705236,0.000494411
C0S710,鹿野,2026-02-03,22.917711,121.122994,0.0014854444
C0I530,小奇萊,2026-02-03,24.131764,121.295717,0.0004154587
C0FA70,大雪山埡口,2026-02-03,24.26867,121.03062,0.00051173085
C2K630,荷苞,2026-02-03,23.657717,120.595144,0.013491681
C0Z080,富源,2026-02-03,23.587642,121.378225,0.0035425876
C2M9E0,旺來山,2026-02-03,23.555153,120.486463,0.0055737426
C0SB10,美和,2026-02-03,22.682078,121.060236,0.0061765686
C2K620,馬光農場,2026-02-03,23.721453,120.378864,0.008654518
C1I140,卡奈托灣,2026-02-03,23.754364,121.087872,0.001162781
C0I520,玉山風口,2026-02-03,23.470489,120.955994,0.00042789525
C1G691,下水埔,2026-02-03,23.816114,120.5676,0.018473903
C0X110,臺南市南區,2026-02-03,22.961189,120.188378,0.013621047
C0V680,仁武,2026-02-03,22.701083,120.347722,0.035582513
C2G840,北斗,2026-02-03,23.877586,120.514222,0.0066949627
C2TB90,長橋,2026-02-03,23.6874,121.46186,0.0031371645
C0R900,竹坑,2026-02-03,22.1385,120.7022,0.00010871192
C0G860,社頭,2026-02-03,23.897647,120.5862,0.024324918
C0X150,安定,2026-02-03,23.102614,120.227839,0.013745643
C0R590,里港,2026-02-03,22.77919,120.49459,0.0226586
C0E610,馬都安,2026-02-03,24.451272,120.930192,0.0021626852
C0E550,明德,2026-02-03,24.583486,120.885411,0.005105713
C0R150,三地門,2026-02-03,22.709889,120.639944,0.040882163
C0G910,花壇,2026-02-03,24.032076,120.549461,0.008865124
C1D400,鳥嘴山,2026-02-03,24.71909,121.28387,0.0013958314
C0K500,元長,2026-02-03,23.64981,120.315024,0.0044378126
C0F0B0,石岡,2026-02-03,24.276061,120.777644,0.0046423813
C2V250,甲仙,2026-02-03,23.080106,120.591758,0.00916533
C0SA20,金崙山,2026-02-03,22.567419,120.959667,0.0013326578
C0V350,溪埔,2026-02-03,22.738578,120.446797,0.038463924
C0M660,溪口,2026-02-03,23.604131,120.403569,0.0066826544
C1S880,壽卡,2026-02-03,22.238911,120.858903,0.002037947
72D680,桃改新埔分場,2026-02-03,24.834444,121.066111,0.0011536755
