站號,站名,日期,lat,lon,BlastGRU-TW
C0R710,龍磐,2026-07-11,21.931672,120.838942,0.0974487
C1F9D1,白毛台,2026-07-11,24.158325,120.886933,0.95613605
C0G940,竹塘,2026-07-11,23.848253,120.386764,0.07712654
467590,恆春,2026-07-11,22.003897,120.746339,0.048743665
C0U710,太平山,2026-07-11,24.505486,121.525656,0.05895545
C0E820,獅潭,2026-07-11,24.539133,120.920042,0.7776479
C2SD70,二層坪,2026-07-11,22.94105,121.16838,0.67469364
C0V880,興達,2026-07-11,22.8778,120.2127,0.18403134
C0SB30,新蘭,2026-07-11,22.869214,121.223228,0.23033543
C2R970,屏科大,2026-07-11,22.648275,120.619247,0.3837027
C1Z130,銅門,2026-07-11,23.965694,121.492842,0.100792006
C0AD40,土城,2026-07-11,24.973208,121.445169,0.09200304
CAN140,六官養殖協會,2026-07-11,23.22881,120.29962,0.18770072
C0X180,山上,2026-07-11,23.0757,120.363253,0.24139951
C0F9Z0,雪山東峰,2026-07-11,24.388792,121.268675,0.0006635876
C1M480,獨立山,2026-07-11,23.537022,120.607797,0.8857235
C0X220,學甲,2026-07-11,23.230367,120.182187,0.20686302
467650,日月潭,2026-07-11,23.881325,120.90805,0.88357884
A2K570,古坑(花卉中心),2026-07-11,23.633531,120.552392,0.09339897
C0K600,箔子寮,2026-07-11,23.6197,120.14,0.1118218
C0G830,埤頭,2026-07-11,23.866003,120.452806,0.054144368
C0S950,七塊厝,2026-07-11,22.954453,121.229922,0.95134383
467110,金門,2026-07-11,24.407306,118.289281,0.14647284
C0AH80,深坑,2026-07-11,25.002703,121.628328,0.096114315
C0A970,三貂角,2026-07-11,25.007606,122.002058,0.560013
C2D730,寶山農場,2026-07-11,24.732444,120.976153,0.6941974
C0K430,褒忠,2026-07-11,23.690938,120.303634,0.07359061
467480,嘉義,2026-07-11,23.495925,120.432906,0.08102465
C0V400,阿公店,2026-07-11,22.804194,120.355528,0.23725054
C2S800,華源,2026-07-11,22.65783,121.0232,0.31231824
C2SA40,瑞和,2026-07-11,22.974361,121.156697,0.6419423
C0E960,觀霧分站,2026-07-11,24.505781,121.113921,0.19044366
467550,玉山,2026-07-11,23.48718,120.95943,0.00025393863
C0R440,大漢山,2026-07-11,22.405264,120.753181,0.9340109
C0SD30,東清國小,2026-07-11,22.057128,121.564922,0.69955975
C1F9B1,桐林,2026-07-11,24.066172,120.735194,0.059198044
C2I210,蘆竹湳,2026-07-11,23.93398,120.81209,0.86428285
C2H9U0,鳳鵬,2026-07-11,23.763919,120.788061,0.028549023
C0K390,土庫,2026-07-11,23.679029,120.395574,0.06715687
C1I450,望鄉山,2026-07-11,23.594153,120.944286,0.0005128552
C0E910,海埔,2026-07-11,24.648767,120.772435,0.6987327
B2E890,畜試北區分所,2026-07-11,24.527806,120.770972,0.6258368
C0R750,四林格山,2026-07-11,22.076989,120.802439,0.19808803
C0F0C0,中坑,2026-07-11,24.248517,120.903319,0.8056209
C1I121,大鞍,2026-07-11,23.678381,120.760017,0.6865585
C2G9E0,移民庄,2026-07-11,23.9784,120.40283,0.14203846
72U480,花改蘭陽分場,2026-07-11,24.686306,121.716583,0.19614619
C0A770,科教館,2026-07-11,25.096356,121.516507,0.07504947
C0AJ60,六塊厝,2026-07-11,25.24,121.4481,0.17179826
C0R620,墾雷,2026-07-11,21.900836,120.855269,0.09236849
467290,古坑,2026-07-11,23.633536,120.551906,0.09339897
467420,永康,2026-07-11,23.038386,120.2367,0.22463171
C2M530,奮起湖,2026-07-11,23.493903,120.699253,0.81498957
C0I410,名間,2026-07-11,23.837053,120.701447,0.027106734
A2C560,農工中心,2026-07-11,24.985917,121.239833,0.4482982
C0V740,旗山,2026-07-11,22.888614,120.483597,0.24609856
C0Z061,玉里,2026-07-11,23.3215,121.339656,0.8250108
C0S840,南田,2026-07-11,22.279725,120.889208,0.06919989
C1I470,杉林溪,2026-07-11,23.639517,120.786444,0.36329433
C1X040,東原,2026-07-11,23.291597,120.463822,0.18602969
C0R660,枋寮,2026-07-11,22.367722,120.590647,0.18214756
C0K450,大埤,2026-07-11,23.646074,120.431537,0.071979575
C0UA00,土場,2026-07-11,24.576533,121.495333,0.015861738
467080,宜蘭,2026-07-11,24.763975,121.756528,0.13687165
C0N030,四草,2026-07-11,23.0235,120.1116,0.23235252
467410,臺南,2026-07-11,22.99328,120.20492,0.1899756
C0V650,彌陀,2026-07-11,22.783806,120.246361,0.19482103
C0D660,新竹市東區,2026-07-11,24.798681,120.986942,0.67514676
82S580,茶改東部分場,2026-07-11,22.907694,121.130139,0.5487331
C0SB40,興隆,2026-07-11,22.913661,121.257469,0.15402983
467050,新屋,2026-07-11,25.006725,121.047492,0.60791457
C0C710,大溪永福,2026-07-11,24.892936,121.324975,0.37472284
C0FA20,溫寮,2026-07-11,24.372177,120.583125,0.38044092
C0V640,湖內,2026-07-11,22.887139,120.2445,0.18621515
C0R910,下寮,2026-07-11,22.3929,120.5548,0.22190389
C0Z020,明里,2026-07-11,23.208717,121.262342,0.18576135
C0M770,嘉義梅山,2026-07-11,23.585398,120.555587,0.20878015
C0C660,楊梅,2026-07-11,24.912375,121.143047,0.47902292
C0SD40,牛頭山,2026-07-11,22.676661,121.506944,0.40897396
C1E511,新開,2026-07-11,24.347703,120.827019,0.769515
G2F820,農試所(霧峰),2026-07-11,24.031261,120.688133,0.051455308
C2M990,大巃頂,2026-07-11,23.5547,120.61439,0.5696879
C1I070,和社,2026-07-11,23.591131,120.888861,0.8329453
C2E990,新坪頂,2026-07-11,24.30201,120.8574,0.98813266
C0TA80,立霧山,2026-07-11,24.183258,121.641899,0.9080109
C2F000,大肚,2026-07-11,24.15295,120.572117,0.543689
C1S850,豐南,2026-07-11,23.122139,121.262389,0.869349
C2M9B0,西興,2026-07-11,23.2428,120.57617,0.7585615
C2A920,富貴角,2026-07-11,25.263783,121.565258,0.34193057
C0T960,光復,2026-07-11,23.660694,121.424964,0.8427675
C0F9M0,豐原,2026-07-11,24.254322,120.720692,0.3381739
C0R720,旭海,2026-07-11,22.205403,120.887614,0.08955178
C0V710,苓雅,2026-07-11,22.622742,120.330669,0.2260827
C0C740,觀音工業區,2026-07-11,25.064764,121.114856,0.64458305
CAC040,拉拉山,2026-07-11,24.699317,121.427133,0.17776869
C0V790,萬山,2026-07-11,22.905944,120.688056,0.17033887
U2HA30,臺大和社,2026-07-11,23.590856,120.888864,0.8329453
C2H9K0,屯原,2026-07-11,24.067969,121.209389,0.7654922
C0AJ90,澳底,2026-07-11,25.0552,121.9253,0.182832
C0Z100,東華,2026-07-11,23.89525,121.549833,0.25434497
C0G970,三豐,2026-07-11,23.882,120.2895,0.13340046
C0V900,汕尾,2026-07-11,22.4782,120.4151,0.15136291
C1R630,龍泉,2026-07-11,22.66701,120.59091,0.3557007
C1AC50,關渡,2026-07-11,25.133486,121.469331,0.22140513
C0C800,四稜,2026-07-11,24.64733,121.4293,0.75481737
C0F9I0,神岡,2026-07-11,24.272481,120.658314,0.34888452
C0K460,斗南,2026-07-11,23.678734,120.478359,0.07251043
C2O810,曾文,2026-07-11,23.219681,120.497328,0.15178725
467280,後龍,2026-07-11,24.648563,120.831834,0.734814
C1F9J1,清水林,2026-07-11,24.071242,120.820419,0.9624182
C2A650,火燒寮,2026-07-11,25.002719,121.742892,0.19854356
466930,竹子湖,2026-07-11,25.162078,121.544547,0.95751005
C1I220,樟湖,2026-07-11,23.905333,120.846983,0.8775377
C0I390,仁愛,2026-07-11,24.022122,121.132206,0.83070517
C0Z300,東里,2026-07-11,23.26853,121.30547,0.8271741
C1V590,新發,2026-07-11,23.057019,120.646064,0.9215312
C0K510,水林,2026-07-11,23.572924,120.24597,0.08007101
72S590,東改賓朗果園,2026-07-11,22.813889,121.071278,0.6866572
82A750,茶改北部分場,2026-07-11,24.955778,121.631222,0.22619043
C1A750,石碇服務區,2026-07-11,25.00872,121.646242,0.18401098
C0X300,鹿寮,2026-07-11,23.386047,120.477331,0.13316487
C0K590,雲林東勢,2026-07-11,23.674192,120.255721,0.073764704
C2K310,港尾布雞,2026-07-11,23.74834,120.38439,0.063923545
C0A570,桶後,2026-07-11,24.848222,121.597992,0.012280995
C0G720,溪州,2026-07-11,23.851589,120.499093,0.05423613
C1V160,達卡努瓦,2026-07-11,23.279811,120.705319,0.90727
C2M410,馬頭山,2026-07-11,23.324361,120.582017,0.23546872
C0V850,蚵仔寮,2026-07-11,22.7256,120.2527,0.19245996
C0S740,池上,2026-07-11,23.119628,121.209469,0.59597564
C1V390,尖山,2026-07-11,22.813153,120.367789,0.24955902
C0AH70,松山,2026-07-11,25.04871,121.55042,0.0768022
C0N010,鯤鯓國小,2026-07-11,23.1879,120.0889,0.2092356
C0SA60,知本（水試所）,2026-07-11,22.702394,121.082761,0.08952088
C0T9I0,豐濱,2026-07-11,23.583897,121.514806,0.7834111
C0UB00,淡江大學蘭陽校園,2026-07-11,24.823239,121.730383,0.80916035
C0W240,九宮,2026-07-11,24.423753,118.240186,0.15346211
C0T9N0,富里,2026-07-11,23.171639,121.249378,0.21740842
U2HA50,臺大竹山,2026-07-11,23.756972,120.681556,0.033174165
C0V840,鳳鼻頭,2026-07-11,22.5083,120.3591,0.15434529
C0X140,西港,2026-07-11,23.125608,120.203108,0.17511027
72D080,桃改五峰分場,2026-07-11,24.612194,121.157167,0.9600281
C2H9P0,伊拿谷,2026-07-11,23.963211,121.088264,0.9658318
C2K250,崙背,2026-07-11,23.75553,120.31893,0.07375731
C2H9F0,柑林,2026-07-11,24.018658,120.847072,0.067570664
C0TA20,加灣,2026-07-11,24.082025,121.608944,0.04042651
C0V530,阿蓮,2026-07-11,22.883208,120.327508,0.22104229
C0FB30,八仙山苗圃,2026-07-11,24.192719,121.001366,0.71773165
C0E791,卓蘭,2026-07-11,24.3126,120.8244,0.82299995
C2R260,春日,2026-07-11,22.370361,120.628306,0.0831754
C1I030,武界,2026-07-11,23.913225,121.052483,0.9224515
C0R520,崁頂,2026-07-11,22.514781,120.506914,0.19908515
C0R341,牡丹,2026-07-11,22.130036,120.792639,0.0658586
C0R930,萬丹,2026-07-11,22.5885,120.4851,0.15996502
C0S760,紅石,2026-07-11,23.069131,121.126219,0.78456604
C2C410,中央大學,2026-07-11,24.967652,121.185165,0.45936415
C1M610,石磐龍,2026-07-11,23.496606,120.663506,0.93170816
C2C830,中德,2026-07-11,24.981862,121.291344,0.2658677
C0C790,東眼山,2026-07-11,24.8284,121.40888,0.37112442
C0UA10,鴛鴦湖,2026-07-11,24.590269,121.412228,0.15161815
C0R800,丹路,2026-07-11,22.204481,120.750989,0.041983742
C2R240,萬巒,2026-07-11,22.527306,120.625111,0.18739432
C0G920,永靖,2026-07-11,23.924703,120.547533,0.090089455
C2M950,太和,2026-07-11,23.538372,120.702961,0.8213928
C1A630,下盆,2026-07-11,24.771003,121.538622,0.02213566
B2N890,畜產試驗所,2026-07-11,23.058972,120.336406,0.21823312
C0UA30,白嶺,2026-07-11,24.527819,121.519031,0.47666872
467571,新竹,2026-07-11,24.828575,121.01455,0.5458911
C1V580,溪南(特生中心),2026-07-11,23.084972,120.788475,0.70088077
C1T970,大農,2026-07-11,23.615233,121.413331,0.9891204
C0R650,竹田,2026-07-11,22.58486,120.54344,0.19517998
C1H900,清流,2026-07-11,24.080775,120.962997,0.9237103
C1C510,水尾,2026-07-11,24.940081,121.087161,0.68501586
C2N170,茅港尾,2026-07-11,23.2061,120.2624,0.18770072
C0F9X0,大雅(中科園區),2026-07-11,24.21528,120.62445,0.17064743
C0SB60,白守蓮,2026-07-11,23.126769,121.401914,0.35509536
C0O970,虎頭埤,2026-07-11,23.021375,120.347878,0.329226
C0C730,中大臨海站,2026-07-11,24.966126,121.008581,0.54197073
C0X250,新營,2026-07-11,23.310689,120.316681,0.25979918
C0V700,三民,2026-07-11,22.645017,120.311233,0.25030193
C0U870,大礁溪,2026-07-11,24.791042,121.675047,0.9227288
C0E870,高鐵苗栗,2026-07-11,24.60725,120.826094,0.729132
C2S890,關山,2026-07-11,23.0395,121.175017,0.5968483
C0TA30,鹽寮,2026-07-11,23.845606,121.592664,0.24070403
C0M860,新美,2026-07-11,23.338017,120.683169,0.8595983
C1E701,八卦,2026-07-11,24.491756,120.927619,0.98008543
C2TA90,加納納,2026-07-11,23.466421,121.359867,0.9842742
C0I420,國姓,2026-07-11,24.037803,120.855072,0.10095017
C2D720,關西工作站,2026-07-11,24.757275,121.184792,0.07308924
C2AK30,信賢,2026-07-11,24.84108,121.53492,0.011708924
C0S960,香蘭,2026-07-11,22.587569,120.993375,0.19935717
467620,蘭嶼,2026-07-11,22.0369,121.55843,0.8741689
C2UC40,中城,2026-07-11,24.62865,121.74745,0.1635785
72G600,臺中農改場,2026-07-11,24.003028,120.534389,0.095135756
C0Z210,瑞穗,2026-07-11,23.5239,121.39021,0.9554736
C0M820,達邦,2026-07-11,23.453994,120.749517,0.91941625
C0V860,南寮,2026-07-11,22.7616,120.2339,0.19245996
C0G740,大城,2026-07-11,23.852487,120.320935,0.13644531
C0R920,塭仔,2026-07-11,22.4169,120.5197,0.22063854
C0R470,高樹,2026-07-11,22.826389,120.600806,0.35019025
C0R680,佳樂水,2026-07-11,21.993578,120.861633,0.09295902
C1O870,大棟山,2026-07-11,23.31157,120.52226,0.84916854
C0D360,梅花,2026-07-11,24.678347,121.208558,0.53390735
C0Z190,富世,2026-07-11,24.14743,121.6297,0.7713703
C0AI10,屈尺,2026-07-11,24.92184,121.54475,0.103692934
B2U990,畜試東區分所,2026-07-11,24.669039,121.832561,0.14051881
C0SB80,長濱漁港,2026-07-11,23.313644,121.459994,0.92629695
C0TA50,和仁,2026-07-11,24.241394,121.712472,0.9684206
C2AK40,漁光,2026-07-11,24.96875,121.72132,0.8555163
C0V910,大樹,2026-07-11,22.684645,120.432803,0.21647759
C1R610,西大武山,2026-07-11,22.617719,120.7322,0.93546474
C0K500,元長,2026-07-11,23.642858,120.31966,0.073764704
C0G900,線西,2026-07-11,24.143358,120.443536,0.14097585
C0M700,竹崎,2026-07-11,23.526178,120.555508,0.17619789
C2E880,三義,2026-07-11,24.405478,120.749819,0.9910353
C0C720,竹圍,2026-07-11,25.112692,121.239824,0.329274
C0F9P0,清水,2026-07-11,24.312297,120.562242,0.17109911
C0Z150,吉安光華,2026-07-11,23.930925,121.595153,0.22776176
C0FA80,小雪山天池,2026-07-11,24.28025,121.02627,0.002034997
467300,東吉島,2026-07-11,23.25727,119.66762,0.7109026
C1D640,外坪(五指山),2026-07-11,24.644447,121.090961,0.96582973
C2R9A0,高士國小,2026-07-11,22.12553,120.84653,0.06402943
C0F9O0,潭子,2026-07-11,24.213106,120.703933,0.25962436
C2H9R0,卓社,2026-07-11,23.887894,121.000086,0.54472905
72T250,花蓮農改場,2026-07-11,23.975222,121.563889,0.24563925
C0E780,銅鑼,2026-07-11,24.489681,120.790853,0.6876109
C1T950,太安,2026-07-11,23.666719,121.370128,0.9507096
C0E830,苑裡,2026-07-11,24.439714,120.653053,0.6191794
467270,田中,2026-07-11,23.873803,120.581286,0.05827189
C0SA10,檳榔四格山,2026-07-11,22.810031,121.109308,0.8044883
C1T830,布洛灣,2026-07-11,24.17184,121.57127,0.13878722
C0F970,大坑,2026-07-11,24.173142,120.722289,0.10424941
C1U920,思源,2026-07-11,24.393125,121.347214,0.25180045
C2H9Y0,松茗,2026-07-11,23.8167,120.650765,0.040208627
C0A931,三和,2026-07-11,25.233153,121.595236,0.29743078
C0I010,廬山,2026-07-11,24.033311,121.181808,0.9462996
C2M940,日野賀,2026-07-11,23.434056,120.727169,0.9040559
C0R860,鼻頭,2026-07-11,22.1043,120.8979,0.07249761
C2I260,北坑,2026-07-11,23.92463,121.00683,0.9360501
C0UB20,壯圍,2026-07-11,24.7359,121.8163,0.113097586
C0R790,九棚,2026-07-11,22.14195,120.889281,0.060951293
C0W110,東莒,2026-07-11,25.9652,119.98069,0.89815915
C1U930,粉鳥林,2026-07-11,24.497088,121.842479,0.049090263
C0S830,長濱,2026-07-11,23.286817,121.411975,0.9803747
C1F9F1,伯公龍,2026-07-11,24.272392,120.849047,0.9679203
C0UB90,太平山莊,2026-07-11,24.494171,121.536209,0.053934738
C0E810,西湖,2026-07-11,24.562947,120.7485,0.88107276
C1I440,新高口,2026-07-11,23.478744,120.878939,0.009175161
C0O840,王爺宮,2026-07-11,23.222064,120.40085,0.1258998
C0T9G0,鳳林山,2026-07-11,23.735269,121.420131,0.97838664
C0X080,佳里,2026-07-11,23.173039,120.145086,0.21404046
C0FB70,大甲溪埔,2026-07-11,24.370625,120.620067,0.4067468
C0Z310,清水斷崖,2026-07-11,24.218294,121.689142,0.9823053
C0M680,太保,2026-07-11,23.455062,120.331455,0.15679108
C1S820,金峰,2026-07-11,22.590969,120.933236,0.2526851
C0AD10,八里,2026-07-11,25.150211,121.403947,0.18216448
C2K240,草嶺,2026-07-11,23.59555,120.693461,0.94374645
C1SA70,都蘭,2026-07-11,22.87794,121.226881,0.24616694
C0K440,二崙,2026-07-11,23.772797,120.408944,0.05860381
C1A760,坪林交控,2026-07-11,24.94284,121.713442,0.13318343
C0F9N0,大里,2026-07-11,24.092464,120.701378,0.054117773
C0SA90,達仁林場,2026-07-11,22.264347,120.823972,0.15329504
C1R290,石門山,2026-07-11,22.112611,120.756597,0.06941007
42HA10,萬大發電廠,2026-07-11,23.978875,121.139639,0.93419963
C0R890,山海,2026-07-11,21.9878,120.7091,0.048459116
C0T9A0,月眉山,2026-07-11,23.809928,121.539828,0.96329236
C0AC70,信義,2026-07-11,25.037822,121.564597,0.06974578
C0K560,棋山,2026-07-11,23.68645,120.603417,0.068080634
C2FB50,出雲,2026-07-11,24.206469,120.902794,0.9474074
C1Z240,中平林道,2026-07-11,23.42115,121.26763,0.9634933
U2H480,溪頭,2026-07-11,23.670306,120.798194,0.6396688
C0M880,好美里,2026-07-11,23.3364,120.138,0.23228522
C0T9E0,大坑,2026-07-11,23.880628,121.581981,0.32956704
C0K530,臺西,2026-07-11,23.701547,120.197559,0.09888469
C1E900,國一N128K,2026-07-11,24.560997,120.844186,0.6929277
C0AJ50,水湳洞,2026-07-11,25.123695,121.862238,0.18547934
C0AI20,白沙灣,2026-07-11,25.283128,121.519058,0.1512766
C2V310,美濃,2026-07-11,22.898792,120.51907,0.24430557
C0A860,大坪,2026-07-11,25.165914,121.632969,0.32848388
C1U850,觀音海岸,2026-07-11,24.38319,121.77856,0.98921967
C2K610,草嶺石壁,2026-07-11,23.602469,120.707731,0.9357776
C0U950,鶯子嶺,2026-07-11,24.89754,121.79244,0.9421795
C0O900,善化,2026-07-11,23.112883,120.297219,0.21303335
C0K550,蔦松,2026-07-11,23.514319,120.229736,0.09161976
E2P980,林試六龜中心,2026-07-11,22.991703,120.645722,0.5704236
C0E590,通霄,2026-07-11,24.471892,120.704622,0.6975578
C1I310,西巒,2026-07-11,23.754486,120.883956,0.7909826
C0A550,泰平,2026-07-11,24.971197,121.823711,0.3102252
C2UC30,金洋,2026-07-11,24.42465,121.74573,0.28882056
C0I360,水里,2026-07-11,23.812553,120.849792,0.022010026
C0R830,高士,2026-07-11,22.121825,120.836781,0.08577931
C1I101,溪頭,2026-07-11,23.661789,120.807647,0.20314181
C0AJ20,野柳,2026-07-11,25.20703,121.690021,0.13144757
C0B060,暖暖,2026-07-11,25.0957,121.7403,0.17205729
C1H920,長豐,2026-07-11,24.102039,120.879897,0.96457195
C2S9B0,利吉,2026-07-11,22.86246,121.15486,0.4845442
C0V360,內門,2026-07-11,22.975481,120.466769,0.22885269
C0R850,林邊,2026-07-11,22.4634,120.5339,0.1912568
C0E930,龍鳳,2026-07-11,24.700034,120.859125,0.8739767
C0U910,冬山,2026-07-11,24.63373,121.7937,0.14051881
C1E721,泰安,2026-07-11,24.489017,120.968036,0.9334737
82H320,茶改中部分場,2026-07-11,23.875611,120.913583,0.9433713
C0M750,布袋,2026-07-11,23.380878,120.167789,0.13874857
C1S860,利嘉,2026-07-11,22.809417,121.050528,0.9052199
E2S980,林試太麻里1,2026-07-11,22.598922,120.980044,0.14030805
C0X170,關廟,2026-07-11,22.963017,120.327797,0.31033996
C0V720,林園,2026-07-11,22.507747,120.394511,0.14730814
C2M9G0,沄水,2026-07-11,23.38293,120.52666,0.14448309
C1I510,線浸林道,2026-07-11,23.761508,120.832956,0.5303072
C0D690,外湖,2026-07-11,24.917735,120.968711,0.8128698
C0C750,新興坑尾,2026-07-11,25.0061,121.0971,0.6739721
B2Q810,畜試南區分所,2026-07-11,21.945583,120.802167,0.09295904
C0S790,金崙,2026-07-11,22.538122,120.966875,0.30615947
C0AH90,福山植物園,2026-07-11,24.760717,121.58135,0.03341256
C0I540,奇萊稜線,2026-07-11,24.109231,121.326456,0.0005437977
C0M850,表湖,2026-07-11,23.24186,120.64166,0.95984787
C0S770,大溪山,2026-07-11,22.478475,120.943325,0.037677877
C0AG80,中和,2026-07-11,24.991622,121.491792,0.09200304
C0T790,大禹嶺,2026-07-11,24.186117,121.316086,0.00095616083
C0T9B0,水源,2026-07-11,23.991861,121.537169,0.7882657
C0R840,牡丹池山,2026-07-11,22.168389,120.841225,0.16760841
C1I131,桶頭,2026-07-11,23.641944,120.654117,0.027244529
CAL110,布袋國中,2026-07-11,23.35893,120.18026,0.23228522
C2M9D0,何竹子腳,2026-07-11,23.53641,120.38203,0.07496816
C0Z290,赤柯山,2026-07-11,23.36893,121.38293,0.9952818
C0X280,將軍,2026-07-11,23.214999,120.13577,0.20517765
C0S690,太麻里,2026-07-11,22.60902,120.98533,0.84039044
C0U880,北關,2026-07-11,24.9072,121.8734,0.07018892
CAW010,東引,2026-07-11,26.3588,120.4836,0.735052
C0G810,埔心,2026-07-11,23.947633,120.525456,0.08914672
C0U970,大福,2026-07-11,24.80064,121.81389,0.13071191
C2H9N0,仁愛東眼,2026-07-11,24.026875,121.1205,0.50261253
C1E670,南礦,2026-07-11,24.538278,121.002836,0.9505377
C0M520,東後寮,2026-07-11,23.369908,120.248065,0.20710234
C1E461,松安,2026-07-11,24.397972,120.986022,0.9368754
C2N160,西拉雅風管處,2026-07-11,23.189481,120.335297,0.24422659
C2O850,環湖,2026-07-11,23.148665,120.4186,0.12610598
C2M970,碧湖,2026-07-11,23.568632,120.624165,0.58068496
C0A640,石碇,2026-07-11,24.993969,121.662917,0.13318361
E2S960,林試太麻里2,2026-07-11,22.598,120.99775,0.18913506
C0F9Y0,桃山,2026-07-11,24.432739,121.303808,0.0006026189
C1I020,萬大,2026-07-11,23.979817,121.132261,0.82110643
C2UC20,長嶺,2026-07-11,24.70894,121.61162,0.016109614
C0U940,羅東,2026-07-11,24.68184,121.74934,0.18999732
C0M650,朴子,2026-07-11,23.43463,120.23902,0.09395153
C1I500,大尖山,2026-07-11,23.858572,120.994889,0.040020913
C0FB40,中橫21.6k,2026-07-11,24.2499,121.1455,0.9176136
C0G820,田尾,2026-07-11,23.901669,120.509389,0.08914672
E2K600,四湖植物園,2026-07-11,23.676986,120.163433,0.09811318
C0S730,綠島,2026-07-11,22.6672,121.47533,0.47819355
12Q970,東港工作站,2026-07-11,22.479997,120.466058,0.1902394
C1TA00,太魯閣,2026-07-11,24.15773,121.6236,0.05987423
466920,臺北,2026-07-11,25.037658,121.514853,0.0768022
C0R600,舊泰武,2026-07-11,22.588194,120.664944,0.34456939
466910,鞍部,2026-07-11,25.182586,121.529731,0.963406
C1I230,九份二山,2026-07-11,23.961944,120.845,0.9597871
C2M810,里佳,2026-07-11,23.389125,120.716647,0.77109486
C2A660,瑞芳,2026-07-11,25.113169,121.801147,0.15867092
C0R270,琉球嶼,2026-07-11,22.332244,120.362236,0.26058465
C2V580,瑞山,2026-07-11,22.90304,120.43424,0.22568835
C1T990,高寮,2026-07-11,23.394239,121.356808,0.9588359
C0G620,芬園,2026-07-11,24.015678,120.6213,0.105738506
C1Z140,荖溪,2026-07-11,23.890575,121.45964,0.91185164
C1I201,中心崙,2026-07-11,23.728722,120.712097,0.7739842
C1I400,凌霄,2026-07-11,24.018778,121.004456,0.51397014
C1M640,十字,2026-07-11,23.492153,120.753683,0.5178762
G2P820,農試鳳山分所,2026-07-11,22.646611,120.356083,0.2284586
C0Z270,蕃薯寮,2026-07-11,23.73835,121.540108,0.95786256
C2E420,竹南,2026-07-11,24.70898,120.88897,0.89388275
C2D480,打鐵坑,2026-07-11,24.849664,121.150789,0.09614102
C0FB10,出雲山苗圃,2026-07-11,24.23105,120.90475,0.8056209
C0F9Q0,外埔,2026-07-11,24.347817,120.705686,0.46411312
C0K580,高鐵雲林,2026-07-11,23.737456,120.417944,0.063923545
C2I090,鳳凰,2026-07-11,23.728081,120.787347,0.8548523
C0U990,員山,2026-07-11,24.74435,121.72247,0.18394242
C0V770,大社,2026-07-11,22.730306,120.346639,0.20761386
C0X120,麻豆,2026-07-11,23.183289,120.248611,0.17492777
C0C670,龍潭,2026-07-11,24.870056,121.221389,0.09020607
C0D680,香山濕地,2026-07-11,24.783581,120.914988,0.81286997
C0S980,勝林山,2026-07-11,22.430439,120.8938,0.44990048
C0V730,大寮,2026-07-11,22.605614,120.395717,0.23731776
C0R570,麟洛,2026-07-11,22.65078,120.52719,0.14041694
C2M930,石卓,2026-07-11,23.478744,120.702264,0.53204733
C0G9B0,和美,2026-07-11,24.105169,120.492131,0.14178504
C2I240,外大坪,2026-07-11,23.9587,120.91788,0.9463214
CAG100,王功漁港,2026-07-11,23.96824,120.32586,0.23635985
C0X290,北門,2026-07-11,23.267772,120.125481,0.20517765
C2F930,大甲,2026-07-11,24.347667,120.640403,0.3952047
C0D650,湖口,2026-07-11,24.904794,121.043628,0.65967065
C0U780,五結,2026-07-11,24.68637,121.79794,0.14051881
C1I250,鯉潭,2026-07-11,23.961922,120.991131,0.9591627
C0R130,阿禮,2026-07-11,22.742908,120.743678,0.60288036
C0X100,臺南市北區,2026-07-11,23.010394,120.194228,0.18650617
C0S920,金峰嘉蘭,2026-07-11,22.594789,120.960825,0.30372187
C0V490,新興,2026-07-11,22.627422,120.298803,0.23283385
C0F9K0,大安,2026-07-11,24.345061,120.588025,0.30317053
C2E970,八甲,2026-07-11,24.535811,120.795983,0.77713853
C0V440,鳳山,2026-07-11,22.646653,120.356122,0.22845888
C1T940,大觀,2026-07-11,23.714206,121.373133,0.9907331
C0E740,造橋,2026-07-11,24.637056,120.864778,0.8272457
C0R100,尾寮山,2026-07-11,22.833111,120.683889,0.64808
A2K630,臺大雲林校區,2026-07-11,23.730628,120.423903,0.06381558
467990,馬祖,2026-07-11,26.169467,119.923158,0.92830455
C0D580,寶山,2026-07-11,24.735006,121.025192,0.60069275
E2P990,林試扇平站,2026-07-11,22.9677,120.6857,0.7255286
C0AI30,三重,2026-07-11,25.057328,121.500629,0.07504947
C0AH00,汐止,2026-07-11,25.066881,121.658778,0.1558049
C1Z040,立山,2026-07-11,23.443356,121.327375,0.9973102
466881,新北,2026-07-11,24.959207,121.525196,0.09417857
C0W130,花嶼,2026-07-11,23.40007,119.32276,0.5650509
C0A950,鼻頭角,2026-07-11,25.129036,121.923372,0.40408313
C0K470,林內,2026-07-11,23.748675,120.609642,0.06602815
C2F990,摩天嶺,2026-07-11,24.322458,120.936819,0.87529314
C2E430,南庄,2026-07-11,24.601775,121.000214,0.8499101
82C160,茶改場,2026-07-11,24.908472,121.185333,0.5302947
C2TB60,南安,2026-07-11,23.29818,121.26157,0.8391771
C0Z320,清水林道,2026-07-11,23.27125,121.188272,0.98601615
C0R760,南仁湖,2026-07-11,22.084681,120.863353,0.07001252
C0M670,大林,2026-07-11,23.600616,120.45841,0.08322346
C0M800,茶山,2026-07-11,23.299075,120.664767,0.5501744
C0A9C0,天母,2026-07-11,25.117494,121.537169,0.070682354
72K220,南改斗南分場,2026-07-11,23.634556,120.477333,0.07307131
72AI40,桃改樹林分場,2026-07-11,24.944503,121.386972,0.103522524
C0S910,蘭嶼燈塔,2026-07-11,22.081197,121.503117,0.7617031
C0B050,八斗子,2026-07-11,25.144754,121.79167,0.13541996
C0U900,內城,2026-07-11,24.71813,121.68766,0.19454539
C0X320,柳營,2026-07-11,23.253328,120.375253,0.12140222
C0M790,新港,2026-07-11,23.553269,120.345728,0.08361591
C0F9T0,西屯,2026-07-11,24.179494,120.641275,0.1149644
C0E950,松安,2026-07-11,24.39792,120.98599,0.9368754
C0SA30,都歷,2026-07-11,23.020333,121.323642,0.1706634
C0C620,蘆竹,2026-07-11,25.084275,121.265767,0.40485135
C0R730,大坪頂,2026-07-11,22.024633,120.69355,0.040652256
C0AJ40,石門,2026-07-11,25.273672,121.601198,0.28310907
C0E750,苗栗,2026-07-11,24.564569,120.824575,0.6874176
C0T870,鯉魚潭,2026-07-11,23.935639,121.508944,0.3494848
C1V170,排雲,2026-07-11,23.463619,120.954147,0.00028558873
C2H950,中寮,2026-07-11,23.884447,120.766406,0.044531073
C0R350,貓鼻頭,2026-07-11,21.921774,120.7358,0.048490018
C0V660,岡山,2026-07-11,22.797078,120.294958,0.19771056
C1H941,雙冬,2026-07-11,23.967378,120.802189,0.8890509
C0AJ70,田寮,2026-07-11,25.2698,121.4886,0.14891213
C0AI00,五股,2026-07-11,25.07445,121.42728,0.19927599
C0Z280,德武,2026-07-11,23.47426,121.41071,0.98127604
C2RA10,大新,2026-07-11,22.67558,120.57788,0.35570076
C0C460,復興,2026-07-11,24.820208,121.352281,0.24657905
C2AA10,中八仙,2026-07-11,25.11576,121.49199,0.066538
E2H360,蓮華池,2026-07-11,23.918333,120.885278,0.91344327
C0M640,中埔,2026-07-11,23.42538,120.5229,0.16596802
C2C810,八德蔬果,2026-07-11,24.97858,121.28187,0.2658677
C2M9F0,安溪寮,2026-07-11,23.350334,120.208039,0.23486948
C0W140,金沙,2026-07-11,24.488292,118.408778,0.15616372
C2A540,四堵,2026-07-11,24.8926,121.745736,0.17515849
C0ACA0,新莊,2026-07-11,25.051478,121.446756,0.08514233
C0R220,潮州,2026-07-11,22.534361,120.54,0.20164236
U2HA40,臺大內茅埔,2026-07-11,23.689722,120.851117,0.11961557
467490,臺中,2026-07-11,24.145736,120.684075,0.08228328
C0UB60,明池,2026-07-11,24.650688,121.475277,0.8124679
C0U960,翠峰湖,2026-07-11,24.510856,121.608044,0.073672466
E2HA20,林試畢祿溪站,2026-07-11,24.226944,121.308522,0.053852137
C2M9A0,大華,2026-07-11,23.4824,120.67491,0.93425596
C0V890,前鎮,2026-07-11,22.5718,120.3117,0.20241441
C1F941,雪嶺,2026-07-11,24.280586,121.026642,0.002034997
C2H9E0,國姓南港,2026-07-11,23.911108,120.846556,0.85536873
C0AC80,文山,2026-07-11,25.00235,121.575728,0.06628117
C0F9R0,龍井,2026-07-11,24.184536,120.528972,0.16373973
C0M760,民雄,2026-07-11,23.551754,120.428457,0.08322346
C0UA40,西德山,2026-07-11,24.560647,121.752608,0.97906464
C2TA70,赤科坪,2026-07-11,23.39885,121.39168,0.99739337
C1T920,中興,2026-07-11,23.769503,121.498653,0.28077838
C0D550,雪霸,2026-07-11,24.526972,121.11605,0.46617714
C2F860,梨山,2026-07-11,24.247522,121.243669,0.033810772
C0R320,車城,2026-07-11,22.0744,120.716247,0.027655764
C1S870,南美山,2026-07-11,23.15025,121.382333,0.9388177
C0B020,基隆嶼,2026-07-11,25.19141,121.78391,0.14091642
C1U501,牛鬥,2026-07-11,24.637836,121.573656,0.0146756265
C0M730,嘉義市東區,2026-07-11,23.457673,120.460531,0.10651432
C2R990,泰武,2026-07-11,22.60686,120.69765,0.8370913
C0S700,知本,2026-07-11,22.684866,121.005642,0.8226188
C1N001,沙崙,2026-07-11,22.935472,120.309406,0.2994186
C0V760,橋頭,2026-07-11,22.757806,120.30575,0.20606248
C2V570,吉東,2026-07-11,22.85418,120.54539,0.33260727
C0G960,福寶,2026-07-11,24.0443,120.3814,0.14593558
C0X210,白河,2026-07-11,23.347466,120.414427,0.14909348
C0S810,東河,2026-07-11,22.972672,121.303986,0.16756353
C2R170,屏東,2026-07-11,22.66027,120.49403,0.14041694
C0R670,楓港,2026-07-11,22.190131,120.692156,0.03263474
C0FA50,霧峰,2026-07-11,24.0419,120.6995,0.05520323
C0UB10,蘇澳,2026-07-11,24.5969,121.8571,0.040083442
C0G950,防潮門,2026-07-11,24.1835,120.4871,0.14173488
C0M740,六腳,2026-07-11,23.492871,120.290625,0.07430492
C1R250,力里,2026-07-11,22.428117,120.629228,0.22788103
C0K330,虎尾,2026-07-11,23.719183,120.442036,0.06375143
C2FA00,烏石坑,2026-07-11,24.273503,120.947617,0.8617684
C0V620,永安,2026-07-11,22.82315,120.236856,0.1956505
C1I330,楓樹林,2026-07-11,23.986803,121.076117,0.65811056
C0W200,湖西,2026-07-11,23.596314,119.67275,0.7579463
72Q010,高雄農改場,2026-07-11,22.709333,120.525889,0.20528343
C2K301,鹿南,2026-07-11,23.643341,120.3683,0.08386886
C0C680,龜山,2026-07-11,25.02846,121.38656,0.37954184
C2V260,月眉,2026-07-11,22.971003,120.539853,0.27011237
C0V450,鳳森,2026-07-11,22.545064,120.392592,0.15140025
C0FA90,小雪山林道,2026-07-11,24.29515,121.03651,0.0012432963
C0U720,南山,2026-07-11,24.43742,121.38167,0.7806113
A2N290,臺南蘭花園區,2026-07-11,23.340258,120.379661,0.14288095
C0R560,新園,2026-07-11,22.5434,120.461558,0.14730814
C0U890,三星,2026-07-11,24.66812,121.65302,0.27783132
C1V300,御油山,2026-07-11,23.001983,120.715364,0.7312471
C0U600,礁溪,2026-07-11,24.817539,121.765608,0.14329855
C1T980,龍澗,2026-07-11,24.023289,121.411328,0.880825
C0R700,枋山,2026-07-11,22.247814,120.660794,0.03526659
C0D670,海天一線,2026-07-11,24.831986,120.914438,0.83350736
C0SA00,歷坵,2026-07-11,22.520969,120.89185,0.028519068
C0M710,東石,2026-07-11,23.458927,120.15385,0.14585054
C0M780,鹿草,2026-07-11,23.41134,120.30835,0.09836702
C0U520,雙連埤,2026-07-11,24.753033,121.641303,0.9493007
C0B010,七堵,2026-07-11,25.094819,121.71713,0.14293066
C0R480,長治,2026-07-11,22.693128,120.542622,0.32010055
C1V830,國三S383K,2026-07-11,22.781967,120.426475,0.22531381
12Q980,恆春工作站,2026-07-11,22.079678,120.714425,0.027655764
C1O940,東山服務區,2026-07-11,23.286016,120.398472,0.14309454
C1U840,東澳嶺,2026-07-11,24.5378,121.8485,0.92228603
C1D630,飛鳳山,2026-07-11,24.766464,121.119178,0.9637389
C0S940,石寧山,2026-07-11,23.223772,121.406639,0.9128558
C0K410,北港,2026-07-11,23.573957,120.292802,0.08021035
C2M620,瑞里,2026-07-11,23.545133,120.675197,0.8871229
C0SB70,小港漁港,2026-07-11,23.158558,121.400431,0.37462068
C2O950,安南,2026-07-11,23.076694,120.144861,0.24060409
C0F0E0,南湖圈谷,2026-07-11,24.363714,121.444667,0.00031335469
467610,成功,2026-07-11,23.097486,121.373428,0.14484563
C0G890,伸港,2026-07-11,24.148933,120.484403,0.14295006
C2E540,龍溪,2026-07-11,24.606489,120.783933,0.66619503
C1V200,梅山,2026-07-11,23.268447,120.823556,0.95413387
C0T9H0,加路蘭山,2026-07-11,23.682947,121.5274,0.9902489
C2O930,玉井,2026-07-11,23.126042,120.46055,0.12610598
C1F911,新伯公,2026-07-11,24.221361,120.841069,0.85017526
C0X200,左鎮,2026-07-11,23.056758,120.408522,0.21146311
C2TB50,麻汝,2026-07-11,23.42554,121.39358,0.9848348
C0FA60,鞍馬山工作站,2026-07-11,24.267064,121.000793,0.011967209
C0SB50,叭嗡嗡,2026-07-11,23.047062,121.343223,0.1271242
C2R550,新埤,2026-07-11,22.467947,120.582894,0.19253735
C1F891,稍來,2026-07-11,24.265689,121.001142,0.01566795
C2M9C0,紫雲,2026-07-11,23.494914,120.540253,0.14125933
72N240,七股研究中心,2026-07-11,23.081672,120.062894,0.23235252
C0C700,中壢,2026-07-11,24.977661,121.256375,0.28218588
C0M690,水上,2026-07-11,23.419734,120.388909,0.0954734
C0V690,鼓山,2026-07-11,22.623325,120.275575,0.23283385
C0O860,大內,2026-07-11,23.11885,120.36083,0.2539145
C0Z200,萬榮,2026-07-11,23.709219,121.420106,0.6591769
C0T9D0,和中,2026-07-11,24.26676,121.74103,0.9673392
C2S9A0,北份子寮,2026-07-11,22.78561,121.07813,0.2641455
C1O921,楠西,2026-07-11,23.183511,120.484083,0.1270944
C0AJ30,淡水觀海,2026-07-11,25.184591,121.408616,0.17834981
C0V810,左營,2026-07-11,22.67491,120.28491,0.25030193
C0UA70,桃源谷,2026-07-11,24.962606,121.888875,0.5691295
C0X130,官田,2026-07-11,23.193217,120.315422,0.24360715
C1H000,翠峰,2026-07-11,24.109397,121.205211,0.018319855
C0UA90,石城,2026-07-11,24.980444,121.951214,0.45165166
C1E681,南勢山,2026-07-11,24.421669,120.923831,0.988574
C0A9F0,內湖,2026-07-11,25.079422,121.57545,0.06974578
C0K291,宜梧,2026-07-11,23.536281,120.169329,0.1115606
C1K540,口湖,2026-07-11,23.585344,120.180517,0.1118218
C0R780,滿州,2026-07-11,22.024403,120.839892,0.07828909
C0V870,文安,2026-07-11,22.8025,120.2164,0.19245996
C0U650,玉蘭,2026-07-11,24.675286,121.587061,0.016392596
C0R640,東港,2026-07-11,22.46247,120.44074,0.15434529
C0AJ80,板橋,2026-07-11,25.0107,121.4489,0.09200312
C0S660,下馬,2026-07-11,23.150427,121.070312,0.9692603
C2N190,烏樹,2026-07-11,23.32393,120.36989,0.2547286
C1H9B1,阿眉,2026-07-11,24.1263,120.994672,0.58761084
C0UA20,多加屯,2026-07-11,24.368614,121.373189,0.0012742669
C0E730,頭份,2026-07-11,24.688247,120.912206,0.88913494
72V140,高改旗南分場,2026-07-11,22.857861,120.516667,0.34125555
C2R490,九如,2026-07-11,22.74049,120.490555,0.20528343
C0K480,莿桐,2026-07-11,23.761192,120.502372,0.062601596
C0U980,坪林石牌,2026-07-11,24.86478,121.77396,0.9130266
C0T900,西林,2026-07-11,23.8119,121.441458,0.49117497
C1I150,青雲,2026-07-11,23.793361,120.949378,0.049864486
C2E980,和興,2026-07-11,24.505319,120.923016,0.83235085
467350,澎湖,2026-07-11,23.565503,119.563094,0.63123494
C0G800,埔鹽,2026-07-11,24.000394,120.431683,0.15042612
C0H960,草屯,2026-07-11,23.973672,120.68085,0.049987126
C1V780,多納林道,2026-07-11,22.888028,120.737917,0.94719356
C0E920,通霄漁港,2026-07-11,24.498589,120.673876,0.68090636
C0Z330,安通山,2026-07-11,23.290728,121.348528,0.9669151
C0AH10,永和,2026-07-11,25.01125,121.508111,0.09068547
C0AK10,太平里,2026-07-11,25.134937,121.364899,0.15656087
C2G640,鹿港,2026-07-11,24.0753,120.430481,0.14030759
C1E890,國三N149K,2026-07-11,24.463414,120.680019,0.70544773
C1M870,國三N285K,2026-07-11,23.550319,120.505833,0.15106116
C1E480,鳳美,2026-07-11,24.554803,121.034747,0.69678545
C0T9M0,靜浦,2026-07-11,23.455167,121.495028,0.92354465
C2H9M0,發祥,2026-07-11,24.154094,121.164517,0.951649
C2G9C0,埔南,2026-07-11,23.99124,120.46969,0.15042612
C0AI40,石牌,2026-07-11,25.115597,121.513139,0.06974586
C1F871,上谷關,2026-07-11,24.203483,121.018644,0.8617684
C2H9G0,百勝,2026-07-11,24.051142,120.909361,0.76466304
C0G880,二水,2026-07-11,23.810742,120.6173,0.05095273
C0R940,加祿堂,2026-07-11,22.3363,120.6217,0.09284889
C0W220,北竿,2026-07-11,26.220358,119.974881,0.9240623
C0O960,崎頂,2026-07-11,22.959547,120.369317,0.36422127
C0TA40,秀林,2026-07-11,24.302864,121.731144,0.9745305
C0S750,向陽,2026-07-11,23.248397,120.986133,0.35323405
C0T9F0,水璉,2026-07-11,23.797131,121.542514,0.7243931
C1M600,頭凍,2026-07-11,23.406364,120.603339,0.5976286
467660,臺東,2026-07-11,22.752211,121.154586,0.12848216
C1D380,新埔,2026-07-11,24.84745,121.03834,0.60226136
C2G980,田頭村,2026-07-11,23.8263,120.444175,0.05860381
C0V750,路竹,2026-07-11,22.854997,120.259439,0.20202099
C0N050,蚵寮,2026-07-11,23.301,120.1104,0.20517765
C2X060,下營,2026-07-11,23.226806,120.256291,0.18770093
72M700,南改鹿草分場,2026-07-11,23.416869,120.283061,0.095722996
C1SA50,利嘉林道,2026-07-11,22.82325,121.009389,0.7893294
C0UB70,太平山中間站,2026-07-11,24.542003,121.513453,0.4602889
C0A940,金山,2026-07-11,25.223628,121.643967,0.13594541
C1V340,大津,2026-07-11,22.888322,120.645986,0.35106692
C0W180,七美,2026-07-11,23.219333,119.444892,0.657395
C1F9C1,白冷,2026-07-11,24.182844,120.929889,0.951826
K2E710,苗改生物防治研究中心,2026-07-11,24.422861,120.871833,0.77944297
C0N040,蘆竹溝,2026-07-11,23.2344,120.0961,0.20312256
C0TB40,崇德,2026-07-11,24.166144,121.657414,0.8146497
C0D760,大坪苗圃,2026-07-11,24.5362,121.1108,0.9269139
C2D430,峨眉,2026-07-11,24.6905,121.017189,0.7361448
C2W230,畜試所澎湖,2026-07-11,23.628342,119.513206,0.6524557
C0R880,後壁湖,2026-07-11,21.9457,120.7457,0.048459116
C1I280,埔中,2026-07-11,23.820778,120.642594,0.04344439
467790,墾丁雷達站,2026-07-11,21.948235,120.808028,0.09441629
C0W190,望安,2026-07-11,23.380564,119.494075,0.7465525
C0Z170,卓溪,2026-07-11,23.3443,121.3029,0.7418904
C0F850,東勢,2026-07-11,24.246428,120.833047,0.7800665
466900,淡水,2026-07-11,25.164889,121.448906,0.15580171
C0I370,魚池,2026-07-11,23.895703,120.94135,0.9281967
C0C630,大溪,2026-07-11,24.882853,121.265547,0.39460495
C0A520,山佳,2026-07-11,24.974944,121.402008,0.10118431
C0I110,竹山,2026-07-11,23.761225,120.688156,0.033033054
82H840,茶改南部分場,2026-07-11,23.762528,120.7405,0.03144467
C2SD80,再來山,2026-07-11,23.34371,121.44122,0.9810148
C0G660,溪湖,2026-07-11,23.94835,120.479122,0.08826805
C1T800,洛韶,2026-07-11,24.204558,121.453956,0.94027644
C1T810,慈恩,2026-07-11,24.192044,121.388386,0.13537593
C1E451,象鼻,2026-07-11,24.368617,120.940228,0.988574
C0AC60,三峽,2026-07-11,24.939025,121.369728,0.21688966
C0I490,萬大林道,2026-07-11,23.928228,121.091411,0.22961481
C1I290,豐丘,2026-07-11,23.668178,120.887417,0.604757
C1I320,奧萬大,2026-07-11,23.952956,121.178556,0.96541697
C2M910,嘉義大學,2026-07-11,23.471325,120.485903,0.115655705
C0U770,南澳,2026-07-11,24.44935,121.81022,0.049090263
C2TB30,吉安,2026-07-11,23.94538,121.54803,0.2765283
C0A980,社子,2026-07-11,25.109508,121.469681,0.08120089
C0V800,六龜,2026-07-11,22.997889,120.633583,0.5221441
C1G9D0,國一S218K,2026-07-11,23.890641,120.493253,0.07972332
C0E570,白沙屯,2026-07-11,24.549447,120.696803,0.86051995
C2F9A0,中竹林,2026-07-11,24.103556,120.751061,0.60571855
C0FA40,臺中電廠,2026-07-11,24.2146,120.4907,0.15295738
C2G9A0,畜試所彰化,2026-07-11,23.86045,120.557964,0.05827189
C0H9C0,合歡山,2026-07-11,24.143442,121.272547,0.00044868691
G2M350,農試溪口農場,2026-07-11,23.58565,120.408111,0.076578416
C0U860,頭城,2026-07-11,24.85323,121.8308,0.13347822
C0R580,南州,2026-07-11,22.48591,120.50274,0.1902394
C0G780,秀水,2026-07-11,24.03405,120.503869,0.095135756
72N100,臺南農改場,2026-07-11,23.0605,120.342194,0.22012408
C0S900,蘭嶼高中,2026-07-11,22.04909,121.51214,0.67904997
C2TA60,六十石,2026-07-11,23.22477,121.31861,0.96976656
C1F9W0,德基,2026-07-11,24.254783,121.190261,0.2846777
C2M980,安和,2026-07-11,23.51377,120.31593,0.07430492
C1Z120,壽豐,2026-07-11,23.870853,121.508081,0.25434497
C0W160,烏坵,2026-07-11,24.9944,119.44956,0.8454366
C1I550,國六W023K,2026-07-11,23.979067,120.867742,0.29942426
C0R870,興海,2026-07-11,21.9752,120.8439,0.09295902
C0R140,瑪家,2026-07-11,22.682903,120.686639,0.09951305
C0A530,坪林,2026-07-11,24.938183,121.70975,0.16559796
C0X260,後壁,2026-07-11,23.366358,120.362326,0.23110914
C0Z230,和平,2026-07-11,24.30717,121.77007,0.9823167
C0G770,福興,2026-07-11,24.041289,120.437669,0.15042612
C0H9A0,神木村,2026-07-11,23.532742,120.843667,0.52199537
C0I460,南投,2026-07-11,23.911469,120.687331,0.049256794
C0I480,梅峰,2026-07-11,24.085272,121.173572,0.3167427
C2D770,巨埔,2026-07-11,24.84435,121.11442,0.40623826
C2A560,福山,2026-07-11,24.776203,121.502811,0.015337916
C0AH30,五分山,2026-07-11,25.07125,121.780794,0.915044
C0FA10,松柏,2026-07-11,24.429115,120.617482,0.5962997
72S200,東改班鳩分場,2026-07-11,22.829528,121.077694,0.5941719
72HA00,中改埔里分場,2026-07-11,23.903208,120.963364,0.9174027
C2H9W0,大坪頂農水,2026-07-11,24.043122,120.932781,0.94444114
C0C650,平鎮,2026-07-11,24.897503,121.214636,0.5280531
C0S930,延平,2026-07-11,22.902581,121.084058,0.6828202
C0UA60,樟樹山,2026-07-11,24.41393,121.78325,0.97922724
C2UC10,出水溪,2026-07-11,24.615822,121.652253,0.53823644
C1S670,摩天,2026-07-11,23.199503,121.027,0.9621517
C2C590,觀音,2026-07-11,25.027072,121.153317,0.6861837
C0V630,茄萣,2026-07-11,22.906642,120.182608,0.18403134
466940,基隆,2026-07-11,25.133314,121.740475,0.13716714
C0X050,東河,2026-07-11,23.296598,120.385608,0.14288098
C0R770,保力,2026-07-11,22.071122,120.764111,0.03927263
G2L020,農試嘉義分所,2026-07-11,23.485028,120.473806,0.11803632
C0X240,關子嶺,2026-07-11,23.331169,120.508025,0.46562964
C0I380,集集,2026-07-11,23.828206,120.801467,0.021935295
466990,花蓮,2026-07-11,23.975128,121.613275,0.040417746
C1V220,小關山,2026-07-11,23.154217,120.813603,0.21159178
C1F9G1,慶福山,2026-07-11,24.180853,120.848378,0.97159785
C0FB20,雪山橋,2026-07-11,24.23192,120.9786,0.044572987
C0Z250,瑞穗林道,2026-07-11,23.49284,121.30688,0.95123315
C0D590,新豐,2026-07-11,24.87068,120.97721,0.9427863
C2N200,口宵里,2026-07-11,23.15987,120.45988,0.26691478
C0A870,五指山,2026-07-11,25.132153,121.608692,0.9612637
C0UA50,西帽山,2026-07-11,24.555361,121.802628,0.9158856
C2R980,竹田國中,2026-07-11,22.61532,120.52412,0.19678326
C0X160,仁德,2026-07-11,22.968258,120.257689,0.26368156
C1H971,六分寮,2026-07-11,23.92507,120.6378,0.6508349
C2D790,石鹿,2026-07-11,24.56551,121.15841,0.6973354
C0W120,西嶼,2026-07-11,23.5626,119.468436,0.55605817
C0G650,員林,2026-07-11,23.946503,120.585597,0.081872895
C0AD50,鶯歌,2026-07-11,24.951533,121.346294,0.26047912
C2H9Q0,北東眼山,2026-07-11,24.120939,121.189303,0.5157815
C2H9T0,名間竹圍,2026-07-11,23.859914,120.637572,0.033859327
C0S990,山豬窟,2026-07-11,22.318619,120.857372,0.09122155
C0X190,安平,2026-07-11,22.993161,120.152181,0.18292281
C0K400,斗六,2026-07-11,23.720583,120.541127,0.06285931
12J990,口湖工作站,2026-07-11,23.589978,120.180394,0.1118218
C0O830,北寮,2026-07-11,23.079561,120.495008,0.24754906
C1D410,白蘭,2026-07-11,24.579364,121.079947,0.9415118
C0S970,加津林,2026-07-11,22.416211,120.926942,0.21355276
C0D700,關西,2026-07-11,24.7977,121.1732,0.07181374
C0U750,龜山島,2026-07-11,24.841667,121.953133,0.21321051
C0R810,內獅,2026-07-11,22.305064,120.642986,0.03526659
C2EA10,拉庫斯,2026-07-11,24.53637,121.02137,0.9613097
C1M390,龍美,2026-07-11,23.406728,120.654417,0.9069321
C2K290,崙內,2026-07-11,23.69525,120.35601,0.08386886
C2FB60,頭櫃山,2026-07-11,24.129842,120.858925,0.87897134
C1H840,國三N238K,2026-07-11,23.841008,120.707711,0.027005898
CAQ030,崎峰國小,2026-07-11,22.42565,120.49521,0.1902394
C2E520,大湖,2026-07-11,24.414939,120.870872,0.81327075
467530,阿里山,2026-07-11,23.508208,120.813242,0.0076534175
C1E691,南湖,2026-07-11,24.40135,120.837533,0.99058425
C0FA30,梧棲,2026-07-11,24.256003,120.523381,0.16373973
C1V231,高中,2026-07-11,23.134911,120.716711,0.97074616
C0AK30,硬漢嶺,2026-07-11,25.136097,121.426372,0.91461384
C0F9V0,新社,2026-07-11,24.200172,120.815806,0.9732029
C0H890,埔里,2026-07-11,23.972169,120.952425,0.530925
C0R690,墾丁,2026-07-11,21.966756,120.810269,0.13541716
C0SD20,富山,2026-07-11,22.822383,121.190825,0.13424695
C0F0D0,審馬陣,2026-07-11,24.381675,121.4203,0.00084588194
C2W030,金門農試所,2026-07-11,24.448431,118.451786,0.31255904
C0R820,白鷺,2026-07-11,22.454275,120.666219,0.083224885
C0FB00,大雪山,2026-07-11,24.254668,121.007374,0.010965145
C2O880,南化,2026-07-11,23.17332,120.59413,0.22836575
C1V190,南天池,2026-07-11,23.27403,120.91176,0.07902852
C0E940,雪見,2026-07-11,24.42595,121.01347,0.16862488
K2E360,苗栗農改場,2026-07-11,24.495722,120.829111,0.6160674
CAJ050,海口故事園區,2026-07-11,23.57543,120.14121,0.1118218
C2K280,四湖,2026-07-11,23.6304,120.22717,0.09811318
C2H9D0,三隻寮,2026-07-11,24.093078,120.861578,0.9648722
C0O990,媽廟,2026-07-11,22.99175,120.293525,0.22798243
C0Z220,和平林道,2026-07-11,24.343922,121.656317,0.9518332
C0TA10,花蓮漁港,2026-07-11,23.995322,121.638331,0.6828337
72C440,桃園農改場,2026-07-11,24.950944,121.030583,0.6322571
C1E711,馬拉邦山,2026-07-11,24.367306,120.901656,0.9887821
C0SB20,富岡,2026-07-11,22.792467,121.192669,0.15149793
C0D560,竹東,2026-07-11,24.767147,121.057881,0.5466784
C0F9U0,南屯,2026-07-11,24.137006,120.637969,0.07760399
C2SD60,明峰,2026-07-11,22.8671,121.11825,0.7168714
C0M720,番路,2026-07-11,23.464657,120.554156,0.2002619
C0F0A0,雪山圈谷,2026-07-11,24.388594,121.236339,0.00040380133
C1A9N0,四十份,2026-07-11,24.934158,121.593283,0.5440508
C0U760,東澳,2026-07-11,24.52196,121.83318,0.051131215
C0X230,鹽水,2026-07-11,23.272621,120.247641,0.23486948
C2H9H0,苗改南投蜂場,2026-07-11,23.852589,120.693481,0.027415622
C2TB70,達谷寮,2026-07-11,23.38,121.35968,0.97399503
C0R950,萬隆國小,2026-07-11,22.507667,120.587817,0.20257701
467540,大武,2026-07-11,22.35572,120.90374,0.035522982
C0V370,古亭坑,2026-07-11,22.893178,120.401947,0.2150256
C1I340,新興橋,2026-07-11,23.563333,120.868728,0.8223527
C2C480,桃園,2026-07-11,24.992425,121.323172,0.2658677
C0SA80,土坂,2026-07-11,22.453108,120.887572,0.030478436
C0R160,鹽埔,2026-07-11,22.739558,120.530778,0.20528337
C0AC40,大屯山,2026-07-11,25.175675,121.522408,0.9471141
466850,五分山雷達站,2026-07-11,25.071182,121.781205,0.9231199
C2H9L0,馬烈霸,2026-07-11,24.1512,121.201772,0.21999691
C1AI50,國三N016K,2026-07-11,25.034164,121.619664,0.088632435
C2V920,匏子寮,2026-07-11,23.04905,120.55319,0.4198682
C1V600,藤枝,2026-07-11,23.071961,120.757042,0.8200082
C1E601,南勢,2026-07-11,24.572486,120.734842,0.91386604
C0O980,新市,2026-07-11,23.061614,120.298197,0.21470915
C0K420,西螺,2026-07-11,23.800407,120.467394,0.058436356
C0Z050,佳心,2026-07-11,23.34567,121.21316,0.9892859
C0AD30,蘆洲,2026-07-11,25.086594,121.472331,0.08001772
C0V610,梓官,2026-07-11,22.760558,120.267211,0.19686846
K2F750,種苗改良場,2026-07-11,24.225972,120.800917,0.9546336
C0UA80,大溪漁港,2026-07-11,24.941801,121.902955,0.17679526
C1AI60,國一39K邊坡,2026-07-11,25.064361,121.383836,0.24370314
C0W150,金寧,2026-07-11,24.457703,118.328989,0.14998266
C0R960,內埔,2026-07-11,22.608483,120.570714,0.19830737
C2H9S0,龍南,2026-07-11,23.953536,120.833183,0.92959374
C0AH40,平等,2026-07-11,25.129142,121.577086,0.7383458
C0R540,佳冬,2026-07-11,22.419456,120.552375,0.22493851
466950,彭佳嶼,2026-07-11,25.627975,122.079744,0.15294029
C0A890,雙溪,2026-07-11,25.036003,121.864242,0.19581762
C0AH50,林口,2026-07-11,25.072181,121.38084,0.37490547
A2K360,水試臺西試驗場,2026-07-11,23.717231,120.190522,0.09782771
C2M960,外寮,2026-07-11,23.562643,120.665688,0.9414275
C0F9S0,烏日,2026-07-11,24.107058,120.624103,0.096996486
C2N180,鹿陶洋,2026-07-11,23.14325,120.48352,0.12709436
C0C490,八德,2026-07-11,24.928708,121.283289,0.3640422
C0R190,赤山,2026-07-11,22.592333,120.614306,0.2113034
C0T820,天祥,2026-07-11,24.179597,121.495639,0.44207945
C1F9E1,龍安,2026-07-11,24.1605,120.831961,0.9800209
C2SD50,順那,2026-07-11,23.04166,121.29332,0.25601456
C0V820,小林,2026-07-11,23.148408,120.63325,0.64764845
C2G870,芳苑,2026-07-11,23.922303,120.320025,0.21517363
C0E850,大河,2026-07-11,24.618069,120.948578,0.6733181
C1U670,寒溪,2026-07-11,24.634,121.71691,0.26380837
C0N020,城西,2026-07-11,23.0568,120.0956,0.2369551
C1Z110,三棧,2026-07-11,24.11557,121.60501,0.9209414
C0R280,檳榔,2026-07-11,22.076078,120.836777,0.055200953
C2H9J0,中台,2026-07-11,23.9996,120.938739,0.8921005
C0F9L0,后里,2026-07-11,24.310436,120.729725,0.5356242
467441,高雄,2026-07-11,22.730432,120.312516,0.20761386
C2N210,岩坑,2026-07-11,23.24614,120.47458,0.15784293
C0Z180,新城,2026-07-11,24.040486,121.604878,0.040649075
C0D540,橫山,2026-07-11,24.71116,121.11693,0.7447474
C1D420,太閣南,2026-07-11,24.632808,121.160575,0.55075705
C1E770,公館,2026-07-11,24.526914,120.830806,0.6847149
CAN130,水試所海水繁養殖中心,2026-07-11,23.120802,120.07968,0.23235252
C1I430,翠華,2026-07-11,24.191961,121.224339,0.0072432277
C1M400,菜瓜坪,2026-07-11,23.251928,120.576103,0.6832007
C0G730,二林,2026-07-11,23.903325,120.376081,0.11219683
72M360,南改義竹分場,2026-07-11,23.360694,120.279361,0.21180454
V2K620,麥寮合作社,2026-07-11,23.753836,120.294783,0.07359061
C0Z070,舞鶴,2026-07-11,23.46811,121.37407,0.985427
C0B040,大武崙,2026-07-11,25.166676,121.706993,0.1360411
C1Z030,紅葉,2026-07-11,23.493119,121.338806,0.98221886
C1I050,丹大,2026-07-11,23.753747,121.141147,0.010270201
C0I080,信義,2026-07-11,23.689694,120.851036,0.11961557
C2TB80,庄子底,2026-07-11,23.71794,121.49438,0.44652846
C0D750,樂山林道6k,2026-07-11,24.49999,121.08773,0.037325352
C2M920,朴子農改,2026-07-11,23.469889,120.259383,0.09395153
C2A880,福隆,2026-07-11,25.017842,121.942083,0.43496716
C0Z160,鳳林,2026-07-11,23.746114,121.453411,0.48983455
C0UB80,翠峰林道6K,2026-07-11,24.49773,121.568625,0.034350283
C0V210,復興,2026-07-11,23.222403,120.806089,0.97005916
C0H990,昆陽,2026-07-11,24.121322,121.273642,0.0009756906
C0R741,獅子,2026-07-11,22.202308,120.705236,0.037820585
C0S710,鹿野,2026-07-11,22.917711,121.122994,0.91941524
C0I530,小奇萊,2026-07-11,24.131764,121.295717,0.00059141155
C0FA70,大雪山埡口,2026-07-11,24.26867,121.03062,0.0036300144
C2K630,荷苞,2026-07-11,23.657717,120.595144,0.13403079
C0Z080,富源,2026-07-11,23.587642,121.378225,0.99666804
C2M9E0,旺來山,2026-07-11,23.555153,120.486463,0.15667416
C0SB10,美和,2026-07-11,22.682078,121.060236,0.09783573
C2K620,馬光農場,2026-07-11,23.721453,120.378864,0.063923545
C1I140,卡奈托灣,2026-07-11,23.754364,121.087872,0.054208595
C0I520,玉山風口,2026-07-11,23.470489,120.955994,0.0002528442
C1G691,下水埔,2026-07-11,23.816114,120.5676,0.053750414
C0X110,臺南市南區,2026-07-11,22.961189,120.188378,0.26025084
C0V680,仁武,2026-07-11,22.701083,120.347722,0.20761386
C2G840,北斗,2026-07-11,23.877586,120.514222,0.08041538
C2TB90,長橋,2026-07-11,23.6874,121.46186,0.5103567
C0R900,竹坑,2026-07-11,22.1385,120.7022,0.03263474
C0G860,社頭,2026-07-11,23.897647,120.5862,0.09020752
C0X150,安定,2026-07-11,23.102614,120.227839,0.1866506
C0R590,里港,2026-07-11,22.77919,120.49459,0.23637676
C0E610,馬都安,2026-07-11,24.451272,120.930192,0.9856204
C0E550,明德,2026-07-11,24.583486,120.885411,0.51930356
C0R150,三地門,2026-07-11,22.709889,120.639944,0.39311725
C0G910,花壇,2026-07-11,24.032076,120.549461,0.09581953
C1D400,鳥嘴山,2026-07-11,24.71909,121.28387,0.90259844
C0F0B0,石岡,2026-07-11,24.276061,120.777644,0.61275333
C2V250,甲仙,2026-07-11,23.080106,120.591758,0.549068
C0SA20,金崙山,2026-07-11,22.567419,120.959667,0.88770247
C0V350,溪埔,2026-07-11,22.738578,120.446797,0.1988744
C0M660,溪口,2026-07-11,23.604131,120.403569,0.076578416
C1S880,壽卡,2026-07-11,22.238911,120.858903,0.1692552
72D680,桃改新埔分場,2026-07-11,24.834444,121.066111,0.59222865
