站號,站名,日期,lat,lon,BlastGRU-TW
C0G940,竹塘,2026-04-27,23.848253,120.386764,0.9985747
467590,恆春,2026-04-27,22.003897,120.746339,0.8184158
C0E820,獅潭,2026-04-27,24.539133,120.920042,0.99854344
C0AD40,土城,2026-04-27,24.973208,121.445169,0.9452391
C0F9Z0,雪山東峰,2026-04-27,24.388792,121.268675,0.002942498
467650,日月潭,2026-04-27,23.881325,120.90805,0.7013791
C0K600,箔子寮,2026-04-27,23.6197,120.14,0.99895597
C0G830,埤頭,2026-04-27,23.866003,120.452806,0.99790215
467110,金門,2026-04-27,24.407306,118.289281,0.9950064
C0AH80,深坑,2026-04-27,25.002703,121.628328,0.22010306
C0A970,三貂角,2026-04-27,25.007606,122.002058,0.8610134
C0K430,褒忠,2026-04-27,23.690938,120.303634,0.99977446
467480,嘉義,2026-04-27,23.495925,120.432906,0.9973781
C0E960,觀霧分站,2026-04-27,24.505781,121.113921,0.33647457
467550,玉山,2026-04-27,23.48718,120.95943,0.0010842924
C0K390,土庫,2026-04-27,23.679029,120.395574,0.9994291
C0E910,海埔,2026-04-27,24.648767,120.772435,0.99955076
C0F0C0,中坑,2026-04-27,24.248517,120.903319,0.87117374
C0A770,科教館,2026-04-27,25.096356,121.516507,0.9573866
C0AJ60,六塊厝,2026-04-27,25.24,121.4481,0.9953401
467420,永康,2026-04-27,23.038386,120.2367,0.7622092
C0I410,名間,2026-04-27,23.837053,120.701447,0.995941
C0K450,大埤,2026-04-27,23.646074,120.431537,0.9997141
467080,宜蘭,2026-04-27,24.763975,121.756528,0.97795683
467410,臺南,2026-04-27,22.99328,120.20492,0.8466653
C0D660,新竹市東區,2026-04-27,24.798681,120.986942,0.9970982
467050,新屋,2026-04-27,25.006725,121.047492,0.9987709
C0C710,大溪永福,2026-04-27,24.892936,121.324975,0.9757611
C0FA20,溫寮,2026-04-27,24.372177,120.583125,0.9997964
C0C660,楊梅,2026-04-27,24.912375,121.143047,0.9851242
C0F9M0,豐原,2026-04-27,24.254322,120.720692,0.99628407
C0C740,觀音工業區,2026-04-27,25.064764,121.114856,0.9972156
C0AJ90,澳底,2026-04-27,25.0552,121.9253,0.15924041
C0G970,三豐,2026-04-27,23.882,120.2895,0.9984459
C0C800,四稜,2026-04-27,24.64733,121.4293,0.6387886
C0F9I0,神岡,2026-04-27,24.272481,120.658314,0.99822074
C0K460,斗南,2026-04-27,23.678734,120.478359,0.9997136
467280,後龍,2026-04-27,24.648563,120.831834,0.9995213
466930,竹子湖,2026-04-27,25.162078,121.544547,0.4789757
C0I390,仁愛,2026-04-27,24.022122,121.132206,0.22304828
C0K510,水林,2026-04-27,23.572924,120.24597,0.99912417
C0K590,雲林東勢,2026-04-27,23.674192,120.255721,0.9997357
C0A570,桶後,2026-04-27,24.848222,121.597992,0.34363776
C0G720,溪州,2026-04-27,23.851589,120.499093,0.9979015
C0AH70,松山,2026-04-27,25.04871,121.55042,0.9506471
C0FB30,八仙山苗圃,2026-04-27,24.192719,121.001366,0.92019963
C0E791,卓蘭,2026-04-27,24.3126,120.8244,0.9977393
C0C790,東眼山,2026-04-27,24.8284,121.40888,0.89364564
C0G920,永靖,2026-04-27,23.924703,120.547533,0.99874026
467571,新竹,2026-04-27,24.828575,121.01455,0.99801296
C0F9X0,大雅(中科園區),2026-04-27,24.21528,120.62445,0.9972747
C0C730,中大臨海站,2026-04-27,24.966126,121.008581,0.9960752
C0E870,高鐵苗栗,2026-04-27,24.60725,120.826094,0.9995285
C0I420,國姓,2026-04-27,24.037803,120.855072,0.9124612
467620,蘭嶼,2026-04-27,22.0369,121.55843,0.76430756
C0G740,大城,2026-04-27,23.852487,120.320935,0.99863285
C0D360,梅花,2026-04-27,24.678347,121.208558,0.94807506
C0AI10,屈尺,2026-04-27,24.92184,121.54475,0.91186476
C0G900,線西,2026-04-27,24.143358,120.443536,0.9989686
C0C720,竹圍,2026-04-27,25.112692,121.239824,0.99408215
C0F9P0,清水,2026-04-27,24.312297,120.562242,0.9994899
C0FA80,小雪山天池,2026-04-27,24.28025,121.02627,0.011048256
467300,東吉島,2026-04-27,23.25727,119.66762,0.9856129
C0F9O0,潭子,2026-04-27,24.213106,120.703933,0.9972218
C0E780,銅鑼,2026-04-27,24.489681,120.790853,0.999315
C0E830,苑裡,2026-04-27,24.439714,120.653053,0.9997179
467270,田中,2026-04-27,23.873803,120.581286,0.99722147
C0F970,大坑,2026-04-27,24.173142,120.722289,0.99776536
C0A931,三和,2026-04-27,25.233153,121.595236,0.9887233
C0I010,廬山,2026-04-27,24.033311,121.181808,0.259308
C0E810,西湖,2026-04-27,24.562947,120.7485,0.9995444
C0FB70,大甲溪埔,2026-04-27,24.370625,120.620067,0.9997865
C0AD10,八里,2026-04-27,25.150211,121.403947,0.9906674
C0K440,二崙,2026-04-27,23.772797,120.408944,0.9994409
C0F9N0,大里,2026-04-27,24.092464,120.701378,0.9963522
C0AC70,信義,2026-04-27,25.037822,121.564597,0.94846123
C0K560,棋山,2026-04-27,23.68645,120.603417,0.9990669
C0K530,臺西,2026-04-27,23.701547,120.197559,0.99928993
C0AJ50,水湳洞,2026-04-27,25.123695,121.862238,0.16699123
C0AI20,白沙灣,2026-04-27,25.283128,121.519058,0.9955464
C0A860,大坪,2026-04-27,25.165914,121.632969,0.9878884
C0K550,蔦松,2026-04-27,23.514319,120.229736,0.99591136
C0E590,通霄,2026-04-27,24.471892,120.704622,0.9995485
C0A550,泰平,2026-04-27,24.971197,121.823711,0.9790431
C0I360,水里,2026-04-27,23.812553,120.849792,0.9929924
C0AJ20,野柳,2026-04-27,25.20703,121.690021,0.9907349
C0B060,暖暖,2026-04-27,25.0957,121.7403,0.5133366
C0E930,龍鳳,2026-04-27,24.700034,120.859125,0.99873096
C0D690,外湖,2026-04-27,24.917735,120.968711,0.9986839
C0C750,新興坑尾,2026-04-27,25.0061,121.0971,0.9984328
C0AH90,福山植物園,2026-04-27,24.760717,121.58135,0.98726636
C0I540,奇萊稜線,2026-04-27,24.109231,121.326456,0.0016649083
C0AG80,中和,2026-04-27,24.991622,121.491792,0.9452391
C0G810,埔心,2026-04-27,23.947633,120.525456,0.9987479
C0M520,東後寮,2026-04-27,23.369908,120.248065,0.9653205
C0A640,石碇,2026-04-27,24.993969,121.662917,0.9010382
C0F9Y0,桃山,2026-04-27,24.432739,121.303808,0.002196511
C0FB40,中橫21.6k,2026-04-27,24.2499,121.1455,0.83529437
C0G820,田尾,2026-04-27,23.901669,120.509389,0.9987479
466920,臺北,2026-04-27,25.037658,121.514853,0.9506471
466910,鞍部,2026-04-27,25.182586,121.529731,0.5984666
C0G620,芬園,2026-04-27,24.015678,120.6213,0.99646366
C0FB10,出雲山苗圃,2026-04-27,24.23105,120.90475,0.87117374
C0F9Q0,外埔,2026-04-27,24.347817,120.705686,0.9992994
C0K580,高鐵雲林,2026-04-27,23.737456,120.417944,0.9997644
C0C670,龍潭,2026-04-27,24.870056,121.221389,0.9966823
C0D680,香山濕地,2026-04-27,24.783581,120.914988,0.9986839
C0G9B0,和美,2026-04-27,24.105169,120.492131,0.9993659
C0D650,湖口,2026-04-27,24.904794,121.043628,0.992777
C0F9K0,大安,2026-04-27,24.345061,120.588025,0.9996743
C0E740,造橋,2026-04-27,24.637056,120.864778,0.99918044
467990,馬祖,2026-04-27,26.169467,119.923158,0.12944926
C0D580,寶山,2026-04-27,24.735006,121.025192,0.9979981
C0AI30,三重,2026-04-27,25.057328,121.500629,0.9573866
C0AH00,汐止,2026-04-27,25.066881,121.658778,0.16567741
466881,新北,2026-04-27,24.959207,121.525196,0.9343327
C0A950,鼻頭角,2026-04-27,25.129036,121.923372,0.67252386
C0K470,林內,2026-04-27,23.748675,120.609642,0.99909735
C0A9C0,天母,2026-04-27,25.117494,121.537169,0.94892347
C0B050,八斗子,2026-04-27,25.144754,121.79167,0.26644236
C0F9T0,西屯,2026-04-27,24.179494,120.641275,0.99800056
C0E950,松安,2026-04-27,24.39792,120.98599,0.73555696
C0C620,蘆竹,2026-04-27,25.084275,121.265767,0.9933473
C0AJ40,石門,2026-04-27,25.273672,121.601198,0.99338144
C0E750,苗栗,2026-04-27,24.564569,120.824575,0.99941176
C0AJ70,田寮,2026-04-27,25.2698,121.4886,0.99555403
C0AI00,五股,2026-04-27,25.07445,121.42728,0.68185145
C0C460,復興,2026-04-27,24.820208,121.352281,0.9275205
C0M640,中埔,2026-04-27,23.42538,120.5229,0.99757445
C0ACA0,新莊,2026-04-27,25.051478,121.446756,0.95114136
467490,臺中,2026-04-27,24.145736,120.684075,0.99818265
C0AC80,文山,2026-04-27,25.00235,121.575728,0.8907328
C0F9R0,龍井,2026-04-27,24.184536,120.528972,0.9989447
C0D550,雪霸,2026-04-27,24.526972,121.11605,0.16027445
C0B020,基隆嶼,2026-04-27,25.19141,121.78391,0.30954906
C0G960,福寶,2026-04-27,24.0443,120.3814,0.99906373
C0FA50,霧峰,2026-04-27,24.0419,120.6995,0.9963662
C0G950,防潮門,2026-04-27,24.1835,120.4871,0.9989681
C0K330,虎尾,2026-04-27,23.719183,120.442036,0.9997621
C0C680,龜山,2026-04-27,25.02846,121.38656,0.77479404
C0FA90,小雪山林道,2026-04-27,24.29515,121.03651,0.004940727
C0D670,海天一線,2026-04-27,24.831986,120.914438,0.99862295
C0B010,七堵,2026-04-27,25.094819,121.71713,0.32745302
C0K410,北港,2026-04-27,23.573957,120.292802,0.9991959
C0F0E0,南湖圈谷,2026-04-27,24.363714,121.444667,0.00090589013
467610,成功,2026-04-27,23.097486,121.373428,0.9678919
C0G890,伸港,2026-04-27,24.148933,120.484403,0.99896955
C0FA60,鞍馬山工作站,2026-04-27,24.267064,121.000793,0.03232808
C0C700,中壢,2026-04-27,24.977661,121.256375,0.9768593
C0AJ30,淡水觀海,2026-04-27,25.184591,121.408616,0.9904229
C0A9F0,內湖,2026-04-27,25.079422,121.57545,0.94846123
C0K291,宜梧,2026-04-27,23.536281,120.169329,0.99883384
C0AJ80,板橋,2026-04-27,25.0107,121.4489,0.9452391
C0E730,頭份,2026-04-27,24.688247,120.912206,0.99857557
C0K480,莿桐,2026-04-27,23.761192,120.502372,0.9997198
467350,澎湖,2026-04-27,23.565503,119.563094,0.9863704
C0G800,埔鹽,2026-04-27,24.000394,120.431683,0.9990605
C0H960,草屯,2026-04-27,23.973672,120.68085,0.99346495
C0E920,通霄漁港,2026-04-27,24.498589,120.673876,0.999581
C0AH10,永和,2026-04-27,25.01125,121.508111,0.94962466
C0AK10,太平里,2026-04-27,25.134937,121.364899,0.9749512
C0AI40,石牌,2026-04-27,25.115597,121.513139,0.94846123
C0G880,二水,2026-04-27,23.810742,120.6173,0.9981384
467660,臺東,2026-04-27,22.752211,121.154586,0.9801309
C0A940,金山,2026-04-27,25.223628,121.643967,0.99547213
C0D760,大坪苗圃,2026-04-27,24.5362,121.1108,0.7129092
467790,墾丁雷達站,2026-04-27,21.948235,120.808028,0.8133376
C0F850,東勢,2026-04-27,24.246428,120.833047,0.9275427
466900,淡水,2026-04-27,25.164889,121.448906,0.98821944
C0I370,魚池,2026-04-27,23.895703,120.94135,0.7897192
C0C630,大溪,2026-04-27,24.882853,121.265547,0.95179033
C0A520,山佳,2026-04-27,24.974944,121.402008,0.9607692
C0I110,竹山,2026-04-27,23.761225,120.688156,0.99836785
C0G660,溪湖,2026-04-27,23.94835,120.479122,0.99875563
C0AC60,三峽,2026-04-27,24.939025,121.369728,0.9841675
C0I490,萬大林道,2026-04-27,23.928228,121.091411,0.013025387
C0A980,社子,2026-04-27,25.109508,121.469681,0.9718758
C0E570,白沙屯,2026-04-27,24.549447,120.696803,0.9995695
C0FA40,臺中電廠,2026-04-27,24.2146,120.4907,0.99896026
C0H9C0,合歡山,2026-04-27,24.143442,121.272547,0.0016302211
C0G780,秀水,2026-04-27,24.03405,120.503869,0.9974223
C0A530,坪林,2026-04-27,24.938183,121.70975,0.96885806
C0G770,福興,2026-04-27,24.041289,120.437669,0.9990605
C0H9A0,神木村,2026-04-27,23.532742,120.843667,0.33166286
C0I460,南投,2026-04-27,23.911469,120.687331,0.9935016
C0I480,梅峰,2026-04-27,24.085272,121.173572,0.015303372
C0AH30,五分山,2026-04-27,25.07125,121.780794,0.4988818
C0FA10,松柏,2026-04-27,24.429115,120.617482,0.99972737
C0C650,平鎮,2026-04-27,24.897503,121.214636,0.9659317
466940,基隆,2026-04-27,25.133314,121.740475,0.27927
C0I380,集集,2026-04-27,23.828206,120.801467,0.9931483
466990,花蓮,2026-04-27,23.975128,121.613275,0.7074273
C0FB20,雪山橋,2026-04-27,24.23192,120.9786,0.07546509
C0D590,新豐,2026-04-27,24.87068,120.97721,0.99657214
C0A870,五指山,2026-04-27,25.132153,121.608692,0.48151043
C0G650,員林,2026-04-27,23.946503,120.585597,0.997796
C0AD50,鶯歌,2026-04-27,24.951533,121.346294,0.9852861
C0K400,斗六,2026-04-27,23.720583,120.541127,0.99971855
C0D700,關西,2026-04-27,24.7977,121.1732,0.9984861
467530,阿里山,2026-04-27,23.508208,120.813242,0.003946876
C0FA30,梧棲,2026-04-27,24.256003,120.523381,0.9989447
C0AK30,硬漢嶺,2026-04-27,25.136097,121.426372,0.46633884
C0F9V0,新社,2026-04-27,24.200172,120.815806,0.8568203
C0H890,埔里,2026-04-27,23.972169,120.952425,0.8036525
C0F0D0,審馬陣,2026-04-27,24.381675,121.4203,0.002395085
C0FB00,大雪山,2026-04-27,24.254668,121.007374,0.030486114
C0E940,雪見,2026-04-27,24.42595,121.01347,0.13779333
C0D560,竹東,2026-04-27,24.767147,121.057881,0.9973191
C0F9U0,南屯,2026-04-27,24.137006,120.637969,0.9985727
C0F0A0,雪山圈谷,2026-04-27,24.388594,121.236339,0.0024402114
467540,大武,2026-04-27,22.35572,120.90374,0.70475036
C0AC40,大屯山,2026-04-27,25.175675,121.522408,0.26181877
466850,五分山雷達站,2026-04-27,25.071182,121.781205,0.48309922
C0K420,西螺,2026-04-27,23.800407,120.467394,0.9994382
C0AD30,蘆洲,2026-04-27,25.086594,121.472331,0.95043
C0AH40,平等,2026-04-27,25.129142,121.577086,0.74664026
466950,彭佳嶼,2026-04-27,25.627975,122.079744,0.7636104
C0A890,雙溪,2026-04-27,25.036003,121.864242,0.19796166
C0AH50,林口,2026-04-27,25.072181,121.38084,0.62038213
C0F9S0,烏日,2026-04-27,24.107058,120.624103,0.9988189
C0C490,八德,2026-04-27,24.928708,121.283289,0.9704516
C0E850,大河,2026-04-27,24.618069,120.948578,0.9976256
C0F9L0,后里,2026-04-27,24.310436,120.729725,0.9988066
467441,高雄,2026-04-27,22.730432,120.312516,0.6665939
C0D540,橫山,2026-04-27,24.71116,121.11693,0.99605244
C0G730,二林,2026-04-27,23.903325,120.376081,0.99874866
C0B040,大武崙,2026-04-27,25.166676,121.706993,0.9911307
467290,古坑,2026-04-27,23.380729,120.336861,0.98941976
C0I080,信義,2026-04-27,23.689694,120.851036,0.9957205
C0D750,樂山林道6k,2026-04-27,24.49999,121.08773,0.0740508
C0H990,昆陽,2026-04-27,24.121322,121.273642,0.002514174
C0I530,小奇萊,2026-04-27,24.131764,121.295717,0.0018940216
C0FA70,大雪山埡口,2026-04-27,24.26867,121.03062,0.007918938
C0I520,玉山風口,2026-04-27,23.470489,120.955994,0.0010719289
C0G860,社頭,2026-04-27,23.897647,120.5862,0.9974538
C0E610,馬都安,2026-04-27,24.451272,120.930192,0.9684462
C0E550,明德,2026-04-27,24.583486,120.885411,0.99925923
C0G910,花壇,2026-04-27,24.032076,120.549461,0.99741834
C0K500,元長,2026-04-27,23.64981,120.315024,0.99972874
C0F0B0,石岡,2026-04-27,24.276061,120.777644,0.9982014
