站號,站名,日期,lat,lon,BlastGRU-TW
C0R710,龍磐,2026-03-07,21.931672,120.838942,0.29297748
C1F9D1,白毛台,2026-03-07,24.158325,120.886933,0.0014655587
C0G940,竹塘,2026-03-07,23.848253,120.386764,0.008588169
467590,恆春,2026-03-07,22.003897,120.746339,0.12825772
C1O850,環湖,2026-03-07,23.148617,120.418633,0.29605117
C0U710,太平山,2026-03-07,24.505486,121.525656,0.0006018741
C0E820,獅潭,2026-03-07,24.539133,120.920042,0.003699348
C2SD70,二層坪,2026-03-07,22.94105,121.16838,0.030167473
C0V880,興達,2026-03-07,22.8778,120.2127,0.22485718
C0S890,關山,2026-03-07,23.0395,121.175017,0.038587604
C0SB30,新蘭,2026-03-07,22.869214,121.223228,0.3068602
C2R970,屏科大,2026-03-07,22.648275,120.619247,0.49445194
C1Z130,銅門,2026-03-07,23.965694,121.492842,0.18743002
C0AD40,土城,2026-03-07,24.973208,121.445169,0.038814068
CAN140,六官養殖協會,2026-03-07,23.22881,120.29962,0.44258
C0X180,山上,2026-03-07,23.0757,120.363253,0.41125232
C0F9Z0,雪山東峰,2026-03-07,24.388792,121.268675,0.00093833817
C1M480,獨立山,2026-03-07,23.537022,120.607797,0.0009855777
C0X220,學甲,2026-03-07,23.230367,120.182187,0.10028779
467650,日月潭,2026-03-07,23.881325,120.90805,0.0021238523
A2K570,古坑(花卉中心),2026-03-07,23.633531,120.552392,0.013022414
C0K600,箔子寮,2026-03-07,23.6197,120.14,0.026713738
C0G830,埤頭,2026-03-07,23.866003,120.452806,0.071083546
C0S950,七塊厝,2026-03-07,22.954453,121.229922,0.009236682
467110,金門,2026-03-07,24.407306,118.289281,0.0004615078
C0AH80,深坑,2026-03-07,25.002703,121.628328,0.05363544
C0A970,三貂角,2026-03-07,25.007606,122.002058,0.064536646
C2D730,寶山農場,2026-03-07,24.732444,120.976153,0.0043720747
C0K430,褒忠,2026-03-07,23.690938,120.303634,0.017326355
467480,嘉義,2026-03-07,23.495925,120.432906,0.23435572
C0V400,阿公店,2026-03-07,22.804194,120.355528,0.46402013
C0E960,觀霧分站,2026-03-07,24.505781,121.113921,0.001939509
467550,玉山,2026-03-07,23.48718,120.95943,0.0008094481
C0R440,大漢山,2026-03-07,22.405264,120.753181,0.0018924042
C0SD30,東清國小,2026-03-07,22.057128,121.564922,0.17699082
C1F9B1,桐林,2026-03-07,24.066172,120.735194,0.056199446
C2H9U0,鳳鵬,2026-03-07,23.763919,120.788061,0.010634024
C0K390,土庫,2026-03-07,23.679029,120.395574,0.11618283
C1I450,望鄉山,2026-03-07,23.594153,120.944286,0.00084493536
C0E910,海埔,2026-03-07,24.648767,120.772435,0.001975538
B2E890,畜試北區分所,2026-03-07,24.527806,120.770972,0.0028724896
C0R750,四林格山,2026-03-07,22.076989,120.802439,0.12671842
C0F0C0,中坑,2026-03-07,24.248517,120.903319,0.0016656249
C1I121,大鞍,2026-03-07,23.678381,120.760017,0.00073893013
C2G9E0,移民庄,2026-03-07,23.9784,120.40283,0.0025987136
72U480,花改蘭陽分場,2026-03-07,24.686306,121.716583,0.08456607
C0A770,科教館,2026-03-07,25.096356,121.516507,0.049147174
C0AJ60,六塊厝,2026-03-07,25.24,121.4481,0.09943903
C0R620,墾雷,2026-03-07,21.900836,120.855269,0.39074832
467420,永康,2026-03-07,23.038386,120.2367,0.52746564
C2M530,奮起湖,2026-03-07,23.493903,120.699253,0.00079409446
C0I410,名間,2026-03-07,23.837053,120.701447,0.15346168
A2C560,農工中心,2026-03-07,24.985917,121.239833,0.013116136
C0V740,旗山,2026-03-07,22.888614,120.483597,0.58931935
C0Z061,玉里,2026-03-07,23.3215,121.339656,0.37688142
C0S840,南田,2026-03-07,22.279725,120.889208,0.8423038
C1I470,杉林溪,2026-03-07,23.639517,120.786444,0.000691589
C1X040,東原,2026-03-07,23.291597,120.463822,0.043731015
C0R660,枋寮,2026-03-07,22.367722,120.590647,0.36331463
C1R120,上德文,2026-03-07,22.763272,120.704442,0.05885922
C0K450,大埤,2026-03-07,23.646074,120.431537,0.11935163
C0UA00,土場,2026-03-07,24.576533,121.495333,0.18184376
467080,宜蘭,2026-03-07,24.763975,121.756528,0.0109427245
C0N030,四草,2026-03-07,23.0235,120.1116,0.06446069
467410,臺南,2026-03-07,22.99328,120.20492,0.3128089
C0V650,彌陀,2026-03-07,22.783806,120.246361,0.29109153
C0D660,新竹市東區,2026-03-07,24.798681,120.986942,0.0054664896
82S580,茶改東部分場,2026-03-07,22.907694,121.130139,0.09412142
C0SB40,興隆,2026-03-07,22.913661,121.257469,0.12155146
467050,新屋,2026-03-07,25.006725,121.047492,0.0066558006
C0C710,大溪永福,2026-03-07,24.892936,121.324975,0.010846428
C0FA20,溫寮,2026-03-07,24.372177,120.583125,0.0012165583
C0V640,湖內,2026-03-07,22.887139,120.2445,0.21984251
C0R910,下寮,2026-03-07,22.3929,120.5548,0.45485246
C0Z020,明里,2026-03-07,23.208717,121.262342,0.3277188
C0M770,嘉義梅山,2026-03-07,23.585398,120.555587,0.011453961
C0C660,楊梅,2026-03-07,24.912375,121.143047,0.01442011
C0SD40,牛頭山,2026-03-07,22.676661,121.506944,0.24953806
C1E511,新開,2026-03-07,24.347703,120.827019,0.008330994
G2F820,農試所(霧峰),2026-03-07,24.031261,120.688133,0.14185227
C2M990,大巃頂,2026-03-07,23.5547,120.61439,0.0013264593
C1I070,和社,2026-03-07,23.591131,120.888861,0.002734928
C2E990,新坪頂,2026-03-07,24.30201,120.8574,0.0007341225
C0TA80,立霧山,2026-03-07,24.183258,121.641899,0.00545096
C2F000,大肚,2026-03-07,24.15295,120.572117,0.005831852
C1S850,豐南,2026-03-07,23.122139,121.262389,0.03663294
C2M9B0,西興,2026-03-07,23.2428,120.57617,0.01730788
C2A920,富貴角,2026-03-07,25.263783,121.565258,0.01727814
C0T960,光復,2026-03-07,23.660694,121.424964,0.2275662
C0F9M0,豐原,2026-03-07,24.254322,120.720692,0.013447997
C0R720,旭海,2026-03-07,22.205403,120.887614,0.2679777
C0V710,苓雅,2026-03-07,22.622742,120.330669,0.4095354
C0C740,觀音工業區,2026-03-07,25.064764,121.114856,0.0025915091
CAC040,拉拉山,2026-03-07,24.699317,121.427133,0.00068577135
C0V790,萬山,2026-03-07,22.905944,120.688056,0.3587733
U2HA30,臺大和社,2026-03-07,23.590856,120.888864,0.0027349268
C2H9K0,屯原,2026-03-07,24.067969,121.209389,0.0013579736
C0AJ90,澳底,2026-03-07,25.0552,121.9253,0.38190508
C0Z100,東華,2026-03-07,23.89525,121.549833,0.22281553
C0G970,三豐,2026-03-07,23.882,120.2895,0.0030409622
C0V900,汕尾,2026-03-07,22.4782,120.4151,0.41902965
C1R630,龍泉,2026-03-07,22.66701,120.59091,0.5595719
C1AC50,關渡,2026-03-07,25.133486,121.469331,0.014578229
C0C800,四稜,2026-03-07,24.64733,121.4293,0.0026255306
C0F9I0,神岡,2026-03-07,24.272481,120.658314,0.03377767
C0K460,斗南,2026-03-07,23.678734,120.478359,0.11245164
C2O810,曾文,2026-03-07,23.219681,120.497328,0.10175878
467280,後龍,2026-03-07,24.648563,120.831834,0.0015767007
C1F9J1,清水林,2026-03-07,24.071242,120.820419,0.0010855084
C2A650,火燒寮,2026-03-07,25.002719,121.742892,0.10597498
466930,竹子湖,2026-03-07,25.162078,121.544547,0.0024416638
C1I220,樟湖,2026-03-07,23.905333,120.846983,0.0013500656
C0I390,仁愛,2026-03-07,24.022122,121.132206,0.000721104
C0Z300,東里,2026-03-07,23.26853,121.30547,0.33630803
C1V590,新發,2026-03-07,23.057019,120.646064,0.0034885558
C0K510,水林,2026-03-07,23.572924,120.24597,0.10429627
72S590,東改賓朗果園,2026-03-07,22.813889,121.071278,0.021441882
82A750,茶改北部分場,2026-03-07,24.955778,121.631222,0.019824931
C1A750,石碇服務區,2026-03-07,25.00872,121.646242,0.058938574
C0X300,鹿寮,2026-03-07,23.386047,120.477331,0.041423585
C0K590,雲林東勢,2026-03-07,23.674192,120.255721,0.03160835
C2K310,港尾布雞,2026-03-07,23.74834,120.38439,0.10008575
C0A570,桶後,2026-03-07,24.848222,121.597992,0.23245367
C1S800,華源,2026-03-07,22.657883,121.02325,0.13393182
C0G720,溪州,2026-03-07,23.851589,120.499093,0.06915629
C1V160,達卡努瓦,2026-03-07,23.279811,120.705319,0.0011126105
C2M410,馬頭山,2026-03-07,23.324361,120.582017,0.010746918
C0V850,蚵仔寮,2026-03-07,22.7256,120.2527,0.29958665
C0S740,池上,2026-03-07,23.119628,121.209469,0.061805032
C1V390,尖山,2026-03-07,22.813153,120.367789,0.45352545
C0AH70,松山,2026-03-07,25.04871,121.55042,0.04926796
C0N010,鯤鯓國小,2026-03-07,23.1879,120.0889,0.08925031
C0R550,新埤,2026-03-07,22.467947,120.582894,0.33188722
C0SA60,知本（水試所）,2026-03-07,22.702394,121.082761,0.4595294
C0T9I0,豐濱,2026-03-07,23.583897,121.514806,0.11349155
C0UB00,淡江大學蘭陽校園,2026-03-07,24.823239,121.730383,0.01285177
C0W240,九宮,2026-03-07,24.423753,118.240186,0.00042616524
C0T9N0,富里,2026-03-07,23.171639,121.249378,0.27474236
U2HA50,臺大竹山,2026-03-07,23.756972,120.681556,0.12995929
C0V840,鳳鼻頭,2026-03-07,22.5083,120.3591,0.40506297
C0X140,西港,2026-03-07,23.125608,120.203108,0.40983042
72D080,桃改五峰分場,2026-03-07,24.612194,121.157167,0.0010332952
C2H9P0,伊拿谷,2026-03-07,23.963211,121.088264,0.0007016624
C2K250,崙背,2026-03-07,23.75553,120.31893,0.017417341
C2H9F0,柑林,2026-03-07,24.018658,120.847072,0.014709293
C0TA20,加灣,2026-03-07,24.082025,121.608944,0.53912526
C0V530,阿蓮,2026-03-07,22.883208,120.327508,0.38728607
C0FB30,八仙山苗圃,2026-03-07,24.192719,121.001366,0.001951875
C1O880,關山,2026-03-07,23.173397,120.594092,0.02970623
C0E791,卓蘭,2026-03-07,24.3126,120.8244,0.0062571527
C1I030,武界,2026-03-07,23.913225,121.052483,0.00070269656
C0R520,崁頂,2026-03-07,22.514781,120.506914,0.43162236
C0R341,牡丹,2026-03-07,22.130036,120.792639,0.44726795
C0R930,萬丹,2026-03-07,22.5885,120.4851,0.43773565
C0S760,紅石,2026-03-07,23.069131,121.126219,0.005472277
C2C410,中央大學,2026-03-07,24.967652,121.185165,0.013272163
C1M610,石磐龍,2026-03-07,23.496606,120.663506,0.0011643958
C0C790,東眼山,2026-03-07,24.8284,121.40888,0.005346488
C0UA10,鴛鴦湖,2026-03-07,24.590269,121.412228,0.0007761444
C0R800,丹路,2026-03-07,22.204481,120.750989,0.36944702
C0G920,永靖,2026-03-07,23.924703,120.547533,0.017839214
C2M950,太和,2026-03-07,23.538372,120.702961,0.0008042223
C1A630,下盆,2026-03-07,24.771003,121.538622,0.083110735
B2N890,畜產試驗所,2026-03-07,23.058972,120.336406,0.5617398
C0UA30,白嶺,2026-03-07,24.527819,121.519031,0.0011651842
467571,新竹,2026-03-07,24.828575,121.01455,0.0053212056
C1V580,溪南(特生中心),2026-03-07,23.084972,120.788475,0.00074665877
C1T970,大農,2026-03-07,23.615233,121.413331,0.11440901
C0R650,竹田,2026-03-07,22.58486,120.54344,0.38754573
C1H900,清流,2026-03-07,24.080775,120.962997,0.0011454981
C1C510,水尾,2026-03-07,24.940081,121.087161,0.0046348297
C2N170,茅港尾,2026-03-07,23.2061,120.2624,0.44258
C0F9X0,大雅(中科園區),2026-03-07,24.21528,120.62445,0.0341226
C0SB60,白守蓮,2026-03-07,23.126769,121.401914,0.6255736
C0O970,虎頭埤,2026-03-07,23.021375,120.347878,0.4503523
C0C730,中大臨海站,2026-03-07,24.966126,121.008581,0.009599773
C0X250,新營,2026-03-07,23.310689,120.316681,0.42733026
C0V700,三民,2026-03-07,22.645017,120.311233,0.27781034
C0U870,大礁溪,2026-03-07,24.791042,121.675047,0.0042905295
C0E870,高鐵苗栗,2026-03-07,24.60725,120.826094,0.0015751251
C0TA30,鹽寮,2026-03-07,23.845606,121.592664,0.25591862
C0M860,新美,2026-03-07,23.338017,120.683169,0.027847534
C1E701,八卦,2026-03-07,24.491756,120.927619,0.0009490819
C2TA90,加納納,2026-03-07,23.466421,121.359867,0.043122202
C0I420,國姓,2026-03-07,24.037803,120.855072,0.012602839
C2D720,關西工作站,2026-03-07,24.757275,121.184792,0.016238088
C0S960,香蘭,2026-03-07,22.587569,120.993375,0.6887067
467620,蘭嶼,2026-03-07,22.0369,121.55843,0.020354345
C0R260,春日,2026-03-07,22.370361,120.628306,0.67412615
72G600,臺中農改場,2026-03-07,24.003028,120.534389,0.010898359
C0Z210,瑞穗,2026-03-07,23.5239,121.39021,0.13587308
C0M820,達邦,2026-03-07,23.453994,120.749517,0.0010937462
C0V860,南寮,2026-03-07,22.7616,120.2339,0.29958665
C0G740,大城,2026-03-07,23.852487,120.320935,0.0031698036
C0R920,塭仔,2026-03-07,22.4169,120.5197,0.4648053
C0R470,高樹,2026-03-07,22.826389,120.600806,0.528582
C0R680,佳樂水,2026-03-07,21.993578,120.861633,0.38196537
C1O870,大棟山,2026-03-07,23.31157,120.52226,0.0019416054
C0D360,梅花,2026-03-07,24.678347,121.208558,0.0019526846
C0Z190,富世,2026-03-07,24.14743,121.6297,0.41206262
C0AI10,屈尺,2026-03-07,24.92184,121.54475,0.03276609
B2U990,畜試東區分所,2026-03-07,24.669039,121.832561,0.25042728
C0SB80,長濱漁港,2026-03-07,23.313644,121.459994,0.23426655
C0TA50,和仁,2026-03-07,24.241394,121.712472,0.04955883
C0V910,大樹,2026-03-07,22.684645,120.432803,0.56692564
C1R610,西大武山,2026-03-07,22.617719,120.7322,0.0034128733
C0G900,線西,2026-03-07,24.143358,120.443536,0.0026095072
C0M700,竹崎,2026-03-07,23.526178,120.555508,0.008419102
C2E880,三義,2026-03-07,24.405478,120.749819,0.00079921645
C0C720,竹圍,2026-03-07,25.112692,121.239824,0.010949477
C0F9P0,清水,2026-03-07,24.312297,120.562242,0.0033480837
C0Z150,吉安光華,2026-03-07,23.930925,121.595153,0.298169
C0FA80,小雪山天池,2026-03-07,24.28025,121.02627,0.0009244411
467300,東吉島,2026-03-07,23.25727,119.66762,0.0012607769
C1D640,外坪(五指山),2026-03-07,24.644447,121.090961,0.0013361324
C2R9A0,高士國小,2026-03-07,22.12553,120.84653,0.47781116
C0F9O0,潭子,2026-03-07,24.213106,120.703933,0.013720629
C2H9R0,卓社,2026-03-07,23.887894,121.000086,0.00036161314
72T250,花蓮農改場,2026-03-07,23.975222,121.563889,0.25526243
C0E780,銅鑼,2026-03-07,24.489681,120.790853,0.0033131612
C1T950,太安,2026-03-07,23.666719,121.370128,0.030348264
C0E830,苑裡,2026-03-07,24.439714,120.653053,0.0007937647
467270,田中,2026-03-07,23.873803,120.581286,0.0715863
C0SA10,檳榔四格山,2026-03-07,22.810031,121.109308,0.011472393
C1T830,布洛灣,2026-03-07,24.17184,121.57127,0.30825874
C0F970,大坑,2026-03-07,24.173142,120.722289,0.019002447
C1U920,思源,2026-03-07,24.393125,121.347214,0.001646204
C2H9Y0,松茗,2026-03-07,23.8167,120.650765,0.004032336
C0A931,三和,2026-03-07,25.233153,121.595236,0.049809985
C0I010,廬山,2026-03-07,24.033311,121.181808,0.0033189117
C2M940,日野賀,2026-03-07,23.434056,120.727169,0.0012517602
C0R860,鼻頭,2026-03-07,22.1043,120.8979,0.7506356
C0UB20,壯圍,2026-03-07,24.7359,121.8163,0.017714
C0R790,九棚,2026-03-07,22.14195,120.889281,0.5141744
C0W110,東莒,2026-03-07,25.9652,119.98069,0.00022591143
C1U930,粉鳥林,2026-03-07,24.497088,121.842479,0.6939726
C1I211,蘆竹湳,2026-03-07,23.934019,120.811994,0.008000213
C0S830,長濱,2026-03-07,23.286817,121.411975,0.07702802
C1F9F1,伯公龍,2026-03-07,24.272392,120.849047,0.0015742473
C0UB90,太平山莊,2026-03-07,24.494171,121.536209,0.0005953333
C0E810,西湖,2026-03-07,24.562947,120.7485,0.0004372952
C1I440,新高口,2026-03-07,23.478744,120.878939,0.00072241254
C0O840,王爺宮,2026-03-07,23.222064,120.40085,0.37601528
C0T9G0,鳳林山,2026-03-07,23.735269,121.420131,0.06372556
C0X080,佳里,2026-03-07,23.173039,120.145086,0.077013016
C0FB70,大甲溪埔,2026-03-07,24.370625,120.620067,0.0012340512
C0Z310,清水斷崖,2026-03-07,24.218294,121.689142,0.023483565
C0M680,太保,2026-03-07,23.455062,120.331455,0.22715014
C1S820,金峰,2026-03-07,22.590969,120.933236,0.7325917
C0AD10,八里,2026-03-07,25.150211,121.403947,0.0070203794
C2K240,草嶺,2026-03-07,23.59555,120.693461,0.0023803895
C1SA70,都蘭,2026-03-07,22.87794,121.226881,0.2783543
C0K440,二崙,2026-03-07,23.772797,120.408944,0.07409011
C1A760,坪林交控,2026-03-07,24.94284,121.713442,0.11070102
C0F9N0,大里,2026-03-07,24.092464,120.701378,0.09382631
C0SA90,達仁林場,2026-03-07,22.264347,120.823972,0.14635167
C1R290,石門山,2026-03-07,22.112611,120.756597,0.24354714
42HA10,萬大發電廠,2026-03-07,23.978875,121.139639,0.00088000775
C0R890,山海,2026-03-07,21.9878,120.7091,0.14563149
C0T9A0,月眉山,2026-03-07,23.809928,121.539828,0.009547633
C0AC70,信義,2026-03-07,25.037822,121.564597,0.06997885
C0K560,棋山,2026-03-07,23.68645,120.603417,0.013677707
C2FB50,出雲,2026-03-07,24.206469,120.902794,0.0011166189
C1Z240,中平林道,2026-03-07,23.42115,121.26763,0.023217788
U2H480,溪頭,2026-03-07,23.670306,120.798194,0.0010023076
C0M880,好美里,2026-03-07,23.3364,120.138,0.13929586
C0T9E0,大坑,2026-03-07,23.880628,121.581981,0.03458573
C0K530,臺西,2026-03-07,23.701547,120.197559,0.010631461
C1E900,國一N128K,2026-03-07,24.560997,120.844186,0.0029431148
C0AJ50,水湳洞,2026-03-07,25.123695,121.862238,0.36173108
C0AI20,白沙灣,2026-03-07,25.283128,121.519058,0.05467907
C2V310,美濃,2026-03-07,22.898792,120.51907,0.5971948
C0A860,大坪,2026-03-07,25.165914,121.632969,0.028559858
C1U850,觀音海岸,2026-03-07,24.38319,121.77856,0.0012405798
C2K610,草嶺石壁,2026-03-07,23.602469,120.707731,0.002155053
C0U950,鶯子嶺,2026-03-07,24.89754,121.79244,0.0022253373
C0O900,善化,2026-03-07,23.112883,120.297219,0.56969655
C0K550,蔦松,2026-03-07,23.514319,120.229736,0.065347694
E2P980,林試六龜中心,2026-03-07,22.991703,120.645722,0.07190266
C0E590,通霄,2026-03-07,24.471892,120.704622,0.0016594076
C1I310,西巒,2026-03-07,23.754486,120.883956,0.0020159734
C0A550,泰平,2026-03-07,24.971197,121.823711,0.085119225
C0I360,水里,2026-03-07,23.812553,120.849792,0.05530319
C0R830,高士,2026-03-07,22.121825,120.836781,0.20306751
C1I101,溪頭,2026-03-07,23.661789,120.807647,0.0006169451
C0AJ20,野柳,2026-03-07,25.20703,121.690021,0.20550387
C0B060,暖暖,2026-03-07,25.0957,121.7403,0.1428764
C1H920,長豐,2026-03-07,24.102039,120.879897,0.0009863258
C2S9B0,利吉,2026-03-07,22.86246,121.15486,0.10076318
C0V360,內門,2026-03-07,22.975481,120.466769,0.47782475
C0R850,林邊,2026-03-07,22.4634,120.5339,0.49640554
C0E930,龍鳳,2026-03-07,24.700034,120.859125,0.0017169114
C0U910,冬山,2026-03-07,24.63373,121.7937,0.25042728
C1E721,泰安,2026-03-07,24.489017,120.968036,0.0007134846
82H320,茶改中部分場,2026-03-07,23.875611,120.913583,0.0048197787
C0M750,布袋,2026-03-07,23.380878,120.167789,0.02300943
C1S860,利嘉,2026-03-07,22.809417,121.050528,0.28074545
E2S980,林試太麻里1,2026-03-07,22.598922,120.980044,0.8070002
C0X170,關廟,2026-03-07,22.963017,120.327797,0.46088716
C0V720,林園,2026-03-07,22.507747,120.394511,0.41741207
C1I510,線浸林道,2026-03-07,23.761508,120.832956,0.00070341246
C0D690,外湖,2026-03-07,24.917735,120.968711,0.0013959875
C0C750,新興坑尾,2026-03-07,25.0061,121.0971,0.003922859
B2Q810,畜試南區分所,2026-03-07,21.945583,120.802167,0.38196564
C0S790,金崙,2026-03-07,22.538122,120.966875,0.61767644
C0AH90,福山植物園,2026-03-07,24.760717,121.58135,0.049443047
C0I540,奇萊稜線,2026-03-07,24.109231,121.326456,0.0006533897
C0M850,表湖,2026-03-07,23.24186,120.64166,0.0027806472
C0S770,大溪山,2026-03-07,22.478475,120.943325,0.64286345
C0AG80,中和,2026-03-07,24.991622,121.491792,0.038814068
C0T790,大禹嶺,2026-03-07,24.186117,121.316086,0.00083867676
C0T9B0,水源,2026-03-07,23.991861,121.537169,0.006940255
C0R840,牡丹池山,2026-03-07,22.168389,120.841225,0.05986894
C1I131,桶頭,2026-03-07,23.641944,120.654117,0.039617382
CAL110,布袋國中,2026-03-07,23.35893,120.18026,0.13929586
C2M9D0,何竹子腳,2026-03-07,23.53641,120.38203,0.2569785
C0Z290,赤柯山,2026-03-07,23.36893,121.38293,0.017862303
C0X280,將軍,2026-03-07,23.214999,120.13577,0.10497619
C0S690,太麻里,2026-03-07,22.60902,120.98533,0.19498245
C0U880,北關,2026-03-07,24.9072,121.8734,0.42928547
CAW010,東引,2026-03-07,26.3588,120.4836,0.00023346306
C0G810,埔心,2026-03-07,23.947633,120.525456,0.018167187
C0U970,大福,2026-03-07,24.80064,121.81389,0.011012818
C2H9N0,仁愛東眼,2026-03-07,24.026875,121.1205,0.00063274754
C1E670,南礦,2026-03-07,24.538278,121.002836,0.00075367745
C0M520,東後寮,2026-03-07,23.369908,120.248065,0.21681976
C1E461,松安,2026-03-07,24.397972,120.986022,0.0004346129
C2N160,西拉雅風管處,2026-03-07,23.189481,120.335297,0.40861452
C2M970,碧湖,2026-03-07,23.568632,120.624165,0.0013424476
C0A640,石碇,2026-03-07,24.993969,121.662917,0.11070102
E2S960,林試太麻里2,2026-03-07,22.598,120.99775,0.694848
C0F9Y0,桃山,2026-03-07,24.432739,121.303808,0.00088218134
C1I020,萬大,2026-03-07,23.979817,121.132261,0.00071436353
C2UC20,長嶺,2026-03-07,24.70894,121.61162,0.1004654
C0U940,羅東,2026-03-07,24.68184,121.74934,0.08491229
C0M650,朴子,2026-03-07,23.43463,120.23902,0.1785976
C1I500,大尖山,2026-03-07,23.858572,120.994889,0.00070843555
C0FB40,中橫21.6k,2026-03-07,24.2499,121.1455,0.0042068334
C0G820,田尾,2026-03-07,23.901669,120.509389,0.018167187
E2K600,四湖植物園,2026-03-07,23.676986,120.163433,0.017740188
C0S730,綠島,2026-03-07,22.6672,121.47533,0.07121973
12Q970,東港工作站,2026-03-07,22.479997,120.466058,0.50671047
C1TA00,太魯閣,2026-03-07,24.15773,121.6236,0.6104742
466920,臺北,2026-03-07,25.037658,121.514853,0.04926796
C0R600,舊泰武,2026-03-07,22.588194,120.664944,0.013922266
C1I260,北坑,2026-03-07,23.9246,121.006903,0.004306747
466910,鞍部,2026-03-07,25.182586,121.529731,0.0007585685
C1I230,九份二山,2026-03-07,23.961944,120.845,0.005189585
C2M810,里佳,2026-03-07,23.389125,120.716647,0.00079808215
C2A660,瑞芳,2026-03-07,25.113169,121.801147,0.18776685
C0R270,琉球嶼,2026-03-07,22.332244,120.362236,0.4172524
C2V580,瑞山,2026-03-07,22.90304,120.43424,0.5160501
C1T990,高寮,2026-03-07,23.394239,121.356808,0.1218028
C0G620,芬園,2026-03-07,24.015678,120.6213,0.010669118
C1Z140,荖溪,2026-03-07,23.890575,121.45964,0.023243424
C1I201,中心崙,2026-03-07,23.728722,120.712097,0.00073891145
C1I400,凌霄,2026-03-07,24.018778,121.004456,0.00062704197
C1M640,十字,2026-03-07,23.492153,120.753683,0.0005882835
G2P820,農試鳳山分所,2026-03-07,22.646611,120.356083,0.3940774
C0Z270,蕃薯寮,2026-03-07,23.73835,121.540108,0.051064536
C2E420,竹南,2026-03-07,24.70898,120.88897,0.0017790857
C0FB10,出雲山苗圃,2026-03-07,24.23105,120.90475,0.0016656249
C0F9Q0,外埔,2026-03-07,24.347817,120.705686,0.017881736
C0K580,高鐵雲林,2026-03-07,23.737456,120.417944,0.09822383
C2I090,鳳凰,2026-03-07,23.728081,120.787347,0.0010767777
C0U990,員山,2026-03-07,24.74435,121.72247,0.085206546
C0V770,大社,2026-03-07,22.730306,120.346639,0.2974771
C0X120,麻豆,2026-03-07,23.183289,120.248611,0.45726287
C0C670,龍潭,2026-03-07,24.870056,121.221389,0.011199275
C0D680,香山濕地,2026-03-07,24.783581,120.914988,0.0013959875
C0S980,勝林山,2026-03-07,22.430439,120.8938,0.017404614
C0V730,大寮,2026-03-07,22.605614,120.395717,0.379515
C0R570,麟洛,2026-03-07,22.65078,120.52719,0.67950165
C2M930,石卓,2026-03-07,23.478744,120.702264,0.00059767393
C0G9B0,和美,2026-03-07,24.105169,120.492131,0.0024467867
CAG100,王功漁港,2026-03-07,23.96824,120.32586,0.001569591
C0X290,北門,2026-03-07,23.267772,120.125481,0.10497619
C2F930,大甲,2026-03-07,24.347667,120.640403,0.002659086
C0D650,湖口,2026-03-07,24.904794,121.043628,0.0042251726
C0U780,五結,2026-03-07,24.68637,121.79794,0.25042728
C1I250,鯉潭,2026-03-07,23.961922,120.991131,0.0017594285
C0R130,阿禮,2026-03-07,22.742908,120.743678,0.0045642243
C0X100,臺南市北區,2026-03-07,23.010394,120.194228,0.32115832
C0S920,金峰嘉蘭,2026-03-07,22.594789,120.960825,0.6308005
C0V490,新興,2026-03-07,22.627422,120.298803,0.33113676
C0F9K0,大安,2026-03-07,24.345061,120.588025,0.0025242069
467290,古坑,2026-03-07,23.633639,120.551889,0.013022414
C2E970,八甲,2026-03-07,24.535811,120.795983,0.0035774747
C0V440,鳳山,2026-03-07,22.646653,120.356122,0.3940774
C1T940,大觀,2026-03-07,23.714206,121.373133,0.035586666
C0E740,造橋,2026-03-07,24.637056,120.864778,0.0022455095
C0R100,尾寮山,2026-03-07,22.833111,120.683889,0.0037469082
A2K630,臺大雲林校區,2026-03-07,23.730628,120.423903,0.09724028
467990,馬祖,2026-03-07,26.169467,119.923158,0.00023693552
C0D580,寶山,2026-03-07,24.735006,121.025192,0.005156699
E2P990,林試扇平站,2026-03-07,22.9677,120.6857,0.03420808
C0AI30,三重,2026-03-07,25.057328,121.500629,0.049147174
C0AH00,汐止,2026-03-07,25.066881,121.658778,0.13139442
C1Z040,立山,2026-03-07,23.443356,121.327375,0.08118476
466881,新北,2026-03-07,24.959207,121.525196,0.040029116
C0W130,花嶼,2026-03-07,23.40007,119.32276,0.00061212335
C0A950,鼻頭角,2026-03-07,25.129036,121.923372,0.06693991
C0K470,林內,2026-03-07,23.748675,120.609642,0.016331157
C2F990,摩天嶺,2026-03-07,24.322458,120.936819,0.0014527612
C2E430,南庄,2026-03-07,24.601775,121.000214,0.0032115702
82C160,茶改場,2026-03-07,24.908472,121.185333,0.0148350075
C2TB60,南安,2026-03-07,23.29818,121.26157,0.25662827
C0Z320,清水林道,2026-03-07,23.27125,121.188272,0.08454328
C0R760,南仁湖,2026-03-07,22.084681,120.863353,0.24764448
C0M670,大林,2026-03-07,23.600616,120.45841,0.1272381
C0M800,茶山,2026-03-07,23.299075,120.664767,0.02151478
C0A9C0,天母,2026-03-07,25.117494,121.537169,0.06616714
72K220,南改斗南分場,2026-03-07,23.634556,120.477333,0.10731291
72AI40,桃改樹林分場,2026-03-07,24.944503,121.386972,0.051984597
C0S910,蘭嶼燈塔,2026-03-07,22.081197,121.503117,0.07466282
C0B050,八斗子,2026-03-07,25.144754,121.79167,0.44094193
C0U900,內城,2026-03-07,24.71813,121.68766,0.10635184
C0X320,柳營,2026-03-07,23.253328,120.375253,0.52603143
C0M790,新港,2026-03-07,23.553269,120.345728,0.12874196
C0F9T0,西屯,2026-03-07,24.179494,120.641275,0.032459732
C0E950,松安,2026-03-07,24.39792,120.98599,0.0004346129
C0SA30,都歷,2026-03-07,23.020333,121.323642,0.10039306
C0C620,蘆竹,2026-03-07,25.084275,121.265767,0.006081839
C0R730,大坪頂,2026-03-07,22.024633,120.69355,0.18610148
C0AJ40,石門,2026-03-07,25.273672,121.601198,0.022057055
C0E750,苗栗,2026-03-07,24.564569,120.824575,0.0029176166
C0T870,鯉魚潭,2026-03-07,23.935639,121.508944,0.12961484
C1V170,排雲,2026-03-07,23.463619,120.954147,0.0008175904
C2H950,中寮,2026-03-07,23.884447,120.766406,0.02379491
C0R350,貓鼻頭,2026-03-07,21.921774,120.7358,0.13057312
C0V660,岡山,2026-03-07,22.797078,120.294958,0.2820677
C1H941,雙冬,2026-03-07,23.967378,120.802189,0.011620691
C0AJ70,田寮,2026-03-07,25.2698,121.4886,0.058710326
C0AI00,五股,2026-03-07,25.07445,121.42728,0.02114562
C0Z280,德武,2026-03-07,23.47426,121.41071,0.05644048
C2RA10,大新,2026-03-07,22.67558,120.57788,0.5595719
C0R700,枋山,2026-03-07,22.246844,120.661086,0.56695706
C0C460,復興,2026-03-07,24.820208,121.352281,0.0058163987
C2K300,鹿南,2026-03-07,23.63855,120.3636,0.03630555
E2H360,蓮華池,2026-03-07,23.918333,120.885278,0.024322947
C0M640,中埔,2026-03-07,23.42538,120.5229,0.0111562535
C0W140,金沙,2026-03-07,24.488292,118.408778,0.00038659506
C2A540,四堵,2026-03-07,24.8926,121.745736,0.08034529
C0ACA0,新莊,2026-03-07,25.051478,121.446756,0.052835103
C0R220,潮州,2026-03-07,22.534361,120.54,0.41058668
U2HA40,臺大內茅埔,2026-03-07,23.689722,120.851117,0.0044006375
467490,臺中,2026-03-07,24.145736,120.684075,0.02438832
C0UB60,明池,2026-03-07,24.650688,121.475277,0.0034787313
C0U960,翠峰湖,2026-03-07,24.510856,121.608044,0.000622421
E2HA20,林試畢祿溪站,2026-03-07,24.226944,121.308522,0.0014625354
C2M9A0,大華,2026-03-07,23.4824,120.67491,0.0009155008
C0V890,前鎮,2026-03-07,22.5718,120.3117,0.50998574
C1F941,雪嶺,2026-03-07,24.280586,121.026642,0.0009244411
C2H9E0,國姓南港,2026-03-07,23.911108,120.846556,0.0012904807
C0AC80,文山,2026-03-07,25.00235,121.575728,0.04659854
C0F9R0,龍井,2026-03-07,24.184536,120.528972,0.0022095353
C0M760,民雄,2026-03-07,23.551754,120.428457,0.1272381
C0UA40,西德山,2026-03-07,24.560647,121.752608,0.0026486006
C2TA70,赤科坪,2026-03-07,23.39885,121.39168,0.008740921
C1T920,中興,2026-03-07,23.769503,121.498653,0.14410208
C0D550,雪霸,2026-03-07,24.526972,121.11605,0.0006981412
C2F860,梨山,2026-03-07,24.247522,121.243669,0.0012629139
C0R320,車城,2026-03-07,22.0744,120.716247,0.24962704
C1S870,南美山,2026-03-07,23.15025,121.382333,0.13866316
C0B020,基隆嶼,2026-03-07,25.19141,121.78391,0.36707854
C1U501,牛鬥,2026-03-07,24.637836,121.573656,0.27418235
C0M730,嘉義市東區,2026-03-07,23.457673,120.460531,0.04596489
C2R990,泰武,2026-03-07,22.60686,120.69765,0.016341118
C0S700,知本,2026-03-07,22.684866,121.005642,0.19339947
C1N001,沙崙,2026-03-07,22.935472,120.309406,0.467428
C0V760,橋頭,2026-03-07,22.757806,120.30575,0.3035667
C0G960,福寶,2026-03-07,24.0443,120.3814,0.0026331777
C0X210,白河,2026-03-07,23.347466,120.414427,0.2823994
C0S810,東河,2026-03-07,22.972672,121.303986,0.07819183
C2R170,屏東,2026-03-07,22.66027,120.49403,0.67950165
C0R670,楓港,2026-03-07,22.190131,120.692156,0.47451207
C0FA50,霧峰,2026-03-07,24.0419,120.6995,0.08074575
C0UB10,蘇澳,2026-03-07,24.5969,121.8571,0.75343496
C0G950,防潮門,2026-03-07,24.1835,120.4871,0.002528129
C0M740,六腳,2026-03-07,23.492871,120.290625,0.16551264
C1R250,力里,2026-03-07,22.428117,120.629228,0.2428948
C0K330,虎尾,2026-03-07,23.719183,120.442036,0.09420776
C2FA00,烏石坑,2026-03-07,24.273503,120.947617,0.0015017313
C0V620,永安,2026-03-07,22.82315,120.236856,0.28765815
C1I330,楓樹林,2026-03-07,23.986803,121.076117,0.0003663588
C0W200,湖西,2026-03-07,23.596314,119.67275,0.0010836357
72Q010,高雄農改場,2026-03-07,22.709333,120.525889,0.6516544
C0SA40,瑞和,2026-03-07,22.974361,121.156697,0.03143928
C0C680,龜山,2026-03-07,25.02846,121.38656,0.010623122
C2V260,月眉,2026-03-07,22.971003,120.539853,0.33861983
C0V450,鳳森,2026-03-07,22.545064,120.392592,0.37812746
C0FA90,小雪山林道,2026-03-07,24.29515,121.03651,0.00078350224
C0U720,南山,2026-03-07,24.43742,121.38167,0.0030917637
A2N290,臺南蘭花園區,2026-03-07,23.340258,120.379661,0.39944956
C0R560,新園,2026-03-07,22.5434,120.461558,0.41741207
C0U890,三星,2026-03-07,24.66812,121.65302,0.07073534
C1V300,御油山,2026-03-07,23.001983,120.715364,0.0007536372
C0U600,礁溪,2026-03-07,24.817539,121.765608,0.010871765
C1T980,龍澗,2026-03-07,24.023289,121.411328,0.0068681156
C0D670,海天一線,2026-03-07,24.831986,120.914438,0.0010216492
C0SA00,歷坵,2026-03-07,22.520969,120.89185,0.7262737
C0M710,東石,2026-03-07,23.458927,120.15385,0.020436632
C0M780,鹿草,2026-03-07,23.41134,120.30835,0.16190252
C0U520,雙連埤,2026-03-07,24.753033,121.641303,0.019764451
C0B010,七堵,2026-03-07,25.094819,121.71713,0.3420122
C0R480,長治,2026-03-07,22.693128,120.542622,0.61315536
C1V830,國三S383K,2026-03-07,22.781967,120.426475,0.545487
12Q980,恆春工作站,2026-03-07,22.079678,120.714425,0.24962704
C1O940,東山服務區,2026-03-07,23.286016,120.398472,0.39035043
C1U840,東澳嶺,2026-03-07,24.5378,121.8485,0.018001832
C1D630,飛鳳山,2026-03-07,24.766464,121.119178,0.0013811154
C0S940,石寧山,2026-03-07,23.223772,121.406639,0.31313914
C0K410,北港,2026-03-07,23.573957,120.292802,0.10045709
C2M620,瑞里,2026-03-07,23.545133,120.675197,0.0010308174
C0SB70,小港漁港,2026-03-07,23.158558,121.400431,0.6087869
C2O950,安南,2026-03-07,23.076694,120.144861,0.050851215
C0F0E0,南湖圈谷,2026-03-07,24.363714,121.444667,0.00051342085
467610,成功,2026-03-07,23.097486,121.373428,0.43579036
C0G890,伸港,2026-03-07,24.148933,120.484403,0.002482397
C2E540,龍溪,2026-03-07,24.606489,120.783933,0.0028483735
C1V200,梅山,2026-03-07,23.268447,120.823556,0.0023445853
C0T9H0,加路蘭山,2026-03-07,23.682947,121.5274,0.009480916
C2O930,玉井,2026-03-07,23.126042,120.46055,0.29605094
C1F911,新伯公,2026-03-07,24.221361,120.841069,0.0023168891
C0R490,九如,2026-03-07,22.7405,120.490503,0.6516544
C0X200,左鎮,2026-03-07,23.056758,120.408522,0.50645167
C2TB50,麻汝,2026-03-07,23.42554,121.39358,0.0520109
C0FA60,鞍馬山工作站,2026-03-07,24.267064,121.000793,0.00067945325
C0SB50,叭嗡嗡,2026-03-07,23.047062,121.343223,0.5084186
C1F891,稍來,2026-03-07,24.265689,121.001142,0.0006897578
C2M9C0,紫雲,2026-03-07,23.494914,120.540253,0.015398808
72N240,七股研究中心,2026-03-07,23.081672,120.062894,0.06446069
C0C700,中壢,2026-03-07,24.977661,121.256375,0.020266991
C0M690,水上,2026-03-07,23.419734,120.388909,0.26588824
C0V690,鼓山,2026-03-07,22.623325,120.275575,0.33113676
C0O860,大內,2026-03-07,23.11885,120.36083,0.5181162
C0Z200,萬榮,2026-03-07,23.709219,121.420106,0.095342904
C0T9D0,和中,2026-03-07,24.26676,121.74103,0.04959363
C2S9A0,北份子寮,2026-03-07,22.78561,121.07813,0.17773485
C1O921,楠西,2026-03-07,23.183511,120.484083,0.27252066
C0AJ30,淡水觀海,2026-03-07,25.184591,121.408616,0.006939673
C0V810,左營,2026-03-07,22.67491,120.28491,0.27781034
C0UA70,桃源谷,2026-03-07,24.962606,121.888875,0.016730916
C0X130,官田,2026-03-07,23.193217,120.315422,0.415234
C1H000,翠峰,2026-03-07,24.109397,121.205211,0.0010538037
C0UA90,石城,2026-03-07,24.980444,121.951214,0.106641926
C1E681,南勢山,2026-03-07,24.421669,120.923831,0.00040641654
C0A9F0,內湖,2026-03-07,25.079422,121.57545,0.06997885
C0K291,宜梧,2026-03-07,23.536281,120.169329,0.026586678
C1K540,口湖,2026-03-07,23.585344,120.180517,0.026713746
C0R780,滿州,2026-03-07,22.024403,120.839892,0.65510005
C0V870,文安,2026-03-07,22.8025,120.2164,0.29958665
C0U650,玉蘭,2026-03-07,24.675286,121.587061,0.09870357
C0R640,東港,2026-03-07,22.46247,120.44074,0.40506297
C0AJ80,板橋,2026-03-07,25.0107,121.4489,0.038814068
C0S660,下馬,2026-03-07,23.150427,121.070312,0.06791614
C2N190,烏樹,2026-03-07,23.32393,120.36989,0.17011724
C1H9B1,阿眉,2026-03-07,24.1263,120.994672,0.0013297012
C0UA20,多加屯,2026-03-07,24.368614,121.373189,0.00075524556
C0E730,頭份,2026-03-07,24.688247,120.912206,0.0017574305
72V140,高改旗南分場,2026-03-07,22.857861,120.516667,0.60016304
C0K480,莿桐,2026-03-07,23.761192,120.502372,0.10271863
C0U980,坪林石牌,2026-03-07,24.86478,121.77396,0.014512299
C0T900,西林,2026-03-07,23.8119,121.441458,0.06866355
C1I150,青雲,2026-03-07,23.793361,120.949378,0.02579533
C2E980,和興,2026-03-07,24.505319,120.923016,0.0020954162
467350,澎湖,2026-03-07,23.565503,119.563094,0.0007110386
C0G800,埔鹽,2026-03-07,24.000394,120.431683,0.002325144
C0H960,草屯,2026-03-07,23.973672,120.68085,0.039677955
C1V780,多納林道,2026-03-07,22.888028,120.737917,0.0004251877
C0E920,通霄漁港,2026-03-07,24.498589,120.673876,0.001509282
C0Z330,安通山,2026-03-07,23.290728,121.348528,0.046140388
C0AH10,永和,2026-03-07,25.01125,121.508111,0.038898833
C0AK10,太平里,2026-03-07,25.134937,121.364899,0.009072151
C2G640,鹿港,2026-03-07,24.0753,120.430481,0.0024893864
C1E890,國三N149K,2026-03-07,24.463414,120.680019,0.0017231725
C1R110,口社,2026-03-07,22.770111,120.645222,0.4785296
C1M870,國三N285K,2026-03-07,23.550319,120.505833,0.013955889
C1E480,鳳美,2026-03-07,24.554803,121.034747,0.004393052
C0T9M0,靜浦,2026-03-07,23.455167,121.495028,0.21310985
C2H9M0,發祥,2026-03-07,24.154094,121.164517,0.0012331952
C2G9C0,埔南,2026-03-07,23.99124,120.46969,0.002325144
C0AI40,石牌,2026-03-07,25.115597,121.513139,0.06997887
C1F871,上谷關,2026-03-07,24.203483,121.018644,0.0015017313
C2H9G0,百勝,2026-03-07,24.051142,120.909361,0.0032324248
C0G880,二水,2026-03-07,23.810742,120.6173,0.015648635
C0R940,加祿堂,2026-03-07,22.3363,120.6217,0.16001293
C0W220,北竿,2026-03-07,26.220358,119.974881,0.00024855713
C0O960,崎頂,2026-03-07,22.959547,120.369317,0.4427045
C0TA40,秀林,2026-03-07,24.302864,121.731144,0.0045291497
C0S750,向陽,2026-03-07,23.248397,120.986133,0.001242747
C0T9F0,水璉,2026-03-07,23.797131,121.542514,0.038828034
C1M600,頭凍,2026-03-07,23.406364,120.603339,0.0011250917
467660,臺東,2026-03-07,22.752211,121.154586,0.38430515
C1D380,新埔,2026-03-07,24.84745,121.03834,0.0057756254
C2G980,田頭村,2026-03-07,23.8263,120.444175,0.075508446
C0V750,路竹,2026-03-07,22.854997,120.259439,0.2706172
C0N050,蚵寮,2026-03-07,23.301,120.1104,0.10497619
C2X060,下營,2026-03-07,23.226806,120.256291,0.4425801
72M700,南改鹿草分場,2026-03-07,23.416869,120.283061,0.17095292
C1SA50,利嘉林道,2026-03-07,22.82325,121.009389,0.0016227484
C0UB70,太平山中間站,2026-03-07,24.542003,121.513453,0.009294093
C0A940,金山,2026-03-07,25.223628,121.643967,0.2365726
C1V340,大津,2026-03-07,22.888322,120.645986,0.3399372
C0W180,七美,2026-03-07,23.219333,119.444892,0.0007233901
C1F9C1,白冷,2026-03-07,24.182844,120.929889,0.0016071559
K2E710,苗改生物防治研究中心,2026-03-07,24.422861,120.871833,0.00401032
C0N040,蘆竹溝,2026-03-07,23.2344,120.0961,0.10701519
C0TB40,崇德,2026-03-07,24.166144,121.657414,0.3322595
C0D760,大坪苗圃,2026-03-07,24.5362,121.1108,0.0005432762
C2W230,畜試所澎湖,2026-03-07,23.628342,119.513206,0.0006203396
C0R880,後壁湖,2026-03-07,21.9457,120.7457,0.14563149
C1I280,埔中,2026-03-07,23.820778,120.642594,0.0036921285
467790,墾丁雷達站,2026-03-07,21.948235,120.808028,0.34931725
C0W190,望安,2026-03-07,23.380564,119.494075,0.0009833913
C0Z170,卓溪,2026-03-07,23.3443,121.3029,0.19375654
C0F850,東勢,2026-03-07,24.246428,120.833047,0.00307086
466900,淡水,2026-03-07,25.164889,121.448906,0.036167387
C0I370,魚池,2026-03-07,23.895703,120.94135,0.017689092
C0C630,大溪,2026-03-07,24.882853,121.265547,0.013032892
C0A520,山佳,2026-03-07,24.974944,121.402008,0.056478888
C0I110,竹山,2026-03-07,23.761225,120.688156,0.13706484
82H840,茶改南部分場,2026-03-07,23.762528,120.7405,0.00794655
C2SD80,再來山,2026-03-07,23.34371,121.44122,0.045247756
C0G660,溪湖,2026-03-07,23.94835,120.479122,0.018589051
C1T800,洛韶,2026-03-07,24.204558,121.453956,0.006388354
C1T810,慈恩,2026-03-07,24.192044,121.388386,0.0008744019
C1E451,象鼻,2026-03-07,24.368617,120.940228,0.00040641654
C0AC60,三峽,2026-03-07,24.939025,121.369728,0.019936383
C0I490,萬大林道,2026-03-07,23.928228,121.091411,0.00039733056
C1I290,豐丘,2026-03-07,23.668178,120.887417,0.0020640162
C1I320,奧萬大,2026-03-07,23.952956,121.178556,0.0015762834
C2M910,嘉義大學,2026-03-07,23.471325,120.485903,0.0341593
C0U770,南澳,2026-03-07,24.44935,121.81022,0.6939726
C2TB30,吉安,2026-03-07,23.94538,121.54803,0.19724391
C0A980,社子,2026-03-07,25.109508,121.469681,0.10873336
C0V800,六龜,2026-03-07,22.997889,120.633583,0.09394096
C1G9D0,國一S218K,2026-03-07,23.890641,120.493253,0.032715056
C0E570,白沙屯,2026-03-07,24.549447,120.696803,0.00041408493
C2F9A0,中竹林,2026-03-07,24.103556,120.751061,0.00096873345
C0FA40,臺中電廠,2026-03-07,24.2146,120.4907,0.0033051462
C2G9A0,畜試所彰化,2026-03-07,23.86045,120.557964,0.0715863
C0H9C0,合歡山,2026-03-07,24.143442,121.272547,0.00075159885
G2M350,農試溪口農場,2026-03-07,23.58565,120.408111,0.14079456
C0U860,頭城,2026-03-07,24.85323,121.8308,0.049411304
C0R580,南州,2026-03-07,22.48591,120.50274,0.50671047
C0D430,峨眉,2026-03-07,24.6905,121.017189,0.003238553
C0G780,秀水,2026-03-07,24.03405,120.503869,0.010898359
72N100,臺南農改場,2026-03-07,23.0605,120.342194,0.559698
C0S900,蘭嶼高中,2026-03-07,22.04909,121.51214,0.14170836
C2TA60,六十石,2026-03-07,23.22477,121.31861,0.025535682
C1F9W0,德基,2026-03-07,24.254783,121.190261,0.0018889238
C2M980,安和,2026-03-07,23.51377,120.31593,0.16551264
C1Z120,壽豐,2026-03-07,23.870853,121.508081,0.22281553
C0W160,烏坵,2026-03-07,24.9944,119.44956,0.00026319493
C1I240,外大坪,2026-03-07,23.958697,120.917931,0.011360868
C1I550,國六W023K,2026-03-07,23.979067,120.867742,0.00891901
C0R870,興海,2026-03-07,21.9752,120.8439,0.38196564
C0R140,瑪家,2026-03-07,22.682903,120.686639,0.20586051
C0A530,坪林,2026-03-07,24.938183,121.70975,0.070277095
C0X260,後壁,2026-03-07,23.366358,120.362326,0.45235005
C0Z230,和平,2026-03-07,24.30717,121.77007,0.065274164
C0G770,福興,2026-03-07,24.041289,120.437669,0.002325144
C0H9A0,神木村,2026-03-07,23.532742,120.843667,0.0007939554
C0I460,南投,2026-03-07,23.911469,120.687331,0.042382546
C0I480,梅峰,2026-03-07,24.085272,121.173572,0.0015521877
C1V570,吉東,2026-03-07,22.85422,120.5454,0.5548403
C2A560,福山,2026-03-07,24.776203,121.502811,0.1118731
C0AH30,五分山,2026-03-07,25.07125,121.780794,0.01268598
C0FA10,松柏,2026-03-07,24.429115,120.617482,0.0007775291
72S200,東改班鳩分場,2026-03-07,22.829528,121.077694,0.032879833
72HA00,中改埔里分場,2026-03-07,23.903208,120.963364,0.01958909
C2H9W0,大坪頂農水,2026-03-07,24.043122,120.932781,0.0065875966
C0C650,平鎮,2026-03-07,24.897503,121.214636,0.0059244265
C0S930,延平,2026-03-07,22.902581,121.084058,0.07030911
C0UA60,樟樹山,2026-03-07,24.41393,121.78325,0.0018410104
C2UC10,出水溪,2026-03-07,24.615822,121.652253,0.042429887
C1S670,摩天,2026-03-07,23.199503,121.027,0.03219962
C2C590,觀音,2026-03-07,25.027072,121.153317,0.0029062128
C0V630,茄萣,2026-03-07,22.906642,120.182608,0.22485718
466940,基隆,2026-03-07,25.133314,121.740475,0.4168849
C0X050,東河,2026-03-07,23.296598,120.385608,0.39944956
C0R770,保力,2026-03-07,22.071122,120.764111,0.26306877
G2L020,農試嘉義分所,2026-03-07,23.485028,120.473806,0.03184726
C0X240,關子嶺,2026-03-07,23.331169,120.508025,0.01272332
C0I380,集集,2026-03-07,23.828206,120.801467,0.06791521
466990,花蓮,2026-03-07,23.975128,121.613275,0.543706
C1V220,小關山,2026-03-07,23.154217,120.813603,0.00084258453
C1F9G1,慶福山,2026-03-07,24.180853,120.848378,0.00051090814
C0FB20,雪山橋,2026-03-07,24.23192,120.9786,0.00077207497
C0Z250,瑞穗林道,2026-03-07,23.49284,121.30688,0.025782865
C0D590,新豐,2026-03-07,24.87068,120.97721,0.0012838066
C0A870,五指山,2026-03-07,25.132153,121.608692,0.0019233588
C0UA50,西帽山,2026-03-07,24.555361,121.802628,0.018753674
C2R980,竹田國中,2026-03-07,22.61532,120.52412,0.3776787
C0X160,仁德,2026-03-07,22.968258,120.257689,0.3759178
C1H971,六分寮,2026-03-07,23.92507,120.6378,0.004175698
C0W120,西嶼,2026-03-07,23.5626,119.468436,0.00066568586
C0G650,員林,2026-03-07,23.946503,120.585597,0.015655711
C0AD50,鶯歌,2026-03-07,24.951533,121.346294,0.027914563
C2H9Q0,北東眼山,2026-03-07,24.120939,121.189303,0.0015320255
C2H9T0,名間竹圍,2026-03-07,23.859914,120.637572,0.012087482
C0S990,山豬窟,2026-03-07,22.318619,120.857372,0.22526653
C0X190,安平,2026-03-07,22.993161,120.152181,0.3463605
C0K400,斗六,2026-03-07,23.720583,120.541127,0.09710442
12J990,口湖工作站,2026-03-07,23.589978,120.180394,0.026713746
C0O830,北寮,2026-03-07,23.079561,120.495008,0.2027784
C1D410,白蘭,2026-03-07,24.579364,121.079947,0.00070072786
C0S970,加津林,2026-03-07,22.416211,120.926942,0.37001374
C0D700,關西,2026-03-07,24.7977,121.1732,0.01828936
C0U750,龜山島,2026-03-07,24.841667,121.953133,0.039759625
C0R810,內獅,2026-03-07,22.305064,120.642986,0.56695706
C1M390,龍美,2026-03-07,23.406728,120.654417,0.0012809931
C2K290,崙內,2026-03-07,23.69525,120.35601,0.03630555
C2FB60,頭櫃山,2026-03-07,24.129842,120.858925,0.00045198077
C1H840,國三N238K,2026-03-07,23.841008,120.707711,0.047535803
CAQ030,崎峰國小,2026-03-07,22.42565,120.49521,0.50671047
C2E520,大湖,2026-03-07,24.414939,120.870872,0.0039552455
467530,阿里山,2026-03-07,23.508208,120.813242,0.00071462744
C1E691,南湖,2026-03-07,24.40135,120.837533,0.00026227234
C0FA30,梧棲,2026-03-07,24.256003,120.523381,0.0022095353
C1V231,高中,2026-03-07,23.134911,120.716711,0.0015034083
C0AK30,硬漢嶺,2026-03-07,25.136097,121.426372,0.0016135207
C0F9V0,新社,2026-03-07,24.200172,120.815806,0.0010982681
C0H890,埔里,2026-03-07,23.972169,120.952425,0.026247982
C0R690,墾丁,2026-03-07,21.966756,120.810269,0.040333122
C0SD20,富山,2026-03-07,22.822383,121.190825,0.48832116
C0F0D0,審馬陣,2026-03-07,24.381675,121.4203,0.0007751657
C2W030,金門農試所,2026-03-07,24.448431,118.451786,0.00027638074
C0R820,白鷺,2026-03-07,22.454275,120.666219,0.25265732
C0FB00,大雪山,2026-03-07,24.254668,121.007374,0.0006727583
C1V190,南天池,2026-03-07,23.27403,120.91176,0.00077004253
C0E940,雪見,2026-03-07,24.42595,121.01347,0.00045185175
K2E360,苗栗農改場,2026-03-07,24.495722,120.829111,0.004234753
CAJ050,海口故事園區,2026-03-07,23.57543,120.14121,0.026713738
C2K280,四湖,2026-03-07,23.6304,120.22717,0.017740188
C2H9D0,三隻寮,2026-03-07,24.093078,120.861578,0.0010506259
C0O990,媽廟,2026-03-07,22.99175,120.293525,0.52394414
C0D480,打鐵坑,2026-03-07,24.849664,121.150789,0.011278807
C0Z220,和平林道,2026-03-07,24.343922,121.656317,0.0014732518
C0TA10,花蓮漁港,2026-03-07,23.995322,121.638331,0.027639838
72C440,桃園農改場,2026-03-07,24.950944,121.030583,0.0039934693
C1E711,馬拉邦山,2026-03-07,24.367306,120.901656,0.0003376836
C0SB20,富岡,2026-03-07,22.792467,121.192669,0.43930656
C0D560,竹東,2026-03-07,24.767147,121.057881,0.018586777
C0F9U0,南屯,2026-03-07,24.137006,120.637969,0.03256413
C2SD60,明峰,2026-03-07,22.8671,121.11825,0.043395147
C0M720,番路,2026-03-07,23.464657,120.554156,0.0033622845
C0F0A0,雪山圈谷,2026-03-07,24.388594,121.236339,0.0008450699
C1A9N0,四十份,2026-03-07,24.934158,121.593283,0.011352041
C0U760,東澳,2026-03-07,24.52196,121.83318,0.6342038
C0X230,鹽水,2026-03-07,23.272621,120.247641,0.13236418
C2H9H0,苗改南投蜂場,2026-03-07,23.852589,120.693481,0.16682085
C2TB70,達谷寮,2026-03-07,23.38,121.35968,0.053754017
C0R950,萬隆國小,2026-03-07,22.507667,120.587817,0.29931825
467540,大武,2026-03-07,22.35572,120.90374,0.8513656
C0V370,古亭坑,2026-03-07,22.893178,120.401947,0.5467479
C1I340,新興橋,2026-03-07,23.563333,120.868728,0.00639011
C0SA80,土坂,2026-03-07,22.453108,120.887572,0.84910184
C0R160,鹽埔,2026-03-07,22.739558,120.530778,0.6516544
C0AC40,大屯山,2026-03-07,25.175675,121.522408,0.00048063337
466850,五分山雷達站,2026-03-07,25.071182,121.781205,0.011939777
C2H9L0,馬烈霸,2026-03-07,24.1512,121.201772,0.0014422504
C1AI50,國三N016K,2026-03-07,25.034164,121.619664,0.0809906
C2V920,匏子寮,2026-03-07,23.04905,120.55319,0.09681561
C1V600,藤枝,2026-03-07,23.071961,120.757042,0.00079824077
C1E601,南勢,2026-03-07,24.572486,120.734842,0.00051964977
C0O980,新市,2026-03-07,23.061614,120.298197,0.5667154
C0K420,西螺,2026-03-07,23.800407,120.467394,0.07104649
C0Z050,佳心,2026-03-07,23.34567,121.21316,0.031075494
C0AD30,蘆洲,2026-03-07,25.086594,121.472331,0.06672609
C0V610,梓官,2026-03-07,22.760558,120.267211,0.28544515
K2F750,種苗改良場,2026-03-07,24.225972,120.800917,0.0010694631
C0UA80,大溪漁港,2026-03-07,24.941801,121.902955,0.5277199
C1AI60,國一39K邊坡,2026-03-07,25.064361,121.383836,0.016752038
C0W150,金寧,2026-03-07,24.457703,118.328989,0.00036256708
C0R960,內埔,2026-03-07,22.608483,120.570714,0.36809576
C2H9S0,龍南,2026-03-07,23.953536,120.833183,0.003151246
C0AH40,平等,2026-03-07,25.129142,121.577086,0.0076487726
C0R540,佳冬,2026-03-07,22.419456,120.552375,0.4491053
466950,彭佳嶼,2026-03-07,25.627975,122.079744,0.0019123019
C0A890,雙溪,2026-03-07,25.036003,121.864242,0.2882551
C0C480,桃園,2026-03-07,24.992425,121.323172,0.019898543
C0AH50,林口,2026-03-07,25.072181,121.38084,0.011099066
A2K360,水試臺西試驗場,2026-03-07,23.717231,120.190522,0.010552958
C2M960,外寮,2026-03-07,23.562643,120.665688,0.0014117339
C0F9S0,烏日,2026-03-07,24.107058,120.624103,0.01587561
C2N180,鹿陶洋,2026-03-07,23.14325,120.48352,0.27252066
C0C490,八德,2026-03-07,24.928708,121.283289,0.012890453
C0R190,赤山,2026-03-07,22.592333,120.614306,0.3571782
C0T820,天祥,2026-03-07,24.179597,121.495639,0.14522356
C1F9E1,龍安,2026-03-07,24.1605,120.831961,0.0010081802
C2SD50,順那,2026-03-07,23.04166,121.29332,0.048780095
C0V820,小林,2026-03-07,23.148408,120.63325,0.0045364783
C2G870,芳苑,2026-03-07,23.922303,120.320025,0.0013737698
C0E850,大河,2026-03-07,24.618069,120.948578,0.0048728897
C1U670,寒溪,2026-03-07,24.634,121.71691,0.0753013
C0N020,城西,2026-03-07,23.0568,120.0956,0.05829395
C1Z110,三棧,2026-03-07,24.11557,121.60501,0.048321266
C0R280,檳榔,2026-03-07,22.076078,120.836777,0.37354526
C2H9J0,中台,2026-03-07,23.9996,120.938739,0.008629973
C0F9L0,后里,2026-03-07,24.310436,120.729725,0.011063095
467441,高雄,2026-03-07,22.730432,120.312516,0.29747713
C0Z180,新城,2026-03-07,24.040486,121.604878,0.51666814
C0D540,橫山,2026-03-07,24.71116,121.11693,0.004748784
C1D420,太閣南,2026-03-07,24.632808,121.160575,0.001010326
C1E770,公館,2026-03-07,24.526914,120.830806,0.003749647
CAN130,水試所海水繁養殖中心,2026-03-07,23.120802,120.07968,0.06446069
C1I430,翠華,2026-03-07,24.191961,121.224339,0.0009839723
C1M400,菜瓜坪,2026-03-07,23.251928,120.576103,0.016962036
C0G730,二林,2026-03-07,23.903325,120.376081,0.0037828565
72M360,南改義竹分場,2026-03-07,23.360694,120.279361,0.21011338
V2K620,麥寮合作社,2026-03-07,23.753836,120.294783,0.017326355
C0Z070,舞鶴,2026-03-07,23.46811,121.37407,0.038530204
C0B040,大武崙,2026-03-07,25.166676,121.706993,0.17034435
C1Z030,紅葉,2026-03-07,23.493119,121.338806,0.051511075
C1I050,丹大,2026-03-07,23.753747,121.141147,0.000642771
C0I080,信義,2026-03-07,23.689694,120.851036,0.0044006375
C2TB80,庄子底,2026-03-07,23.71794,121.49438,0.17563067
C0D750,樂山林道6k,2026-03-07,24.49999,121.08773,0.0014017972
C2M920,朴子農改,2026-03-07,23.469889,120.259383,0.17859754
C2A880,福隆,2026-03-07,25.017842,121.942083,0.11750962
C0Z160,鳳林,2026-03-07,23.746114,121.453411,0.16034734
C0UB80,翠峰林道6K,2026-03-07,24.49773,121.568625,0.0005702779
C0V210,復興,2026-03-07,23.222403,120.806089,0.0016696944
C0H990,昆陽,2026-03-07,24.121322,121.273642,0.0007624381
C0R741,獅子,2026-03-07,22.202308,120.705236,0.46094385
C0S710,鹿野,2026-03-07,22.917711,121.122994,0.03092154
C0I530,小奇萊,2026-03-07,24.131764,121.295717,0.00076398253
C0FA70,大雪山埡口,2026-03-07,24.26867,121.03062,0.0008872134
C2K630,荷苞,2026-03-07,23.657717,120.595144,0.009765429
C0Z080,富源,2026-03-07,23.587642,121.378225,0.1064392
C2M9E0,旺來山,2026-03-07,23.555153,120.486463,0.0133884335
C0SB10,美和,2026-03-07,22.682078,121.060236,0.43407008
C2K620,馬光農場,2026-03-07,23.721453,120.378864,0.10008575
C1I140,卡奈托灣,2026-03-07,23.754364,121.087872,0.00052383286
C0I520,玉山風口,2026-03-07,23.470489,120.955994,0.0008052265
C1G691,下水埔,2026-03-07,23.816114,120.5676,0.08596934
C0X110,臺南市南區,2026-03-07,22.961189,120.188378,0.37590942
C0V680,仁武,2026-03-07,22.701083,120.347722,0.29747713
C2G840,北斗,2026-03-07,23.877586,120.514222,0.03236591
C2TB90,長橋,2026-03-07,23.6874,121.46186,0.15358967
C0R900,竹坑,2026-03-07,22.1385,120.7022,0.47451222
C0G860,社頭,2026-03-07,23.897647,120.5862,0.028960906
C0X150,安定,2026-03-07,23.102614,120.227839,0.52067983
C0R590,里港,2026-03-07,22.77919,120.49459,0.66471606
C0E610,馬都安,2026-03-07,24.451272,120.930192,0.0005651914
C0E550,明德,2026-03-07,24.583486,120.885411,0.014091151
C0R150,三地門,2026-03-07,22.709889,120.639944,0.48785305
C0G910,花壇,2026-03-07,24.032076,120.549461,0.0104482025
C1D400,鳥嘴山,2026-03-07,24.71909,121.28387,0.0010672642
C0K500,元長,2026-03-07,23.64981,120.315024,0.031598225
C0F0B0,石岡,2026-03-07,24.276061,120.777644,0.011173279
C2V250,甲仙,2026-03-07,23.080106,120.591758,0.02971896
C0SA20,金崙山,2026-03-07,22.567419,120.959667,0.017212544
C0V350,溪埔,2026-03-07,22.738578,120.446797,0.5896394
C0M660,溪口,2026-03-07,23.604131,120.403569,0.14079465
C1S880,壽卡,2026-03-07,22.238911,120.858903,0.02627968
72D680,桃改新埔分場,2026-03-07,24.834444,121.066111,0.005728628
