站號,站名,日期,lat,lon,BLBTSLS
C0R710,龍磐,2026-01-05,21.931672,120.838942,0.99967074
C1F9D1,白毛台,2026-01-05,24.158325,120.886933,1.4266993e-08
C0G940,竹塘,2026-01-05,23.848253,120.386764,2.0428846e-08
467590,恆春,2026-01-05,22.003897,120.746339,0.999405
C1O850,環湖,2026-01-05,23.148617,120.418633,1.0959119e-08
C0U710,太平山,2026-01-05,24.505486,121.525656,8.051827e-08
C0E820,獅潭,2026-01-05,24.539133,120.920042,0.55573344
C2SD70,二層坪,2026-01-05,22.94105,121.16838,1.0433095e-05
C0V880,興達,2026-01-05,22.8778,120.2127,0.9085344
C0S890,關山,2026-01-05,23.0395,121.175017,7.438669e-06
C0SB30,新蘭,2026-01-05,22.869214,121.223228,0.007841516
C2R970,屏科大,2026-01-05,22.648275,120.619247,5.7146856e-09
C1Z130,銅門,2026-01-05,23.965694,121.492842,1.0046821e-07
C0AD40,土城,2026-01-05,24.973208,121.445169,0.14555714
CAN140,六官養殖協會,2026-01-05,23.22881,120.29962,0.020564906
C0X180,山上,2026-01-05,23.0757,120.363253,0.1873676
C0F9Z0,雪山東峰,2026-01-05,24.388792,121.268675,6.8917046e-08
C1M480,獨立山,2026-01-05,23.537022,120.607797,5.563268e-09
C0X220,學甲,2026-01-05,23.230367,120.182187,0.020831803
467650,日月潭,2026-01-05,23.881325,120.90805,9.397551e-09
C0K600,箔子寮,2026-01-05,23.6197,120.14,0.0003465991
C0G830,埤頭,2026-01-05,23.866003,120.452806,1.9388109e-08
C0S950,七塊厝,2026-01-05,22.954453,121.229922,5.0593576e-07
467110,金門,2026-01-05,24.407306,118.289281,0.07526915
C0AH80,深坑,2026-01-05,25.002703,121.628328,0.8188468
C0A970,三貂角,2026-01-05,25.007606,122.002058,0.5516115
C2D730,寶山農場,2026-01-05,24.732444,120.976153,0.998347
C0K430,褒忠,2026-01-05,23.690938,120.303634,0.060129818
467480,嘉義,2026-01-05,23.495925,120.432906,1.2077355e-08
C0V400,阿公店,2026-01-05,22.804194,120.355528,0.98884207
C0E960,觀霧分站,2026-01-05,24.505781,121.113921,4.691298e-08
467550,玉山,2026-01-05,23.48718,120.95943,6.476146e-08
C0R440,大漢山,2026-01-05,22.405264,120.753181,2.0751187e-08
C0SD30,東清國小,2026-01-05,22.057128,121.564922,0.9980168
C1F9B1,桐林,2026-01-05,24.066172,120.735194,1.5873477e-08
C2H9U0,鳳鵬,2026-01-05,23.763919,120.788061,5.4685834e-09
C0K390,土庫,2026-01-05,23.679029,120.395574,1.9686892e-08
C1I450,望鄉山,2026-01-05,23.594153,120.944286,4.41714e-08
C0E910,海埔,2026-01-05,24.648767,120.772435,0.999316
B2E890,畜試北區分所,2026-01-05,24.527806,120.770972,0.99644357
C0R750,四林格山,2026-01-05,22.076989,120.802439,0.99499243
C0F0C0,中坑,2026-01-05,24.248517,120.903319,1.3848473e-08
C1I121,大鞍,2026-01-05,23.678381,120.760017,1.3810252e-08
C2G9E0,移民庄,2026-01-05,23.9784,120.40283,0.0054126545
72U480,花改蘭陽分場,2026-01-05,24.686306,121.716583,0.0004819889
C0A770,科教館,2026-01-05,25.096356,121.516507,0.23954883
C0AJ60,六塊厝,2026-01-05,25.24,121.4481,0.9999913
C0R620,墾雷,2026-01-05,21.900836,120.855269,0.9994761
467420,永康,2026-01-05,23.038386,120.2367,0.8691982
C2M530,奮起湖,2026-01-05,23.493903,120.699253,1.2219672e-08
C0I410,名間,2026-01-05,23.837053,120.701447,6.9248802e-09
A2C560,農工中心,2026-01-05,24.985917,121.239833,0.99997526
C0V740,旗山,2026-01-05,22.888614,120.483597,9.13415e-09
C0Z061,玉里,2026-01-05,23.3215,121.339656,2.1655482e-07
C0S840,南田,2026-01-05,22.279725,120.889208,0.99986154
C1I470,杉林溪,2026-01-05,23.639517,120.786444,1.5794924e-08
C1X040,東原,2026-01-05,23.291597,120.463822,6.006339e-09
C0R660,枋寮,2026-01-05,22.367722,120.590647,0.0012668914
C1R120,上德文,2026-01-05,22.763272,120.704442,7.454294e-09
C0K450,大埤,2026-01-05,23.646074,120.431537,1.916786e-08
C0UA00,土場,2026-01-05,24.576533,121.495333,1.6741164e-06
467080,宜蘭,2026-01-05,24.763975,121.756528,0.0007256313
C0N030,四草,2026-01-05,23.0235,120.1116,0.9321959
467410,臺南,2026-01-05,22.99328,120.20492,0.7828461
C0V650,彌陀,2026-01-05,22.783806,120.246361,0.9962954
C0D660,新竹市東區,2026-01-05,24.798681,120.986942,0.9997383
82S580,茶改東部分場,2026-01-05,22.907694,121.130139,1.9020628e-05
C0SB40,興隆,2026-01-05,22.913661,121.257469,0.0033358415
467050,新屋,2026-01-05,25.006725,121.047492,0.9999922
C0C710,大溪永福,2026-01-05,24.892936,121.324975,0.9999688
C0FA20,溫寮,2026-01-05,24.372177,120.583125,0.9975686
C0V640,湖內,2026-01-05,22.887139,120.2445,0.863804
C0R910,下寮,2026-01-05,22.3929,120.5548,0.001409814
C0Z020,明里,2026-01-05,23.208717,121.262342,1.4607086e-07
C0M770,嘉義梅山,2026-01-05,23.585398,120.555587,6.9405233e-09
C0C660,楊梅,2026-01-05,24.912375,121.143047,0.9999475
C0SD40,牛頭山,2026-01-05,22.676661,121.506944,0.9998777
C1E511,新開,2026-01-05,24.347703,120.827019,1.6369836e-07
G2F820,農試所(霧峰),2026-01-05,24.031261,120.688133,2.13294e-08
C2M990,大巃頂,2026-01-05,23.5547,120.61439,7.0574893e-09
C1I070,和社,2026-01-05,23.591131,120.888861,6.4715993e-09
C2E990,新坪頂,2026-01-05,24.30201,120.8574,3.7870112e-08
C0TA80,立霧山,2026-01-05,24.183258,121.641899,5.067078e-08
C2F000,大肚,2026-01-05,24.15295,120.572117,0.8599617
C1S850,豐南,2026-01-05,23.122139,121.262389,2.858276e-07
C2M9B0,西興,2026-01-05,23.2428,120.57617,4.5706634e-09
C2A920,富貴角,2026-01-05,25.263783,121.565258,0.9999763
CAH030,茶改場竹圍站,2026-01-05,23.860083,120.637528,5.6342384e-09
C0T960,光復,2026-01-05,23.660694,121.424964,1.2250868e-07
C0F9M0,豐原,2026-01-05,24.254322,120.720692,9.042546e-07
C0R720,旭海,2026-01-05,22.205403,120.887614,0.9996844
C0V710,苓雅,2026-01-05,22.622742,120.330669,0.9951696
C0C740,觀音工業區,2026-01-05,25.064764,121.114856,0.99999315
CAC040,拉拉山,2026-01-05,24.699317,121.427133,1.2152796e-07
C0V790,萬山,2026-01-05,22.905944,120.688056,9.8185025e-09
U2HA30,臺大和社,2026-01-05,23.590856,120.888864,6.4715993e-09
C2H9K0,屯原,2026-01-05,24.067969,121.209389,2.9471227e-08
C0AJ90,澳底,2026-01-05,25.0552,121.9253,0.9585672
C0Z100,東華,2026-01-05,23.89525,121.549833,1.7890336e-07
C0G970,三豐,2026-01-05,23.882,120.2895,0.09205647
V2K610,大庄合作社,2026-01-05,23.8068,120.367939,0.052452225
C0V900,汕尾,2026-01-05,22.4782,120.4151,0.0014909321
C1R630,龍泉,2026-01-05,22.66701,120.59091,1.1365747e-08
C1AC50,關渡,2026-01-05,25.133486,121.469331,0.99998784
C0C800,四稜,2026-01-05,24.64733,121.4293,1.6068792e-07
C0F9I0,神岡,2026-01-05,24.272481,120.658314,2.089169e-06
C0K460,斗南,2026-01-05,23.678734,120.478359,1.7933292e-08
C2O810,曾文,2026-01-05,23.219681,120.497328,7.1176594e-09
467280,後龍,2026-01-05,24.648563,120.831834,0.9988025
C1F9J1,清水林,2026-01-05,24.071242,120.820419,6.4311156e-09
C2A650,火燒寮,2026-01-05,25.002719,121.742892,0.005933583
466930,竹子湖,2026-01-05,25.162078,121.544547,0.10968552
C1I220,樟湖,2026-01-05,23.905333,120.846983,1.0466963e-08
C0I390,仁愛,2026-01-05,24.022122,121.132206,1.0715588e-08
C0Z300,東里,2026-01-05,23.26853,121.30547,1.9522834e-07
C1V590,新發,2026-01-05,23.057019,120.646064,8.262207e-09
C0K510,水林,2026-01-05,23.572924,120.24597,0.00025716258
72S590,東改賓朗果園,2026-01-05,22.813889,121.071278,0.00081914966
82A750,茶改北部分場,2026-01-05,24.955778,121.631222,0.00015695512
C1A750,石碇服務區,2026-01-05,25.00872,121.646242,0.64325106
C0X300,鹿寮,2026-01-05,23.386047,120.477331,9.783265e-09
G2AI50,關渡,2026-01-05,25.11575,121.492,0.25751597
C0K590,雲林東勢,2026-01-05,23.674192,120.255721,0.057752144
C2K310,港尾布雞,2026-01-05,23.74834,120.38439,2.036749e-08
C0A570,桶後,2026-01-05,24.848222,121.597992,1.8224495e-06
C1S800,華源,2026-01-05,22.657883,121.02325,0.99073553
C0G720,溪州,2026-01-05,23.851589,120.499093,1.7606938e-08
C1V160,達卡努瓦,2026-01-05,23.279811,120.705319,9.6653405e-09
C2M410,馬頭山,2026-01-05,23.324361,120.582017,5.230156e-09
C0V850,蚵仔寮,2026-01-05,22.7256,120.2527,0.9967863
C0S740,池上,2026-01-05,23.119628,121.209469,2.0673776e-06
C1V390,尖山,2026-01-05,22.813153,120.367789,0.9647919
C0AH70,松山,2026-01-05,25.04871,121.55042,0.19348803
C0N010,鯤鯓國小,2026-01-05,23.1879,120.0889,0.02983265
C0R550,新埤,2026-01-05,22.467947,120.582894,0.00034603136
C0SA60,知本（水試所）,2026-01-05,22.702394,121.082761,0.99974096
C0T9I0,豐濱,2026-01-05,23.583897,121.514806,1.1496821e-07
C0UB00,淡江大學蘭陽校園,2026-01-05,24.823239,121.730383,3.3622955e-06
C0W240,九宮,2026-01-05,24.423753,118.240186,7.1818214e-09
C0T9N0,富里,2026-01-05,23.171639,121.249378,1.2743894e-07
U2HA50,臺大竹山,2026-01-05,23.756972,120.681556,7.022309e-09
C0V840,鳳鼻頭,2026-01-05,22.5083,120.3591,0.0014231001
C0X140,西港,2026-01-05,23.125608,120.203108,0.01990884
72D080,桃改五峰分場,2026-01-05,24.612194,121.157167,3.937343e-08
C2H9P0,伊拿谷,2026-01-05,23.963211,121.088264,8.661823e-09
C2K250,崙背,2026-01-05,23.75553,120.31893,0.05986925
C2H9F0,柑林,2026-01-05,24.018658,120.847072,8.709901e-09
C0TA20,加灣,2026-01-05,24.082025,121.608944,3.4167576e-07
C0V530,阿蓮,2026-01-05,22.883208,120.327508,0.6858873
C0FB30,八仙山苗圃,2026-01-05,24.192719,121.001366,1.38149945e-08
C1O880,關山,2026-01-05,23.173397,120.594092,5.1936926e-09
C0E791,卓蘭,2026-01-05,24.3126,120.8244,1.5260329e-07
C1I030,武界,2026-01-05,23.913225,121.052483,8.789321e-09
C0R520,崁頂,2026-01-05,22.514781,120.506914,0.0009706823
C0R341,牡丹,2026-01-05,22.130036,120.792639,0.00019772838
C0R930,萬丹,2026-01-05,22.5885,120.4851,0.00039703803
C0S760,紅石,2026-01-05,23.069131,121.126219,2.8076622e-08
C2C410,中央大學,2026-01-05,24.967652,121.185165,0.99997145
C1M610,石磐龍,2026-01-05,23.496606,120.663506,1.0397995e-08
C0C790,東眼山,2026-01-05,24.8284,121.40888,2.3540119e-07
C0UA10,鴛鴦湖,2026-01-05,24.590269,121.412228,8.068369e-08
V2C260,八德蔬果,2026-01-05,24.978508,121.281819,0.9999784
C0R800,丹路,2026-01-05,22.204481,120.750989,0.04437004
C0G920,永靖,2026-01-05,23.924703,120.547533,0.0014718623
C2M950,太和,2026-01-05,23.538372,120.702961,1.2166114e-08
C1A630,下盆,2026-01-05,24.771003,121.538622,5.276018e-07
B2N890,畜產試驗所,2026-01-05,23.058972,120.336406,0.64640236
C0UA30,白嶺,2026-01-05,24.527819,121.519031,8.515137e-08
C1V580,溪南(特生中心),2026-01-05,23.084972,120.788475,1.5398959e-08
C1T970,大農,2026-01-05,23.615233,121.413331,9.944176e-08
C0R650,竹田,2026-01-05,22.58486,120.54344,0.0005562651
C1H900,清流,2026-01-05,24.080775,120.962997,8.63828e-09
C1C510,水尾,2026-01-05,24.940081,121.087161,0.9999837
C2N170,茅港尾,2026-01-05,23.2061,120.2624,0.029531589
C0F9X0,大雅(中科園區),2026-01-05,24.21528,120.62445,0.9799225
C0SB60,白守蓮,2026-01-05,23.126769,121.401914,0.9999527
C0O970,虎頭埤,2026-01-05,23.021375,120.347878,0.17941706
C0C730,中大臨海站,2026-01-05,24.966126,121.008581,0.9999068
C0X250,新營,2026-01-05,23.310689,120.316681,0.011095387
C0V700,三民,2026-01-05,22.645017,120.311233,0.9951696
C0U870,大礁溪,2026-01-05,24.791042,121.675047,1.5216688e-06
C0E870,高鐵苗栗,2026-01-05,24.60725,120.826094,0.9989331
A2K570,古坑花卉中心,2026-01-05,23.63353,120.55239,1.2199622e-08
C0TA30,鹽寮,2026-01-05,23.845606,121.592664,1.9758183e-07
C0M860,新美,2026-01-05,23.338017,120.683169,8.321213e-09
C1E701,八卦,2026-01-05,24.491756,120.927619,3.309623e-08
C2TA90,加納納,2026-01-05,23.466421,121.359867,8.713543e-08
C0I420,國姓,2026-01-05,24.037803,120.855072,7.979525e-09
C2D720,關西工作站,2026-01-05,24.757275,121.184792,1.0520289e-05
C0S960,香蘭,2026-01-05,22.587569,120.993375,0.9993647
467620,蘭嶼,2026-01-05,22.0369,121.55843,0.9998712
C0R260,春日,2026-01-05,22.370361,120.628306,4.7147605e-05
72G600,臺中農改場,2026-01-05,24.003028,120.534389,0.003517226
C0Z210,瑞穗,2026-01-05,23.5239,121.39021,1.2505821e-07
C0M820,達邦,2026-01-05,23.453994,120.749517,9.479733e-09
C0V860,南寮,2026-01-05,22.7616,120.2339,0.99694264
C0G740,大城,2026-01-05,23.852487,120.320935,0.05986925
C0R920,塭仔,2026-01-05,22.4169,120.5197,0.0014909321
C0R470,高樹,2026-01-05,22.826389,120.600806,7.741326e-09
C0R680,佳樂水,2026-01-05,21.993578,120.861633,0.9993982
C1O870,大棟山,2026-01-05,23.31157,120.52226,7.915479e-09
C0D360,梅花,2026-01-05,24.678347,121.208558,3.0397268e-07
C0Z190,富世,2026-01-05,24.14743,121.6297,0.016572727
C0AI10,屈尺,2026-01-05,24.92184,121.54475,0.05262246
B2U990,畜試東區分所,2026-01-05,24.669039,121.832561,0.0008452723
C0SB80,長濱漁港,2026-01-05,23.313644,121.459994,0.9999455
C0TA50,和仁,2026-01-05,24.241394,121.712472,0.058002535
C0V910,大樹,2026-01-05,22.684645,120.432803,1.681749e-08
C1R610,西大武山,2026-01-05,22.617719,120.7322,2.1260474e-08
C0G900,線西,2026-01-05,24.143358,120.443536,0.9975161
C0M700,竹崎,2026-01-05,23.526178,120.555508,7.361577e-09
C2E880,三義,2026-01-05,24.405478,120.749819,8.9815506e-07
C0C720,竹圍,2026-01-05,25.112692,121.239824,0.9999932
C0F9P0,清水,2026-01-05,24.312297,120.562242,0.99727494
C0Z150,吉安光華,2026-01-05,23.930925,121.595153,2.0507596e-07
C0FA80,小雪山天池,2026-01-05,24.28025,121.02627,4.2856506e-08
467300,東吉島,2026-01-05,23.25727,119.66762,0.99922824
C1D640,外坪(五指山),2026-01-05,24.644447,121.090961,4.97268e-07
C2R9A0,高士國小,2026-01-05,22.12553,120.84653,0.0022037965
C0F9O0,潭子,2026-01-05,24.213106,120.703933,2.702803e-06
C2H9R0,卓社,2026-01-05,23.887894,121.000086,1.2142722e-08
72T250,花蓮農改場,2026-01-05,23.975222,121.563889,1.784144e-07
C0E780,銅鑼,2026-01-05,24.489681,120.790853,0.93861765
C1T950,太安,2026-01-05,23.666719,121.370128,2.1354069e-08
C0E830,苑裡,2026-01-05,24.439714,120.653053,0.99906117
467270,田中,2026-01-05,23.873803,120.581286,1.6889464e-08
C0SA10,檳榔四格山,2026-01-05,22.810031,121.109308,3.8405462e-05
C1T830,布洛灣,2026-01-05,24.17184,121.57127,1.01504476e-07
C0F970,大坑,2026-01-05,24.173142,120.722289,9.716007e-06
C1U920,思源,2026-01-05,24.393125,121.347214,4.6377043e-08
C2H9Y0,松茗,2026-01-05,23.8167,120.650765,5.3480718e-09
C0A931,三和,2026-01-05,25.233153,121.595236,0.9999618
C0I010,廬山,2026-01-05,24.033311,121.181808,2.2099217e-08
C2M940,日野賀,2026-01-05,23.434056,120.727169,1.0524598e-08
C0R860,鼻頭,2026-01-05,22.1043,120.8979,0.99949926
C0UB20,壯圍,2026-01-05,24.7359,121.8163,0.00085337536
C0R790,九棚,2026-01-05,22.14195,120.889281,0.9997644
C0W110,東莒,2026-01-05,25.9652,119.98069,0.9875745
C1U930,粉鳥林,2026-01-05,24.497088,121.842479,0.0011768177
C1I211,蘆竹湳,2026-01-05,23.934019,120.811994,6.2258487e-09
C0S830,長濱,2026-01-05,23.286817,121.411975,1.2734125e-07
C1F9F1,伯公龍,2026-01-05,24.272392,120.849047,5.1227016e-08
C0UB90,太平山莊,2026-01-05,24.494171,121.536209,8.065384e-08
C0E810,西湖,2026-01-05,24.562947,120.7485,0.99864864
C1I440,新高口,2026-01-05,23.478744,120.878939,3.387088e-08
C0O840,王爺宮,2026-01-05,23.222064,120.40085,7.3255517e-09
C0T9G0,鳳林山,2026-01-05,23.735269,121.420131,4.849392e-08
C0X080,佳里,2026-01-05,23.173039,120.145086,0.030867482
C0FB70,大甲溪埔,2026-01-05,24.370625,120.620067,0.99639636
C0Z310,清水斷崖,2026-01-05,24.218294,121.689142,0.0036038104
C0M680,太保,2026-01-05,23.455062,120.331455,0.00019402122
C1S820,金峰,2026-01-05,22.590969,120.933236,0.99181277
C0AD10,八里,2026-01-05,25.150211,121.403947,0.99999106
C2K240,草嶺,2026-01-05,23.59555,120.693461,1.0410795e-08
C1SA70,都蘭,2026-01-05,22.87794,121.226881,0.0032762883
C0K440,二崙,2026-01-05,23.772797,120.408944,1.9617922e-08
C1A760,坪林交控,2026-01-05,24.94284,121.713442,0.018957416
C0F9N0,大里,2026-01-05,24.092464,120.701378,2.2640032e-08
C0SA90,達仁林場,2026-01-05,22.264347,120.823972,3.3221077e-08
C1R290,石門山,2026-01-05,22.112611,120.756597,0.9995815
42HA10,萬大發電廠,2026-01-05,23.978875,121.139639,9.691572e-09
C0R890,山海,2026-01-05,21.9878,120.7091,0.99930125
C0T9A0,月眉山,2026-01-05,23.809928,121.539828,5.30433e-08
C0AC70,信義,2026-01-05,25.037822,121.564597,0.17528158
C0K560,棋山,2026-01-05,23.68645,120.603417,1.1243685e-08
C2FB50,出雲,2026-01-05,24.206469,120.902794,1.4345114e-08
C1Z240,中平林道,2026-01-05,23.42115,121.26763,3.7182005e-08
U2H480,溪頭,2026-01-05,23.670306,120.798194,9.21598e-09
C0M880,好美里,2026-01-05,23.3364,120.138,0.030867482
C0T9E0,大坑,2026-01-05,23.880628,121.581981,8.6682235e-08
C0K530,臺西,2026-01-05,23.701547,120.197559,0.07950008
C1E900,國一N128K,2026-01-05,24.560997,120.844186,0.99768513
C0AJ50,水湳洞,2026-01-05,25.123695,121.862238,0.9520079
C0AI20,白沙灣,2026-01-05,25.283128,121.519058,0.99999106
C2V310,美濃,2026-01-05,22.898792,120.51907,1.0004672e-08
C0A860,大坪,2026-01-05,25.165914,121.632969,4.1689866e-05
C1U850,觀音海岸,2026-01-05,24.38319,121.77856,3.6222934e-07
C2K610,草嶺石壁,2026-01-05,23.602469,120.707731,1.0670657e-08
C0U950,鶯子嶺,2026-01-05,24.89754,121.79244,1.0810998e-06
C0O900,善化,2026-01-05,23.112883,120.297219,0.9001347
C0K550,蔦松,2026-01-05,23.514319,120.229736,0.00034242892
E2P980,林試六龜中心,2026-01-05,22.991703,120.645722,3.2320047e-09
C0E590,通霄,2026-01-05,24.471892,120.704622,0.9984798
C1I310,西巒,2026-01-05,23.754486,120.883956,1.26843895e-08
C0A550,泰平,2026-01-05,24.971197,121.823711,0.00015839106
C0I360,水里,2026-01-05,23.812553,120.849792,5.78623e-09
C0R830,高士,2026-01-05,22.121825,120.836781,0.999306
C1I101,溪頭,2026-01-05,23.661789,120.807647,1.7296879e-08
C0AJ20,野柳,2026-01-05,25.20703,121.690021,0.99999106
C0B060,暖暖,2026-01-05,25.0957,121.7403,0.6845891
C1H920,長豐,2026-01-05,24.102039,120.879897,7.77324e-09
C2S9B0,利吉,2026-01-05,22.86246,121.15486,4.6815483e-05
C0V360,內門,2026-01-05,22.975481,120.466769,7.0413004e-09
C0R850,林邊,2026-01-05,22.4634,120.5339,0.0009538212
C0E930,龍鳳,2026-01-05,24.700034,120.859125,0.99990785
C0U910,冬山,2026-01-05,24.63373,121.7937,0.0008452723
C1E721,泰安,2026-01-05,24.489017,120.968036,3.171943e-08
82H320,茶改中部分場,2026-01-05,23.875611,120.913583,8.39267e-09
C0M750,布袋,2026-01-05,23.380878,120.167789,0.00035886525
C1S860,利嘉,2026-01-05,22.809417,121.050528,1.3117633e-06
E2S980,林試太麻里1,2026-01-05,22.598922,120.980044,0.9984145
C0X170,關廟,2026-01-05,22.963017,120.327797,0.38751402
C0V720,林園,2026-01-05,22.507747,120.394511,0.0009140958
C1I510,線浸林道,2026-01-05,23.761508,120.832956,9.539008e-09
C0D690,外湖,2026-01-05,24.917735,120.968711,0.99990785
C0C750,新興坑尾,2026-01-05,25.0061,121.0971,0.9999892
B2Q810,畜試南區分所,2026-01-05,21.945583,120.802167,0.9993599
C0S790,金崙,2026-01-05,22.538122,120.966875,0.98343724
C0AH90,福山植物園,2026-01-05,24.760717,121.58135,3.8925145e-07
C0I540,奇萊稜線,2026-01-05,24.109231,121.326456,5.6764385e-08
C0M850,表湖,2026-01-05,23.24186,120.64166,8.2294305e-09
C0S770,大溪山,2026-01-05,22.478475,120.943325,0.07751018
C0AG80,中和,2026-01-05,24.991622,121.491792,0.14527608
C0T790,大禹嶺,2026-01-05,24.186117,121.316086,4.709776e-08
C0T9B0,水源,2026-01-05,23.991861,121.537169,6.8508406e-08
C0R840,牡丹池山,2026-01-05,22.168389,120.841225,3.5139553e-08
C1I131,桶頭,2026-01-05,23.641944,120.654117,5.5797185e-09
CAL110,布袋國中,2026-01-05,23.35893,120.18026,0.03139085
C2M9D0,何竹子腳,2026-01-05,23.53641,120.38203,1.3033875e-08
467571,新竹,2026-01-05,24.827853,121.014219,0.99982136
C0Z290,赤柯山,2026-01-05,23.36893,121.38293,4.0509455e-08
C0X280,將軍,2026-01-05,23.214999,120.13577,0.02983265
C0S690,太麻里,2026-01-05,22.60902,120.98533,1.5213904e-05
C0U880,北關,2026-01-05,24.9072,121.8734,0.96609163
CAW010,東引,2026-01-05,26.3588,120.4836,0.9997258
C0G810,埔心,2026-01-05,23.947633,120.525456,0.0020268771
C0U970,大福,2026-01-05,24.80064,121.81389,0.0009953717
C2H9N0,仁愛東眼,2026-01-05,24.026875,121.1205,1.3670149e-08
C1E670,南礦,2026-01-05,24.538278,121.002836,3.0367392e-08
C0M520,東後寮,2026-01-05,23.369908,120.248065,0.020831803
C1E461,松安,2026-01-05,24.397972,120.986022,3.091411e-08
C2N160,西拉雅風管處,2026-01-05,23.189481,120.335297,0.006556198
C2M970,碧湖,2026-01-05,23.568632,120.624165,7.0367356e-09
C0A640,石碇,2026-01-05,24.993969,121.662917,0.017948752
E2S960,林試太麻里2,2026-01-05,22.598,120.99775,0.99944067
C0F9Y0,桃山,2026-01-05,24.432739,121.303808,7.166526e-08
C1I020,萬大,2026-01-05,23.979817,121.132261,1.0796357e-08
C2UC20,長嶺,2026-01-05,24.70894,121.61162,8.847957e-07
C0U940,羅東,2026-01-05,24.68184,121.74934,0.0006851064
C0M650,朴子,2026-01-05,23.43463,120.23902,0.00025716258
C1I500,大尖山,2026-01-05,23.858572,120.994889,2.3447175e-08
C0FB40,中橫21.6k,2026-01-05,24.2499,121.1455,1.6371454e-08
C0G820,田尾,2026-01-05,23.901669,120.509389,0.0018948916
E2K600,四湖植物園,2026-01-05,23.676986,120.163433,0.06250289
C0S730,綠島,2026-01-05,22.6672,121.47533,0.9999385
12Q970,東港工作站,2026-01-05,22.479997,120.466058,0.0012668914
C1TA00,太魯閣,2026-01-05,24.15773,121.6236,9.0726666e-05
466920,臺北,2026-01-05,25.037658,121.514853,0.19348803
C0R600,舊泰武,2026-01-05,22.588194,120.664944,1.872448e-08
C1I260,北坑,2026-01-05,23.9246,121.006903,7.349764e-09
466910,鞍部,2026-01-05,25.182586,121.529731,0.0005055136
C1I230,九份二山,2026-01-05,23.961944,120.845,6.8316304e-09
C2M810,里佳,2026-01-05,23.389125,120.716647,1.220288e-08
C2A660,瑞芳,2026-01-05,25.113169,121.801147,0.41985884
C0R270,琉球嶼,2026-01-05,22.332244,120.362236,3.8520193e-05
C2V580,瑞山,2026-01-05,22.90304,120.43424,6.426101e-09
C1T990,高寮,2026-01-05,23.394239,121.356808,3.107829e-07
C0G620,芬園,2026-01-05,24.015678,120.6213,9.624356e-05
C1Z140,荖溪,2026-01-05,23.890575,121.45964,5.193398e-08
C1I201,中心崙,2026-01-05,23.728722,120.712097,5.725629e-09
C1I400,凌霄,2026-01-05,24.018778,121.004456,1.3405028e-08
C1M640,十字,2026-01-05,23.492153,120.753683,1.4332643e-08
G2P820,農試鳳山分所,2026-01-05,22.646611,120.356083,0.9919353
C0Z270,蕃薯寮,2026-01-05,23.73835,121.540108,6.829145e-08
C2E420,竹南,2026-01-05,24.70898,120.88897,0.9998338
C0FB10,出雲山苗圃,2026-01-05,24.23105,120.90475,1.3833135e-08
C0F9Q0,外埔,2026-01-05,24.347817,120.705686,6.226384e-06
C0K580,高鐵雲林,2026-01-05,23.737456,120.417944,1.9617922e-08
C2I090,鳳凰,2026-01-05,23.728081,120.787347,6.9532566e-09
C0U990,員山,2026-01-05,24.74435,121.72247,0.0007057169
C0V770,大社,2026-01-05,22.730306,120.346639,0.9949965
C0X120,麻豆,2026-01-05,23.183289,120.248611,0.01990884
C0C670,龍潭,2026-01-05,24.870056,121.221389,3.5051273e-06
C0D680,香山濕地,2026-01-05,24.783581,120.914988,0.9999073
C0S980,勝林山,2026-01-05,22.430439,120.8938,1.2547801e-07
C0V730,大寮,2026-01-05,22.605614,120.395717,0.00034603136
C0R570,麟洛,2026-01-05,22.65078,120.52719,1.6361994e-08
C2M930,石卓,2026-01-05,23.478744,120.702264,1.42424685e-08
C0G9B0,和美,2026-01-05,24.105169,120.492131,0.0039930562
CAG100,王功漁港,2026-01-05,23.96824,120.32586,0.0058029224
C0X290,北門,2026-01-05,23.267772,120.125481,0.03139085
C2F930,大甲,2026-01-05,24.347667,120.640403,6.141027e-05
C0D650,湖口,2026-01-05,24.904794,121.043628,0.9988342
C0U780,五結,2026-01-05,24.68637,121.79794,0.0008452723
C1I250,鯉潭,2026-01-05,23.961922,120.991131,7.77324e-09
C0R130,阿禮,2026-01-05,22.742908,120.743678,8.4157366e-09
C0X100,臺南市北區,2026-01-05,23.010394,120.194228,0.9085344
C0S920,金峰嘉蘭,2026-01-05,22.594789,120.960825,0.9983855
C0V490,新興,2026-01-05,22.627422,120.298803,0.9959857
C0F9K0,大安,2026-01-05,24.345061,120.588025,0.996648
467290,古坑,2026-01-05,23.633639,120.551889,1.2199622e-08
C2E970,八甲,2026-01-05,24.535811,120.795983,0.89747447
C0V440,鳳山,2026-01-05,22.646653,120.356122,0.9919353
C1T940,大觀,2026-01-05,23.714206,121.373133,5.2071254e-08
C0E740,造橋,2026-01-05,24.637056,120.864778,0.999082
C0R100,尾寮山,2026-01-05,22.833111,120.683889,8.4150145e-09
A2K630,臺大雲林校區,2026-01-05,23.730628,120.423903,1.9367336e-08
467990,馬祖,2026-01-05,26.169467,119.923158,0.6421465
C0D580,寶山,2026-01-05,24.735006,121.025192,0.9718615
E2P990,林試扇平站,2026-01-05,22.9677,120.6857,8.237125e-09
C0AI30,三重,2026-01-05,25.057328,121.500629,0.23954883
C0AH00,汐止,2026-01-05,25.066881,121.658778,0.9582226
C1Z040,立山,2026-01-05,23.443356,121.327375,6.637277e-08
466881,新北,2026-01-05,24.959207,121.525196,0.10057804
C0W130,花嶼,2026-01-05,23.40007,119.32276,0.99823993
C0A950,鼻頭角,2026-01-05,25.129036,121.923372,0.965295
C0K470,林內,2026-01-05,23.748675,120.609642,1.2648899e-08
C2F990,摩天嶺,2026-01-05,24.322458,120.936819,1.402281e-08
C2E430,南庄,2026-01-05,24.601775,121.000214,0.06077716
82C160,茶改場,2026-01-05,24.908472,121.185333,0.99985236
C2TB60,南安,2026-01-05,23.29818,121.26157,1.5658195e-07
C0Z320,清水林道,2026-01-05,23.27125,121.188272,4.9287756e-08
C0R760,南仁湖,2026-01-05,22.084681,120.863353,0.99957633
C0M670,大林,2026-01-05,23.600616,120.45841,1.14028555e-08
C0M800,茶山,2026-01-05,23.299075,120.664767,4.6292006e-09
C0A9C0,天母,2026-01-05,25.117494,121.537169,0.14527608
72K220,南改斗南分場,2026-01-05,23.634556,120.477333,1.7216928e-08
72AI40,桃改樹林分場,2026-01-05,24.944503,121.386972,0.11585501
C0S910,蘭嶼燈塔,2026-01-05,22.081197,121.503117,0.99885523
C0B050,八斗子,2026-01-05,25.144754,121.79167,0.9719289
C0U900,內城,2026-01-05,24.71813,121.68766,0.0003721664
C0X320,柳營,2026-01-05,23.253328,120.375253,1.3116273e-08
C0M790,新港,2026-01-05,23.553269,120.345728,0.00022347069
C0F9T0,西屯,2026-01-05,24.179494,120.641275,6.141027e-05
C0E950,松安,2026-01-05,24.39792,120.98599,3.091411e-08
C0SA30,都歷,2026-01-05,23.020333,121.323642,0.0011080254
C0C620,蘆竹,2026-01-05,25.084275,121.265767,0.9999921
C0R730,大坪頂,2026-01-05,22.024633,120.69355,0.9997047
C0AJ40,石門,2026-01-05,25.273672,121.601198,0.9999844
C0E750,苗栗,2026-01-05,24.564569,120.824575,0.9980222
C0T870,鯉魚潭,2026-01-05,23.935639,121.508944,1.12173e-07
C1V170,排雲,2026-01-05,23.463619,120.954147,5.9059634e-08
C2H950,中寮,2026-01-05,23.884447,120.766406,1.1254971e-08
C0R350,貓鼻頭,2026-01-05,21.921774,120.7358,0.9994471
C0V660,岡山,2026-01-05,22.797078,120.294958,0.99601257
C1H941,雙冬,2026-01-05,23.967378,120.802189,6.237473e-09
C0AJ70,田寮,2026-01-05,25.2698,121.4886,0.99999106
C0AI00,五股,2026-01-05,25.07445,121.42728,0.0020422768
C0Z280,德武,2026-01-05,23.47426,121.41071,9.690891e-08
C2RA10,大新,2026-01-05,22.67558,120.57788,1.1601727e-08
C0R700,枋山,2026-01-05,22.246844,120.661086,0.9944886
C0C460,復興,2026-01-05,24.820208,121.352281,4.802206e-07
C2K300,鹿南,2026-01-05,23.63855,120.3636,0.05522406
E2H360,蓮華池,2026-01-05,23.918333,120.885278,7.600911e-09
C0M640,中埔,2026-01-05,23.42538,120.5229,7.3114115e-09
C0W140,金沙,2026-01-05,24.488292,118.408778,0.5486231
C2A540,四堵,2026-01-05,24.8926,121.745736,0.000573758
C0ACA0,新莊,2026-01-05,25.051478,121.446756,0.20827876
C0R220,潮州,2026-01-05,22.534361,120.54,0.0005165952
U2HA40,臺大內茅埔,2026-01-05,23.689722,120.851117,5.423481e-09
467490,臺中,2026-01-05,24.145736,120.684075,6.4973065e-05
C0UB60,明池,2026-01-05,24.650688,121.475277,1.6290116e-07
C0U960,翠峰湖,2026-01-05,24.510856,121.608044,8.0624616e-08
E2HA20,林試畢祿溪站,2026-01-05,24.226944,121.308522,3.5631633e-08
C2M9A0,大華,2026-01-05,23.4824,120.67491,9.927061e-09
C0V890,前鎮,2026-01-05,22.5718,120.3117,0.9962954
C1F941,雪嶺,2026-01-05,24.280586,121.026642,4.2856506e-08
C2H9E0,國姓南港,2026-01-05,23.911108,120.846556,1.07180815e-08
C0AC80,文山,2026-01-05,25.00235,121.575728,0.05709456
C0F9R0,龍井,2026-01-05,24.184536,120.528972,0.99733484
C0M760,民雄,2026-01-05,23.551754,120.428457,1.2050066e-08
C0UA40,西德山,2026-01-05,24.560647,121.752608,1.4775733e-07
C2TA70,赤科坪,2026-01-05,23.39885,121.39168,4.164068e-08
C1T920,中興,2026-01-05,23.769503,121.498653,1.5302446e-07
C0D550,雪霸,2026-01-05,24.526972,121.11605,4.3887468e-08
C2F860,梨山,2026-01-05,24.247522,121.243669,3.615549e-08
C0R320,車城,2026-01-05,22.0744,120.716247,0.99930173
C1S870,南美山,2026-01-05,23.15025,121.382333,4.748649e-06
C0B020,基隆嶼,2026-01-05,25.19141,121.78391,0.94091636
C1U501,牛鬥,2026-01-05,24.637836,121.573656,2.554367e-06
C0M730,嘉義市東區,2026-01-05,23.457673,120.460531,1.1882858e-08
C2R990,泰武,2026-01-05,22.60686,120.69765,1.650017e-08
C0S700,知本,2026-01-05,22.684866,121.005642,1.5110788e-06
C1N001,沙崙,2026-01-05,22.935472,120.309406,0.6713994
C0V760,橋頭,2026-01-05,22.757806,120.30575,0.9959857
C0G960,福寶,2026-01-05,24.0443,120.3814,0.006085881
C0X210,白河,2026-01-05,23.347466,120.414427,1.255123e-08
C0S810,東河,2026-01-05,22.972672,121.303986,0.010538344
C2R170,屏東,2026-01-05,22.66027,120.49403,1.6747771e-08
C0R670,楓港,2026-01-05,22.190131,120.692156,0.9929829
C0FA50,霧峰,2026-01-05,24.0419,120.6995,1.9484942e-08
C0UB10,蘇澳,2026-01-05,24.5969,121.8571,0.0011713565
C0G950,防潮門,2026-01-05,24.1835,120.4871,0.9976099
C0M740,六腳,2026-01-05,23.492871,120.290625,0.00025031943
C1R250,力里,2026-01-05,22.428117,120.629228,3.0293977e-06
C0K330,虎尾,2026-01-05,23.719183,120.442036,1.8012102e-08
C2FA00,烏石坑,2026-01-05,24.273503,120.947617,1.3998812e-08
C0V620,永安,2026-01-05,22.82315,120.236856,0.9962954
C1I330,楓樹林,2026-01-05,23.986803,121.076117,1.18114984e-08
C0W200,湖西,2026-01-05,23.596314,119.67275,0.99889374
72Q010,高雄農改場,2026-01-05,22.709333,120.525889,1.4162636e-08
C0SA40,瑞和,2026-01-05,22.974361,121.156697,1.5513702e-05
C0C680,龜山,2026-01-05,25.02846,121.38656,0.00045939375
C2V260,月眉,2026-01-05,22.971003,120.539853,5.7570464e-09
C0V450,鳳森,2026-01-05,22.545064,120.392592,5.2421663e-05
C0FA90,小雪山林道,2026-01-05,24.29515,121.03651,5.0130335e-08
C0U720,南山,2026-01-05,24.43742,121.38167,9.321435e-08
A2N290,臺南蘭花園區,2026-01-05,23.340258,120.379661,1.3337062e-08
C0R560,新園,2026-01-05,22.5434,120.461558,0.0009140958
C0U890,三星,2026-01-05,24.66812,121.65302,0.00012576504
C1V300,御油山,2026-01-05,23.001983,120.715364,1.5059554e-08
C0U600,礁溪,2026-01-05,24.817539,121.765608,0.000601655
C1T980,龍澗,2026-01-05,24.023289,121.411328,5.0512817e-08
C0D670,海天一線,2026-01-05,24.831986,120.914438,0.99990785
C0SA00,歷坵,2026-01-05,22.520969,120.89185,0.0021907464
C0M710,東石,2026-01-05,23.458927,120.15385,0.0003496302
C0M780,鹿草,2026-01-05,23.41134,120.30835,0.00019251824
C0U520,雙連埤,2026-01-05,24.753033,121.641303,1.4842338e-06
C0B010,七堵,2026-01-05,25.094819,121.71713,0.9248943
C0R480,長治,2026-01-05,22.693128,120.542622,1.2354591e-08
C1V830,國三S383K,2026-01-05,22.781967,120.426475,6.1838e-09
12Q980,恆春工作站,2026-01-05,22.079678,120.714425,0.9993055
C1O940,東山服務區,2026-01-05,23.286016,120.398472,1.2510218e-08
C1U840,東澳嶺,2026-01-05,24.5378,121.8485,2.524836e-07
C1D630,飛鳳山,2026-01-05,24.766464,121.119178,7.3794718e-06
C0S940,石寧山,2026-01-05,23.223772,121.406639,0.999864
C0K410,北港,2026-01-05,23.573957,120.292802,0.00023807955
C2M620,瑞里,2026-01-05,23.545133,120.675197,1.12924505e-08
C0SB70,小港漁港,2026-01-05,23.158558,121.400431,0.99994946
C2O950,安南,2026-01-05,23.076694,120.144861,0.9298365
C0F0E0,南湖圈谷,2026-01-05,24.363714,121.444667,8.933273e-08
467610,成功,2026-01-05,23.097486,121.373428,0.037246883
C0G890,伸港,2026-01-05,24.148933,120.484403,0.99731785
C2E540,龍溪,2026-01-05,24.606489,120.783933,0.9991408
C1V200,梅山,2026-01-05,23.268447,120.823556,8.588042e-09
C0T9H0,加路蘭山,2026-01-05,23.682947,121.5274,4.4941427e-08
C2O930,玉井,2026-01-05,23.126042,120.46055,1.1009317e-08
C1F911,新伯公,2026-01-05,24.221361,120.841069,8.093678e-08
C0R490,九如,2026-01-05,22.7405,120.490503,1.4525343e-08
C0X200,左鎮,2026-01-05,23.056758,120.408522,9.157455e-09
C2TB50,麻汝,2026-01-05,23.42554,121.39358,8.279532e-08
C0FA60,鞍馬山工作站,2026-01-05,24.267064,121.000793,3.6297692e-08
C0SB50,叭嗡嗡,2026-01-05,23.047062,121.343223,0.23840638
C1F891,稍來,2026-01-05,24.265689,121.001142,3.5688565e-08
C2M9C0,紫雲,2026-01-05,23.494914,120.540253,8.375303e-09
72N240,七股研究中心,2026-01-05,23.081672,120.062894,0.9328771
C0C700,中壢,2026-01-05,24.977661,121.256375,0.99997145
C0M690,水上,2026-01-05,23.419734,120.388909,1.2108909e-08
C0V690,鼓山,2026-01-05,22.623325,120.275575,0.99617845
C0O860,大內,2026-01-05,23.11885,120.36083,0.68846655
C0Z200,萬榮,2026-01-05,23.709219,121.420106,1.1273184e-07
C0T9D0,和中,2026-01-05,24.26676,121.74103,0.067853175
C2S9A0,北份子寮,2026-01-05,22.78561,121.07813,0.99529266
C1O921,楠西,2026-01-05,23.183511,120.484083,9.633684e-09
C0AJ30,淡水觀海,2026-01-05,25.184591,121.408616,0.9999913
C0V810,左營,2026-01-05,22.67491,120.28491,0.9950792
C0UA70,桃源谷,2026-01-05,24.962606,121.888875,2.6301848e-05
C0X130,官田,2026-01-05,23.193217,120.315422,0.010748509
C1H000,翠峰,2026-01-05,24.109397,121.205211,3.670644e-08
C0UA90,石城,2026-01-05,24.980444,121.951214,0.9318493
C1E681,南勢山,2026-01-05,24.421669,120.923831,3.007142e-08
C0A9F0,內湖,2026-01-05,25.079422,121.57545,0.19348803
C0K291,宜梧,2026-01-05,23.536281,120.169329,0.00035886525
C1K540,口湖,2026-01-05,23.585344,120.180517,0.00035421495
C0R780,滿州,2026-01-05,22.024403,120.839892,0.9994862
C0V870,文安,2026-01-05,22.8025,120.2164,0.9967863
C0U650,玉蘭,2026-01-05,24.675286,121.587061,8.3621757e-07
C0R640,東港,2026-01-05,22.46247,120.44074,0.001409814
C0AJ80,板橋,2026-01-05,25.0107,121.4489,0.17528158
C0S660,下馬,2026-01-05,23.150427,121.070312,4.427287e-08
C2N190,烏樹,2026-01-05,23.32393,120.36989,0.010029716
C1H9B1,阿眉,2026-01-05,24.1263,120.994672,2.000176e-08
C0UA20,多加屯,2026-01-05,24.368614,121.373189,4.4738474e-08
C0E730,頭份,2026-01-05,24.688247,120.912206,0.99984646
72V140,高改旗南分場,2026-01-05,22.857861,120.516667,1.2405974e-08
C0K480,莿桐,2026-01-05,23.761192,120.502372,1.7172425e-08
C0U980,坪林石牌,2026-01-05,24.86478,121.77396,9.686676e-07
C0T900,西林,2026-01-05,23.8119,121.441458,9.847857e-08
C1I150,青雲,2026-01-05,23.793361,120.949378,5.354522e-09
C2E980,和興,2026-01-05,24.505319,120.923016,4.0433576e-08
467350,澎湖,2026-01-05,23.565503,119.563094,0.9984306
C0G800,埔鹽,2026-01-05,24.000394,120.431683,0.0041747782
C0H960,草屯,2026-01-05,23.973672,120.68085,1.7362954e-08
C1V780,多納林道,2026-01-05,22.888028,120.737917,9.836441e-09
C0E920,通霄漁港,2026-01-05,24.498589,120.673876,0.9993127
C0Z330,安通山,2026-01-05,23.290728,121.348528,6.5558226e-08
C0AH10,永和,2026-01-05,25.01125,121.508111,0.20665422
C0AK10,太平里,2026-01-05,25.134937,121.364899,0.99999106
C2G640,鹿港,2026-01-05,24.0753,120.430481,0.0057046227
C1E890,國三N149K,2026-01-05,24.463414,120.680019,0.99751997
C1R110,口社,2026-01-05,22.770111,120.645222,5.7146856e-09
C1M870,國三N285K,2026-01-05,23.550319,120.505833,7.80414e-09
C1E480,鳳美,2026-01-05,24.554803,121.034747,4.4581146e-08
C0T9M0,靜浦,2026-01-05,23.455167,121.495028,1.5029845e-07
C2H9M0,發祥,2026-01-05,24.154094,121.164517,1.5710375e-08
C2G9C0,埔南,2026-01-05,23.99124,120.46969,0.0039081746
C0AI40,石牌,2026-01-05,25.115597,121.513139,0.19348803
C1F871,上谷關,2026-01-05,24.203483,121.018644,1.3969712e-08
C2H9G0,百勝,2026-01-05,24.051142,120.909361,7.290815e-09
C0G880,二水,2026-01-05,23.810742,120.6173,1.2700731e-08
C0R940,加祿堂,2026-01-05,22.3363,120.6217,0.0008679599
C0W220,北竿,2026-01-05,26.220358,119.974881,0.8523497
C0O960,崎頂,2026-01-05,22.959547,120.369317,0.0059170206
C0TA40,秀林,2026-01-05,24.302864,121.731144,1.9430502e-07
C0S750,向陽,2026-01-05,23.248397,120.986133,3.510659e-08
C0T9F0,水璉,2026-01-05,23.797131,121.542514,7.644736e-08
C1M600,頭凍,2026-01-05,23.406364,120.603339,6.6346537e-09
467660,臺東,2026-01-05,22.752211,121.154586,0.9998841
C1D380,新埔,2026-01-05,24.84745,121.03834,0.9982726
C2G980,田頭村,2026-01-05,23.8263,120.444175,1.9640535e-08
C0V750,路竹,2026-01-05,22.854997,120.259439,0.99408877
C0N050,蚵寮,2026-01-05,23.301,120.1104,0.03139085
C2X060,下營,2026-01-05,23.226806,120.256291,0.02983265
72M700,南改鹿草分場,2026-01-05,23.416869,120.283061,0.0002481667
C1SA50,利嘉林道,2026-01-05,22.82325,121.009389,4.7637123e-08
C0UB70,太平山中間站,2026-01-05,24.542003,121.513453,1.1587036e-07
C0A940,金山,2026-01-05,25.223628,121.643967,0.99999076
C1V340,大津,2026-01-05,22.888322,120.645986,4.7064335e-09
C0W180,七美,2026-01-05,23.219333,119.444892,0.99914217
C1F9C1,白冷,2026-01-05,24.182844,120.929889,1.41835335e-08
K2E710,苗改生物防治研究中心,2026-01-05,24.422861,120.871833,0.004544276
C0N040,蘆竹溝,2026-01-05,23.2344,120.0961,0.03160177
C0TB40,崇德,2026-01-05,24.166144,121.657414,0.067853175
C0D760,大坪苗圃,2026-01-05,24.5362,121.1108,3.168448e-08
C2W230,畜試所澎湖,2026-01-05,23.628342,119.513206,0.99697965
C0R880,後壁湖,2026-01-05,21.9457,120.7457,0.99923694
C1I280,埔中,2026-01-05,23.820778,120.642594,5.33785e-09
467790,墾丁雷達站,2026-01-05,21.948235,120.808028,0.9995332
C0W190,望安,2026-01-05,23.380564,119.494075,0.9985771
C0Z170,卓溪,2026-01-05,23.3443,121.3029,1.8217999e-07
C0F850,東勢,2026-01-05,24.246428,120.833047,1.0130488e-07
466900,淡水,2026-01-05,25.164889,121.448906,0.99999106
C0I370,魚池,2026-01-05,23.895703,120.94135,7.510739e-09
C0C630,大溪,2026-01-05,24.882853,121.265547,0.9998738
C0A520,山佳,2026-01-05,24.974944,121.402008,0.11632014
C0I110,竹山,2026-01-05,23.761225,120.688156,7.071732e-09
82H840,茶改南部分場,2026-01-05,23.762528,120.7405,5.3419447e-09
C2SD80,再來山,2026-01-05,23.34371,121.44122,0.9994804
C0G660,溪湖,2026-01-05,23.94835,120.479122,0.0030443305
C1T800,洛韶,2026-01-05,24.204558,121.453956,5.4969785e-08
C1T810,慈恩,2026-01-05,24.192044,121.388386,5.815653e-08
C1E451,象鼻,2026-01-05,24.368617,120.940228,1.3902382e-08
C0AC60,三峽,2026-01-05,24.939025,121.369728,0.99999046
C0I490,萬大林道,2026-01-05,23.928228,121.091411,1.5643396e-08
C1I290,豐丘,2026-01-05,23.668178,120.887417,1.4061913e-08
C1I320,奧萬大,2026-01-05,23.952956,121.178556,1.9340684e-08
C2M910,嘉義大學,2026-01-05,23.471325,120.485903,1.0107421e-08
C0U770,南澳,2026-01-05,24.44935,121.81022,0.0011413597
C2TB30,吉安,2026-01-05,23.94538,121.54803,1.4935739e-07
C0A980,社子,2026-01-05,25.109508,121.469681,0.26679197
C0V800,六龜,2026-01-05,22.997889,120.633583,3.2807166e-09
C1G9D0,國一S218K,2026-01-05,23.890641,120.493253,0.0019363151
C0E570,白沙屯,2026-01-05,24.549447,120.696803,0.99932194
C2F9A0,中竹林,2026-01-05,24.103556,120.751061,6.615333e-09
C0FA40,臺中電廠,2026-01-05,24.2146,120.4907,0.99731785
C2G9A0,畜試所彰化,2026-01-05,23.86045,120.557964,1.711827e-08
C0H9C0,合歡山,2026-01-05,24.143442,121.272547,6.098357e-08
G2M350,農試溪口農場,2026-01-05,23.58565,120.408111,1.3076556e-08
C0U860,頭城,2026-01-05,24.85323,121.8308,0.00083387166
C0R580,南州,2026-01-05,22.48591,120.50274,0.001409814
C0D430,峨眉,2026-01-05,24.6905,121.017189,0.9975092
C0G780,秀水,2026-01-05,24.03405,120.503869,0.003703734
72N100,臺南農改場,2026-01-05,23.0605,120.342194,0.5705419
C0S900,蘭嶼高中,2026-01-05,22.04909,121.51214,0.99795455
C2TA60,六十石,2026-01-05,23.22477,121.31861,4.0835822e-08
C1F9W0,德基,2026-01-05,24.254783,121.190261,3.2325552e-08
C2M980,安和,2026-01-05,23.51377,120.31593,0.000197581
C1Z120,壽豐,2026-01-05,23.870853,121.508081,1.7890336e-07
C0W160,烏坵,2026-01-05,24.9944,119.44956,0.9684509
C1I240,外大坪,2026-01-05,23.958697,120.917931,7.831233e-09
C1I550,國六W023K,2026-01-05,23.979067,120.867742,7.0531425e-09
C0R870,興海,2026-01-05,21.9752,120.8439,0.9993669
C0R140,瑪家,2026-01-05,22.682903,120.686639,7.0730675e-09
C0A530,坪林,2026-01-05,24.938183,121.70975,0.00247772
C0X260,後壁,2026-01-05,23.366358,120.362326,0.0067498726
C0Z230,和平,2026-01-05,24.30717,121.77007,0.0010680009
C0G770,福興,2026-01-05,24.041289,120.437669,0.0054126545
C0H9A0,神木村,2026-01-05,23.532742,120.843667,1.4660335e-08
C0I460,南投,2026-01-05,23.911469,120.687331,1.7957491e-08
C0I480,梅峰,2026-01-05,24.085272,121.173572,3.1231597e-08
C1V570,吉東,2026-01-05,22.85422,120.5454,1.004155e-08
C2A560,福山,2026-01-05,24.776203,121.502811,9.814861e-07
C0AH30,五分山,2026-01-05,25.07125,121.780794,3.7185594e-06
C0FA10,松柏,2026-01-05,24.429115,120.617482,0.9993127
72S200,東改班鳩分場,2026-01-05,22.829528,121.077694,0.014545904
72HA00,中改埔里分場,2026-01-05,23.903208,120.963364,7.465193e-09
C2H9W0,大坪頂農水,2026-01-05,24.043122,120.932781,7.825843e-09
C0C650,平鎮,2026-01-05,24.897503,121.214636,0.9998511
C0S930,延平,2026-01-05,22.902581,121.084058,5.0746644e-06
C0UA60,樟樹山,2026-01-05,24.41393,121.78325,5.5294237e-07
C2UC10,出水溪,2026-01-05,24.615822,121.652253,5.5294237e-07
C1S670,摩天,2026-01-05,23.199503,121.027,2.486521e-08
C2C590,觀音,2026-01-05,25.027072,121.153317,0.99998736
C0V630,茄萣,2026-01-05,22.906642,120.182608,0.9072742
466940,基隆,2026-01-05,25.133314,121.740475,0.9663007
C0X050,東河,2026-01-05,23.296598,120.385608,1.3116273e-08
C0R770,保力,2026-01-05,22.071122,120.764111,0.9996198
G2L020,農試嘉義分所,2026-01-05,23.485028,120.473806,9.749102e-09
C0X240,關子嶺,2026-01-05,23.331169,120.508025,4.7037414e-09
C0I380,集集,2026-01-05,23.828206,120.801467,5.9237064e-09
466990,花蓮,2026-01-05,23.975128,121.613275,3.5024567e-07
C1V220,小關山,2026-01-05,23.154217,120.813603,1.7327093e-08
C1F9G1,慶福山,2026-01-05,24.180853,120.848378,2.35833e-08
C0FB20,雪山橋,2026-01-05,24.23192,120.9786,2.6008713e-08
C0Z250,瑞穗林道,2026-01-05,23.49284,121.30688,3.722579e-08
C0D590,新豐,2026-01-05,24.87068,120.97721,0.9718615
C0A870,五指山,2026-01-05,25.132153,121.608692,0.02035421
C0UA50,西帽山,2026-01-05,24.555361,121.802628,2.6011526e-07
C2R980,竹田國中,2026-01-05,22.61532,120.52412,0.00039703803
C0X160,仁德,2026-01-05,22.968258,120.257689,0.8691982
C1H971,六分寮,2026-01-05,23.92507,120.6378,6.591755e-09
C0W120,西嶼,2026-01-05,23.5626,119.468436,0.9984448
C0G650,員林,2026-01-05,23.946503,120.585597,0.001847294
C0AD50,鶯歌,2026-01-05,24.951533,121.346294,0.99998826
C2H9Q0,北東眼山,2026-01-05,24.120939,121.189303,2.8939816e-08
C2H9T0,名間竹圍,2026-01-05,23.859914,120.637572,5.632605e-09
C0S990,山豬窟,2026-01-05,22.318619,120.857372,5.3812165e-08
C0X190,安平,2026-01-05,22.993161,120.152181,0.9032354
C0K400,斗六,2026-01-05,23.720583,120.541127,1.59916e-08
12J990,口湖工作站,2026-01-05,23.589978,120.180394,0.0003465991
C0O830,北寮,2026-01-05,23.079561,120.495008,5.730873e-09
C1D410,白蘭,2026-01-05,24.579364,121.079947,3.0892064e-08
C0S970,加津林,2026-01-05,22.416211,120.926942,0.9993647
C0D700,關西,2026-01-05,24.7977,121.1732,1.4565312e-05
C0U750,龜山島,2026-01-05,24.841667,121.953133,4.18247e-06
C0R810,內獅,2026-01-05,22.305064,120.642986,0.0009140958
C1M390,龍美,2026-01-05,23.406728,120.654417,1.0458502e-08
C2K290,崙內,2026-01-05,23.69525,120.35601,0.05522406
C2FB60,頭櫃山,2026-01-05,24.129842,120.858925,1.0271211e-08
C1H840,國三N238K,2026-01-05,23.841008,120.707711,5.9142344e-09
CAQ030,崎峰國小,2026-01-05,22.42565,120.49521,0.001409814
C2E520,大湖,2026-01-05,24.414939,120.870872,0.0009705681
467530,阿里山,2026-01-05,23.508208,120.813242,3.247108e-08
C1E691,南湖,2026-01-05,24.40135,120.837533,1.1926153e-07
C0FA30,梧棲,2026-01-05,24.256003,120.523381,0.99728185
C1V231,高中,2026-01-05,23.134911,120.716711,8.279512e-09
C0AK30,硬漢嶺,2026-01-05,25.136097,121.426372,0.2663454
C0F9V0,新社,2026-01-05,24.200172,120.815806,4.2384855e-08
C0H890,埔里,2026-01-05,23.972169,120.952425,7.3439206e-09
C0R690,墾丁,2026-01-05,21.966756,120.810269,0.99969697
C0SD20,富山,2026-01-05,22.822383,121.190825,0.27423748
C0F0D0,審馬陣,2026-01-05,24.381675,121.4203,9.7313446e-08
C2W030,金門農試所,2026-01-05,24.448431,118.451786,0.99912184
C0R820,白鷺,2026-01-05,22.454275,120.666219,2.624532e-08
C0FB00,大雪山,2026-01-05,24.254668,121.007374,3.6457e-08
C1V190,南天池,2026-01-05,23.27403,120.91176,3.7733983e-08
C0E940,雪見,2026-01-05,24.42595,121.01347,4.4111285e-08
K2E360,苗栗農改場,2026-01-05,24.495722,120.829111,0.98923016
CAJ050,海口故事園區,2026-01-05,23.57543,120.14121,0.0003496302
C2K280,四湖,2026-01-05,23.6304,120.22717,0.07388644
C2H9D0,三隻寮,2026-01-05,24.093078,120.861578,6.5667325e-09
C0O990,媽廟,2026-01-05,22.99175,120.293525,0.7743265
C0D480,打鐵坑,2026-01-05,24.849664,121.150789,3.4946768e-06
C0Z220,和平林道,2026-01-05,24.343922,121.656317,5.373898e-07
C0TA10,花蓮漁港,2026-01-05,23.995322,121.638331,0.99997616
72C440,桃園農改場,2026-01-05,24.950944,121.030583,0.99977076
C1E711,馬拉邦山,2026-01-05,24.367306,120.901656,1.3925737e-08
C0SB20,富岡,2026-01-05,22.792467,121.192669,0.9998717
C0D560,竹東,2026-01-05,24.767147,121.057881,0.9760123
C0F9U0,南屯,2026-01-05,24.137006,120.637969,0.00034924026
C2SD60,明峰,2026-01-05,22.8671,121.11825,1.9970196e-06
C0M720,番路,2026-01-05,23.464657,120.554156,5.95937e-09
C0F0A0,雪山圈谷,2026-01-05,24.388594,121.236339,8.057511e-08
C1A9N0,四十份,2026-01-05,24.934158,121.593283,1.9286686e-05
C0U760,東澳,2026-01-05,24.52196,121.83318,0.00066718383
C0X230,鹽水,2026-01-05,23.272621,120.247641,0.020831803
C2H9H0,苗改南投蜂場,2026-01-05,23.852589,120.693481,7.237128e-09
C2TB70,達谷寮,2026-01-05,23.38,121.35968,2.2661683e-07
C0R950,萬隆國小,2026-01-05,22.507667,120.587817,9.7793716e-05
467540,大武,2026-01-05,22.35572,120.90374,0.9998578
C0V370,古亭坑,2026-01-05,22.893178,120.401947,7.9426865e-09
C1I340,新興橋,2026-01-05,23.563333,120.868728,9.191351e-09
C0SA80,土坂,2026-01-05,22.453108,120.887572,0.99700826
C0R160,鹽埔,2026-01-05,22.739558,120.530778,1.2581551e-08
C0AC40,大屯山,2026-01-05,25.175675,121.522408,1.8352956e-05
466850,五分山雷達站,2026-01-05,25.071182,121.781205,3.5888202e-06
C2H9L0,馬烈霸,2026-01-05,24.1512,121.201772,3.2841683e-08
C1AI50,國三N016K,2026-01-05,25.034164,121.619664,0.07405247
C2V920,匏子寮,2026-01-05,23.04905,120.55319,3.8194785e-09
C1V600,藤枝,2026-01-05,23.071961,120.757042,1.4132738e-08
C1E601,南勢,2026-01-05,24.572486,120.734842,0.9890976
C0O980,新市,2026-01-05,23.061614,120.298197,0.8691982
C0K420,西螺,2026-01-05,23.800407,120.467394,1.7962254e-08
C0Z050,佳心,2026-01-05,23.34567,121.21316,4.229497e-08
C0AD30,蘆洲,2026-01-05,25.086594,121.472331,0.21247242
C0V610,梓官,2026-01-05,22.760558,120.267211,0.99617845
K2F750,種苗改良場,2026-01-05,24.225972,120.800917,5.6223897e-08
C0UA80,大溪漁港,2026-01-05,24.941801,121.902955,0.9582226
C1AI60,國一39K邊坡,2026-01-05,25.064361,121.383836,0.0010058716
C0W150,金寧,2026-01-05,24.457703,118.328989,0.19712992
C0R960,內埔,2026-01-05,22.608483,120.570714,0.00033504178
V2C250,八德合作社,2026-01-05,24.93775,121.266389,0.9999584
C2H9S0,龍南,2026-01-05,23.953536,120.833183,9.514768e-09
C0AH40,平等,2026-01-05,25.129142,121.577086,0.9916458
C0R540,佳冬,2026-01-05,22.419456,120.552375,0.0009854378
466950,彭佳嶼,2026-01-05,25.627975,122.079744,0.99878824
C0A890,雙溪,2026-01-05,25.036003,121.864242,0.86264765
C0C480,桃園,2026-01-05,24.992425,121.323172,0.9999809
C0AH50,林口,2026-01-05,25.072181,121.38084,0.00030263278
A2K360,水試臺西試驗場,2026-01-05,23.717231,120.190522,0.08832592
C2M960,外寮,2026-01-05,23.562643,120.665688,1.0032552e-08
C0F9S0,烏日,2026-01-05,24.107058,120.624103,0.001471863
C2N180,鹿陶洋,2026-01-05,23.14325,120.48352,9.635706e-09
C0C490,八德,2026-01-05,24.928708,121.283289,0.9999547
C0R190,赤山,2026-01-05,22.592333,120.614306,0.00019350447
C0T820,天祥,2026-01-05,24.179597,121.495639,7.3584076e-08
C1F9E1,龍安,2026-01-05,24.1605,120.831961,3.7870112e-08
C2SD50,順那,2026-01-05,23.04166,121.29332,6.516517e-05
C0V820,小林,2026-01-05,23.148408,120.63325,4.620168e-09
C2G870,芳苑,2026-01-05,23.922303,120.320025,0.076911464
C0E850,大河,2026-01-05,24.618069,120.948578,0.9983656
C1U670,寒溪,2026-01-05,24.634,121.71691,0.00012888799
C0N020,城西,2026-01-05,23.0568,120.0956,0.91178
C1Z110,三棧,2026-01-05,24.11557,121.60501,5.9398655e-08
C0R280,檳榔,2026-01-05,22.076078,120.836777,0.99970573
C2H9J0,中台,2026-01-05,23.9996,120.938739,7.230436e-09
C0F9L0,后里,2026-01-05,24.310436,120.729725,4.95905e-07
467441,高雄,2026-01-05,22.730432,120.312516,0.9950792
C0Z180,新城,2026-01-05,24.040486,121.604878,3.311957e-07
C0D540,橫山,2026-01-05,24.71116,121.11693,0.075376235
C1D420,太閣南,2026-01-05,24.632808,121.160575,8.9574144e-08
C1E770,公館,2026-01-05,24.526914,120.830806,0.99644357
CAN130,水試所海水繁養殖中心,2026-01-05,23.120802,120.07968,0.93219584
C1I430,翠華,2026-01-05,24.191961,121.224339,3.9364565e-08
C1M400,菜瓜坪,2026-01-05,23.251928,120.576103,4.6361985e-09
C0G730,二林,2026-01-05,23.903325,120.376081,0.003703734
72M360,南改義竹分場,2026-01-05,23.360694,120.279361,0.018747589
V2K620,麥寮合作社,2026-01-05,23.753836,120.294783,0.07274276
C0Z070,舞鶴,2026-01-05,23.46811,121.37407,8.3094164e-08
C0B040,大武崙,2026-01-05,25.166676,121.706993,0.91210824
C1Z030,紅葉,2026-01-05,23.493119,121.338806,9.443013e-08
C1I050,丹大,2026-01-05,23.753747,121.141147,4.266354e-08
C0I080,信義,2026-01-05,23.689694,120.851036,5.423481e-09
C2TB80,庄子底,2026-01-05,23.71794,121.49438,1.383103e-07
C0D750,樂山林道6k,2026-01-05,24.49999,121.08773,5.128998e-08
C2M920,朴子農改,2026-01-05,23.469889,120.259383,0.00032099066
C2A880,福隆,2026-01-05,25.017842,121.942083,0.9582226
C0Z160,鳳林,2026-01-05,23.746114,121.453411,1.3085007e-07
C0UB80,翠峰林道6K,2026-01-05,24.49773,121.568625,8.072448e-08
C0V210,復興,2026-01-05,23.222403,120.806089,8.184146e-09
C0H990,昆陽,2026-01-05,24.121322,121.273642,5.082323e-08
C0R741,獅子,2026-01-05,22.202308,120.705236,0.9099664
C0S710,鹿野,2026-01-05,22.917711,121.122994,6.7946684e-07
C0I530,小奇萊,2026-01-05,24.131764,121.295717,5.5060028e-08
C0FA70,大雪山埡口,2026-01-05,24.26867,121.03062,4.249089e-08
C2K630,荷苞,2026-01-05,23.657717,120.595144,9.236182e-09
C0Z080,富源,2026-01-05,23.587642,121.378225,7.034994e-08
C2M9E0,旺來山,2026-01-05,23.555153,120.486463,7.675253e-09
C0SB10,美和,2026-01-05,22.682078,121.060236,0.99970144
C2K620,馬光農場,2026-01-05,23.721453,120.378864,2.0428846e-08
C1I140,卡奈托灣,2026-01-05,23.754364,121.087872,2.0128859e-08
C0I520,玉山風口,2026-01-05,23.470489,120.955994,6.52221e-08
C1G691,下水埔,2026-01-05,23.816114,120.5676,1.52622e-08
C0X110,臺南市南區,2026-01-05,22.961189,120.188378,0.90047693
C0V680,仁武,2026-01-05,22.701083,120.347722,0.9949965
C2G840,北斗,2026-01-05,23.877586,120.514222,0.0018071592
C2TB90,長橋,2026-01-05,23.6874,121.46186,1.3035385e-07
C0R900,竹坑,2026-01-05,22.1385,120.7022,0.9929829
C0G860,社頭,2026-01-05,23.897647,120.5862,0.0012964637
C0X150,安定,2026-01-05,23.102614,120.227839,0.9072742
C0R590,里港,2026-01-05,22.77919,120.49459,1.2627397e-08
C0E610,馬都安,2026-01-05,24.451272,120.930192,3.1622356e-08
C0E550,明德,2026-01-05,24.583486,120.885411,0.997307
C0R150,三地門,2026-01-05,22.709889,120.639944,6.1838e-09
C0G910,花壇,2026-01-05,24.032076,120.549461,0.0020268771
C1D400,鳥嘴山,2026-01-05,24.71909,121.28387,1.2761491e-07
C0K500,元長,2026-01-05,23.64981,120.315024,0.060129818
C0F0B0,石岡,2026-01-05,24.276061,120.777644,2.3535742e-07
C2V250,甲仙,2026-01-05,23.080106,120.591758,3.1970386e-09
C0SA20,金崙山,2026-01-05,22.567419,120.959667,1.3346101e-07
C0V350,溪埔,2026-01-05,22.738578,120.446797,1.6361994e-08
C0M660,溪口,2026-01-05,23.604131,120.403569,1.3033875e-08
C1S880,壽卡,2026-01-05,22.238911,120.858903,3.5480266e-08
72D680,桃改新埔分場,2026-01-05,24.834444,121.066111,0.9988342
