站號,站名,日期,lat,lon,BLBTSLS
C1O850,環湖,2026-03-27,23.148617,120.418633,0.9300192
C0S890,關山,2026-03-27,23.0395,121.175017,0.00032743317
C1R120,上德文,2026-03-27,22.763272,120.704442,3.6996622e-10
C1S800,華源,2026-03-27,22.657883,121.02325,0.0002962668
C0R550,新埤,2026-03-27,22.467947,120.582894,0.9919148
C1O880,關山,2026-03-27,23.173397,120.594092,0.0030123808
C0R260,春日,2026-03-27,22.370361,120.628306,0.47274405
C1I211,蘆竹湳,2026-03-27,23.934019,120.811994,1.2579671e-05
C1I260,北坑,2026-03-27,23.9246,121.006903,2.42019e-08
467290,古坑,2026-03-27,23.633639,120.551889,0.00069217023
C0R700,枋山,2026-03-27,22.246844,120.661086,0.19247901
C0SA40,瑞和,2026-03-27,22.974361,121.156697,0.0009767315
C0R490,九如,2026-03-27,22.7405,120.490503,0.99752164
C0D430,峨眉,2026-03-27,24.6905,121.017189,3.145693e-07
C1I240,外大坪,2026-03-27,23.958697,120.917931,7.567986e-09
C1V570,吉東,2026-03-27,22.85422,120.5454,0.9970506
C0D480,打鐵坑,2026-03-27,24.849664,121.150789,9.077378e-08
C0C480,桃園,2026-03-27,24.992425,121.323172,0.00015763636
467290,古坑,2026-03-27,23.380729,120.336861,0.19378676
