站號,站名,日期,lat,lon,BLBTSLS
C0R710,龍磐,2026-07-19,21.931672,120.838942,0.092476964
C1F9D1,白毛台,2026-07-19,24.158325,120.886933,3.7763486e-09
C0G940,竹塘,2026-07-19,23.848253,120.386764,0.14194593
467590,恆春,2026-07-19,22.003897,120.746339,0.050223313
C0U710,太平山,2026-07-19,24.505486,121.525656,5.4736966e-09
C0E820,獅潭,2026-07-19,24.539133,120.920042,0.00036849303
C2SD70,二層坪,2026-07-19,22.94105,121.16838,0.9076582
C0V880,興達,2026-07-19,22.8778,120.2127,0.39757788
C0SB30,新蘭,2026-07-19,22.869214,121.223228,0.15076281
C2R970,屏科大,2026-07-19,22.648275,120.619247,0.0020486026
C1Z130,銅門,2026-07-19,23.965694,121.492842,0.15707439
C0AD40,土城,2026-07-19,24.973208,121.445169,0.8806642
CAN140,六官養殖協會,2026-07-19,23.22881,120.29962,0.63047826
C0X180,山上,2026-07-19,23.0757,120.363253,0.97340626
C0F9Z0,雪山東峰,2026-07-19,24.388792,121.268675,1.3705472e-08
C1M480,獨立山,2026-07-19,23.537022,120.607797,3.7086463e-06
C0X220,學甲,2026-07-19,23.230367,120.182187,0.5320547
467650,日月潭,2026-07-19,23.881325,120.90805,3.5854955e-09
A2K570,古坑(花卉中心),2026-07-19,23.633531,120.552392,0.15641066
C0K600,箔子寮,2026-07-19,23.6197,120.14,0.17228894
C0G830,埤頭,2026-07-19,23.866003,120.452806,0.3762205
C0S950,七塊厝,2026-07-19,22.954453,121.229922,0.996161
467110,金門,2026-07-19,24.407306,118.289281,0.17779215
C0AH80,深坑,2026-07-19,25.002703,121.628328,0.2734345
C0A970,三貂角,2026-07-19,25.007606,122.002058,0.9980859
C2D730,寶山農場,2026-07-19,24.732444,120.976153,0.06362465
C0K430,褒忠,2026-07-19,23.690938,120.303634,0.25177637
467480,嘉義,2026-07-19,23.495925,120.432906,0.20681998
C0V400,阿公店,2026-07-19,22.804194,120.355528,0.81005347
C2S800,華源,2026-07-19,22.65783,121.0232,0.464747
C2SA40,瑞和,2026-07-19,22.974361,121.156697,0.8977613
C0E960,觀霧分站,2026-07-19,24.505781,121.113921,2.5404333e-08
467550,玉山,2026-07-19,23.48718,120.95943,1.5681815e-08
C0R440,大漢山,2026-07-19,22.405264,120.753181,1.2232219e-08
C0SD30,東清國小,2026-07-19,22.057128,121.564922,0.0882824
C1F9B1,桐林,2026-07-19,24.066172,120.735194,0.015945438
C2I210,蘆竹湳,2026-07-19,23.93398,120.81209,1.8801594e-09
C2H9U0,鳳鵬,2026-07-19,23.763919,120.788061,0.8924877
C0K390,土庫,2026-07-19,23.679029,120.395574,0.19929187
C1I450,望鄉山,2026-07-19,23.594153,120.944286,7.4009407e-09
C0E910,海埔,2026-07-19,24.648767,120.772435,0.039572015
B2E890,畜試北區分所,2026-07-19,24.527806,120.770972,0.19087356
C0R750,四林格山,2026-07-19,22.076989,120.802439,0.52489775
C0F0C0,中坑,2026-07-19,24.248517,120.903319,5.6874034e-09
C1I121,大鞍,2026-07-19,23.678381,120.760017,4.2217496e-09
C2G9E0,移民庄,2026-07-19,23.9784,120.40283,0.10131167
72U480,花改蘭陽分場,2026-07-19,24.686306,121.716583,0.18064523
C0A770,科教館,2026-07-19,25.096356,121.516507,0.9306073
C0AJ60,六塊厝,2026-07-19,25.24,121.4481,0.030158157
C0R620,墾雷,2026-07-19,21.900836,120.855269,0.06652134
467290,古坑,2026-07-19,23.633536,120.551906,0.1564107
467420,永康,2026-07-19,23.038386,120.2367,0.58629096
C2M530,奮起湖,2026-07-19,23.493903,120.699253,2.9533391e-09
C0I410,名間,2026-07-19,23.837053,120.701447,0.20727198
A2C560,農工中心,2026-07-19,24.985917,121.239833,0.07296506
C0V740,旗山,2026-07-19,22.888614,120.483597,0.96567154
C0Z061,玉里,2026-07-19,23.3215,121.339656,0.32113555
C0S840,南田,2026-07-19,22.279725,120.889208,0.0126356715
C1I470,杉林溪,2026-07-19,23.639517,120.786444,4.5436916e-09
C1X040,東原,2026-07-19,23.291597,120.463822,0.0021150552
C0R660,枋寮,2026-07-19,22.367722,120.590647,0.83311284
C0K450,大埤,2026-07-19,23.646074,120.431537,0.21898788
C0UA00,土場,2026-07-19,24.576533,121.495333,5.7480133e-07
467080,宜蘭,2026-07-19,24.763975,121.756528,0.032693084
C0N030,四草,2026-07-19,23.0235,120.1116,0.45115975
467410,臺南,2026-07-19,22.99328,120.20492,0.63928413
C0V650,彌陀,2026-07-19,22.783806,120.246361,0.4074977
C0D660,新竹市東區,2026-07-19,24.798681,120.986942,0.07217633
82S580,茶改東部分場,2026-07-19,22.907694,121.130139,0.44768053
C0SB40,興隆,2026-07-19,22.913661,121.257469,0.51637745
467050,新屋,2026-07-19,25.006725,121.047492,0.044364415
C0C710,大溪永福,2026-07-19,24.892936,121.324975,0.23231715
C0FA20,溫寮,2026-07-19,24.372177,120.583125,0.016545758
C0V640,湖內,2026-07-19,22.887139,120.2445,0.40636188
C0R910,下寮,2026-07-19,22.3929,120.5548,0.19262291
C0Z020,明里,2026-07-19,23.208717,121.262342,0.7785239
C0M770,嘉義梅山,2026-07-19,23.585398,120.555587,0.1881173
C0C660,楊梅,2026-07-19,24.912375,121.143047,0.06781246
C0SD40,牛頭山,2026-07-19,22.676661,121.506944,0.3510625
C1E511,新開,2026-07-19,24.347703,120.827019,3.2401804e-05
G2F820,農試所(霧峰),2026-07-19,24.031261,120.688133,0.01622391
C2M990,大巃頂,2026-07-19,23.5547,120.61439,2.3478177e-09
C1I070,和社,2026-07-19,23.591131,120.888861,3.1382537e-09
C2E990,新坪頂,2026-07-19,24.30201,120.8574,3.0025609e-09
C0TA80,立霧山,2026-07-19,24.183258,121.641899,1.74107e-07
C2F000,大肚,2026-07-19,24.15295,120.572117,0.62200505
C1S850,豐南,2026-07-19,23.122139,121.262389,0.99748796
C2M9B0,西興,2026-07-19,23.2428,120.57617,7.74295e-09
C2A920,富貴角,2026-07-19,25.263783,121.565258,0.02982589
C0T960,光復,2026-07-19,23.660694,121.424964,0.13931164
C0F9M0,豐原,2026-07-19,24.254322,120.720692,0.0005064315
C0R720,旭海,2026-07-19,22.205403,120.887614,0.032570142
C0V710,苓雅,2026-07-19,22.622742,120.330669,0.5050326
C0C740,觀音工業區,2026-07-19,25.064764,121.114856,0.03757783
CAC040,拉拉山,2026-07-19,24.699317,121.427133,1.903862e-08
C0V790,萬山,2026-07-19,22.905944,120.688056,4.167648e-07
U2HA30,臺大和社,2026-07-19,23.590856,120.888864,3.1382537e-09
C2H9K0,屯原,2026-07-19,24.067969,121.209389,4.2343222e-09
C0AJ90,澳底,2026-07-19,25.0552,121.9253,0.48636177
C0Z100,東華,2026-07-19,23.89525,121.549833,0.07530127
C0G970,三豐,2026-07-19,23.882,120.2895,0.17683357
C0V900,汕尾,2026-07-19,22.4782,120.4151,0.25542393
C1R630,龍泉,2026-07-19,22.66701,120.59091,0.0014017599
C1AC50,關渡,2026-07-19,25.133486,121.469331,0.06352745
C0C800,四稜,2026-07-19,24.64733,121.4293,2.4366143e-08
C0F9I0,神岡,2026-07-19,24.272481,120.658314,0.22455515
C0K460,斗南,2026-07-19,23.678734,120.478359,0.22080716
C2O810,曾文,2026-07-19,23.219681,120.497328,0.32443395
467280,後龍,2026-07-19,24.648563,120.831834,0.03574023
C1F9J1,清水林,2026-07-19,24.071242,120.820419,1.452456e-09
C2A650,火燒寮,2026-07-19,25.002719,121.742892,0.8743536
466930,竹子湖,2026-07-19,25.162078,121.544547,2.5232225e-08
C1I220,樟湖,2026-07-19,23.905333,120.846983,2.345271e-09
C0I390,仁愛,2026-07-19,24.022122,121.132206,2.9888647e-09
C0Z300,東里,2026-07-19,23.26853,121.30547,0.33358678
C1V590,新發,2026-07-19,23.057019,120.646064,8.727545e-09
C0K510,水林,2026-07-19,23.572924,120.24597,0.3660632
72S590,東改賓朗果園,2026-07-19,22.813889,121.071278,0.9116092
82A750,茶改北部分場,2026-07-19,24.955778,121.631222,4.8856252e-09
C1A750,石碇服務區,2026-07-19,25.00872,121.646242,0.24253136
C0X300,鹿寮,2026-07-19,23.386047,120.477331,0.17952879
C0K590,雲林東勢,2026-07-19,23.674192,120.255721,0.22671458
C2K310,港尾布雞,2026-07-19,23.74834,120.38439,0.28484532
C0A570,桶後,2026-07-19,24.848222,121.597992,1.6625364e-08
C0G720,溪州,2026-07-19,23.851589,120.499093,0.38702533
C1V160,達卡努瓦,2026-07-19,23.279811,120.705319,2.5794342e-09
C2M410,馬頭山,2026-07-19,23.324361,120.582017,1.2055514e-05
C0V850,蚵仔寮,2026-07-19,22.7256,120.2527,0.39723328
C0S740,池上,2026-07-19,23.119628,121.209469,0.9754336
C1V390,尖山,2026-07-19,22.813153,120.367789,0.83635235
C0AH70,松山,2026-07-19,25.04871,121.55042,0.9367731
C0N010,鯤鯓國小,2026-07-19,23.1879,120.0889,0.44250315
C0SA60,知本（水試所）,2026-07-19,22.702394,121.082761,0.057804197
C0T9I0,豐濱,2026-07-19,23.583897,121.514806,0.14372069
C0UB00,淡江大學蘭陽校園,2026-07-19,24.823239,121.730383,8.618268e-09
C0W240,九宮,2026-07-19,24.423753,118.240186,0.17396152
C0T9N0,富里,2026-07-19,23.171639,121.249378,0.87790763
U2HA50,臺大竹山,2026-07-19,23.756972,120.681556,0.28562763
C0V840,鳳鼻頭,2026-07-19,22.5083,120.3591,0.26973805
C0X140,西港,2026-07-19,23.125608,120.203108,0.59442014
72D080,桃改五峰分場,2026-07-19,24.612194,121.157167,2.3349617e-08
C2H9P0,伊拿谷,2026-07-19,23.963211,121.088264,2.2489945e-09
C2K250,崙背,2026-07-19,23.75553,120.31893,0.25472462
C2H9F0,柑林,2026-07-19,24.018658,120.847072,6.5935026e-09
C0TA20,加灣,2026-07-19,24.082025,121.608944,0.07868095
C0V530,阿蓮,2026-07-19,22.883208,120.327508,0.8348246
C0FB30,八仙山苗圃,2026-07-19,24.192719,121.001366,5.849101e-09
C0E791,卓蘭,2026-07-19,24.3126,120.8244,6.8706986e-06
C2R260,春日,2026-07-19,22.370361,120.628306,0.042736094
C1I030,武界,2026-07-19,23.913225,121.052483,2.65322e-09
C0R520,崁頂,2026-07-19,22.514781,120.506914,0.29120225
C0R341,牡丹,2026-07-19,22.130036,120.792639,0.876673
C0R930,萬丹,2026-07-19,22.5885,120.4851,0.2864107
C0S760,紅石,2026-07-19,23.069131,121.126219,7.443158e-08
C2C410,中央大學,2026-07-19,24.967652,121.185165,0.07136791
C1M610,石磐龍,2026-07-19,23.496606,120.663506,2.6070537e-09
C2C830,中德,2026-07-19,24.981862,121.291344,0.067976765
C0C790,東眼山,2026-07-19,24.8284,121.40888,7.3527504e-09
C0UA10,鴛鴦湖,2026-07-19,24.590269,121.412228,1.4127078e-08
C0R800,丹路,2026-07-19,22.204481,120.750989,0.4598689
C2R240,萬巒,2026-07-19,22.527306,120.625111,0.6493413
C0G920,永靖,2026-07-19,23.924703,120.547533,0.2518109
C2M950,太和,2026-07-19,23.538372,120.702961,2.9191936e-09
C1A630,下盆,2026-07-19,24.771003,121.538622,1.50165e-08
B2N890,畜產試驗所,2026-07-19,23.058972,120.336406,0.64701706
C0UA30,白嶺,2026-07-19,24.527819,121.519031,7.583375e-09
467571,新竹,2026-07-19,24.828575,121.01455,0.07412553
C1V580,溪南(特生中心),2026-07-19,23.084972,120.788475,6.723266e-09
C1T970,大農,2026-07-19,23.615233,121.413331,0.13470551
C0R650,竹田,2026-07-19,22.58486,120.54344,0.2735881
C1H900,清流,2026-07-19,24.080775,120.962997,2.1432893e-09
C1C510,水尾,2026-07-19,24.940081,121.087161,0.07396947
C2N170,茅港尾,2026-07-19,23.2061,120.2624,0.63047826
C0F9X0,大雅(中科園區),2026-07-19,24.21528,120.62445,0.0716389
C0SB60,白守蓮,2026-07-19,23.126769,121.401914,0.27537718
C0O970,虎頭埤,2026-07-19,23.021375,120.347878,0.9524786
C0C730,中大臨海站,2026-07-19,24.966126,121.008581,0.047662444
C0X250,新營,2026-07-19,23.310689,120.316681,0.43481892
C0V700,三民,2026-07-19,22.645017,120.311233,0.36368668
C0U870,大礁溪,2026-07-19,24.791042,121.675047,7.800107e-09
C0E870,高鐵苗栗,2026-07-19,24.60725,120.826094,0.03628553
C2S890,關山,2026-07-19,23.0395,121.175017,0.94926107
C0TA30,鹽寮,2026-07-19,23.845606,121.592664,0.06785351
C0M860,新美,2026-07-19,23.338017,120.683169,6.2495964e-09
C1E701,八卦,2026-07-19,24.491756,120.927619,1.1248662e-08
C2TA90,加納納,2026-07-19,23.466421,121.359867,0.52859485
C0I420,國姓,2026-07-19,24.037803,120.855072,5.3473883e-09
C2D720,關西工作站,2026-07-19,24.757275,121.184792,0.07120292
C2AK30,信賢,2026-07-19,24.84108,121.53492,2.8880927e-06
C0S960,香蘭,2026-07-19,22.587569,120.993375,0.42846668
467620,蘭嶼,2026-07-19,22.0369,121.55843,0.045044087
C2UC40,中城,2026-07-19,24.62865,121.74745,0.1698377
72G600,臺中農改場,2026-07-19,24.003028,120.534389,0.21402794
C0Z210,瑞穗,2026-07-19,23.5239,121.39021,0.11937325
C0M820,達邦,2026-07-19,23.453994,120.749517,2.0657034e-09
C0V860,南寮,2026-07-19,22.7616,120.2339,0.39723328
C0G740,大城,2026-07-19,23.852487,120.320935,0.18106322
C0R920,塭仔,2026-07-19,22.4169,120.5197,0.19071455
C0R470,高樹,2026-07-19,22.826389,120.600806,0.7835505
C0R680,佳樂水,2026-07-19,21.993578,120.861633,0.06357324
C1O870,大棟山,2026-07-19,23.31157,120.52226,1.8730113e-09
C0D360,梅花,2026-07-19,24.678347,121.208558,2.1193769e-06
C0Z190,富世,2026-07-19,24.14743,121.6297,0.91634464
C0AI10,屈尺,2026-07-19,24.92184,121.54475,0.9106581
B2U990,畜試東區分所,2026-07-19,24.669039,121.832561,0.31209219
C0SB80,長濱漁港,2026-07-19,23.313644,121.459994,0.20732544
C0TA50,和仁,2026-07-19,24.241394,121.712472,0.760406
C2AK40,漁光,2026-07-19,24.96875,121.72132,2.973705e-09
C0V910,大樹,2026-07-19,22.684645,120.432803,0.6129809
C1R610,西大武山,2026-07-19,22.617719,120.7322,1.8961392e-08
C0K500,元長,2026-07-19,23.642858,120.31966,0.22671458
C0G900,線西,2026-07-19,24.143358,120.443536,0.05073256
C0M700,竹崎,2026-07-19,23.526178,120.555508,0.18926002
C2E880,三義,2026-07-19,24.405478,120.749819,1.6973954e-07
C0C720,竹圍,2026-07-19,25.112692,121.239824,0.0405562
C0F9P0,清水,2026-07-19,24.312297,120.562242,0.030394642
C0Z150,吉安光華,2026-07-19,23.930925,121.595153,0.033352282
C0FA80,小雪山天池,2026-07-19,24.28025,121.02627,9.0741725e-09
467300,東吉島,2026-07-19,23.25727,119.66762,0.6160899
C1D640,外坪(五指山),2026-07-19,24.644447,121.090961,1.5670115e-07
C2R9A0,高士國小,2026-07-19,22.12553,120.84653,0.80034375
C0F9O0,潭子,2026-07-19,24.213106,120.703933,0.00032933254
C2H9R0,卓社,2026-07-19,23.887894,121.000086,5.138866e-09
72T250,花蓮農改場,2026-07-19,23.975222,121.563889,0.03333249
C0E780,銅鑼,2026-07-19,24.489681,120.790853,0.28478935
C1T950,太安,2026-07-19,23.666719,121.370128,5.6888763e-05
C0E830,苑裡,2026-07-19,24.439714,120.653053,0.020218004
467270,田中,2026-07-19,23.873803,120.581286,0.32520026
C0SA10,檳榔四格山,2026-07-19,22.810031,121.109308,0.8450023
C1T830,布洛灣,2026-07-19,24.17184,121.57127,0.91315895
C0F970,大坑,2026-07-19,24.173142,120.722289,0.004383075
C1U920,思源,2026-07-19,24.393125,121.347214,4.7801842e-09
C2H9Y0,松茗,2026-07-19,23.8167,120.650765,0.9455131
C0A931,三和,2026-07-19,25.233153,121.595236,2.1845914e-05
C0I010,廬山,2026-07-19,24.033311,121.181808,2.386233e-09
C2M940,日野賀,2026-07-19,23.434056,120.727169,2.5330873e-09
C0R860,鼻頭,2026-07-19,22.1043,120.8979,0.12151419
C2I260,北坑,2026-07-19,23.92463,121.00683,7.023729e-09
C0UB20,壯圍,2026-07-19,24.7359,121.8163,0.12876242
C0R790,九棚,2026-07-19,22.14195,120.889281,0.97447723
C0W110,東莒,2026-07-19,25.9652,119.98069,0.051049404
C1U930,粉鳥林,2026-07-19,24.497088,121.842479,0.018225173
C0S830,長濱,2026-07-19,23.286817,121.411975,0.8846835
C1F9F1,伯公龍,2026-07-19,24.272392,120.849047,4.7321502e-09
C0UB90,太平山莊,2026-07-19,24.494171,121.536209,5.489746e-09
C0E810,西湖,2026-07-19,24.562947,120.7485,0.020514607
C1I440,新高口,2026-07-19,23.478744,120.878939,5.533457e-09
C0O840,王爺宮,2026-07-19,23.222064,120.40085,0.17593127
C0T9G0,鳳林山,2026-07-19,23.735269,121.420131,0.024091892
C0X080,佳里,2026-07-19,23.173039,120.145086,0.4644341
C0FB70,大甲溪埔,2026-07-19,24.370625,120.620067,0.015789224
C0Z310,清水斷崖,2026-07-19,24.218294,121.689142,0.85097766
C0M680,太保,2026-07-19,23.455062,120.331455,0.31756398
C1S820,金峰,2026-07-19,22.590969,120.933236,0.2875833
C0AD10,八里,2026-07-19,25.150211,121.403947,0.04950317
C2K240,草嶺,2026-07-19,23.59555,120.693461,2.882637e-09
C1SA70,都蘭,2026-07-19,22.87794,121.226881,0.15810819
C0K440,二崙,2026-07-19,23.772797,120.408944,0.34380063
C1A760,坪林交控,2026-07-19,24.94284,121.713442,2.8216582e-06
C0F9N0,大里,2026-07-19,24.092464,120.701378,0.011468483
C0SA90,達仁林場,2026-07-19,22.264347,120.823972,5.45612e-07
C1R290,石門山,2026-07-19,22.112611,120.756597,0.9857693
42HA10,萬大發電廠,2026-07-19,23.978875,121.139639,3.0454614e-09
C0R890,山海,2026-07-19,21.9878,120.7091,0.04727719
C0T9A0,月眉山,2026-07-19,23.809928,121.539828,0.94913244
C0AC70,信義,2026-07-19,25.037822,121.564597,0.88805646
C0K560,棋山,2026-07-19,23.68645,120.603417,0.25996593
C2FB50,出雲,2026-07-19,24.206469,120.902794,5.204293e-09
C1Z240,中平林道,2026-07-19,23.42115,121.26763,0.0007759861
U2H480,溪頭,2026-07-19,23.670306,120.798194,2.8197467e-09
C0M880,好美里,2026-07-19,23.3364,120.138,0.39493212
C0T9E0,大坑,2026-07-19,23.880628,121.581981,0.45949423
C0K530,臺西,2026-07-19,23.701547,120.197559,0.14086893
C1E900,國一N128K,2026-07-19,24.560997,120.844186,0.040130805
C0AJ50,水湳洞,2026-07-19,25.123695,121.862238,0.49678186
C0AI20,白沙灣,2026-07-19,25.283128,121.519058,0.03165905
C2V310,美濃,2026-07-19,22.898792,120.51907,0.96359956
C0A860,大坪,2026-07-19,25.165914,121.632969,0.9172657
C1U850,觀音海岸,2026-07-19,24.38319,121.77856,2.9760282e-05
C2K610,草嶺石壁,2026-07-19,23.602469,120.707731,2.903163e-09
C0U950,鶯子嶺,2026-07-19,24.89754,121.79244,2.8527345e-09
C0O900,善化,2026-07-19,23.112883,120.297219,0.62693924
C0K550,蔦松,2026-07-19,23.514319,120.229736,0.25226176
E2P980,林試六龜中心,2026-07-19,22.991703,120.645722,1.2904005e-07
C0E590,通霄,2026-07-19,24.471892,120.704622,0.017366948
C1I310,西巒,2026-07-19,23.754486,120.883956,6.975227e-09
C0A550,泰平,2026-07-19,24.971197,121.823711,9.201367e-09
C2UC30,金洋,2026-07-19,24.42465,121.74573,0.039584737
C0I360,水里,2026-07-19,23.812553,120.849792,0.3079005
C0R830,高士,2026-07-19,22.121825,120.836781,0.97491825
C1I101,溪頭,2026-07-19,23.661789,120.807647,4.958428e-09
C0AJ20,野柳,2026-07-19,25.20703,121.690021,0.26915255
C0B060,暖暖,2026-07-19,25.0957,121.7403,0.59408736
C1H920,長豐,2026-07-19,24.102039,120.879897,3.5224352e-09
C2S9B0,利吉,2026-07-19,22.86246,121.15486,0.3999939
C0V360,內門,2026-07-19,22.975481,120.466769,0.97795224
C0R850,林邊,2026-07-19,22.4634,120.5339,0.18526524
C0E930,龍鳳,2026-07-19,24.700034,120.859125,0.11248908
C0U910,冬山,2026-07-19,24.63373,121.7937,0.31209219
C1E721,泰安,2026-07-19,24.489017,120.968036,1.8098092e-08
82H320,茶改中部分場,2026-07-19,23.875611,120.913583,4.293978e-09
C0M750,布袋,2026-07-19,23.380878,120.167789,0.17459586
C1S860,利嘉,2026-07-19,22.809417,121.050528,0.013837394
E2S980,林試太麻里1,2026-07-19,22.598922,120.980044,0.2521581
C0X170,關廟,2026-07-19,22.963017,120.327797,0.9623625
C0V720,林園,2026-07-19,22.507747,120.394511,0.24814865
C2M9G0,沄水,2026-07-19,23.38293,120.52666,0.023478776
C1I510,線浸林道,2026-07-19,23.761508,120.832956,3.4807137e-09
C0D690,外湖,2026-07-19,24.917735,120.968711,0.018223321
C0C750,新興坑尾,2026-07-19,25.0061,121.0971,0.048252977
B2Q810,畜試南區分所,2026-07-19,21.945583,120.802167,0.06357321
C0S790,金崙,2026-07-19,22.538122,120.966875,0.19260867
C0AH90,福山植物園,2026-07-19,24.760717,121.58135,1.1258987e-08
C0I540,奇萊稜線,2026-07-19,24.109231,121.326456,9.338017e-09
C0M850,表湖,2026-07-19,23.24186,120.64166,3.748004e-09
C0S770,大溪山,2026-07-19,22.478475,120.943325,0.55752164
C0AG80,中和,2026-07-19,24.991622,121.491792,0.8806642
C0T790,大禹嶺,2026-07-19,24.186117,121.316086,5.658308e-09
C0T9B0,水源,2026-07-19,23.991861,121.537169,0.30130744
C0R840,牡丹池山,2026-07-19,22.168389,120.841225,0.010922544
C1I131,桶頭,2026-07-19,23.641944,120.654117,0.7758029
CAL110,布袋國中,2026-07-19,23.35893,120.18026,0.39493212
C2M9D0,何竹子腳,2026-07-19,23.53641,120.38203,0.19696398
C0Z290,赤柯山,2026-07-19,23.36893,121.38293,0.13753168
C0X280,將軍,2026-07-19,23.214999,120.13577,0.5320547
C0S690,太麻里,2026-07-19,22.60902,120.98533,0.0019782777
C0U880,北關,2026-07-19,24.9072,121.8734,4.9437785e-06
CAW010,東引,2026-07-19,26.3588,120.4836,0.16754867
C0G810,埔心,2026-07-19,23.947633,120.525456,0.24826479
C0U970,大福,2026-07-19,24.80064,121.81389,0.032438148
C2H9N0,仁愛東眼,2026-07-19,24.026875,121.1205,3.3529097e-09
C1E670,南礦,2026-07-19,24.538278,121.002836,2.718893e-08
C0M520,東後寮,2026-07-19,23.369908,120.248065,0.28243816
C1E461,松安,2026-07-19,24.397972,120.986022,8.472542e-09
C2N160,西拉雅風管處,2026-07-19,23.189481,120.335297,0.6655535
C2O850,環湖,2026-07-19,23.148665,120.4186,0.046855774
C2M970,碧湖,2026-07-19,23.568632,120.624165,2.3358204e-09
C0A640,石碇,2026-07-19,24.993969,121.662917,2.8276681e-06
E2S960,林試太麻里2,2026-07-19,22.598,120.99775,0.43946478
C0F9Y0,桃山,2026-07-19,24.432739,121.303808,1.8199898e-08
C1I020,萬大,2026-07-19,23.979817,121.132261,2.9866423e-09
C2UC20,長嶺,2026-07-19,24.70894,121.61162,3.2235043e-08
C0U940,羅東,2026-07-19,24.68184,121.74934,0.17475227
C0M650,朴子,2026-07-19,23.43463,120.23902,0.27524003
C1I500,大尖山,2026-07-19,23.858572,120.994889,1.20158e-08
C0FB40,中橫21.6k,2026-07-19,24.2499,121.1455,3.4247314e-09
C0G820,田尾,2026-07-19,23.901669,120.509389,0.24826479
E2K600,四湖植物園,2026-07-19,23.676986,120.163433,0.12327871
C0S730,綠島,2026-07-19,22.6672,121.47533,0.4834846
12Q970,東港工作站,2026-07-19,22.479997,120.466058,0.18508302
C1TA00,太魯閣,2026-07-19,24.15773,121.6236,0.85699767
466920,臺北,2026-07-19,25.037658,121.514853,0.9367731
C0R600,舊泰武,2026-07-19,22.588194,120.664944,0.00035528993
466910,鞍部,2026-07-19,25.182586,121.529731,1.5708478e-07
C1I230,九份二山,2026-07-19,23.961944,120.845,1.4255588e-09
C2M810,里佳,2026-07-19,23.389125,120.716647,2.6424627e-09
C2A660,瑞芳,2026-07-19,25.113169,121.801147,0.5696435
C0R270,琉球嶼,2026-07-19,22.332244,120.362236,0.33391547
C2V580,瑞山,2026-07-19,22.90304,120.43424,0.9467814
C1T990,高寮,2026-07-19,23.394239,121.356808,0.30210957
C0G620,芬園,2026-07-19,24.015678,120.6213,0.17774121
C1Z140,荖溪,2026-07-19,23.890575,121.45964,0.00836217
C1I201,中心崙,2026-07-19,23.728722,120.712097,0.969287
C1I400,凌霄,2026-07-19,24.018778,121.004456,3.348615e-09
C1M640,十字,2026-07-19,23.492153,120.753683,3.327674e-09
G2P820,農試鳳山分所,2026-07-19,22.646611,120.356083,0.5155381
C0Z270,蕃薯寮,2026-07-19,23.73835,121.540108,0.5038207
C2E420,竹南,2026-07-19,24.70898,120.88897,0.105514675
C2D480,打鐵坑,2026-07-19,24.849664,121.150789,0.19095457
C0FB10,出雲山苗圃,2026-07-19,24.23105,120.90475,5.682936e-09
C0F9Q0,外埔,2026-07-19,24.347817,120.705686,0.118016265
C0K580,高鐵雲林,2026-07-19,23.737456,120.417944,0.28484532
C2I090,鳳凰,2026-07-19,23.728081,120.787347,2.4733278e-09
C0U990,員山,2026-07-19,24.74435,121.72247,0.16149111
C0V770,大社,2026-07-19,22.730306,120.346639,0.5424711
C0X120,麻豆,2026-07-19,23.183289,120.248611,0.83392453
C0C670,龍潭,2026-07-19,24.870056,121.221389,0.21742074
C0D680,香山濕地,2026-07-19,24.783581,120.914988,0.018223312
C0S980,勝林山,2026-07-19,22.430439,120.8938,0.15119411
C0V730,大寮,2026-07-19,22.605614,120.395717,0.34262127
C0R570,麟洛,2026-07-19,22.65078,120.52719,0.26111543
C2M930,石卓,2026-07-19,23.478744,120.702264,3.3071856e-09
C0G9B0,和美,2026-07-19,24.105169,120.492131,0.06646096
C2I240,外大坪,2026-07-19,23.9587,120.91788,2.507863e-09
CAG100,王功漁港,2026-07-19,23.96824,120.32586,0.02865779
C0X290,北門,2026-07-19,23.267772,120.125481,0.5320547
C2F930,大甲,2026-07-19,24.347667,120.640403,0.027905077
C0D650,湖口,2026-07-19,24.904794,121.043628,0.056768727
C0U780,五結,2026-07-19,24.68637,121.79794,0.31209219
C1I250,鯉潭,2026-07-19,23.961922,120.991131,4.131464e-09
C0R130,阿禮,2026-07-19,22.742908,120.743678,5.207709e-09
C0X100,臺南市北區,2026-07-19,23.010394,120.194228,0.6231384
C0S920,金峰嘉蘭,2026-07-19,22.594789,120.960825,0.25241965
C0V490,新興,2026-07-19,22.627422,120.298803,0.2997864
C0F9K0,大安,2026-07-19,24.345061,120.588025,0.025773384
C2E970,八甲,2026-07-19,24.535811,120.795983,0.03281837
C0V440,鳳山,2026-07-19,22.646653,120.356122,0.5155381
C1T940,大觀,2026-07-19,23.714206,121.373133,0.9394824
C0E740,造橋,2026-07-19,24.637056,120.864778,0.06596363
C0R100,尾寮山,2026-07-19,22.833111,120.683889,4.9810542e-09
A2K630,臺大雲林校區,2026-07-19,23.730628,120.423903,0.2849536
467990,馬祖,2026-07-19,26.169467,119.923158,0.052230418
C0D580,寶山,2026-07-19,24.735006,121.025192,0.07671117
E2P990,林試扇平站,2026-07-19,22.9677,120.6857,6.411593e-09
C0AI30,三重,2026-07-19,25.057328,121.500629,0.9306073
C0AH00,汐止,2026-07-19,25.066881,121.658778,0.18658729
C1Z040,立山,2026-07-19,23.443356,121.327375,0.98376554
466881,新北,2026-07-19,24.959207,121.525196,0.88435215
C0W130,花嶼,2026-07-19,23.40007,119.32276,0.66984135
C0A950,鼻頭角,2026-07-19,25.129036,121.923372,0.9979707
C0K470,林內,2026-07-19,23.748675,120.609642,0.247285
C2F990,摩天嶺,2026-07-19,24.322458,120.936819,5.5443916e-09
C2E430,南庄,2026-07-19,24.601775,121.000214,0.13800403
82C160,茶改場,2026-07-19,24.908472,121.185333,0.05746414
C2TB60,南安,2026-07-19,23.29818,121.26157,0.42091718
C0Z320,清水林道,2026-07-19,23.27125,121.188272,0.99922925
C0R760,南仁湖,2026-07-19,22.084681,120.863353,0.9852985
C0M670,大林,2026-07-19,23.600616,120.45841,0.14764829
C0M800,茶山,2026-07-19,23.299075,120.664767,7.972785e-09
C0A9C0,天母,2026-07-19,25.117494,121.537169,0.8927649
72K220,南改斗南分場,2026-07-19,23.634556,120.477333,0.22233313
72AI40,桃改樹林分場,2026-07-19,24.944503,121.386972,0.75932884
C0S910,蘭嶼燈塔,2026-07-19,22.081197,121.503117,0.106069215
C0B050,八斗子,2026-07-19,25.144754,121.79167,0.2648505
C0U900,內城,2026-07-19,24.71813,121.68766,0.32068273
C0X320,柳營,2026-07-19,23.253328,120.375253,0.15132967
C0M790,新港,2026-07-19,23.553269,120.345728,0.3568323
C0F9T0,西屯,2026-07-19,24.179494,120.641275,0.040234637
C0E950,松安,2026-07-19,24.39792,120.98599,8.472542e-09
C0SA30,都歷,2026-07-19,23.020333,121.323642,0.55362713
C0C620,蘆竹,2026-07-19,25.084275,121.265767,0.044400156
C0R730,大坪頂,2026-07-19,22.024633,120.69355,0.7116079
C0AJ40,石門,2026-07-19,25.273672,121.601198,0.032562267
C0E750,苗栗,2026-07-19,24.564569,120.824575,0.040671322
C0T870,鯉魚潭,2026-07-19,23.935639,121.508944,0.035663813
C1V170,排雲,2026-07-19,23.463619,120.954147,1.3206091e-08
C2H950,中寮,2026-07-19,23.884447,120.766406,0.092487656
C0R350,貓鼻頭,2026-07-19,21.921774,120.7358,0.051057618
C0V660,岡山,2026-07-19,22.797078,120.294958,0.4131058
C1H941,雙冬,2026-07-19,23.967378,120.802189,2.0550652e-09
C0AJ70,田寮,2026-07-19,25.2698,121.4886,0.031753916
C0AI00,五股,2026-07-19,25.07445,121.42728,0.9413937
C0Z280,德武,2026-07-19,23.47426,121.41071,0.35400477
C2RA10,大新,2026-07-19,22.67558,120.57788,0.0014017606
C0C460,復興,2026-07-19,24.820208,121.352281,0.1358681
C2AA10,中八仙,2026-07-19,25.11576,121.49199,0.85564053
E2H360,蓮華池,2026-07-19,23.918333,120.885278,3.5733567e-09
C0M640,中埔,2026-07-19,23.42538,120.5229,0.34961742
C2C810,八德蔬果,2026-07-19,24.97858,121.28187,0.067976765
C2M9F0,安溪寮,2026-07-19,23.350334,120.208039,0.39493212
C0W140,金沙,2026-07-19,24.488292,118.408778,0.5962019
C2A540,四堵,2026-07-19,24.8926,121.745736,8.352793e-09
C0ACA0,新莊,2026-07-19,25.051478,121.446756,0.78115064
C0R220,潮州,2026-07-19,22.534361,120.54,0.29302397
U2HA40,臺大內茅埔,2026-07-19,23.689722,120.851117,7.901722e-09
467490,臺中,2026-07-19,24.145736,120.684075,0.0026627632
C0UB60,明池,2026-07-19,24.650688,121.475277,2.6331062e-08
C0U960,翠峰湖,2026-07-19,24.510856,121.608044,5.3374327e-09
E2HA20,林試畢祿溪站,2026-07-19,24.226944,121.308522,2.7386746e-09
C2M9A0,大華,2026-07-19,23.4824,120.67491,1.9849313e-09
C0V890,前鎮,2026-07-19,22.5718,120.3117,0.3712406
C1F941,雪嶺,2026-07-19,24.280586,121.026642,9.0741725e-09
C2H9E0,國姓南港,2026-07-19,23.911108,120.846556,2.3560316e-09
C0AC80,文山,2026-07-19,25.00235,121.575728,0.8863963
C0F9R0,龍井,2026-07-19,24.184536,120.528972,0.033874664
C0M760,民雄,2026-07-19,23.551754,120.428457,0.14764829
C0UA40,西德山,2026-07-19,24.560647,121.752608,1.7136662e-08
C2TA70,赤科坪,2026-07-19,23.39885,121.39168,0.07721243
C1T920,中興,2026-07-19,23.769503,121.498653,0.10958634
C0D550,雪霸,2026-07-19,24.526972,121.11605,2.250772e-08
C2F860,梨山,2026-07-19,24.247522,121.243669,3.666157e-09
C0R320,車城,2026-07-19,22.0744,120.716247,0.09078215
C1S870,南美山,2026-07-19,23.15025,121.382333,0.5733039
C0B020,基隆嶼,2026-07-19,25.19141,121.78391,0.3329146
C1U501,牛鬥,2026-07-19,24.637836,121.573656,1.1757869e-05
C0M730,嘉義市東區,2026-07-19,23.457673,120.460531,0.14299054
C2R990,泰武,2026-07-19,22.60686,120.69765,5.418283e-08
C0S700,知本,2026-07-19,22.684866,121.005642,0.013539629
C1N001,沙崙,2026-07-19,22.935472,120.309406,0.9598335
C0V760,橋頭,2026-07-19,22.757806,120.30575,0.5384252
C2V570,吉東,2026-07-19,22.85418,120.54539,0.72581005
C0G960,福寶,2026-07-19,24.0443,120.3814,0.08899217
C0X210,白河,2026-07-19,23.347466,120.414427,0.16958004
C0S810,東河,2026-07-19,22.972672,121.303986,0.6123744
C2R170,屏東,2026-07-19,22.66027,120.49403,0.26111543
C0R670,楓港,2026-07-19,22.190131,120.692156,0.074800715
C0FA50,霧峰,2026-07-19,24.0419,120.6995,0.012576935
C0UB10,蘇澳,2026-07-19,24.5969,121.8571,0.0025807556
C0G950,防潮門,2026-07-19,24.1835,120.4871,0.05073257
C0M740,六腳,2026-07-19,23.492871,120.290625,0.35989574
C1R250,力里,2026-07-19,22.428117,120.629228,0.9538978
C0K330,虎尾,2026-07-19,23.719183,120.442036,0.2904594
C2FA00,烏石坑,2026-07-19,24.273503,120.947617,5.528003e-09
C0V620,永安,2026-07-19,22.82315,120.236856,0.4074977
C1I330,楓樹林,2026-07-19,23.986803,121.076117,3.4718688e-09
C0W200,湖西,2026-07-19,23.596314,119.67275,0.7727195
72Q010,高雄農改場,2026-07-19,22.709333,120.525889,0.319143
C2K301,鹿南,2026-07-19,23.643341,120.3683,0.2627732
C0C680,龜山,2026-07-19,25.02846,121.38656,0.8978107
C2V260,月眉,2026-07-19,22.971003,120.539853,0.7365286
C0V450,鳳森,2026-07-19,22.545064,120.392592,0.2736981
C0FA90,小雪山林道,2026-07-19,24.29515,121.03651,1.0727837e-08
C0U720,南山,2026-07-19,24.43742,121.38167,1.3344849e-08
A2N290,臺南蘭花園區,2026-07-19,23.340258,120.379661,0.14920162
C0R560,新園,2026-07-19,22.5434,120.461558,0.24814865
C0U890,三星,2026-07-19,24.66812,121.65302,0.14886087
C1V300,御油山,2026-07-19,23.001983,120.715364,6.6099224e-09
C0U600,礁溪,2026-07-19,24.817539,121.765608,0.034166932
C1T980,龍澗,2026-07-19,24.023289,121.411328,1.0531325e-08
C0R700,枋山,2026-07-19,22.247814,120.660794,0.06303965
C0D670,海天一線,2026-07-19,24.831986,120.914438,0.01810537
C0SA00,歷坵,2026-07-19,22.520969,120.89185,0.8412366
C0M710,東石,2026-07-19,23.458927,120.15385,0.17629687
C0M780,鹿草,2026-07-19,23.41134,120.30835,0.28519273
C0U520,雙連埤,2026-07-19,24.753033,121.641303,1.4287934e-08
C0B010,七堵,2026-07-19,25.094819,121.71713,0.35024962
C0R480,長治,2026-07-19,22.693128,120.542622,0.004675747
C1V830,國三S383K,2026-07-19,22.781967,120.426475,0.8142088
12Q980,恆春工作站,2026-07-19,22.079678,120.714425,0.09078215
C1O940,東山服務區,2026-07-19,23.286016,120.398472,0.14896503
C1U840,東澳嶺,2026-07-19,24.5378,121.8485,4.322486e-08
C1D630,飛鳳山,2026-07-19,24.766464,121.119178,4.327797e-06
C0S940,石寧山,2026-07-19,23.223772,121.406639,0.39116523
C0K410,北港,2026-07-19,23.573957,120.292802,0.37460083
C2M620,瑞里,2026-07-19,23.545133,120.675197,2.7476794e-09
C0SB70,小港漁港,2026-07-19,23.158558,121.400431,0.27420223
C2O950,安南,2026-07-19,23.076694,120.144861,0.5190768
C0F0E0,南湖圈谷,2026-07-19,24.363714,121.444667,1.565874e-08
467610,成功,2026-07-19,23.097486,121.373428,0.30070633
C0G890,伸港,2026-07-19,24.148933,120.484403,0.05074628
C2E540,龍溪,2026-07-19,24.606489,120.783933,0.0463412
C1V200,梅山,2026-07-19,23.268447,120.823556,3.2406404e-09
C0T9H0,加路蘭山,2026-07-19,23.682947,121.5274,0.37819847
C2O930,玉井,2026-07-19,23.126042,120.46055,0.046855774
C1F911,新伯公,2026-07-19,24.221361,120.841069,8.302015e-09
C0X200,左鎮,2026-07-19,23.056758,120.408522,0.500374
C2TB50,麻汝,2026-07-19,23.42554,121.39358,0.45562866
C0FA60,鞍馬山工作站,2026-07-19,24.267064,121.000793,1.0045975e-08
C0SB50,叭嗡嗡,2026-07-19,23.047062,121.343223,0.29296023
C2R550,新埤,2026-07-19,22.467947,120.582894,0.8771279
C1F891,稍來,2026-07-19,24.265689,121.001142,9.740032e-09
C2M9C0,紫雲,2026-07-19,23.494914,120.540253,0.14166187
72N240,七股研究中心,2026-07-19,23.081672,120.062894,0.45135006
C0C700,中壢,2026-07-19,24.977661,121.256375,0.062811404
C0M690,水上,2026-07-19,23.419734,120.388909,0.1746085
C0V690,鼓山,2026-07-19,22.623325,120.275575,0.2997864
C0O860,大內,2026-07-19,23.11885,120.36083,0.7444575
C0Z200,萬榮,2026-07-19,23.709219,121.420106,0.20119047
C0T9D0,和中,2026-07-19,24.26676,121.74103,0.750846
C2S9A0,北份子寮,2026-07-19,22.78561,121.07813,0.3513042
C1O921,楠西,2026-07-19,23.183511,120.484083,0.057224575
C0AJ30,淡水觀海,2026-07-19,25.184591,121.408616,0.050922208
C0V810,左營,2026-07-19,22.67491,120.28491,0.36368668
C0UA70,桃源谷,2026-07-19,24.962606,121.888875,7.1656423e-06
C0X130,官田,2026-07-19,23.193217,120.315422,0.6599634
C1H000,翠峰,2026-07-19,24.109397,121.205211,3.7543146e-09
C0UA90,石城,2026-07-19,24.980444,121.951214,0.9976486
C1E681,南勢山,2026-07-19,24.421669,120.923831,3.968585e-09
C0A9F0,內湖,2026-07-19,25.079422,121.57545,0.88805646
C0K291,宜梧,2026-07-19,23.536281,120.169329,0.17884248
C1K540,口湖,2026-07-19,23.585344,120.180517,0.17228894
C0R780,滿州,2026-07-19,22.024403,120.839892,0.19109672
C0V870,文安,2026-07-19,22.8025,120.2164,0.39723328
C0U650,玉蘭,2026-07-19,24.675286,121.587061,3.0781138e-08
C0R640,東港,2026-07-19,22.46247,120.44074,0.26973805
C0AJ80,板橋,2026-07-19,25.0107,121.4489,0.8806642
C0S660,下馬,2026-07-19,23.150427,121.070312,0.7466236
C2N190,烏樹,2026-07-19,23.32393,120.36989,0.5180328
C1H9B1,阿眉,2026-07-19,24.1263,120.994672,6.8247665e-09
C0UA20,多加屯,2026-07-19,24.368614,121.373189,6.6024883e-09
C0E730,頭份,2026-07-19,24.688247,120.912206,0.1072424
72V140,高改旗南分場,2026-07-19,22.857861,120.516667,0.9900353
C2R490,九如,2026-07-19,22.74049,120.490555,0.319143
C0K480,莿桐,2026-07-19,23.761192,120.502372,0.28944662
C0U980,坪林石牌,2026-07-19,24.86478,121.77396,3.9591646e-09
C0T900,西林,2026-07-19,23.8119,121.441458,0.19728924
C1I150,青雲,2026-07-19,23.793361,120.949378,7.173799e-09
C2E980,和興,2026-07-19,24.505319,120.923016,2.9686628e-08
467350,澎湖,2026-07-19,23.565503,119.563094,0.8445251
C0G800,埔鹽,2026-07-19,24.000394,120.431683,0.090785004
C0H960,草屯,2026-07-19,23.973672,120.68085,0.38094822
C1V780,多納林道,2026-07-19,22.888028,120.737917,5.2065965e-09
C0E920,通霄漁港,2026-07-19,24.498589,120.673876,0.01872415
C0Z330,安通山,2026-07-19,23.290728,121.348528,0.9912044
C0AH10,永和,2026-07-19,25.01125,121.508111,0.8805905
C0AK10,太平里,2026-07-19,25.134937,121.364899,0.22978865
C2G640,鹿港,2026-07-19,24.0753,120.430481,0.06642292
C1E890,國三N149K,2026-07-19,24.463414,120.680019,0.016939709
C1M870,國三N285K,2026-07-19,23.550319,120.505833,0.14623013
C1E480,鳳美,2026-07-19,24.554803,121.034747,5.5075468e-08
C0T9M0,靜浦,2026-07-19,23.455167,121.495028,0.09977348
C2H9M0,發祥,2026-07-19,24.154094,121.164517,2.262198e-09
C2G9C0,埔南,2026-07-19,23.99124,120.46969,0.090785004
C0AI40,石牌,2026-07-19,25.115597,121.513139,0.8880565
C1F871,上谷關,2026-07-19,24.203483,121.018644,5.5239453e-09
C2H9G0,百勝,2026-07-19,24.051142,120.909361,3.0148128e-09
C0G880,二水,2026-07-19,23.810742,120.6173,0.21422336
C0R940,加祿堂,2026-07-19,22.3363,120.6217,0.96472394
C0W220,北竿,2026-07-19,26.220358,119.974881,0.13574168
C0O960,崎頂,2026-07-19,22.959547,120.369317,0.97124857
C0TA40,秀林,2026-07-19,24.302864,121.731144,6.8566504e-07
C0S750,向陽,2026-07-19,23.248397,120.986133,3.0909315e-09
C0T9F0,水璉,2026-07-19,23.797131,121.542514,0.47543406
C1M600,頭凍,2026-07-19,23.406364,120.603339,1.5817677e-09
467660,臺東,2026-07-19,22.752211,121.154586,0.41824767
C1D380,新埔,2026-07-19,24.84745,121.03834,0.0677559
C2G980,田頭村,2026-07-19,23.8263,120.444175,0.34380063
C0V750,路竹,2026-07-19,22.854997,120.259439,0.4226088
C0N050,蚵寮,2026-07-19,23.301,120.1104,0.5320547
C2X060,下營,2026-07-19,23.226806,120.256291,0.6304783
72M700,南改鹿草分場,2026-07-19,23.416869,120.283061,0.28187138
C1SA50,利嘉林道,2026-07-19,22.82325,121.009389,8.524753e-09
C0UB70,太平山中間站,2026-07-19,24.542003,121.513453,1.8054616e-08
C0A940,金山,2026-07-19,25.223628,121.643967,0.0017958166
C1V340,大津,2026-07-19,22.888322,120.645986,2.1651924e-05
C0W180,七美,2026-07-19,23.219333,119.444892,0.46621162
C1F9C1,白冷,2026-07-19,24.182844,120.929889,3.8467194e-09
K2E710,苗改生物防治研究中心,2026-07-19,24.422861,120.871833,2.2439828e-07
C0N040,蘆竹溝,2026-07-19,23.2344,120.0961,0.5214201
C0TB40,崇德,2026-07-19,24.166144,121.657414,0.93967223
C0D760,大坪苗圃,2026-07-19,24.5362,121.1108,1.9597614e-08
C2D430,峨眉,2026-07-19,24.6905,121.017189,0.06550332
C2W230,畜試所澎湖,2026-07-19,23.628342,119.513206,0.9500594
C0R880,後壁湖,2026-07-19,21.9457,120.7457,0.04727719
C1I280,埔中,2026-07-19,23.820778,120.642594,0.95033455
467790,墾丁雷達站,2026-07-19,21.948235,120.808028,0.07021529
C0W190,望安,2026-07-19,23.380564,119.494075,0.8386632
C0Z170,卓溪,2026-07-19,23.3443,121.3029,0.40287903
C0F850,東勢,2026-07-19,24.246428,120.833047,1.0988694e-08
466900,淡水,2026-07-19,25.164889,121.448906,0.11604489
C0I370,魚池,2026-07-19,23.895703,120.94135,2.936718e-09
C0C630,大溪,2026-07-19,24.882853,121.265547,0.060750138
C0A520,山佳,2026-07-19,24.974944,121.402008,0.7307469
C0I110,竹山,2026-07-19,23.761225,120.688156,0.27805725
82H840,茶改南部分場,2026-07-19,23.762528,120.7405,0.8913263
C2SD80,再來山,2026-07-19,23.34371,121.44122,0.7681075
C0G660,溪湖,2026-07-19,23.94835,120.479122,0.24738927
C1T800,洛韶,2026-07-19,24.204558,121.453956,2.652987e-07
C1T810,慈恩,2026-07-19,24.192044,121.388386,2.5516937e-09
C1E451,象鼻,2026-07-19,24.368617,120.940228,3.9685926e-09
C0AC60,三峽,2026-07-19,24.939025,121.369728,0.20957695
C0I490,萬大林道,2026-07-19,23.928228,121.091411,4.2417185e-09
C1I290,豐丘,2026-07-19,23.668178,120.887417,7.961145e-09
C1I320,奧萬大,2026-07-19,23.952956,121.178556,2.629005e-09
C2M910,嘉義大學,2026-07-19,23.471325,120.485903,0.15017779
C0U770,南澳,2026-07-19,24.44935,121.81022,0.018225173
C2TB30,吉安,2026-07-19,23.94538,121.54803,0.035667636
C0A980,社子,2026-07-19,25.109508,121.469681,0.44749245
C0V800,六龜,2026-07-19,22.997889,120.633583,1.6013475e-07
C1G9D0,國一S218K,2026-07-19,23.890641,120.493253,0.27987653
C0E570,白沙屯,2026-07-19,24.549447,120.696803,0.02248698
C2F9A0,中竹林,2026-07-19,24.103556,120.751061,6.8550072e-09
C0FA40,臺中電廠,2026-07-19,24.2146,120.4907,0.035160106
C2G9A0,畜試所彰化,2026-07-19,23.86045,120.557964,0.32520026
C0H9C0,合歡山,2026-07-19,24.143442,121.272547,1.0767011e-08
G2M350,農試溪口農場,2026-07-19,23.58565,120.408111,0.14299428
C0U860,頭城,2026-07-19,24.85323,121.8308,0.0007183368
C0R580,南州,2026-07-19,22.48591,120.50274,0.18508302
C0G780,秀水,2026-07-19,24.03405,120.503869,0.21402794
72N100,臺南農改場,2026-07-19,23.0605,120.342194,0.65089315
C0S900,蘭嶼高中,2026-07-19,22.04909,121.51214,0.08317911
C2TA60,六十石,2026-07-19,23.22477,121.31861,0.045721576
C1F9W0,德基,2026-07-19,24.254783,121.190261,4.4973048e-09
C2M980,安和,2026-07-19,23.51377,120.31593,0.35989574
C1Z120,壽豐,2026-07-19,23.870853,121.508081,0.07530127
C0W160,烏坵,2026-07-19,24.9944,119.44956,0.10649415
C1I550,國六W023K,2026-07-19,23.979067,120.867742,3.5113068e-09
C0R870,興海,2026-07-19,21.9752,120.8439,0.06357324
C0R140,瑪家,2026-07-19,22.682903,120.686639,1.1391508e-08
C0A530,坪林,2026-07-19,24.938183,121.70975,6.380323e-07
C0X260,後壁,2026-07-19,23.366358,120.362326,0.48892537
C0Z230,和平,2026-07-19,24.30717,121.77007,0.7031624
C0G770,福興,2026-07-19,24.041289,120.437669,0.090785004
C0H9A0,神木村,2026-07-19,23.532742,120.843667,4.3242405e-09
C0I460,南投,2026-07-19,23.911469,120.687331,0.37246862
C0I480,梅峰,2026-07-19,24.085272,121.173572,3.518279e-09
C2D770,巨埔,2026-07-19,24.84435,121.11442,0.07688366
C2A560,福山,2026-07-19,24.776203,121.502811,4.0455177e-08
C0AH30,五分山,2026-07-19,25.07125,121.780794,3.291654e-09
C0FA10,松柏,2026-07-19,24.429115,120.617482,0.021498641
72S200,東改班鳩分場,2026-07-19,22.829528,121.077694,0.9136374
72HA00,中改埔里分場,2026-07-19,23.903208,120.963364,3.0639133e-09
C2H9W0,大坪頂農水,2026-07-19,24.043122,120.932781,2.7790925e-09
C0C650,平鎮,2026-07-19,24.897503,121.214636,0.12748204
C0S930,延平,2026-07-19,22.902581,121.084058,0.67019045
C0UA60,樟樹山,2026-07-19,24.41393,121.78325,0.00036861954
C2UC10,出水溪,2026-07-19,24.615822,121.652253,6.2491104e-08
C1S670,摩天,2026-07-19,23.199503,121.027,1.1925786e-05
C2C590,觀音,2026-07-19,25.027072,121.153317,0.03425451
C0V630,茄萣,2026-07-19,22.906642,120.182608,0.39757788
466940,基隆,2026-07-19,25.133314,121.740475,0.2891239
C0X050,東河,2026-07-19,23.296598,120.385608,0.14920162
C0R770,保力,2026-07-19,22.071122,120.764111,0.39136505
G2L020,農試嘉義分所,2026-07-19,23.485028,120.473806,0.15211253
C0X240,關子嶺,2026-07-19,23.331169,120.508025,0.013607575
C0I380,集集,2026-07-19,23.828206,120.801467,0.14298858
466990,花蓮,2026-07-19,23.975128,121.613275,0.07865394
C1V220,小關山,2026-07-19,23.154217,120.813603,5.5084683e-09
C1F9G1,慶福山,2026-07-19,24.180853,120.848378,3.379239e-09
C0FB20,雪山橋,2026-07-19,24.23192,120.9786,8.923749e-09
C0Z250,瑞穗林道,2026-07-19,23.49284,121.30688,0.001176348
C0D590,新豐,2026-07-19,24.87068,120.97721,0.016474804
C2N200,口宵里,2026-07-19,23.15987,120.45988,0.71959955
C0A870,五指山,2026-07-19,25.132153,121.608692,0.008736571
C0UA50,西帽山,2026-07-19,24.555361,121.802628,4.7656208e-08
C2R980,竹田國中,2026-07-19,22.61532,120.52412,0.27602097
C0X160,仁德,2026-07-19,22.968258,120.257689,0.6197233
C1H971,六分寮,2026-07-19,23.92507,120.6378,0.95958906
C2D790,石鹿,2026-07-19,24.56551,121.15841,6.231982e-08
C0W120,西嶼,2026-07-19,23.5626,119.468436,0.872204
C0G650,員林,2026-07-19,23.946503,120.585597,0.23730646
C0AD50,鶯歌,2026-07-19,24.951533,121.346294,0.19476897
C2H9Q0,北東眼山,2026-07-19,24.120939,121.189303,3.3080436e-09
C2H9T0,名間竹圍,2026-07-19,23.859914,120.637572,0.8452452
C0S990,山豬窟,2026-07-19,22.318619,120.857372,1.3092737e-06
C0X190,安平,2026-07-19,22.993161,120.152181,0.5938325
C0K400,斗六,2026-07-19,23.720583,120.541127,0.2929063
12J990,口湖工作站,2026-07-19,23.589978,120.180394,0.17228894
C0O830,北寮,2026-07-19,23.079561,120.495008,4.3113843e-05
C1D410,白蘭,2026-07-19,24.579364,121.079947,2.688078e-08
C0S970,加津林,2026-07-19,22.416211,120.926942,0.38142562
C0D700,關西,2026-07-19,24.7977,121.1732,0.07371019
C0U750,龜山島,2026-07-19,24.841667,121.953133,3.2421816e-08
C0R810,內獅,2026-07-19,22.305064,120.642986,0.06303965
C2EA10,拉庫斯,2026-07-19,24.53637,121.02137,3.642072e-08
C1M390,龍美,2026-07-19,23.406728,120.654417,2.5166318e-09
C2K290,崙內,2026-07-19,23.69525,120.35601,0.2627732
C2FB60,頭櫃山,2026-07-19,24.129842,120.858925,5.9260907e-09
C1H840,國三N238K,2026-07-19,23.841008,120.707711,0.39663553
CAQ030,崎峰國小,2026-07-19,22.42565,120.49521,0.18508302
C2E520,大湖,2026-07-19,24.414939,120.870872,2.5381917e-07
467530,阿里山,2026-07-19,23.508208,120.813242,7.18574e-09
C1E691,南湖,2026-07-19,24.40135,120.837533,3.010509e-09
C0FA30,梧棲,2026-07-19,24.256003,120.523381,0.033874664
C1V231,高中,2026-07-19,23.134911,120.716711,4.2645136e-09
C0AK30,硬漢嶺,2026-07-19,25.136097,121.426372,0.0015251256
C0F9V0,新社,2026-07-19,24.200172,120.815806,4.112485e-09
C0H890,埔里,2026-07-19,23.972169,120.952425,6.2648366e-09
C0R690,墾丁,2026-07-19,21.966756,120.810269,0.70369536
C0SD20,富山,2026-07-19,22.822383,121.190825,0.08285412
C0F0D0,審馬陣,2026-07-19,24.381675,121.4203,1.1448227e-08
C2W030,金門農試所,2026-07-19,24.448431,118.451786,0.2801519
C0R820,白鷺,2026-07-19,22.454275,120.666219,5.862574e-06
C0FB00,大雪山,2026-07-19,24.254668,121.007374,1.0093549e-08
C2O880,南化,2026-07-19,23.17332,120.59413,1.6826544e-07
C1V190,南天池,2026-07-19,23.27403,120.91176,3.790854e-09
C0E940,雪見,2026-07-19,24.42595,121.01347,1.1396637e-08
K2E360,苗栗農改場,2026-07-19,24.495722,120.829111,0.14902
CAJ050,海口故事園區,2026-07-19,23.57543,120.14121,0.17228894
C2K280,四湖,2026-07-19,23.6304,120.22717,0.12327871
C2H9D0,三隻寮,2026-07-19,24.093078,120.861578,1.4191076e-09
C0O990,媽廟,2026-07-19,22.99175,120.293525,0.5901782
C0Z220,和平林道,2026-07-19,24.343922,121.656317,0.122637905
C0TA10,花蓮漁港,2026-07-19,23.995322,121.638331,0.08961947
72C440,桃園農改場,2026-07-19,24.950944,121.030583,0.061003704
C1E711,馬拉邦山,2026-07-19,24.367306,120.901656,2.7669962e-09
C0SB20,富岡,2026-07-19,22.792467,121.192669,0.09074144
C0D560,竹東,2026-07-19,24.767147,121.057881,0.09141138
C0F9U0,南屯,2026-07-19,24.137006,120.637969,0.07532558
C2SD60,明峰,2026-07-19,22.8671,121.11825,0.97291005
C0M720,番路,2026-07-19,23.464657,120.554156,0.4177978
C0F0A0,雪山圈谷,2026-07-19,24.388594,121.236339,2.756247e-08
C1A9N0,四十份,2026-07-19,24.934158,121.593283,3.5525846e-07
C0U760,東澳,2026-07-19,24.52196,121.83318,0.012789923
C0X230,鹽水,2026-07-19,23.272621,120.247641,0.39493212
C2H9H0,苗改南投蜂場,2026-07-19,23.852589,120.693481,0.20590243
C2TB70,達谷寮,2026-07-19,23.38,121.35968,0.62645835
C0R950,萬隆國小,2026-07-19,22.507667,120.587817,0.9116926
467540,大武,2026-07-19,22.35572,120.90374,0.0077616205
C0V370,古亭坑,2026-07-19,22.893178,120.401947,0.928403
C1I340,新興橋,2026-07-19,23.563333,120.868728,2.2904099e-09
C2C480,桃園,2026-07-19,24.992425,121.323172,0.067976765
C0SA80,土坂,2026-07-19,22.453108,120.887572,0.14824736
C0R160,鹽埔,2026-07-19,22.739558,120.530778,0.31914297
C0AC40,大屯山,2026-07-19,25.175675,121.522408,1.40046605e-08
466850,五分山雷達站,2026-07-19,25.071182,121.781205,3.2514256e-09
C2H9L0,馬烈霸,2026-07-19,24.1512,121.201772,3.1717537e-09
C1AI50,國三N016K,2026-07-19,25.034164,121.619664,0.7962865
C2V920,匏子寮,2026-07-19,23.04905,120.55319,1.1752282e-06
C1V600,藤枝,2026-07-19,23.071961,120.757042,6.401414e-09
C1E601,南勢,2026-07-19,24.572486,120.734842,0.017304374
C0O980,新市,2026-07-19,23.061614,120.298197,0.6349842
C0K420,西螺,2026-07-19,23.800407,120.467394,0.3544186
C0Z050,佳心,2026-07-19,23.34567,121.21316,0.977471
C0AD30,蘆洲,2026-07-19,25.086594,121.472331,0.7178165
C0V610,梓官,2026-07-19,22.760558,120.267211,0.4131058
K2F750,種苗改良場,2026-07-19,24.225972,120.800917,4.2091988e-09
C0UA80,大溪漁港,2026-07-19,24.941801,121.902955,0.97624564
C1AI60,國一39K邊坡,2026-07-19,25.064361,121.383836,0.95107955
C0W150,金寧,2026-07-19,24.457703,118.328989,0.46864852
C0R960,內埔,2026-07-19,22.608483,120.570714,0.27793488
C2H9S0,龍南,2026-07-19,23.953536,120.833183,1.3481303e-09
C0AH40,平等,2026-07-19,25.129142,121.577086,2.3666738e-07
C0R540,佳冬,2026-07-19,22.419456,120.552375,0.19366667
466950,彭佳嶼,2026-07-19,25.627975,122.079744,0.9826625
C0A890,雙溪,2026-07-19,25.036003,121.864242,0.51958233
C0AH50,林口,2026-07-19,25.072181,121.38084,0.9526768
A2K360,水試臺西試驗場,2026-07-19,23.717231,120.190522,0.13845637
C2M960,外寮,2026-07-19,23.562643,120.665688,2.6273708e-09
C0F9S0,烏日,2026-07-19,24.107058,120.624103,0.0039655175
C2N180,鹿陶洋,2026-07-19,23.14325,120.48352,0.057224516
C0C490,八德,2026-07-19,24.928708,121.283289,0.068986855
C0R190,赤山,2026-07-19,22.592333,120.614306,0.30012456
C0T820,天祥,2026-07-19,24.179597,121.495639,0.88703406
C1F9E1,龍安,2026-07-19,24.1605,120.831961,3.776694e-09
C2SD50,順那,2026-07-19,23.04166,121.29332,0.6837948
C0V820,小林,2026-07-19,23.148408,120.63325,9.550531e-09
C2G870,芳苑,2026-07-19,23.922303,120.320025,0.0712102
C0E850,大河,2026-07-19,24.618069,120.948578,0.059613507
C1U670,寒溪,2026-07-19,24.634,121.71691,0.18996193
C0N020,城西,2026-07-19,23.0568,120.0956,0.49993268
C1Z110,三棧,2026-07-19,24.11557,121.60501,0.44459483
C0R280,檳榔,2026-07-19,22.076078,120.836777,0.98470384
C2H9J0,中台,2026-07-19,23.9996,120.938739,2.8118357e-09
C0F9L0,后里,2026-07-19,24.310436,120.729725,0.06055236
467441,高雄,2026-07-19,22.730432,120.312516,0.5424711
C2N210,岩坑,2026-07-19,23.24614,120.47458,0.3679287
C0Z180,新城,2026-07-19,24.040486,121.604878,0.07760716
C0D540,橫山,2026-07-19,24.71116,121.11693,0.0789583
C1D420,太閣南,2026-07-19,24.632808,121.160575,7.443627e-08
C1E770,公館,2026-07-19,24.526914,120.830806,0.037822995
CAN130,水試所海水繁養殖中心,2026-07-19,23.120802,120.07968,0.4511596
C1I430,翠華,2026-07-19,24.191961,121.224339,4.630145e-09
C1M400,菜瓜坪,2026-07-19,23.251928,120.576103,7.902144e-09
C0G730,二林,2026-07-19,23.903325,120.376081,0.11042209
72M360,南改義竹分場,2026-07-19,23.360694,120.279361,0.2867966
V2K620,麥寮合作社,2026-07-19,23.753836,120.294783,0.25177637
C0Z070,舞鶴,2026-07-19,23.46811,121.37407,0.6085951
C0B040,大武崙,2026-07-19,25.166676,121.706993,0.30737385
C1Z030,紅葉,2026-07-19,23.493119,121.338806,0.39269838
C1I050,丹大,2026-07-19,23.753747,121.141147,6.5745027e-09
C0I080,信義,2026-07-19,23.689694,120.851036,7.901722e-09
C2TB80,庄子底,2026-07-19,23.71794,121.49438,0.13195184
C0D750,樂山林道6k,2026-07-19,24.49999,121.08773,1.615802e-08
C2M920,朴子農改,2026-07-19,23.469889,120.259383,0.27524003
C2A880,福隆,2026-07-19,25.017842,121.942083,0.99758184
C0Z160,鳳林,2026-07-19,23.746114,121.453411,0.13846996
C0UB80,翠峰林道6K,2026-07-19,24.49773,121.568625,5.8073035e-09
C0V210,復興,2026-07-19,23.222403,120.806089,8.030873e-09
C0H990,昆陽,2026-07-19,24.121322,121.273642,7.525738e-09
C0R741,獅子,2026-07-19,22.202308,120.705236,0.09668024
C0S710,鹿野,2026-07-19,22.917711,121.122994,0.9590467
C0I530,小奇萊,2026-07-19,24.131764,121.295717,8.37155e-09
C0FA70,大雪山埡口,2026-07-19,24.26867,121.03062,7.728903e-09
C2K630,荷苞,2026-07-19,23.657717,120.595144,0.17101233
C0Z080,富源,2026-07-19,23.587642,121.378225,0.34620354
C2M9E0,旺來山,2026-07-19,23.555153,120.486463,0.14917041
C0SB10,美和,2026-07-19,22.682078,121.060236,0.06510347
C2K620,馬光農場,2026-07-19,23.721453,120.378864,0.28484532
C1I140,卡奈托灣,2026-07-19,23.754364,121.087872,9.279726e-09
C0I520,玉山風口,2026-07-19,23.470489,120.955994,1.5826467e-08
C1G691,下水埔,2026-07-19,23.816114,120.5676,0.31495675
C0X110,臺南市南區,2026-07-19,22.961189,120.188378,0.63779545
C0V680,仁武,2026-07-19,22.701083,120.347722,0.5424711
C2G840,北斗,2026-07-19,23.877586,120.514222,0.28419083
C2TB90,長橋,2026-07-19,23.6874,121.46186,0.14131343
C0R900,竹坑,2026-07-19,22.1385,120.7022,0.074800715
C0G860,社頭,2026-07-19,23.897647,120.5862,0.2255398
C0X150,安定,2026-07-19,23.102614,120.227839,0.67422193
C0R590,里港,2026-07-19,22.77919,120.49459,0.9575169
C0E610,馬都安,2026-07-19,24.451272,120.930192,5.0498152e-09
C0E550,明德,2026-07-19,24.583486,120.885411,0.023460746
C0R150,三地門,2026-07-19,22.709889,120.639944,0.00086502143
C0G910,花壇,2026-07-19,24.032076,120.549461,0.21462741
C1D400,鳥嘴山,2026-07-19,24.71909,121.28387,3.9622943e-08
C0F0B0,石岡,2026-07-19,24.276061,120.777644,0.10831427
C2V250,甲仙,2026-07-19,23.080106,120.591758,1.2600589e-07
C0SA20,金崙山,2026-07-19,22.567419,120.959667,1.2438475e-07
C0V350,溪埔,2026-07-19,22.738578,120.446797,0.7519584
C0M660,溪口,2026-07-19,23.604131,120.403569,0.14299428
C1S880,壽卡,2026-07-19,22.238911,120.858903,0.0038601423
72D680,桃改新埔分場,2026-07-19,24.834444,121.066111,0.06856576
