站號,站名,日期,lat,lon,BLBTSLS
C0R710,龍磐,2026-02-26,21.931672,120.838942,0.89386666
C1F9D1,白毛台,2026-02-26,24.158325,120.886933,3.4990172e-10
C0G940,竹塘,2026-02-26,23.848253,120.386764,1.9654391e-09
467590,恆春,2026-02-26,22.003897,120.746339,0.048149414
C1O850,環湖,2026-02-26,23.148617,120.418633,1.3384283e-08
C0U710,太平山,2026-02-26,24.505486,121.525656,1.0807812e-08
C0E820,獅潭,2026-02-26,24.539133,120.920042,7.532642e-10
C2SD70,二層坪,2026-02-26,22.94105,121.16838,1.5316112e-09
C0V880,興達,2026-02-26,22.8778,120.2127,0.02276674
C0S890,關山,2026-02-26,23.0395,121.175017,1.2303509e-09
C0SB30,新蘭,2026-02-26,22.869214,121.223228,2.0597861e-09
C2R970,屏科大,2026-02-26,22.648275,120.619247,0.9711939
C1Z130,銅門,2026-02-26,23.965694,121.492842,1.3437225e-09
C0AD40,土城,2026-02-26,24.973208,121.445169,7.2498346e-10
CAN140,六官養殖協會,2026-02-26,23.22881,120.29962,3.1013627e-07
C0X180,山上,2026-02-26,23.0757,120.363253,1.0321234e-07
C0F9Z0,雪山東峰,2026-02-26,24.388792,121.268675,1.21383925e-08
C1M480,獨立山,2026-02-26,23.537022,120.607797,5.5098426e-10
C0X220,學甲,2026-02-26,23.230367,120.182187,1.6967505e-08
467650,日月潭,2026-02-26,23.881325,120.90805,8.120312e-10
A2K570,古坑(花卉中心),2026-02-26,23.633531,120.552392,4.764003e-08
C0K600,箔子寮,2026-02-26,23.6197,120.14,2.631001e-07
C0G830,埤頭,2026-02-26,23.866003,120.452806,2.7000753e-09
C0S950,七塊厝,2026-02-26,22.954453,121.229922,1.6034104e-09
467110,金門,2026-02-26,24.407306,118.289281,5.8386793e-09
C0AH80,深坑,2026-02-26,25.002703,121.628328,7.274171e-10
C0A970,三貂角,2026-02-26,25.007606,122.002058,9.1910474e-10
C2D730,寶山農場,2026-02-26,24.732444,120.976153,8.508732e-10
C0K430,褒忠,2026-02-26,23.690938,120.303634,3.4531655e-09
467480,嘉義,2026-02-26,23.495925,120.432906,1.0188582e-07
C0V400,阿公店,2026-02-26,22.804194,120.355528,2.0603613e-07
C0E960,觀霧分站,2026-02-26,24.505781,121.113921,6.211817e-09
467550,玉山,2026-02-26,23.48718,120.95943,2.5528777e-08
C0R440,大漢山,2026-02-26,22.405264,120.753181,1.1281622e-08
C0SD30,東清國小,2026-02-26,22.057128,121.564922,0.9426857
C1F9B1,桐林,2026-02-26,24.066172,120.735194,7.889825e-09
C2H9U0,鳳鵬,2026-02-26,23.763919,120.788061,6.377841e-10
C0K390,土庫,2026-02-26,23.679029,120.395574,4.76771e-09
C1I450,望鄉山,2026-02-26,23.594153,120.944286,1.1287132e-08
C0E910,海埔,2026-02-26,24.648767,120.772435,1.2560325e-09
B2E890,畜試北區分所,2026-02-26,24.527806,120.770972,9.491037e-10
C0R750,四林格山,2026-02-26,22.076989,120.802439,1.6424403e-08
C0F0C0,中坑,2026-02-26,24.248517,120.903319,8.5677665e-10
C1I121,大鞍,2026-02-26,23.678381,120.760017,2.1184687e-09
C2G9E0,移民庄,2026-02-26,23.9784,120.40283,1.6866308e-09
72U480,花改蘭陽分場,2026-02-26,24.686306,121.716583,6.0241884e-10
C0A770,科教館,2026-02-26,25.096356,121.516507,8.271647e-10
C0AJ60,六塊厝,2026-02-26,25.24,121.4481,1.870177e-09
C0R620,墾雷,2026-02-26,21.900836,120.855269,0.8954847
467420,永康,2026-02-26,23.038386,120.2367,0.009095526
C2M530,奮起湖,2026-02-26,23.493903,120.699253,1.484429e-09
C0I410,名間,2026-02-26,23.837053,120.701447,1.5518461e-08
A2C560,農工中心,2026-02-26,24.985917,121.239833,1.6860197e-09
C0V740,旗山,2026-02-26,22.888614,120.483597,3.8093892e-06
C0Z061,玉里,2026-02-26,23.3215,121.339656,1.487683e-09
C0S840,南田,2026-02-26,22.279725,120.889208,0.0006139311
C1I470,杉林溪,2026-02-26,23.639517,120.786444,2.5744158e-09
C1X040,東原,2026-02-26,23.291597,120.463822,5.40149e-10
C0R660,枋寮,2026-02-26,22.367722,120.590647,1.2393227e-08
C1R120,上德文,2026-02-26,22.763272,120.704442,4.3838314e-10
C0K450,大埤,2026-02-26,23.646074,120.431537,3.0138427e-08
C0UA00,土場,2026-02-26,24.576533,121.495333,3.3829732e-09
467080,宜蘭,2026-02-26,24.763975,121.756528,6.5061884e-10
C0N030,四草,2026-02-26,23.0235,120.1116,5.6666597e-08
467410,臺南,2026-02-26,22.99328,120.20492,4.2476427e-07
C0V650,彌陀,2026-02-26,22.783806,120.246361,0.9317537
C0D660,新竹市東區,2026-02-26,24.798681,120.986942,1.0360575e-09
82S580,茶改東部分場,2026-02-26,22.907694,121.130139,1.7735716e-09
C0SB40,興隆,2026-02-26,22.913661,121.257469,2.5083269e-09
467050,新屋,2026-02-26,25.006725,121.047492,2.1647601e-09
C0C710,大溪永福,2026-02-26,24.892936,121.324975,1.00606e-09
C0FA20,溫寮,2026-02-26,24.372177,120.583125,3.006171e-09
C0V640,湖內,2026-02-26,22.887139,120.2445,0.02276674
C0R910,下寮,2026-02-26,22.3929,120.5548,0.7546908
C0Z020,明里,2026-02-26,23.208717,121.262342,2.1064699e-09
C0M770,嘉義梅山,2026-02-26,23.585398,120.555587,1.2574002e-06
C0C660,楊梅,2026-02-26,24.912375,121.143047,9.354484e-10
C0SD40,牛頭山,2026-02-26,22.676661,121.506944,0.01859707
C1E511,新開,2026-02-26,24.347703,120.827019,3.761516e-10
G2F820,農試所(霧峰),2026-02-26,24.031261,120.688133,1.7127578e-08
C2M990,大巃頂,2026-02-26,23.5547,120.61439,8.5643026e-10
C1I070,和社,2026-02-26,23.591131,120.888861,6.034803e-10
C2E990,新坪頂,2026-02-26,24.30201,120.8574,4.2280007e-10
C0TA80,立霧山,2026-02-26,24.183258,121.641899,1.36653515e-08
C2F000,大肚,2026-02-26,24.15295,120.572117,8.363789e-10
C1S850,豐南,2026-02-26,23.122139,121.262389,1.5945294e-09
C2M9B0,西興,2026-02-26,23.2428,120.57617,4.786632e-10
C2A920,富貴角,2026-02-26,25.263783,121.565258,3.4043142e-09
C0T960,光復,2026-02-26,23.660694,121.424964,2.6899745e-09
C0F9M0,豐原,2026-02-26,24.254322,120.720692,5.1608073e-10
C0R720,旭海,2026-02-26,22.205403,120.887614,7.51269e-08
C0V710,苓雅,2026-02-26,22.622742,120.330669,0.9234889
C0C740,觀音工業區,2026-02-26,25.064764,121.114856,2.6236249e-09
CAC040,拉拉山,2026-02-26,24.699317,121.427133,1.4805955e-08
C0V790,萬山,2026-02-26,22.905944,120.688056,1.1754593e-08
U2HA30,臺大和社,2026-02-26,23.590856,120.888864,6.034803e-10
C2H9K0,屯原,2026-02-26,24.067969,121.209389,3.4789218e-09
C0AJ90,澳底,2026-02-26,25.0552,121.9253,8.29541e-10
C0Z100,東華,2026-02-26,23.89525,121.549833,1.1216199e-09
C0G970,三豐,2026-02-26,23.882,120.2895,8.732044e-06
C0V900,汕尾,2026-02-26,22.4782,120.4151,0.06983647
C1R630,龍泉,2026-02-26,22.66701,120.59091,0.9711939
C1AC50,關渡,2026-02-26,25.133486,121.469331,1.883623e-09
C0C800,四稜,2026-02-26,24.64733,121.4293,9.2408685e-09
C0F9I0,神岡,2026-02-26,24.272481,120.658314,1.0343751e-09
C0K460,斗南,2026-02-26,23.678734,120.478359,3.0138427e-08
C2O810,曾文,2026-02-26,23.219681,120.497328,1.2449133e-09
467280,後龍,2026-02-26,24.648563,120.831834,1.1532072e-09
C1F9J1,清水林,2026-02-26,24.071242,120.820419,4.5282028e-10
C2A650,火燒寮,2026-02-26,25.002719,121.742892,1.9287922e-09
466930,竹子湖,2026-02-26,25.162078,121.544547,2.0141062e-09
C1I220,樟湖,2026-02-26,23.905333,120.846983,9.924784e-10
C0I390,仁愛,2026-02-26,24.022122,121.132206,1.2401828e-09
C0Z300,東里,2026-02-26,23.26853,121.30547,1.5040226e-09
C1V590,新發,2026-02-26,23.057019,120.646064,1.4339773e-09
C0K510,水林,2026-02-26,23.572924,120.24597,7.306546e-09
72S590,東改賓朗果園,2026-02-26,22.813889,121.071278,1.8108407e-09
82A750,茶改北部分場,2026-02-26,24.955778,121.631222,3.1437652e-09
C1A750,石碇服務區,2026-02-26,25.00872,121.646242,9.665446e-10
C0X300,鹿寮,2026-02-26,23.386047,120.477331,1.1794929e-08
C0K590,雲林東勢,2026-02-26,23.674192,120.255721,4.553556e-09
C2K310,港尾布雞,2026-02-26,23.74834,120.38439,2.9755887e-09
C0A570,桶後,2026-02-26,24.848222,121.597992,2.9285179e-09
C1S800,華源,2026-02-26,22.657883,121.02325,1.9013897e-09
C0G720,溪州,2026-02-26,23.851589,120.499093,2.7000753e-09
C1V160,達卡努瓦,2026-02-26,23.279811,120.705319,7.5575957e-10
C2M410,馬頭山,2026-02-26,23.324361,120.582017,5.0567134e-10
C0V850,蚵仔寮,2026-02-26,22.7256,120.2527,0.9518903
C0S740,池上,2026-02-26,23.119628,121.209469,1.4676443e-09
C1V390,尖山,2026-02-26,22.813153,120.367789,2.0603613e-07
C0AH70,松山,2026-02-26,25.04871,121.55042,8.271647e-10
C0N010,鯤鯓國小,2026-02-26,23.1879,120.0889,2.6957489e-08
C0R550,新埤,2026-02-26,22.467947,120.582894,6.7376695e-09
C0SA60,知本（水試所）,2026-02-26,22.702394,121.082761,2.599179e-09
C0T9I0,豐濱,2026-02-26,23.583897,121.514806,9.084246e-10
C0UB00,淡江大學蘭陽校園,2026-02-26,24.823239,121.730383,2.261443e-09
C0W240,九宮,2026-02-26,24.423753,118.240186,5.9424123e-09
C0T9N0,富里,2026-02-26,23.171639,121.249378,2.147111e-09
U2HA50,臺大竹山,2026-02-26,23.756972,120.681556,8.354103e-08
C0V840,鳳鼻頭,2026-02-26,22.5083,120.3591,0.042950828
C0X140,西港,2026-02-26,23.125608,120.203108,7.462077e-07
72D080,桃改五峰分場,2026-02-26,24.612194,121.157167,3.4264955e-09
C2H9P0,伊拿谷,2026-02-26,23.963211,121.088264,7.568516e-10
C2K250,崙背,2026-02-26,23.75553,120.31893,3.4531655e-09
C2H9F0,柑林,2026-02-26,24.018658,120.847072,3.93288e-10
C0TA20,加灣,2026-02-26,24.082025,121.608944,2.2092126e-09
C0V530,阿蓮,2026-02-26,22.883208,120.327508,0.001409175
C0FB30,八仙山苗圃,2026-02-26,24.192719,121.001366,8.0182105e-10
C1O880,關山,2026-02-26,23.173397,120.594092,6.5703126e-10
C0E791,卓蘭,2026-02-26,24.3126,120.8244,3.8236747e-10
C1I030,武界,2026-02-26,23.913225,121.052483,6.21984e-10
C0R520,崁頂,2026-02-26,22.514781,120.506914,0.99798334
C0R341,牡丹,2026-02-26,22.130036,120.792639,6.6140865e-07
C0R930,萬丹,2026-02-26,22.5885,120.4851,0.98596376
C0S760,紅石,2026-02-26,23.069131,121.126219,1.4592933e-08
C2C410,中央大學,2026-02-26,24.967652,121.185165,1.6860229e-09
C1M610,石磐龍,2026-02-26,23.496606,120.663506,1.0843777e-09
C0C790,東眼山,2026-02-26,24.8284,121.40888,5.047456e-09
C0UA10,鴛鴦湖,2026-02-26,24.590269,121.412228,1.2842896e-08
C0R800,丹路,2026-02-26,22.204481,120.750989,0.00015631842
C0G920,永靖,2026-02-26,23.924703,120.547533,1.3658413e-09
C2M950,太和,2026-02-26,23.538372,120.702961,1.4664326e-09
C1A630,下盆,2026-02-26,24.771003,121.538622,4.760958e-09
B2N890,畜產試驗所,2026-02-26,23.058972,120.336406,0.00010841243
C0UA30,白嶺,2026-02-26,24.527819,121.519031,7.2044317e-09
467571,新竹,2026-02-26,24.828575,121.01455,1.1588828e-09
C1V580,溪南(特生中心),2026-02-26,23.084972,120.788475,1.8214996e-09
C1T970,大農,2026-02-26,23.615233,121.413331,2.7065308e-09
C0R650,竹田,2026-02-26,22.58486,120.54344,0.99837875
C1H900,清流,2026-02-26,24.080775,120.962997,6.02966e-10
C1C510,水尾,2026-02-26,24.940081,121.087161,1.631188e-09
C2N170,茅港尾,2026-02-26,23.2061,120.2624,3.1013627e-07
C0F9X0,大雅(中科園區),2026-02-26,24.21528,120.62445,3.2752396e-09
C0SB60,白守蓮,2026-02-26,23.126769,121.401914,2.1930742e-09
C0O970,虎頭埤,2026-02-26,23.021375,120.347878,7.7082717e-07
C0C730,中大臨海站,2026-02-26,24.966126,121.008581,1.5812911e-09
C0X250,新營,2026-02-26,23.310689,120.316681,4.4224808e-07
C0V700,三民,2026-02-26,22.645017,120.311233,0.46847963
C0U870,大礁溪,2026-02-26,24.791042,121.675047,2.7202196e-09
C0E870,高鐵苗栗,2026-02-26,24.60725,120.826094,1.1532072e-09
C0TA30,鹽寮,2026-02-26,23.845606,121.592664,1.0984352e-09
C0M860,新美,2026-02-26,23.338017,120.683169,4.7408116e-10
C1E701,八卦,2026-02-26,24.491756,120.927619,1.4605401e-09
C2TA90,加納納,2026-02-26,23.466421,121.359867,1.207689e-09
C0I420,國姓,2026-02-26,24.037803,120.855072,3.9154557e-10
C2D720,關西工作站,2026-02-26,24.757275,121.184792,5.9163413e-10
C0S960,香蘭,2026-02-26,22.587569,120.993375,3.417588e-08
467620,蘭嶼,2026-02-26,22.0369,121.55843,0.998147
C0R260,春日,2026-02-26,22.370361,120.628306,4.003382e-09
72G600,臺中農改場,2026-02-26,24.003028,120.534389,1.986738e-09
C0Z210,瑞穗,2026-02-26,23.5239,121.39021,8.813019e-10
C0M820,達邦,2026-02-26,23.453994,120.749517,7.190878e-10
C0V860,南寮,2026-02-26,22.7616,120.2339,0.95180994
C0G740,大城,2026-02-26,23.852487,120.320935,8.732044e-06
C0R920,塭仔,2026-02-26,22.4169,120.5197,0.75422734
C0R470,高樹,2026-02-26,22.826389,120.600806,0.37902293
C0R680,佳樂水,2026-02-26,21.993578,120.861633,0.89386666
C1O870,大棟山,2026-02-26,23.31157,120.52226,1.0392597e-09
C0D360,梅花,2026-02-26,24.678347,121.208558,1.2675024e-09
C0Z190,富世,2026-02-26,24.14743,121.6297,2.0955667e-08
C0AI10,屈尺,2026-02-26,24.92184,121.54475,7.427962e-10
B2U990,畜試東區分所,2026-02-26,24.669039,121.832561,5.8725513e-10
C0SB80,長濱漁港,2026-02-26,23.313644,121.459994,1.1572857e-09
C0TA50,和仁,2026-02-26,24.241394,121.712472,9.812189e-10
C0V910,大樹,2026-02-26,22.684645,120.432803,0.09401841
C1R610,西大武山,2026-02-26,22.617719,120.7322,3.2613385e-09
C0G900,線西,2026-02-26,24.143358,120.443536,2.6337579e-09
C0M700,竹崎,2026-02-26,23.526178,120.555508,5.671006e-08
C2E880,三義,2026-02-26,24.405478,120.749819,1.1869873e-09
C0C720,竹圍,2026-02-26,25.112692,121.239824,1.6554855e-09
C0F9P0,清水,2026-02-26,24.312297,120.562242,2.5034326e-09
C0Z150,吉安光華,2026-02-26,23.930925,121.595153,1.2204248e-09
C0FA80,小雪山天池,2026-02-26,24.28025,121.02627,1.6208674e-08
467300,東吉島,2026-02-26,23.25727,119.66762,0.99686176
C1D640,外坪(五指山),2026-02-26,24.644447,121.090961,2.0872089e-09
C2R9A0,高士國小,2026-02-26,22.12553,120.84653,6.6140865e-07
C0F9O0,潭子,2026-02-26,24.213106,120.703933,5.1608073e-10
C2H9R0,卓社,2026-02-26,23.887894,121.000086,1.1796341e-09
72T250,花蓮農改場,2026-02-26,23.975222,121.563889,1.2317903e-09
C0E780,銅鑼,2026-02-26,24.489681,120.790853,9.491037e-10
C1T950,太安,2026-02-26,23.666719,121.370128,1.5145133e-08
C0E830,苑裡,2026-02-26,24.439714,120.653053,5.905307e-09
467270,田中,2026-02-26,23.873803,120.581286,1.0763726e-08
C0SA10,檳榔四格山,2026-02-26,22.810031,121.109308,1.852292e-09
C1T830,布洛灣,2026-02-26,24.17184,121.57127,1.4567571e-08
C0F970,大坑,2026-02-26,24.173142,120.722289,3.825705e-09
C1U920,思源,2026-02-26,24.393125,121.347214,6.5479844e-09
C2H9Y0,松茗,2026-02-26,23.8167,120.650765,5.9310634e-10
C0A931,三和,2026-02-26,25.233153,121.595236,1.748718e-09
C0I010,廬山,2026-02-26,24.033311,121.181808,3.4906464e-09
C2M940,日野賀,2026-02-26,23.434056,120.727169,1.0569634e-09
C0R860,鼻頭,2026-02-26,22.1043,120.8979,0.028608132
C0UB20,壯圍,2026-02-26,24.7359,121.8163,6.06595e-10
C0R790,九棚,2026-02-26,22.14195,120.889281,1.169844e-06
C0W110,東莒,2026-02-26,25.9652,119.98069,5.2891863e-08
C1U930,粉鳥林,2026-02-26,24.497088,121.842479,1.1575794e-09
C1I211,蘆竹湳,2026-02-26,23.934019,120.811994,4.7189797e-10
C0S830,長濱,2026-02-26,23.286817,121.411975,1.5883977e-09
C1F9F1,伯公龍,2026-02-26,24.272392,120.849047,3.569295e-10
C0UB90,太平山莊,2026-02-26,24.494171,121.536209,1.095519e-08
C0E810,西湖,2026-02-26,24.562947,120.7485,5.3253245e-08
C1I440,新高口,2026-02-26,23.478744,120.878939,6.182432e-09
C0O840,王爺宮,2026-02-26,23.222064,120.40085,6.500117e-08
C0T9G0,鳳林山,2026-02-26,23.735269,121.420131,1.5116475e-08
C0X080,佳里,2026-02-26,23.173039,120.145086,2.2230356e-08
C0FB70,大甲溪埔,2026-02-26,24.370625,120.620067,3.006171e-09
C0Z310,清水斷崖,2026-02-26,24.218294,121.689142,9.723321e-10
C0M680,太保,2026-02-26,23.455062,120.331455,4.4842785e-08
C1S820,金峰,2026-02-26,22.590969,120.933236,2.0660906e-08
C0AD10,八里,2026-02-26,25.150211,121.403947,2.2193996e-09
C2K240,草嶺,2026-02-26,23.59555,120.693461,1.1647574e-09
C1SA70,都蘭,2026-02-26,22.87794,121.226881,2.0068969e-09
C0K440,二崙,2026-02-26,23.772797,120.408944,2.1149038e-09
C1A760,坪林交控,2026-02-26,24.94284,121.713442,2.0614603e-09
C0F9N0,大里,2026-02-26,24.092464,120.701378,7.5932025e-09
C0SA90,達仁林場,2026-02-26,22.264347,120.823972,1.9192957e-08
C1R290,石門山,2026-02-26,22.112611,120.756597,1.01444286e-07
42HA10,萬大發電廠,2026-02-26,23.978875,121.139639,1.0132779e-09
C0R890,山海,2026-02-26,21.9878,120.7091,0.048149414
C0T9A0,月眉山,2026-02-26,23.809928,121.539828,2.2353137e-09
C0AC70,信義,2026-02-26,25.037822,121.564597,7.971138e-10
C0K560,棋山,2026-02-26,23.68645,120.603417,7.788425e-08
C2FB50,出雲,2026-02-26,24.206469,120.902794,1.1310811e-09
C1Z240,中平林道,2026-02-26,23.42115,121.26763,3.54599e-08
U2H480,溪頭,2026-02-26,23.670306,120.798194,1.0289364e-09
C0M880,好美里,2026-02-26,23.3364,120.138,2.2533923e-08
C0T9E0,大坑,2026-02-26,23.880628,121.581981,1.7465979e-09
C0K530,臺西,2026-02-26,23.701547,120.197559,1.09066576e-07
C1E900,國一N128K,2026-02-26,24.560997,120.844186,8.6447033e-10
C0AJ50,水湳洞,2026-02-26,25.123695,121.862238,8.372663e-10
C0AI20,白沙灣,2026-02-26,25.283128,121.519058,2.9981888e-09
C2V310,美濃,2026-02-26,22.898792,120.51907,3.8093892e-06
C0A860,大坪,2026-02-26,25.165914,121.632969,1.7405386e-09
C1U850,觀音海岸,2026-02-26,24.38319,121.77856,2.4086115e-09
C2K610,草嶺石壁,2026-02-26,23.602469,120.707731,1.2110105e-09
C0U950,鶯子嶺,2026-02-26,24.89754,121.79244,5.2834466e-09
C0O900,善化,2026-02-26,23.112883,120.297219,0.00010841243
C0K550,蔦松,2026-02-26,23.514319,120.229736,1.3968353e-08
E2P980,林試六龜中心,2026-02-26,22.991703,120.645722,9.836238e-08
C0E590,通霄,2026-02-26,24.471892,120.704622,4.9657274e-08
C1I310,西巒,2026-02-26,23.754486,120.883956,1.1332341e-09
C0A550,泰平,2026-02-26,24.971197,121.823711,2.9304064e-09
C0I360,水里,2026-02-26,23.812553,120.849792,3.9894688e-10
C0R830,高士,2026-02-26,22.121825,120.836781,4.7179938e-08
C1I101,溪頭,2026-02-26,23.661789,120.807647,3.0919458e-09
C0AJ20,野柳,2026-02-26,25.20703,121.690021,1.6536897e-09
C0B060,暖暖,2026-02-26,25.0957,121.7403,1.9108022e-09
C1H920,長豐,2026-02-26,24.102039,120.879897,3.917906e-10
C2S9B0,利吉,2026-02-26,22.86246,121.15486,1.7735716e-09
C0V360,內門,2026-02-26,22.975481,120.466769,5.445334e-08
C0R850,林邊,2026-02-26,22.4634,120.5339,0.9703021
C0E930,龍鳳,2026-02-26,24.700034,120.859125,3.176803e-09
C0U910,冬山,2026-02-26,24.63373,121.7937,5.8725513e-10
C1E721,泰安,2026-02-26,24.489017,120.968036,3.2253968e-09
82H320,茶改中部分場,2026-02-26,23.875611,120.913583,6.6724304e-10
C0M750,布袋,2026-02-26,23.380878,120.167789,2.4474296e-08
C1S860,利嘉,2026-02-26,22.809417,121.050528,1.5952056e-08
E2S980,林試太麻里1,2026-02-26,22.598922,120.980044,2.6579775e-08
C0X170,關廟,2026-02-26,22.963017,120.327797,1.0148392e-05
C0V720,林園,2026-02-26,22.507747,120.394511,0.24033183
C1I510,線浸林道,2026-02-26,23.761508,120.832956,1.4504073e-09
C0D690,外湖,2026-02-26,24.917735,120.968711,2.5737108e-07
C0C750,新興坑尾,2026-02-26,25.0061,121.0971,2.179588e-09
B2Q810,畜試南區分所,2026-02-26,21.945583,120.802167,0.89386666
C0S790,金崙,2026-02-26,22.538122,120.966875,2.1719698e-08
C0AH90,福山植物園,2026-02-26,24.760717,121.58135,5.206855e-09
C0I540,奇萊稜線,2026-02-26,24.109231,121.326456,1.44235255e-08
C0M850,表湖,2026-02-26,23.24186,120.64166,4.8169385e-10
C0S770,大溪山,2026-02-26,22.478475,120.943325,1.7077799e-08
C0AG80,中和,2026-02-26,24.991622,121.491792,7.2498346e-10
C0T790,大禹嶺,2026-02-26,24.186117,121.316086,9.359735e-09
C0T9B0,水源,2026-02-26,23.991861,121.537169,2.8839513e-09
C0R840,牡丹池山,2026-02-26,22.168389,120.841225,1.753515e-08
C1I131,桶頭,2026-02-26,23.641944,120.654117,5.5859983e-10
CAL110,布袋國中,2026-02-26,23.35893,120.18026,2.2533923e-08
C2M9D0,何竹子腳,2026-02-26,23.53641,120.38203,1.0188582e-07
C0Z290,赤柯山,2026-02-26,23.36893,121.38293,9.5037755e-09
C0X280,將軍,2026-02-26,23.214999,120.13577,1.8795864e-08
C0S690,太麻里,2026-02-26,22.60902,120.98533,1.3526177e-08
C0U880,北關,2026-02-26,24.9072,121.8734,1.6582064e-09
CAW010,東引,2026-02-26,26.3588,120.4836,7.5129485e-08
C0G810,埔心,2026-02-26,23.947633,120.525456,1.3658413e-09
C0U970,大福,2026-02-26,24.80064,121.81389,6.5061884e-10
C2H9N0,仁愛東眼,2026-02-26,24.026875,121.1205,1.8193677e-09
C1E670,南礦,2026-02-26,24.538278,121.002836,3.5117758e-09
C0M520,東後寮,2026-02-26,23.369908,120.248065,2.0969702e-08
C1E461,松安,2026-02-26,24.397972,120.986022,2.4829465e-09
C2N160,西拉雅風管處,2026-02-26,23.189481,120.335297,9.2324746e-07
C2M970,碧湖,2026-02-26,23.568632,120.624165,8.424324e-10
C0A640,石碇,2026-02-26,24.993969,121.662917,2.0614603e-09
E2S960,林試太麻里2,2026-02-26,22.598,120.99775,3.5333112e-08
C0F9Y0,桃山,2026-02-26,24.432739,121.303808,1.3245848e-08
C1I020,萬大,2026-02-26,23.979817,121.132261,1.2584666e-09
C2UC20,長嶺,2026-02-26,24.70894,121.61162,2.9175014e-09
C0U940,羅東,2026-02-26,24.68184,121.74934,6.0241884e-10
C0M650,朴子,2026-02-26,23.43463,120.23902,1.3823086e-08
C1I500,大尖山,2026-02-26,23.858572,120.994889,2.6799114e-09
C0FB40,中橫21.6k,2026-02-26,24.2499,121.1455,2.8936158e-09
C0G820,田尾,2026-02-26,23.901669,120.509389,1.3658413e-09
E2K600,四湖植物園,2026-02-26,23.676986,120.163433,9.014781e-08
C0S730,綠島,2026-02-26,22.6672,121.47533,0.00073830225
12Q970,東港工作站,2026-02-26,22.479997,120.466058,0.9703021
C1TA00,太魯閣,2026-02-26,24.15773,121.6236,1.9404535e-08
466920,臺北,2026-02-26,25.037658,121.514853,8.271647e-10
C0R600,舊泰武,2026-02-26,22.588194,120.664944,4.5065932e-10
C1I260,北坑,2026-02-26,23.9246,121.006903,4.5484583e-10
466910,鞍部,2026-02-26,25.182586,121.529731,5.1845674e-09
C1I230,九份二山,2026-02-26,23.961944,120.845,6.385607e-10
C2M810,里佳,2026-02-26,23.389125,120.716647,1.4932777e-09
C2A660,瑞芳,2026-02-26,25.113169,121.801147,1.8258371e-09
C0R270,琉球嶼,2026-02-26,22.332244,120.362236,1.2910387e-08
C2V580,瑞山,2026-02-26,22.90304,120.43424,5.972857e-08
C1T990,高寮,2026-02-26,23.394239,121.356808,1.171229e-09
C0G620,芬園,2026-02-26,24.015678,120.6213,1.7211206e-09
C1Z140,荖溪,2026-02-26,23.890575,121.45964,1.4428919e-08
C1I201,中心崙,2026-02-26,23.728722,120.712097,5.5151733e-10
C1I400,凌霄,2026-02-26,24.018778,121.004456,1.9098805e-09
C1M640,十字,2026-02-26,23.492153,120.753683,2.2097224e-09
G2P820,農試鳳山分所,2026-02-26,22.646611,120.356083,0.9234889
C0Z270,蕃薯寮,2026-02-26,23.73835,121.540108,2.4418705e-09
C2E420,竹南,2026-02-26,24.70898,120.88897,3.176803e-09
C0FB10,出雲山苗圃,2026-02-26,24.23105,120.90475,8.5677665e-10
C0F9Q0,外埔,2026-02-26,24.347817,120.705686,6.1553906e-10
C0K580,高鐵雲林,2026-02-26,23.737456,120.417944,2.9755887e-09
C2I090,鳳凰,2026-02-26,23.728081,120.787347,5.550907e-10
C0U990,員山,2026-02-26,24.74435,121.72247,6.0241884e-10
C0V770,大社,2026-02-26,22.730306,120.346639,0.003250932
C0X120,麻豆,2026-02-26,23.183289,120.248611,4.0436473e-07
C0C670,龍潭,2026-02-26,24.870056,121.221389,7.4707013e-10
C0D680,香山濕地,2026-02-26,24.783581,120.914988,2.5737108e-07
C0S980,勝林山,2026-02-26,22.430439,120.8938,1.515545e-08
C0V730,大寮,2026-02-26,22.605614,120.395717,0.9234889
C0R570,麟洛,2026-02-26,22.65078,120.52719,0.9962911
C2M930,石卓,2026-02-26,23.478744,120.702264,2.1445448e-09
C0G9B0,和美,2026-02-26,24.105169,120.492131,1.6015612e-09
CAG100,王功漁港,2026-02-26,23.96824,120.32586,0.00030355284
C0X290,北門,2026-02-26,23.267772,120.125481,1.8759977e-08
C2F930,大甲,2026-02-26,24.347667,120.640403,3.0061766e-09
C0D650,湖口,2026-02-26,24.904794,121.043628,1.631188e-09
C0U780,五結,2026-02-26,24.68637,121.79794,5.8725513e-10
C1I250,鯉潭,2026-02-26,23.961922,120.991131,4.93052e-10
C0R130,阿禮,2026-02-26,22.742908,120.743678,5.194096e-10
C0X100,臺南市北區,2026-02-26,23.010394,120.194228,4.2476427e-07
C0S920,金峰嘉蘭,2026-02-26,22.594789,120.960825,2.6008813e-08
C0V490,新興,2026-02-26,22.627422,120.298803,0.8327964
C0F9K0,大安,2026-02-26,24.345061,120.588025,3.006171e-09
467290,古坑,2026-02-26,23.633639,120.551889,4.764003e-08
C2E970,八甲,2026-02-26,24.535811,120.795983,8.6447033e-10
C0V440,鳳山,2026-02-26,22.646653,120.356122,0.9234889
C1T940,大觀,2026-02-26,23.714206,121.373133,3.2693603e-09
C0E740,造橋,2026-02-26,24.637056,120.864778,1.1532028e-09
C0R100,尾寮山,2026-02-26,22.833111,120.683889,5.622384e-10
A2K630,臺大雲林校區,2026-02-26,23.730628,120.423903,2.9755887e-09
467990,馬祖,2026-02-26,26.169467,119.923158,1.0694908e-07
C0D580,寶山,2026-02-26,24.735006,121.025192,6.1881866e-10
E2P990,林試扇平站,2026-02-26,22.9677,120.6857,1.6840656e-09
C0AI30,三重,2026-02-26,25.057328,121.500629,8.271647e-10
C0AH00,汐止,2026-02-26,25.066881,121.658778,9.100062e-10
C1Z040,立山,2026-02-26,23.443356,121.327375,7.487781e-09
466881,新北,2026-02-26,24.959207,121.525196,7.1888623e-10
C0W130,花嶼,2026-02-26,23.40007,119.32276,0.997077
C0A950,鼻頭角,2026-02-26,25.129036,121.923372,8.367331e-10
C0K470,林內,2026-02-26,23.748675,120.609642,7.788425e-08
C2F990,摩天嶺,2026-02-26,24.322458,120.936819,9.157363e-10
C2E430,南庄,2026-02-26,24.601775,121.000214,6.865027e-10
82C160,茶改場,2026-02-26,24.908472,121.185333,9.354484e-10
C2TB60,南安,2026-02-26,23.29818,121.26157,1.5237613e-09
C0Z320,清水林道,2026-02-26,23.27125,121.188272,8.939047e-09
C0R760,南仁湖,2026-02-26,22.084681,120.863353,1.0143171e-07
C0M670,大林,2026-02-26,23.600616,120.45841,2.5359697e-08
C0M800,茶山,2026-02-26,23.299075,120.664767,4.6340123e-10
C0A9C0,天母,2026-02-26,25.117494,121.537169,8.011698e-10
72K220,南改斗南分場,2026-02-26,23.634556,120.477333,3.0138427e-08
72AI40,桃改樹林分場,2026-02-26,24.944503,121.386972,7.63265e-10
C0S910,蘭嶼燈塔,2026-02-26,22.081197,121.503117,0.9863153
C0B050,八斗子,2026-02-26,25.144754,121.79167,1.6244629e-09
C0U900,內城,2026-02-26,24.71813,121.68766,5.6969546e-10
C0X320,柳營,2026-02-26,23.253328,120.375253,6.500117e-08
C0M790,新港,2026-02-26,23.553269,120.345728,7.940475e-09
C0F9T0,西屯,2026-02-26,24.179494,120.641275,3.2752396e-09
C0E950,松安,2026-02-26,24.39792,120.98599,2.4829465e-09
C0SA30,都歷,2026-02-26,23.020333,121.323642,2.2217077e-09
C0C620,蘆竹,2026-02-26,25.084275,121.265767,1.7847973e-09
C0R730,大坪頂,2026-02-26,22.024633,120.69355,4.314683e-05
C0AJ40,石門,2026-02-26,25.273672,121.601198,3.3114904e-09
C0E750,苗栗,2026-02-26,24.564569,120.824575,8.6447033e-10
C0T870,鯉魚潭,2026-02-26,23.935639,121.508944,1.3123749e-09
C1V170,排雲,2026-02-26,23.463619,120.954147,2.1443249e-08
C2H950,中寮,2026-02-26,23.884447,120.766406,4.2574974e-10
C0R350,貓鼻頭,2026-02-26,21.921774,120.7358,0.04307812
C0V660,岡山,2026-02-26,22.797078,120.294958,0.9129025
C1H941,雙冬,2026-02-26,23.967378,120.802189,5.2112437e-10
C0AJ70,田寮,2026-02-26,25.2698,121.4886,2.9669291e-09
C0AI00,五股,2026-02-26,25.07445,121.42728,1.1690106e-09
C0Z280,德武,2026-02-26,23.47426,121.41071,1.1827048e-09
C2RA10,大新,2026-02-26,22.67558,120.57788,0.9711939
C0R700,枋山,2026-02-26,22.246844,120.661086,2.0656675e-07
C0C460,復興,2026-02-26,24.820208,121.352281,1.469549e-09
C2K300,鹿南,2026-02-26,23.63855,120.3636,4.76771e-09
E2H360,蓮華池,2026-02-26,23.918333,120.885278,5.1576976e-10
C0M640,中埔,2026-02-26,23.42538,120.5229,3.4626783e-08
C0W140,金沙,2026-02-26,24.488292,118.408778,5.7818283e-09
C2A540,四堵,2026-02-26,24.8926,121.745736,2.5787357e-09
C0ACA0,新莊,2026-02-26,25.051478,121.446756,1.0109479e-09
C0R220,潮州,2026-02-26,22.534361,120.54,0.99798334
U2HA40,臺大內茅埔,2026-02-26,23.689722,120.851117,3.5523293e-10
467490,臺中,2026-02-26,24.145736,120.684075,3.825705e-09
C0UB60,明池,2026-02-26,24.650688,121.475277,9.794617e-09
C0U960,翠峰湖,2026-02-26,24.510856,121.608044,1.0410219e-08
E2HA20,林試畢祿溪站,2026-02-26,24.226944,121.308522,4.5325774e-09
C2M9A0,大華,2026-02-26,23.4824,120.67491,8.3108664e-10
C0V890,前鎮,2026-02-26,22.5718,120.3117,0.9951109
C1F941,雪嶺,2026-02-26,24.280586,121.026642,1.6208674e-08
C2H9E0,國姓南港,2026-02-26,23.911108,120.846556,1.0459633e-09
C0AC80,文山,2026-02-26,25.00235,121.575728,7.274171e-10
C0F9R0,龍井,2026-02-26,24.184536,120.528972,2.6938716e-09
C0M760,民雄,2026-02-26,23.551754,120.428457,2.5359697e-08
C0UA40,西德山,2026-02-26,24.560647,121.752608,7.754241e-09
C2TA70,赤科坪,2026-02-26,23.39885,121.39168,8.957616e-09
C1T920,中興,2026-02-26,23.769503,121.498653,1.463764e-09
C0D550,雪霸,2026-02-26,24.526972,121.11605,4.6672612e-09
C2F860,梨山,2026-02-26,24.247522,121.243669,1.00881605e-08
C0R320,車城,2026-02-26,22.0744,120.716247,0.014171219
C1S870,南美山,2026-02-26,23.15025,121.382333,2.3212572e-09
C0B020,基隆嶼,2026-02-26,25.19141,121.78391,1.6611821e-09
C1U501,牛鬥,2026-02-26,24.637836,121.573656,3.0038785e-09
C0M730,嘉義市東區,2026-02-26,23.457673,120.460531,2.1594047e-07
C2R990,泰武,2026-02-26,22.60686,120.69765,1.1637825e-09
C0S700,知本,2026-02-26,22.684866,121.005642,1.1027391e-08
C1N001,沙崙,2026-02-26,22.935472,120.309406,1.0148412e-05
C0V760,橋頭,2026-02-26,22.757806,120.30575,0.003250932
C0G960,福寶,2026-02-26,24.0443,120.3814,1.3920685e-09
C0X210,白河,2026-02-26,23.347466,120.414427,1.1794929e-08
C0S810,東河,2026-02-26,22.972672,121.303986,1.7780053e-09
C2R170,屏東,2026-02-26,22.66027,120.49403,0.9962911
C0R670,楓港,2026-02-26,22.190131,120.692156,0.0100183645
C0FA50,霧峰,2026-02-26,24.0419,120.6995,7.5932025e-09
C0UB10,蘇澳,2026-02-26,24.5969,121.8571,5.844827e-10
C0G950,防潮門,2026-02-26,24.1835,120.4871,2.5543427e-09
C0M740,六腳,2026-02-26,23.492871,120.290625,1.21516655e-08
C1R250,力里,2026-02-26,22.428117,120.629228,3.0374327e-09
C0K330,虎尾,2026-02-26,23.719183,120.442036,2.9755887e-09
C2FA00,烏石坑,2026-02-26,24.273503,120.947617,8.9951924e-10
C0V620,永安,2026-02-26,22.82315,120.236856,0.9129025
C1I330,楓樹林,2026-02-26,23.986803,121.076117,1.1180977e-09
C0W200,湖西,2026-02-26,23.596314,119.67275,0.9864065
72Q010,高雄農改場,2026-02-26,22.709333,120.525889,0.9803872
C0SA40,瑞和,2026-02-26,22.974361,121.156697,1.5316112e-09
C0C680,龜山,2026-02-26,25.02846,121.38656,9.747275e-10
C2V260,月眉,2026-02-26,22.971003,120.539853,2.405399e-08
C0V450,鳳森,2026-02-26,22.545064,120.392592,0.24033183
C0FA90,小雪山林道,2026-02-26,24.29515,121.03651,2.0502311e-08
C0U720,南山,2026-02-26,24.43742,121.38167,5.005235e-09
A2N290,臺南蘭花園區,2026-02-26,23.340258,120.379661,2.8020663e-08
C0R560,新園,2026-02-26,22.5434,120.461558,0.24033183
C0U890,三星,2026-02-26,24.66812,121.65302,6.15795e-10
C1V300,御油山,2026-02-26,23.001983,120.715364,1.7516222e-09
C0U600,礁溪,2026-02-26,24.817539,121.765608,6.5061884e-10
C1T980,龍澗,2026-02-26,24.023289,121.411328,8.579545e-09
C0D670,海天一線,2026-02-26,24.831986,120.914438,1.5003279e-07
C0SA00,歷坵,2026-02-26,22.520969,120.89185,1.6266062e-08
C0M710,東石,2026-02-26,23.458927,120.15385,2.3100133e-08
C0M780,鹿草,2026-02-26,23.41134,120.30835,1.3823086e-08
C0U520,雙連埤,2026-02-26,24.753033,121.641303,3.1489924e-09
C0B010,七堵,2026-02-26,25.094819,121.71713,1.6832724e-09
C0R480,長治,2026-02-26,22.693128,120.542622,0.9917986
C1V830,國三S383K,2026-02-26,22.781967,120.426475,0.00040480957
12Q980,恆春工作站,2026-02-26,22.079678,120.714425,0.014171219
C1O940,東山服務區,2026-02-26,23.286016,120.398472,2.8020663e-08
C1U840,東澳嶺,2026-02-26,24.5378,121.8485,6.909615e-09
C1D630,飛鳳山,2026-02-26,24.766464,121.119178,1.1110272e-09
C0S940,石寧山,2026-02-26,23.223772,121.406639,2.163336e-09
C0K410,北港,2026-02-26,23.573957,120.292802,7.306546e-09
C2M620,瑞里,2026-02-26,23.545133,120.675197,1.0843777e-09
C0SB70,小港漁港,2026-02-26,23.158558,121.400431,2.177548e-09
C2O950,安南,2026-02-26,23.076694,120.144861,3.7055205e-08
C0F0E0,南湖圈谷,2026-02-26,24.363714,121.444667,1.6110384e-08
467610,成功,2026-02-26,23.097486,121.373428,1.7218496e-09
C0G890,伸港,2026-02-26,24.148933,120.484403,2.5543427e-09
C2E540,龍溪,2026-02-26,24.606489,120.783933,8.6447033e-10
C1V200,梅山,2026-02-26,23.268447,120.823556,5.4894084e-10
C0T9H0,加路蘭山,2026-02-26,23.682947,121.5274,3.9904604e-09
C2O930,玉井,2026-02-26,23.126042,120.46055,1.3384283e-08
C1F911,新伯公,2026-02-26,24.221361,120.841069,5.047896e-10
C0R490,九如,2026-02-26,22.7405,120.490503,0.9803872
C0X200,左鎮,2026-02-26,23.056758,120.408522,1.0321234e-07
C2TB50,麻汝,2026-02-26,23.42554,121.39358,1.1827048e-09
C0FA60,鞍馬山工作站,2026-02-26,24.267064,121.000793,1.014073e-08
C0SB50,叭嗡嗡,2026-02-26,23.047062,121.343223,1.7876148e-09
C1F891,稍來,2026-02-26,24.265689,121.001142,9.747633e-09
C2M9C0,紫雲,2026-02-26,23.494914,120.540253,2.4292808e-07
72N240,七股研究中心,2026-02-26,23.081672,120.062894,5.8752903e-08
C0C700,中壢,2026-02-26,24.977661,121.256375,1.4261707e-09
C0M690,水上,2026-02-26,23.419734,120.388909,4.48427e-08
C0V690,鼓山,2026-02-26,22.623325,120.275575,0.8323128
C0O860,大內,2026-02-26,23.11885,120.36083,9.2324746e-07
C0Z200,萬榮,2026-02-26,23.709219,121.420106,2.2454798e-09
C0T9D0,和中,2026-02-26,24.26676,121.74103,1.0232821e-09
C2S9A0,北份子寮,2026-02-26,22.78561,121.07813,2.001568e-09
C1O921,楠西,2026-02-26,23.183511,120.484083,1.3384283e-08
C0AJ30,淡水觀海,2026-02-26,25.184591,121.408616,2.2208053e-09
C0V810,左營,2026-02-26,22.67491,120.28491,0.46847963
C0UA70,桃源谷,2026-02-26,24.962606,121.888875,2.5553757e-09
C0X130,官田,2026-02-26,23.193217,120.315422,9.2324746e-07
C1H000,翠峰,2026-02-26,24.109397,121.205211,7.187906e-09
C0UA90,石城,2026-02-26,24.980444,121.951214,8.484763e-10
C1E681,南勢山,2026-02-26,24.421669,120.923831,1.3595255e-09
C0A9F0,內湖,2026-02-26,25.079422,121.57545,7.9761875e-10
C0K291,宜梧,2026-02-26,23.536281,120.169329,2.4127678e-07
C1K540,口湖,2026-02-26,23.585344,120.180517,2.631001e-07
C0R780,滿州,2026-02-26,22.024403,120.839892,0.0025009378
C0V870,文安,2026-02-26,22.8025,120.2164,0.9518903
C0U650,玉蘭,2026-02-26,24.675286,121.587061,2.9357548e-09
C0R640,東港,2026-02-26,22.46247,120.44074,0.042950828
C0AJ80,板橋,2026-02-26,25.0107,121.4489,7.2498346e-10
C0S660,下馬,2026-02-26,23.150427,121.070312,8.921605e-09
C2N190,烏樹,2026-02-26,23.32393,120.36989,2.8020663e-08
C1H9B1,阿眉,2026-02-26,24.1263,120.994672,4.6144257e-09
C0UA20,多加屯,2026-02-26,24.368614,121.373189,6.1358176e-09
C0E730,頭份,2026-02-26,24.688247,120.912206,3.176803e-09
72V140,高改旗南分場,2026-02-26,22.857861,120.516667,3.8093892e-06
C0K480,莿桐,2026-02-26,23.761192,120.502372,1.1310277e-08
C0U980,坪林石牌,2026-02-26,24.86478,121.77396,3.3302265e-09
C0T900,西林,2026-02-26,23.8119,121.441458,1.5900892e-09
C1I150,青雲,2026-02-26,23.793361,120.949378,4.032271e-10
C2E980,和興,2026-02-26,24.505319,120.923016,1.0818428e-09
467350,澎湖,2026-02-26,23.565503,119.563094,0.9930911
C0G800,埔鹽,2026-02-26,24.000394,120.431683,1.1839484e-09
C0H960,草屯,2026-02-26,23.973672,120.68085,9.15312e-10
C1V780,多納林道,2026-02-26,22.888028,120.737917,8.198046e-10
C0E920,通霄漁港,2026-02-26,24.498589,120.673876,4.9657274e-08
C0Z330,安通山,2026-02-26,23.290728,121.348528,2.012785e-09
C0AH10,永和,2026-02-26,25.01125,121.508111,7.2498346e-10
C0AK10,太平里,2026-02-26,25.134937,121.364899,2.2544617e-09
C2G640,鹿港,2026-02-26,24.0753,120.430481,1.6015612e-09
C1E890,國三N149K,2026-02-26,24.463414,120.680019,4.9657274e-08
C1R110,口社,2026-02-26,22.770111,120.645222,0.09435116
C1M870,國三N285K,2026-02-26,23.550319,120.505833,2.4292808e-07
C1E480,鳳美,2026-02-26,24.554803,121.034747,1.1672971e-09
C0T9M0,靜浦,2026-02-26,23.455167,121.495028,8.658433e-10
C2H9M0,發祥,2026-02-26,24.154094,121.164517,2.0141753e-09
C2G9C0,埔南,2026-02-26,23.99124,120.46969,1.1839484e-09
C0AI40,石牌,2026-02-26,25.115597,121.513139,7.9761875e-10
C1F871,上谷關,2026-02-26,24.203483,121.018644,8.9951924e-10
C2H9G0,百勝,2026-02-26,24.051142,120.909361,3.5483544e-10
C0G880,二水,2026-02-26,23.810742,120.6173,4.6958505e-07
C0R940,加祿堂,2026-02-26,22.3363,120.6217,2.0656675e-07
C0W220,北竿,2026-02-26,26.220358,119.974881,8.8193005e-08
C0O960,崎頂,2026-02-26,22.959547,120.369317,1.0148392e-05
C0TA40,秀林,2026-02-26,24.302864,121.731144,8.310887e-09
C0S750,向陽,2026-02-26,23.248397,120.986133,3.138978e-09
C0T9F0,水璉,2026-02-26,23.797131,121.542514,1.7556626e-09
C1M600,頭凍,2026-02-26,23.406364,120.603339,7.2780987e-10
467660,臺東,2026-02-26,22.752211,121.154586,2.5089155e-09
C1D380,新埔,2026-02-26,24.84745,121.03834,1.1588828e-09
C2G980,田頭村,2026-02-26,23.8263,120.444175,2.1149038e-09
C0V750,路竹,2026-02-26,22.854997,120.259439,0.9129025
C0N050,蚵寮,2026-02-26,23.301,120.1104,1.8759977e-08
C2X060,下營,2026-02-26,23.226806,120.256291,3.1013627e-07
72M700,南改鹿草分場,2026-02-26,23.416869,120.283061,1.3823086e-08
C1SA50,利嘉林道,2026-02-26,22.82325,121.009389,7.0815718e-09
C0UB70,太平山中間站,2026-02-26,24.542003,121.513453,4.180467e-09
C0A940,金山,2026-02-26,25.223628,121.643967,1.358753e-09
C1V340,大津,2026-02-26,22.888322,120.645986,9.4038136e-05
C0W180,七美,2026-02-26,23.219333,119.444892,0.99918425
C1F9C1,白冷,2026-02-26,24.182844,120.929889,3.4211062e-10
K2E710,苗改生物防治研究中心,2026-02-26,24.422861,120.871833,6.2302413e-10
C0N040,蘆竹溝,2026-02-26,23.2344,120.0961,1.8759977e-08
C0TB40,崇德,2026-02-26,24.166144,121.657414,2.0042393e-08
C0D760,大坪苗圃,2026-02-26,24.5362,121.1108,4.3455475e-09
C2W230,畜試所澎湖,2026-02-26,23.628342,119.513206,0.98275274
C0R880,後壁湖,2026-02-26,21.9457,120.7457,0.048149414
C1I280,埔中,2026-02-26,23.820778,120.642594,5.8554384e-10
467790,墾丁雷達站,2026-02-26,21.948235,120.808028,0.89386666
C0W190,望安,2026-02-26,23.380564,119.494075,0.9981983
C0Z170,卓溪,2026-02-26,23.3443,121.3029,1.1896709e-09
C0F850,東勢,2026-02-26,24.246428,120.833047,5.30033e-10
466900,淡水,2026-02-26,25.164889,121.448906,1.7054091e-09
C0I370,魚池,2026-02-26,23.895703,120.94135,5.390765e-10
C0C630,大溪,2026-02-26,24.882853,121.265547,8.593052e-10
C0A520,山佳,2026-02-26,24.974944,121.402008,7.5411233e-10
C0I110,竹山,2026-02-26,23.761225,120.688156,1.0168837e-07
82H840,茶改南部分場,2026-02-26,23.762528,120.7405,6.4731515e-10
C2SD80,再來山,2026-02-26,23.34371,121.44122,1.231344e-09
C0G660,溪湖,2026-02-26,23.94835,120.479122,1.3658413e-09
C1T800,洛韶,2026-02-26,24.204558,121.453956,1.6633928e-08
C1T810,慈恩,2026-02-26,24.192044,121.388386,3.0745444e-09
C1E451,象鼻,2026-02-26,24.368617,120.940228,1.3595255e-09
C0AC60,三峽,2026-02-26,24.939025,121.369728,7.6770645e-10
C0I490,萬大林道,2026-02-26,23.928228,121.091411,2.1302518e-09
C1I290,豐丘,2026-02-26,23.668178,120.887417,1.3856948e-09
C1I320,奧萬大,2026-02-26,23.952956,121.178556,1.1334459e-09
C2M910,嘉義大學,2026-02-26,23.471325,120.485903,2.1594047e-07
C0U770,南澳,2026-02-26,24.44935,121.81022,1.1570098e-09
C2TB30,吉安,2026-02-26,23.94538,121.54803,1.2556828e-09
C0A980,社子,2026-02-26,25.109508,121.469681,1.6943144e-09
C0V800,六龜,2026-02-26,22.997889,120.633583,1.4615141e-07
C1G9D0,國一S218K,2026-02-26,23.890641,120.493253,2.7000753e-09
C0E570,白沙屯,2026-02-26,24.549447,120.696803,5.3253245e-08
C2F9A0,中竹林,2026-02-26,24.103556,120.751061,4.2180934e-10
C0FA40,臺中電廠,2026-02-26,24.2146,120.4907,4.248617e-09
C2G9A0,畜試所彰化,2026-02-26,23.86045,120.557964,1.0763726e-08
C0H9C0,合歡山,2026-02-26,24.143442,121.272547,1.6793962e-08
G2M350,農試溪口農場,2026-02-26,23.58565,120.408111,2.5359697e-08
C0U860,頭城,2026-02-26,24.85323,121.8308,1.0444742e-09
C0R580,南州,2026-02-26,22.48591,120.50274,0.9703021
C0D430,峨眉,2026-02-26,24.6905,121.017189,8.606961e-10
C0G780,秀水,2026-02-26,24.03405,120.503869,1.986738e-09
72N100,臺南農改場,2026-02-26,23.0605,120.342194,0.00010841243
C0S900,蘭嶼高中,2026-02-26,22.04909,121.51214,0.960651
C2TA60,六十石,2026-02-26,23.22477,121.31861,1.12599094e-08
C1F9W0,德基,2026-02-26,24.254783,121.190261,1.1708989e-08
C2M980,安和,2026-02-26,23.51377,120.31593,1.21516655e-08
C1Z120,壽豐,2026-02-26,23.870853,121.508081,1.1216199e-09
C0W160,烏坵,2026-02-26,24.9944,119.44956,8.379707e-07
C1I240,外大坪,2026-02-26,23.958697,120.917931,5.7809985e-10
C1I550,國六W023K,2026-02-26,23.979067,120.867742,3.93845e-10
C0R870,興海,2026-02-26,21.9752,120.8439,0.89386666
C0R140,瑪家,2026-02-26,22.682903,120.686639,4.0503387e-10
C0A530,坪林,2026-02-26,24.938183,121.70975,2.2301565e-09
C0X260,後壁,2026-02-26,23.366358,120.362326,5.498625e-08
C0Z230,和平,2026-02-26,24.30717,121.77007,1.1440844e-09
C0G770,福興,2026-02-26,24.041289,120.437669,1.1839484e-09
C0H9A0,神木村,2026-02-26,23.532742,120.843667,2.2244895e-09
C0I460,南投,2026-02-26,23.911469,120.687331,9.15312e-10
C0I480,梅峰,2026-02-26,24.085272,121.173572,4.4960182e-09
C1V570,吉東,2026-02-26,22.85422,120.5454,0.37902293
C2A560,福山,2026-02-26,24.776203,121.502811,2.8325218e-09
C0AH30,五分山,2026-02-26,25.07125,121.780794,4.217645e-09
C0FA10,松柏,2026-02-26,24.429115,120.617482,5.905307e-09
72S200,東改班鳩分場,2026-02-26,22.829528,121.077694,1.7960428e-09
72HA00,中改埔里分場,2026-02-26,23.903208,120.963364,5.330441e-10
C2H9W0,大坪頂農水,2026-02-26,24.043122,120.932781,5.16854e-10
C0C650,平鎮,2026-02-26,24.897503,121.214636,7.4707013e-10
C0S930,延平,2026-02-26,22.902581,121.084058,1.758394e-09
C0UA60,樟樹山,2026-02-26,24.41393,121.78325,2.0968092e-09
C2UC10,出水溪,2026-02-26,24.615822,121.652253,4.0967643e-09
C1S670,摩天,2026-02-26,23.199503,121.027,1.9879671e-08
C2C590,觀音,2026-02-26,25.027072,121.153317,2.6236249e-09
C0V630,茄萣,2026-02-26,22.906642,120.182608,0.02276674
466940,基隆,2026-02-26,25.133314,121.740475,1.6314151e-09
C0X050,東河,2026-02-26,23.296598,120.385608,2.8020663e-08
C0R770,保力,2026-02-26,22.071122,120.764111,0.00013245069
G2L020,農試嘉義分所,2026-02-26,23.485028,120.473806,2.1594047e-07
C0X240,關子嶺,2026-02-26,23.331169,120.508025,5.40149e-10
C0I380,集集,2026-02-26,23.828206,120.801467,4.0279277e-10
466990,花蓮,2026-02-26,23.975128,121.613275,2.2092126e-09
C1V220,小關山,2026-02-26,23.154217,120.813603,2.1407562e-09
C1F9G1,慶福山,2026-02-26,24.180853,120.848378,4.234788e-10
C0FB20,雪山橋,2026-02-26,24.23192,120.9786,8.597926e-09
C0Z250,瑞穗林道,2026-02-26,23.49284,121.30688,3.2651307e-08
C0D590,新豐,2026-02-26,24.87068,120.97721,1.5003279e-07
C0A870,五指山,2026-02-26,25.132153,121.608692,2.8641183e-09
C0UA50,西帽山,2026-02-26,24.555361,121.802628,6.873992e-09
C2R980,竹田國中,2026-02-26,22.61532,120.52412,0.99837875
C0X160,仁德,2026-02-26,22.968258,120.257689,0.18415087
C1H971,六分寮,2026-02-26,23.92507,120.6378,5.2632376e-10
C0W120,西嶼,2026-02-26,23.5626,119.468436,0.9941376
C0G650,員林,2026-02-26,23.946503,120.585597,3.3326855e-09
C0AD50,鶯歌,2026-02-26,24.951533,121.346294,8.93836e-10
C2H9Q0,北東眼山,2026-02-26,24.120939,121.189303,8.009426e-09
C2H9T0,名間竹圍,2026-02-26,23.859914,120.637572,2.299826e-09
C0S990,山豬窟,2026-02-26,22.318619,120.857372,3.1075857e-08
C0X190,安平,2026-02-26,22.993161,120.152181,6.03348e-07
C0K400,斗六,2026-02-26,23.720583,120.541127,1.1310277e-08
12J990,口湖工作站,2026-02-26,23.589978,120.180394,2.631001e-07
C0O830,北寮,2026-02-26,23.079561,120.495008,1.5218125e-09
C1D410,白蘭,2026-02-26,24.579364,121.079947,3.5075183e-09
C0S970,加津林,2026-02-26,22.416211,120.926942,7.024643e-08
C0D700,關西,2026-02-26,24.7977,121.1732,5.862792e-10
C0U750,龜山島,2026-02-26,24.841667,121.953133,2.4698346e-09
C0R810,內獅,2026-02-26,22.305064,120.642986,2.0656675e-07
C1M390,龍美,2026-02-26,23.406728,120.654417,1.0433492e-09
C2K290,崙內,2026-02-26,23.69525,120.35601,4.76771e-09
C2FB60,頭櫃山,2026-02-26,24.129842,120.858925,1.1036686e-09
C1H840,國三N238K,2026-02-26,23.841008,120.707711,7.852708e-10
CAQ030,崎峰國小,2026-02-26,22.42565,120.49521,0.9703021
C2E520,大湖,2026-02-26,24.414939,120.870872,6.2302413e-10
467530,阿里山,2026-02-26,23.508208,120.813242,9.304504e-09
C1E691,南湖,2026-02-26,24.40135,120.837533,6.4041344e-10
C0FA30,梧棲,2026-02-26,24.256003,120.523381,2.6938716e-09
C1V231,高中,2026-02-26,23.134911,120.716711,1.4641018e-09
C0AK30,硬漢嶺,2026-02-26,25.136097,121.426372,3.0688438e-09
C0F9V0,新社,2026-02-26,24.200172,120.815806,5.020473e-10
C0H890,埔里,2026-02-26,23.972169,120.952425,4.788623e-10
C0R690,墾丁,2026-02-26,21.966756,120.810269,0.00921135
C0SD20,富山,2026-02-26,22.822383,121.190825,2.219556e-09
C0F0D0,審馬陣,2026-02-26,24.381675,121.4203,1.0296554e-08
C2W030,金門農試所,2026-02-26,24.448431,118.451786,5.8892e-09
C0R820,白鷺,2026-02-26,22.454275,120.666219,5.114594e-10
C0FB00,大雪山,2026-02-26,24.254668,121.007374,1.0193827e-08
C1V190,南天池,2026-02-26,23.27403,120.91176,3.9804564e-09
C0E940,雪見,2026-02-26,24.42595,121.01347,6.1659216e-09
K2E360,苗栗農改場,2026-02-26,24.495722,120.829111,9.463597e-10
CAJ050,海口故事園區,2026-02-26,23.57543,120.14121,2.631001e-07
C2K280,四湖,2026-02-26,23.6304,120.22717,9.014781e-08
C2H9D0,三隻寮,2026-02-26,24.093078,120.861578,4.7748056e-10
C0O990,媽廟,2026-02-26,22.99175,120.293525,0.009095526
C0D480,打鐵坑,2026-02-26,24.849664,121.150789,8.5667695e-10
C0Z220,和平林道,2026-02-26,24.343922,121.656317,1.6771129e-09
C0TA10,花蓮漁港,2026-02-26,23.995322,121.638331,2.2297015e-09
72C440,桃園農改場,2026-02-26,24.950944,121.030583,1.631188e-09
C1E711,馬拉邦山,2026-02-26,24.367306,120.901656,9.85781e-10
C0SB20,富岡,2026-02-26,22.792467,121.192669,2.1512225e-09
C0D560,竹東,2026-02-26,24.767147,121.057881,5.763559e-10
C0F9U0,南屯,2026-02-26,24.137006,120.637969,4.2082275e-09
C2SD60,明峰,2026-02-26,22.8671,121.11825,1.7735716e-09
C0M720,番路,2026-02-26,23.464657,120.554156,6.7323735e-10
C0F0A0,雪山圈谷,2026-02-26,24.388594,121.236339,1.902762e-08
C1A9N0,四十份,2026-02-26,24.934158,121.593283,1.9049544e-09
C0U760,東澳,2026-02-26,24.52196,121.83318,1.1820508e-09
C0X230,鹽水,2026-02-26,23.272621,120.247641,2.118894e-08
C2H9H0,苗改南投蜂場,2026-02-26,23.852589,120.693481,1.5518461e-08
C2TB70,達谷寮,2026-02-26,23.38,121.35968,1.2251172e-09
C0R950,萬隆國小,2026-02-26,22.507667,120.587817,5.1383466e-09
467540,大武,2026-02-26,22.35572,120.90374,0.0009079043
C0V370,古亭坑,2026-02-26,22.893178,120.401947,5.972857e-08
C1I340,新興橋,2026-02-26,23.563333,120.868728,8.2555074e-10
C0SA80,土坂,2026-02-26,22.453108,120.887572,3.9517808e-08
C0R160,鹽埔,2026-02-26,22.739558,120.530778,0.9803872
C0AC40,大屯山,2026-02-26,25.175675,121.522408,7.1681363e-09
466850,五分山雷達站,2026-02-26,25.071182,121.781205,4.2598147e-09
C2H9L0,馬烈霸,2026-02-26,24.1512,121.201772,8.009426e-09
C1AI50,國三N016K,2026-02-26,25.034164,121.619664,9.427439e-10
C2V920,匏子寮,2026-02-26,23.04905,120.55319,1.8892288e-09
C1V600,藤枝,2026-02-26,23.071961,120.757042,1.4871241e-09
C1E601,南勢,2026-02-26,24.572486,120.734842,5.3253245e-08
C0O980,新市,2026-02-26,23.061614,120.298197,0.00010841243
C0K420,西螺,2026-02-26,23.800407,120.467394,2.1149038e-09
C0Z050,佳心,2026-02-26,23.34567,121.21316,9.655999e-09
C0AD30,蘆洲,2026-02-26,25.086594,121.472331,9.7654e-10
C0V610,梓官,2026-02-26,22.760558,120.267211,0.9317537
K2F750,種苗改良場,2026-02-26,24.225972,120.800917,5.020473e-10
C0UA80,大溪漁港,2026-02-26,24.941801,121.902955,1.1912422e-09
C1AI60,國一39K邊坡,2026-02-26,25.064361,121.383836,1.2211047e-09
C0W150,金寧,2026-02-26,24.457703,118.328989,5.838668e-09
C0R960,內埔,2026-02-26,22.608483,120.570714,0.99837875
C2H9S0,龍南,2026-02-26,23.953536,120.833183,8.119956e-10
C0AH40,平等,2026-02-26,25.129142,121.577086,1.4904749e-09
C0R540,佳冬,2026-02-26,22.419456,120.552375,0.7152624
466950,彭佳嶼,2026-02-26,25.627975,122.079744,4.9011675e-08
C0A890,雙溪,2026-02-26,25.036003,121.864242,8.756386e-10
C0C480,桃園,2026-02-26,24.992425,121.323172,1.4261707e-09
C0AH50,林口,2026-02-26,25.072181,121.38084,1.3321496e-09
A2K360,水試臺西試驗場,2026-02-26,23.717231,120.190522,1.09066576e-07
C2M960,外寮,2026-02-26,23.562643,120.665688,9.0543717e-10
C0F9S0,烏日,2026-02-26,24.107058,120.624103,4.2082196e-09
C2N180,鹿陶洋,2026-02-26,23.14325,120.48352,1.3384283e-08
C0C490,八德,2026-02-26,24.928708,121.283289,8.593052e-10
C0R190,赤山,2026-02-26,22.592333,120.614306,0.9972248
C0T820,天祥,2026-02-26,24.179597,121.495639,1.3513206e-08
C1F9E1,龍安,2026-02-26,24.1605,120.831961,4.972594e-10
C2SD50,順那,2026-02-26,23.04166,121.29332,1.6741758e-09
C0V820,小林,2026-02-26,23.148408,120.63325,4.9918375e-10
C2G870,芳苑,2026-02-26,23.922303,120.320025,0.00030355284
C0E850,大河,2026-02-26,24.618069,120.948578,6.5195677e-10
C1U670,寒溪,2026-02-26,24.634,121.71691,6.070047e-10
C0N020,城西,2026-02-26,23.0568,120.0956,4.998912e-08
C1Z110,三棧,2026-02-26,24.11557,121.60501,1.3567052e-08
C0R280,檳榔,2026-02-26,22.076078,120.836777,6.6140865e-07
C2H9J0,中台,2026-02-26,23.9996,120.938739,5.16854e-10
C0F9L0,后里,2026-02-26,24.310436,120.729725,3.4637115e-10
467441,高雄,2026-02-26,22.730432,120.312516,0.003250932
C0Z180,新城,2026-02-26,24.040486,121.604878,2.2037752e-09
C0D540,橫山,2026-02-26,24.71116,121.11693,6.230134e-10
C1D420,太閣南,2026-02-26,24.632808,121.160575,5.7317697e-09
C1E770,公館,2026-02-26,24.526914,120.830806,8.649767e-10
CAN130,水試所海水繁養殖中心,2026-02-26,23.120802,120.07968,5.6666597e-08
C1I430,翠華,2026-02-26,24.191961,121.224339,1.2092338e-08
C1M400,菜瓜坪,2026-02-26,23.251928,120.576103,4.786632e-10
C0G730,二林,2026-02-26,23.903325,120.376081,1.9654391e-09
72M360,南改義竹分場,2026-02-26,23.360694,120.279361,2.0969702e-08
V2K620,麥寮合作社,2026-02-26,23.753836,120.294783,3.4531655e-09
C0Z070,舞鶴,2026-02-26,23.46811,121.37407,1.2016872e-09
C0B040,大武崙,2026-02-26,25.166676,121.706993,1.6913148e-09
C1Z030,紅葉,2026-02-26,23.493119,121.338806,1.1903791e-09
C1I050,丹大,2026-02-26,23.753747,121.141147,4.457356e-09
C0I080,信義,2026-02-26,23.689694,120.851036,3.5523293e-10
C2TB80,庄子底,2026-02-26,23.71794,121.49438,2.1770288e-09
C0D750,樂山林道6k,2026-02-26,24.49999,121.08773,8.9943395e-09
C2M920,朴子農改,2026-02-26,23.469889,120.259383,1.3823086e-08
C2A880,福隆,2026-02-26,25.017842,121.942083,8.29541e-10
C0Z160,鳳林,2026-02-26,23.746114,121.453411,2.1892042e-09
C0UB80,翠峰林道6K,2026-02-26,24.49773,121.568625,1.1704256e-08
C0V210,復興,2026-02-26,23.222403,120.806089,1.0033121e-09
C0H990,昆陽,2026-02-26,24.121322,121.273642,1.327301e-08
C0R741,獅子,2026-02-26,22.202308,120.705236,7.448853e-08
C0S710,鹿野,2026-02-26,22.917711,121.122994,1.8093147e-09
C0I530,小奇萊,2026-02-26,24.131764,121.295717,1.3931157e-08
C0FA70,大雪山埡口,2026-02-26,24.26867,121.03062,1.6012475e-08
C2K630,荷苞,2026-02-26,23.657717,120.595144,4.764003e-08
C0Z080,富源,2026-02-26,23.587642,121.378225,3.452395e-09
C2M9E0,旺來山,2026-02-26,23.555153,120.486463,2.4292808e-07
C0SB10,美和,2026-02-26,22.682078,121.060236,2.5089155e-09
C2K620,馬光農場,2026-02-26,23.721453,120.378864,2.9755887e-09
C1I140,卡奈托灣,2026-02-26,23.754364,121.087872,1.7696383e-09
C0I520,玉山風口,2026-02-26,23.470489,120.955994,2.5689822e-08
C1G691,下水埔,2026-02-26,23.816114,120.5676,1.0878647e-08
C0X110,臺南市南區,2026-02-26,22.961189,120.188378,0.14281748
C0V680,仁武,2026-02-26,22.701083,120.347722,0.003250932
C2G840,北斗,2026-02-26,23.877586,120.514222,2.7000753e-09
C2TB90,長橋,2026-02-26,23.6874,121.46186,2.1892919e-09
C0R900,竹坑,2026-02-26,22.1385,120.7022,0.0100183645
C0G860,社頭,2026-02-26,23.897647,120.5862,1.0763726e-08
C0X150,安定,2026-02-26,23.102614,120.227839,7.462077e-07
C0R590,里港,2026-02-26,22.77919,120.49459,3.075239e-05
C0E610,馬都安,2026-02-26,24.451272,120.930192,9.850142e-10
C0E550,明德,2026-02-26,24.583486,120.885411,6.7481093e-10
C0R150,三地門,2026-02-26,22.709889,120.639944,0.9485606
C0G910,花壇,2026-02-26,24.032076,120.549461,1.986738e-09
C1D400,鳥嘴山,2026-02-26,24.71909,121.28387,3.537591e-09
C0K500,元長,2026-02-26,23.64981,120.315024,4.553556e-09
C0F0B0,石岡,2026-02-26,24.276061,120.777644,3.4637115e-10
C2V250,甲仙,2026-02-26,23.080106,120.591758,1.1505598e-09
C0SA20,金崙山,2026-02-26,22.567419,120.959667,1.3643189e-08
C0V350,溪埔,2026-02-26,22.738578,120.446797,0.00040480957
C0M660,溪口,2026-02-26,23.604131,120.403569,2.5359697e-08
C1S880,壽卡,2026-02-26,22.238911,120.858903,1.06187015e-08
72D680,桃改新埔分場,2026-02-26,24.834444,121.066111,1.1588828e-09
