站號,站名,日期,lat,lon,BLBTSLS
C0R710,龍磐,2026-07-08,21.931672,120.838942,0.6493947
C1F9D1,白毛台,2026-07-08,24.158325,120.886933,0.050029777
C0G940,竹塘,2026-07-08,23.848253,120.386764,0.06462247
467590,恆春,2026-07-08,22.003897,120.746339,0.7615878
C0U710,太平山,2026-07-08,24.505486,121.525656,6.017347e-09
C0E820,獅潭,2026-07-08,24.539133,120.920042,1.3914514e-06
C2SD70,二層坪,2026-07-08,22.94105,121.16838,0.29587024
C0V880,興達,2026-07-08,22.8778,120.2127,0.0004363248
C0SB30,新蘭,2026-07-08,22.869214,121.223228,0.22523709
C2R970,屏科大,2026-07-08,22.648275,120.619247,0.33912328
C1Z130,銅門,2026-07-08,23.965694,121.492842,0.2749375
C0AD40,土城,2026-07-08,24.973208,121.445169,0.7084107
CAN140,六官養殖協會,2026-07-08,23.22881,120.29962,1.153261e-05
C0X180,山上,2026-07-08,23.0757,120.363253,4.6109362e-05
C0F9Z0,雪山東峰,2026-07-08,24.388792,121.268675,8.342794e-09
C1M480,獨立山,2026-07-08,23.537022,120.607797,1.4331764e-05
C0X220,學甲,2026-07-08,23.230367,120.182187,2.8177887e-05
467650,日月潭,2026-07-08,23.881325,120.90805,4.5176137e-08
A2K570,古坑(花卉中心),2026-07-08,23.633531,120.552392,0.00055468234
C0K600,箔子寮,2026-07-08,23.6197,120.14,9.641533e-05
C0G830,埤頭,2026-07-08,23.866003,120.452806,0.9249853
C0S950,七塊厝,2026-07-08,22.954453,121.229922,0.09831052
467110,金門,2026-07-08,24.407306,118.289281,0.13908237
C0AH80,深坑,2026-07-08,25.002703,121.628328,0.21325108
C0A970,三貂角,2026-07-08,25.007606,122.002058,0.9998788
C2D730,寶山農場,2026-07-08,24.732444,120.976153,0.0027708944
C0K430,褒忠,2026-07-08,23.690938,120.303634,0.012006898
467480,嘉義,2026-07-08,23.495925,120.432906,0.009132361
C0V400,阿公店,2026-07-08,22.804194,120.355528,0.00072339905
C2S800,華源,2026-07-08,22.65783,121.0232,0.8178326
C2SA40,瑞和,2026-07-08,22.974361,121.156697,0.25994384
C0E960,觀霧分站,2026-07-08,24.505781,121.113921,2.868689e-09
467550,玉山,2026-07-08,23.48718,120.95943,1.3357046e-08
C0R440,大漢山,2026-07-08,22.405264,120.753181,1.9231345e-07
C0SD30,東清國小,2026-07-08,22.057128,121.564922,0.8627503
C1F9B1,桐林,2026-07-08,24.066172,120.735194,0.89661944
C2I210,蘆竹湳,2026-07-08,23.93398,120.81209,0.5446939
C2H9U0,鳳鵬,2026-07-08,23.763919,120.788061,0.0149146505
C0K390,土庫,2026-07-08,23.679029,120.395574,0.00046740912
C1I450,望鄉山,2026-07-08,23.594153,120.944286,4.0640304e-09
C0E910,海埔,2026-07-08,24.648767,120.772435,0.00046648577
B2E890,畜試北區分所,2026-07-08,24.527806,120.770972,0.5368064
C0R750,四林格山,2026-07-08,22.076989,120.802439,0.998068
C0F0C0,中坑,2026-07-08,24.248517,120.903319,1.2735511e-07
C1I121,大鞍,2026-07-08,23.678381,120.760017,5.330474e-09
C2G9E0,移民庄,2026-07-08,23.9784,120.40283,0.018882498
72U480,花改蘭陽分場,2026-07-08,24.686306,121.716583,0.15929772
C0A770,科教館,2026-07-08,25.096356,121.516507,0.94966775
C0AJ60,六塊厝,2026-07-08,25.24,121.4481,0.007193294
C0R620,墾雷,2026-07-08,21.900836,120.855269,0.6600754
467290,古坑,2026-07-08,23.633536,120.551906,0.00055468234
467420,永康,2026-07-08,23.038386,120.2367,0.00018675745
C2M530,奮起湖,2026-07-08,23.493903,120.699253,2.2697875e-09
C0I410,名間,2026-07-08,23.837053,120.701447,0.89384395
A2C560,農工中心,2026-07-08,24.985917,121.239833,0.006648613
C0V740,旗山,2026-07-08,22.888614,120.483597,0.0011106303
C0Z061,玉里,2026-07-08,23.3215,121.339656,0.044010725
C0S840,南田,2026-07-08,22.279725,120.889208,0.9509356
C1I470,杉林溪,2026-07-08,23.639517,120.786444,2.3938367e-09
C1X040,東原,2026-07-08,23.291597,120.463822,3.9361335e-06
C0R660,枋寮,2026-07-08,22.367722,120.590647,0.4427753
C0K450,大埤,2026-07-08,23.646074,120.431537,0.0032599198
C0UA00,土場,2026-07-08,24.576533,121.495333,0.41042128
467080,宜蘭,2026-07-08,24.763975,121.756528,0.10299272
C0N030,四草,2026-07-08,23.0235,120.1116,0.00020809828
467410,臺南,2026-07-08,22.99328,120.20492,0.00011592011
C0V650,彌陀,2026-07-08,22.783806,120.246361,0.0017611203
C0D660,新竹市東區,2026-07-08,24.798681,120.986942,0.026573958
82S580,茶改東部分場,2026-07-08,22.907694,121.130139,0.25464258
C0SB40,興隆,2026-07-08,22.913661,121.257469,0.49200633
467050,新屋,2026-07-08,25.006725,121.047492,0.0075528002
C0C710,大溪永福,2026-07-08,24.892936,121.324975,0.002878719
C0FA20,溫寮,2026-07-08,24.372177,120.583125,0.04080182
C0V640,湖內,2026-07-08,22.887139,120.2445,0.00043863247
C0R910,下寮,2026-07-08,22.3929,120.5548,0.47784036
C0Z020,明里,2026-07-08,23.208717,121.262342,0.02390089
C0M770,嘉義梅山,2026-07-08,23.585398,120.555587,0.0006372675
C0C660,楊梅,2026-07-08,24.912375,121.143047,0.28420198
C0SD40,牛頭山,2026-07-08,22.676661,121.506944,0.878851
C1E511,新開,2026-07-08,24.347703,120.827019,0.76370305
G2F820,農試所(霧峰),2026-07-08,24.031261,120.688133,0.79798645
C2M990,大巃頂,2026-07-08,23.5547,120.61439,7.50086e-09
C1I070,和社,2026-07-08,23.591131,120.888861,0.0044243922
C2E990,新坪頂,2026-07-08,24.30201,120.8574,0.4253599
C0TA80,立霧山,2026-07-08,24.183258,121.641899,1.6139593e-07
C2F000,大肚,2026-07-08,24.15295,120.572117,0.49796262
C1S850,豐南,2026-07-08,23.122139,121.262389,0.49877694
C2M9B0,西興,2026-07-08,23.2428,120.57617,5.452242e-06
C2A920,富貴角,2026-07-08,25.263783,121.565258,0.027301578
C0T960,光復,2026-07-08,23.660694,121.424964,0.14320469
C0F9M0,豐原,2026-07-08,24.254322,120.720692,0.30692765
C0R720,旭海,2026-07-08,22.205403,120.887614,0.98686963
C0V710,苓雅,2026-07-08,22.622742,120.330669,0.20555274
C0C740,觀音工業區,2026-07-08,25.064764,121.114856,0.0010732986
CAC040,拉拉山,2026-07-08,24.699317,121.427133,5.7544227e-09
C0V790,萬山,2026-07-08,22.905944,120.688056,7.897339e-05
U2HA30,臺大和社,2026-07-08,23.590856,120.888864,0.0044243922
C2H9K0,屯原,2026-07-08,24.067969,121.209389,1.0070738e-09
C0AJ90,澳底,2026-07-08,25.0552,121.9253,0.017527433
C0Z100,東華,2026-07-08,23.89525,121.549833,0.88109386
C0G970,三豐,2026-07-08,23.882,120.2895,0.029450452
C0V900,汕尾,2026-07-08,22.4782,120.4151,0.8996947
C1R630,龍泉,2026-07-08,22.66701,120.59091,0.31463763
C1AC50,關渡,2026-07-08,25.133486,121.469331,0.0070645586
C0C800,四稜,2026-07-08,24.64733,121.4293,1.3478937e-07
C0F9I0,神岡,2026-07-08,24.272481,120.658314,0.3045991
C0K460,斗南,2026-07-08,23.678734,120.478359,0.003336328
C2O810,曾文,2026-07-08,23.219681,120.497328,9.23989e-06
467280,後龍,2026-07-08,24.648563,120.831834,0.00032219556
C1F9J1,清水林,2026-07-08,24.071242,120.820419,0.57527065
C2A650,火燒寮,2026-07-08,25.002719,121.742892,0.25003663
466930,竹子湖,2026-07-08,25.162078,121.544547,0.35320383
C1I220,樟湖,2026-07-08,23.905333,120.846983,7.2798794e-09
C0I390,仁愛,2026-07-08,24.022122,121.132206,7.229209e-09
C0Z300,東里,2026-07-08,23.26853,121.30547,0.030128067
C1V590,新發,2026-07-08,23.057019,120.646064,6.9771913e-06
C0K510,水林,2026-07-08,23.572924,120.24597,0.000103689854
72S590,東改賓朗果園,2026-07-08,22.813889,121.071278,0.74011266
82A750,茶改北部分場,2026-07-08,24.955778,121.631222,0.362292
C1A750,石碇服務區,2026-07-08,25.00872,121.646242,0.699044
C0X300,鹿寮,2026-07-08,23.386047,120.477331,0.00049107854
C0K590,雲林東勢,2026-07-08,23.674192,120.255721,0.0008207338
C2K310,港尾布雞,2026-07-08,23.74834,120.38439,0.0005071022
C0A570,桶後,2026-07-08,24.848222,121.597992,0.079640545
C0G720,溪州,2026-07-08,23.851589,120.499093,0.9247571
C1V160,達卡努瓦,2026-07-08,23.279811,120.705319,3.5454202e-09
C2M410,馬頭山,2026-07-08,23.324361,120.582017,9.09009e-05
C0V850,蚵仔寮,2026-07-08,22.7256,120.2527,0.0019842142
C0S740,池上,2026-07-08,23.119628,121.209469,0.4613446
C1V390,尖山,2026-07-08,22.813153,120.367789,0.00078405126
C0AH70,松山,2026-07-08,25.04871,121.55042,0.95198363
C0N010,鯤鯓國小,2026-07-08,23.1879,120.0889,9.773125e-05
C0SA60,知本（水試所）,2026-07-08,22.702394,121.082761,0.098907754
C0T9I0,豐濱,2026-07-08,23.583897,121.514806,0.99843764
C0UB00,淡江大學蘭陽校園,2026-07-08,24.823239,121.730383,0.94361526
C0W240,九宮,2026-07-08,24.423753,118.240186,0.14875068
C0T9N0,富里,2026-07-08,23.171639,121.249378,0.012815735
U2HA50,臺大竹山,2026-07-08,23.756972,120.681556,0.91187006
C0V840,鳳鼻頭,2026-07-08,22.5083,120.3591,0.9001411
C0X140,西港,2026-07-08,23.125608,120.203108,6.897243e-05
72D080,桃改五峰分場,2026-07-08,24.612194,121.157167,1.975912e-08
C2H9P0,伊拿谷,2026-07-08,23.963211,121.088264,0.05259111
C2K250,崙背,2026-07-08,23.75553,120.31893,0.012053643
C2H9F0,柑林,2026-07-08,24.018658,120.847072,0.50663054
C0TA20,加灣,2026-07-08,24.082025,121.608944,0.041693434
C0V530,阿蓮,2026-07-08,22.883208,120.327508,0.0002669254
C0FB30,八仙山苗圃,2026-07-08,24.192719,121.001366,1.735303e-07
C0E791,卓蘭,2026-07-08,24.3126,120.8244,0.8081422
C2R260,春日,2026-07-08,22.370361,120.628306,0.9047903
C1I030,武界,2026-07-08,23.913225,121.052483,4.2462316e-06
C0R520,崁頂,2026-07-08,22.514781,120.506914,0.44099376
C0R341,牡丹,2026-07-08,22.130036,120.792639,0.99849707
C0R930,萬丹,2026-07-08,22.5885,120.4851,0.85901946
C0S760,紅石,2026-07-08,23.069131,121.126219,6.7221118e-09
C2C410,中央大學,2026-07-08,24.967652,121.185165,0.007166883
C1M610,石磐龍,2026-07-08,23.496606,120.663506,5.7441367e-09
C2C830,中德,2026-07-08,24.981862,121.291344,0.015787251
C0C790,東眼山,2026-07-08,24.8284,121.40888,3.1864877e-07
C0UA10,鴛鴦湖,2026-07-08,24.590269,121.412228,9.743061e-09
C0R800,丹路,2026-07-08,22.204481,120.750989,0.9906335
C2R240,萬巒,2026-07-08,22.527306,120.625111,0.68012553
C0G920,永靖,2026-07-08,23.924703,120.547533,0.7205643
C2M950,太和,2026-07-08,23.538372,120.702961,2.28581e-09
C1A630,下盆,2026-07-08,24.771003,121.538622,0.692031
B2N890,畜產試驗所,2026-07-08,23.058972,120.336406,4.8296984e-05
C0UA30,白嶺,2026-07-08,24.527819,121.519031,1.7801339e-08
467571,新竹,2026-07-08,24.828575,121.01455,0.00047925112
C1V580,溪南(特生中心),2026-07-08,23.084972,120.788475,2.3581446e-09
C1T970,大農,2026-07-08,23.615233,121.413331,0.9383463
C0R650,竹田,2026-07-08,22.58486,120.54344,0.52582276
C1H900,清流,2026-07-08,24.080775,120.962997,0.32014292
C1C510,水尾,2026-07-08,24.940081,121.087161,0.0014008443
C2N170,茅港尾,2026-07-08,23.2061,120.2624,1.153261e-05
C0F9X0,大雅(中科園區),2026-07-08,24.21528,120.62445,0.21051848
C0SB60,白守蓮,2026-07-08,23.126769,121.401914,0.72768164
C0O970,虎頭埤,2026-07-08,23.021375,120.347878,7.0591326e-05
C0C730,中大臨海站,2026-07-08,24.966126,121.008581,0.012824969
C0X250,新營,2026-07-08,23.310689,120.316681,1.0550168e-05
C0V700,三民,2026-07-08,22.645017,120.311233,0.0034252242
C0U870,大礁溪,2026-07-08,24.791042,121.675047,0.9586978
C0E870,高鐵苗栗,2026-07-08,24.60725,120.826094,0.00031041985
C2S890,關山,2026-07-08,23.0395,121.175017,0.3471078
C0TA30,鹽寮,2026-07-08,23.845606,121.592664,0.84014547
C0M860,新美,2026-07-08,23.338017,120.683169,4.3141384e-07
C1E701,八卦,2026-07-08,24.491756,120.927619,0.03342815
C2TA90,加納納,2026-07-08,23.466421,121.359867,0.98603773
C0I420,國姓,2026-07-08,24.037803,120.855072,0.4639758
C2D720,關西工作站,2026-07-08,24.757275,121.184792,0.012882768
C2AK30,信賢,2026-07-08,24.84108,121.53492,0.01928946
C0S960,香蘭,2026-07-08,22.587569,120.993375,0.9379342
467620,蘭嶼,2026-07-08,22.0369,121.55843,0.9862738
C2UC40,中城,2026-07-08,24.62865,121.74745,0.29172626
72G600,臺中農改場,2026-07-08,24.003028,120.534389,0.73888093
C0Z210,瑞穗,2026-07-08,23.5239,121.39021,0.999077
C0M820,達邦,2026-07-08,23.453994,120.749517,2.3311436e-08
C0V860,南寮,2026-07-08,22.7616,120.2339,0.0019842142
C0G740,大城,2026-07-08,23.852487,120.320935,0.030302618
C0R920,塭仔,2026-07-08,22.4169,120.5197,0.48270622
C0R470,高樹,2026-07-08,22.826389,120.600806,0.80698127
C0R680,佳樂水,2026-07-08,21.993578,120.861633,0.6741172
C1O870,大棟山,2026-07-08,23.31157,120.52226,1.782161e-09
C0D360,梅花,2026-07-08,24.678347,121.208558,2.403013e-05
C0Z190,富世,2026-07-08,24.14743,121.6297,0.99455714
C0AI10,屈尺,2026-07-08,24.92184,121.54475,0.7436738
B2U990,畜試東區分所,2026-07-08,24.669039,121.832561,0.15141147
C0SB80,長濱漁港,2026-07-08,23.313644,121.459994,0.98755616
C0TA50,和仁,2026-07-08,24.241394,121.712472,0.9897263
C2AK40,漁光,2026-07-08,24.96875,121.72132,2.7293372e-06
C0V910,大樹,2026-07-08,22.684645,120.432803,0.80417347
C1R610,西大武山,2026-07-08,22.617719,120.7322,1.7834541e-08
C0K500,元長,2026-07-08,23.642858,120.31966,0.0008207338
C0G900,線西,2026-07-08,24.143358,120.443536,0.33043873
C0M700,竹崎,2026-07-08,23.526178,120.555508,0.0005945063
C2E880,三義,2026-07-08,24.405478,120.749819,0.873337
C0C720,竹圍,2026-07-08,25.112692,121.239824,0.03217464
C0F9P0,清水,2026-07-08,24.312297,120.562242,0.052222185
C0Z150,吉安光華,2026-07-08,23.930925,121.595153,0.88445175
C0FA80,小雪山天池,2026-07-08,24.28025,121.02627,5.167764e-09
467300,東吉島,2026-07-08,23.25727,119.66762,0.35026863
C1D640,外坪(五指山),2026-07-08,24.644447,121.090961,0.0002850042
C2R9A0,高士國小,2026-07-08,22.12553,120.84653,0.9983718
C0F9O0,潭子,2026-07-08,24.213106,120.703933,0.2931718
C2H9R0,卓社,2026-07-08,23.887894,121.000086,1.3735855e-08
72T250,花蓮農改場,2026-07-08,23.975222,121.563889,0.90855044
C0E780,銅鑼,2026-07-08,24.489681,120.790853,0.55250823
C1T950,太安,2026-07-08,23.666719,121.370128,3.7114127e-08
C0E830,苑裡,2026-07-08,24.439714,120.653053,0.2623407
467270,田中,2026-07-08,23.873803,120.581286,0.91875803
C0SA10,檳榔四格山,2026-07-08,22.810031,121.109308,0.6098238
C1T830,布洛灣,2026-07-08,24.17184,121.57127,0.9641636
C0F970,大坑,2026-07-08,24.173142,120.722289,0.27765906
C1U920,思源,2026-07-08,24.393125,121.347214,1.5499381e-08
C2H9Y0,松茗,2026-07-08,23.8167,120.650765,0.0063309884
C0A931,三和,2026-07-08,25.233153,121.595236,0.0061560455
C0I010,廬山,2026-07-08,24.033311,121.181808,1.0470192e-09
C2M940,日野賀,2026-07-08,23.434056,120.727169,3.5625158e-09
C0R860,鼻頭,2026-07-08,22.1043,120.8979,0.757224
C2I260,北坑,2026-07-08,23.92463,121.00683,0.9173896
C0UB20,壯圍,2026-07-08,24.7359,121.8163,0.07605482
C0R790,九棚,2026-07-08,22.14195,120.889281,0.8836122
C0W110,東莒,2026-07-08,25.9652,119.98069,0.9863752
C1U930,粉鳥林,2026-07-08,24.497088,121.842479,0.029748026
C0S830,長濱,2026-07-08,23.286817,121.411975,0.17793135
C1F9F1,伯公龍,2026-07-08,24.272392,120.849047,0.4177171
C0UB90,太平山莊,2026-07-08,24.494171,121.536209,6.030491e-09
C0E810,西湖,2026-07-08,24.562947,120.7485,0.034123935
C1I440,新高口,2026-07-08,23.478744,120.878939,2.1380264e-09
C0O840,王爺宮,2026-07-08,23.222064,120.40085,0.000205178
C0T9G0,鳳林山,2026-07-08,23.735269,121.420131,0.11754762
C0X080,佳里,2026-07-08,23.173039,120.145086,8.370555e-05
C0FB70,大甲溪埔,2026-07-08,24.370625,120.620067,0.041934546
C0Z310,清水斷崖,2026-07-08,24.218294,121.689142,0.99825776
C0M680,太保,2026-07-08,23.455062,120.331455,0.00031598262
C1S820,金峰,2026-07-08,22.590969,120.933236,0.59931093
C0AD10,八里,2026-07-08,25.150211,121.403947,0.008912061
C2K240,草嶺,2026-07-08,23.59555,120.693461,1.929036e-08
C1SA70,都蘭,2026-07-08,22.87794,121.226881,0.22431885
C0K440,二崙,2026-07-08,23.772797,120.408944,0.3423866
C1A760,坪林交控,2026-07-08,24.94284,121.713442,0.07609883
C0F9N0,大里,2026-07-08,24.092464,120.701378,0.8634593
C0SA90,達仁林場,2026-07-08,22.264347,120.823972,0.9967828
C1R290,石門山,2026-07-08,22.112611,120.756597,0.994742
42HA10,萬大發電廠,2026-07-08,23.978875,121.139639,2.5364244e-08
C0R890,山海,2026-07-08,21.9878,120.7091,0.77005106
C0T9A0,月眉山,2026-07-08,23.809928,121.539828,5.75328e-05
C0AC70,信義,2026-07-08,25.037822,121.564597,0.93887424
C0K560,棋山,2026-07-08,23.68645,120.603417,0.42775404
C2FB50,出雲,2026-07-08,24.206469,120.902794,3.4018104e-08
C1Z240,中平林道,2026-07-08,23.42115,121.26763,1.3432926e-08
U2H480,溪頭,2026-07-08,23.670306,120.798194,1.9721604e-07
C0M880,好美里,2026-07-08,23.3364,120.138,9.712932e-06
C0T9E0,大坑,2026-07-08,23.880628,121.581981,0.99097455
C0K530,臺西,2026-07-08,23.701547,120.197559,0.042641625
C1E900,國一N128K,2026-07-08,24.560997,120.844186,0.003547572
C0AJ50,水湳洞,2026-07-08,25.123695,121.862238,0.018252846
C0AI20,白沙灣,2026-07-08,25.283128,121.519058,0.0053819586
C2V310,美濃,2026-07-08,22.898792,120.51907,0.0011018731
C0A860,大坪,2026-07-08,25.165914,121.632969,0.23524708
C1U850,觀音海岸,2026-07-08,24.38319,121.77856,0.28880557
C2K610,草嶺石壁,2026-07-08,23.602469,120.707731,1.2793412e-08
C0U950,鶯子嶺,2026-07-08,24.89754,121.79244,5.883084e-08
C0O900,善化,2026-07-08,23.112883,120.297219,4.805473e-05
C0K550,蔦松,2026-07-08,23.514319,120.229736,2.5785024e-05
E2P980,林試六龜中心,2026-07-08,22.991703,120.645722,0.000106193474
C0E590,通霄,2026-07-08,24.471892,120.704622,0.016682794
C1I310,西巒,2026-07-08,23.754486,120.883956,2.8546748e-07
C0A550,泰平,2026-07-08,24.971197,121.823711,0.009865341
C2UC30,金洋,2026-07-08,24.42465,121.74573,0.026964182
C0I360,水里,2026-07-08,23.812553,120.849792,0.28618836
C0R830,高士,2026-07-08,22.121825,120.836781,0.9959459
C1I101,溪頭,2026-07-08,23.661789,120.807647,2.4387938e-09
C0AJ20,野柳,2026-07-08,25.20703,121.690021,0.042140424
C0B060,暖暖,2026-07-08,25.0957,121.7403,0.051921383
C1H920,長豐,2026-07-08,24.102039,120.879897,0.0036800592
C2S9B0,利吉,2026-07-08,22.86246,121.15486,0.19823238
C0V360,內門,2026-07-08,22.975481,120.466769,0.000106292966
C0R850,林邊,2026-07-08,22.4634,120.5339,0.6415086
C0E930,龍鳳,2026-07-08,24.700034,120.859125,0.020353287
C0U910,冬山,2026-07-08,24.63373,121.7937,0.15141147
C1E721,泰安,2026-07-08,24.489017,120.968036,2.889992e-09
82H320,茶改中部分場,2026-07-08,23.875611,120.913583,6.192854e-06
C0M750,布袋,2026-07-08,23.380878,120.167789,5.887585e-05
C1S860,利嘉,2026-07-08,22.809417,121.050528,0.99292237
E2S980,林試太麻里1,2026-07-08,22.598922,120.980044,0.5203773
C0X170,關廟,2026-07-08,22.963017,120.327797,0.00032532975
C0V720,林園,2026-07-08,22.507747,120.394511,0.8924461
C2M9G0,沄水,2026-07-08,23.38293,120.52666,0.0015680194
C1I510,線浸林道,2026-07-08,23.761508,120.832956,1.7546794e-08
C0D690,外湖,2026-07-08,24.917735,120.968711,0.00031305273
C0C750,新興坑尾,2026-07-08,25.0061,121.0971,0.0014423837
B2Q810,畜試南區分所,2026-07-08,21.945583,120.802167,0.6741172
C0S790,金崙,2026-07-08,22.538122,120.966875,0.863538
C0AH90,福山植物園,2026-07-08,24.760717,121.58135,0.18900172
C0I540,奇萊稜線,2026-07-08,24.109231,121.326456,6.9111312e-09
C0M850,表湖,2026-07-08,23.24186,120.64166,3.7645063e-07
C0S770,大溪山,2026-07-08,22.478475,120.943325,0.99741966
C0AG80,中和,2026-07-08,24.991622,121.491792,0.7084107
C0T790,大禹嶺,2026-07-08,24.186117,121.316086,3.9970036e-09
C0T9B0,水源,2026-07-08,23.991861,121.537169,0.9242851
C0R840,牡丹池山,2026-07-08,22.168389,120.841225,0.9994665
C1I131,桶頭,2026-07-08,23.641944,120.654117,0.026493557
CAL110,布袋國中,2026-07-08,23.35893,120.18026,9.712932e-06
C2M9D0,何竹子腳,2026-07-08,23.53641,120.38203,0.008766254
C0Z290,赤柯山,2026-07-08,23.36893,121.38293,6.3764844e-08
C0X280,將軍,2026-07-08,23.214999,120.13577,2.89681e-05
C0S690,太麻里,2026-07-08,22.60902,120.98533,0.9994583
C0U880,北關,2026-07-08,24.9072,121.8734,0.10383725
CAW010,東引,2026-07-08,26.3588,120.4836,0.9973641
C0G810,埔心,2026-07-08,23.947633,120.525456,0.7140557
C0U970,大福,2026-07-08,24.80064,121.81389,0.09301962
C2H9N0,仁愛東眼,2026-07-08,24.026875,121.1205,3.3605863e-09
C1E670,南礦,2026-07-08,24.538278,121.002836,2.7505214e-09
C0M520,東後寮,2026-07-08,23.369908,120.248065,5.7465513e-06
C1E461,松安,2026-07-08,24.397972,120.986022,1.6740618e-08
C2N160,西拉雅風管處,2026-07-08,23.189481,120.335297,8.787075e-05
C2O850,環湖,2026-07-08,23.148665,120.4186,2.4893268e-05
C2M970,碧湖,2026-07-08,23.568632,120.624165,7.818697e-09
C0A640,石碇,2026-07-08,24.993969,121.662917,0.07609883
E2S960,林試太麻里2,2026-07-08,22.598,120.99775,0.93170446
C0F9Y0,桃山,2026-07-08,24.432739,121.303808,1.1046484e-08
C1I020,萬大,2026-07-08,23.979817,121.132261,6.8155828e-09
C2UC20,長嶺,2026-07-08,24.70894,121.61162,0.43098402
C0U940,羅東,2026-07-08,24.68184,121.74934,0.14197221
C0M650,朴子,2026-07-08,23.43463,120.23902,9.373605e-06
C1I500,大尖山,2026-07-08,23.858572,120.994889,2.4358975e-09
C0FB40,中橫21.6k,2026-07-08,24.2499,121.1455,2.1650781e-09
C0G820,田尾,2026-07-08,23.901669,120.509389,0.7140557
E2K600,四湖植物園,2026-07-08,23.676986,120.163433,0.0006551164
C0S730,綠島,2026-07-08,22.6672,121.47533,0.9103144
12Q970,東港工作站,2026-07-08,22.479997,120.466058,0.64513326
C1TA00,太魯閣,2026-07-08,24.15773,121.6236,0.013364998
466920,臺北,2026-07-08,25.037658,121.514853,0.95198363
C0R600,舊泰武,2026-07-08,22.588194,120.664944,0.99215394
466910,鞍部,2026-07-08,25.182586,121.529731,1.2737314e-08
C1I230,九份二山,2026-07-08,23.961944,120.845,0.11519906
C2M810,里佳,2026-07-08,23.389125,120.716647,1.7081176e-09
C2A660,瑞芳,2026-07-08,25.113169,121.801147,0.062229753
C0R270,琉球嶼,2026-07-08,22.332244,120.362236,0.20058836
C2V580,瑞山,2026-07-08,22.90304,120.43424,0.00011071269
C1T990,高寮,2026-07-08,23.394239,121.356808,0.97823495
C0G620,芬園,2026-07-08,24.015678,120.6213,0.9484589
C1Z140,荖溪,2026-07-08,23.890575,121.45964,1.419289e-07
C1I201,中心崙,2026-07-08,23.728722,120.712097,1.3825619e-05
C1I400,凌霄,2026-07-08,24.018778,121.004456,3.0122838e-09
C1M640,十字,2026-07-08,23.492153,120.753683,1.786899e-09
G2P820,農試鳳山分所,2026-07-08,22.646611,120.356083,0.20493297
C0Z270,蕃薯寮,2026-07-08,23.73835,121.540108,0.13310207
C2E420,竹南,2026-07-08,24.70898,120.88897,0.022290189
C2D480,打鐵坑,2026-07-08,24.849664,121.150789,0.0011301194
C0FB10,出雲山苗圃,2026-07-08,24.23105,120.90475,1.2735511e-07
C0F9Q0,外埔,2026-07-08,24.347817,120.705686,0.50749326
C0K580,高鐵雲林,2026-07-08,23.737456,120.417944,0.0005071022
C2I090,鳳凰,2026-07-08,23.728081,120.787347,5.6455525e-07
C0U990,員山,2026-07-08,24.74435,121.72247,0.13601348
C0V770,大社,2026-07-08,22.730306,120.346639,0.0026919753
C0X120,麻豆,2026-07-08,23.183289,120.248611,2.880963e-05
C0C670,龍潭,2026-07-08,24.870056,121.221389,0.02029928
C0D680,香山濕地,2026-07-08,24.783581,120.914988,0.00031305273
C0S980,勝林山,2026-07-08,22.430439,120.8938,0.8427245
C0V730,大寮,2026-07-08,22.605614,120.395717,0.9337599
C0R570,麟洛,2026-07-08,22.65078,120.52719,0.7135667
C2M930,石卓,2026-07-08,23.478744,120.702264,1.8087074e-09
C0G9B0,和美,2026-07-08,24.105169,120.492131,0.07275546
C2I240,外大坪,2026-07-08,23.9587,120.91788,0.9077579
CAG100,王功漁港,2026-07-08,23.96824,120.32586,0.0055815894
C0X290,北門,2026-07-08,23.267772,120.125481,2.89681e-05
C2F930,大甲,2026-07-08,24.347667,120.640403,0.1207777
C0D650,湖口,2026-07-08,24.904794,121.043628,0.000664803
C0U780,五結,2026-07-08,24.68637,121.79794,0.15141147
C1I250,鯉潭,2026-07-08,23.961922,120.991131,0.68586653
C0R130,阿禮,2026-07-08,22.742908,120.743678,3.278011e-05
C0X100,臺南市北區,2026-07-08,23.010394,120.194228,0.000112907146
C0S920,金峰嘉蘭,2026-07-08,22.594789,120.960825,0.9717782
C0V490,新興,2026-07-08,22.627422,120.298803,0.007271512
C0F9K0,大安,2026-07-08,24.345061,120.588025,0.11001147
C2E970,八甲,2026-07-08,24.535811,120.795983,0.0051003145
C0V440,鳳山,2026-07-08,22.646653,120.356122,0.20493297
C1T940,大觀,2026-07-08,23.714206,121.373133,0.00025093116
C0E740,造橋,2026-07-08,24.637056,120.864778,0.0008020084
C0R100,尾寮山,2026-07-08,22.833111,120.683889,1.1881522e-05
A2K630,臺大雲林校區,2026-07-08,23.730628,120.423903,0.0005029895
467990,馬祖,2026-07-08,26.169467,119.923158,0.9928533
C0D580,寶山,2026-07-08,24.735006,121.025192,0.0015225701
E2P990,林試扇平站,2026-07-08,22.9677,120.6857,4.1170415e-06
C0AI30,三重,2026-07-08,25.057328,121.500629,0.94966775
C0AH00,汐止,2026-07-08,25.066881,121.658778,0.36040574
C1Z040,立山,2026-07-08,23.443356,121.327375,0.02889688
466881,新北,2026-07-08,24.959207,121.525196,0.7087875
C0W130,花嶼,2026-07-08,23.40007,119.32276,0.999683
C0A950,鼻頭角,2026-07-08,25.129036,121.923372,0.9999024
C0K470,林內,2026-07-08,23.748675,120.609642,0.4260478
C2F990,摩天嶺,2026-07-08,24.322458,120.936819,9.378806e-08
C2E430,南庄,2026-07-08,24.601775,121.000214,7.962058e-06
82C160,茶改場,2026-07-08,24.908472,121.185333,0.32098383
C2TB60,南安,2026-07-08,23.29818,121.26157,0.008962232
C0Z320,清水林道,2026-07-08,23.27125,121.188272,2.0100506e-06
C0R760,南仁湖,2026-07-08,22.084681,120.863353,0.99471456
C0M670,大林,2026-07-08,23.600616,120.45841,0.021333417
C0M800,茶山,2026-07-08,23.299075,120.664767,6.647838e-06
C0A9C0,天母,2026-07-08,25.117494,121.537169,0.93942004
72K220,南改斗南分場,2026-07-08,23.634556,120.477333,0.0033156688
72AI40,桃改樹林分場,2026-07-08,24.944503,121.386972,0.051630758
C0S910,蘭嶼燈塔,2026-07-08,22.081197,121.503117,0.913885
C0B050,八斗子,2026-07-08,25.144754,121.79167,0.1642326
C0U900,內城,2026-07-08,24.71813,121.68766,0.14583777
C0X320,柳營,2026-07-08,23.253328,120.375253,0.00014547088
C0M790,新港,2026-07-08,23.553269,120.345728,0.0001168517
C0F9T0,西屯,2026-07-08,24.179494,120.641275,0.2078753
C0E950,松安,2026-07-08,24.39792,120.98599,1.6740618e-08
C0SA30,都歷,2026-07-08,23.020333,121.323642,0.46718282
C0C620,蘆竹,2026-07-08,25.084275,121.265767,0.0062234807
C0R730,大坪頂,2026-07-08,22.024633,120.69355,0.9661909
C0AJ40,石門,2026-07-08,25.273672,121.601198,0.022392275
C0E750,苗栗,2026-07-08,24.564569,120.824575,0.0034987538
C0T870,鯉魚潭,2026-07-08,23.935639,121.508944,0.97491974
C1V170,排雲,2026-07-08,23.463619,120.954147,1.0515247e-08
C2H950,中寮,2026-07-08,23.884447,120.766406,0.38987562
C0R350,貓鼻頭,2026-07-08,21.921774,120.7358,0.75789255
C0V660,岡山,2026-07-08,22.797078,120.294958,0.0017723485
C1H941,雙冬,2026-07-08,23.967378,120.802189,0.9777249
C0AJ70,田寮,2026-07-08,25.2698,121.4886,0.005244048
C0AI00,五股,2026-07-08,25.07445,121.42728,0.31239355
C0Z280,德武,2026-07-08,23.47426,121.41071,0.99325645
C2RA10,大新,2026-07-08,22.67558,120.57788,0.31463763
C0C460,復興,2026-07-08,24.820208,121.352281,0.0003270532
C2AA10,中八仙,2026-07-08,25.11576,121.49199,0.9301975
C2K300,鹿南,2026-07-08,23.63855,120.3636,0.0070696175
E2H360,蓮華池,2026-07-08,23.918333,120.885278,0.9885286
C0M640,中埔,2026-07-08,23.42538,120.5229,0.00093192805
C2C810,八德蔬果,2026-07-08,24.97858,121.28187,0.015787251
C2M9F0,安溪寮,2026-07-08,23.350334,120.208039,8.9481155e-06
C0W140,金沙,2026-07-08,24.488292,118.408778,0.097390465
C2A540,四堵,2026-07-08,24.8926,121.745736,0.69665146
C0ACA0,新莊,2026-07-08,25.051478,121.446756,0.42292687
C0R220,潮州,2026-07-08,22.534361,120.54,0.4410307
U2HA40,臺大內茅埔,2026-07-08,23.689722,120.851117,0.3197703
467490,臺中,2026-07-08,24.145736,120.684075,0.27698404
C0UB60,明池,2026-07-08,24.650688,121.475277,2.3055016e-08
C0U960,翠峰湖,2026-07-08,24.510856,121.608044,5.8879306e-09
E2HA20,林試畢祿溪站,2026-07-08,24.226944,121.308522,1.5651893e-09
C2M9A0,大華,2026-07-08,23.4824,120.67491,1.07096625e-08
C0V890,前鎮,2026-07-08,22.5718,120.3117,0.39836597
C1F941,雪嶺,2026-07-08,24.280586,121.026642,5.167764e-09
C2H9E0,國姓南港,2026-07-08,23.911108,120.846556,5.661903e-09
C0AC80,文山,2026-07-08,25.00235,121.575728,0.8500605
C0F9R0,龍井,2026-07-08,24.184536,120.528972,0.12837678
C0M760,民雄,2026-07-08,23.551754,120.428457,0.021333417
C0UA40,西德山,2026-07-08,24.560647,121.752608,7.697275e-07
C2TA70,赤科坪,2026-07-08,23.39885,121.39168,3.9694655e-07
C1T920,中興,2026-07-08,23.769503,121.498653,0.7061176
C0D550,雪霸,2026-07-08,24.526972,121.11605,2.373627e-09
C2F860,梨山,2026-07-08,24.247522,121.243669,1.7025719e-09
C0R320,車城,2026-07-08,22.0744,120.716247,0.7788907
C1S870,南美山,2026-07-08,23.15025,121.382333,0.62906754
C0B020,基隆嶼,2026-07-08,25.19141,121.78391,0.11604013
C1U501,牛鬥,2026-07-08,24.637836,121.573656,0.01815581
C0M730,嘉義市東區,2026-07-08,23.457673,120.460531,0.0014751252
C2R990,泰武,2026-07-08,22.60686,120.69765,0.08825649
C0S700,知本,2026-07-08,22.684866,121.005642,0.99971575
C1N001,沙崙,2026-07-08,22.935472,120.309406,0.00031668652
C0V760,橋頭,2026-07-08,22.757806,120.30575,0.0026268822
C2V570,吉東,2026-07-08,22.85418,120.54539,0.7947088
C0G960,福寶,2026-07-08,24.0443,120.3814,0.01599687
C0X210,白河,2026-07-08,23.347466,120.414427,0.00018396183
C0S810,東河,2026-07-08,22.972672,121.303986,0.28462133
C2R170,屏東,2026-07-08,22.66027,120.49403,0.7135667
C0R670,楓港,2026-07-08,22.190131,120.692156,0.9582969
C0FA50,霧峰,2026-07-08,24.0419,120.6995,0.8741255
C0UB10,蘇澳,2026-07-08,24.5969,121.8571,0.051225536
C0G950,防潮門,2026-07-08,24.1835,120.4871,0.33265924
C0M740,六腳,2026-07-08,23.492871,120.290625,4.7379148e-05
C1R250,力里,2026-07-08,22.428117,120.629228,0.40780613
C0K330,虎尾,2026-07-08,23.719183,120.442036,0.0005238611
C2FA00,烏石坑,2026-07-08,24.273503,120.947617,9.40661e-08
C0V620,永安,2026-07-08,22.82315,120.236856,0.0017551222
C1I330,楓樹林,2026-07-08,23.986803,121.076117,1.05428e-08
C0W200,湖西,2026-07-08,23.596314,119.67275,0.019211307
72Q010,高雄農改場,2026-07-08,22.709333,120.525889,0.6236428
C2K301,鹿南,2026-07-08,23.643341,120.3683,0.00033125683
C0C680,龜山,2026-07-08,25.02846,121.38656,0.09021789
C2V260,月眉,2026-07-08,22.971003,120.539853,0.0007483798
C0V450,鳳森,2026-07-08,22.545064,120.392592,0.895077
C0FA90,小雪山林道,2026-07-08,24.29515,121.03651,5.9862324e-09
C0U720,南山,2026-07-08,24.43742,121.38167,4.1786276e-07
A2N290,臺南蘭花園區,2026-07-08,23.340258,120.379661,0.00011007194
C0R560,新園,2026-07-08,22.5434,120.461558,0.8924461
C0U890,三星,2026-07-08,24.66812,121.65302,0.42587206
C1V300,御油山,2026-07-08,23.001983,120.715364,2.3483866e-09
C0U600,礁溪,2026-07-08,24.817539,121.765608,0.10704771
C1T980,龍澗,2026-07-08,24.023289,121.411328,2.0131858e-07
C0R700,枋山,2026-07-08,22.247814,120.660794,0.9272003
C0D670,海天一線,2026-07-08,24.831986,120.914438,0.00010553218
C0SA00,歷坵,2026-07-08,22.520969,120.89185,0.98690003
C0M710,東石,2026-07-08,23.458927,120.15385,5.0927167e-05
C0M780,鹿草,2026-07-08,23.41134,120.30835,9.497104e-06
C0U520,雙連埤,2026-07-08,24.753033,121.641303,0.56048954
C0B010,七堵,2026-07-08,25.094819,121.71713,0.114934415
C0R480,長治,2026-07-08,22.693128,120.542622,0.2527962
C1V830,國三S383K,2026-07-08,22.781967,120.426475,0.73862046
12Q980,恆春工作站,2026-07-08,22.079678,120.714425,0.7788907
C1O940,東山服務區,2026-07-08,23.286016,120.398472,0.0001113902
C1U840,東澳嶺,2026-07-08,24.5378,121.8485,8.101652e-05
C1D630,飛鳳山,2026-07-08,24.766464,121.119178,0.00028307526
C0S940,石寧山,2026-07-08,23.223772,121.406639,0.9955688
C0K410,北港,2026-07-08,23.573957,120.292802,0.00010420648
C2M620,瑞里,2026-07-08,23.545133,120.675197,4.4635664e-09
C0SB70,小港漁港,2026-07-08,23.158558,121.400431,0.7299973
C2O950,安南,2026-07-08,23.076694,120.144861,0.00017541024
C0F0E0,南湖圈谷,2026-07-08,24.363714,121.444667,1.2890433e-08
467610,成功,2026-07-08,23.097486,121.373428,0.8611652
C0G890,伸港,2026-07-08,24.148933,120.484403,0.32557258
C2E540,龍溪,2026-07-08,24.606489,120.783933,0.0031250939
C1V200,梅山,2026-07-08,23.268447,120.823556,6.737955e-08
C0T9H0,加路蘭山,2026-07-08,23.682947,121.5274,3.967997e-07
C2O930,玉井,2026-07-08,23.126042,120.46055,2.4893268e-05
C1F911,新伯公,2026-07-08,24.221361,120.841069,0.07522429
C0X200,左鎮,2026-07-08,23.056758,120.408522,9.76571e-05
C2TB50,麻汝,2026-07-08,23.42554,121.39358,0.9946099
C0FA60,鞍馬山工作站,2026-07-08,24.267064,121.000793,3.438214e-09
C0SB50,叭嗡嗡,2026-07-08,23.047062,121.343223,0.8699493
C2R550,新埤,2026-07-08,22.467947,120.582894,0.42883328
C1F891,稍來,2026-07-08,24.265689,121.001142,3.3024012e-09
C2M9C0,紫雲,2026-07-08,23.494914,120.540253,0.00079463434
72N240,七股研究中心,2026-07-08,23.081672,120.062894,0.00020809828
C0C700,中壢,2026-07-08,24.977661,121.256375,0.016983265
C0M690,水上,2026-07-08,23.419734,120.388909,0.0025754403
C0V690,鼓山,2026-07-08,22.623325,120.275575,0.007271512
C0O860,大內,2026-07-08,23.11885,120.36083,7.7930235e-05
C0Z200,萬榮,2026-07-08,23.709219,121.420106,0.3883124
C0T9D0,和中,2026-07-08,24.26676,121.74103,0.98797286
C2S9A0,北份子寮,2026-07-08,22.78561,121.07813,0.7161651
C1O921,楠西,2026-07-08,23.183511,120.484083,2.6273347e-05
C0AJ30,淡水觀海,2026-07-08,25.184591,121.408616,0.0086178705
C0V810,左營,2026-07-08,22.67491,120.28491,0.0034252242
C0UA70,桃源谷,2026-07-08,24.962606,121.888875,0.0027817863
C0X130,官田,2026-07-08,23.193217,120.315422,8.692094e-05
C1H000,翠峰,2026-07-08,24.109397,121.205211,1.581101e-09
C0UA90,石城,2026-07-08,24.980444,121.951214,0.99980533
C1E681,南勢山,2026-07-08,24.421669,120.923831,0.016887343
C0A9F0,內湖,2026-07-08,25.079422,121.57545,0.93887424
C0K291,宜梧,2026-07-08,23.536281,120.169329,9.047767e-05
C1K540,口湖,2026-07-08,23.585344,120.180517,9.641533e-05
C0R780,滿州,2026-07-08,22.024403,120.839892,0.80221605
C0V870,文安,2026-07-08,22.8025,120.2164,0.0019842142
C0U650,玉蘭,2026-07-08,24.675286,121.587061,0.44795486
C0R640,東港,2026-07-08,22.46247,120.44074,0.9001411
C0AJ80,板橋,2026-07-08,25.0107,121.4489,0.7084107
C0S660,下馬,2026-07-08,23.150427,121.070312,2.143654e-06
C2N190,烏樹,2026-07-08,23.32393,120.36989,6.158608e-05
C1H9B1,阿眉,2026-07-08,24.1263,120.994672,1.8999469e-09
C0UA20,多加屯,2026-07-08,24.368614,121.373189,4.18872e-09
C0E730,頭份,2026-07-08,24.688247,120.912206,0.021087218
72V140,高改旗南分場,2026-07-08,22.857861,120.516667,0.0018541005
C2R490,九如,2026-07-08,22.74049,120.490555,0.6236428
C0K480,莿桐,2026-07-08,23.761192,120.502372,0.010392615
C0U980,坪林石牌,2026-07-08,24.86478,121.77396,0.000526295
C0T900,西林,2026-07-08,23.8119,121.441458,0.7836939
C1I150,青雲,2026-07-08,23.793361,120.949378,0.10737494
C2E980,和興,2026-07-08,24.505319,120.923016,0.6052824
467350,澎湖,2026-07-08,23.565503,119.563094,0.95915097
C0G800,埔鹽,2026-07-08,24.000394,120.431683,0.016228369
C0H960,草屯,2026-07-08,23.973672,120.68085,0.8860457
C1V780,多納林道,2026-07-08,22.888028,120.737917,9.290849e-09
C0E920,通霄漁港,2026-07-08,24.498589,120.673876,0.016208597
C0Z330,安通山,2026-07-08,23.290728,121.348528,1.1835311e-06
C0AH10,永和,2026-07-08,25.01125,121.508111,0.7017078
C0AK10,太平里,2026-07-08,25.134937,121.364899,0.10517842
C2G640,鹿港,2026-07-08,24.0753,120.430481,0.073095545
C1E890,國三N149K,2026-07-08,24.463414,120.680019,0.016871493
C1R110,口社,2026-07-08,22.770111,120.645222,0.021783808
C1M870,國三N285K,2026-07-08,23.550319,120.505833,0.00086281373
C1E480,鳳美,2026-07-08,24.554803,121.034747,1.1772581e-07
C0T9M0,靜浦,2026-07-08,23.455167,121.495028,0.99764675
C2H9M0,發祥,2026-07-08,24.154094,121.164517,1.8459305e-08
C2G9C0,埔南,2026-07-08,23.99124,120.46969,0.016228378
C0AI40,石牌,2026-07-08,25.115597,121.513139,0.93887424
C1F871,上谷關,2026-07-08,24.203483,121.018644,9.40661e-08
C2H9G0,百勝,2026-07-08,24.051142,120.909361,0.8629412
C0G880,二水,2026-07-08,23.810742,120.6173,0.8968665
C0R940,加祿堂,2026-07-08,22.3363,120.6217,0.91794074
C0W220,北竿,2026-07-08,26.220358,119.974881,0.9830118
C0O960,崎頂,2026-07-08,22.959547,120.369317,0.00035767356
C0TA40,秀林,2026-07-08,24.302864,121.731144,0.0034692197
C0S750,向陽,2026-07-08,23.248397,120.986133,1.6709951e-09
C0T9F0,水璉,2026-07-08,23.797131,121.542514,0.5433463
C1M600,頭凍,2026-07-08,23.406364,120.603339,6.9299277e-09
467660,臺東,2026-07-08,22.752211,121.154586,0.8485745
C1D380,新埔,2026-07-08,24.84745,121.03834,0.0006076681
C2G980,田頭村,2026-07-08,23.8263,120.444175,0.3423866
C0V750,路竹,2026-07-08,22.854997,120.259439,0.0018254259
C0N050,蚵寮,2026-07-08,23.301,120.1104,2.896807e-05
C2X060,下營,2026-07-08,23.226806,120.256291,1.153261e-05
72M700,南改鹿草分場,2026-07-08,23.416869,120.283061,9.486676e-06
C1SA50,利嘉林道,2026-07-08,22.82325,121.009389,4.2686086e-08
C0UB70,太平山中間站,2026-07-08,24.542003,121.513453,0.0004852557
C0A940,金山,2026-07-08,25.223628,121.643967,0.008849388
C1V340,大津,2026-07-08,22.888322,120.645986,0.021682363
C0W180,七美,2026-07-08,23.219333,119.444892,0.9993002
C1F9C1,白冷,2026-07-08,24.182844,120.929889,0.078135245
K2E710,苗改生物防治研究中心,2026-07-08,24.422861,120.871833,0.6468216
C0N040,蘆竹溝,2026-07-08,23.2344,120.0961,2.8713686e-05
C0TB40,崇德,2026-07-08,24.166144,121.657414,0.969539
C0D760,大坪苗圃,2026-07-08,24.5362,121.1108,1.6898928e-09
C2D430,峨眉,2026-07-08,24.6905,121.017189,0.0010690117
C2W230,畜試所澎湖,2026-07-08,23.628342,119.513206,0.61828786
C0R880,後壁湖,2026-07-08,21.9457,120.7457,0.77005106
C1I280,埔中,2026-07-08,23.820778,120.642594,0.0061121443
467790,墾丁雷達站,2026-07-08,21.948235,120.808028,0.66661364
C0W190,望安,2026-07-08,23.380564,119.494075,0.999231
C0Z170,卓溪,2026-07-08,23.3443,121.3029,0.02624464
C0F850,東勢,2026-07-08,24.246428,120.833047,0.07508601
466900,淡水,2026-07-08,25.164889,121.448906,0.005680208
C0I370,魚池,2026-07-08,23.895703,120.94135,0.983877
C0C630,大溪,2026-07-08,24.882853,121.265547,0.4213928
C0A520,山佳,2026-07-08,24.974944,121.402008,0.05780401
C0I110,竹山,2026-07-08,23.761225,120.688156,0.9110314
82H840,茶改南部分場,2026-07-08,23.762528,120.7405,0.018553782
C2SD80,再來山,2026-07-08,23.34371,121.44122,0.71008056
C0G660,溪湖,2026-07-08,23.94835,120.479122,0.72033733
C1T800,洛韶,2026-07-08,24.204558,121.453956,7.1458035e-09
C1T810,慈恩,2026-07-08,24.192044,121.388386,4.1295416e-09
C1E451,象鼻,2026-07-08,24.368617,120.940228,0.016887343
C0AC60,三峽,2026-07-08,24.939025,121.369728,0.5974863
C0I490,萬大林道,2026-07-08,23.928228,121.091411,4.077229e-09
C1I290,豐丘,2026-07-08,23.668178,120.887417,4.1424734e-08
C1I320,奧萬大,2026-07-08,23.952956,121.178556,1.2782582e-08
C2M910,嘉義大學,2026-07-08,23.471325,120.485903,0.0016221335
C0U770,南澳,2026-07-08,24.44935,121.81022,0.029748026
C2TB30,吉安,2026-07-08,23.94538,121.54803,0.9374035
C0A980,社子,2026-07-08,25.109508,121.469681,0.055621333
C0V800,六龜,2026-07-08,22.997889,120.633583,0.00015363959
C1G9D0,國一S218K,2026-07-08,23.890641,120.493253,0.8378024
C0E570,白沙屯,2026-07-08,24.549447,120.696803,0.032121364
C2F9A0,中竹林,2026-07-08,24.103556,120.751061,0.8786618
C0FA40,臺中電廠,2026-07-08,24.2146,120.4907,0.1742828
C2G9A0,畜試所彰化,2026-07-08,23.86045,120.557964,0.91875803
C0H9C0,合歡山,2026-07-08,24.143442,121.272547,9.1998045e-09
G2M350,農試溪口農場,2026-07-08,23.58565,120.408111,0.020927519
C0U860,頭城,2026-07-08,24.85323,121.8308,0.37935188
C0R580,南州,2026-07-08,22.48591,120.50274,0.64513326
C0G780,秀水,2026-07-08,24.03405,120.503869,0.73888093
72N100,臺南農改場,2026-07-08,23.0605,120.342194,4.8713653e-05
C0S900,蘭嶼高中,2026-07-08,22.04909,121.51214,0.8335196
C2TA60,六十石,2026-07-08,23.22477,121.31861,2.0105606e-08
C1F9W0,德基,2026-07-08,24.254783,121.190261,1.5150268e-09
C2M980,安和,2026-07-08,23.51377,120.31593,4.7379148e-05
C1Z120,壽豐,2026-07-08,23.870853,121.508081,0.88109386
C0W160,烏坵,2026-07-08,24.9944,119.44956,0.9961088
C1I550,國六W023K,2026-07-08,23.979067,120.867742,0.4320761
C0R870,興海,2026-07-08,21.9752,120.8439,0.6741172
C0R140,瑪家,2026-07-08,22.682903,120.686639,0.9930958
C0A530,坪林,2026-07-08,24.938183,121.70975,0.08104047
C0X260,後壁,2026-07-08,23.366358,120.362326,2.6552989e-05
C0Z230,和平,2026-07-08,24.30717,121.77007,0.99270797
C0G770,福興,2026-07-08,24.041289,120.437669,0.016228369
C0H9A0,神木村,2026-07-08,23.532742,120.843667,2.525966e-09
C0I460,南投,2026-07-08,23.911469,120.687331,0.8874295
C0I480,梅峰,2026-07-08,24.085272,121.173572,1.0997308e-09
C2D770,巨埔,2026-07-08,24.84435,121.11442,0.012867339
C2A560,福山,2026-07-08,24.776203,121.502811,0.38079295
C0AH30,五分山,2026-07-08,25.07125,121.780794,6.5585175e-07
C0FA10,松柏,2026-07-08,24.429115,120.617482,0.25430283
72S200,東改班鳩分場,2026-07-08,22.829528,121.077694,0.8108381
72HA00,中改埔里分場,2026-07-08,23.903208,120.963364,0.9862697
C2H9W0,大坪頂農水,2026-07-08,24.043122,120.932781,0.98955375
C0C650,平鎮,2026-07-08,24.897503,121.214636,0.11982805
C0S930,延平,2026-07-08,22.902581,121.084058,0.18522504
C0UA60,樟樹山,2026-07-08,24.41393,121.78325,0.937314
C2UC10,出水溪,2026-07-08,24.615822,121.652253,0.8989111
C1S670,摩天,2026-07-08,23.199503,121.027,5.6304246e-09
C2C590,觀音,2026-07-08,25.027072,121.153317,0.0015772969
C0V630,茄萣,2026-07-08,22.906642,120.182608,0.0004363248
466940,基隆,2026-07-08,25.133314,121.740475,0.13816306
C0X050,東河,2026-07-08,23.296598,120.385608,0.00011007194
C0R770,保力,2026-07-08,22.071122,120.764111,0.94779354
G2L020,農試嘉義分所,2026-07-08,23.485028,120.473806,0.0016594501
C0X240,關子嶺,2026-07-08,23.331169,120.508025,3.3203041e-06
C0I380,集集,2026-07-08,23.828206,120.801467,0.32003632
466990,花蓮,2026-07-08,23.975128,121.613275,0.041693453
C1V220,小關山,2026-07-08,23.154217,120.813603,2.5246656e-09
C1F9G1,慶福山,2026-07-08,24.180853,120.848378,0.019095385
C0FB20,雪山橋,2026-07-08,24.23192,120.9786,2.83061e-09
C0Z250,瑞穗林道,2026-07-08,23.49284,121.30688,2.4799707e-08
C0D590,新豐,2026-07-08,24.87068,120.97721,0.00021306462
C2N200,口宵里,2026-07-08,23.15987,120.45988,2.1708659e-06
C0A870,五指山,2026-07-08,25.132153,121.608692,0.028419899
C0UA50,西帽山,2026-07-08,24.555361,121.802628,0.00012377299
C2R980,竹田國中,2026-07-08,22.61532,120.52412,0.52785695
C0X160,仁德,2026-07-08,22.968258,120.257689,0.0004010807
C1H971,六分寮,2026-07-08,23.92507,120.6378,0.5311663
C2D790,石鹿,2026-07-08,24.56551,121.15841,4.578053e-09
C0W120,西嶼,2026-07-08,23.5626,119.468436,0.9915825
C0G650,員林,2026-07-08,23.946503,120.585597,0.92856526
C0AD50,鶯歌,2026-07-08,24.951533,121.346294,0.010949147
C2H9Q0,北東眼山,2026-07-08,24.120939,121.189303,1.1081763e-09
C2H9T0,名間竹圍,2026-07-08,23.859914,120.637572,0.68690753
C0S990,山豬窟,2026-07-08,22.318619,120.857372,0.9953564
C0X190,安平,2026-07-08,22.993161,120.152181,0.00013384166
C0K400,斗六,2026-07-08,23.720583,120.541127,0.010575502
12J990,口湖工作站,2026-07-08,23.589978,120.180394,9.641533e-05
C0O830,北寮,2026-07-08,23.079561,120.495008,4.1953208e-05
C1D410,白蘭,2026-07-08,24.579364,121.079947,2.7028835e-09
C0S970,加津林,2026-07-08,22.416211,120.926942,0.90397644
C0D700,關西,2026-07-08,24.7977,121.1732,0.012875706
C0U750,龜山島,2026-07-08,24.841667,121.953133,0.7407281
C0R810,內獅,2026-07-08,22.305064,120.642986,0.9272003
C2EA10,拉庫斯,2026-07-08,24.53637,121.02137,5.7406537e-09
C1M390,龍美,2026-07-08,23.406728,120.654417,3.8146806e-09
C2K290,崙內,2026-07-08,23.69525,120.35601,0.00033125683
C2FB60,頭櫃山,2026-07-08,24.129842,120.858925,1.6987451e-08
C1H840,國三N238K,2026-07-08,23.841008,120.707711,0.017643388
CAQ030,崎峰國小,2026-07-08,22.42565,120.49521,0.64513326
C2E520,大湖,2026-07-08,24.414939,120.870872,0.6837819
467530,阿里山,2026-07-08,23.508208,120.813242,1.8074073e-09
C1E691,南湖,2026-07-08,24.40135,120.837533,0.85813445
C0FA30,梧棲,2026-07-08,24.256003,120.523381,0.12837678
C1V231,高中,2026-07-08,23.134911,120.716711,8.2404733e-07
C0AK30,硬漢嶺,2026-07-08,25.136097,121.426372,2.974363e-07
C0F9V0,新社,2026-07-08,24.200172,120.815806,0.17247982
C0H890,埔里,2026-07-08,23.972169,120.952425,0.6712428
C0R690,墾丁,2026-07-08,21.966756,120.810269,0.7289088
C0SD20,富山,2026-07-08,22.822383,121.190825,0.32477507
C0F0D0,審馬陣,2026-07-08,24.381675,121.4203,8.122625e-09
C2W030,金門農試所,2026-07-08,24.448431,118.451786,0.19875437
C0R820,白鷺,2026-07-08,22.454275,120.666219,0.085556276
C0FB00,大雪山,2026-07-08,24.254668,121.007374,3.5104029e-09
C2O880,南化,2026-07-08,23.17332,120.59413,2.7705615e-05
C1V190,南天池,2026-07-08,23.27403,120.91176,2.107161e-09
C0E940,雪見,2026-07-08,24.42595,121.01347,2.3546927e-09
K2E360,苗栗農改場,2026-07-08,24.495722,120.829111,0.57836664
CAJ050,海口故事園區,2026-07-08,23.57543,120.14121,9.641533e-05
C2K280,四湖,2026-07-08,23.6304,120.22717,0.0006551164
C2H9D0,三隻寮,2026-07-08,24.093078,120.861578,0.4052036
C0O990,媽廟,2026-07-08,22.99175,120.293525,0.00018915208
C0Z220,和平林道,2026-07-08,24.343922,121.656317,0.98399246
C0TA10,花蓮漁港,2026-07-08,23.995322,121.638331,0.99769694
72C440,桃園農改場,2026-07-08,24.950944,121.030583,0.0005158488
C1E711,馬拉邦山,2026-07-08,24.367306,120.901656,0.07447298
C0SB20,富岡,2026-07-08,22.792467,121.192669,0.32275304
C0D560,竹東,2026-07-08,24.767147,121.057881,0.0060543134
C0F9U0,南屯,2026-07-08,24.137006,120.637969,0.3051163
C2SD60,明峰,2026-07-08,22.8671,121.11825,0.97206587
C0M720,番路,2026-07-08,23.464657,120.554156,0.001596458
C0F0A0,雪山圈谷,2026-07-08,24.388594,121.236339,1.3893899e-08
C1A9N0,四十份,2026-07-08,24.934158,121.593283,0.9155043
C0U760,東澳,2026-07-08,24.52196,121.83318,0.034146357
C0X230,鹽水,2026-07-08,23.272621,120.247641,8.9481155e-06
C2H9H0,苗改南投蜂場,2026-07-08,23.852589,120.693481,0.8946788
C2TB70,達谷寮,2026-07-08,23.38,121.35968,0.68776065
C0R950,萬隆國小,2026-07-08,22.507667,120.587817,0.42182055
467540,大武,2026-07-08,22.35572,120.90374,0.942117
C0V370,古亭坑,2026-07-08,22.893178,120.401947,0.00010547352
C1I340,新興橋,2026-07-08,23.563333,120.868728,5.8478505e-05
C2C480,桃園,2026-07-08,24.992425,121.323172,0.015787251
C0SA80,土坂,2026-07-08,22.453108,120.887572,0.9630476
C0R160,鹽埔,2026-07-08,22.739558,120.530778,0.6236428
C0AC40,大屯山,2026-07-08,25.175675,121.522408,3.9541685e-09
466850,五分山雷達站,2026-07-08,25.071182,121.781205,5.719339e-07
C2H9L0,馬烈霸,2026-07-08,24.1512,121.201772,1.3807216e-09
C1AI50,國三N016K,2026-07-08,25.034164,121.619664,0.96787035
C2V920,匏子寮,2026-07-08,23.04905,120.55319,7.6267395e-05
C1V600,藤枝,2026-07-08,23.071961,120.757042,2.2771114e-09
C1E601,南勢,2026-07-08,24.572486,120.734842,0.03782283
C0O980,新市,2026-07-08,23.061614,120.298197,4.7963946e-05
C0K420,西螺,2026-07-08,23.800407,120.467394,0.34531796
C0Z050,佳心,2026-07-08,23.34567,121.21316,4.4717233e-08
C0AD30,蘆洲,2026-07-08,25.086594,121.472331,0.48970267
C0V610,梓官,2026-07-08,22.760558,120.267211,0.0017783485
K2F750,種苗改良場,2026-07-08,24.225972,120.800917,0.08041768
C0UA80,大溪漁港,2026-07-08,24.941801,121.902955,0.9660276
C1AI60,國一39K邊坡,2026-07-08,25.064361,121.383836,0.3045093
C0W150,金寧,2026-07-08,24.457703,118.328989,0.07121271
C0R960,內埔,2026-07-08,22.608483,120.570714,0.5292796
C2H9S0,龍南,2026-07-08,23.953536,120.833183,3.3485227e-05
C0AH40,平等,2026-07-08,25.129142,121.577086,0.13254313
C0R540,佳冬,2026-07-08,22.419456,120.552375,0.4483781
466950,彭佳嶼,2026-07-08,25.627975,122.079744,0.99988216
C0A890,雙溪,2026-07-08,25.036003,121.864242,0.023423731
C0AH50,林口,2026-07-08,25.072181,121.38084,0.5267178
A2K360,水試臺西試驗場,2026-07-08,23.717231,120.190522,0.042742696
C2M960,外寮,2026-07-08,23.562643,120.665688,1.4793055e-08
C0F9S0,烏日,2026-07-08,24.107058,120.624103,0.40314415
C2N180,鹿陶洋,2026-07-08,23.14325,120.48352,2.6273372e-05
C0C490,八德,2026-07-08,24.928708,121.283289,0.39491802
C0R190,赤山,2026-07-08,22.592333,120.614306,0.5743614
C0T820,天祥,2026-07-08,24.179597,121.495639,0.99430037
C1F9E1,龍安,2026-07-08,24.1605,120.831961,0.2476254
C2SD50,順那,2026-07-08,23.04166,121.29332,0.4024902
C0V820,小林,2026-07-08,23.148408,120.63325,3.6050576e-05
C2G870,芳苑,2026-07-08,23.922303,120.320025,0.0066745654
C0E850,大河,2026-07-08,24.618069,120.948578,3.2542797e-05
C1U670,寒溪,2026-07-08,24.634,121.71691,0.38486174
C0N020,城西,2026-07-08,23.0568,120.0956,0.00019220496
C1Z110,三棧,2026-07-08,24.11557,121.60501,0.8210004
C0R280,檳榔,2026-07-08,22.076078,120.836777,0.98868024
C2H9J0,中台,2026-07-08,23.9996,120.938739,0.98388356
C0F9L0,后里,2026-07-08,24.310436,120.729725,0.62377495
467441,高雄,2026-07-08,22.730432,120.312516,0.0026919753
C2N210,岩坑,2026-07-08,23.24614,120.47458,9.326188e-06
C0Z180,新城,2026-07-08,24.040486,121.604878,0.04126745
C0D540,橫山,2026-07-08,24.71116,121.11693,0.0014678689
C1D420,太閣南,2026-07-08,24.632808,121.160575,2.0281005e-08
C1E770,公館,2026-07-08,24.526914,120.830806,0.006904692
CAN130,水試所海水繁養殖中心,2026-07-08,23.120802,120.07968,0.00020809828
C1I430,翠華,2026-07-08,24.191961,121.224339,2.331774e-09
C1M400,菜瓜坪,2026-07-08,23.251928,120.576103,4.9776086e-06
C0G730,二林,2026-07-08,23.903325,120.376081,0.041796036
72M360,南改義竹分場,2026-07-08,23.360694,120.279361,5.831348e-06
V2K620,麥寮合作社,2026-07-08,23.753836,120.294783,0.012006898
C0Z070,舞鶴,2026-07-08,23.46811,121.37407,0.9796626
C0B040,大武崙,2026-07-08,25.166676,121.706993,0.0329362
C1Z030,紅葉,2026-07-08,23.493119,121.338806,0.9906525
C1I050,丹大,2026-07-08,23.753747,121.141147,2.2951416e-09
C0I080,信義,2026-07-08,23.689694,120.851036,0.31977046
C2TB80,庄子底,2026-07-08,23.71794,121.49438,0.31033993
C0D750,樂山林道6k,2026-07-08,24.49999,121.08773,3.742775e-09
C2M920,朴子農改,2026-07-08,23.469889,120.259383,9.373605e-06
C2A880,福隆,2026-07-08,25.017842,121.942083,0.9997942
C0Z160,鳳林,2026-07-08,23.746114,121.453411,0.34802273
C0UB80,翠峰林道6K,2026-07-08,24.49773,121.568625,6.0601475e-09
C0V210,復興,2026-07-08,23.222403,120.806089,5.002045e-07
C0H990,昆陽,2026-07-08,24.121322,121.273642,4.5766564e-09
C0R741,獅子,2026-07-08,22.202308,120.705236,0.9402263
C0S710,鹿野,2026-07-08,22.917711,121.122994,0.036665574
C0I530,小奇萊,2026-07-08,24.131764,121.295717,6.751949e-09
C0FA70,大雪山埡口,2026-07-08,24.26867,121.03062,3.5864118e-09
C2K630,荷苞,2026-07-08,23.657717,120.595144,0.0007582151
C0Z080,富源,2026-07-08,23.587642,121.378225,0.96232224
C2M9E0,旺來山,2026-07-08,23.555153,120.486463,0.000904898
C0SB10,美和,2026-07-08,22.682078,121.060236,0.113801725
C2K620,馬光農場,2026-07-08,23.721453,120.378864,0.0005071022
C1I140,卡奈托灣,2026-07-08,23.754364,121.087872,2.1476474e-09
C0I520,玉山風口,2026-07-08,23.470489,120.955994,1.3565371e-08
C1G691,下水埔,2026-07-08,23.816114,120.5676,0.6997769
C0X110,臺南市南區,2026-07-08,22.961189,120.188378,0.00038330714
C0V680,仁武,2026-07-08,22.701083,120.347722,0.0026919753
C2G840,北斗,2026-07-08,23.877586,120.514222,0.8425527
C2TB90,長橋,2026-07-08,23.6874,121.46186,0.36109972
C0R900,竹坑,2026-07-08,22.1385,120.7022,0.9582969
C0G860,社頭,2026-07-08,23.897647,120.5862,0.84760916
C0X150,安定,2026-07-08,23.102614,120.227839,4.689471e-05
C0R590,里港,2026-07-08,22.77919,120.49459,0.037860632
C0E610,馬都安,2026-07-08,24.451272,120.930192,0.105727196
C0E550,明德,2026-07-08,24.583486,120.885411,0.00015663682
C0R150,三地門,2026-07-08,22.709889,120.639944,0.37014276
C0G910,花壇,2026-07-08,24.032076,120.549461,0.73511094
C1D400,鳥嘴山,2026-07-08,24.71909,121.28387,2.4213912e-07
C0K500,元長,2026-07-08,23.64981,120.315024,0.0066421223
C0F0B0,石岡,2026-07-08,24.276061,120.777644,0.69601923
C2V250,甲仙,2026-07-08,23.080106,120.591758,4.722708e-05
C0SA20,金崙山,2026-07-08,22.567419,120.959667,0.15045664
C0V350,溪埔,2026-07-08,22.738578,120.446797,0.7312003
C0M660,溪口,2026-07-08,23.604131,120.403569,0.020927519
C1S880,壽卡,2026-07-08,22.238911,120.858903,0.999228
72D680,桃改新埔分場,2026-07-08,24.834444,121.066111,0.00060448924
