站號,站名,日期,lat,lon,BLBTSLS
C0R710,龍磐,2026-01-07,21.931672,120.838942,0.99979603
C1F9D1,白毛台,2026-01-07,24.158325,120.886933,5.1389644e-09
C0G940,竹塘,2026-01-07,23.848253,120.386764,2.45578e-09
467590,恆春,2026-01-07,22.003897,120.746339,0.99947935
C1O850,環湖,2026-01-07,23.148617,120.418633,1.2871926e-09
C0U710,太平山,2026-01-07,24.505486,121.525656,4.5980602e-08
C0E820,獅潭,2026-01-07,24.539133,120.920042,8.032597e-07
C2SD70,二層坪,2026-01-07,22.94105,121.16838,3.8215646e-08
C0V880,興達,2026-01-07,22.8778,120.2127,0.009687101
C0S890,關山,2026-01-07,23.0395,121.175017,3.9441076e-08
C0SB30,新蘭,2026-01-07,22.869214,121.223228,8.852771e-08
C2R970,屏科大,2026-01-07,22.648275,120.619247,6.0328353e-10
C1Z130,銅門,2026-01-07,23.965694,121.492842,2.8514739e-08
C0AD40,土城,2026-01-07,24.973208,121.445169,1.4453592e-07
CAN140,六官養殖協會,2026-01-07,23.22881,120.29962,1.9075651e-05
C0X180,山上,2026-01-07,23.0757,120.363253,2.0172723e-05
C0F9Z0,雪山東峰,2026-01-07,24.388792,121.268675,5.4075976e-08
C1M480,獨立山,2026-01-07,23.537022,120.607797,2.8579847e-09
C0X220,學甲,2026-01-07,23.230367,120.182187,3.6363785e-05
467650,日月潭,2026-01-07,23.881325,120.90805,5.0524838e-09
A2K570,古坑(花卉中心),2026-01-07,23.633531,120.552392,2.2850777e-09
C0K600,箔子寮,2026-01-07,23.6197,120.14,0.000119473545
C0G830,埤頭,2026-01-07,23.866003,120.452806,2.1962931e-09
C0S950,七塊厝,2026-01-07,22.954453,121.229922,2.205151e-08
467110,金門,2026-01-07,24.407306,118.289281,0.106730476
C0AH80,深坑,2026-01-07,25.002703,121.628328,1.2441346e-07
C0A970,三貂角,2026-01-07,25.007606,122.002058,1.9244628e-07
C2D730,寶山農場,2026-01-07,24.732444,120.976153,6.838093e-06
C0K430,褒忠,2026-01-07,23.690938,120.303634,5.6707042e-05
467480,嘉義,2026-01-07,23.495925,120.432906,1.3300754e-09
C0V400,阿公店,2026-01-07,22.804194,120.355528,0.00012239194
C0E960,觀霧分站,2026-01-07,24.505781,121.113921,2.7650456e-08
467550,玉山,2026-01-07,23.48718,120.95943,5.4592483e-08
C0R440,大漢山,2026-01-07,22.405264,120.753181,1.6750997e-08
C0SD30,東清國小,2026-01-07,22.057128,121.564922,0.9894162
C1F9B1,桐林,2026-01-07,24.066172,120.735194,1.8657946e-09
C2H9U0,鳳鵬,2026-01-07,23.763919,120.788061,1.792723e-09
C0K390,土庫,2026-01-07,23.679029,120.395574,2.4406783e-09
C1I450,望鄉山,2026-01-07,23.594153,120.944286,3.313356e-08
C0E910,海埔,2026-01-07,24.648767,120.772435,3.1020725e-05
B2E890,畜試北區分所,2026-01-07,24.527806,120.770972,2.7048993e-06
C0R750,四林格山,2026-01-07,22.076989,120.802439,6.552835e-05
C0F0C0,中坑,2026-01-07,24.248517,120.903319,6.534385e-09
C1I121,大鞍,2026-01-07,23.678381,120.760017,9.9990825e-09
C2G9E0,移民庄,2026-01-07,23.9784,120.40283,9.0621427e-07
72U480,花改蘭陽分場,2026-01-07,24.686306,121.716583,2.7818624e-08
C0A770,科教館,2026-01-07,25.096356,121.516507,1.2399651e-07
C0AJ60,六塊厝,2026-01-07,25.24,121.4481,7.153953e-05
C0R620,墾雷,2026-01-07,21.900836,120.855269,0.99967647
467420,永康,2026-01-07,23.038386,120.2367,0.00041624226
C2M530,奮起湖,2026-01-07,23.493903,120.699253,6.568649e-09
C0I410,名間,2026-01-07,23.837053,120.701447,1.5973542e-09
A2C560,農工中心,2026-01-07,24.985917,121.239833,1.6395332e-05
C0V740,旗山,2026-01-07,22.888614,120.483597,1.2977905e-09
C0Z061,玉里,2026-01-07,23.3215,121.339656,2.1777359e-08
C0S840,南田,2026-01-07,22.279725,120.889208,0.9997003
C1I470,杉林溪,2026-01-07,23.639517,120.786444,1.0518818e-08
C1X040,東原,2026-01-07,23.291597,120.463822,1.0353581e-09
C0R660,枋寮,2026-01-07,22.367722,120.590647,4.3297305e-08
C1R120,上德文,2026-01-07,22.763272,120.704442,3.7691454e-09
C0K450,大埤,2026-01-07,23.646074,120.431537,2.6046183e-09
C0UA00,土場,2026-01-07,24.576533,121.495333,4.0055763e-08
467080,宜蘭,2026-01-07,24.763975,121.756528,3.038182e-08
C0N030,四草,2026-01-07,23.0235,120.1116,0.0063445377
467410,臺南,2026-01-07,22.99328,120.20492,0.00092804705
C0V650,彌陀,2026-01-07,22.783806,120.246361,0.0058319094
C0D660,新竹市東區,2026-01-07,24.798681,120.986942,6.879554e-05
82S580,茶改東部分場,2026-01-07,22.907694,121.130139,4.286632e-08
C0SB40,興隆,2026-01-07,22.913661,121.257469,1.3511847e-07
467050,新屋,2026-01-07,25.006725,121.047492,0.00043059915
C0C710,大溪永福,2026-01-07,24.892936,121.324975,1.098152e-05
C0FA20,溫寮,2026-01-07,24.372177,120.583125,0.023260178
C0V640,湖內,2026-01-07,22.887139,120.2445,0.007135526
C0R910,下寮,2026-01-07,22.3929,120.5548,9.917583e-08
C0Z020,明里,2026-01-07,23.208717,121.262342,2.0189919e-08
C0M770,嘉義梅山,2026-01-07,23.585398,120.555587,1.2848477e-09
C0C660,楊梅,2026-01-07,24.912375,121.143047,1.5728187e-05
C0SD40,牛頭山,2026-01-07,22.676661,121.506944,0.99958044
C1E511,新開,2026-01-07,24.347703,120.827019,1.9924123e-08
G2F820,農試所(霧峰),2026-01-07,24.031261,120.688133,1.8317006e-09
C2M990,大巃頂,2026-01-07,23.5547,120.61439,3.9209285e-09
C1I070,和社,2026-01-07,23.591131,120.888861,3.983586e-09
C2E990,新坪頂,2026-01-07,24.30201,120.8574,1.15033645e-08
C0TA80,立霧山,2026-01-07,24.183258,121.641899,3.3919946e-08
C2F000,大肚,2026-01-07,24.15295,120.572117,6.8436257e-06
C1S850,豐南,2026-01-07,23.122139,121.262389,2.3091411e-08
C2M9B0,西興,2026-01-07,23.2428,120.57617,1.3675931e-09
C2A920,富貴角,2026-01-07,25.263783,121.565258,3.877268e-06
CAH030,茶改場竹圍站,2026-01-07,23.860083,120.637528,1.9131325e-09
C0T960,光復,2026-01-07,23.660694,121.424964,3.125037e-08
C0F9M0,豐原,2026-01-07,24.254322,120.720692,3.12487e-08
C0R720,旭海,2026-01-07,22.205403,120.887614,0.9941768
C0V710,苓雅,2026-01-07,22.622742,120.330669,0.005516207
C0C740,觀音工業區,2026-01-07,25.064764,121.114856,0.00073864043
CAC040,拉拉山,2026-01-07,24.699317,121.427133,6.158238e-08
C0V790,萬山,2026-01-07,22.905944,120.688056,2.1259734e-09
U2HA30,臺大和社,2026-01-07,23.590856,120.888864,3.9835935e-09
C2H9K0,屯原,2026-01-07,24.067969,121.209389,1.7959923e-08
C0AJ90,澳底,2026-01-07,25.0552,121.9253,3.2870233e-07
C0Z100,東華,2026-01-07,23.89525,121.549833,3.730255e-08
C0G970,三豐,2026-01-07,23.882,120.2895,0.37359092
V2K610,大庄合作社,2026-01-07,23.8068,120.367939,5.0895705e-05
C0V900,汕尾,2026-01-07,22.4782,120.4151,1.20262325e-08
C1R630,龍泉,2026-01-07,22.66701,120.59091,5.6925015e-10
C1AC50,關渡,2026-01-07,25.133486,121.469331,2.669901e-06
C0C800,四稜,2026-01-07,24.64733,121.4293,6.015869e-08
C0F9I0,神岡,2026-01-07,24.272481,120.658314,3.3575898e-08
C0K460,斗南,2026-01-07,23.678734,120.478359,2.582772e-09
C2O810,曾文,2026-01-07,23.219681,120.497328,1.1834381e-09
467280,後龍,2026-01-07,24.648563,120.831834,1.4947874e-05
C1F9J1,清水林,2026-01-07,24.071242,120.820419,3.2342802e-09
C2A650,火燒寮,2026-01-07,25.002719,121.742892,7.930806e-08
466930,竹子湖,2026-01-07,25.162078,121.544547,1.234674e-07
C1I220,樟湖,2026-01-07,23.905333,120.846983,6.048623e-09
C0I390,仁愛,2026-01-07,24.022122,121.132206,5.817747e-09
C0Z300,東里,2026-01-07,23.26853,121.30547,2.1212314e-08
C1V590,新發,2026-01-07,23.057019,120.646064,3.5621013e-09
C0K510,水林,2026-01-07,23.572924,120.24597,2.8406607e-06
72S590,東改賓朗果園,2026-01-07,22.813889,121.071278,1.6005123e-07
82A750,茶改北部分場,2026-01-07,24.955778,121.631222,6.684398e-08
C1A750,石碇服務區,2026-01-07,25.00872,121.646242,1.3163283e-07
C0X300,鹿寮,2026-01-07,23.386047,120.477331,1.3456306e-09
G2AI50,關渡,2026-01-07,25.11575,121.492,1.3070951e-07
C0K590,雲林東勢,2026-01-07,23.674192,120.255721,6.5264736e-05
C2K310,港尾布雞,2026-01-07,23.74834,120.38439,2.2748365e-09
C0A570,桶後,2026-01-07,24.848222,121.597992,8.2414815e-08
C1S800,華源,2026-01-07,22.657883,121.02325,2.2830632e-06
C0G720,溪州,2026-01-07,23.851589,120.499093,2.1753686e-09
C1V160,達卡努瓦,2026-01-07,23.279811,120.705319,4.3571835e-09
C2M410,馬頭山,2026-01-07,23.324361,120.582017,1.1756247e-09
C0V850,蚵仔寮,2026-01-07,22.7256,120.2527,0.009750094
C0S740,池上,2026-01-07,23.119628,121.209469,3.482409e-08
C1V390,尖山,2026-01-07,22.813153,120.367789,4.399829e-05
C0AH70,松山,2026-01-07,25.04871,121.55042,1.2075091e-07
C0N010,鯤鯓國小,2026-01-07,23.1879,120.0889,4.8839243e-05
C0R550,新埤,2026-01-07,22.467947,120.582894,2.5449921e-08
C0SA60,知本（水試所）,2026-01-07,22.702394,121.082761,3.8336846e-05
C0T9I0,豐濱,2026-01-07,23.583897,121.514806,2.1729766e-08
C0UB00,淡江大學蘭陽校園,2026-01-07,24.823239,121.730383,3.3405215e-08
C0W240,九宮,2026-01-07,24.423753,118.240186,4.3844923e-07
C0T9N0,富里,2026-01-07,23.171639,121.249378,1.967503e-08
U2HA50,臺大竹山,2026-01-07,23.756972,120.681556,1.5486046e-09
C0V840,鳳鼻頭,2026-01-07,22.5083,120.3591,1.0639745e-08
C0X140,西港,2026-01-07,23.125608,120.203108,1.229461e-05
72D080,桃改五峰分場,2026-01-07,24.612194,121.157167,1.8999115e-08
C2H9P0,伊拿谷,2026-01-07,23.963211,121.088264,3.6740182e-09
C2K250,崙背,2026-01-07,23.75553,120.31893,5.4014177e-05
C2H9F0,柑林,2026-01-07,24.018658,120.847072,1.7808018e-09
C0TA20,加灣,2026-01-07,24.082025,121.608944,6.8760144e-08
C0V530,阿蓮,2026-01-07,22.883208,120.327508,0.00035424548
C0FB30,八仙山苗圃,2026-01-07,24.192719,121.001366,6.3304566e-09
C1O880,關山,2026-01-07,23.173397,120.594092,1.1288376e-09
C0E791,卓蘭,2026-01-07,24.3126,120.8244,1.8948052e-08
C1I030,武界,2026-01-07,23.913225,121.052483,4.199856e-09
C0R520,崁頂,2026-01-07,22.514781,120.506914,1.918871e-08
C0R341,牡丹,2026-01-07,22.130036,120.792639,4.8975508e-06
C0R930,萬丹,2026-01-07,22.5885,120.4851,6.834954e-09
C0S760,紅石,2026-01-07,23.069131,121.126219,1.753194e-08
C2C410,中央大學,2026-01-07,24.967652,121.185165,1.4367492e-05
C1M610,石磐龍,2026-01-07,23.496606,120.663506,4.962752e-09
C0C790,東眼山,2026-01-07,24.8284,121.40888,5.2913254e-08
C0UA10,鴛鴦湖,2026-01-07,24.590269,121.412228,4.751734e-08
V2C260,八德蔬果,2026-01-07,24.978508,121.281819,1.239145e-05
C0R800,丹路,2026-01-07,22.204481,120.750989,2.4560712e-05
C0G920,永靖,2026-01-07,23.924703,120.547533,2.3138216e-07
C2M950,太和,2026-01-07,23.538372,120.702961,6.4874057e-09
C1A630,下盆,2026-01-07,24.771003,121.538622,6.2157895e-08
B2N890,畜產試驗所,2026-01-07,23.058972,120.336406,0.00014144993
C0UA30,白嶺,2026-01-07,24.527819,121.519031,4.153827e-08
C1V580,溪南(特生中心),2026-01-07,23.084972,120.788475,8.979615e-09
C1T970,大農,2026-01-07,23.615233,121.413331,2.9199132e-08
C0R650,竹田,2026-01-07,22.58486,120.54344,1.6731201e-08
C1H900,清流,2026-01-07,24.080775,120.962997,3.5719325e-09
C1C510,水尾,2026-01-07,24.940081,121.087161,0.00013280378
C2N170,茅港尾,2026-01-07,23.2061,120.2624,2.1211392e-05
C0F9X0,大雅(中科園區),2026-01-07,24.21528,120.62445,6.9639354e-05
C0SB60,白守蓮,2026-01-07,23.126769,121.401914,0.99710065
C0O970,虎頭埤,2026-01-07,23.021375,120.347878,3.5071716e-05
C0C730,中大臨海站,2026-01-07,24.966126,121.008581,0.0032419455
C0X250,新營,2026-01-07,23.310689,120.316681,1.0320794e-05
C0V700,三民,2026-01-07,22.645017,120.311233,0.03906381
C0U870,大礁溪,2026-01-07,24.791042,121.675047,2.9553073e-08
C0E870,高鐵苗栗,2026-01-07,24.60725,120.826094,1.7333843e-05
A2K570,古坑花卉中心,2026-01-07,23.63353,120.55239,6.5884995e-09
C0TA30,鹽寮,2026-01-07,23.845606,121.592664,3.925188e-08
C0M860,新美,2026-01-07,23.338017,120.683169,2.2509299e-09
C1E701,八卦,2026-01-07,24.491756,120.927619,2.460554e-08
C2TA90,加納納,2026-01-07,23.466421,121.359867,1.6824549e-08
C0I420,國姓,2026-01-07,24.037803,120.855072,1.8446765e-09
C2D720,關西工作站,2026-01-07,24.757275,121.184792,1.1786039e-07
C0S960,香蘭,2026-01-07,22.587569,120.993375,0.00048877153
467620,蘭嶼,2026-01-07,22.0369,121.55843,0.99862206
C0R260,春日,2026-01-07,22.370361,120.628306,1.5918987e-08
72G600,臺中農改場,2026-01-07,24.003028,120.534389,1.872168e-07
C0Z210,瑞穗,2026-01-07,23.5239,121.39021,2.1496648e-08
C0M820,達邦,2026-01-07,23.453994,120.749517,4.1863717e-09
C0V860,南寮,2026-01-07,22.7616,120.2339,0.010105858
C0G740,大城,2026-01-07,23.852487,120.320935,0.3388819
C0R920,塭仔,2026-01-07,22.4169,120.5197,1.03074235e-07
C0R470,高樹,2026-01-07,22.826389,120.600806,5.704555e-10
C0R680,佳樂水,2026-01-07,21.993578,120.861633,0.9996713
C1O870,大棟山,2026-01-07,23.31157,120.52226,5.0730424e-09
C0D360,梅花,2026-01-07,24.678347,121.208558,4.1627338e-08
C0Z190,富世,2026-01-07,24.14743,121.6297,2.642765e-06
C0AI10,屈尺,2026-01-07,24.92184,121.54475,1.2515008e-07
B2U990,畜試東區分所,2026-01-07,24.669039,121.832561,3.2640347e-08
C0SB80,長濱漁港,2026-01-07,23.313644,121.459994,0.96474636
C0TA50,和仁,2026-01-07,24.241394,121.712472,1.4045303e-06
C0V910,大樹,2026-01-07,22.684645,120.432803,5.1994813e-09
C1R610,西大武山,2026-01-07,22.617719,120.7322,1.5420767e-08
C0G900,線西,2026-01-07,24.143358,120.443536,0.008189025
C0M700,竹崎,2026-01-07,23.526178,120.555508,1.2306913e-09
C2E880,三義,2026-01-07,24.405478,120.749819,1.238795e-07
C0C720,竹圍,2026-01-07,25.112692,121.239824,0.00023417355
C0F9P0,清水,2026-01-07,24.312297,120.562242,0.010936409
C0Z150,吉安光華,2026-01-07,23.930925,121.595153,3.9578378e-08
C0FA80,小雪山天池,2026-01-07,24.28025,121.02627,3.4356134e-08
467300,東吉島,2026-01-07,23.25727,119.66762,0.99928236
C1D640,外坪(五指山),2026-01-07,24.644447,121.090961,1.1090188e-07
C2R9A0,高士國小,2026-01-07,22.12553,120.84653,2.098686e-05
C0F9O0,潭子,2026-01-07,24.213106,120.703933,3.7763936e-08
C2H9R0,卓社,2026-01-07,23.887894,121.000086,7.471076e-09
72T250,花蓮農改場,2026-01-07,23.975222,121.563889,3.6791533e-08
C0E780,銅鑼,2026-01-07,24.489681,120.790853,1.1908189e-06
C1T950,太安,2026-01-07,23.666719,121.370128,1.1002201e-08
C0E830,苑裡,2026-01-07,24.439714,120.653053,4.6154502e-05
467270,田中,2026-01-07,23.873803,120.581286,2.448904e-09
C0SA10,檳榔四格山,2026-01-07,22.810031,121.109308,7.8114105e-08
C1T830,布洛灣,2026-01-07,24.17184,121.57127,5.4991176e-08
C0F970,大坑,2026-01-07,24.173142,120.722289,5.3116704e-08
C1U920,思源,2026-01-07,24.393125,121.347214,3.4217557e-08
C2H9Y0,松茗,2026-01-07,23.8167,120.650765,1.9873672e-09
C0A931,三和,2026-01-07,25.233153,121.595236,1.7548654e-06
C0I010,廬山,2026-01-07,24.033311,121.181808,1.0456667e-08
C2M940,日野賀,2026-01-07,23.434056,120.727169,5.3884857e-09
C0R860,鼻頭,2026-01-07,22.1043,120.8979,0.99783593
C0UB20,壯圍,2026-01-07,24.7359,121.8163,3.1297013e-08
C0R790,九棚,2026-01-07,22.14195,120.889281,0.9898041
C0W110,東莒,2026-01-07,25.9652,119.98069,0.6603651
C1U930,粉鳥林,2026-01-07,24.497088,121.842479,1.3134216e-07
C1I211,蘆竹湳,2026-01-07,23.934019,120.811994,2.6022346e-09
C0S830,長濱,2026-01-07,23.286817,121.411975,1.9486762e-08
C1F9F1,伯公龍,2026-01-07,24.272392,120.849047,1.1970416e-08
C0UB90,太平山莊,2026-01-07,24.494171,121.536209,4.618064e-08
C0E810,西湖,2026-01-07,24.562947,120.7485,0.0008176667
C1I440,新高口,2026-01-07,23.478744,120.878939,2.4190546e-08
C0O840,王爺宮,2026-01-07,23.222064,120.40085,1.5343802e-09
C0T9G0,鳳林山,2026-01-07,23.735269,121.420131,3.2206405e-08
C0X080,佳里,2026-01-07,23.173039,120.145086,4.5148452e-05
C0FB70,大甲溪埔,2026-01-07,24.370625,120.620067,0.013181016
C0Z310,清水斷崖,2026-01-07,24.218294,121.689142,5.5182085e-07
C0M680,太保,2026-01-07,23.455062,120.331455,1.1493142e-06
C1S820,金峰,2026-01-07,22.590969,120.933236,1.0361526e-05
C0AD10,八里,2026-01-07,25.150211,121.403947,3.5890313e-05
C2K240,草嶺,2026-01-07,23.59555,120.693461,5.3666587e-09
C1SA70,都蘭,2026-01-07,22.87794,121.226881,8.408343e-08
C0K440,二崙,2026-01-07,23.772797,120.408944,2.1782125e-09
C1A760,坪林交控,2026-01-07,24.94284,121.713442,1.0553447e-07
C0F9N0,大里,2026-01-07,24.092464,120.701378,1.807097e-09
C0SA90,達仁林場,2026-01-07,22.264347,120.823972,1.0450326e-08
C1R290,石門山,2026-01-07,22.112611,120.756597,0.027606236
42HA10,萬大發電廠,2026-01-07,23.978875,121.139639,4.914683e-09
C0R890,山海,2026-01-07,21.9878,120.7091,0.9995107
C0T9A0,月眉山,2026-01-07,23.809928,121.539828,2.2986125e-08
C0AC70,信義,2026-01-07,25.037822,121.564597,1.2413034e-07
C0K560,棋山,2026-01-07,23.68645,120.603417,2.2284303e-09
C2FB50,出雲,2026-01-07,24.206469,120.902794,7.3257893e-09
C1Z240,中平林道,2026-01-07,23.42115,121.26763,2.4167809e-08
U2H480,溪頭,2026-01-07,23.670306,120.798194,6.657903e-09
C0M880,好美里,2026-01-07,23.3364,120.138,3.853412e-05
C0T9E0,大坑,2026-01-07,23.880628,121.581981,2.8050287e-08
C0K530,臺西,2026-01-07,23.701547,120.197559,0.0065261154
C1E900,國一N128K,2026-01-07,24.560997,120.844186,3.9415727e-06
C0AJ50,水湳洞,2026-01-07,25.123695,121.862238,3.1733384e-07
C0AI20,白沙灣,2026-01-07,25.283128,121.519058,8.8921624e-05
C2V310,美濃,2026-01-07,22.898792,120.51907,1.309507e-09
C0A860,大坪,2026-01-07,25.165914,121.632969,7.854588e-08
C1U850,觀音海岸,2026-01-07,24.38319,121.77856,2.016975e-08
C2K610,草嶺石壁,2026-01-07,23.602469,120.707731,5.556905e-09
C0U950,鶯子嶺,2026-01-07,24.89754,121.79244,4.357443e-08
C0O900,善化,2026-01-07,23.112883,120.297219,0.00034245764
C0K550,蔦松,2026-01-07,23.514319,120.229736,7.515723e-06
E2P980,林試六龜中心,2026-01-07,22.991703,120.645722,6.460312e-10
C0E590,通霄,2026-01-07,24.471892,120.704622,0.0011684229
C1I310,西巒,2026-01-07,23.754486,120.883956,6.78188e-09
C0A550,泰平,2026-01-07,24.971197,121.823711,5.7467147e-08
C0I360,水里,2026-01-07,23.812553,120.849792,1.5973756e-09
C0R830,高士,2026-01-07,22.121825,120.836781,0.0029396722
C1I101,溪頭,2026-01-07,23.661789,120.807647,1.1884218e-08
C0AJ20,野柳,2026-01-07,25.20703,121.690021,4.6908972e-05
C0B060,暖暖,2026-01-07,25.0957,121.7403,1.4535341e-07
C1H920,長豐,2026-01-07,24.102039,120.879897,3.0803673e-09
C2S9B0,利吉,2026-01-07,22.86246,121.15486,4.9706834e-08
C0V360,內門,2026-01-07,22.975481,120.466769,1.1410639e-09
C0R850,林邊,2026-01-07,22.4634,120.5339,9.974133e-08
C0E930,龍鳳,2026-01-07,24.700034,120.859125,0.00026242842
C0U910,冬山,2026-01-07,24.63373,121.7937,3.2640347e-08
C1E721,泰安,2026-01-07,24.489017,120.968036,2.6068061e-08
82H320,茶改中部分場,2026-01-07,23.875611,120.913583,4.1022377e-09
C0M750,布袋,2026-01-07,23.380878,120.167789,1.5190071e-05
C1S860,利嘉,2026-01-07,22.809417,121.050528,4.4900986e-08
E2S980,林試太麻里1,2026-01-07,22.598922,120.980044,9.648413e-05
C0X170,關廟,2026-01-07,22.963017,120.327797,7.882075e-05
C0V720,林園,2026-01-07,22.507747,120.394511,1.2078714e-08
C1I510,線浸林道,2026-01-07,23.761508,120.832956,7.7342115e-09
C0D690,外湖,2026-01-07,24.917735,120.968711,0.99803454
C0C750,新興坑尾,2026-01-07,25.0061,121.0971,0.00013498402
B2Q810,畜試南區分所,2026-01-07,21.945583,120.802167,0.9996643
C0S790,金崙,2026-01-07,22.538122,120.966875,8.068151e-06
C0AH90,福山植物園,2026-01-07,24.760717,121.58135,5.916426e-08
C0I540,奇萊稜線,2026-01-07,24.109231,121.326456,4.379824e-08
C0M850,表湖,2026-01-07,23.24186,120.64166,2.5239577e-09
C0S770,大溪山,2026-01-07,22.478475,120.943325,5.9776613e-07
C0AG80,中和,2026-01-07,24.991622,121.491792,1.4429544e-07
C0T790,大禹嶺,2026-01-07,24.186117,121.316086,3.5682167e-08
C0T9B0,水源,2026-01-07,23.991861,121.537169,2.8375847e-08
C0R840,牡丹池山,2026-01-07,22.168389,120.841225,1.1455829e-08
C1I131,桶頭,2026-01-07,23.641944,120.654117,1.7263646e-09
CAL110,布袋國中,2026-01-07,23.35893,120.18026,3.8992715e-05
C2M9D0,何竹子腳,2026-01-07,23.53641,120.38203,1.3313013e-09
467571,新竹,2026-01-07,24.827853,121.014219,0.0005078984
C0Z290,赤柯山,2026-01-07,23.36893,121.38293,2.5796469e-08
C0X280,將軍,2026-01-07,23.214999,120.13577,4.1482774e-05
C0S690,太麻里,2026-01-07,22.60902,120.98533,1.392759e-07
C0U880,北關,2026-01-07,24.9072,121.8734,4.8128476e-07
CAW010,東引,2026-01-07,26.3588,120.4836,0.2044483
C0G810,埔心,2026-01-07,23.947633,120.525456,2.4926356e-07
C0U970,大福,2026-01-07,24.80064,121.81389,3.1144687e-08
C2H9N0,仁愛東眼,2026-01-07,24.026875,121.1205,8.338213e-09
C1E670,南礦,2026-01-07,24.538278,121.002836,2.7217727e-08
C0M520,東後寮,2026-01-07,23.369908,120.248065,2.0385394e-05
C1E461,松安,2026-01-07,24.397972,120.986022,1.8584648e-08
C2N160,西拉雅風管處,2026-01-07,23.189481,120.335297,6.912696e-06
C2M970,碧湖,2026-01-07,23.568632,120.624165,3.862733e-09
C0A640,石碇,2026-01-07,24.993969,121.662917,1.0515512e-07
E2S960,林試太麻里2,2026-01-07,22.598,120.99775,0.0006534097
C0F9Y0,桃山,2026-01-07,24.432739,121.303808,5.4474324e-08
C1I020,萬大,2026-01-07,23.979817,121.132261,5.9089573e-09
C2UC20,長嶺,2026-01-07,24.70894,121.61162,4.7706774e-08
C0U940,羅東,2026-01-07,24.68184,121.74934,2.8345879e-08
C0M650,朴子,2026-01-07,23.43463,120.23902,2.1863652e-06
C1I500,大尖山,2026-01-07,23.858572,120.994889,1.5200234e-08
C0FB40,中橫21.6k,2026-01-07,24.2499,121.1455,9.92426e-09
C0G820,田尾,2026-01-07,23.901669,120.509389,2.4466416e-07
E2K600,四湖植物園,2026-01-07,23.676986,120.163433,0.005168165
C0S730,綠島,2026-01-07,22.6672,121.47533,0.9996137
12Q970,東港工作站,2026-01-07,22.479997,120.466058,1.3358823e-07
C1TA00,太魯閣,2026-01-07,24.15773,121.6236,1.1352232e-07
466920,臺北,2026-01-07,25.037658,121.514853,1.2075091e-07
C0R600,舊泰武,2026-01-07,22.588194,120.664944,5.9104677e-09
C1I260,北坑,2026-01-07,23.9246,121.006903,2.6962979e-09
466910,鞍部,2026-01-07,25.182586,121.529731,9.251736e-08
C1I230,九份二山,2026-01-07,23.961944,120.845,4.081143e-09
C2M810,里佳,2026-01-07,23.389125,120.716647,7.0964314e-09
C2A660,瑞芳,2026-01-07,25.113169,121.801147,1.4147942e-07
C0R270,琉球嶼,2026-01-07,22.332244,120.362236,7.6725104e-07
C2V580,瑞山,2026-01-07,22.90304,120.43424,1.1956446e-09
C1T990,高寮,2026-01-07,23.394239,121.356808,2.4123551e-08
C0G620,芬園,2026-01-07,24.015678,120.6213,1.0625594e-07
C1Z140,荖溪,2026-01-07,23.890575,121.45964,3.6166597e-08
C1I201,中心崙,2026-01-07,23.728722,120.712097,2.8271245e-09
C1I400,凌霄,2026-01-07,24.018778,121.004456,8.1932985e-09
C1M640,十字,2026-01-07,23.492153,120.753683,8.898797e-09
G2P820,農試鳳山分所,2026-01-07,22.646611,120.356083,0.002226066
C0Z270,蕃薯寮,2026-01-07,23.73835,121.540108,2.4730035e-08
C2E420,竹南,2026-01-07,24.70898,120.88897,0.00015080118
C0FB10,出雲山苗圃,2026-01-07,24.23105,120.90475,6.5393224e-09
C0F9Q0,外埔,2026-01-07,24.347817,120.705686,4.903393e-08
C0K580,高鐵雲林,2026-01-07,23.737456,120.417944,2.2827384e-09
C2I090,鳳凰,2026-01-07,23.728081,120.787347,4.519094e-09
C0U990,員山,2026-01-07,24.74435,121.72247,2.8418798e-08
C0V770,大社,2026-01-07,22.730306,120.346639,0.0016022049
C0X120,麻豆,2026-01-07,23.183289,120.248611,1.2901404e-05
C0C670,龍潭,2026-01-07,24.870056,121.221389,1.7895626e-07
C0D680,香山濕地,2026-01-07,24.783581,120.914988,0.9980242
C0S980,勝林山,2026-01-07,22.430439,120.8938,5.1643372e-08
C0V730,大寮,2026-01-07,22.605614,120.395717,1.2973389e-07
C0R570,麟洛,2026-01-07,22.65078,120.52719,8.0205353e-10
C2M930,石卓,2026-01-07,23.478744,120.702264,8.782853e-09
C0G9B0,和美,2026-01-07,24.105169,120.492131,5.587682e-07
CAG100,王功漁港,2026-01-07,23.96824,120.32586,0.002323294
C0X290,北門,2026-01-07,23.267772,120.125481,4.2241456e-05
C2F930,大甲,2026-01-07,24.347667,120.640403,8.5435744e-08
C0D650,湖口,2026-01-07,24.904794,121.043628,0.00018324198
C0U780,五結,2026-01-07,24.68637,121.79794,3.2640347e-08
C1I250,鯉潭,2026-01-07,23.961922,120.991131,3.1832872e-09
C0R130,阿禮,2026-01-07,22.742908,120.743678,4.702593e-09
C0X100,臺南市北區,2026-01-07,23.010394,120.194228,0.0019615374
C0S920,金峰嘉蘭,2026-01-07,22.594789,120.960825,8.063186e-05
C0V490,新興,2026-01-07,22.627422,120.298803,0.06986491
C0F9K0,大安,2026-01-07,24.345061,120.588025,0.014445489
467290,古坑,2026-01-07,23.633639,120.551889,2.2850777e-09
C2E970,八甲,2026-01-07,24.535811,120.795983,1.1850683e-06
C0V440,鳳山,2026-01-07,22.646653,120.356122,0.002226066
C1T940,大觀,2026-01-07,23.714206,121.373133,2.4191745e-08
C0E740,造橋,2026-01-07,24.637056,120.864778,2.0679416e-05
C0R100,尾寮山,2026-01-07,22.833111,120.683889,4.7711484e-09
A2K630,臺大雲林校區,2026-01-07,23.730628,120.423903,2.2676065e-09
467990,馬祖,2026-01-07,26.169467,119.923158,1.5398158e-05
C0D580,寶山,2026-01-07,24.735006,121.025192,2.7785275e-06
E2P990,林試扇平站,2026-01-07,22.9677,120.6857,2.8550262e-09
C0AI30,三重,2026-01-07,25.057328,121.500629,1.2399651e-07
C0AH00,汐止,2026-01-07,25.066881,121.658778,1.8523572e-07
C1Z040,立山,2026-01-07,23.443356,121.327375,3.0110847e-08
466881,新北,2026-01-07,24.959207,121.525196,1.3750855e-07
C0W130,花嶼,2026-01-07,23.40007,119.32276,0.99711484
C0A950,鼻頭角,2026-01-07,25.129036,121.923372,3.373243e-07
C0K470,林內,2026-01-07,23.748675,120.609642,2.20853e-09
C2F990,摩天嶺,2026-01-07,24.322458,120.936819,6.7690604e-09
C2E430,南庄,2026-01-07,24.601775,121.000214,9.5119003e-07
82C160,茶改場,2026-01-07,24.908472,121.185333,7.83793e-06
C2TB60,南安,2026-01-07,23.29818,121.26157,2.0479408e-08
C0Z320,清水林道,2026-01-07,23.27125,121.188272,2.4568962e-08
C0R760,南仁湖,2026-01-07,22.084681,120.863353,0.025436698
C0M670,大林,2026-01-07,23.600616,120.45841,1.3861705e-09
C0M800,茶山,2026-01-07,23.299075,120.664767,1.3105463e-09
C0A9C0,天母,2026-01-07,25.117494,121.537169,1.2066528e-07
72K220,南改斗南分場,2026-01-07,23.634556,120.477333,2.5549225e-09
72AI40,桃改樹林分場,2026-01-07,24.944503,121.386972,1.1492502e-07
C0S910,蘭嶼燈塔,2026-01-07,22.081197,121.503117,0.9892137
C0B050,八斗子,2026-01-07,25.144754,121.79167,2.5627065e-07
C0U900,內城,2026-01-07,24.71813,121.68766,2.7702876e-08
C0X320,柳營,2026-01-07,23.253328,120.375253,1.7512614e-09
C0M790,新港,2026-01-07,23.553269,120.345728,1.4234017e-06
C0F9T0,西屯,2026-01-07,24.179494,120.641275,5.4342323e-08
C0E950,松安,2026-01-07,24.39792,120.98599,1.8584684e-08
C0SA30,都歷,2026-01-07,23.020333,121.323642,1.1741332e-07
C0C620,蘆竹,2026-01-07,25.084275,121.265767,0.000121212375
C0R730,大坪頂,2026-01-07,22.024633,120.69355,0.99222255
C0AJ40,石門,2026-01-07,25.273672,121.601198,7.0558017e-06
C0E750,苗栗,2026-01-07,24.564569,120.824575,4.1614426e-06
C0T870,鯉魚潭,2026-01-07,23.935639,121.508944,2.9656519e-08
C1V170,排雲,2026-01-07,23.463619,120.954147,4.92388e-08
C2H950,中寮,2026-01-07,23.884447,120.766406,1.4428141e-09
C0R350,貓鼻頭,2026-01-07,21.921774,120.7358,0.99947107
C0V660,岡山,2026-01-07,22.797078,120.294958,0.0049963715
C1H941,雙冬,2026-01-07,23.967378,120.802189,3.0397684e-09
C0AJ70,田寮,2026-01-07,25.2698,121.4886,9.658097e-05
C0AI00,五股,2026-01-07,25.07445,121.42728,6.514241e-08
C0Z280,德武,2026-01-07,23.47426,121.41071,1.7219984e-08
C2RA10,大新,2026-01-07,22.67558,120.57788,5.699531e-10
C0R700,枋山,2026-01-07,22.246844,120.661086,0.0014629938
C0C460,復興,2026-01-07,24.820208,121.352281,8.813516e-08
C2K300,鹿南,2026-01-07,23.63855,120.3636,3.0005733e-05
E2H360,蓮華池,2026-01-07,23.918333,120.885278,3.0258793e-09
C0M640,中埔,2026-01-07,23.42538,120.5229,1.2780723e-09
C0W140,金沙,2026-01-07,24.488292,118.408778,0.38317838
C2A540,四堵,2026-01-07,24.8926,121.745736,6.556836e-08
C0ACA0,新莊,2026-01-07,25.051478,121.446756,1.0813961e-07
C0R220,潮州,2026-01-07,22.534361,120.54,1.8197781e-08
U2HA40,臺大內茅埔,2026-01-07,23.689722,120.851117,2.6998126e-09
467490,臺中,2026-01-07,24.145736,120.684075,7.378181e-08
C0UB60,明池,2026-01-07,24.650688,121.475277,5.8751336e-08
C0U960,翠峰湖,2026-01-07,24.510856,121.608044,4.5441702e-08
E2HA20,林試畢祿溪站,2026-01-07,24.226944,121.308522,2.3807605e-08
C2M9A0,大華,2026-01-07,23.4824,120.67491,4.664111e-09
C0V890,前鎮,2026-01-07,22.5718,120.3117,0.013811431
C1F941,雪嶺,2026-01-07,24.280586,121.026642,3.4356134e-08
C2H9E0,國姓南港,2026-01-07,23.911108,120.846556,6.2716397e-09
C0AC80,文山,2026-01-07,25.00235,121.575728,1.6182409e-07
C0F9R0,龍井,2026-01-07,24.184536,120.528972,0.011614893
C0M760,民雄,2026-01-07,23.551754,120.428457,1.3821313e-09
C0UA40,西德山,2026-01-07,24.560647,121.752608,3.437547e-08
C2TA70,赤科坪,2026-01-07,23.39885,121.39168,2.767135e-08
C1T920,中興,2026-01-07,23.769503,121.498653,3.2923843e-08
C0D550,雪霸,2026-01-07,24.526972,121.11605,2.4172973e-08
C2F860,梨山,2026-01-07,24.247522,121.243669,2.6992373e-08
C0R320,車城,2026-01-07,22.0744,120.716247,0.9983164
C1S870,南美山,2026-01-07,23.15025,121.382333,6.621219e-08
C0B020,基隆嶼,2026-01-07,25.19141,121.78391,2.2639412e-07
C1U501,牛鬥,2026-01-07,24.637836,121.573656,7.062017e-08
C0M730,嘉義市東區,2026-01-07,23.457673,120.460531,1.2480349e-09
C2R990,泰武,2026-01-07,22.60686,120.69765,7.6070314e-09
C0S700,知本,2026-01-07,22.684866,121.005642,4.1745253e-08
C1N001,沙崙,2026-01-07,22.935472,120.309406,0.0001422508
C0V760,橋頭,2026-01-07,22.757806,120.30575,0.0023612217
C0G960,福寶,2026-01-07,24.0443,120.3814,8.067982e-07
C0X210,白河,2026-01-07,23.347466,120.414427,1.5894707e-09
C0S810,東河,2026-01-07,22.972672,121.303986,1.432247e-07
C2R170,屏東,2026-01-07,22.66027,120.49403,8.0100937e-10
C0R670,楓港,2026-01-07,22.190131,120.692156,0.01531102
C0FA50,霧峰,2026-01-07,24.0419,120.6995,1.8215308e-09
C0UB10,蘇澳,2026-01-07,24.5969,121.8571,5.2543253e-08
C0G950,防潮門,2026-01-07,24.1835,120.4871,0.008287565
C0M740,六腳,2026-01-07,23.492871,120.290625,1.6992219e-06
C1R250,力里,2026-01-07,22.428117,120.629228,1.2057285e-08
C0K330,虎尾,2026-01-07,23.719183,120.442036,2.2639244e-09
C2FA00,烏石坑,2026-01-07,24.273503,120.947617,6.7601835e-09
C0V620,永安,2026-01-07,22.82315,120.236856,0.005647521
C1I330,楓樹林,2026-01-07,23.986803,121.076117,7.315708e-09
C0W200,湖西,2026-01-07,23.596314,119.67275,0.9977783
72Q010,高雄農改場,2026-01-07,22.709333,120.525889,8.42921e-10
C0SA40,瑞和,2026-01-07,22.974361,121.156697,4.0131855e-08
C0C680,龜山,2026-01-07,25.02846,121.38656,6.473306e-08
C2V260,月眉,2026-01-07,22.971003,120.539853,7.401671e-10
C0V450,鳳森,2026-01-07,22.545064,120.392592,8.918492e-09
C0FA90,小雪山林道,2026-01-07,24.29515,121.03651,4.1734584e-08
C0U720,南山,2026-01-07,24.43742,121.38167,4.0485435e-08
A2N290,臺南蘭花園區,2026-01-07,23.340258,120.379661,1.6829995e-09
C0R560,新園,2026-01-07,22.5434,120.461558,1.2078692e-08
C0U890,三星,2026-01-07,24.66812,121.65302,2.5448076e-08
C1V300,御油山,2026-01-07,23.001983,120.715364,8.697151e-09
C0U600,礁溪,2026-01-07,24.817539,121.765608,2.988074e-08
C1T980,龍澗,2026-01-07,24.023289,121.411328,3.3139187e-08
C0D670,海天一線,2026-01-07,24.831986,120.914438,0.99759626
C0SA00,歷坵,2026-01-07,22.520969,120.89185,2.9897078e-07
C0M710,東石,2026-01-07,23.458927,120.15385,1.4673907e-05
C0M780,鹿草,2026-01-07,23.41134,120.30835,1.955809e-06
C0U520,雙連埤,2026-01-07,24.753033,121.641303,2.8535469e-08
C0B010,七堵,2026-01-07,25.094819,121.71713,2.0781177e-07
C0R480,長治,2026-01-07,22.693128,120.542622,6.79314e-10
C1V830,國三S383K,2026-01-07,22.781967,120.426475,2.154791e-09
12Q980,恆春工作站,2026-01-07,22.079678,120.714425,0.99831676
C1O940,東山服務區,2026-01-07,23.286016,120.398472,1.6438247e-09
C1U840,東澳嶺,2026-01-07,24.5378,121.8485,2.83968e-08
C1D630,飛鳳山,2026-01-07,24.766464,121.119178,2.3894845e-07
C0S940,石寧山,2026-01-07,23.223772,121.406639,0.9715671
C0K410,北港,2026-01-07,23.573957,120.292802,2.7907354e-06
C2M620,瑞里,2026-01-07,23.545133,120.675197,5.649013e-09
C0SB70,小港漁港,2026-01-07,23.158558,121.400431,0.99673563
C2O950,安南,2026-01-07,23.076694,120.144861,0.0036482103
C0F0E0,南湖圈谷,2026-01-07,24.363714,121.444667,5.8859012e-08
467610,成功,2026-01-07,23.097486,121.373428,2.484462e-07
C0G890,伸港,2026-01-07,24.148933,120.484403,0.007930226
C2E540,龍溪,2026-01-07,24.606489,120.783933,7.951518e-06
C1V200,梅山,2026-01-07,23.268447,120.823556,3.2607288e-09
C0T9H0,加路蘭山,2026-01-07,23.682947,121.5274,2.3884834e-08
C2O930,玉井,2026-01-07,23.126042,120.46055,1.289409e-09
C1F911,新伯公,2026-01-07,24.221361,120.841069,1.4295458e-08
C0R490,九如,2026-01-07,22.7405,120.490503,8.5078883e-10
C0X200,左鎮,2026-01-07,23.056758,120.408522,1.502907e-09
C2TB50,麻汝,2026-01-07,23.42554,121.39358,1.649545e-08
C0FA60,鞍馬山工作站,2026-01-07,24.267064,121.000793,2.1836504e-08
C0SB50,叭嗡嗡,2026-01-07,23.047062,121.343223,3.698474e-07
C1F891,稍來,2026-01-07,24.265689,121.001142,2.1213163e-08
C2M9C0,紫雲,2026-01-07,23.494914,120.540253,1.2164368e-09
72N240,七股研究中心,2026-01-07,23.081672,120.062894,0.006568919
C0C700,中壢,2026-01-07,24.977661,121.256375,9.273461e-06
C0M690,水上,2026-01-07,23.419734,120.388909,1.3395922e-09
C0V690,鼓山,2026-01-07,22.623325,120.275575,0.075784676
C0O860,大內,2026-01-07,23.11885,120.36083,0.00026260986
C0Z200,萬榮,2026-01-07,23.709219,121.420106,2.9253037e-08
C0T9D0,和中,2026-01-07,24.26676,121.74103,1.4568108e-06
C2S9A0,北份子寮,2026-01-07,22.78561,121.07813,2.8486259e-06
C1O921,楠西,2026-01-07,23.183511,120.484083,1.274985e-09
C0AJ30,淡水觀海,2026-01-07,25.184591,121.408616,3.9538354e-05
C0V810,左營,2026-01-07,22.67491,120.28491,0.037807137
C0UA70,桃源谷,2026-01-07,24.962606,121.888875,5.803453e-08
C0X130,官田,2026-01-07,23.193217,120.315422,7.7134355e-06
C1H000,翠峰,2026-01-07,24.109397,121.205211,2.561892e-08
C0UA90,石城,2026-01-07,24.980444,121.951214,3.1109516e-07
C1E681,南勢山,2026-01-07,24.421669,120.923831,1.8823814e-08
C0A9F0,內湖,2026-01-07,25.079422,121.57545,1.2572909e-07
C0K291,宜梧,2026-01-07,23.536281,120.169329,0.00011634115
C1K540,口湖,2026-01-07,23.585344,120.180517,0.00012365927
C0R780,滿州,2026-01-07,22.024403,120.839892,0.9998431
C0V870,文安,2026-01-07,22.8025,120.2164,0.009750099
C0U650,玉蘭,2026-01-07,24.675286,121.587061,4.7588266e-08
C0R640,東港,2026-01-07,22.46247,120.44074,1.0629076e-08
C0AJ80,板橋,2026-01-07,25.0107,121.4489,1.4778115e-07
C0S660,下馬,2026-01-07,23.150427,121.070312,2.3434657e-08
C2N190,烏樹,2026-01-07,23.32393,120.36989,2.5429238e-06
C1H9B1,阿眉,2026-01-07,24.1263,120.994672,1.3925312e-08
C0UA20,多加屯,2026-01-07,24.368614,121.373189,3.0768692e-08
C0E730,頭份,2026-01-07,24.688247,120.912206,0.0001613369
72V140,高改旗南分場,2026-01-07,22.857861,120.516667,2.1695798e-09
C0K480,莿桐,2026-01-07,23.761192,120.502372,2.3470252e-09
C0U980,坪林石牌,2026-01-07,24.86478,121.77396,3.6011926e-08
C0T900,西林,2026-01-07,23.8119,121.441458,2.8096872e-08
C1I150,青雲,2026-01-07,23.793361,120.949378,2.2159692e-09
C2E980,和興,2026-01-07,24.505319,120.923016,2.675597e-08
467350,澎湖,2026-01-07,23.565503,119.563094,0.9960232
C0G800,埔鹽,2026-01-07,24.000394,120.431683,6.84525e-07
C0H960,草屯,2026-01-07,23.973672,120.68085,1.7299278e-09
C1V780,多納林道,2026-01-07,22.888028,120.737917,5.175448e-09
C0E920,通霄漁港,2026-01-07,24.498589,120.673876,0.00425553
C0Z330,安通山,2026-01-07,23.290728,121.348528,1.724743e-08
C0AH10,永和,2026-01-07,25.01125,121.508111,1.5052365e-07
C0AK10,太平里,2026-01-07,25.134937,121.364899,2.3742592e-05
C2G640,鹿港,2026-01-07,24.0753,120.430481,6.326253e-07
C1E890,國三N149K,2026-01-07,24.463414,120.680019,0.0008219319
C1R110,口社,2026-01-07,22.770111,120.645222,5.465557e-10
C1M870,國三N285K,2026-01-07,23.550319,120.505833,1.2220436e-09
C1E480,鳳美,2026-01-07,24.554803,121.034747,3.0889236e-08
C0T9M0,靜浦,2026-01-07,23.455167,121.495028,2.3157527e-08
C2H9M0,發祥,2026-01-07,24.154094,121.164517,9.222556e-09
C2G9C0,埔南,2026-01-07,23.99124,120.46969,6.6648363e-07
C0AI40,石牌,2026-01-07,25.115597,121.513139,1.2572909e-07
C1F871,上谷關,2026-01-07,24.203483,121.018644,6.7710877e-09
C2H9G0,百勝,2026-01-07,24.051142,120.909361,2.1667552e-09
C0G880,二水,2026-01-07,23.810742,120.6173,2.2238318e-09
C0R940,加祿堂,2026-01-07,22.3363,120.6217,6.014079e-08
C0W220,北竿,2026-01-07,26.220358,119.974881,0.00024980848
C0O960,崎頂,2026-01-07,22.959547,120.369317,5.3085732e-06
C0TA40,秀林,2026-01-07,24.302864,121.731144,3.1056835e-08
C0S750,向陽,2026-01-07,23.248397,120.986133,2.6083779e-08
C0T9F0,水璉,2026-01-07,23.797131,121.542514,2.5145985e-08
C1M600,頭凍,2026-01-07,23.406364,120.603339,3.784742e-09
467660,臺東,2026-01-07,22.752211,121.154586,0.002756769
C1D380,新埔,2026-01-07,24.84745,121.03834,0.00013122773
C2G980,田頭村,2026-01-07,23.8263,120.444175,2.1778928e-09
C0V750,路竹,2026-01-07,22.854997,120.259439,0.0020002602
C0N050,蚵寮,2026-01-07,23.301,120.1104,4.2241456e-05
C2X060,下營,2026-01-07,23.226806,120.256291,2.158132e-05
72M700,南改鹿草分場,2026-01-07,23.416869,120.283061,2.166256e-06
C1SA50,利嘉林道,2026-01-07,22.82325,121.009389,2.4598126e-08
C0UB70,太平山中間站,2026-01-07,24.542003,121.513453,3.9292704e-08
C0A940,金山,2026-01-07,25.223628,121.643967,4.4469045e-05
C1V340,大津,2026-01-07,22.888322,120.645986,5.3216437e-10
C0W180,七美,2026-01-07,23.219333,119.444892,0.99879676
C1F9C1,白冷,2026-01-07,24.182844,120.929889,5.1456435e-09
K2E710,苗改生物防治研究中心,2026-01-07,24.422861,120.871833,3.761341e-07
C0N040,蘆竹溝,2026-01-07,23.2344,120.0961,4.2499683e-05
C0TB40,崇德,2026-01-07,24.166144,121.657414,3.7645275e-06
C0D760,大坪苗圃,2026-01-07,24.5362,121.1108,2.8322209e-08
C2W230,畜試所澎湖,2026-01-07,23.628342,119.513206,0.9961825
C0R880,後壁湖,2026-01-07,21.9457,120.7457,0.99951774
C1I280,埔中,2026-01-07,23.820778,120.642594,2.0300424e-09
467790,墾丁雷達站,2026-01-07,21.948235,120.808028,0.9997238
C0W190,望安,2026-01-07,23.380564,119.494075,0.9975298
C0Z170,卓溪,2026-01-07,23.3443,121.3029,2.1430859e-08
C0F850,東勢,2026-01-07,24.246428,120.833047,1.5599538e-08
466900,淡水,2026-01-07,25.164889,121.448906,1.13211745e-05
C0I370,魚池,2026-01-07,23.895703,120.94135,3.034734e-09
C0C630,大溪,2026-01-07,24.882853,121.265547,7.107662e-06
C0A520,山佳,2026-01-07,24.974944,121.402008,1.1645106e-07
C0I110,竹山,2026-01-07,23.761225,120.688156,1.5449876e-09
82H840,茶改南部分場,2026-01-07,23.762528,120.7405,1.892056e-09
C2SD80,再來山,2026-01-07,23.34371,121.44122,0.12366084
C0G660,溪湖,2026-01-07,23.94835,120.479122,2.6204563e-07
C1T800,洛韶,2026-01-07,24.204558,121.453956,2.736217e-08
C1T810,慈恩,2026-01-07,24.192044,121.388386,2.8908204e-08
C1E451,象鼻,2026-01-07,24.368617,120.940228,6.7301427e-09
C0AC60,三峽,2026-01-07,24.939025,121.369728,2.29363e-05
C0I490,萬大林道,2026-01-07,23.928228,121.091411,1.0795492e-08
C1I290,豐丘,2026-01-07,23.668178,120.887417,7.976648e-09
C1I320,奧萬大,2026-01-07,23.952956,121.178556,8.156453e-09
C2M910,嘉義大學,2026-01-07,23.471325,120.485903,1.2371776e-09
C0U770,南澳,2026-01-07,24.44935,121.81022,1.2953397e-07
C2TB30,吉安,2026-01-07,23.94538,121.54803,3.3339337e-08
C0A980,社子,2026-01-07,25.109508,121.469681,1.3945905e-07
C0V800,六龜,2026-01-07,22.997889,120.633583,6.520463e-10
C1G9D0,國一S218K,2026-01-07,23.890641,120.493253,2.9468708e-07
C0E570,白沙屯,2026-01-07,24.549447,120.696803,0.0022171207
C2F9A0,中竹林,2026-01-07,24.103556,120.751061,2.0494482e-09
C0FA40,臺中電廠,2026-01-07,24.2146,120.4907,0.015196761
C2G9A0,畜試所彰化,2026-01-07,23.86045,120.557964,2.4505675e-09
C0H9C0,合歡山,2026-01-07,24.143442,121.272547,4.9026823e-08
G2M350,農試溪口農場,2026-01-07,23.58565,120.408111,1.3838855e-09
C0U860,頭城,2026-01-07,24.85323,121.8308,6.7875256e-08
C0R580,南州,2026-01-07,22.48591,120.50274,1.3879298e-07
C0D430,峨眉,2026-01-07,24.6905,121.017189,5.9360254e-06
C0G780,秀水,2026-01-07,24.03405,120.503869,1.987291e-07
72N100,臺南農改場,2026-01-07,23.0605,120.342194,9.783055e-05
C0S900,蘭嶼高中,2026-01-07,22.04909,121.51214,0.98746634
C2TA60,六十石,2026-01-07,23.22477,121.31861,2.6109463e-08
C1F9W0,德基,2026-01-07,24.254783,121.190261,2.1490498e-08
C2M980,安和,2026-01-07,23.51377,120.31593,1.5550928e-06
C1Z120,壽豐,2026-01-07,23.870853,121.508081,3.730255e-08
C0W160,烏坵,2026-01-07,24.9944,119.44956,0.9569052
C1I240,外大坪,2026-01-07,23.958697,120.917931,3.3343195e-09
C1I550,國六W023K,2026-01-07,23.979067,120.867742,2.0279216e-09
C0R870,興海,2026-01-07,21.9752,120.8439,0.99966663
C0R140,瑪家,2026-01-07,22.682903,120.686639,3.1488963e-09
C0A530,坪林,2026-01-07,24.938183,121.70975,8.373278e-08
C0X260,後壁,2026-01-07,23.366358,120.362326,5.5975293e-06
C0Z230,和平,2026-01-07,24.30717,121.77007,8.02838e-08
C0G770,福興,2026-01-07,24.041289,120.437669,6.966494e-07
C0H9A0,神木村,2026-01-07,23.532742,120.843667,9.486698e-09
C0I460,南投,2026-01-07,23.911469,120.687331,1.7178279e-09
C0I480,梅峰,2026-01-07,24.085272,121.173572,1.9091383e-08
C1V570,吉東,2026-01-07,22.85422,120.5454,5.5264615e-10
C2A560,福山,2026-01-07,24.776203,121.502811,4.8946003e-08
C0AH30,五分山,2026-01-07,25.07125,121.780794,4.5158647e-08
C0FA10,松柏,2026-01-07,24.429115,120.617482,7.439593e-05
72S200,東改班鳩分場,2026-01-07,22.829528,121.077694,2.426285e-07
72HA00,中改埔里分場,2026-01-07,23.903208,120.963364,2.9277136e-09
C2H9W0,大坪頂農水,2026-01-07,24.043122,120.932781,3.0016505e-09
C0C650,平鎮,2026-01-07,24.897503,121.214636,8.387027e-06
C0S930,延平,2026-01-07,22.902581,121.084058,3.4897695e-08
C0UA60,樟樹山,2026-01-07,24.41393,121.78325,2.1161114e-08
C2UC10,出水溪,2026-01-07,24.615822,121.652253,3.399119e-08
C1S670,摩天,2026-01-07,23.199503,121.027,1.5355639e-08
C2C590,觀音,2026-01-07,25.027072,121.153317,0.00018190205
C0V630,茄萣,2026-01-07,22.906642,120.182608,0.009183783
466940,基隆,2026-01-07,25.133314,121.740475,2.4281042e-07
C0X050,東河,2026-01-07,23.296598,120.385608,1.6846053e-09
C0R770,保力,2026-01-07,22.071122,120.764111,0.9991107
G2L020,農試嘉義分所,2026-01-07,23.485028,120.473806,1.2424463e-09
C0X240,關子嶺,2026-01-07,23.331169,120.508025,1.4301942e-09
C0I380,集集,2026-01-07,23.828206,120.801467,1.5578715e-09
466990,花蓮,2026-01-07,23.975128,121.613275,6.892139e-08
C1V220,小關山,2026-01-07,23.154217,120.813603,1.0569519e-08
C1F9G1,慶福山,2026-01-07,24.180853,120.848378,1.15671694e-08
C0FB20,雪山橋,2026-01-07,24.23192,120.9786,2.0188109e-08
C0Z250,瑞穗林道,2026-01-07,23.49284,121.30688,2.6093781e-08
C0D590,新豐,2026-01-07,24.87068,120.97721,0.961173
C0A870,五指山,2026-01-07,25.132153,121.608692,1.277753e-07
C0UA50,西帽山,2026-01-07,24.555361,121.802628,2.8457148e-08
C2R980,竹田國中,2026-01-07,22.61532,120.52412,1.6241385e-08
C0X160,仁德,2026-01-07,22.968258,120.257689,0.0026924387
C1H971,六分寮,2026-01-07,23.92507,120.6378,2.417287e-09
C0W120,西嶼,2026-01-07,23.5626,119.468436,0.9970187
C0G650,員林,2026-01-07,23.946503,120.585597,4.3539745e-07
C0AD50,鶯歌,2026-01-07,24.951533,121.346294,4.9180373e-05
C2H9Q0,北東眼山,2026-01-07,24.120939,121.189303,1.7956875e-08
C2H9T0,名間竹圍,2026-01-07,23.859914,120.637572,1.9135267e-09
C0S990,山豬窟,2026-01-07,22.318619,120.857372,1.1948221e-08
C0X190,安平,2026-01-07,22.993161,120.152181,0.002220837
C0K400,斗六,2026-01-07,23.720583,120.541127,2.3712423e-09
12J990,口湖工作站,2026-01-07,23.589978,120.180394,0.000119473436
C0O830,北寮,2026-01-07,23.079561,120.495008,5.5158045e-10
C1D410,白蘭,2026-01-07,24.579364,121.079947,2.7615723e-08
C0S970,加津林,2026-01-07,22.416211,120.926942,0.0031495537
C0D700,關西,2026-01-07,24.7977,121.1732,1.2261411e-07
C0U750,龜山島,2026-01-07,24.841667,121.953133,5.1216468e-08
C0R810,內獅,2026-01-07,22.305064,120.642986,6.015731e-08
C1M390,龍美,2026-01-07,23.406728,120.654417,5.3316533e-09
C2K290,崙內,2026-01-07,23.69525,120.35601,3.0005733e-05
C2FB60,頭櫃山,2026-01-07,24.129842,120.858925,4.908659e-09
C1H840,國三N238K,2026-01-07,23.841008,120.707711,1.5533141e-09
CAQ030,崎峰國小,2026-01-07,22.42565,120.49521,1.3879298e-07
C2E520,大湖,2026-01-07,24.414939,120.870872,3.1021702e-07
467530,阿里山,2026-01-07,23.508208,120.813242,2.3216524e-08
C1E691,南湖,2026-01-07,24.40135,120.837533,4.0572168e-08
C0FA30,梧棲,2026-01-07,24.256003,120.523381,0.010813893
C1V231,高中,2026-01-07,23.134911,120.716711,3.1490224e-09
C0AK30,硬漢嶺,2026-01-07,25.136097,121.426372,1.17536e-07
C0F9V0,新社,2026-01-07,24.200172,120.815806,1.22584005e-08
C0H890,埔里,2026-01-07,23.972169,120.952425,2.0745083e-09
C0R690,墾丁,2026-01-07,21.966756,120.810269,0.999902
C0SD20,富山,2026-01-07,22.822383,121.190825,1.5078155e-07
C0F0D0,審馬陣,2026-01-07,24.381675,121.4203,5.401701e-08
C2W030,金門農試所,2026-01-07,24.448431,118.451786,0.00016561865
C0R820,白鷺,2026-01-07,22.454275,120.666219,5.047841e-09
C0FB00,大雪山,2026-01-07,24.254668,121.007374,2.1987463e-08
C1V190,南天池,2026-01-07,23.27403,120.91176,2.7194428e-08
C0E940,雪見,2026-01-07,24.42595,121.01347,2.379267e-08
K2E360,苗栗農改場,2026-01-07,24.495722,120.829111,2.0521736e-06
CAJ050,海口故事園區,2026-01-07,23.57543,120.14121,0.00012286693
C2K280,四湖,2026-01-07,23.6304,120.22717,0.005453603
C2H9D0,三隻寮,2026-01-07,24.093078,120.861578,3.4271033e-09
C0O990,媽廟,2026-01-07,22.99175,120.293525,0.00022548492
C0D480,打鐵坑,2026-01-07,24.849664,121.150789,1.556204e-07
C0Z220,和平林道,2026-01-07,24.343922,121.656317,1.966415e-08
C0TA10,花蓮漁港,2026-01-07,23.995322,121.638331,0.9956103
72C440,桃園農改場,2026-01-07,24.950944,121.030583,0.00048335304
C1E711,馬拉邦山,2026-01-07,24.367306,120.901656,6.5625128e-09
C0SB20,富岡,2026-01-07,22.792467,121.192669,0.0019926128
C0D560,竹東,2026-01-07,24.767147,121.057881,9.260814e-06
C0F9U0,南屯,2026-01-07,24.137006,120.637969,6.8589344e-08
C2SD60,明峰,2026-01-07,22.8671,121.11825,2.9658443e-08
C0M720,番路,2026-01-07,23.464657,120.554156,1.2010204e-09
C0F0A0,雪山圈谷,2026-01-07,24.388594,121.236339,6.1903876e-08
C1A9N0,四十份,2026-01-07,24.934158,121.593283,8.072541e-08
C0U760,東澳,2026-01-07,24.52196,121.83318,1.169993e-07
C0X230,鹽水,2026-01-07,23.272621,120.247641,3.4239027e-05
C2H9H0,苗改南投蜂場,2026-01-07,23.852589,120.693481,1.5830958e-09
C2TB70,達谷寮,2026-01-07,23.38,121.35968,2.258431e-08
C0R950,萬隆國小,2026-01-07,22.507667,120.587817,1.9957136e-08
467540,大武,2026-01-07,22.35572,120.90374,0.99969226
C0V370,古亭坑,2026-01-07,22.893178,120.401947,1.2971051e-09
C1I340,新興橋,2026-01-07,23.563333,120.868728,4.065038e-09
C0SA80,土坂,2026-01-07,22.453108,120.887572,0.00010030723
C0R160,鹽埔,2026-01-07,22.739558,120.530778,8.41517e-10
C0AC40,大屯山,2026-01-07,25.175675,121.522408,7.072666e-08
466850,五分山雷達站,2026-01-07,25.071182,121.781205,4.5024652e-08
C2H9L0,馬烈霸,2026-01-07,24.1512,121.201772,2.0486558e-08
C1AI50,國三N016K,2026-01-07,25.034164,121.619664,1.8029947e-07
C2V920,匏子寮,2026-01-07,23.04905,120.55319,7.345178e-10
C1V600,藤枝,2026-01-07,23.071961,120.757042,7.893708e-09
C1E601,南勢,2026-01-07,24.572486,120.734842,0.00012198136
C0O980,新市,2026-01-07,23.061614,120.298197,0.00030670763
C0K420,西螺,2026-01-07,23.800407,120.467394,2.1468407e-09
C0Z050,佳心,2026-01-07,23.34567,121.21316,2.4480553e-08
C0AD30,蘆洲,2026-01-07,25.086594,121.472331,1.0920834e-07
C0V610,梓官,2026-01-07,22.760558,120.267211,0.00519861
K2F750,種苗改良場,2026-01-07,24.225972,120.800917,1.3124431e-08
C0UA80,大溪漁港,2026-01-07,24.941801,121.902955,4.104925e-07
C1AI60,國一39K邊坡,2026-01-07,25.064361,121.383836,6.189479e-08
C0W150,金寧,2026-01-07,24.457703,118.328989,0.16462353
C0R960,內埔,2026-01-07,22.608483,120.570714,1.5028563e-08
V2C250,八德合作社,2026-01-07,24.93775,121.266389,1.539443e-05
C2H9S0,龍南,2026-01-07,23.953536,120.833183,4.940793e-09
C0AH40,平等,2026-01-07,25.129142,121.577086,2.6303312e-07
C0R540,佳冬,2026-01-07,22.419456,120.552375,7.3328664e-08
466950,彭佳嶼,2026-01-07,25.627975,122.079744,0.99976856
C0A890,雙溪,2026-01-07,25.036003,121.864242,2.4303677e-07
C0C480,桃園,2026-01-07,24.992425,121.323172,1.38185405e-05
C0AH50,林口,2026-01-07,25.072181,121.38084,5.525455e-08
A2K360,水試臺西試驗場,2026-01-07,23.717231,120.190522,0.006954671
C2M960,外寮,2026-01-07,23.562643,120.665688,4.589743e-09
C0F9S0,烏日,2026-01-07,24.107058,120.624103,2.1553537e-07
C2N180,鹿陶洋,2026-01-07,23.14325,120.48352,1.2740686e-09
C0C490,八德,2026-01-07,24.928708,121.283289,1.4521969e-05
C0R190,赤山,2026-01-07,22.592333,120.614306,1.2116972e-08
C0T820,天祥,2026-01-07,24.179597,121.495639,4.5085667e-08
C1F9E1,龍安,2026-01-07,24.1605,120.831961,1.2135359e-08
C2SD50,順那,2026-01-07,23.04166,121.29332,7.057815e-08
C0V820,小林,2026-01-07,23.148408,120.63325,1.370238e-09
C2G870,芳苑,2026-01-07,23.922303,120.320025,0.5123318
C0E850,大河,2026-01-07,24.618069,120.948578,4.5746174e-06
C1U670,寒溪,2026-01-07,24.634,121.71691,2.5611739e-08
C0N020,城西,2026-01-07,23.0568,120.0956,0.0032285694
C1Z110,三棧,2026-01-07,24.11557,121.60501,4.039511e-08
C0R280,檳榔,2026-01-07,22.076078,120.836777,0.8396005
C2H9J0,中台,2026-01-07,23.9996,120.938739,2.398018e-09
C0F9L0,后里,2026-01-07,24.310436,120.729725,2.6412698e-08
467441,高雄,2026-01-07,22.730432,120.312516,0.001991719
C0Z180,新城,2026-01-07,24.040486,121.604878,6.665987e-08
C0D540,橫山,2026-01-07,24.71116,121.11693,1.1734286e-06
C1D420,太閣南,2026-01-07,24.632808,121.160575,4.053728e-08
C1E770,公館,2026-01-07,24.526914,120.830806,3.1207505e-06
CAN130,水試所海水繁養殖中心,2026-01-07,23.120802,120.07968,0.0063445377
C1I430,翠華,2026-01-07,24.191961,121.224339,3.0778555e-08
C1M400,菜瓜坪,2026-01-07,23.251928,120.576103,1.2787404e-09
C0G730,二林,2026-01-07,23.903325,120.376081,8.1845684e-07
72M360,南改義竹分場,2026-01-07,23.360694,120.279361,1.9503403e-05
V2K620,麥寮合作社,2026-01-07,23.753836,120.294783,5.9424903e-05
C0Z070,舞鶴,2026-01-07,23.46811,121.37407,1.6734583e-08
C0B040,大武崙,2026-01-07,25.166676,121.706993,2.0429806e-07
C1Z030,紅葉,2026-01-07,23.493119,121.338806,1.7141696e-08
C1I050,丹大,2026-01-07,23.753747,121.141147,2.9402392e-08
C0I080,信義,2026-01-07,23.689694,120.851036,2.6998126e-09
C2TB80,庄子底,2026-01-07,23.71794,121.49438,3.2142275e-08
C0D750,樂山林道6k,2026-01-07,24.49999,121.08773,3.115134e-08
C2M920,朴子農改,2026-01-07,23.469889,120.259383,2.53533e-06
C2A880,福隆,2026-01-07,25.017842,121.942083,3.2510775e-07
C0Z160,鳳林,2026-01-07,23.746114,121.453411,3.1407104e-08
C0UB80,翠峰林道6K,2026-01-07,24.49773,121.568625,4.722928e-08
C0V210,復興,2026-01-07,23.222403,120.806089,2.7546112e-09
C0H990,昆陽,2026-01-07,24.121322,121.273642,3.9384318e-08
C0R741,獅子,2026-01-07,22.202308,120.705236,0.00017077553
C0S710,鹿野,2026-01-07,22.917711,121.122994,2.424829e-08
C0I530,小奇萊,2026-01-07,24.131764,121.295717,4.330953e-08
C0FA70,大雪山埡口,2026-01-07,24.26867,121.03062,3.403563e-08
C2K630,荷苞,2026-01-07,23.657717,120.595144,2.3445912e-09
C0Z080,富源,2026-01-07,23.587642,121.378225,2.7178716e-08
C2M9E0,旺來山,2026-01-07,23.555153,120.486463,1.232961e-09
C0SB10,美和,2026-01-07,22.682078,121.060236,2.973206e-05
C2K620,馬光農場,2026-01-07,23.721453,120.378864,2.2761344e-09
C1I140,卡奈托灣,2026-01-07,23.754364,121.087872,1.2323197e-08
C0I520,玉山風口,2026-01-07,23.470489,120.955994,5.4873095e-08
C1G691,下水埔,2026-01-07,23.816114,120.5676,2.2137217e-09
C0X110,臺南市南區,2026-01-07,22.961189,120.188378,0.0029537673
C0V680,仁武,2026-01-07,22.701083,120.347722,0.0016022049
C2G840,北斗,2026-01-07,23.877586,120.514222,2.8110685e-07
C2TB90,長橋,2026-01-07,23.6874,121.46186,3.1078404e-08
C0R900,竹坑,2026-01-07,22.1385,120.7022,0.01531102
C0G860,社頭,2026-01-07,23.897647,120.5862,3.8915124e-07
C0X150,安定,2026-01-07,23.102614,120.227839,0.0007950823
C0R590,里港,2026-01-07,22.77919,120.49459,3.2792027e-09
C0E610,馬都安,2026-01-07,24.451272,120.930192,1.8368235e-08
C0E550,明德,2026-01-07,24.583486,120.885411,3.5842677e-06
C0R150,三地門,2026-01-07,22.709889,120.639944,5.7772614e-10
C0G910,花壇,2026-01-07,24.032076,120.549461,1.7539791e-07
C1D400,鳥嘴山,2026-01-07,24.71909,121.28387,4.524685e-08
C0K500,元長,2026-01-07,23.64981,120.315024,7.693894e-05
C0F0B0,石岡,2026-01-07,24.276061,120.777644,2.192682e-08
C2V250,甲仙,2026-01-07,23.080106,120.591758,8.293132e-10
C0SA20,金崙山,2026-01-07,22.567419,120.959667,4.1326324e-08
C0V350,溪埔,2026-01-07,22.738578,120.446797,4.04885e-09
C0M660,溪口,2026-01-07,23.604131,120.403569,1.3831598e-09
C1S880,壽卡,2026-01-07,22.238911,120.858903,1.3553939e-08
72D680,桃改新埔分場,2026-01-07,24.834444,121.066111,0.00016428976
