站號,站名,日期,lat,lon,BLBTSLS
C1O850,環湖,2026-01-06,23.148617,120.418633,3.0045819e-10
C0S890,關山,2026-01-06,23.0395,121.175017,1.0390853e-09
CAH030,茶改場竹圍站,2026-01-06,23.860083,120.637528,8.3415963e-10
V2K610,大庄合作社,2026-01-06,23.8068,120.367939,7.226999e-10
G2AI50,關渡,2026-01-06,25.11575,121.492,2.585849e-08
C1S800,華源,2026-01-06,22.657883,121.02325,0.0047046132
C0R550,新埤,2026-01-06,22.467947,120.582894,2.2630339e-10
C1O880,關山,2026-01-06,23.173397,120.594092,3.498937e-10
V2C260,八德蔬果,2026-01-06,24.978508,121.281819,1.7650606e-07
A2K570,古坑花卉中心,2026-01-06,23.63353,120.55239,4.236172e-09
C0R260,春日,2026-01-06,22.370361,120.628306,2.255639e-10
C1I211,蘆竹湳,2026-01-06,23.934019,120.811994,1.6886974e-09
467571,新竹,2026-01-06,24.827853,121.014219,3.0900763e-05
C1I260,北坑,2026-01-06,23.9246,121.006903,1.1677938e-09
C0SA40,瑞和,2026-01-06,22.974361,121.156697,7.191828e-09
C0R490,九如,2026-01-06,22.7405,120.490503,2.1786352e-10
C0D430,峨眉,2026-01-06,24.6905,121.017189,3.4774242e-08
C1I240,外大坪,2026-01-06,23.958697,120.917931,1.949627e-09
C1V570,吉東,2026-01-06,22.85422,120.5454,2.4964936e-10
C0D480,打鐵坑,2026-01-06,24.849664,121.150789,3.3384455e-07
V2C250,八德合作社,2026-01-06,24.93775,121.266389,4.452897e-07
C0C480,桃園,2026-01-06,24.992425,121.323172,1.7650606e-07
