站號,站名,日期,lat,lon,BLBTSLS
C0R710,龍磐,2026-01-08,21.931672,120.838942,0.9825649
C1F9D1,白毛台,2026-01-08,24.158325,120.886933,4.0319117e-09
C0G940,竹塘,2026-01-08,23.848253,120.386764,4.724944e-09
467590,恆春,2026-01-08,22.003897,120.746339,0.98250294
C1O850,環湖,2026-01-08,23.148617,120.418633,8.2193236e-10
C0U710,太平山,2026-01-08,24.505486,121.525656,4.2256268e-08
C0E820,獅潭,2026-01-08,24.539133,120.920042,1.3572054e-07
C2SD70,二層坪,2026-01-08,22.94105,121.16838,4.3618646e-09
C0V880,興達,2026-01-08,22.8778,120.2127,7.8984165e-05
C0S890,關山,2026-01-08,23.0395,121.175017,4.242123e-09
C0SB30,新蘭,2026-01-08,22.869214,121.223228,5.2007505e-09
C2R970,屏科大,2026-01-08,22.648275,120.619247,6.6068973e-09
C1Z130,銅門,2026-01-08,23.965694,121.492842,1.4879277e-08
C0AD40,土城,2026-01-08,24.973208,121.445169,7.6805286e-08
CAN140,六官養殖協會,2026-01-08,23.22881,120.29962,5.39962e-07
C0X180,山上,2026-01-08,23.0757,120.363253,5.040373e-07
C0F9Z0,雪山東峰,2026-01-08,24.388792,121.268675,4.060964e-08
C1M480,獨立山,2026-01-08,23.537022,120.607797,2.076955e-09
C0X220,學甲,2026-01-08,23.230367,120.182187,1.6959646e-06
467650,日月潭,2026-01-08,23.881325,120.90805,5.385239e-09
A2K570,古坑(花卉中心),2026-01-08,23.633531,120.552392,1.0791226e-09
C0K600,箔子寮,2026-01-08,23.6197,120.14,0.042574007
C0G830,埤頭,2026-01-08,23.866003,120.452806,1.8642152e-09
C0S950,七塊厝,2026-01-08,22.954453,121.229922,4.2478066e-09
467110,金門,2026-01-08,24.407306,118.289281,0.011502341
C0AH80,深坑,2026-01-08,25.002703,121.628328,7.180784e-08
C0A970,三貂角,2026-01-08,25.007606,122.002058,6.765901e-08
C2D730,寶山農場,2026-01-08,24.732444,120.976153,4.8642283e-07
C0K430,褒忠,2026-01-08,23.690938,120.303634,7.0366973e-06
467480,嘉義,2026-01-08,23.495925,120.432906,1.1928224e-09
C0V400,阿公店,2026-01-08,22.804194,120.355528,2.972598e-06
C0E960,觀霧分站,2026-01-08,24.505781,121.113921,1.9479405e-08
467550,玉山,2026-01-08,23.48718,120.95943,4.0946414e-08
C0R440,大漢山,2026-01-08,22.405264,120.753181,1.5494328e-08
C0SD30,東清國小,2026-01-08,22.057128,121.564922,0.99752724
C1F9B1,桐林,2026-01-08,24.066172,120.735194,1.9277844e-09
C2H9U0,鳳鵬,2026-01-08,23.763919,120.788061,1.1447043e-09
C0K390,土庫,2026-01-08,23.679029,120.395574,2.2837792e-09
C1I450,望鄉山,2026-01-08,23.594153,120.944286,2.2954579e-08
C0E910,海埔,2026-01-08,24.648767,120.772435,2.6608808e-05
B2E890,畜試北區分所,2026-01-08,24.527806,120.770972,5.8245337e-07
C0R750,四林格山,2026-01-08,22.076989,120.802439,0.38708785
C0F0C0,中坑,2026-01-08,24.248517,120.903319,5.2825597e-09
C1I121,大鞍,2026-01-08,23.678381,120.760017,7.195862e-09
C2G9E0,移民庄,2026-01-08,23.9784,120.40283,2.0315113e-06
72U480,花改蘭陽分場,2026-01-08,24.686306,121.716583,1.09112515e-08
C0A770,科教館,2026-01-08,25.096356,121.516507,5.227346e-08
C0AJ60,六塊厝,2026-01-08,25.24,121.4481,9.115007e-06
C0R620,墾雷,2026-01-08,21.900836,120.855269,0.9614402
467420,永康,2026-01-08,23.038386,120.2367,6.616776e-06
C2M530,奮起湖,2026-01-08,23.493903,120.699253,5.3697713e-09
C0I410,名間,2026-01-08,23.837053,120.701447,1.1492131e-09
A2C560,農工中心,2026-01-08,24.985917,121.239833,7.6483975e-06
C0V740,旗山,2026-01-08,22.888614,120.483597,1.2274e-09
C0Z061,玉里,2026-01-08,23.3215,121.339656,5.700164e-09
C0S840,南田,2026-01-08,22.279725,120.889208,0.99862766
C1I470,杉林溪,2026-01-08,23.639517,120.786444,7.790294e-09
C1X040,東原,2026-01-08,23.291597,120.463822,9.325002e-10
C0R660,枋寮,2026-01-08,22.367722,120.590647,1.2546437e-07
C1R120,上德文,2026-01-08,22.763272,120.704442,2.0602262e-09
C0K450,大埤,2026-01-08,23.646074,120.431537,1.8736082e-09
C0UA00,土場,2026-01-08,24.576533,121.495333,3.4884586e-08
467080,宜蘭,2026-01-08,24.763975,121.756528,1.1128728e-08
C0N030,四草,2026-01-08,23.0235,120.1116,8.180957e-05
467410,臺南,2026-01-08,22.99328,120.20492,2.0976755e-05
C0V650,彌陀,2026-01-08,22.783806,120.246361,5.4673623e-05
C0D660,新竹市東區,2026-01-08,24.798681,120.986942,3.2981372e-06
82S580,茶改東部分場,2026-01-08,22.907694,121.130139,4.360775e-09
C0SB40,興隆,2026-01-08,22.913661,121.257469,7.788838e-09
467050,新屋,2026-01-08,25.006725,121.047492,0.0006947311
C0C710,大溪永福,2026-01-08,24.892936,121.324975,2.2633333e-06
C0FA20,溫寮,2026-01-08,24.372177,120.583125,0.14754923
C0V640,湖內,2026-01-08,22.887139,120.2445,6.468201e-05
C0R910,下寮,2026-01-08,22.3929,120.5548,1.5412378e-07
C0Z020,明里,2026-01-08,23.208717,121.262342,5.2047398e-09
C0M770,嘉義梅山,2026-01-08,23.585398,120.555587,7.789012e-10
C0C660,楊梅,2026-01-08,24.912375,121.143047,4.483399e-06
C0SD40,牛頭山,2026-01-08,22.676661,121.506944,0.99967957
C1E511,新開,2026-01-08,24.347703,120.827019,1.1688372e-08
G2F820,農試所(霧峰),2026-01-08,24.031261,120.688133,1.9003998e-09
C2M990,大巃頂,2026-01-08,23.5547,120.61439,2.8107257e-09
C1I070,和社,2026-01-08,23.591131,120.888861,2.2364737e-09
C2E990,新坪頂,2026-01-08,24.30201,120.8574,6.4219963e-09
C0TA80,立霧山,2026-01-08,24.183258,121.641899,2.5039926e-08
C2F000,大肚,2026-01-08,24.15295,120.572117,4.0688766e-07
C1S850,豐南,2026-01-08,23.122139,121.262389,4.8521285e-09
C2M9B0,西興,2026-01-08,23.2428,120.57617,1.3365602e-09
C2A920,富貴角,2026-01-08,25.263783,121.565258,2.2222189e-06
CAH030,茶改場竹圍站,2026-01-08,23.860083,120.637528,1.4536422e-09
C0T960,光復,2026-01-08,23.660694,121.424964,1.18950805e-08
C0F9M0,豐原,2026-01-08,24.254322,120.720692,1.5411505e-08
C0R720,旭海,2026-01-08,22.205403,120.887614,0.99889445
C0V710,苓雅,2026-01-08,22.622742,120.330669,0.00016134506
C0C740,觀音工業區,2026-01-08,25.064764,121.114856,0.00400361
CAC040,拉拉山,2026-01-08,24.699317,121.427133,6.729902e-08
C0V790,萬山,2026-01-08,22.905944,120.688056,1.6580515e-09
U2HA30,臺大和社,2026-01-08,23.590856,120.888864,2.2364737e-09
C2H9K0,屯原,2026-01-08,24.067969,121.209389,1.4389124e-08
C0AJ90,澳底,2026-01-08,25.0552,121.9253,8.316964e-08
C0Z100,東華,2026-01-08,23.89525,121.549833,1.3160904e-08
C0G970,三豐,2026-01-08,23.882,120.2895,0.91765434
V2K610,大庄合作社,2026-01-08,23.8068,120.367939,1.3287686e-05
C0V900,汕尾,2026-01-08,22.4782,120.4151,5.520251e-08
C1R630,龍泉,2026-01-08,22.66701,120.59091,1.0929644e-08
C1AC50,關渡,2026-01-08,25.133486,121.469331,7.5580914e-07
C0C800,四稜,2026-01-08,24.64733,121.4293,5.9289427e-08
C0F9I0,神岡,2026-01-08,24.272481,120.658314,2.538036e-08
C0K460,斗南,2026-01-08,23.678734,120.478359,1.8631203e-09
C2O810,曾文,2026-01-08,23.219681,120.497328,9.228217e-10
467280,後龍,2026-01-08,24.648563,120.831834,1.2407461e-05
C1F9J1,清水林,2026-01-08,24.071242,120.820419,2.677454e-09
C2A650,火燒寮,2026-01-08,25.002719,121.742892,7.842791e-08
466930,竹子湖,2026-01-08,25.162078,121.544547,1.1508844e-07
C1I220,樟湖,2026-01-08,23.905333,120.846983,6.2806538e-09
C0I390,仁愛,2026-01-08,24.022122,121.132206,5.1067395e-09
C0Z300,東里,2026-01-08,23.26853,121.30547,5.7178258e-09
C1V590,新發,2026-01-08,23.057019,120.646064,2.7986624e-09
C0K510,水林,2026-01-08,23.572924,120.24597,1.1876716e-06
72S590,東改賓朗果園,2026-01-08,22.813889,121.071278,1.4838268e-08
82A750,茶改北部分場,2026-01-08,24.955778,121.631222,6.935537e-08
C1A750,石碇服務區,2026-01-08,25.00872,121.646242,7.5193704e-08
C0X300,鹿寮,2026-01-08,23.386047,120.477331,9.862586e-10
G2AI50,關渡,2026-01-08,25.11575,121.492,5.432657e-08
C0K590,雲林東勢,2026-01-08,23.674192,120.255721,5.8100263e-06
C2K310,港尾布雞,2026-01-08,23.74834,120.38439,2.0445443e-09
C0A570,桶後,2026-01-08,24.848222,121.597992,6.846987e-08
C1S800,華源,2026-01-08,22.657883,121.02325,5.7861445e-08
C0G720,溪州,2026-01-08,23.851589,120.499093,1.8402415e-09
C1V160,達卡努瓦,2026-01-08,23.279811,120.705319,4.6038497e-09
C2M410,馬頭山,2026-01-08,23.324361,120.582017,9.325873e-10
C0V850,蚵仔寮,2026-01-08,22.7256,120.2527,6.179723e-05
C0S740,池上,2026-01-08,23.119628,121.209469,5.021673e-09
C1V390,尖山,2026-01-08,22.813153,120.367789,1.9253346e-06
C0AH70,松山,2026-01-08,25.04871,121.55042,5.1345967e-08
C0N010,鯤鯓國小,2026-01-08,23.1879,120.0889,2.9407495e-06
C0R550,新埤,2026-01-08,22.467947,120.582894,8.5656836e-08
C0SA60,知本（水試所）,2026-01-08,22.702394,121.082761,4.0677241e-07
C0T9I0,豐濱,2026-01-08,23.583897,121.514806,7.796597e-09
C0UB00,淡江大學蘭陽校園,2026-01-08,24.823239,121.730383,3.030236e-08
C0W240,九宮,2026-01-08,24.423753,118.240186,2.7555643e-06
C0T9N0,富里,2026-01-08,23.171639,121.249378,5.2749582e-09
U2HA50,臺大竹山,2026-01-08,23.756972,120.681556,1.0056438e-09
C0V840,鳳鼻頭,2026-01-08,22.5083,120.3591,5.355863e-08
C0X140,西港,2026-01-08,23.125608,120.203108,7.9965054e-07
72D080,桃改五峰分場,2026-01-08,24.612194,121.157167,1.481231e-08
C2H9P0,伊拿谷,2026-01-08,23.963211,121.088264,3.5872671e-09
C2K250,崙背,2026-01-08,23.75553,120.31893,6.763108e-06
C2H9F0,柑林,2026-01-08,24.018658,120.847072,1.5799917e-09
C0TA20,加灣,2026-01-08,24.082025,121.608944,2.5894323e-08
C0V530,阿蓮,2026-01-08,22.883208,120.327508,4.370163e-06
C0FB30,八仙山苗圃,2026-01-08,24.192719,121.001366,5.083261e-09
C1O880,關山,2026-01-08,23.173397,120.594092,7.986478e-10
C0E791,卓蘭,2026-01-08,24.3126,120.8244,1.1531725e-08
C1I030,武界,2026-01-08,23.913225,121.052483,3.808835e-09
C0R520,崁頂,2026-01-08,22.514781,120.506914,6.855363e-08
C0R341,牡丹,2026-01-08,22.130036,120.792639,0.00011398775
C0R930,萬丹,2026-01-08,22.5885,120.4851,2.9252256e-08
C0S760,紅石,2026-01-08,23.069131,121.126219,1.6150533e-08
C2C410,中央大學,2026-01-08,24.967652,121.185165,7.3112788e-06
C1M610,石磐龍,2026-01-08,23.496606,120.663506,4.1259436e-09
C0C790,東眼山,2026-01-08,24.8284,121.40888,6.230853e-08
C0UA10,鴛鴦湖,2026-01-08,24.590269,121.412228,5.438504e-08
V2C260,八德蔬果,2026-01-08,24.978508,121.281819,4.5758347e-06
C0R800,丹路,2026-01-08,22.204481,120.750989,0.00068713207
C0G920,永靖,2026-01-08,23.924703,120.547533,4.455335e-08
C2M950,太和,2026-01-08,23.538372,120.702961,5.2881446e-09
C1A630,下盆,2026-01-08,24.771003,121.538622,5.7432302e-08
B2N890,畜產試驗所,2026-01-08,23.058972,120.336406,2.205096e-06
C0UA30,白嶺,2026-01-08,24.527819,121.519031,4.337674e-08
C1V580,溪南(特生中心),2026-01-08,23.084972,120.788475,7.479888e-09
C1T970,大農,2026-01-08,23.615233,121.413331,1.177699e-08
C0R650,竹田,2026-01-08,22.58486,120.54344,7.367143e-08
C1H900,清流,2026-01-08,24.080775,120.962997,3.0738525e-09
C1C510,水尾,2026-01-08,24.940081,121.087161,6.321871e-05
C2N170,茅港尾,2026-01-08,23.2061,120.2624,5.6976774e-07
C0F9X0,大雅(中科園區),2026-01-08,24.21528,120.62445,9.537484e-06
C0SB60,白守蓮,2026-01-08,23.126769,121.401914,0.9286833
C0O970,虎頭埤,2026-01-08,23.021375,120.347878,1.1887969e-06
C0C730,中大臨海站,2026-01-08,24.966126,121.008581,0.00022965667
C0X250,新營,2026-01-08,23.310689,120.316681,3.5490763e-07
C0V700,三民,2026-01-08,22.645017,120.311233,0.00048835843
C0U870,大礁溪,2026-01-08,24.791042,121.675047,2.3696295e-08
C0E870,高鐵苗栗,2026-01-08,24.60725,120.826094,1.2766432e-05
A2K570,古坑花卉中心,2026-01-08,23.63353,120.55239,1.0309268e-08
C0TA30,鹽寮,2026-01-08,23.845606,121.592664,1.3287651e-08
C0M860,新美,2026-01-08,23.338017,120.683169,2.4900415e-09
C1E701,八卦,2026-01-08,24.491756,120.927619,1.3950035e-08
C2TA90,加納納,2026-01-08,23.466421,121.359867,6.8797372e-09
C0I420,國姓,2026-01-08,24.037803,120.855072,1.6269218e-09
C2D720,關西工作站,2026-01-08,24.757275,121.184792,4.6841006e-08
C0S960,香蘭,2026-01-08,22.587569,120.993375,6.589187e-07
467620,蘭嶼,2026-01-08,22.0369,121.55843,0.9972866
C0R260,春日,2026-01-08,22.370361,120.628306,4.086699e-08
72G600,臺中農改場,2026-01-08,24.003028,120.534389,3.343033e-08
C0Z210,瑞穗,2026-01-08,23.5239,121.39021,8.181368e-09
C0M820,達邦,2026-01-08,23.453994,120.749517,3.6449888e-09
C0V860,南寮,2026-01-08,22.7616,120.2339,6.95609e-05
C0G740,大城,2026-01-08,23.852487,120.320935,0.91278976
C0R920,塭仔,2026-01-08,22.4169,120.5197,1.6418554e-07
C0R470,高樹,2026-01-08,22.826389,120.600806,3.6519963e-09
C0R680,佳樂水,2026-01-08,21.993578,120.861633,0.9536142
C1O870,大棟山,2026-01-08,23.31157,120.52226,4.5827884e-09
C0D360,梅花,2026-01-08,24.678347,121.208558,2.145278e-08
C0Z190,富世,2026-01-08,24.14743,121.6297,2.8350945e-07
C0AI10,屈尺,2026-01-08,24.92184,121.54475,7.135796e-08
B2U990,畜試東區分所,2026-01-08,24.669039,121.832561,1.3553681e-08
C0SB80,長濱漁港,2026-01-08,23.313644,121.459994,0.0027541863
C0TA50,和仁,2026-01-08,24.241394,121.712472,8.8953904e-08
C0V910,大樹,2026-01-08,22.684645,120.432803,5.6620757e-09
C1R610,西大武山,2026-01-08,22.617719,120.7322,1.1208355e-08
C0G900,線西,2026-01-08,24.143358,120.443536,0.018469045
C0M700,竹崎,2026-01-08,23.526178,120.555508,7.7938567e-10
C2E880,三義,2026-01-08,24.405478,120.749819,4.5955087e-08
C0C720,竹圍,2026-01-08,25.112692,121.239824,0.0003391883
C0F9P0,清水,2026-01-08,24.312297,120.562242,0.03953879
C0Z150,吉安光華,2026-01-08,23.930925,121.595153,1.7887515e-08
C0FA80,小雪山天池,2026-01-08,24.28025,121.02627,3.202466e-08
467300,東吉島,2026-01-08,23.25727,119.66762,0.99835616
C1D640,外坪(五指山),2026-01-08,24.644447,121.090961,4.111789e-08
C2R9A0,高士國小,2026-01-08,22.12553,120.84653,0.0006920215
C0F9O0,潭子,2026-01-08,24.213106,120.703933,1.8000666e-08
C2H9R0,卓社,2026-01-08,23.887894,121.000086,6.2617547e-09
72T250,花蓮農改場,2026-01-08,23.975222,121.563889,1.7345576e-08
C0E780,銅鑼,2026-01-08,24.489681,120.790853,2.9303e-07
C1T950,太安,2026-01-08,23.666719,121.370128,1.7312457e-08
C0E830,苑裡,2026-01-08,24.439714,120.653053,0.0003318049
467270,田中,2026-01-08,23.873803,120.581286,1.6512314e-09
C0SA10,檳榔四格山,2026-01-08,22.810031,121.109308,1.15677645e-08
C1T830,布洛灣,2026-01-08,24.17184,121.57127,3.6788236e-08
C0F970,大坑,2026-01-08,24.173142,120.722289,2.1188496e-08
C1U920,思源,2026-01-08,24.393125,121.347214,2.7998546e-08
C2H9Y0,松茗,2026-01-08,23.8167,120.650765,1.2850584e-09
C0A931,三和,2026-01-08,25.233153,121.595236,6.328353e-07
C0I010,廬山,2026-01-08,24.033311,121.181808,1.0941345e-08
C2M940,日野賀,2026-01-08,23.434056,120.727169,5.233559e-09
C0R860,鼻頭,2026-01-08,22.1043,120.8979,0.9876261
C0UB20,壯圍,2026-01-08,24.7359,121.8163,1.0993747e-08
C0R790,九棚,2026-01-08,22.14195,120.889281,0.99969834
C0W110,東莒,2026-01-08,25.9652,119.98069,0.3717186
C1U930,粉鳥林,2026-01-08,24.497088,121.842479,3.38723e-08
C1I211,蘆竹湳,2026-01-08,23.934019,120.811994,2.7475222e-09
C0S830,長濱,2026-01-08,23.286817,121.411975,5.934144e-09
C1F9F1,伯公龍,2026-01-08,24.272392,120.849047,6.0945515e-09
C0UB90,太平山莊,2026-01-08,24.494171,121.536209,4.2420762e-08
C0E810,西湖,2026-01-08,24.562947,120.7485,0.56959975
C1I440,新高口,2026-01-08,23.478744,120.878939,1.8213685e-08
C0O840,王爺宮,2026-01-08,23.222064,120.40085,1.1666494e-09
C0T9G0,鳳林山,2026-01-08,23.735269,121.420131,2.0801554e-08
C0X080,佳里,2026-01-08,23.173039,120.145086,2.72646e-06
C0FB70,大甲溪埔,2026-01-08,24.370625,120.620067,0.08056684
C0Z310,清水斷崖,2026-01-08,24.218294,121.689142,5.703451e-08
C0M680,太保,2026-01-08,23.455062,120.331455,1.1869317e-07
C1S820,金峰,2026-01-08,22.590969,120.933236,1.0150564e-07
C0AD10,八里,2026-01-08,25.150211,121.403947,5.1273397e-05
C2K240,草嶺,2026-01-08,23.59555,120.693461,3.9345704e-09
C1SA70,都蘭,2026-01-08,22.87794,121.226881,5.1485003e-09
C0K440,二崙,2026-01-08,23.772797,120.408944,1.9428856e-09
C1A760,坪林交控,2026-01-08,24.94284,121.713442,1.052139e-07
C0F9N0,大里,2026-01-08,24.092464,120.701378,1.940619e-09
C0SA90,達仁林場,2026-01-08,22.264347,120.823972,8.435889e-09
C1R290,石門山,2026-01-08,22.112611,120.756597,0.9912664
42HA10,萬大發電廠,2026-01-08,23.978875,121.139639,4.3125525e-09
C0R890,山海,2026-01-08,21.9878,120.7091,0.9720844
C0T9A0,月眉山,2026-01-08,23.809928,121.539828,1.0392979e-08
C0AC70,信義,2026-01-08,25.037822,121.564597,5.2407835e-08
C0K560,棋山,2026-01-08,23.68645,120.603417,1.0810693e-09
C2FB50,出雲,2026-01-08,24.206469,120.902794,6.079644e-09
C1Z240,中平林道,2026-01-08,23.42115,121.26763,2.4307376e-08
U2H480,溪頭,2026-01-08,23.670306,120.798194,3.793979e-09
C0M880,好美里,2026-01-08,23.3364,120.138,1.2594152e-06
C0T9E0,大坑,2026-01-08,23.880628,121.581981,1.4096394e-08
C0K530,臺西,2026-01-08,23.701547,120.197559,0.19948074
C1E900,國一N128K,2026-01-08,24.560997,120.844186,1.0294717e-06
C0AJ50,水湳洞,2026-01-08,25.123695,121.862238,8.104831e-08
C0AI20,白沙灣,2026-01-08,25.283128,121.519058,1.9876974e-05
C2V310,美濃,2026-01-08,22.898792,120.51907,1.2379235e-09
C0A860,大坪,2026-01-08,25.165914,121.632969,7.1598315e-08
C1U850,觀音海岸,2026-01-08,24.38319,121.77856,1.0498634e-08
C2K610,草嶺石壁,2026-01-08,23.602469,120.707731,4.055675e-09
C0U950,鶯子嶺,2026-01-08,24.89754,121.79244,5.6900536e-08
C0O900,善化,2026-01-08,23.112883,120.297219,4.1142744e-06
C0K550,蔦松,2026-01-08,23.514319,120.229736,4.438598e-06
E2P980,林試六龜中心,2026-01-08,22.991703,120.645722,2.312878e-09
C0E590,通霄,2026-01-08,24.471892,120.704622,0.3115387
C1I310,西巒,2026-01-08,23.754486,120.883956,5.774433e-09
C0A550,泰平,2026-01-08,24.971197,121.823711,6.761695e-08
C0I360,水里,2026-01-08,23.812553,120.849792,1.2702784e-09
C0R830,高士,2026-01-08,22.121825,120.836781,0.9747323
C1I101,溪頭,2026-01-08,23.661789,120.807647,8.8950305e-09
C0AJ20,野柳,2026-01-08,25.20703,121.690021,3.27093e-06
C0B060,暖暖,2026-01-08,25.0957,121.7403,8.130673e-08
C1H920,長豐,2026-01-08,24.102039,120.879897,2.9800358e-09
C2S9B0,利吉,2026-01-08,22.86246,121.15486,4.585254e-09
C0V360,內門,2026-01-08,22.975481,120.466769,1.2341655e-09
C0R850,林邊,2026-01-08,22.4634,120.5339,1.8896104e-07
C0E930,龍鳳,2026-01-08,24.700034,120.859125,5.5368942e-05
C0U910,冬山,2026-01-08,24.63373,121.7937,1.3553681e-08
C1E721,泰安,2026-01-08,24.489017,120.968036,1.4492191e-08
82H320,茶改中部分場,2026-01-08,23.875611,120.913583,4.457458e-09
C0M750,布袋,2026-01-08,23.380878,120.167789,3.3869426e-05
C1S860,利嘉,2026-01-08,22.809417,121.050528,1.6285185e-08
E2S980,林試太麻里1,2026-01-08,22.598922,120.980044,2.2894092e-07
C0X170,關廟,2026-01-08,22.963017,120.327797,1.7861812e-06
C0V720,林園,2026-01-08,22.507747,120.394511,5.242563e-08
C1I510,線浸林道,2026-01-08,23.761508,120.832956,5.312326e-09
C0D690,外湖,2026-01-08,24.917735,120.968711,0.9967871
C0C750,新興坑尾,2026-01-08,25.0061,121.0971,0.00017416132
B2Q810,畜試南區分所,2026-01-08,21.945583,120.802167,0.95242083
C0S790,金崙,2026-01-08,22.538122,120.966875,9.1651124e-08
C0AH90,福山植物園,2026-01-08,24.760717,121.58135,5.5982166e-08
C0I540,奇萊稜線,2026-01-08,24.109231,121.326456,3.7413066e-08
C0M850,表湖,2026-01-08,23.24186,120.64166,2.5902016e-09
C0S770,大溪山,2026-01-08,22.478475,120.943325,4.140538e-08
C0AG80,中和,2026-01-08,24.991622,121.491792,7.6749785e-08
C0T790,大禹嶺,2026-01-08,24.186117,121.316086,2.9116713e-08
C0T9B0,水源,2026-01-08,23.991861,121.537169,1.8394319e-08
C0R840,牡丹池山,2026-01-08,22.168389,120.841225,7.679983e-09
C1I131,桶頭,2026-01-08,23.641944,120.654117,1.0096606e-09
CAL110,布袋國中,2026-01-08,23.35893,120.18026,1.2815401e-06
C2M9D0,何竹子腳,2026-01-08,23.53641,120.38203,1.1981444e-09
467571,新竹,2026-01-08,24.827853,121.014219,2.7121834e-05
C0Z290,赤柯山,2026-01-08,23.36893,121.38293,1.4893929e-08
C0X280,將軍,2026-01-08,23.214999,120.13577,1.8364647e-06
C0S690,太麻里,2026-01-08,22.60902,120.98533,2.3673165e-08
C0U880,北關,2026-01-08,24.9072,121.8734,1.5892115e-07
CAW010,東引,2026-01-08,26.3588,120.4836,0.59177136
C0G810,埔心,2026-01-08,23.947633,120.525456,4.5988582e-08
C0U970,大福,2026-01-08,24.80064,121.81389,1.11828165e-08
C2H9N0,仁愛東眼,2026-01-08,24.026875,121.1205,6.989277e-09
C1E670,南礦,2026-01-08,24.538278,121.002836,1.6475955e-08
C0M520,東後寮,2026-01-08,23.369908,120.248065,6.162327e-07
C1E461,松安,2026-01-08,24.397972,120.986022,1.0905821e-08
C2N160,西拉雅風管處,2026-01-08,23.189481,120.335297,3.3424914e-07
C2M970,碧湖,2026-01-08,23.568632,120.624165,2.8025726e-09
C0A640,石碇,2026-01-08,24.993969,121.662917,1.0516173e-07
E2S960,林試太麻里2,2026-01-08,22.598,120.99775,7.128252e-07
C0F9Y0,桃山,2026-01-08,24.432739,121.303808,4.4420638e-08
C1I020,萬大,2026-01-08,23.979817,121.132261,5.1512212e-09
C2UC20,長嶺,2026-01-08,24.70894,121.61162,3.2363246e-08
C0U940,羅東,2026-01-08,24.68184,121.74934,1.0837434e-08
C0M650,朴子,2026-01-08,23.43463,120.23902,3.1121178e-07
C1I500,大尖山,2026-01-08,23.858572,120.994889,1.1644714e-08
C0FB40,中橫21.6k,2026-01-08,24.2499,121.1455,7.698345e-09
C0G820,田尾,2026-01-08,23.901669,120.509389,4.5478988e-08
E2K600,四湖植物園,2026-01-08,23.676986,120.163433,0.075547166
C0S730,綠島,2026-01-08,22.6672,121.47533,0.9995946
12Q970,東港工作站,2026-01-08,22.479997,120.466058,1.9583607e-07
C1TA00,太魯閣,2026-01-08,24.15773,121.6236,3.1135066e-08
466920,臺北,2026-01-08,25.037658,121.514853,5.1345967e-08
C0R600,舊泰武,2026-01-08,22.588194,120.664944,2.8085714e-09
C1I260,北坑,2026-01-08,23.9246,121.006903,2.4046731e-09
466910,鞍部,2026-01-08,25.182586,121.529731,1.237659e-07
C1I230,九份二山,2026-01-08,23.961944,120.845,3.5947534e-09
C2M810,里佳,2026-01-08,23.389125,120.716647,6.8915837e-09
C2A660,瑞芳,2026-01-08,25.113169,121.801147,8.65897e-08
C0R270,琉球嶼,2026-01-08,22.332244,120.362236,5.4720263e-06
C2V580,瑞山,2026-01-08,22.90304,120.43424,1.3813986e-09
C1T990,高寮,2026-01-08,23.394239,121.356808,5.323128e-09
C0G620,芬園,2026-01-08,24.015678,120.6213,1.8671626e-08
C1Z140,荖溪,2026-01-08,23.890575,121.45964,2.8942907e-08
C1I201,中心崙,2026-01-08,23.728722,120.712097,1.7153101e-09
C1I400,凌霄,2026-01-08,24.018778,121.004456,7.0620403e-09
C1M640,十字,2026-01-08,23.492153,120.753683,7.482285e-09
G2P820,農試鳳山分所,2026-01-08,22.646611,120.356083,8.269273e-05
C0Z270,蕃薯寮,2026-01-08,23.73835,121.540108,1.0140807e-08
C2E420,竹南,2026-01-08,24.70898,120.88897,2.4933326e-05
C0FB10,出雲山苗圃,2026-01-08,24.23105,120.90475,5.279165e-09
C0F9Q0,外埔,2026-01-08,24.347817,120.705686,4.0602902e-08
C0K580,高鐵雲林,2026-01-08,23.737456,120.417944,2.0546067e-09
C2I090,鳳凰,2026-01-08,23.728081,120.787347,2.6149969e-09
C0U990,員山,2026-01-08,24.74435,121.72247,1.0840783e-08
C0V770,大社,2026-01-08,22.730306,120.346639,2.402832e-05
C0X120,麻豆,2026-01-08,23.183289,120.248611,5.297001e-07
C0C670,龍潭,2026-01-08,24.870056,121.221389,8.830662e-08
C0D680,香山濕地,2026-01-08,24.783581,120.914988,0.99654084
C0S980,勝林山,2026-01-08,22.430439,120.8938,2.3018327e-08
C0V730,大寮,2026-01-08,22.605614,120.395717,1.6044368e-07
C0R570,麟洛,2026-01-08,22.65078,120.52719,4.4823785e-09
C2M930,石卓,2026-01-08,23.478744,120.702264,7.3455175e-09
C0G9B0,和美,2026-01-08,24.105169,120.492131,1.7623202e-06
CAG100,王功漁港,2026-01-08,23.96824,120.32586,0.8248959
C0X290,北門,2026-01-08,23.267772,120.125481,1.8760979e-06
C2F930,大甲,2026-01-08,24.347667,120.640403,1.3444444e-06
C0D650,湖口,2026-01-08,24.904794,121.043628,1.9289426e-05
C0U780,五結,2026-01-08,24.68637,121.79794,1.3553681e-08
C1I250,鯉潭,2026-01-08,23.961922,120.991131,2.8500915e-09
C0R130,阿禮,2026-01-08,22.742908,120.743678,2.6065763e-09
C0X100,臺南市北區,2026-01-08,23.010394,120.194228,3.4971756e-05
C0S920,金峰嘉蘭,2026-01-08,22.594789,120.960825,2.261177e-07
C0V490,新興,2026-01-08,22.627422,120.298803,0.0011660024
C0F9K0,大安,2026-01-08,24.345061,120.588025,0.09357577
467290,古坑,2026-01-08,23.633639,120.551889,1.0791226e-09
C2E970,八甲,2026-01-08,24.535811,120.795983,3.5740445e-07
C0V440,鳳山,2026-01-08,22.646653,120.356122,8.269273e-05
C1T940,大觀,2026-01-08,23.714206,121.373133,1.2460827e-08
C0E740,造橋,2026-01-08,24.637056,120.864778,1.3887278e-05
C0R100,尾寮山,2026-01-08,22.833111,120.683889,2.7530827e-09
A2K630,臺大雲林校區,2026-01-08,23.730628,120.423903,2.0539366e-09
467990,馬祖,2026-01-08,26.169467,119.923158,6.490283e-06
C0D580,寶山,2026-01-08,24.735006,121.025192,2.3502031e-07
E2P990,林試扇平站,2026-01-08,22.9677,120.6857,2.6669442e-09
C0AI30,三重,2026-01-08,25.057328,121.500629,5.227346e-08
C0AH00,汐止,2026-01-08,25.066881,121.658778,8.919176e-08
C1Z040,立山,2026-01-08,23.443356,121.327375,1.27806805e-08
466881,新北,2026-01-08,24.959207,121.525196,7.470409e-08
C0W130,花嶼,2026-01-08,23.40007,119.32276,0.997327
C0A950,鼻頭角,2026-01-08,25.129036,121.923372,8.372256e-08
C0K470,林內,2026-01-08,23.748675,120.609642,1.0643455e-09
C2F990,摩天嶺,2026-01-08,24.322458,120.936819,5.4698663e-09
C2E430,南庄,2026-01-08,24.601775,121.000214,1.3153193e-07
82C160,茶改場,2026-01-08,24.908472,121.185333,3.1259751e-06
C2TB60,南安,2026-01-08,23.29818,121.26157,5.8099623e-09
C0Z320,清水林道,2026-01-08,23.27125,121.188272,1.1633502e-08
C0R760,南仁湖,2026-01-08,22.084681,120.863353,0.99114835
C0M670,大林,2026-01-08,23.600616,120.45841,1.2842303e-09
C0M800,茶山,2026-01-08,23.299075,120.664767,1.349571e-09
C0A9C0,天母,2026-01-08,25.117494,121.537169,5.2139033e-08
72K220,南改斗南分場,2026-01-08,23.634556,120.477333,1.8562248e-09
72AI40,桃改樹林分場,2026-01-08,24.944503,121.386972,5.4935615e-08
C0S910,蘭嶼燈塔,2026-01-08,22.081197,121.503117,0.99650353
C0B050,八斗子,2026-01-08,25.144754,121.79167,1.2131837e-07
C0U900,內城,2026-01-08,24.71813,121.68766,1.0704516e-08
C0X320,柳營,2026-01-08,23.253328,120.375253,1.2423349e-09
C0M790,新港,2026-01-08,23.553269,120.345728,3.1476253e-07
C0F9T0,西屯,2026-01-08,24.179494,120.641275,4.058873e-08
C0E950,松安,2026-01-08,24.39792,120.98599,1.0905821e-08
C0SA30,都歷,2026-01-08,23.020333,121.323642,7.1451494e-09
C0C620,蘆竹,2026-01-08,25.084275,121.265767,0.00013431419
C0R730,大坪頂,2026-01-08,22.024633,120.69355,0.9983952
C0AJ40,石門,2026-01-08,25.273672,121.601198,3.3224137e-06
C0E750,苗栗,2026-01-08,24.564569,120.824575,1.153433e-06
C0T870,鯉魚潭,2026-01-08,23.935639,121.508944,1.520125e-08
C1V170,排雲,2026-01-08,23.463619,120.954147,3.6198895e-08
C2H950,中寮,2026-01-08,23.884447,120.766406,1.53843e-09
C0R350,貓鼻頭,2026-01-08,21.921774,120.7358,0.9806875
C0V660,岡山,2026-01-08,22.797078,120.294958,5.2216208e-05
C1H941,雙冬,2026-01-08,23.967378,120.802189,2.65106e-09
C0AJ70,田寮,2026-01-08,25.2698,121.4886,2.3261919e-05
C0AI00,五股,2026-01-08,25.07445,121.42728,4.1386116e-08
C0Z280,德武,2026-01-08,23.47426,121.41071,6.8590094e-09
C2RA10,大新,2026-01-08,22.67558,120.57788,1.1133865e-08
C0R700,枋山,2026-01-08,22.246844,120.661086,0.028475167
C0C460,復興,2026-01-08,24.820208,121.352281,6.928556e-08
C2K300,鹿南,2026-01-08,23.63855,120.3636,8.5033275e-07
E2H360,蓮華池,2026-01-08,23.918333,120.885278,3.1774576e-09
C0M640,中埔,2026-01-08,23.42538,120.5229,8.631358e-10
C0W140,金沙,2026-01-08,24.488292,118.408778,0.011187828
C2A540,四堵,2026-01-08,24.8926,121.745736,6.725321e-08
C0ACA0,新莊,2026-01-08,25.051478,121.446756,5.2984554e-08
C0R220,潮州,2026-01-08,22.534361,120.54,5.4900106e-08
U2HA40,臺大內茅埔,2026-01-08,23.689722,120.851117,1.500232e-09
467490,臺中,2026-01-08,24.145736,120.684075,2.7090886e-08
C0UB60,明池,2026-01-08,24.650688,121.475277,6.493636e-08
C0U960,翠峰湖,2026-01-08,24.510856,121.608044,4.1752898e-08
E2HA20,林試畢祿溪站,2026-01-08,24.226944,121.308522,1.8896262e-08
C2M9A0,大華,2026-01-08,23.4824,120.67491,4.067458e-09
C0V890,前鎮,2026-01-08,22.5718,120.3117,0.00046533727
C1F941,雪嶺,2026-01-08,24.280586,121.026642,3.202466e-08
C2H9E0,國姓南港,2026-01-08,23.911108,120.846556,6.5160273e-09
C0AC80,文山,2026-01-08,25.00235,121.575728,1.0398812e-07
C0F9R0,龍井,2026-01-08,24.184536,120.528972,0.026442558
C0M760,民雄,2026-01-08,23.551754,120.428457,1.2891975e-09
C0UA40,西德山,2026-01-08,24.560647,121.752608,3.712319e-08
C2TA70,赤科坪,2026-01-08,23.39885,121.39168,1.5435452e-08
C1T920,中興,2026-01-08,23.769503,121.498653,1.0151587e-08
C0D550,雪霸,2026-01-08,24.526972,121.11605,1.6205922e-08
C2F860,梨山,2026-01-08,24.247522,121.243669,2.4696002e-08
C0R320,車城,2026-01-08,22.0744,120.716247,0.9910558
C1S870,南美山,2026-01-08,23.15025,121.382333,1.1092722e-08
C0B020,基隆嶼,2026-01-08,25.19141,121.78391,1.1209707e-07
C1U501,牛鬥,2026-01-08,24.637836,121.573656,4.6725717e-08
C0M730,嘉義市東區,2026-01-08,23.457673,120.460531,8.128851e-10
C2R990,泰武,2026-01-08,22.60686,120.69765,5.17604e-09
C0S700,知本,2026-01-08,22.684866,121.005642,1.4666544e-08
C1N001,沙崙,2026-01-08,22.935472,120.309406,2.466991e-06
C0V760,橋頭,2026-01-08,22.757806,120.30575,3.4723085e-05
C0G960,福寶,2026-01-08,24.0443,120.3814,1.8257634e-06
C0X210,白河,2026-01-08,23.347466,120.414427,1.0049419e-09
C0S810,東河,2026-01-08,22.972672,121.303986,7.347199e-09
C2R170,屏東,2026-01-08,22.66027,120.49403,4.499424e-09
C0R670,楓港,2026-01-08,22.190131,120.692156,0.48027274
C0FA50,霧峰,2026-01-08,24.0419,120.6995,1.9302495e-09
C0UB10,蘇澳,2026-01-08,24.5969,121.8571,2.0444634e-08
C0G950,防潮門,2026-01-08,24.1835,120.4871,0.018234031
C0M740,六腳,2026-01-08,23.492871,120.290625,2.9886246e-07
C1R250,力里,2026-01-08,22.428117,120.629228,2.3561304e-09
C0K330,虎尾,2026-01-08,23.719183,120.442036,2.030662e-09
C2FA00,烏石坑,2026-01-08,24.273503,120.947617,5.422095e-09
C0V620,永安,2026-01-08,22.82315,120.236856,5.4495813e-05
C1I330,楓樹林,2026-01-08,23.986803,121.076117,5.8252754e-09
C0W200,湖西,2026-01-08,23.596314,119.67275,0.98670954
72Q010,高雄農改場,2026-01-08,22.709333,120.525889,4.7100257e-09
C0SA40,瑞和,2026-01-08,22.974361,121.156697,4.4118336e-09
C0C680,龜山,2026-01-08,25.02846,121.38656,4.061599e-08
C2V260,月眉,2026-01-08,22.971003,120.539853,9.642779e-10
C0V450,鳳森,2026-01-08,22.545064,120.392592,2.3323445e-08
C0FA90,小雪山林道,2026-01-08,24.29515,121.03651,3.86079e-08
C0U720,南山,2026-01-08,24.43742,121.38167,3.891397e-08
A2N290,臺南蘭花園區,2026-01-08,23.340258,120.379661,1.1081319e-09
C0R560,新園,2026-01-08,22.5434,120.461558,5.242563e-08
C0U890,三星,2026-01-08,24.66812,121.65302,1.0833962e-08
C1V300,御油山,2026-01-08,23.001983,120.715364,7.2535866e-09
C0U600,礁溪,2026-01-08,24.817539,121.765608,1.1125183e-08
C1T980,龍澗,2026-01-08,24.023289,121.411328,3.2036574e-08
C0D670,海天一線,2026-01-08,24.831986,120.914438,0.9961362
C0SA00,歷坵,2026-01-08,22.520969,120.89185,3.3569304e-08
C0M710,東石,2026-01-08,23.458927,120.15385,3.277461e-05
C0M780,鹿草,2026-01-08,23.41134,120.30835,2.7877485e-07
C0U520,雙連埤,2026-01-08,24.753033,121.641303,2.300709e-08
C0B010,七堵,2026-01-08,25.094819,121.71713,1.06698266e-07
C0R480,長治,2026-01-08,22.693128,120.542622,1.24537936e-08
C1V830,國三S383K,2026-01-08,22.781967,120.426475,2.8548248e-09
12Q980,恆春工作站,2026-01-08,22.079678,120.714425,0.9913231
C1O940,東山服務區,2026-01-08,23.286016,120.398472,1.1049809e-09
C1U840,東澳嶺,2026-01-08,24.5378,121.8485,2.8343122e-08
C1D630,飛鳳山,2026-01-08,24.766464,121.119178,6.1036744e-08
C0S940,石寧山,2026-01-08,23.223772,121.406639,0.15917794
C0K410,北港,2026-01-08,23.573957,120.292802,1.1220696e-06
C2M620,瑞里,2026-01-08,23.545133,120.675197,4.4052832e-09
C0SB70,小港漁港,2026-01-08,23.158558,121.400431,0.903422
C2O950,安南,2026-01-08,23.076694,120.144861,4.06933e-05
C0F0E0,南湖圈谷,2026-01-08,24.363714,121.444667,4.938289e-08
467610,成功,2026-01-08,23.097486,121.373428,1.6470425e-08
C0G890,伸港,2026-01-08,24.148933,120.484403,0.017467385
C2E540,龍溪,2026-01-08,24.606489,120.783933,1.6954891e-06
C1V200,梅山,2026-01-08,23.268447,120.823556,3.5159915e-09
C0T9H0,加路蘭山,2026-01-08,23.682947,121.5274,1.3628442e-08
C2O930,玉井,2026-01-08,23.126042,120.46055,8.226005e-10
C1F911,新伯公,2026-01-08,24.221361,120.841069,7.0194166e-09
C0R490,九如,2026-01-08,22.7405,120.490503,4.749566e-09
C0X200,左鎮,2026-01-08,23.056758,120.408522,1.2639199e-09
C2TB50,麻汝,2026-01-08,23.42554,121.39358,6.6969776e-09
C0FA60,鞍馬山工作站,2026-01-08,24.267064,121.000793,2.0551957e-08
C0SB50,叭嗡嗡,2026-01-08,23.047062,121.343223,2.0212036e-08
C1F891,稍來,2026-01-08,24.265689,121.001142,1.988335e-08
C2M9C0,紫雲,2026-01-08,23.494914,120.540253,7.610713e-10
72N240,七股研究中心,2026-01-08,23.081672,120.062894,8.189324e-05
C0C700,中壢,2026-01-08,24.977661,121.256375,3.988077e-06
C0M690,水上,2026-01-08,23.419734,120.388909,1.1547611e-09
C0V690,鼓山,2026-01-08,22.623325,120.275575,0.0011845693
C0O860,大內,2026-01-08,23.11885,120.36083,1.9831818e-06
C0Z200,萬榮,2026-01-08,23.709219,121.420106,1.0575225e-08
C0T9D0,和中,2026-01-08,24.26676,121.74103,9.0816556e-08
C2S9A0,北份子寮,2026-01-08,22.78561,121.07813,7.310187e-08
C1O921,楠西,2026-01-08,23.183511,120.484083,8.2183205e-10
C0AJ30,淡水觀海,2026-01-08,25.184591,121.408616,5.5988196e-05
C0V810,左營,2026-01-08,22.67491,120.28491,0.00048479106
C0UA70,桃源谷,2026-01-08,24.962606,121.888875,5.1829876e-08
C0X130,官田,2026-01-08,23.193217,120.315422,3.5352465e-07
C1H000,翠峰,2026-01-08,24.109397,121.205211,2.1992578e-08
C0UA90,石城,2026-01-08,24.980444,121.951214,7.97583e-08
C1E681,南勢山,2026-01-08,24.421669,120.923831,1.0728288e-08
C0A9F0,內湖,2026-01-08,25.079422,121.57545,5.2455537e-08
C0K291,宜梧,2026-01-08,23.536281,120.169329,0.035846412
C1K540,口湖,2026-01-08,23.585344,120.180517,0.043074038
C0R780,滿州,2026-01-08,22.024403,120.839892,0.9765197
C0V870,文安,2026-01-08,22.8025,120.2164,6.179723e-05
C0U650,玉蘭,2026-01-08,24.675286,121.587061,3.2330608e-08
C0R640,東港,2026-01-08,22.46247,120.44074,5.0989748e-08
C0AJ80,板橋,2026-01-08,25.0107,121.4489,7.7089425e-08
C0S660,下馬,2026-01-08,23.150427,121.070312,9.393985e-09
C2N190,烏樹,2026-01-08,23.32393,120.36989,7.884232e-08
C1H9B1,阿眉,2026-01-08,24.1263,120.994672,1.1169131e-08
C0UA20,多加屯,2026-01-08,24.368614,121.373189,2.6223553e-08
C0E730,頭份,2026-01-08,24.688247,120.912206,2.7022334e-05
72V140,高改旗南分場,2026-01-08,22.857861,120.516667,3.6227676e-09
C0K480,莿桐,2026-01-08,23.761192,120.502372,1.6729277e-09
C0U980,坪林石牌,2026-01-08,24.86478,121.77396,4.280398e-08
C0T900,西林,2026-01-08,23.8119,121.441458,1.0034466e-08
C1I150,青雲,2026-01-08,23.793361,120.949378,1.7071503e-09
C2E980,和興,2026-01-08,24.505319,120.923016,1.2997011e-08
467350,澎湖,2026-01-08,23.565503,119.563094,0.9864692
C0G800,埔鹽,2026-01-08,24.000394,120.431683,1.6240568e-06
C0H960,草屯,2026-01-08,23.973672,120.68085,1.8109166e-09
C1V780,多納林道,2026-01-08,22.888028,120.737917,4.60155e-09
C0E920,通霄漁港,2026-01-08,24.498589,120.673876,0.5845411
C0Z330,安通山,2026-01-08,23.290728,121.348528,6.7356907e-09
C0AH10,永和,2026-01-08,25.01125,121.508111,7.801866e-08
C0AK10,太平里,2026-01-08,25.134937,121.364899,2.3255465e-05
C2G640,鹿港,2026-01-08,24.0753,120.430481,1.8401709e-06
C1E890,國三N149K,2026-01-08,24.463414,120.680019,0.19342515
C1R110,口社,2026-01-08,22.770111,120.645222,1.8178909e-08
C1M870,國三N285K,2026-01-08,23.550319,120.505833,7.6100604e-10
C1E480,鳳美,2026-01-08,24.554803,121.034747,1.5119273e-08
C0T9M0,靜浦,2026-01-08,23.455167,121.495028,8.3969445e-09
C2H9M0,發祥,2026-01-08,24.154094,121.164517,7.3908404e-09
C2G9C0,埔南,2026-01-08,23.99124,120.46969,1.6089447e-06
C0AI40,石牌,2026-01-08,25.115597,121.513139,5.2455537e-08
C1F871,上谷關,2026-01-08,24.203483,121.018644,5.4194897e-09
C2H9G0,百勝,2026-01-08,24.051142,120.909361,1.9139976e-09
C0G880,二水,2026-01-08,23.810742,120.6173,1.1681591e-09
C0R940,加祿堂,2026-01-08,22.3363,120.6217,8.355601e-08
C0W220,北竿,2026-01-08,26.220358,119.974881,0.00025066957
C0O960,崎頂,2026-01-08,22.959547,120.369317,5.4463567e-07
C0TA40,秀林,2026-01-08,24.302864,121.731144,2.5082755e-08
C0S750,向陽,2026-01-08,23.248397,120.986133,1.7987315e-08
C0T9F0,水璉,2026-01-08,23.797131,121.542514,9.787931e-09
C1M600,頭凍,2026-01-08,23.406364,120.603339,2.931094e-09
467660,臺東,2026-01-08,22.752211,121.154586,0.0015134022
C1D380,新埔,2026-01-08,24.84745,121.03834,1.1076623e-05
C2G980,田頭村,2026-01-08,23.8263,120.444175,1.942793e-09
C0V750,路竹,2026-01-08,22.854997,120.259439,3.2977892e-05
C0N050,蚵寮,2026-01-08,23.301,120.1104,1.8760979e-06
C2X060,下營,2026-01-08,23.226806,120.256291,5.7591194e-07
72M700,南改鹿草分場,2026-01-08,23.416869,120.283061,3.038272e-07
C1SA50,利嘉林道,2026-01-08,22.82325,121.009389,1.7749059e-08
C0UB70,太平山中間站,2026-01-08,24.542003,121.513453,4.5449852e-08
C0A940,金山,2026-01-08,25.223628,121.643967,3.3640179e-06
C1V340,大津,2026-01-08,22.888322,120.645986,8.907662e-09
C0W180,七美,2026-01-08,23.219333,119.444892,0.99808455
C1F9C1,白冷,2026-01-08,24.182844,120.929889,3.9610604e-09
K2E710,苗改生物防治研究中心,2026-01-08,24.422861,120.871833,5.2978592e-08
C0N040,蘆竹溝,2026-01-08,23.2344,120.0961,1.881283e-06
C0TB40,崇德,2026-01-08,24.166144,121.657414,2.3551189e-07
C0D760,大坪苗圃,2026-01-08,24.5362,121.1108,1.8216014e-08
C2W230,畜試所澎湖,2026-01-08,23.628342,119.513206,0.9893806
C0R880,後壁湖,2026-01-08,21.9457,120.7457,0.9679499
C1I280,埔中,2026-01-08,23.820778,120.642594,1.3063113e-09
467790,墾丁雷達站,2026-01-08,21.948235,120.808028,0.96654737
C0W190,望安,2026-01-08,23.380564,119.494075,0.9974013
C0Z170,卓溪,2026-01-08,23.3443,121.3029,5.3976814e-09
C0F850,東勢,2026-01-08,24.246428,120.833047,7.2960873e-09
466900,淡水,2026-01-08,25.164889,121.448906,2.3178113e-06
C0I370,魚池,2026-01-08,23.895703,120.94135,3.2969951e-09
C0C630,大溪,2026-01-08,24.882853,121.265547,2.163603e-06
C0A520,山佳,2026-01-08,24.974944,121.402008,5.507368e-08
C0I110,竹山,2026-01-08,23.761225,120.688156,9.996712e-10
82H840,茶改南部分場,2026-01-08,23.762528,120.7405,1.1849356e-09
C2SD80,再來山,2026-01-08,23.34371,121.44122,6.9234698e-06
C0G660,溪湖,2026-01-08,23.94835,120.479122,4.821548e-08
C1T800,洛韶,2026-01-08,24.204558,121.453956,2.856068e-08
C1T810,慈恩,2026-01-08,24.192044,121.388386,2.4146983e-08
C1E451,象鼻,2026-01-08,24.368617,120.940228,6.5595342e-09
C0AC60,三峽,2026-01-08,24.939025,121.369728,3.4960235e-06
C0I490,萬大林道,2026-01-08,23.928228,121.091411,8.733273e-09
C1I290,豐丘,2026-01-08,23.668178,120.887417,5.7222116e-09
C1I320,奧萬大,2026-01-08,23.952956,121.178556,7.458817e-09
C2M910,嘉義大學,2026-01-08,23.471325,120.485903,8.1642315e-10
C0U770,南澳,2026-01-08,24.44935,121.81022,3.3491087e-08
C2TB30,吉安,2026-01-08,23.94538,121.54803,1.657401e-08
C0A980,社子,2026-01-08,25.109508,121.469681,8.8215714e-08
C0V800,六龜,2026-01-08,22.997889,120.633583,2.4163882e-09
C1G9D0,國一S218K,2026-01-08,23.890641,120.493253,6.8887346e-08
C0E570,白沙屯,2026-01-08,24.549447,120.696803,0.81873095
C2F9A0,中竹林,2026-01-08,24.103556,120.751061,1.7137306e-09
C0FA40,臺中電廠,2026-01-08,24.2146,120.4907,0.042503547
C2G9A0,畜試所彰化,2026-01-08,23.86045,120.557964,1.6519338e-09
C0H9C0,合歡山,2026-01-08,24.143442,121.272547,4.0198042e-08
G2M350,農試溪口農場,2026-01-08,23.58565,120.408111,1.298635e-09
C0U860,頭城,2026-01-08,24.85323,121.8308,2.8256757e-08
C0R580,南州,2026-01-08,22.48591,120.50274,1.9659711e-07
C0D430,峨眉,2026-01-08,24.6905,121.017189,4.490103e-07
C0G780,秀水,2026-01-08,24.03405,120.503869,3.3626655e-08
72N100,臺南農改場,2026-01-08,23.0605,120.342194,2.1458384e-06
C0S900,蘭嶼高中,2026-01-08,22.04909,121.51214,0.9971554
C2TA60,六十石,2026-01-08,23.22477,121.31861,1.3009039e-08
C1F9W0,德基,2026-01-08,24.254783,121.190261,2.1368043e-08
C2M980,安和,2026-01-08,23.51377,120.31593,2.7441385e-07
C1Z120,壽豐,2026-01-08,23.870853,121.508081,1.3160904e-08
C0W160,烏坵,2026-01-08,24.9944,119.44956,0.91577417
C1I240,外大坪,2026-01-08,23.958697,120.917931,3.620295e-09
C1I550,國六W023K,2026-01-08,23.979067,120.867742,1.799355e-09
C0R870,興海,2026-01-08,21.9752,120.8439,0.95364285
C0R140,瑪家,2026-01-08,22.682903,120.686639,1.585486e-09
C0A530,坪林,2026-01-08,24.938183,121.70975,9.3283354e-08
C0X260,後壁,2026-01-08,23.366358,120.362326,1.6784603e-07
C0Z230,和平,2026-01-08,24.30717,121.77007,1.1792611e-08
C0G770,福興,2026-01-08,24.041289,120.437669,1.652531e-06
C0H9A0,神木村,2026-01-08,23.532742,120.843667,7.001793e-09
C0I460,南投,2026-01-08,23.911469,120.687331,1.8126168e-09
C0I480,梅峰,2026-01-08,24.085272,121.173572,1.5736646e-08
C1V570,吉東,2026-01-08,22.85422,120.5454,4.6843307e-09
C2A560,福山,2026-01-08,24.776203,121.502811,3.2485758e-08
C0AH30,五分山,2026-01-08,25.07125,121.780794,6.0591795e-08
C0FA10,松柏,2026-01-08,24.429115,120.617482,0.00053601013
72S200,東改班鳩分場,2026-01-08,22.829528,121.077694,1.7646274e-08
72HA00,中改埔里分場,2026-01-08,23.903208,120.963364,3.2149983e-09
C2H9W0,大坪頂農水,2026-01-08,24.043122,120.932781,2.6976403e-09
C0C650,平鎮,2026-01-08,24.897503,121.214636,2.0732139e-06
C0S930,延平,2026-01-08,22.902581,121.084058,4.2220316e-09
C0UA60,樟樹山,2026-01-08,24.41393,121.78325,1.0058534e-08
C2UC10,出水溪,2026-01-08,24.615822,121.652253,3.251545e-08
C1S670,摩天,2026-01-08,23.199503,121.027,1.5763112e-08
C2C590,觀音,2026-01-08,25.027072,121.153317,0.0010520788
C0V630,茄萣,2026-01-08,22.906642,120.182608,7.846295e-05
466940,基隆,2026-01-08,25.133314,121.740475,1.1836073e-07
C0X050,東河,2026-01-08,23.296598,120.385608,1.0999363e-09
C0R770,保力,2026-01-08,22.071122,120.764111,0.9978173
G2L020,農試嘉義分所,2026-01-08,23.485028,120.473806,8.164636e-10
C0X240,關子嶺,2026-01-08,23.331169,120.508025,1.0668962e-09
C0I380,集集,2026-01-08,23.828206,120.801467,1.2487469e-09
466990,花蓮,2026-01-08,23.975128,121.613275,2.613946e-08
C1V220,小關山,2026-01-08,23.154217,120.813603,8.979427e-09
C1F9G1,慶福山,2026-01-08,24.180853,120.848378,7.534959e-09
C0FB20,雪山橋,2026-01-08,24.23192,120.9786,1.6828368e-08
C0Z250,瑞穗林道,2026-01-08,23.49284,121.30688,3.0263024e-08
C0D590,新豐,2026-01-08,24.87068,120.97721,0.977724
C0A870,五指山,2026-01-08,25.132153,121.608692,1.2701862e-07
C0UA50,西帽山,2026-01-08,24.555361,121.802628,2.8236876e-08
C2R980,竹田國中,2026-01-08,22.61532,120.52412,7.055931e-08
C0X160,仁德,2026-01-08,22.968258,120.257689,1.6056112e-05
C1H971,六分寮,2026-01-08,23.92507,120.6378,2.4105833e-09
C0W120,西嶼,2026-01-08,23.5626,119.468436,0.9899339
C0G650,員林,2026-01-08,23.946503,120.585597,3.252724e-08
C0AD50,鶯歌,2026-01-08,24.951533,121.346294,6.416382e-06
C2H9Q0,北東眼山,2026-01-08,24.120939,121.189303,1.8067913e-08
C2H9T0,名間竹圍,2026-01-08,23.859914,120.637572,1.4540387e-09
C0S990,山豬窟,2026-01-08,22.318619,120.857372,8.6978815e-09
C0X190,安平,2026-01-08,22.993161,120.152181,3.736331e-05
C0K400,斗六,2026-01-08,23.720583,120.541127,1.6636236e-09
12J990,口湖工作站,2026-01-08,23.589978,120.180394,0.042574007
C0O830,北寮,2026-01-08,23.079561,120.495008,8.983413e-10
C1D410,白蘭,2026-01-08,24.579364,121.079947,1.663082e-08
C0S970,加津林,2026-01-08,22.416211,120.926942,1.0816577e-06
C0D700,關西,2026-01-08,24.7977,121.1732,4.8577885e-08
C0U750,龜山島,2026-01-08,24.841667,121.953133,4.5228816e-08
C0R810,內獅,2026-01-08,22.305064,120.642986,8.355984e-08
C1M390,龍美,2026-01-08,23.406728,120.654417,5.20206e-09
C2K290,崙內,2026-01-08,23.69525,120.35601,8.5033275e-07
C2FB60,頭櫃山,2026-01-08,24.129842,120.858925,4.757808e-09
C1H840,國三N238K,2026-01-08,23.841008,120.707711,9.852641e-10
CAQ030,崎峰國小,2026-01-08,22.42565,120.49521,1.9659711e-07
C2E520,大湖,2026-01-08,24.414939,120.870872,4.7788465e-08
467530,阿里山,2026-01-08,23.508208,120.813242,1.9842584e-08
C1E691,南湖,2026-01-08,24.40135,120.837533,1.1368283e-08
C0FA30,梧棲,2026-01-08,24.256003,120.523381,0.025685113
C1V231,高中,2026-01-08,23.134911,120.716711,2.693034e-09
C0AK30,硬漢嶺,2026-01-08,25.136097,121.426372,1.1235436e-07
C0F9V0,新社,2026-01-08,24.200172,120.815806,6.5752173e-09
C0H890,埔里,2026-01-08,23.972169,120.952425,1.974969e-09
C0R690,墾丁,2026-01-08,21.966756,120.810269,0.9987879
C0SD20,富山,2026-01-08,22.822383,121.190825,6.4654797e-09
C0F0D0,審馬陣,2026-01-08,24.381675,121.4203,4.2096104e-08
C2W030,金門農試所,2026-01-08,24.448431,118.451786,5.8739235e-05
C0R820,白鷺,2026-01-08,22.454275,120.666219,3.0935443e-09
C0FB00,大雪山,2026-01-08,24.254668,121.007374,2.0581535e-08
C1V190,南天池,2026-01-08,23.27403,120.91176,1.8322048e-08
C0E940,雪見,2026-01-08,24.42595,121.01347,1.7118367e-08
K2E360,苗栗農改場,2026-01-08,24.495722,120.829111,4.4363657e-07
CAJ050,海口故事園區,2026-01-08,23.57543,120.14121,0.04289174
C2K280,四湖,2026-01-08,23.6304,120.22717,0.07787972
C2H9D0,三隻寮,2026-01-08,24.093078,120.861578,2.8386875e-09
C0O990,媽廟,2026-01-08,22.99175,120.293525,5.032092e-06
C0D480,打鐵坑,2026-01-08,24.849664,121.150789,8.386704e-08
C0Z220,和平林道,2026-01-08,24.343922,121.656317,8.053713e-09
C0TA10,花蓮漁港,2026-01-08,23.995322,121.638331,0.70284915
72C440,桃園農改場,2026-01-08,24.950944,121.030583,3.782636e-05
C1E711,馬拉邦山,2026-01-08,24.367306,120.901656,5.2506164e-09
C0SB20,富岡,2026-01-08,22.792467,121.192669,0.000112955604
C0D560,竹東,2026-01-08,24.767147,121.057881,5.7700043e-07
C0F9U0,南屯,2026-01-08,24.137006,120.637969,2.8464312e-08
C2SD60,明峰,2026-01-08,22.8671,121.11825,3.9158463e-09
C0M720,番路,2026-01-08,23.464657,120.554156,9.416153e-10
C0F0A0,雪山圈谷,2026-01-08,24.388594,121.236339,4.8357222e-08
C1A9N0,四十份,2026-01-08,24.934158,121.593283,7.26547e-08
C0U760,東澳,2026-01-08,24.52196,121.83318,3.159384e-08
C0X230,鹽水,2026-01-08,23.272621,120.247641,1.1565833e-06
C2H9H0,苗改南投蜂場,2026-01-08,23.852589,120.693481,1.1391438e-09
C2TB70,達谷寮,2026-01-08,23.38,121.35968,5.6417337e-09
C0R950,萬隆國小,2026-01-08,22.507667,120.587817,5.5682605e-08
467540,大武,2026-01-08,22.35572,120.90374,0.99854815
C0V370,古亭坑,2026-01-08,22.893178,120.401947,1.4630159e-09
C1I340,新興橋,2026-01-08,23.563333,120.868728,2.9206582e-09
C0SA80,土坂,2026-01-08,22.453108,120.887572,2.531522e-07
C0R160,鹽埔,2026-01-08,22.739558,120.530778,4.3956057e-09
C0AC40,大屯山,2026-01-08,25.175675,121.522408,1.0323813e-07
466850,五分山雷達站,2026-01-08,25.071182,121.781205,6.050818e-08
C2H9L0,馬烈霸,2026-01-08,24.1512,121.201772,1.8775907e-08
C1AI50,國三N016K,2026-01-08,25.034164,121.619664,1.0680801e-07
C2V920,匏子寮,2026-01-08,23.04905,120.55319,9.1021446e-10
C1V600,藤枝,2026-01-08,23.071961,120.757042,6.5191106e-09
C1E601,南勢,2026-01-08,24.572486,120.734842,0.07796611
C0O980,新市,2026-01-08,23.061614,120.298197,3.7540772e-06
C0K420,西螺,2026-01-08,23.800407,120.467394,1.920093e-09
C0Z050,佳心,2026-01-08,23.34567,121.21316,1.2980461e-08
C0AD30,蘆洲,2026-01-08,25.086594,121.472331,5.3847074e-08
C0V610,梓官,2026-01-08,22.760558,120.267211,5.2687235e-05
K2F750,種苗改良場,2026-01-08,24.225972,120.800917,6.9894237e-09
C0UA80,大溪漁港,2026-01-08,24.941801,121.902955,1.168227e-07
C1AI60,國一39K邊坡,2026-01-08,25.064361,121.383836,4.0113946e-08
C0W150,金寧,2026-01-08,24.457703,118.328989,0.021419836
C0R960,內埔,2026-01-08,22.608483,120.570714,6.955422e-08
V2C250,八德合作社,2026-01-08,24.93775,121.266389,3.1332577e-06
C2H9S0,龍南,2026-01-08,23.953536,120.833183,5.2167657e-09
C0AH40,平等,2026-01-08,25.129142,121.577086,1.7694427e-07
C0R540,佳冬,2026-01-08,22.419456,120.552375,1.4803744e-07
466950,彭佳嶼,2026-01-08,25.627975,122.079744,0.9995747
C0A890,雙溪,2026-01-08,25.036003,121.864242,7.46991e-08
C0C480,桃園,2026-01-08,24.992425,121.323172,5.033916e-06
C0AH50,林口,2026-01-08,25.072181,121.38084,3.7938793e-08
A2K360,水試臺西試驗場,2026-01-08,23.717231,120.190522,0.203794
C2M960,外寮,2026-01-08,23.562643,120.665688,3.6844532e-09
C0F9S0,烏日,2026-01-08,24.107058,120.624103,6.1653125e-08
C2N180,鹿陶洋,2026-01-08,23.14325,120.48352,8.2167373e-10
C0C490,八德,2026-01-08,24.928708,121.283289,3.0993187e-06
C0R190,赤山,2026-01-08,22.592333,120.614306,5.920287e-08
C0T820,天祥,2026-01-08,24.179597,121.495639,3.3208153e-08
C1F9E1,龍安,2026-01-08,24.1605,120.831961,6.4196937e-09
C2SD50,順那,2026-01-08,23.04166,121.29332,5.67228e-09
C0V820,小林,2026-01-08,23.148408,120.63325,1.1452983e-09
C2G870,芳苑,2026-01-08,23.922303,120.320025,0.9309588
C0E850,大河,2026-01-08,24.618069,120.948578,2.939245e-07
C1U670,寒溪,2026-01-08,24.634,121.71691,1.0774859e-08
C0N020,城西,2026-01-08,23.0568,120.0956,4.8765294e-05
C1Z110,三棧,2026-01-08,24.11557,121.60501,3.1199924e-08
C0R280,檳榔,2026-01-08,22.076078,120.836777,0.99781924
C2H9J0,中台,2026-01-08,23.9996,120.938739,2.4478346e-09
C0F9L0,后里,2026-01-08,24.310436,120.729725,1.32197755e-08
467441,高雄,2026-01-08,22.730432,120.312516,2.553026e-05
C0Z180,新城,2026-01-08,24.040486,121.604878,2.5423091e-08
C0D540,橫山,2026-01-08,24.71116,121.11693,1.5165823e-07
C1D420,太閣南,2026-01-08,24.632808,121.160575,2.5461185e-08
C1E770,公館,2026-01-08,24.526914,120.830806,9.1796915e-07
CAN130,水試所海水繁養殖中心,2026-01-08,23.120802,120.07968,8.180957e-05
C1I430,翠華,2026-01-08,24.191961,121.224339,2.8106305e-08
C1M400,菜瓜坪,2026-01-08,23.251928,120.576103,1.2930786e-09
C0G730,二林,2026-01-08,23.903325,120.376081,1.5766457e-06
72M360,南改義竹分場,2026-01-08,23.360694,120.279361,5.8181325e-07
V2K620,麥寮合作社,2026-01-08,23.753836,120.294783,7.2349326e-06
C0Z070,舞鶴,2026-01-08,23.46811,121.37407,6.9388157e-09
C0B040,大武崙,2026-01-08,25.166676,121.706993,1.0582513e-07
C1Z030,紅葉,2026-01-08,23.493119,121.338806,6.9144934e-09
C1I050,丹大,2026-01-08,23.753747,121.141147,2.298117e-08
C0I080,信義,2026-01-08,23.689694,120.851036,1.500232e-09
C2TB80,庄子底,2026-01-08,23.71794,121.49438,1.0225452e-08
C0D750,樂山林道6k,2026-01-08,24.49999,121.08773,2.2866352e-08
C2M920,朴子農改,2026-01-08,23.469889,120.259383,3.486118e-07
C2A880,福隆,2026-01-08,25.017842,121.942083,8.3067064e-08
C0Z160,鳳林,2026-01-08,23.746114,121.453411,1.0233861e-08
C0UB80,翠峰林道6K,2026-01-08,24.49773,121.568625,4.3499526e-08
C0V210,復興,2026-01-08,23.222403,120.806089,2.6450193e-09
C0H990,昆陽,2026-01-08,24.121322,121.273642,3.345897e-08
C0R741,獅子,2026-01-08,22.202308,120.705236,0.0029033097
C0S710,鹿野,2026-01-08,22.917711,121.122994,4.146052e-09
C0I530,小奇萊,2026-01-08,24.131764,121.295717,3.5367027e-08
C0FA70,大雪山埡口,2026-01-08,24.26867,121.03062,3.1751753e-08
C2K630,荷苞,2026-01-08,23.657717,120.595144,1.1162928e-09
C0Z080,富源,2026-01-08,23.587642,121.378225,1.4221458e-08
C2M9E0,旺來山,2026-01-08,23.555153,120.486463,7.6349216e-10
C0SB10,美和,2026-01-08,22.682078,121.060236,3.731063e-07
C2K620,馬光農場,2026-01-08,23.721453,120.378864,2.045582e-09
C1I140,卡奈托灣,2026-01-08,23.754364,121.087872,9.256957e-09
C0I520,玉山風口,2026-01-08,23.470489,120.955994,4.1187747e-08
C1G691,下水埔,2026-01-08,23.816114,120.5676,1.5905988e-09
C0X110,臺南市南區,2026-01-08,22.961189,120.188378,1.7989454e-05
C0V680,仁武,2026-01-08,22.701083,120.347722,2.402832e-05
C2G840,北斗,2026-01-08,23.877586,120.514222,6.743612e-08
C2TB90,長橋,2026-01-08,23.6874,121.46186,1.02464e-08
C0R900,竹坑,2026-01-08,22.1385,120.7022,0.48027274
C0G860,社頭,2026-01-08,23.897647,120.5862,3.355106e-08
C0X150,安定,2026-01-08,23.102614,120.227839,9.153876e-06
C0R590,里港,2026-01-08,22.77919,120.49459,4.729434e-09
C0E610,馬都安,2026-01-08,24.451272,120.930192,9.316899e-09
C0E550,明德,2026-01-08,24.583486,120.885411,3.6713132e-07
C0R150,三地門,2026-01-08,22.709889,120.639944,6.9979342e-09
C0G910,花壇,2026-01-08,24.032076,120.549461,2.9924717e-08
C1D400,鳥嘴山,2026-01-08,24.71909,121.28387,2.7780871e-08
C0K500,元長,2026-01-08,23.64981,120.315024,6.0437924e-06
C0F0B0,石岡,2026-01-08,24.276061,120.777644,1.1470762e-08
C2V250,甲仙,2026-01-08,23.080106,120.591758,8.953631e-10
C0SA20,金崙山,2026-01-08,22.567419,120.959667,1.7327753e-08
C0V350,溪埔,2026-01-08,22.738578,120.446797,4.41042e-09
C0M660,溪口,2026-01-08,23.604131,120.403569,1.2976495e-09
C1S880,壽卡,2026-01-08,22.238911,120.858903,7.6240845e-09
72D680,桃改新埔分場,2026-01-08,24.834444,121.066111,1.2554385e-05
