站號,站名,日期,lat,lon,BLBTSLS
C0R710,龍磐,2026-02-09,21.931672,120.838942,0.99995553
C1F9D1,白毛台,2026-02-09,24.158325,120.886933,4.1154666e-09
C0G940,竹塘,2026-02-09,23.848253,120.386764,8.032308e-10
467590,恆春,2026-02-09,22.003897,120.746339,0.9992672
C1O850,環湖,2026-02-09,23.148617,120.418633,9.0564095e-10
C0U710,太平山,2026-02-09,24.505486,121.525656,2.8420262e-08
C0E820,獅潭,2026-02-09,24.539133,120.920042,4.8229737e-08
C2SD70,二層坪,2026-02-09,22.94105,121.16838,2.2197673e-07
C0V880,興達,2026-02-09,22.8778,120.2127,1.1037354e-05
C0S890,關山,2026-02-09,23.0395,121.175017,1.9276258e-07
C0SB30,新蘭,2026-02-09,22.869214,121.223228,1.9324941e-06
C2R970,屏科大,2026-02-09,22.648275,120.619247,2.3357045e-09
C1Z130,銅門,2026-02-09,23.965694,121.492842,3.516738e-08
C0AD40,土城,2026-02-09,24.973208,121.445169,1.2737028e-07
CAN140,六官養殖協會,2026-02-09,23.22881,120.29962,1.6627399e-05
C0X180,山上,2026-02-09,23.0757,120.363253,9.731222e-07
C0F9Z0,雪山東峰,2026-02-09,24.388792,121.268675,4.541415e-08
C1M480,獨立山,2026-02-09,23.537022,120.607797,8.336363e-10
C0X220,學甲,2026-02-09,23.230367,120.182187,1.6627399e-05
467650,日月潭,2026-02-09,23.881325,120.90805,2.6683384e-09
A2K570,古坑(花卉中心),2026-02-09,23.633531,120.552392,6.517168e-10
C0K600,箔子寮,2026-02-09,23.6197,120.14,2.6319647e-06
C0G830,埤頭,2026-02-09,23.866003,120.452806,8.032308e-10
C0S950,七塊厝,2026-02-09,22.954453,121.229922,6.307355e-08
467110,金門,2026-02-09,24.407306,118.289281,2.550853e-08
C0AH80,深坑,2026-02-09,25.002703,121.628328,1.3641868e-07
C0A970,三貂角,2026-02-09,25.007606,122.002058,1.2396589e-07
C2D730,寶山農場,2026-02-09,24.732444,120.976153,5.9407835e-08
C0K430,褒忠,2026-02-09,23.690938,120.303634,8.5920154e-05
467480,嘉義,2026-02-09,23.495925,120.432906,7.457148e-10
C0V400,阿公店,2026-02-09,22.804194,120.355528,1.6187083e-06
C0E960,觀霧分站,2026-02-09,24.505781,121.113921,2.2223658e-08
467550,玉山,2026-02-09,23.48718,120.95943,6.163126e-08
C0R440,大漢山,2026-02-09,22.405264,120.753181,1.38733505e-08
C0SD30,東清國小,2026-02-09,22.057128,121.564922,0.9915076
C1F9B1,桐林,2026-02-09,24.066172,120.735194,1.1017173e-08
C2H9U0,鳳鵬,2026-02-09,23.763919,120.788061,6.411651e-10
C0K390,土庫,2026-02-09,23.679029,120.395574,8.032308e-10
C1I450,望鄉山,2026-02-09,23.594153,120.944286,3.979874e-08
C0E910,海埔,2026-02-09,24.648767,120.772435,3.8925518e-07
B2E890,畜試北區分所,2026-02-09,24.527806,120.770972,1.3368305e-07
C0R750,四林格山,2026-02-09,22.076989,120.802439,0.9999348
C0F0C0,中坑,2026-02-09,24.248517,120.903319,5.160475e-09
C1I121,大鞍,2026-02-09,23.678381,120.760017,5.9091376e-09
C2G9E0,移民庄,2026-02-09,23.9784,120.40283,1.7240563e-05
72U480,花改蘭陽分場,2026-02-09,24.686306,121.716583,3.5022392e-08
C0A770,科教館,2026-02-09,25.096356,121.516507,1.3576701e-07
C0AJ60,六塊厝,2026-02-09,25.24,121.4481,7.706772e-05
C0R620,墾雷,2026-02-09,21.900836,120.855269,0.9995797
467420,永康,2026-02-09,23.038386,120.2367,6.0738216e-06
C2M530,奮起湖,2026-02-09,23.493903,120.699253,4.593868e-09
C0I410,名間,2026-02-09,23.837053,120.701447,7.3219303e-10
A2C560,農工中心,2026-02-09,24.985917,121.239833,1.2204042e-06
C0V740,旗山,2026-02-09,22.888614,120.483597,1.1359067e-09
C0Z061,玉里,2026-02-09,23.3215,121.339656,6.535772e-08
C0S840,南田,2026-02-09,22.279725,120.889208,0.999979
C1I470,杉林溪,2026-02-09,23.639517,120.786444,7.680789e-09
C1X040,東原,2026-02-09,23.291597,120.463822,5.5566274e-10
C0R660,枋寮,2026-02-09,22.367722,120.590647,1.0538964e-07
C1R120,上德文,2026-02-09,22.763272,120.704442,1.7792401e-09
C0K450,大埤,2026-02-09,23.646074,120.431537,7.9135276e-10
C0UA00,土場,2026-02-09,24.576533,121.495333,3.3084305e-08
467080,宜蘭,2026-02-09,24.763975,121.756528,3.6070013e-08
C0N030,四草,2026-02-09,23.0235,120.1116,1.1037354e-05
467410,臺南,2026-02-09,22.99328,120.20492,5.2935948e-06
C0V650,彌陀,2026-02-09,22.783806,120.246361,5.0977337e-06
C0D660,新竹市東區,2026-02-09,24.798681,120.986942,7.602422e-08
82S580,茶改東部分場,2026-02-09,22.907694,121.130139,2.58306e-07
C0SB40,興隆,2026-02-09,22.913661,121.257469,1.5890872e-06
467050,新屋,2026-02-09,25.006725,121.047492,4.426656e-06
C0C710,大溪永福,2026-02-09,24.892936,121.324975,1.0285061e-06
C0FA20,溫寮,2026-02-09,24.372177,120.583125,0.42731595
C0V640,湖內,2026-02-09,22.887139,120.2445,6.0738216e-06
C0R910,下寮,2026-02-09,22.3929,120.5548,1.0538964e-07
C0Z020,明里,2026-02-09,23.208717,121.262342,5.082352e-08
C0M770,嘉義梅山,2026-02-09,23.585398,120.555587,4.8292653e-10
C0C660,楊梅,2026-02-09,24.912375,121.143047,7.923758e-07
C0SD40,牛頭山,2026-02-09,22.676661,121.506944,0.9999521
C1E511,新開,2026-02-09,24.347703,120.827019,7.614028e-09
G2F820,農試所(霧峰),2026-02-09,24.031261,120.688133,2.1425015e-08
C2M990,大巃頂,2026-02-09,23.5547,120.61439,1.5201936e-09
C1I070,和社,2026-02-09,23.591131,120.888861,1.3066178e-09
C2E990,新坪頂,2026-02-09,24.30201,120.8574,5.419986e-09
C0TA80,立霧山,2026-02-09,24.183258,121.641899,2.8930213e-08
C2F000,大肚,2026-02-09,24.15295,120.572117,7.133788e-05
C1S850,豐南,2026-02-09,23.122139,121.262389,5.0808882e-08
C2M9B0,西興,2026-02-09,23.2428,120.57617,5.2605675e-10
C2A920,富貴角,2026-02-09,25.263783,121.565258,4.315811e-06
CAH030,茶改場竹圍站,2026-02-09,23.860083,120.637528,6.343193e-10
C0T960,光復,2026-02-09,23.660694,121.424964,3.838615e-08
C0F9M0,豐原,2026-02-09,24.254322,120.720692,1.2542974e-08
C0R720,旭海,2026-02-09,22.205403,120.887614,0.9999536
C0V710,苓雅,2026-02-09,22.622742,120.330669,4.323008e-06
C0C740,觀音工業區,2026-02-09,25.064764,121.114856,4.833583e-06
CAC040,拉拉山,2026-02-09,24.699317,121.427133,3.0806333e-08
C0V790,萬山,2026-02-09,22.905944,120.688056,1.0695858e-09
U2HA30,臺大和社,2026-02-09,23.590856,120.888864,1.3066178e-09
C2H9K0,屯原,2026-02-09,24.067969,121.209389,1.4422535e-08
C0AJ90,澳底,2026-02-09,25.0552,121.9253,1.6855952e-07
C0Z100,東華,2026-02-09,23.89525,121.549833,4.677494e-08
C0G970,三豐,2026-02-09,23.882,120.2895,0.00010819916
V2K610,大庄合作社,2026-02-09,23.8068,120.367939,6.615319e-05
C0V900,汕尾,2026-02-09,22.4782,120.4151,1.3581442e-07
C1R630,龍泉,2026-02-09,22.66701,120.59091,4.7275943e-09
C1AC50,關渡,2026-02-09,25.133486,121.469331,1.1654316e-05
C0C800,四稜,2026-02-09,24.64733,121.4293,2.380715e-08
C0F9I0,神岡,2026-02-09,24.272481,120.658314,1.708777e-08
C0K460,斗南,2026-02-09,23.678734,120.478359,7.567188e-10
C2O810,曾文,2026-02-09,23.219681,120.497328,6.3895544e-10
467280,後龍,2026-02-09,24.648563,120.831834,2.3835486e-07
C1F9J1,清水林,2026-02-09,24.071242,120.820419,1.8104194e-09
C2A650,火燒寮,2026-02-09,25.002719,121.742892,7.400436e-08
466930,竹子湖,2026-02-09,25.162078,121.544547,2.8457563e-07
C1I220,樟湖,2026-02-09,23.905333,120.846983,3.3615224e-09
C0I390,仁愛,2026-02-09,24.022122,121.132206,3.5472125e-09
C0Z300,東里,2026-02-09,23.26853,121.30547,6.1368034e-08
C1V590,新發,2026-02-09,23.057019,120.646064,1.4973819e-09
C0K510,水林,2026-02-09,23.572924,120.24597,2.6319647e-06
72S590,東改賓朗果園,2026-02-09,22.813889,121.071278,9.1142584e-07
82A750,茶改北部分場,2026-02-09,24.955778,121.631222,5.699123e-08
C1A750,石碇服務區,2026-02-09,25.00872,121.646242,1.2813138e-07
C0X300,鹿寮,2026-02-09,23.386047,120.477331,6.054103e-10
G2AI50,關渡,2026-02-09,25.11575,121.492,1.3917924e-07
C0K590,雲林東勢,2026-02-09,23.674192,120.255721,8.5920154e-05
C2K310,港尾布雞,2026-02-09,23.74834,120.38439,8.032308e-10
C0A570,桶後,2026-02-09,24.848222,121.597992,1.970436e-08
C1S800,華源,2026-02-09,22.657883,121.02325,0.00038863314
C0G720,溪州,2026-02-09,23.851589,120.499093,7.567188e-10
C1V160,達卡努瓦,2026-02-09,23.279811,120.705319,2.7288876e-09
C2M410,馬頭山,2026-02-09,23.324361,120.582017,5.0877397e-10
C0V850,蚵仔寮,2026-02-09,22.7256,120.2527,5.0977337e-06
C0S740,池上,2026-02-09,23.119628,121.209469,1.1982745e-07
C1V390,尖山,2026-02-09,22.813153,120.367789,8.498625e-07
C0AH70,松山,2026-02-09,25.04871,121.55042,1.303909e-07
C0N010,鯤鯓國小,2026-02-09,23.1879,120.0889,1.6627399e-05
C0R550,新埤,2026-02-09,22.467947,120.582894,7.055083e-08
C0SA60,知本（水試所）,2026-02-09,22.702394,121.082761,0.5811381
C0T9I0,豐濱,2026-02-09,23.583897,121.514806,3.744205e-08
C0UB00,淡江大學蘭陽校園,2026-02-09,24.823239,121.730383,2.460601e-08
C0W240,九宮,2026-02-09,24.423753,118.240186,8.40103e-09
C0T9N0,富里,2026-02-09,23.171639,121.249378,4.7076387e-08
U2HA50,臺大竹山,2026-02-09,23.756972,120.681556,7.3219303e-10
C0V840,鳳鼻頭,2026-02-09,22.5083,120.3591,1.3581415e-07
C0X140,西港,2026-02-09,23.125608,120.203108,1.6627399e-05
72D080,桃改五峰分場,2026-02-09,24.612194,121.157167,7.655209e-09
C2H9P0,伊拿谷,2026-02-09,23.963211,121.088264,2.2311053e-09
C2K250,崙背,2026-02-09,23.75553,120.31893,8.5920154e-05
C2H9F0,柑林,2026-02-09,24.018658,120.847072,2.5773e-09
C0TA20,加灣,2026-02-09,24.082025,121.608944,7.74251e-08
C0V530,阿蓮,2026-02-09,22.883208,120.327508,3.109017e-06
C0FB30,八仙山苗圃,2026-02-09,24.192719,121.001366,5.0000346e-09
C1O880,關山,2026-02-09,23.173397,120.594092,5.088361e-10
C0E791,卓蘭,2026-02-09,24.3126,120.8244,7.532201e-09
C1I030,武界,2026-02-09,23.913225,121.052483,2.345222e-09
C0R520,崁頂,2026-02-09,22.514781,120.506914,1.0538964e-07
C0R341,牡丹,2026-02-09,22.130036,120.792639,1.540346e-05
C0R930,萬丹,2026-02-09,22.5885,120.4851,7.055083e-08
C0S760,紅石,2026-02-09,23.069131,121.126219,1.4842938e-08
C2C410,中央大學,2026-02-09,24.967652,121.185165,1.0285041e-06
C1M610,石磐龍,2026-02-09,23.496606,120.663506,3.0395015e-09
C0C790,東眼山,2026-02-09,24.8284,121.40888,2.0930063e-08
C0UA10,鴛鴦湖,2026-02-09,24.590269,121.412228,2.5118949e-08
V2C260,八德蔬果,2026-02-09,24.978508,121.281819,1.2901214e-06
C0R800,丹路,2026-02-09,22.204481,120.750989,0.001022927
C0G920,永靖,2026-02-09,23.924703,120.547533,6.5316985e-06
C2M950,太和,2026-02-09,23.538372,120.702961,4.565836e-09
C1A630,下盆,2026-02-09,24.771003,121.538622,1.9184501e-08
B2N890,畜產試驗所,2026-02-09,23.058972,120.336406,2.7463086e-06
C0UA30,白嶺,2026-02-09,24.527819,121.519031,1.9939671e-08
467571,新竹,2026-02-09,24.828575,121.01455,8.5175415e-08
C1V580,溪南(特生中心),2026-02-09,23.084972,120.788475,7.241477e-09
C1T970,大農,2026-02-09,23.615233,121.413331,3.4423497e-08
C0R650,竹田,2026-02-09,22.58486,120.54344,8.824836e-08
C1H900,清流,2026-02-09,24.080775,120.962997,2.2700732e-09
C1C510,水尾,2026-02-09,24.940081,121.087161,1.5564593e-06
C2N170,茅港尾,2026-02-09,23.2061,120.2624,1.6627399e-05
C0F9X0,大雅(中科園區),2026-02-09,24.21528,120.62445,0.0034295553
C0SB60,白守蓮,2026-02-09,23.126769,121.401914,0.999822
C0O970,虎頭埤,2026-02-09,23.021375,120.347878,8.785375e-07
C0C730,中大臨海站,2026-02-09,24.966126,121.008581,1.097433e-07
C0X250,新營,2026-02-09,23.310689,120.316681,7.739779e-06
C0V700,三民,2026-02-09,22.645017,120.311233,4.3229993e-06
C0U870,大礁溪,2026-02-09,24.791042,121.675047,2.4254858e-08
C0E870,高鐵苗栗,2026-02-09,24.60725,120.826094,2.8737105e-07
C0TA30,鹽寮,2026-02-09,23.845606,121.592664,5.0746994e-08
C0M860,新美,2026-02-09,23.338017,120.683169,1.3933568e-09
C1E701,八卦,2026-02-09,24.491756,120.927619,6.978807e-09
C2TA90,加納納,2026-02-09,23.466421,121.359867,3.2109924e-08
C0I420,國姓,2026-02-09,24.037803,120.855072,2.292228e-09
C2D720,關西工作站,2026-02-09,24.757275,121.184792,1.351733e-08
C0S960,香蘭,2026-02-09,22.587569,120.993375,0.99955654
467620,蘭嶼,2026-02-09,22.0369,121.55843,0.9999724
C0R260,春日,2026-02-09,22.370361,120.628306,3.1369087e-08
72G600,臺中農改場,2026-02-09,24.003028,120.534389,1.1470168e-05
C0Z210,瑞穗,2026-02-09,23.5239,121.39021,3.86468e-08
C0M820,達邦,2026-02-09,23.453994,120.749517,2.349547e-09
C0V860,南寮,2026-02-09,22.7616,120.2339,8.179557e-06
C0G740,大城,2026-02-09,23.852487,120.320935,8.5920154e-05
C0R920,塭仔,2026-02-09,22.4169,120.5197,1.3581442e-07
C0R470,高樹,2026-02-09,22.826389,120.600806,3.1016978e-09
C0R680,佳樂水,2026-02-09,21.993578,120.861633,0.9990705
C1O870,大棟山,2026-02-09,23.31157,120.52226,2.2087154e-09
C0D360,梅花,2026-02-09,24.678347,121.208558,1.1225429e-08
C0Z190,富世,2026-02-09,24.14743,121.6297,5.070095e-07
C0AI10,屈尺,2026-02-09,24.92184,121.54475,1.0983272e-07
B2U990,畜試東區分所,2026-02-09,24.669039,121.832561,3.5995992e-08
C0SB80,長濱漁港,2026-02-09,23.313644,121.459994,0.9997624
C0TA50,和仁,2026-02-09,24.241394,121.712472,7.383735e-07
C0V910,大樹,2026-02-09,22.684645,120.432803,7.663872e-09
C1R610,西大武山,2026-02-09,22.617719,120.7322,1.461257e-08
C0G900,線西,2026-02-09,24.143358,120.443536,0.42731595
C0M700,竹崎,2026-02-09,23.526178,120.555508,5.001959e-10
C2E880,三義,2026-02-09,24.405478,120.749819,1.8322746e-08
C0C720,竹圍,2026-02-09,25.112692,121.239824,5.7818033e-06
C0F9P0,清水,2026-02-09,24.312297,120.562242,0.36915404
C0Z150,吉安光華,2026-02-09,23.930925,121.595153,5.0746994e-08
C0FA80,小雪山天池,2026-02-09,24.28025,121.02627,3.0026257e-08
467300,東吉島,2026-02-09,23.25727,119.66762,0.9974909
C1D640,外坪(五指山),2026-02-09,24.644447,121.090961,1.8441499e-08
C2R9A0,高士國小,2026-02-09,22.12553,120.84653,0.00012436665
C0F9O0,潭子,2026-02-09,24.213106,120.703933,1.765634e-08
C2H9R0,卓社,2026-02-09,23.887894,121.000086,4.509485e-09
72T250,花蓮農改場,2026-02-09,23.975222,121.563889,4.677494e-08
C0E780,銅鑼,2026-02-09,24.489681,120.790853,6.484786e-08
C1T950,太安,2026-02-09,23.666719,121.370128,5.1579363e-09
C0E830,苑裡,2026-02-09,24.439714,120.653053,2.8737105e-07
467270,田中,2026-02-09,23.873803,120.581286,7.470644e-10
C0SA10,檳榔四格山,2026-02-09,22.810031,121.109308,2.6109197e-07
C1T830,布洛灣,2026-02-09,24.17184,121.57127,3.5090995e-08
C0F970,大坑,2026-02-09,24.173142,120.722289,2.6679988e-08
C1U920,思源,2026-02-09,24.393125,121.347214,2.1827509e-08
C2H9Y0,松茗,2026-02-09,23.8167,120.650765,6.760812e-10
C0A931,三和,2026-02-09,25.233153,121.595236,2.8297616e-06
C0I010,廬山,2026-02-09,24.033311,121.181808,7.584445e-09
C2M940,日野賀,2026-02-09,23.434056,120.727169,3.1953804e-09
C0R860,鼻頭,2026-02-09,22.1043,120.8979,0.9995594
C0UB20,壯圍,2026-02-09,24.7359,121.8163,3.5995992e-08
C0R790,九棚,2026-02-09,22.14195,120.889281,0.99997026
C0W110,東莒,2026-02-09,25.9652,119.98069,0.00887315
C1U930,粉鳥林,2026-02-09,24.497088,121.842479,8.6110255e-08
C1I211,蘆竹湳,2026-02-09,23.934019,120.811994,1.614532e-09
C0S830,長濱,2026-02-09,23.286817,121.411975,4.7076387e-08
C1F9F1,伯公龍,2026-02-09,24.272392,120.849047,5.6491958e-09
C0UB90,太平山莊,2026-02-09,24.494171,121.536209,2.8684388e-08
C0E810,西湖,2026-02-09,24.562947,120.7485,2.2808165e-07
C1I440,新高口,2026-02-09,23.478744,120.878939,2.8517242e-08
C0O840,王爺宮,2026-02-09,23.222064,120.40085,6.3895544e-10
C0T9G0,鳳林山,2026-02-09,23.735269,121.420131,2.6041524e-08
C0X080,佳里,2026-02-09,23.173039,120.145086,1.9036632e-05
C0FB70,大甲溪埔,2026-02-09,24.370625,120.620067,0.2656455
C0Z310,清水斷崖,2026-02-09,24.218294,121.689142,3.405635e-07
C0M680,太保,2026-02-09,23.455062,120.331455,1.9595468e-06
C1S820,金峰,2026-02-09,22.590969,120.933236,0.012767414
C0AD10,八里,2026-02-09,25.150211,121.403947,6.405848e-05
C2K240,草嶺,2026-02-09,23.59555,120.693461,3.1261498e-09
C1SA70,都蘭,2026-02-09,22.87794,121.226881,1.5890872e-06
C0K440,二崙,2026-02-09,23.772797,120.408944,8.032308e-10
C1A760,坪林交控,2026-02-09,24.94284,121.713442,8.2431484e-08
C0F9N0,大里,2026-02-09,24.092464,120.701378,3.1021845e-08
C0SA90,達仁林場,2026-02-09,22.264347,120.823972,6.5247705e-09
C1R290,石門山,2026-02-09,22.112611,120.756597,0.99999
42HA10,萬大發電廠,2026-02-09,23.978875,121.139639,2.8628786e-09
C0R890,山海,2026-02-09,21.9878,120.7091,0.9983368
C0T9A0,月眉山,2026-02-09,23.809928,121.539828,2.6448692e-08
C0AC70,信義,2026-02-09,25.037822,121.564597,1.303909e-07
C0K560,棋山,2026-02-09,23.68645,120.603417,6.2924255e-10
C2FB50,出雲,2026-02-09,24.206469,120.902794,5.713607e-09
C1Z240,中平林道,2026-02-09,23.42115,121.26763,1.8609974e-08
U2H480,溪頭,2026-02-09,23.670306,120.798194,2.7751623e-09
C0M880,好美里,2026-02-09,23.3364,120.138,1.9036632e-05
C0T9E0,大坑,2026-02-09,23.880628,121.581981,3.2350407e-08
C0K530,臺西,2026-02-09,23.701547,120.197559,0.00010819916
C1E900,國一N128K,2026-02-09,24.560997,120.844186,1.594353e-07
C0AJ50,水湳洞,2026-02-09,25.123695,121.862238,1.6159707e-07
C0AI20,白沙灣,2026-02-09,25.283128,121.519058,5.6098874e-05
C2V310,美濃,2026-02-09,22.898792,120.51907,1.2165273e-09
C0A860,大坪,2026-02-09,25.165914,121.632969,5.4797162e-08
C1U850,觀音海岸,2026-02-09,24.38319,121.77856,2.8197856e-08
C2K610,草嶺石壁,2026-02-09,23.602469,120.707731,3.2861465e-09
C0U950,鶯子嶺,2026-02-09,24.89754,121.79244,4.3760497e-08
C0O900,善化,2026-02-09,23.112883,120.297219,6.0738216e-06
C0K550,蔦松,2026-02-09,23.514319,120.229736,2.6319647e-06
E2P980,林試六龜中心,2026-02-09,22.991703,120.645722,5.326538e-10
C0E590,通霄,2026-02-09,24.471892,120.704622,1.9287071e-07
C1I310,西巒,2026-02-09,23.754486,120.883956,3.3537668e-09
C0A550,泰平,2026-02-09,24.971197,121.823711,5.699123e-08
C0I360,水里,2026-02-09,23.812553,120.849792,6.440516e-10
C0R830,高士,2026-02-09,22.121825,120.836781,0.9999843
C1I101,溪頭,2026-02-09,23.661789,120.807647,9.159587e-09
C0AJ20,野柳,2026-02-09,25.20703,121.690021,5.6098874e-05
C0B060,暖暖,2026-02-09,25.0957,121.7403,1.2813138e-07
C1H920,長豐,2026-02-09,24.102039,120.879897,1.7783546e-09
C2S9B0,利吉,2026-02-09,22.86246,121.15486,3.6731905e-07
C0V360,內門,2026-02-09,22.975481,120.466769,9.392028e-10
C0R850,林邊,2026-02-09,22.4634,120.5339,1.0538964e-07
C0E930,龍鳳,2026-02-09,24.700034,120.859125,1.097433e-07
C0U910,冬山,2026-02-09,24.63373,121.7937,3.5995992e-08
C1E721,泰安,2026-02-09,24.489017,120.968036,1.3368005e-08
82H320,茶改中部分場,2026-02-09,23.875611,120.913583,2.1253856e-09
C0M750,布袋,2026-02-09,23.380878,120.167789,3.2429011e-06
C1S860,利嘉,2026-02-09,22.809417,121.050528,6.13224e-08
E2S980,林試太麻里1,2026-02-09,22.598922,120.980044,0.99086803
C0X170,關廟,2026-02-09,22.963017,120.327797,1.6920388e-06
C0V720,林園,2026-02-09,22.507747,120.394511,8.824836e-08
C1I510,線浸林道,2026-02-09,23.761508,120.832956,3.0430458e-09
C0D690,外湖,2026-02-09,24.917735,120.968711,1.097433e-07
C0C750,新興坑尾,2026-02-09,25.0061,121.0971,2.3406392e-06
B2Q810,畜試南區分所,2026-02-09,21.945583,120.802167,0.9990705
C0S790,金崙,2026-02-09,22.538122,120.966875,0.0009937627
C0AH90,福山植物園,2026-02-09,24.760717,121.58135,1.9382748e-08
C0I540,奇萊稜線,2026-02-09,24.109231,121.326456,4.15737e-08
C0M850,表湖,2026-02-09,23.24186,120.64166,1.5718908e-09
C0S770,大溪山,2026-02-09,22.478475,120.943325,1.5732047e-06
C0AG80,中和,2026-02-09,24.991622,121.491792,1.2737028e-07
C0T790,大禹嶺,2026-02-09,24.186117,121.316086,3.458335e-08
C0T9B0,水源,2026-02-09,23.991861,121.537169,2.8831058e-08
C0R840,牡丹池山,2026-02-09,22.168389,120.841225,6.474488e-09
C1I131,桶頭,2026-02-09,23.641944,120.654117,6.343193e-10
CAL110,布袋國中,2026-02-09,23.35893,120.18026,2.1310436e-05
C2M9D0,何竹子腳,2026-02-09,23.53641,120.38203,7.9733276e-10
C0Z290,赤柯山,2026-02-09,23.36893,121.38293,2.4965768e-08
C0X280,將軍,2026-02-09,23.214999,120.13577,1.6627399e-05
C0S690,太麻里,2026-02-09,22.60902,120.98533,2.0519549e-07
C0U880,北關,2026-02-09,24.9072,121.8734,1.6855952e-07
CAW010,東引,2026-02-09,26.3588,120.4836,0.027505267
C0G810,埔心,2026-02-09,23.947633,120.525456,9.545565e-06
C0U970,大福,2026-02-09,24.80064,121.81389,3.5995992e-08
C2H9N0,仁愛東眼,2026-02-09,24.026875,121.1205,5.6883147e-09
C1E670,南礦,2026-02-09,24.538278,121.002836,1.1369823e-08
C0M520,東後寮,2026-02-09,23.369908,120.248065,1.6627399e-05
C1E461,松安,2026-02-09,24.397972,120.986022,1.2338225e-08
C2N160,西拉雅風管處,2026-02-09,23.189481,120.335297,4.8464008e-06
C2M970,碧湖,2026-02-09,23.568632,120.624165,1.4926399e-09
C0A640,石碇,2026-02-09,24.993969,121.662917,8.2431484e-08
E2S960,林試太麻里2,2026-02-09,22.598,120.99775,0.99968004
C0F9Y0,桃山,2026-02-09,24.432739,121.303808,4.7962967e-08
C1I020,萬大,2026-02-09,23.979817,121.132261,3.581818e-09
C2UC20,長嶺,2026-02-09,24.70894,121.61162,1.8955355e-08
C0U940,羅東,2026-02-09,24.68184,121.74934,3.4938523e-08
C0M650,朴子,2026-02-09,23.43463,120.23902,2.6319647e-06
C1I500,大尖山,2026-02-09,23.858572,120.994889,1.3033702e-08
C0FB40,中橫21.6k,2026-02-09,24.2499,121.1455,7.820068e-09
C0G820,田尾,2026-02-09,23.901669,120.509389,6.5316985e-06
E2K600,四湖植物園,2026-02-09,23.676986,120.163433,8.592007e-05
C0S730,綠島,2026-02-09,22.6672,121.47533,0.9999728
12Q970,東港工作站,2026-02-09,22.479997,120.466058,1.0538964e-07
C1TA00,太魯閣,2026-02-09,24.15773,121.6236,5.9317365e-08
466920,臺北,2026-02-09,25.037658,121.514853,1.303909e-07
C0R600,舊泰武,2026-02-09,22.588194,120.664944,6.2761987e-09
C1I260,北坑,2026-02-09,23.9246,121.006903,1.5764396e-09
466910,鞍部,2026-02-09,25.182586,121.529731,1.6316874e-07
C1I230,九份二山,2026-02-09,23.961944,120.845,2.0974813e-09
C2M810,里佳,2026-02-09,23.389125,120.716647,4.593868e-09
C2A660,瑞芳,2026-02-09,25.113169,121.801147,1.1698647e-07
C0R270,琉球嶼,2026-02-09,22.332244,120.362236,3.1369087e-08
C2V580,瑞山,2026-02-09,22.90304,120.43424,9.117105e-10
C1T990,高寮,2026-02-09,23.394239,121.356808,8.4918625e-08
C0G620,芬園,2026-02-09,24.015678,120.6213,7.0724695e-07
C1Z140,荖溪,2026-02-09,23.890575,121.45964,2.7977192e-08
C1I201,中心崙,2026-02-09,23.728722,120.712097,9.32365e-10
C1I400,凌霄,2026-02-09,24.018778,121.004456,5.4594955e-09
C1M640,十字,2026-02-09,23.492153,120.753683,6.5178796e-09
G2P820,農試鳳山分所,2026-02-09,22.646611,120.356083,2.4061278e-06
C0Z270,蕃薯寮,2026-02-09,23.73835,121.540108,2.8925799e-08
C2E420,竹南,2026-02-09,24.70898,120.88897,8.5175415e-08
C0FB10,出雲山苗圃,2026-02-09,24.23105,120.90475,5.126355e-09
C0F9Q0,外埔,2026-02-09,24.347817,120.705686,2.358906e-08
C0K580,高鐵雲林,2026-02-09,23.737456,120.417944,8.032308e-10
C2I090,鳳凰,2026-02-09,23.728081,120.787347,1.5365826e-09
C0U990,員山,2026-02-09,24.74435,121.72247,3.6070013e-08
C0V770,大社,2026-02-09,22.730306,120.346639,2.8055963e-06
C0X120,麻豆,2026-02-09,23.183289,120.248611,1.6627399e-05
C0C670,龍潭,2026-02-09,24.870056,121.221389,1.22725545e-08
C0D680,香山濕地,2026-02-09,24.783581,120.914988,1.097433e-07
C0S980,勝林山,2026-02-09,22.430439,120.8938,4.0800863e-08
C0V730,大寮,2026-02-09,22.605614,120.395717,7.055083e-08
C0R570,麟洛,2026-02-09,22.65078,120.52719,7.144822e-09
C2M930,石卓,2026-02-09,23.478744,120.702264,6.3618675e-09
C0G9B0,和美,2026-02-09,24.105169,120.492131,1.7240563e-05
CAG100,王功漁港,2026-02-09,23.96824,120.32586,2.0967995e-05
C0X290,北門,2026-02-09,23.267772,120.125481,2.1310436e-05
C2F930,大甲,2026-02-09,24.347667,120.640403,4.1114518e-08
C0D650,湖口,2026-02-09,24.904794,121.043628,6.1970624e-08
C0U780,五結,2026-02-09,24.68637,121.79794,3.5995992e-08
C1I250,鯉潭,2026-02-09,23.961922,120.991131,1.7783546e-09
C0R130,阿禮,2026-02-09,22.742908,120.743678,2.5025542e-09
C0X100,臺南市北區,2026-02-09,23.010394,120.194228,1.1037354e-05
C0S920,金峰嘉蘭,2026-02-09,22.594789,120.960825,0.99086803
C0V490,新興,2026-02-09,22.627422,120.298803,4.3229993e-06
C0F9K0,大安,2026-02-09,24.345061,120.588025,0.26564565
467290,古坑,2026-02-09,23.633639,120.551889,6.517168e-10
C2E970,八甲,2026-02-09,24.535811,120.795983,5.898376e-08
C0V440,鳳山,2026-02-09,22.646653,120.356122,2.4061278e-06
C1T940,大觀,2026-02-09,23.714206,121.373133,2.6515417e-08
C0E740,造橋,2026-02-09,24.637056,120.864778,3.0162815e-07
C0R100,尾寮山,2026-02-09,22.833111,120.683889,2.5554585e-09
A2K630,臺大雲林校區,2026-02-09,23.730628,120.423903,7.9135276e-10
467990,馬祖,2026-02-09,26.169467,119.923158,2.1335684e-06
C0D580,寶山,2026-02-09,24.735006,121.025192,4.630271e-08
E2P990,林試扇平站,2026-02-09,22.9677,120.6857,1.352906e-09
C0AI30,三重,2026-02-09,25.057328,121.500629,1.3576714e-07
C0AH00,汐止,2026-02-09,25.066881,121.658778,1.6159707e-07
C1Z040,立山,2026-02-09,23.443356,121.327375,3.0512194e-08
466881,新北,2026-02-09,24.959207,121.525196,1.2009997e-07
C0W130,花嶼,2026-02-09,23.40007,119.32276,0.9993996
C0A950,鼻頭角,2026-02-09,25.129036,121.923372,1.6855952e-07
C0K470,林內,2026-02-09,23.748675,120.609642,6.517168e-10
C2F990,摩天嶺,2026-02-09,24.322458,120.936819,5.30189e-09
C2E430,南庄,2026-02-09,24.601775,121.000214,3.2841182e-08
82C160,茶改場,2026-02-09,24.908472,121.185333,5.2664313e-07
C2TB60,南安,2026-02-09,23.29818,121.26157,5.467929e-08
C0Z320,清水林道,2026-02-09,23.27125,121.188272,2.590771e-08
C0R760,南仁湖,2026-02-09,22.084681,120.863353,0.99999
C0M670,大林,2026-02-09,23.600616,120.45841,7.342642e-10
C0M800,茶山,2026-02-09,23.299075,120.664767,5.1305193e-10
C0A9C0,天母,2026-02-09,25.117494,121.537169,1.2737028e-07
72K220,南改斗南分場,2026-02-09,23.634556,120.477333,7.567188e-10
72AI40,桃改樹林分場,2026-02-09,24.944503,121.386972,1.2276236e-07
C0S910,蘭嶼燈塔,2026-02-09,22.081197,121.503117,0.998981
C0B050,八斗子,2026-02-09,25.144754,121.79167,1.7469928e-07
C0U900,內城,2026-02-09,24.71813,121.68766,3.406167e-08
C0X320,柳營,2026-02-09,23.253328,120.375253,1.0845121e-09
C0M790,新港,2026-02-09,23.553269,120.345728,1.9595448e-06
C0F9T0,西屯,2026-02-09,24.179494,120.641275,4.1114518e-08
C0E950,松安,2026-02-09,24.39792,120.98599,1.2338225e-08
C0SA30,都歷,2026-02-09,23.020333,121.323642,1.1867579e-06
C0C620,蘆竹,2026-02-09,25.084275,121.265767,3.7356097e-06
C0R730,大坪頂,2026-02-09,22.024633,120.69355,0.99998146
C0AJ40,石門,2026-02-09,25.273672,121.601198,6.7498922e-06
C0E750,苗栗,2026-02-09,24.564569,120.824575,1.858779e-07
C0T870,鯉魚潭,2026-02-09,23.935639,121.508944,3.7213933e-08
C1V170,排雲,2026-02-09,23.463619,120.954147,5.5756253e-08
C2H950,中寮,2026-02-09,23.884447,120.766406,4.2719135e-09
C0R350,貓鼻頭,2026-02-09,21.921774,120.7358,0.9994667
C0V660,岡山,2026-02-09,22.797078,120.294958,4.3229993e-06
C1H941,雙冬,2026-02-09,23.967378,120.802189,1.6564994e-09
C0AJ70,田寮,2026-02-09,25.2698,121.4886,5.6098874e-05
C0AI00,五股,2026-02-09,25.07445,121.42728,7.990996e-08
C0Z280,德武,2026-02-09,23.47426,121.41071,3.4273732e-08
C2RA10,大新,2026-02-09,22.67558,120.57788,5.5803997e-09
C0R700,枋山,2026-02-09,22.246844,120.661086,0.4494815
C0C460,復興,2026-02-09,24.820208,121.352281,1.12113065e-08
C2K300,鹿南,2026-02-09,23.63855,120.3636,6.615319e-05
E2H360,蓮華池,2026-02-09,23.918333,120.885278,1.6869043e-09
C0M640,中埔,2026-02-09,23.42538,120.5229,5.001959e-10
C0W140,金沙,2026-02-09,24.488292,118.408778,6.86575e-09
C2A540,四堵,2026-02-09,24.8926,121.745736,6.228524e-08
C0ACA0,新莊,2026-02-09,25.051478,121.446756,1.3576714e-07
C0R220,潮州,2026-02-09,22.534361,120.54,8.824836e-08
U2HA40,臺大內茅埔,2026-02-09,23.689722,120.851117,7.687556e-10
467490,臺中,2026-02-09,24.145736,120.684075,4.887501e-08
C0UB60,明池,2026-02-09,24.650688,121.475277,2.3830683e-08
C0U960,翠峰湖,2026-02-09,24.510856,121.608044,2.7636485e-08
E2HA20,林試畢祿溪站,2026-02-09,24.226944,121.308522,2.1994845e-08
C2M9A0,大華,2026-02-09,23.4824,120.67491,2.700039e-09
C0V890,前鎮,2026-02-09,22.5718,120.3117,5.0977337e-06
C1F941,雪嶺,2026-02-09,24.280586,121.026642,3.0026257e-08
C2H9E0,國姓南港,2026-02-09,23.911108,120.846556,3.5472125e-09
C0AC80,文山,2026-02-09,25.00235,121.575728,1.13546136e-07
C0F9R0,龍井,2026-02-09,24.184536,120.528972,0.42731595
C0M760,民雄,2026-02-09,23.551754,120.428457,7.342642e-10
C0UA40,西德山,2026-02-09,24.560647,121.752608,3.0456896e-08
C2TA70,赤科坪,2026-02-09,23.39885,121.39168,2.488495e-08
C1T920,中興,2026-02-09,23.769503,121.498653,4.303327e-08
C0D550,雪霸,2026-02-09,24.526972,121.11605,1.8910251e-08
C2F860,梨山,2026-02-09,24.247522,121.243669,2.256136e-08
C0R320,車城,2026-02-09,22.0744,120.716247,0.9983368
C1S870,南美山,2026-02-09,23.15025,121.382333,1.6183998e-07
C0B020,基隆嶼,2026-02-09,25.19141,121.78391,1.6159707e-07
C1U501,牛鬥,2026-02-09,24.637836,121.573656,2.0093493e-08
C0M730,嘉義市東區,2026-02-09,23.457673,120.460531,7.342642e-10
C2R990,泰武,2026-02-09,22.60686,120.69765,7.4225843e-09
C0S700,知本,2026-02-09,22.684866,121.005642,6.497712e-08
C1N001,沙崙,2026-02-09,22.935472,120.309406,2.7463086e-06
C0V760,橋頭,2026-02-09,22.757806,120.30575,4.3229993e-06
C0G960,福寶,2026-02-09,24.0443,120.3814,2.0967995e-05
C0X210,白河,2026-02-09,23.347466,120.414427,1.0172011e-09
C0S810,東河,2026-02-09,22.972672,121.303986,2.2124113e-06
C2R170,屏東,2026-02-09,22.66027,120.49403,7.663872e-09
C0R670,楓港,2026-02-09,22.190131,120.692156,0.4494815
C0FA50,霧峰,2026-02-09,24.0419,120.6995,2.0099128e-08
C0UB10,蘇澳,2026-02-09,24.5969,121.8571,8.6110255e-08
C0G950,防潮門,2026-02-09,24.1835,120.4871,0.4273157
C0M740,六腳,2026-02-09,23.492871,120.290625,2.6319647e-06
C1R250,力里,2026-02-09,22.428117,120.629228,3.026314e-08
C0K330,虎尾,2026-02-09,23.719183,120.442036,7.9135276e-10
C2FA00,烏石坑,2026-02-09,24.273503,120.947617,5.212648e-09
C0V620,永安,2026-02-09,22.82315,120.236856,5.0977337e-06
C1I330,楓樹林,2026-02-09,23.986803,121.076117,4.2773274e-09
C0W200,湖西,2026-02-09,23.596314,119.67275,0.9972202
72Q010,高雄農改場,2026-02-09,22.709333,120.525889,5.9305574e-09
C0SA40,瑞和,2026-02-09,22.974361,121.156697,2.58306e-07
C0C680,龜山,2026-02-09,25.02846,121.38656,6.940526e-08
C2V260,月眉,2026-02-09,22.971003,120.539853,8.0354495e-10
C0V450,鳳森,2026-02-09,22.545064,120.392592,3.5686792e-08
C0FA90,小雪山林道,2026-02-09,24.29515,121.03651,3.7391523e-08
C0U720,南山,2026-02-09,24.43742,121.38167,1.730295e-08
A2N290,臺南蘭花園區,2026-02-09,23.340258,120.379661,1.0845121e-09
C0R560,新園,2026-02-09,22.5434,120.461558,8.824836e-08
C0U890,三星,2026-02-09,24.66812,121.65302,3.0817205e-08
C1V300,御油山,2026-02-09,23.001983,120.715364,7.0000166e-09
C0U600,礁溪,2026-02-09,24.817539,121.765608,3.4938523e-08
C1T980,龍澗,2026-02-09,24.023289,121.411328,3.1045523e-08
C0D670,海天一線,2026-02-09,24.831986,120.914438,1.097433e-07
C0SA00,歷坵,2026-02-09,22.520969,120.89185,4.980516e-07
C0M710,東石,2026-02-09,23.458927,120.15385,3.2429011e-06
C0M780,鹿草,2026-02-09,23.41134,120.30835,1.9595448e-06
C0U520,雙連埤,2026-02-09,24.753033,121.641303,2.4060231e-08
C0B010,七堵,2026-02-09,25.094819,121.71713,1.5621562e-07
C0R480,長治,2026-02-09,22.693128,120.542622,5.5803997e-09
C1V830,國三S383K,2026-02-09,22.781967,120.426475,2.6276012e-09
12Q980,恆春工作站,2026-02-09,22.079678,120.714425,0.9987061
C1O940,東山服務區,2026-02-09,23.286016,120.398472,1.0172011e-09
C1U840,東澳嶺,2026-02-09,24.5378,121.8485,2.8139134e-08
C1D630,飛鳳山,2026-02-09,24.766464,121.119178,2.0681645e-08
C0S940,石寧山,2026-02-09,23.223772,121.406639,0.99795455
C0K410,北港,2026-02-09,23.573957,120.292802,1.9595448e-06
C2M620,瑞里,2026-02-09,23.545133,120.675197,3.8814623e-09
C0SB70,小港漁港,2026-02-09,23.158558,121.400431,0.999807
C2O950,安南,2026-02-09,23.076694,120.144861,1.1037354e-05
C0F0E0,南湖圈谷,2026-02-09,24.363714,121.444667,6.52928e-08
467610,成功,2026-02-09,23.097486,121.373428,3.1874163e-06
C0G890,伸港,2026-02-09,24.148933,120.484403,0.42731595
C2E540,龍溪,2026-02-09,24.606489,120.783933,3.0162815e-07
C1V200,梅山,2026-02-09,23.268447,120.823556,1.9485675e-09
C0T9H0,加路蘭山,2026-02-09,23.682947,121.5274,2.633096e-08
C2O930,玉井,2026-02-09,23.126042,120.46055,9.0564095e-10
C1F911,新伯公,2026-02-09,24.221361,120.841069,6.284584e-09
C0R490,九如,2026-02-09,22.7405,120.490503,7.144822e-09
C0X200,左鎮,2026-02-09,23.056758,120.408522,1.1487135e-09
C2TB50,麻汝,2026-02-09,23.42554,121.39358,3.1462985e-08
C0FA60,鞍馬山工作站,2026-02-09,24.267064,121.000793,2.2847258e-08
C0SB50,叭嗡嗡,2026-02-09,23.047062,121.343223,6.020885e-06
C1F891,稍來,2026-02-09,24.265689,121.001142,2.2277217e-08
C2M9C0,紫雲,2026-02-09,23.494914,120.540253,5.443636e-10
72N240,七股研究中心,2026-02-09,23.081672,120.062894,1.2937762e-05
C0C700,中壢,2026-02-09,24.977661,121.256375,1.0285061e-06
C0M690,水上,2026-02-09,23.419734,120.388909,7.457148e-10
C0V690,鼓山,2026-02-09,22.623325,120.275575,5.0977337e-06
C0O860,大內,2026-02-09,23.11885,120.36083,3.109017e-06
C0Z200,萬榮,2026-02-09,23.709219,121.420106,3.7213933e-08
C0T9D0,和中,2026-02-09,24.26676,121.74103,8.0869705e-07
C2S9A0,北份子寮,2026-02-09,22.78561,121.07813,0.0008569717
C1O921,楠西,2026-02-09,23.183511,120.484083,7.9897083e-10
C0AJ30,淡水觀海,2026-02-09,25.184591,121.408616,7.706772e-05
C0V810,左營,2026-02-09,22.67491,120.28491,4.3229993e-06
C0UA70,桃源谷,2026-02-09,24.962606,121.888875,5.0314636e-08
C0X130,官田,2026-02-09,23.193217,120.315422,7.739779e-06
C1H000,翠峰,2026-02-09,24.109397,121.205211,2.1785334e-08
C0UA90,石城,2026-02-09,24.980444,121.951214,1.5621562e-07
C1E681,南勢山,2026-02-09,24.421669,120.923831,8.291713e-09
C0A9F0,內湖,2026-02-09,25.079422,121.57545,1.303909e-07
C0K291,宜梧,2026-02-09,23.536281,120.169329,3.2429011e-06
C1K540,口湖,2026-02-09,23.585344,120.180517,3.2429011e-06
C0R780,滿州,2026-02-09,22.024403,120.839892,0.9995797
C0V870,文安,2026-02-09,22.8025,120.2164,5.0977337e-06
C0U650,玉蘭,2026-02-09,24.675286,121.587061,1.905046e-08
C0R640,東港,2026-02-09,22.46247,120.44074,1.0538964e-07
C0AJ80,板橋,2026-02-09,25.0107,121.4489,1.303909e-07
C0S660,下馬,2026-02-09,23.150427,121.070312,2.5068454e-08
C2N190,烏樹,2026-02-09,23.32393,120.36989,7.739779e-06
C1H9B1,阿眉,2026-02-09,24.1263,120.994672,1.1684538e-08
C0UA20,多加屯,2026-02-09,24.368614,121.373189,3.2006156e-08
C0E730,頭份,2026-02-09,24.688247,120.912206,9.098994e-08
72V140,高改旗南分場,2026-02-09,22.857861,120.516667,5.5803997e-09
C0K480,莿桐,2026-02-09,23.761192,120.502372,7.470644e-10
C0U980,坪林石牌,2026-02-09,24.86478,121.77396,2.4090124e-08
C0T900,西林,2026-02-09,23.8119,121.441458,3.4423497e-08
C1I150,青雲,2026-02-09,23.793361,120.949378,6.950336e-10
C2E980,和興,2026-02-09,24.505319,120.923016,6.050469e-09
467350,澎湖,2026-02-09,23.565503,119.563094,0.99898237
C0G800,埔鹽,2026-02-09,24.000394,120.431683,1.7240563e-05
C0H960,草屯,2026-02-09,23.973672,120.68085,1.4608696e-08
C1V780,多納林道,2026-02-09,22.888028,120.737917,2.8181228e-09
C0E920,通霄漁港,2026-02-09,24.498589,120.673876,3.8925518e-07
C0Z330,安通山,2026-02-09,23.290728,121.348528,3.0241615e-08
C0AH10,永和,2026-02-09,25.01125,121.508111,1.303909e-07
C0AK10,太平里,2026-02-09,25.134937,121.364899,5.6098874e-05
C2G640,鹿港,2026-02-09,24.0753,120.430481,2.0967995e-05
C1E890,國三N149K,2026-02-09,24.463414,120.680019,1.594353e-07
C1R110,口社,2026-02-09,22.770111,120.645222,2.3357045e-09
C1M870,國三N285K,2026-02-09,23.550319,120.505833,5.205055e-10
C1E480,鳳美,2026-02-09,24.554803,121.034747,5.8758256e-09
C0T9M0,靜浦,2026-02-09,23.455167,121.495028,4.303327e-08
C2H9M0,發祥,2026-02-09,24.154094,121.164517,7.2602995e-09
C2G9C0,埔南,2026-02-09,23.99124,120.46969,1.7240563e-05
C0AI40,石牌,2026-02-09,25.115597,121.513139,1.303909e-07
C1F871,上谷關,2026-02-09,24.203483,121.018644,5.3330673e-09
C2H9G0,百勝,2026-02-09,24.051142,120.909361,1.5253433e-09
C0G880,二水,2026-02-09,23.810742,120.6173,6.567844e-10
C0R940,加祿堂,2026-02-09,22.3363,120.6217,8.824836e-08
C0W220,北竿,2026-02-09,26.220358,119.974881,3.9744727e-06
C0O960,崎頂,2026-02-09,22.959547,120.369317,2.2396961e-07
C0TA40,秀林,2026-02-09,24.302864,121.731144,2.8641034e-08
C0S750,向陽,2026-02-09,23.248397,120.986133,2.5864065e-08
C0T9F0,水璉,2026-02-09,23.797131,121.542514,3.0323925e-08
C1M600,頭凍,2026-02-09,23.406364,120.603339,1.2888803e-09
467660,臺東,2026-02-09,22.752211,121.154586,0.99800867
C1D380,新埔,2026-02-09,24.84745,121.03834,5.653273e-08
C2G980,田頭村,2026-02-09,23.8263,120.444175,8.032308e-10
C0V750,路竹,2026-02-09,22.854997,120.259439,2.8055963e-06
C0N050,蚵寮,2026-02-09,23.301,120.1104,2.1310436e-05
C2X060,下營,2026-02-09,23.226806,120.256291,1.6627399e-05
72M700,南改鹿草分場,2026-02-09,23.416869,120.283061,2.6319647e-06
C1SA50,利嘉林道,2026-02-09,22.82325,121.009389,1.8843426e-08
C0UB70,太平山中間站,2026-02-09,24.542003,121.513453,1.4467665e-08
C0A940,金山,2026-02-09,25.223628,121.643967,4.1476877e-05
C1V340,大津,2026-02-09,22.888322,120.645986,1.7808698e-09
C0W180,七美,2026-02-09,23.219333,119.444892,0.9992752
C1F9C1,白冷,2026-02-09,24.182844,120.929889,4.12378e-09
K2E710,苗改生物防治研究中心,2026-02-09,24.422861,120.871833,3.244031e-08
C0N040,蘆竹溝,2026-02-09,23.2344,120.0961,2.1310436e-05
C0TB40,崇德,2026-02-09,24.166144,121.657414,8.0869705e-07
C0D760,大坪苗圃,2026-02-09,24.5362,121.1108,1.3368005e-08
C2W230,畜試所澎湖,2026-02-09,23.628342,119.513206,0.99886554
C0R880,後壁湖,2026-02-09,21.9457,120.7457,0.9979491
C1I280,埔中,2026-02-09,23.820778,120.642594,6.8309364e-10
467790,墾丁雷達站,2026-02-09,21.948235,120.808028,0.999699
C0W190,望安,2026-02-09,23.380564,119.494075,0.9989112
C0Z170,卓溪,2026-02-09,23.3443,121.3029,5.9927814e-08
C0F850,東勢,2026-02-09,24.246428,120.833047,6.7037127e-09
466900,淡水,2026-02-09,25.164889,121.448906,5.6098874e-05
C0I370,魚池,2026-02-09,23.895703,120.94135,1.660539e-09
C0C630,大溪,2026-02-09,24.882853,121.265547,5.7730756e-07
C0A520,山佳,2026-02-09,24.974944,121.402008,1.2276236e-07
C0I110,竹山,2026-02-09,23.761225,120.688156,7.340388e-10
82H840,茶改南部分場,2026-02-09,23.762528,120.7405,6.599199e-10
C2SD80,再來山,2026-02-09,23.34371,121.44122,0.9774831
C0G660,溪湖,2026-02-09,23.94835,120.479122,1.1470168e-05
C1T800,洛韶,2026-02-09,24.204558,121.453956,1.7874966e-08
C1T810,慈恩,2026-02-09,24.192044,121.388386,3.081838e-08
C1E451,象鼻,2026-02-09,24.368617,120.940228,5.043039e-09
C0AC60,三峽,2026-02-09,24.939025,121.369728,2.9301536e-06
C0I490,萬大林道,2026-02-09,23.928228,121.091411,7.261103e-09
C1I290,豐丘,2026-02-09,23.668178,120.887417,4.4802073e-09
C1I320,奧萬大,2026-02-09,23.952956,121.178556,5.159481e-09
C2M910,嘉義大學,2026-02-09,23.471325,120.485903,6.3732686e-10
C0U770,南澳,2026-02-09,24.44935,121.81022,8.373278e-08
C2TB30,吉安,2026-02-09,23.94538,121.54803,4.264865e-08
C0A980,社子,2026-02-09,25.109508,121.469681,1.3917924e-07
C0V800,六龜,2026-02-09,22.997889,120.633583,5.354336e-10
C1G9D0,國一S218K,2026-02-09,23.890641,120.493253,9.545565e-06
C0E570,白沙屯,2026-02-09,24.549447,120.696803,3.8925518e-07
C2F9A0,中竹林,2026-02-09,24.103556,120.751061,1.7279327e-09
C0FA40,臺中電廠,2026-02-09,24.2146,120.4907,0.42731595
C2G9A0,畜試所彰化,2026-02-09,23.86045,120.557964,7.470644e-10
C0H9C0,合歡山,2026-02-09,24.143442,121.272547,4.8530286e-08
G2M350,農試溪口農場,2026-02-09,23.58565,120.408111,7.9733276e-10
C0U860,頭城,2026-02-09,24.85323,121.8308,3.6070013e-08
C0R580,南州,2026-02-09,22.48591,120.50274,1.0538964e-07
C0D430,峨眉,2026-02-09,24.6905,121.017189,5.653273e-08
C0G780,秀水,2026-02-09,24.03405,120.503869,1.1470157e-05
72N100,臺南農改場,2026-02-09,23.0605,120.342194,2.7463086e-06
C0S900,蘭嶼高中,2026-02-09,22.04909,121.51214,0.98950994
C2TA60,六十石,2026-02-09,23.22477,121.31861,2.4993879e-08
C1F9W0,德基,2026-02-09,24.254783,121.190261,1.8237706e-08
C2M980,安和,2026-02-09,23.51377,120.31593,1.9595448e-06
C1Z120,壽豐,2026-02-09,23.870853,121.508081,4.677494e-08
C0W160,烏坵,2026-02-09,24.9944,119.44956,0.88737285
C1I240,外大坪,2026-02-09,23.958697,120.917931,1.7840112e-09
C1I550,國六W023K,2026-02-09,23.979067,120.867742,1.8690145e-09
C0R870,興海,2026-02-09,21.9752,120.8439,0.9990705
C0R140,瑪家,2026-02-09,22.682903,120.686639,1.2846467e-09
C0A530,坪林,2026-02-09,24.938183,121.70975,6.946009e-08
C0X260,後壁,2026-02-09,23.366358,120.362326,7.739779e-06
C0Z230,和平,2026-02-09,24.30717,121.77007,8.373278e-08
C0G770,福興,2026-02-09,24.041289,120.437669,1.7240563e-05
C0H9A0,神木村,2026-02-09,23.532742,120.843667,6.6764314e-09
C0I460,南投,2026-02-09,23.911469,120.687331,1.5475484e-08
C0I480,梅峰,2026-02-09,24.085272,121.173572,1.6490134e-08
C1V570,吉東,2026-02-09,22.85422,120.5454,4.4893858e-09
C2A560,福山,2026-02-09,24.776203,121.502811,1.9128672e-08
C0AH30,五分山,2026-02-09,25.07125,121.780794,4.4927027e-08
C0FA10,松柏,2026-02-09,24.429115,120.617482,3.8925518e-07
72S200,東改班鳩分場,2026-02-09,22.829528,121.077694,3.1698585e-06
72HA00,中改埔里分場,2026-02-09,23.903208,120.963364,1.6362702e-09
C2H9W0,大坪頂農水,2026-02-09,24.043122,120.932781,1.7840112e-09
C0C650,平鎮,2026-02-09,24.897503,121.214636,5.0853004e-07
C0S930,延平,2026-02-09,22.902581,121.084058,1.6901313e-07
C0UA60,樟樹山,2026-02-09,24.41393,121.78325,2.8933634e-08
C2UC10,出水溪,2026-02-09,24.615822,121.652253,2.8933634e-08
C1S670,摩天,2026-02-09,23.199503,121.027,1.3117624e-08
C2C590,觀音,2026-02-09,25.027072,121.153317,1.8978272e-06
C0V630,茄萣,2026-02-09,22.906642,120.182608,1.1037354e-05
466940,基隆,2026-02-09,25.133314,121.740475,1.7469928e-07
C0X050,東河,2026-02-09,23.296598,120.385608,1.0845121e-09
C0R770,保力,2026-02-09,22.071122,120.764111,0.9998601
G2L020,農試嘉義分所,2026-02-09,23.485028,120.473806,6.054103e-10
C0X240,關子嶺,2026-02-09,23.331169,120.508025,5.0474147e-10
C0I380,集集,2026-02-09,23.828206,120.801467,6.49581e-10
466990,花蓮,2026-02-09,23.975128,121.613275,7.74251e-08
C1V220,小關山,2026-02-09,23.154217,120.813603,9.25468e-09
C1F9G1,慶福山,2026-02-09,24.180853,120.848378,5.6034377e-09
C0FB20,雪山橋,2026-02-09,24.23192,120.9786,1.77602e-08
C0Z250,瑞穗林道,2026-02-09,23.49284,121.30688,1.8476777e-08
C0D590,新豐,2026-02-09,24.87068,120.97721,4.630271e-08
C0A870,五指山,2026-02-09,25.132153,121.608692,2.3166214e-07
C0UA50,西帽山,2026-02-09,24.555361,121.802628,2.8111934e-08
C2R980,竹田國中,2026-02-09,22.61532,120.52412,7.055083e-08
C0X160,仁德,2026-02-09,22.968258,120.257689,6.0738216e-06
C1H971,六分寮,2026-02-09,23.92507,120.6378,1.6767675e-09
C0W120,西嶼,2026-02-09,23.5626,119.468436,0.99898237
C0G650,員林,2026-02-09,23.946503,120.585597,6.5316985e-06
C0AD50,鶯歌,2026-02-09,24.951533,121.346294,2.1858502e-06
C2H9Q0,北東眼山,2026-02-09,24.120939,121.189303,1.4176366e-08
C2H9T0,名間竹圍,2026-02-09,23.859914,120.637572,6.343193e-10
C0S990,山豬窟,2026-02-09,22.318619,120.857372,7.476849e-09
C0X190,安平,2026-02-09,22.993161,120.152181,1.1037354e-05
C0K400,斗六,2026-02-09,23.720583,120.541127,7.176231e-10
12J990,口湖工作站,2026-02-09,23.589978,120.180394,2.6319647e-06
C0O830,北寮,2026-02-09,23.079561,120.495008,8.0354495e-10
C1D410,白蘭,2026-02-09,24.579364,121.079947,1.2338225e-08
C0S970,加津林,2026-02-09,22.416211,120.926942,0.99955654
C0D700,關西,2026-02-09,24.7977,121.1732,1.3532267e-08
C0U750,龜山島,2026-02-09,24.841667,121.953133,2.491425e-08
C0R810,內獅,2026-02-09,22.305064,120.642986,8.824836e-08
C1M390,龍美,2026-02-09,23.406728,120.654417,3.1261498e-09
C2K290,崙內,2026-02-09,23.69525,120.35601,6.615319e-05
C2FB60,頭櫃山,2026-02-09,24.129842,120.858925,3.2160532e-09
C1H840,國三N238K,2026-02-09,23.841008,120.707711,6.49581e-10
CAQ030,崎峰國小,2026-02-09,22.42565,120.49521,1.0538964e-07
C2E520,大湖,2026-02-09,24.414939,120.870872,2.8911678e-08
467530,阿里山,2026-02-09,23.508208,120.813242,2.6640478e-08
C1E691,南湖,2026-02-09,24.40135,120.837533,1.5756049e-08
C0FA30,梧棲,2026-02-09,24.256003,120.523381,0.36915404
C1V231,高中,2026-02-09,23.134911,120.716711,1.6012405e-09
C0AK30,硬漢嶺,2026-02-09,25.136097,121.426372,3.161232e-07
C0F9V0,新社,2026-02-09,24.200172,120.815806,5.5085105e-09
C0H890,埔里,2026-02-09,23.972169,120.952425,1.5436709e-09
C0R690,墾丁,2026-02-09,21.966756,120.810269,0.9999911
C0SD20,富山,2026-02-09,22.822383,121.190825,6.020885e-06
C0F0D0,審馬陣,2026-02-09,24.381675,121.4203,5.4400395e-08
C2W030,金門農試所,2026-02-09,24.448431,118.451786,1.2611865e-05
C0R820,白鷺,2026-02-09,22.454275,120.666219,6.258626e-09
C0FB00,大雪山,2026-02-09,24.254668,121.007374,2.3134968e-08
C1V190,南天池,2026-02-09,23.27403,120.91176,2.90281e-08
C0E940,雪見,2026-02-09,24.42595,121.01347,1.9166471e-08
K2E360,苗栗農改場,2026-02-09,24.495722,120.829111,9.7614226e-08
CAJ050,海口故事園區,2026-02-09,23.57543,120.14121,3.2429011e-06
C2K280,四湖,2026-02-09,23.6304,120.22717,8.5920154e-05
C2H9D0,三隻寮,2026-02-09,24.093078,120.861578,1.880464e-09
C0O990,媽廟,2026-02-09,22.99175,120.293525,3.109017e-06
C0D480,打鐵坑,2026-02-09,24.849664,121.150789,1.2298283e-08
C0Z220,和平林道,2026-02-09,24.343922,121.656317,2.8951906e-08
C0TA10,花蓮漁港,2026-02-09,23.995322,121.638331,0.060520053
72C440,桃園農改場,2026-02-09,24.950944,121.030583,8.084066e-08
C1E711,馬拉邦山,2026-02-09,24.367306,120.901656,5.245271e-09
C0SB20,富岡,2026-02-09,22.792467,121.192669,0.9968598
C0D560,竹東,2026-02-09,24.767147,121.057881,4.630271e-08
C0F9U0,南屯,2026-02-09,24.137006,120.637969,8.470671e-08
C2SD60,明峰,2026-02-09,22.8671,121.11825,1.158096e-07
C0M720,番路,2026-02-09,23.464657,120.554156,4.464875e-10
C0F0A0,雪山圈谷,2026-02-09,24.388594,121.236339,5.6664216e-08
C1A9N0,四十份,2026-02-09,24.934158,121.593283,5.1187754e-08
C0U760,東澳,2026-02-09,24.52196,121.83318,7.804292e-08
C0X230,鹽水,2026-02-09,23.272621,120.247641,1.6627399e-05
C2H9H0,苗改南投蜂場,2026-02-09,23.852589,120.693481,7.340388e-10
C2TB70,達谷寮,2026-02-09,23.38,121.35968,6.987454e-08
C0R950,萬隆國小,2026-02-09,22.507667,120.587817,4.2448605e-08
467540,大武,2026-02-09,22.35572,120.90374,0.9999779
C0V370,古亭坑,2026-02-09,22.893178,120.401947,1.0280555e-09
C1I340,新興橋,2026-02-09,23.563333,120.868728,2.118986e-09
C0SA80,土坂,2026-02-09,22.453108,120.887572,0.7966854
C0R160,鹽埔,2026-02-09,22.739558,120.530778,5.9305574e-09
C0AC40,大屯山,2026-02-09,25.175675,121.522408,1.1856386e-07
466850,五分山雷達站,2026-02-09,25.071182,121.781205,4.48003e-08
C2H9L0,馬烈霸,2026-02-09,24.1512,121.201772,1.8751392e-08
C1AI50,國三N016K,2026-02-09,25.034164,121.619664,1.15968746e-07
C2V920,匏子寮,2026-02-09,23.04905,120.55319,5.8702443e-10
C1V600,藤枝,2026-02-09,23.071961,120.757042,6.1563323e-09
C1E601,南勢,2026-02-09,24.572486,120.734842,9.5254656e-08
C0O980,新市,2026-02-09,23.061614,120.298197,6.0738216e-06
C0K420,西螺,2026-02-09,23.800407,120.467394,7.567188e-10
C0Z050,佳心,2026-02-09,23.34567,121.21316,2.4927703e-08
C0AD30,蘆洲,2026-02-09,25.086594,121.472331,1.3576714e-07
C0V610,梓官,2026-02-09,22.760558,120.267211,5.0977337e-06
K2F750,種苗改良場,2026-02-09,24.225972,120.800917,5.7400844e-09
C0UA80,大溪漁港,2026-02-09,24.941801,121.902955,1.6159707e-07
C1AI60,國一39K邊坡,2026-02-09,25.064361,121.383836,7.4233235e-08
C0W150,金寧,2026-02-09,24.457703,118.328989,2.6362066e-08
C0R960,內埔,2026-02-09,22.608483,120.570714,7.055083e-08
V2C250,八德合作社,2026-02-09,24.93775,121.266389,8.801149e-07
C2H9S0,龍南,2026-02-09,23.953536,120.833183,2.7396256e-09
C0AH40,平等,2026-02-09,25.129142,121.577086,6.5121475e-07
C0R540,佳冬,2026-02-09,22.419456,120.552375,1.0538964e-07
466950,彭佳嶼,2026-02-09,25.627975,122.079744,0.8675415
C0A890,雙溪,2026-02-09,25.036003,121.864242,1.405027e-07
C0C480,桃園,2026-02-09,24.992425,121.323172,1.2901214e-06
C0AH50,林口,2026-02-09,25.072181,121.38084,6.6376565e-08
A2K360,水試臺西試驗場,2026-02-09,23.717231,120.190522,0.00010819937
C2M960,外寮,2026-02-09,23.562643,120.665688,2.8559086e-09
C0F9S0,烏日,2026-02-09,24.107058,120.624103,6.5316985e-06
C2N180,鹿陶洋,2026-02-09,23.14325,120.48352,7.9897083e-10
C0C490,八德,2026-02-09,24.928708,121.283289,7.9237503e-07
C0R190,赤山,2026-02-09,22.592333,120.614306,6.0075216e-08
C0T820,天祥,2026-02-09,24.179597,121.495639,2.991062e-08
C1F9E1,龍安,2026-02-09,24.1605,120.831961,5.419986e-09
C2SD50,順那,2026-02-09,23.04166,121.29332,4.4807905e-07
C0V820,小林,2026-02-09,23.148408,120.63325,5.170068e-10
C2G870,芳苑,2026-02-09,23.922303,120.320025,9.243603e-05
C0E850,大河,2026-02-09,24.618069,120.948578,5.9407835e-08
C1U670,寒溪,2026-02-09,24.634,121.71691,3.162278e-08
C0N020,城西,2026-02-09,23.0568,120.0956,1.1037354e-05
C1Z110,三棧,2026-02-09,24.11557,121.60501,2.7766621e-08
C0R280,檳榔,2026-02-09,22.076078,120.836777,0.9999907
C2H9J0,中台,2026-02-09,23.9996,120.938739,1.5292176e-09
C0F9L0,后里,2026-02-09,24.310436,120.729725,1.1176931e-08
467441,高雄,2026-02-09,22.730432,120.312516,4.3229993e-06
C0Z180,新城,2026-02-09,24.040486,121.604878,7.492142e-08
C0D540,橫山,2026-02-09,24.71116,121.11693,3.3788673e-08
C1D420,太閣南,2026-02-09,24.632808,121.160575,1.6678214e-08
C1E770,公館,2026-02-09,24.526914,120.830806,1.3368305e-07
CAN130,水試所海水繁養殖中心,2026-02-09,23.120802,120.07968,1.1037354e-05
C1I430,翠華,2026-02-09,24.191961,121.224339,2.623451e-08
C1M400,菜瓜坪,2026-02-09,23.251928,120.576103,5.1197274e-10
C0G730,二林,2026-02-09,23.903325,120.376081,1.1470168e-05
72M360,南改義竹分場,2026-02-09,23.360694,120.279361,9.53172e-06
V2K620,麥寮合作社,2026-02-09,23.753836,120.294783,8.5920154e-05
C0Z070,舞鶴,2026-02-09,23.46811,121.37407,3.201776e-08
C0B040,大武崙,2026-02-09,25.166676,121.706993,1.5033514e-07
C1Z030,紅葉,2026-02-09,23.493119,121.338806,3.3584097e-08
C1I050,丹大,2026-02-09,23.753747,121.141147,2.815583e-08
C0I080,信義,2026-02-09,23.689694,120.851036,7.687556e-10
C2TB80,庄子底,2026-02-09,23.71794,121.49438,4.1427025e-08
C0D750,樂山林道6k,2026-02-09,24.49999,121.08773,2.7180478e-08
C2M920,朴子農改,2026-02-09,23.469889,120.259383,2.6319647e-06
C2A880,福隆,2026-02-09,25.017842,121.942083,1.6159707e-07
C0Z160,鳳林,2026-02-09,23.746114,121.453411,3.9970363e-08
C0UB80,翠峰林道6K,2026-02-09,24.49773,121.568625,3.0042525e-08
C0V210,復興,2026-02-09,23.222403,120.806089,1.6324329e-09
C0H990,昆陽,2026-02-09,24.121322,121.273642,3.579812e-08
C0R741,獅子,2026-02-09,22.202308,120.705236,0.040370572
C0S710,鹿野,2026-02-09,22.917711,121.122994,7.1872925e-08
C0I530,小奇萊,2026-02-09,24.131764,121.295717,4.251294e-08
C0FA70,大雪山埡口,2026-02-09,24.26867,121.03062,2.9890376e-08
C2K630,荷苞,2026-02-09,23.657717,120.595144,5.713168e-10
C0Z080,富源,2026-02-09,23.587642,121.378225,2.9337635e-08
C2M9E0,旺來山,2026-02-09,23.555153,120.486463,5.183655e-10
C0SB10,美和,2026-02-09,22.682078,121.060236,0.5811381
C2K620,馬光農場,2026-02-09,23.721453,120.378864,8.032308e-10
C1I140,卡奈托灣,2026-02-09,23.754364,121.087872,9.837998e-09
C0I520,玉山風口,2026-02-09,23.470489,120.955994,6.208396e-08
C1G691,下水埔,2026-02-09,23.816114,120.5676,7.097863e-10
C0X110,臺南市南區,2026-02-09,22.961189,120.188378,6.0738216e-06
C0V680,仁武,2026-02-09,22.701083,120.347722,2.8055963e-06
C2G840,北斗,2026-02-09,23.877586,120.514222,6.5316985e-06
C2TB90,長橋,2026-02-09,23.6874,121.46186,3.9673306e-08
C0R900,竹坑,2026-02-09,22.1385,120.7022,0.4494815
C0G860,社頭,2026-02-09,23.897647,120.5862,5.498328e-06
C0X150,安定,2026-02-09,23.102614,120.227839,1.1037354e-05
C0R590,里港,2026-02-09,22.77919,120.49459,5.9305574e-09
C0E610,馬都安,2026-02-09,24.451272,120.930192,7.3019346e-09
C0E550,明德,2026-02-09,24.583486,120.885411,1.5419877e-07
C0R150,三地門,2026-02-09,22.709889,120.639944,2.6276012e-09
C0G910,花壇,2026-02-09,24.032076,120.549461,9.545565e-06
C1D400,鳥嘴山,2026-02-09,24.71909,121.28387,1.3115647e-08
C0K500,元長,2026-02-09,23.64981,120.315024,8.5920154e-05
C0F0B0,石岡,2026-02-09,24.276061,120.777644,8.495407e-09
C2V250,甲仙,2026-02-09,23.080106,120.591758,5.21195e-10
C0SA20,金崙山,2026-02-09,22.567419,120.959667,4.1447414e-08
C0V350,溪埔,2026-02-09,22.738578,120.446797,7.144822e-09
C0M660,溪口,2026-02-09,23.604131,120.403569,7.9733276e-10
C1S880,壽卡,2026-02-09,22.238911,120.858903,6.6113093e-09
72D680,桃改新埔分場,2026-02-09,24.834444,121.066111,6.1970624e-08
