站號,站名,日期,lat,lon,BLBTSLS
C0R710,龍磐,2026-03-24,21.931672,120.838942,0.99949694
C1F9D1,白毛台,2026-03-24,24.158325,120.886933,3.191892e-08
C0G940,竹塘,2026-03-24,23.848253,120.386764,0.08210349
467590,恆春,2026-03-24,22.003897,120.746339,0.99972075
C1O850,環湖,2026-03-24,23.148617,120.418633,0.007767362
C0U710,太平山,2026-03-24,24.505486,121.525656,1.1750827e-08
C0E820,獅潭,2026-03-24,24.539133,120.920042,1.5109615e-08
C2SD70,二層坪,2026-03-24,22.94105,121.16838,0.035481263
C0V880,興達,2026-03-24,22.8778,120.2127,0.998919
C0S890,關山,2026-03-24,23.0395,121.175017,0.010905974
C0SB30,新蘭,2026-03-24,22.869214,121.223228,0.9522587
C2R970,屏科大,2026-03-24,22.648275,120.619247,0.9365009
C1Z130,銅門,2026-03-24,23.965694,121.492842,2.704425e-07
C0AD40,土城,2026-03-24,24.973208,121.445169,1.2535703e-08
CAN140,六官養殖協會,2026-03-24,23.22881,120.29962,0.99357754
C0X180,山上,2026-03-24,23.0757,120.363253,0.99753565
C0F9Z0,雪山東峰,2026-03-24,24.388792,121.268675,2.4998839e-08
C1M480,獨立山,2026-03-24,23.537022,120.607797,4.55711e-09
C0X220,學甲,2026-03-24,23.230367,120.182187,0.99488384
467650,日月潭,2026-03-24,23.881325,120.90805,8.2786284e-09
A2K570,古坑(花卉中心),2026-03-24,23.633531,120.552392,0.013654818
C0K600,箔子寮,2026-03-24,23.6197,120.14,0.98199683
C0G830,埤頭,2026-03-24,23.866003,120.452806,0.072091036
C0S950,七塊厝,2026-03-24,22.954453,121.229922,1.8499662e-06
467110,金門,2026-03-24,24.407306,118.289281,3.047501e-09
C0AH80,深坑,2026-03-24,25.002703,121.628328,0.9876655
C0A970,三貂角,2026-03-24,25.007606,122.002058,0.99970263
C2D730,寶山農場,2026-03-24,24.732444,120.976153,9.757104e-08
C0K430,褒忠,2026-03-24,23.690938,120.303634,6.814946e-09
467480,嘉義,2026-03-24,23.495925,120.432906,0.0037653942
C0V400,阿公店,2026-03-24,22.804194,120.355528,0.99913085
C0E960,觀霧分站,2026-03-24,24.505781,121.113921,1.591152e-08
467550,玉山,2026-03-24,23.48718,120.95943,3.0547653e-08
C0R440,大漢山,2026-03-24,22.405264,120.753181,1.0457304e-08
C0SD30,東清國小,2026-03-24,22.057128,121.564922,0.99999106
C1F9B1,桐林,2026-03-24,24.066172,120.735194,0.76251423
C2H9U0,鳳鵬,2026-03-24,23.763919,120.788061,0.001970554
C0K390,土庫,2026-03-24,23.679029,120.395574,0.10465047
C1I450,望鄉山,2026-03-24,23.594153,120.944286,1.817104e-08
C0E910,海埔,2026-03-24,24.648767,120.772435,1.8446408e-06
B2E890,畜試北區分所,2026-03-24,24.527806,120.770972,8.172216e-08
C0R750,四林格山,2026-03-24,22.076989,120.802439,0.9999173
C0F0C0,中坑,2026-03-24,24.248517,120.903319,8.703993e-08
C1I121,大鞍,2026-03-24,23.678381,120.760017,6.2932446e-09
C2G9E0,移民庄,2026-03-24,23.9784,120.40283,0.04024797
72U480,花改蘭陽分場,2026-03-24,24.686306,121.716583,7.546238e-08
C0A770,科教館,2026-03-24,25.096356,121.516507,7.724172e-09
C0AJ60,六塊厝,2026-03-24,25.24,121.4481,0.9934781
C0R620,墾雷,2026-03-24,21.900836,120.855269,0.9996235
467420,永康,2026-03-24,23.038386,120.2367,0.998739
C2M530,奮起湖,2026-03-24,23.493903,120.699253,5.4685523e-09
C0I410,名間,2026-03-24,23.837053,120.701447,0.026684286
A2C560,農工中心,2026-03-24,24.985917,121.239833,1.623221e-05
C0V740,旗山,2026-03-24,22.888614,120.483597,0.30723864
C0Z061,玉里,2026-03-24,23.3215,121.339656,9.8777e-07
C0S840,南田,2026-03-24,22.279725,120.889208,0.95294243
C1I470,杉林溪,2026-03-24,23.639517,120.786444,6.5578583e-09
C1X040,東原,2026-03-24,23.291597,120.463822,5.3753196e-05
C0R660,枋寮,2026-03-24,22.367722,120.590647,0.9989777
C1R120,上德文,2026-03-24,22.763272,120.704442,2.6919552e-06
C0K450,大埤,2026-03-24,23.646074,120.431537,0.10881179
C0UA00,土場,2026-03-24,24.576533,121.495333,3.248898e-08
467080,宜蘭,2026-03-24,24.763975,121.756528,7.680323e-08
C0N030,四草,2026-03-24,23.0235,120.1116,0.9990181
467410,臺南,2026-03-24,22.99328,120.20492,0.99890506
C0V650,彌陀,2026-03-24,22.783806,120.246361,0.9993492
C0D660,新竹市東區,2026-03-24,24.798681,120.986942,2.1371432e-07
82S580,茶改東部分場,2026-03-24,22.907694,121.130139,0.1984825
C0SB40,興隆,2026-03-24,22.913661,121.257469,0.9875222
467050,新屋,2026-03-24,25.006725,121.047492,0.009633852
C0C710,大溪永福,2026-03-24,24.892936,121.324975,1.3171287e-05
C0FA20,溫寮,2026-03-24,24.372177,120.583125,8.864055e-07
C0V640,湖內,2026-03-24,22.887139,120.2445,0.99887425
C0R910,下寮,2026-03-24,22.3929,120.5548,0.99932575
C0Z020,明里,2026-03-24,23.208717,121.262342,2.2056626e-07
C0M770,嘉義梅山,2026-03-24,23.585398,120.555587,2.4888972e-05
C0C660,楊梅,2026-03-24,24.912375,121.143047,8.0321915e-06
C0SD40,牛頭山,2026-03-24,22.676661,121.506944,0.9999672
C1E511,新開,2026-03-24,24.347703,120.827019,6.982721e-09
G2F820,農試所(霧峰),2026-03-24,24.031261,120.688133,0.91847736
C2M990,大巃頂,2026-03-24,23.5547,120.61439,3.5534424e-09
C1I070,和社,2026-03-24,23.591131,120.888861,1.5966242e-08
C2E990,新坪頂,2026-03-24,24.30201,120.8574,3.9477634e-09
C0TA80,立霧山,2026-03-24,24.183258,121.641899,1.47009365e-08
C2F000,大肚,2026-03-24,24.15295,120.572117,1.9570383e-08
C1S850,豐南,2026-03-24,23.122139,121.262389,3.1233657e-07
C2M9B0,西興,2026-03-24,23.2428,120.57617,8.60498e-09
C2A920,富貴角,2026-03-24,25.263783,121.565258,0.33882648
C0T960,光復,2026-03-24,23.660694,121.424964,0.010438193
C0F9M0,豐原,2026-03-24,24.254322,120.720692,2.190734e-08
C0R720,旭海,2026-03-24,22.205403,120.887614,0.9997615
C0V710,苓雅,2026-03-24,22.622742,120.330669,0.99941707
C0C740,觀音工業區,2026-03-24,25.064764,121.114856,0.16680466
CAC040,拉拉山,2026-03-24,24.699317,121.427133,9.843272e-09
C0V790,萬山,2026-03-24,22.905944,120.688056,0.0010333557
U2HA30,臺大和社,2026-03-24,23.590856,120.888864,1.5966242e-08
C2H9K0,屯原,2026-03-24,24.067969,121.209389,5.997913e-09
C0AJ90,澳底,2026-03-24,25.0552,121.9253,0.9984017
C0Z100,東華,2026-03-24,23.89525,121.549833,0.123684525
C0G970,三豐,2026-03-24,23.882,120.2895,1.075308e-07
C0V900,汕尾,2026-03-24,22.4782,120.4151,0.99934953
C1R630,龍泉,2026-03-24,22.66701,120.59091,0.9734801
C1AC50,關渡,2026-03-24,25.133486,121.469331,0.20751233
C0C800,四稜,2026-03-24,24.64733,121.4293,5.557573e-09
C0F9I0,神岡,2026-03-24,24.272481,120.658314,3.954382e-08
C0K460,斗南,2026-03-24,23.678734,120.478359,0.08614559
C2O810,曾文,2026-03-24,23.219681,120.497328,0.0007053101
467280,後龍,2026-03-24,24.648563,120.831834,5.755199e-07
C1F9J1,清水林,2026-03-24,24.071242,120.820419,5.4271887e-08
C2A650,火燒寮,2026-03-24,25.002719,121.742892,0.01115781
466930,竹子湖,2026-03-24,25.162078,121.544547,3.089144e-06
C1I220,樟湖,2026-03-24,23.905333,120.846983,1.0027253e-08
C0I390,仁愛,2026-03-24,24.022122,121.132206,7.605131e-09
C0Z300,東里,2026-03-24,23.26853,121.30547,6.53594e-07
C1V590,新發,2026-03-24,23.057019,120.646064,6.9289627e-09
C0K510,水林,2026-03-24,23.572924,120.24597,0.74796766
72S590,東改賓朗果園,2026-03-24,22.813889,121.071278,0.0005195816
82A750,茶改北部分場,2026-03-24,24.955778,121.631222,9.1707665e-07
C1A750,石碇服務區,2026-03-24,25.00872,121.646242,0.9891203
C0X300,鹿寮,2026-03-24,23.386047,120.477331,0.0005099022
C0K590,雲林東勢,2026-03-24,23.674192,120.255721,6.5295387e-09
C2K310,港尾布雞,2026-03-24,23.74834,120.38439,0.08482796
C0A570,桶後,2026-03-24,24.848222,121.597992,1.0961653e-07
C1S800,華源,2026-03-24,22.657883,121.02325,0.501371
C0G720,溪州,2026-03-24,23.851589,120.499093,0.056776214
C1V160,達卡努瓦,2026-03-24,23.279811,120.705319,4.3862927e-09
C2M410,馬頭山,2026-03-24,23.324361,120.582017,4.5595854e-07
C0V850,蚵仔寮,2026-03-24,22.7256,120.2527,0.9993493
C0S740,池上,2026-03-24,23.119628,121.209469,0.000454819
C1V390,尖山,2026-03-24,22.813153,120.367789,0.9989768
C0AH70,松山,2026-03-24,25.04871,121.55042,7.360777e-09
C0N010,鯤鯓國小,2026-03-24,23.1879,120.0889,0.99446625
C0R550,新埤,2026-03-24,22.467947,120.582894,0.99884444
C0SA60,知本（水試所）,2026-03-24,22.702394,121.082761,0.97455734
C0T9I0,豐濱,2026-03-24,23.583897,121.514806,0.98784596
C0UB00,淡江大學蘭陽校園,2026-03-24,24.823239,121.730383,1.1882133e-08
C0W240,九宮,2026-03-24,24.423753,118.240186,3.0759522e-09
C0T9N0,富里,2026-03-24,23.171639,121.249378,1.5802298e-07
U2HA50,臺大竹山,2026-03-24,23.756972,120.681556,0.054686483
C0V840,鳳鼻頭,2026-03-24,22.5083,120.3591,0.9993214
C0X140,西港,2026-03-24,23.125608,120.203108,0.9920829
72D080,桃改五峰分場,2026-03-24,24.612194,121.157167,1.1668169e-08
C2H9P0,伊拿谷,2026-03-24,23.963211,121.088264,1.0705823e-08
C2K250,崙背,2026-03-24,23.75553,120.31893,6.4247283e-09
C2H9F0,柑林,2026-03-24,24.018658,120.847072,0.0040275496
C0TA20,加灣,2026-03-24,24.082025,121.608944,1.44320775e-05
C0V530,阿蓮,2026-03-24,22.883208,120.327508,0.9982412
C0FB30,八仙山苗圃,2026-03-24,24.192719,121.001366,1.5419701e-07
C1O880,關山,2026-03-24,23.173397,120.594092,3.3688934e-07
C0E791,卓蘭,2026-03-24,24.3126,120.8244,6.3106493e-09
C1I030,武界,2026-03-24,23.913225,121.052483,1.3439333e-08
C0R520,崁頂,2026-03-24,22.514781,120.506914,0.9989784
C0R341,牡丹,2026-03-24,22.130036,120.792639,0.9996596
C0R930,萬丹,2026-03-24,22.5885,120.4851,0.99927896
C0S760,紅石,2026-03-24,23.069131,121.126219,8.389229e-09
C2C410,中央大學,2026-03-24,24.967652,121.185165,9.6059175e-06
C1M610,石磐龍,2026-03-24,23.496606,120.663506,7.974047e-09
C0C790,東眼山,2026-03-24,24.8284,121.40888,7.717678e-09
C0UA10,鴛鴦湖,2026-03-24,24.590269,121.412228,1.035566e-08
C0R800,丹路,2026-03-24,22.204481,120.750989,0.9987277
C0G920,永靖,2026-03-24,23.924703,120.547533,0.017322937
C2M950,太和,2026-03-24,23.538372,120.702961,5.481449e-09
C1A630,下盆,2026-03-24,24.771003,121.538622,6.089625e-09
B2N890,畜產試驗所,2026-03-24,23.058972,120.336406,0.9986039
C0UA30,白嶺,2026-03-24,24.527819,121.519031,7.1995414e-09
467571,新竹,2026-03-24,24.828575,121.01455,3.674823e-07
C1V580,溪南(特生中心),2026-03-24,23.084972,120.788475,4.774289e-09
C1T970,大農,2026-03-24,23.615233,121.413331,0.700949
C0R650,竹田,2026-03-24,22.58486,120.54344,0.9988481
C1H900,清流,2026-03-24,24.080775,120.962997,1.1558392e-08
C1C510,水尾,2026-03-24,24.940081,121.087161,0.00024005577
C2N170,茅港尾,2026-03-24,23.2061,120.2624,0.99357754
C0F9X0,大雅(中科園區),2026-03-24,24.21528,120.62445,9.4550515e-08
C0SB60,白守蓮,2026-03-24,23.126769,121.401914,0.54190934
C0O970,虎頭埤,2026-03-24,23.021375,120.347878,0.9973824
C0C730,中大臨海站,2026-03-24,24.966126,121.008581,9.547226e-07
C0X250,新營,2026-03-24,23.310689,120.316681,0.99315387
C0V700,三民,2026-03-24,22.645017,120.311233,0.9994321
C0U870,大礁溪,2026-03-24,24.791042,121.675047,1.183319e-08
C0E870,高鐵苗栗,2026-03-24,24.60725,120.826094,7.544733e-07
C0TA30,鹽寮,2026-03-24,23.845606,121.592664,0.2170102
C0M860,新美,2026-03-24,23.338017,120.683169,1.6137724e-08
C1E701,八卦,2026-03-24,24.491756,120.927619,1.4875219e-08
C2TA90,加納納,2026-03-24,23.466421,121.359867,0.2894206
C0I420,國姓,2026-03-24,24.037803,120.855072,0.002303401
C2D720,關西工作站,2026-03-24,24.757275,121.184792,9.244242e-06
C0S960,香蘭,2026-03-24,22.587569,120.993375,3.3734683e-05
467620,蘭嶼,2026-03-24,22.0369,121.55843,0.9999945
C0R260,春日,2026-03-24,22.370361,120.628306,0.99900794
72G600,臺中農改場,2026-03-24,24.003028,120.534389,0.023281507
C0Z210,瑞穗,2026-03-24,23.5239,121.39021,0.9278959
C0M820,達邦,2026-03-24,23.453994,120.749517,2.1234213e-08
C0V860,南寮,2026-03-24,22.7616,120.2339,0.9993493
C0G740,大城,2026-03-24,23.852487,120.320935,7.6647524e-08
C0R920,塭仔,2026-03-24,22.4169,120.5197,0.99935013
C0R470,高樹,2026-03-24,22.826389,120.600806,0.971173
C0R680,佳樂水,2026-03-24,21.993578,120.861633,0.9996382
C1O870,大棟山,2026-03-24,23.31157,120.52226,4.452198e-09
C0D360,梅花,2026-03-24,24.678347,121.208558,9.626263e-09
C0Z190,富世,2026-03-24,24.14743,121.6297,0.94430673
C0AI10,屈尺,2026-03-24,24.92184,121.54475,1.1268074e-08
B2U990,畜試東區分所,2026-03-24,24.669039,121.832561,9.0250346e-08
C0SB80,長濱漁港,2026-03-24,23.313644,121.459994,0.9876452
C0TA50,和仁,2026-03-24,24.241394,121.712472,0.99709207
C0V910,大樹,2026-03-24,22.684645,120.432803,0.9933678
C1R610,西大武山,2026-03-24,22.617719,120.7322,9.820357e-09
C0G900,線西,2026-03-24,24.143358,120.443536,0.041222762
C0M700,竹崎,2026-03-24,23.526178,120.555508,4.3591717e-05
C2E880,三義,2026-03-24,24.405478,120.749819,6.1408523e-09
C0C720,竹圍,2026-03-24,25.112692,121.239824,0.004101086
C0F9P0,清水,2026-03-24,24.312297,120.562242,0.00054777967
C0Z150,吉安光華,2026-03-24,23.930925,121.595153,0.18371652
C0FA80,小雪山天池,2026-03-24,24.28025,121.02627,2.3193198e-08
467300,東吉島,2026-03-24,23.25727,119.66762,0.99970907
C1D640,外坪(五指山),2026-03-24,24.644447,121.090961,8.664534e-09
C2R9A0,高士國小,2026-03-24,22.12553,120.84653,0.99942696
C0F9O0,潭子,2026-03-24,24.213106,120.703933,4.3511477e-08
C2H9R0,卓社,2026-03-24,23.887894,121.000086,8.5970076e-09
72T250,花蓮農改場,2026-03-24,23.975222,121.563889,0.10462989
C0E780,銅鑼,2026-03-24,24.489681,120.790853,2.7019055e-08
C1T950,太安,2026-03-24,23.666719,121.370128,6.781456e-08
C0E830,苑裡,2026-03-24,24.439714,120.653053,5.4078754e-07
467270,田中,2026-03-24,23.873803,120.581286,0.02797199
C0SA10,檳榔四格山,2026-03-24,22.810031,121.109308,1.2055744e-05
C1T830,布洛灣,2026-03-24,24.17184,121.57127,5.819137e-08
C0F970,大坑,2026-03-24,24.173142,120.722289,1.5647223e-07
C1U920,思源,2026-03-24,24.393125,121.347214,7.373986e-09
C2H9Y0,松茗,2026-03-24,23.8167,120.650765,0.00039994638
C0A931,三和,2026-03-24,25.233153,121.595236,0.034225482
C0I010,廬山,2026-03-24,24.033311,121.181808,4.1953565e-09
C2M940,日野賀,2026-03-24,23.434056,120.727169,8.007777e-09
C0R860,鼻頭,2026-03-24,22.1043,120.8979,0.9986414
C0UB20,壯圍,2026-03-24,24.7359,121.8163,8.5734314e-08
C0R790,九棚,2026-03-24,22.14195,120.889281,0.97979885
C0W110,東莒,2026-03-24,25.9652,119.98069,3.176136e-07
C1U930,粉鳥林,2026-03-24,24.497088,121.842479,0.9992258
C1I211,蘆竹湳,2026-03-24,23.934019,120.811994,6.418564e-07
C0S830,長濱,2026-03-24,23.286817,121.411975,0.15413685
C1F9F1,伯公龍,2026-03-24,24.272392,120.849047,4.2917345e-09
C0UB90,太平山莊,2026-03-24,24.494171,121.536209,1.192036e-08
C0E810,西湖,2026-03-24,24.562947,120.7485,1.0268928e-06
C1I440,新高口,2026-03-24,23.478744,120.878939,9.886058e-09
C0O840,王爺宮,2026-03-24,23.222064,120.40085,0.0008495864
C0T9G0,鳳林山,2026-03-24,23.735269,121.420131,4.9025324e-08
C0X080,佳里,2026-03-24,23.173039,120.145086,0.9944081
C0FB70,大甲溪埔,2026-03-24,24.370625,120.620067,3.098046e-07
C0Z310,清水斷崖,2026-03-24,24.218294,121.689142,0.9732306
C0M680,太保,2026-03-24,23.455062,120.331455,0.5745319
C1S820,金峰,2026-03-24,22.590969,120.933236,0.0025111123
C0AD10,八里,2026-03-24,25.150211,121.403947,0.986369
C2K240,草嶺,2026-03-24,23.59555,120.693461,9.125705e-09
C1SA70,都蘭,2026-03-24,22.87794,121.226881,0.94425756
C0K440,二崙,2026-03-24,23.772797,120.408944,0.074655235
C1A760,坪林交控,2026-03-24,24.94284,121.713442,0.04294235
C0F9N0,大里,2026-03-24,24.092464,120.701378,0.91897184
C0SA90,達仁林場,2026-03-24,22.264347,120.823972,0.99992794
C1R290,石門山,2026-03-24,22.112611,120.756597,0.99740964
42HA10,萬大發電廠,2026-03-24,23.978875,121.139639,7.897985e-09
C0R890,山海,2026-03-24,21.9878,120.7091,0.99973935
C0T9A0,月眉山,2026-03-24,23.809928,121.539828,1.1048005e-07
C0AC70,信義,2026-03-24,25.037822,121.564597,7.4050215e-09
C0K560,棋山,2026-03-24,23.68645,120.603417,0.007063982
C2FB50,出雲,2026-03-24,24.206469,120.902794,2.9800999e-08
C1Z240,中平林道,2026-03-24,23.42115,121.26763,8.762439e-09
U2H480,溪頭,2026-03-24,23.670306,120.798194,6.393641e-09
C0M880,好美里,2026-03-24,23.3364,120.138,0.9950387
C0T9E0,大坑,2026-03-24,23.880628,121.581981,3.563979e-08
C0K530,臺西,2026-03-24,23.701547,120.197559,1.01021005e-08
C1E900,國一N128K,2026-03-24,24.560997,120.844186,1.2318174e-07
C0AJ50,水湳洞,2026-03-24,25.123695,121.862238,0.9982479
C0AI20,白沙灣,2026-03-24,25.283128,121.519058,0.99512434
C2V310,美濃,2026-03-24,22.898792,120.51907,0.35445887
C0A860,大坪,2026-03-24,25.165914,121.632969,0.0017355673
C1U850,觀音海岸,2026-03-24,24.38319,121.77856,0.0005808856
C2K610,草嶺石壁,2026-03-24,23.602469,120.707731,8.390877e-09
C0U950,鶯子嶺,2026-03-24,24.89754,121.79244,2.2515922e-08
C0O900,善化,2026-03-24,23.112883,120.297219,0.99880177
C0K550,蔦松,2026-03-24,23.514319,120.229736,0.84689415
E2P980,林試六龜中心,2026-03-24,22.991703,120.645722,0.002878088
C0E590,通霄,2026-03-24,24.471892,120.704622,4.8182295e-07
C1I310,西巒,2026-03-24,23.754486,120.883956,1.2723377e-08
C0A550,泰平,2026-03-24,24.971197,121.823711,3.5901517e-06
C0I360,水里,2026-03-24,23.812553,120.849792,0.0053022923
C0R830,高士,2026-03-24,22.121825,120.836781,0.99899614
C1I101,溪頭,2026-03-24,23.661789,120.807647,7.2449446e-09
C0AJ20,野柳,2026-03-24,25.20703,121.690021,0.9843339
C0B060,暖暖,2026-03-24,25.0957,121.7403,0.9970883
C1H920,長豐,2026-03-24,24.102039,120.879897,1.9897577e-08
C2S9B0,利吉,2026-03-24,22.86246,121.15486,0.43674862
C0V360,內門,2026-03-24,22.975481,120.466769,0.104690164
C0R850,林邊,2026-03-24,22.4634,120.5339,0.99931765
C0E930,龍鳳,2026-03-24,24.700034,120.859125,4.929787e-07
C0U910,冬山,2026-03-24,24.63373,121.7937,9.0250346e-08
C1E721,泰安,2026-03-24,24.489017,120.968036,1.108086e-08
82H320,茶改中部分場,2026-03-24,23.875611,120.913583,1.0800971e-08
C0M750,布袋,2026-03-24,23.380878,120.167789,0.9164068
C1S860,利嘉,2026-03-24,22.809417,121.050528,1.2364451e-07
E2S980,林試太麻里1,2026-03-24,22.598922,120.980044,0.042072687
C0X170,關廟,2026-03-24,22.963017,120.327797,0.9977948
C0V720,林園,2026-03-24,22.507747,120.394511,0.9992951
C1I510,線浸林道,2026-03-24,23.761508,120.832956,7.732088e-09
C0D690,外湖,2026-03-24,24.917735,120.968711,5.882573e-06
C0C750,新興坑尾,2026-03-24,25.0061,121.0971,0.0009237186
B2Q810,畜試南區分所,2026-03-24,21.945583,120.802167,0.9996382
C0S790,金崙,2026-03-24,22.538122,120.966875,0.0033039653
C0AH90,福山植物園,2026-03-24,24.760717,121.58135,4.922178e-09
C0I540,奇萊稜線,2026-03-24,24.109231,121.326456,2.1806454e-08
C0M850,表湖,2026-03-24,23.24186,120.64166,7.4938535e-09
C0S770,大溪山,2026-03-24,22.478475,120.943325,0.9998467
C0AG80,中和,2026-03-24,24.991622,121.491792,1.2535703e-08
C0T790,大禹嶺,2026-03-24,24.186117,121.316086,2.046137e-08
C0T9B0,水源,2026-03-24,23.991861,121.537169,2.2843816e-08
C0R840,牡丹池山,2026-03-24,22.168389,120.841225,0.99993354
C1I131,桶頭,2026-03-24,23.641944,120.654117,0.00395751
CAL110,布袋國中,2026-03-24,23.35893,120.18026,0.9950386
C2M9D0,何竹子腳,2026-03-24,23.53641,120.38203,0.0057494747
C0Z290,赤柯山,2026-03-24,23.36893,121.38293,1.35493385e-08
C0X280,將軍,2026-03-24,23.214999,120.13577,0.99493164
C0S690,太麻里,2026-03-24,22.60902,120.98533,5.5533373e-08
C0U880,北關,2026-03-24,24.9072,121.8734,0.99524915
CAW010,東引,2026-03-24,26.3588,120.4836,1.0639492e-06
C0G810,埔心,2026-03-24,23.947633,120.525456,0.020550441
C0U970,大福,2026-03-24,24.80064,121.81389,8.58112e-08
C2H9N0,仁愛東眼,2026-03-24,24.026875,121.1205,8.705516e-09
C1E670,南礦,2026-03-24,24.538278,121.002836,1.1087202e-08
C0M520,東後寮,2026-03-24,23.369908,120.248065,0.9953943
C1E461,松安,2026-03-24,24.397972,120.986022,8.465208e-09
C2N160,西拉雅風管處,2026-03-24,23.189481,120.335297,0.9864917
C2M970,碧湖,2026-03-24,23.568632,120.624165,3.5349608e-09
C0A640,石碇,2026-03-24,24.993969,121.662917,0.04294235
E2S960,林試太麻里2,2026-03-24,22.598,120.99775,4.6460216e-05
C0F9Y0,桃山,2026-03-24,24.432739,121.303808,2.5436576e-08
C1I020,萬大,2026-03-24,23.979817,121.132261,7.576984e-09
C2UC20,長嶺,2026-03-24,24.70894,121.61162,1.2131356e-08
C0U940,羅東,2026-03-24,24.68184,121.74934,8.3667324e-08
C0M650,朴子,2026-03-24,23.43463,120.23902,0.6851497
C1I500,大尖山,2026-03-24,23.858572,120.994889,1.2687898e-08
C0FB40,中橫21.6k,2026-03-24,24.2499,121.1455,1.123391e-08
C0G820,田尾,2026-03-24,23.901669,120.509389,0.020550441
E2K600,四湖植物園,2026-03-24,23.676986,120.163433,1.0253028e-08
C0S730,綠島,2026-03-24,22.6672,121.47533,0.99996585
12Q970,東港工作站,2026-03-24,22.479997,120.466058,0.9993503
C1TA00,太魯閣,2026-03-24,24.15773,121.6236,1.2791273e-06
466920,臺北,2026-03-24,25.037658,121.514853,7.360777e-09
C0R600,舊泰武,2026-03-24,22.588194,120.664944,0.016245851
C1I260,北坑,2026-03-24,23.9246,121.006903,6.41381e-08
466910,鞍部,2026-03-24,25.182586,121.529731,1.8240248e-06
C1I230,九份二山,2026-03-24,23.961944,120.845,2.1764942e-08
C2M810,里佳,2026-03-24,23.389125,120.716647,5.6789373e-09
C2A660,瑞芳,2026-03-24,25.113169,121.801147,0.9949206
C0R270,琉球嶼,2026-03-24,22.332244,120.362236,0.9991493
C2V580,瑞山,2026-03-24,22.90304,120.43424,0.14708814
C1T990,高寮,2026-03-24,23.394239,121.356808,0.93297446
C0G620,芬園,2026-03-24,24.015678,120.6213,0.000272763
C1Z140,荖溪,2026-03-24,23.890575,121.45964,1.6207407e-08
C1I201,中心崙,2026-03-24,23.728722,120.712097,1.6657208e-07
C1I400,凌霄,2026-03-24,24.018778,121.004456,8.582573e-09
C1M640,十字,2026-03-24,23.492153,120.753683,5.651933e-09
G2P820,農試鳳山分所,2026-03-24,22.646611,120.356083,0.99939257
C0Z270,蕃薯寮,2026-03-24,23.73835,121.540108,1.4680239e-06
C2E420,竹南,2026-03-24,24.70898,120.88897,2.7312174e-07
C0FB10,出雲山苗圃,2026-03-24,24.23105,120.90475,8.703993e-08
C0F9Q0,外埔,2026-03-24,24.347817,120.705686,1.0756629e-07
C0K580,高鐵雲林,2026-03-24,23.737456,120.417944,0.080341846
C2I090,鳳凰,2026-03-24,23.728081,120.787347,1.3908164e-08
C0U990,員山,2026-03-24,24.74435,121.72247,8.758199e-08
C0V770,大社,2026-03-24,22.730306,120.346639,0.9993475
C0X120,麻豆,2026-03-24,23.183289,120.248611,0.99247015
C0C670,龍潭,2026-03-24,24.870056,121.221389,9.4343864e-07
C0D680,香山濕地,2026-03-24,24.783581,120.914988,5.882573e-06
C0S980,勝林山,2026-03-24,22.430439,120.8938,2.6507427e-08
C0V730,大寮,2026-03-24,22.605614,120.395717,0.99947226
C0R570,麟洛,2026-03-24,22.65078,120.52719,0.9919165
C2M930,石卓,2026-03-24,23.478744,120.702264,5.6234915e-09
C0G9B0,和美,2026-03-24,24.105169,120.492131,0.04291564
CAG100,王功漁港,2026-03-24,23.96824,120.32586,0.9765752
C0X290,北門,2026-03-24,23.267772,120.125481,0.99493164
C2F930,大甲,2026-03-24,24.347667,120.640403,2.609257e-06
C0D650,湖口,2026-03-24,24.904794,121.043628,2.4587064e-07
C0U780,五結,2026-03-24,24.68637,121.79794,9.0250346e-08
C1I250,鯉潭,2026-03-24,23.961922,120.991131,2.5882422e-08
C0R130,阿禮,2026-03-24,22.742908,120.743678,7.940657e-09
C0X100,臺南市北區,2026-03-24,23.010394,120.194228,0.99898034
C0S920,金峰嘉蘭,2026-03-24,22.594789,120.960825,1.8420391e-06
C0V490,新興,2026-03-24,22.627422,120.298803,0.99944353
C0F9K0,大安,2026-03-24,24.345061,120.588025,0.00050016685
467290,古坑,2026-03-24,23.633639,120.551889,0.013654818
C2E970,八甲,2026-03-24,24.535811,120.795983,2.7652936e-08
C0V440,鳳山,2026-03-24,22.646653,120.356122,0.99939257
C1T940,大觀,2026-03-24,23.714206,121.373133,1.02089295e-07
C0E740,造橋,2026-03-24,24.637056,120.864778,2.0715602e-07
C0R100,尾寮山,2026-03-24,22.833111,120.683889,7.807609e-09
A2K630,臺大雲林校區,2026-03-24,23.730628,120.423903,0.07148651
467990,馬祖,2026-03-24,26.169467,119.923158,1.605516e-07
C0D580,寶山,2026-03-24,24.735006,121.025192,2.4143805e-08
E2P990,林試扇平站,2026-03-24,22.9677,120.6857,1.5692766e-08
C0AI30,三重,2026-03-24,25.057328,121.500629,7.724172e-09
C0AH00,汐止,2026-03-24,25.066881,121.658778,0.9974503
C1Z040,立山,2026-03-24,23.443356,121.327375,8.701049e-05
466881,新北,2026-03-24,24.959207,121.525196,1.1908134e-08
C0W130,花嶼,2026-03-24,23.40007,119.32276,0.9998624
C0A950,鼻頭角,2026-03-24,25.129036,121.923372,0.9998435
C0K470,林內,2026-03-24,23.748675,120.609642,0.013031729
C2F990,摩天嶺,2026-03-24,24.322458,120.936819,5.762795e-08
C2E430,南庄,2026-03-24,24.601775,121.000214,1.3838413e-08
82C160,茶改場,2026-03-24,24.908472,121.185333,2.8209347e-06
C2TB60,南安,2026-03-24,23.29818,121.26157,3.2964942e-07
C0Z320,清水林道,2026-03-24,23.27125,121.188272,1.697864e-08
C0R760,南仁湖,2026-03-24,22.084681,120.863353,0.9976157
C0M670,大林,2026-03-24,23.600616,120.45841,0.0035093583
C0M800,茶山,2026-03-24,23.299075,120.664767,1.1868769e-08
C0A9C0,天母,2026-03-24,25.117494,121.537169,7.356566e-09
72K220,南改斗南分場,2026-03-24,23.634556,120.477333,0.07247247
72AI40,桃改樹林分場,2026-03-24,24.944503,121.386972,1.6770146e-08
C0S910,蘭嶼燈塔,2026-03-24,22.081197,121.503117,0.9999921
C0B050,八斗子,2026-03-24,25.144754,121.79167,0.9993869
C0U900,內城,2026-03-24,24.71813,121.68766,6.55616e-08
C0X320,柳營,2026-03-24,23.253328,120.375253,0.013795157
C0M790,新港,2026-03-24,23.553269,120.345728,0.72649395
C0F9T0,西屯,2026-03-24,24.179494,120.641275,1.4466557e-06
C0E950,松安,2026-03-24,24.39792,120.98599,8.465208e-09
C0SA30,都歷,2026-03-24,23.020333,121.323642,0.9829981
C0C620,蘆竹,2026-03-24,25.084275,121.265767,0.0015781658
C0R730,大坪頂,2026-03-24,22.024633,120.69355,0.99871784
C0AJ40,石門,2026-03-24,25.273672,121.601198,0.7795418
C0E750,苗栗,2026-03-24,24.564569,120.824575,1.4766971e-07
C0T870,鯉魚潭,2026-03-24,23.935639,121.508944,0.00588569
C1V170,排雲,2026-03-24,23.463619,120.954147,2.6331964e-08
C2H950,中寮,2026-03-24,23.884447,120.766406,0.03814725
C0R350,貓鼻頭,2026-03-24,21.921774,120.7358,0.9997086
C0V660,岡山,2026-03-24,22.797078,120.294958,0.9993333
C1H941,雙冬,2026-03-24,23.967378,120.802189,1.8277933e-07
C0AJ70,田寮,2026-03-24,25.2698,121.4886,0.9948842
C0AI00,五股,2026-03-24,25.07445,121.42728,6.3061134e-09
C0Z280,德武,2026-03-24,23.47426,121.41071,0.49972114
C2RA10,大新,2026-03-24,22.67558,120.57788,0.9734801
C0R700,枋山,2026-03-24,22.246844,120.661086,0.9931452
C0C460,復興,2026-03-24,24.820208,121.352281,4.035522e-08
C2K300,鹿南,2026-03-24,23.63855,120.3636,8.234596e-09
E2H360,蓮華池,2026-03-24,23.918333,120.885278,2.3128525e-08
C0M640,中埔,2026-03-24,23.42538,120.5229,4.256994e-05
C0W140,金沙,2026-03-24,24.488292,118.408778,6.141813e-09
C2A540,四堵,2026-03-24,24.8926,121.745736,9.5045425e-06
C0ACA0,新莊,2026-03-24,25.051478,121.446756,9.271836e-09
C0R220,潮州,2026-03-24,22.534361,120.54,0.99886656
U2HA40,臺大內茅埔,2026-03-24,23.689722,120.851117,7.3920446e-06
467490,臺中,2026-03-24,24.145736,120.684075,2.1804995e-06
C0UB60,明池,2026-03-24,24.650688,121.475277,5.631832e-09
C0U960,翠峰湖,2026-03-24,24.510856,121.608044,1.1246859e-08
E2HA20,林試畢祿溪站,2026-03-24,24.226944,121.308522,1.1988581e-08
C2M9A0,大華,2026-03-24,23.4824,120.67491,1.2776586e-08
C0V890,前鎮,2026-03-24,22.5718,120.3117,0.99944043
C1F941,雪嶺,2026-03-24,24.280586,121.026642,2.3193198e-08
C2H9E0,國姓南港,2026-03-24,23.911108,120.846556,9.828939e-09
C0AC80,文山,2026-03-24,25.00235,121.575728,1.47961865e-08
C0F9R0,龍井,2026-03-24,24.184536,120.528972,0.022142572
C0M760,民雄,2026-03-24,23.551754,120.428457,0.0035093583
C0UA40,西德山,2026-03-24,24.560647,121.752608,8.570194e-08
C2TA70,赤科坪,2026-03-24,23.39885,121.39168,1.1995894e-07
C1T920,中興,2026-03-24,23.769503,121.498653,0.05461875
C0D550,雪霸,2026-03-24,24.526972,121.11605,2.7290035e-08
C2F860,梨山,2026-03-24,24.247522,121.243669,1.3208635e-08
C0R320,車城,2026-03-24,22.0744,120.716247,0.9992952
C1S870,南美山,2026-03-24,23.15025,121.382333,0.0013742534
C0B020,基隆嶼,2026-03-24,25.19141,121.78391,0.9990661
C1U501,牛鬥,2026-03-24,24.637836,121.573656,4.077457e-08
C0M730,嘉義市東區,2026-03-24,23.457673,120.460531,0.0012710673
C2R990,泰武,2026-03-24,22.60686,120.69765,4.3788845e-07
C0S700,知本,2026-03-24,22.684866,121.005642,8.443104e-08
C1N001,沙崙,2026-03-24,22.935472,120.309406,0.99801004
C0V760,橋頭,2026-03-24,22.757806,120.30575,0.9993623
C0G960,福寶,2026-03-24,24.0443,120.3814,0.05516365
C0X210,白河,2026-03-24,23.347466,120.414427,0.015905391
C0S810,東河,2026-03-24,22.972672,121.303986,0.9913377
C2R170,屏東,2026-03-24,22.66027,120.49403,0.9919165
C0R670,楓港,2026-03-24,22.190131,120.692156,0.978284
C0FA50,霧峰,2026-03-24,24.0419,120.6995,0.8882494
C0UB10,蘇澳,2026-03-24,24.5969,121.8571,0.99924815
C0G950,防潮門,2026-03-24,24.1835,120.4871,0.041150153
C0M740,六腳,2026-03-24,23.492871,120.290625,0.6871337
C1R250,力里,2026-03-24,22.428117,120.629228,0.99783045
C0K330,虎尾,2026-03-24,23.719183,120.442036,0.056312453
C2FA00,烏石坑,2026-03-24,24.273503,120.947617,6.318035e-08
C0V620,永安,2026-03-24,22.82315,120.236856,0.99934846
C1I330,楓樹林,2026-03-24,23.986803,121.076117,8.141299e-09
C0W200,湖西,2026-03-24,23.596314,119.67275,0.99931175
72Q010,高雄農改場,2026-03-24,22.709333,120.525889,0.987248
C0SA40,瑞和,2026-03-24,22.974361,121.156697,0.062351387
C0C680,龜山,2026-03-24,25.02846,121.38656,1.0953205e-08
C2V260,月眉,2026-03-24,22.971003,120.539853,0.054636873
C0V450,鳳森,2026-03-24,22.545064,120.392592,0.9991049
C0FA90,小雪山林道,2026-03-24,24.29515,121.03651,2.9092897e-08
C0U720,南山,2026-03-24,24.43742,121.38167,6.6549575e-09
A2N290,臺南蘭花園區,2026-03-24,23.340258,120.379661,0.016779847
C0R560,新園,2026-03-24,22.5434,120.461558,0.9992951
C0U890,三星,2026-03-24,24.66812,121.65302,4.4267214e-08
C1V300,御油山,2026-03-24,23.001983,120.715364,4.606995e-09
C0U600,礁溪,2026-03-24,24.817539,121.765608,7.3391206e-08
C1T980,龍澗,2026-03-24,24.023289,121.411328,1.5636118e-08
C0D670,海天一線,2026-03-24,24.831986,120.914438,6.181254e-06
C0SA00,歷坵,2026-03-24,22.520969,120.89185,0.04974016
C0M710,東石,2026-03-24,23.458927,120.15385,0.8855419
C0M780,鹿草,2026-03-24,23.41134,120.30835,0.5591237
C0U520,雙連埤,2026-03-24,24.753033,121.641303,1.2533265e-08
C0B010,七堵,2026-03-24,25.094819,121.71713,0.9989106
C0R480,長治,2026-03-24,22.693128,120.542622,0.97805923
C1V830,國三S383K,2026-03-24,22.781967,120.426475,0.97712326
12Q980,恆春工作站,2026-03-24,22.079678,120.714425,0.9992952
C1O940,東山服務區,2026-03-24,23.286016,120.398472,0.013021557
C1U840,東澳嶺,2026-03-24,24.5378,121.8485,1.9461877e-06
C1D630,飛鳳山,2026-03-24,24.766464,121.119178,7.431211e-09
C0S940,石寧山,2026-03-24,23.223772,121.406639,0.89859605
C0K410,北港,2026-03-24,23.573957,120.292802,0.693961
C2M620,瑞里,2026-03-24,23.545133,120.675197,6.0634426e-09
C0SB70,小港漁港,2026-03-24,23.158558,121.400431,0.5023603
C2O950,安南,2026-03-24,23.076694,120.144861,0.9990075
C0F0E0,南湖圈谷,2026-03-24,24.363714,121.444667,3.5465312e-08
467610,成功,2026-03-24,23.097486,121.373428,0.6254309
C0G890,伸港,2026-03-24,24.148933,120.484403,0.030490046
C2E540,龍溪,2026-03-24,24.606489,120.783933,4.1484356e-07
C1V200,梅山,2026-03-24,23.268447,120.823556,4.577957e-09
C0T9H0,加路蘭山,2026-03-24,23.682947,121.5274,3.0798695e-08
C2O930,玉井,2026-03-24,23.126042,120.46055,0.007767362
C1F911,新伯公,2026-03-24,24.221361,120.841069,5.6565277e-09
C0R490,九如,2026-03-24,22.7405,120.490503,0.987248
C0X200,左鎮,2026-03-24,23.056758,120.408522,0.44888052
C2TB50,麻汝,2026-03-24,23.42554,121.39358,0.20267974
C0FA60,鞍馬山工作站,2026-03-24,24.267064,121.000793,1.3379025e-08
C0SB50,叭嗡嗡,2026-03-24,23.047062,121.343223,0.75658196
C1F891,稍來,2026-03-24,24.265689,121.001142,1.2994408e-08
C2M9C0,紫雲,2026-03-24,23.494914,120.540253,0.00015045218
72N240,七股研究中心,2026-03-24,23.081672,120.062894,0.9990181
C0C700,中壢,2026-03-24,24.977661,121.256375,4.9302093e-06
C0M690,水上,2026-03-24,23.419734,120.388909,0.0036261172
C0V690,鼓山,2026-03-24,22.623325,120.275575,0.99944353
C0O860,大內,2026-03-24,23.11885,120.36083,0.9986091
C0Z200,萬榮,2026-03-24,23.709219,121.420106,0.0054437476
C0T9D0,和中,2026-03-24,24.26676,121.74103,0.99768835
C2S9A0,北份子寮,2026-03-24,22.78561,121.07813,0.6354841
C1O921,楠西,2026-03-24,23.183511,120.484083,0.00428798
C0AJ30,淡水觀海,2026-03-24,25.184591,121.408616,0.9897184
C0V810,左營,2026-03-24,22.67491,120.28491,0.9994321
C0UA70,桃源谷,2026-03-24,24.962606,121.888875,1.0723337e-06
C0X130,官田,2026-03-24,23.193217,120.315422,0.98829263
C1H000,翠峰,2026-03-24,24.109397,121.205211,9.918241e-09
C0UA90,石城,2026-03-24,24.980444,121.951214,0.99990696
C1E681,南勢山,2026-03-24,24.421669,120.923831,9.733328e-09
C0A9F0,內湖,2026-03-24,25.079422,121.57545,7.4050215e-09
C0K291,宜梧,2026-03-24,23.536281,120.169329,0.9875902
C1K540,口湖,2026-03-24,23.585344,120.180517,0.98199683
C0R780,滿州,2026-03-24,22.024403,120.839892,0.99818075
C0V870,文安,2026-03-24,22.8025,120.2164,0.9993493
C0U650,玉蘭,2026-03-24,24.675286,121.587061,1.1852684e-08
C0R640,東港,2026-03-24,22.46247,120.44074,0.9993214
C0AJ80,板橋,2026-03-24,25.0107,121.4489,1.2535703e-08
C0S660,下馬,2026-03-24,23.150427,121.070312,1.4226721e-08
C2N190,烏樹,2026-03-24,23.32393,120.36989,0.98730403
C1H9B1,阿眉,2026-03-24,24.1263,120.994672,8.417775e-09
C0UA20,多加屯,2026-03-24,24.368614,121.373189,1.9791784e-08
C0E730,頭份,2026-03-24,24.688247,120.912206,3.2284518e-07
72V140,高改旗南分場,2026-03-24,22.857861,120.516667,0.9797727
C0K480,莿桐,2026-03-24,23.761192,120.502372,0.051928602
C0U980,坪林石牌,2026-03-24,24.86478,121.77396,1.2342273e-08
C0T900,西林,2026-03-24,23.8119,121.441458,0.0010071718
C1I150,青雲,2026-03-24,23.793361,120.949378,7.84539e-05
C2E980,和興,2026-03-24,24.505319,120.923016,4.27613e-08
467350,澎湖,2026-03-24,23.565503,119.563094,0.99966395
C0G800,埔鹽,2026-03-24,24.000394,120.431683,0.039663207
C0H960,草屯,2026-03-24,23.973672,120.68085,0.11030345
C1V780,多納林道,2026-03-24,22.888028,120.737917,2.6028204e-09
C0E920,通霄漁港,2026-03-24,24.498589,120.673876,3.020521e-06
C0Z330,安通山,2026-03-24,23.290728,121.348528,2.3940569e-08
C0AH10,永和,2026-03-24,25.01125,121.508111,1.3202792e-08
C0AK10,太平里,2026-03-24,25.134937,121.364899,1.3688302e-07
C2G640,鹿港,2026-03-24,24.0753,120.430481,0.058029894
C1E890,國三N149K,2026-03-24,24.463414,120.680019,3.1546455e-07
C1R110,口社,2026-03-24,22.770111,120.645222,0.9399488
C1M870,國三N285K,2026-03-24,23.550319,120.505833,8.313353e-05
C1E480,鳳美,2026-03-24,24.554803,121.034747,1.1100579e-07
C0T9M0,靜浦,2026-03-24,23.455167,121.495028,0.980188
C2H9M0,發祥,2026-03-24,24.154094,121.164517,1.4316632e-08
C2G9C0,埔南,2026-03-24,23.99124,120.46969,0.039663207
C0AI40,石牌,2026-03-24,25.115597,121.513139,7.4050215e-09
C1F871,上谷關,2026-03-24,24.203483,121.018644,6.318035e-08
C2H9G0,百勝,2026-03-24,24.051142,120.909361,2.9871597e-07
C0G880,二水,2026-03-24,23.810742,120.6173,0.0020716852
C0R940,加祿堂,2026-03-24,22.3363,120.6217,0.99950904
C0W220,北竿,2026-03-24,26.220358,119.974881,1.8218434e-07
C0O960,崎頂,2026-03-24,22.959547,120.369317,0.9965106
C0TA40,秀林,2026-03-24,24.302864,121.731144,3.8935096e-07
C0S750,向陽,2026-03-24,23.248397,120.986133,9.747187e-09
C0T9F0,水璉,2026-03-24,23.797131,121.542514,6.274164e-06
C1M600,頭凍,2026-03-24,23.406364,120.603339,3.5316787e-09
467660,臺東,2026-03-24,22.752211,121.154586,0.9999004
C1D380,新埔,2026-03-24,24.84745,121.03834,1.7363872e-07
C2G980,田頭村,2026-03-24,23.8263,120.444175,0.07882289
C0V750,路竹,2026-03-24,22.854997,120.259439,0.999301
C0N050,蚵寮,2026-03-24,23.301,120.1104,0.99493164
C2X060,下營,2026-03-24,23.226806,120.256291,0.99357754
72M700,南改鹿草分場,2026-03-24,23.416869,120.283061,0.6323998
C1SA50,利嘉林道,2026-03-24,22.82325,121.009389,1.7565746e-08
C0UB70,太平山中間站,2026-03-24,24.542003,121.513453,6.3567853e-09
C0A940,金山,2026-03-24,25.223628,121.643967,0.987588
C1V340,大津,2026-03-24,22.888322,120.645986,0.084665276
C0W180,七美,2026-03-24,23.219333,119.444892,0.99982053
C1F9C1,白冷,2026-03-24,24.182844,120.929889,3.5947142e-08
K2E710,苗改生物防治研究中心,2026-03-24,24.422861,120.871833,7.896358e-09
C0N040,蘆竹溝,2026-03-24,23.2344,120.0961,0.99526304
C0TB40,崇德,2026-03-24,24.166144,121.657414,0.98638266
C0D760,大坪苗圃,2026-03-24,24.5362,121.1108,1.1672865e-08
C2W230,畜試所澎湖,2026-03-24,23.628342,119.513206,0.9996786
C0R880,後壁湖,2026-03-24,21.9457,120.7457,0.99973935
C1I280,埔中,2026-03-24,23.820778,120.642594,0.00029277435
467790,墾丁雷達站,2026-03-24,21.948235,120.808028,0.9995858
C0W190,望安,2026-03-24,23.380564,119.494075,0.9996901
C0Z170,卓溪,2026-03-24,23.3443,121.3029,4.9583554e-07
C0F850,東勢,2026-03-24,24.246428,120.833047,6.45992e-09
466900,淡水,2026-03-24,25.164889,121.448906,0.9304389
C0I370,魚池,2026-03-24,23.895703,120.94135,2.5731161e-08
C0C630,大溪,2026-03-24,24.882853,121.265547,2.950182e-06
C0A520,山佳,2026-03-24,24.974944,121.402008,1.6784643e-08
C0I110,竹山,2026-03-24,23.761225,120.688156,0.055396173
82H840,茶改南部分場,2026-03-24,23.762528,120.7405,0.0009150347
C2SD80,再來山,2026-03-24,23.34371,121.44122,0.3122474
C0G660,溪湖,2026-03-24,23.94835,120.479122,0.027946593
C1T800,洛韶,2026-03-24,24.204558,121.453956,5.475994e-09
C1T810,慈恩,2026-03-24,24.192044,121.388386,1.1283494e-08
C1E451,象鼻,2026-03-24,24.368617,120.940228,9.733309e-09
C0AC60,三峽,2026-03-24,24.939025,121.369728,0.00014102449
C0I490,萬大林道,2026-03-24,23.928228,121.091411,1.03373266e-08
C1I290,豐丘,2026-03-24,23.668178,120.887417,7.961023e-09
C1I320,奧萬大,2026-03-24,23.952956,121.178556,7.468084e-09
C2M910,嘉義大學,2026-03-24,23.471325,120.485903,0.0005087915
C0U770,南澳,2026-03-24,24.44935,121.81022,0.9992258
C2TB30,吉安,2026-03-24,23.94538,121.54803,0.043090682
C0A980,社子,2026-03-24,25.109508,121.469681,1.9419753e-08
C0V800,六龜,2026-03-24,22.997889,120.633583,0.004423653
C1G9D0,國一S218K,2026-03-24,23.890641,120.493253,0.018696161
C0E570,白沙屯,2026-03-24,24.549447,120.696803,5.2103474e-06
C2F9A0,中竹林,2026-03-24,24.103556,120.751061,0.00042343565
C0FA40,臺中電廠,2026-03-24,24.2146,120.4907,0.024016513
C2G9A0,畜試所彰化,2026-03-24,23.86045,120.557964,0.02797199
C0H9C0,合歡山,2026-03-24,24.143442,121.272547,3.1222662e-08
G2M350,農試溪口農場,2026-03-24,23.58565,120.408111,0.005362996
C0U860,頭城,2026-03-24,24.85323,121.8308,7.432051e-08
C0R580,南州,2026-03-24,22.48591,120.50274,0.9993503
C0D430,峨眉,2026-03-24,24.6905,121.017189,8.599094e-08
C0G780,秀水,2026-03-24,24.03405,120.503869,0.023281507
72N100,臺南農改場,2026-03-24,23.0605,120.342194,0.9985321
C0S900,蘭嶼高中,2026-03-24,22.04909,121.51214,0.9999906
C2TA60,六十石,2026-03-24,23.22477,121.31861,1.356845e-08
C1F9W0,德基,2026-03-24,24.254783,121.190261,1.0518497e-08
C2M980,安和,2026-03-24,23.51377,120.31593,0.6871337
C1Z120,壽豐,2026-03-24,23.870853,121.508081,0.123684525
C0W160,烏坵,2026-03-24,24.9944,119.44956,0.045787316
C1I240,外大坪,2026-03-24,23.958697,120.917931,1.8239307e-08
C1I550,國六W023K,2026-03-24,23.979067,120.867742,0.0006020138
C0R870,興海,2026-03-24,21.9752,120.8439,0.9996382
C0R140,瑪家,2026-03-24,22.682903,120.686639,0.0011160786
C0A530,坪林,2026-03-24,24.938183,121.70975,0.0010529396
C0X260,後壁,2026-03-24,23.366358,120.362326,0.9941695
C0Z230,和平,2026-03-24,24.30717,121.77007,0.99777323
C0G770,福興,2026-03-24,24.041289,120.437669,0.039663207
C0H9A0,神木村,2026-03-24,23.532742,120.843667,6.1594334e-09
C0I460,南投,2026-03-24,23.911469,120.687331,0.11718582
C0I480,梅峰,2026-03-24,24.085272,121.173572,6.8724453e-09
C1V570,吉東,2026-03-24,22.85422,120.5454,0.98113596
C2A560,福山,2026-03-24,24.776203,121.502811,1.5021971e-08
C0AH30,五分山,2026-03-24,25.07125,121.780794,5.8728705e-08
C0FA10,松柏,2026-03-24,24.429115,120.617482,1.2804858e-06
72S200,東改班鳩分場,2026-03-24,22.829528,121.077694,0.0034744563
72HA00,中改埔里分場,2026-03-24,23.903208,120.963364,2.99399e-08
C2H9W0,大坪頂農水,2026-03-24,24.043122,120.932781,1.976666e-08
C0C650,平鎮,2026-03-24,24.897503,121.214636,2.4291378e-06
C0S930,延平,2026-03-24,22.902581,121.084058,0.031035824
C0UA60,樟樹山,2026-03-24,24.41393,121.78325,0.091590896
C2UC10,出水溪,2026-03-24,24.615822,121.652253,0.005177703
C1S670,摩天,2026-03-24,23.199503,121.027,1.1902752e-08
C2C590,觀音,2026-03-24,25.027072,121.153317,0.0020835644
C0V630,茄萣,2026-03-24,22.906642,120.182608,0.998919
466940,基隆,2026-03-24,25.133314,121.740475,0.999343
C0X050,東河,2026-03-24,23.296598,120.385608,0.016779864
C0R770,保力,2026-03-24,22.071122,120.764111,0.9989481
G2L020,農試嘉義分所,2026-03-24,23.485028,120.473806,0.00043203429
C0X240,關子嶺,2026-03-24,23.331169,120.508025,2.9071098e-08
C0I380,集集,2026-03-24,23.828206,120.801467,0.0068865586
466990,花蓮,2026-03-24,23.975128,121.613275,1.4901047e-05
C1V220,小關山,2026-03-24,23.154217,120.813603,8.950358e-09
C1F9G1,慶福山,2026-03-24,24.180853,120.848378,3.3570051e-09
C0FB20,雪山橋,2026-03-24,24.23192,120.9786,1.1595223e-08
C0Z250,瑞穗林道,2026-03-24,23.49284,121.30688,8.569242e-09
C0D590,新豐,2026-03-24,24.87068,120.97721,3.642538e-07
C0A870,五指山,2026-03-24,25.132153,121.608692,5.6003273e-06
C0UA50,西帽山,2026-03-24,24.555361,121.802628,2.3637197e-06
C2R980,竹田國中,2026-03-24,22.61532,120.52412,0.998793
C0X160,仁德,2026-03-24,22.968258,120.257689,0.9988198
C1H971,六分寮,2026-03-24,23.92507,120.6378,0.00013108466
C0W120,西嶼,2026-03-24,23.5626,119.468436,0.9997598
C0G650,員林,2026-03-24,23.946503,120.585597,0.0078083407
C0AD50,鶯歌,2026-03-24,24.951533,121.346294,0.00015592719
C2H9Q0,北東眼山,2026-03-24,24.120939,121.189303,6.3383583e-09
C2H9T0,名間竹圍,2026-03-24,23.859914,120.637572,0.002140508
C0S990,山豬窟,2026-03-24,22.318619,120.857372,0.999915
C0X190,安平,2026-03-24,22.993161,120.152181,0.998985
C0K400,斗六,2026-03-24,23.720583,120.541127,0.040762622
12J990,口湖工作站,2026-03-24,23.589978,120.180394,0.98199683
C0O830,北寮,2026-03-24,23.079561,120.495008,0.021973502
C1D410,白蘭,2026-03-24,24.579364,121.079947,1.1252267e-08
C0S970,加津林,2026-03-24,22.416211,120.926942,8.772833e-05
C0D700,關西,2026-03-24,24.7977,121.1732,2.6155501e-05
C0U750,龜山島,2026-03-24,24.841667,121.953133,8.99288e-05
C0R810,內獅,2026-03-24,22.305064,120.642986,0.9931452
C1M390,龍美,2026-03-24,23.406728,120.654417,8.173289e-09
C2K290,崙內,2026-03-24,23.69525,120.35601,8.234596e-09
C2FB60,頭櫃山,2026-03-24,24.129842,120.858925,4.9634052e-09
C1H840,國三N238K,2026-03-24,23.841008,120.707711,0.0133235995
CAQ030,崎峰國小,2026-03-24,22.42565,120.49521,0.9993503
C2E520,大湖,2026-03-24,24.414939,120.870872,7.26792e-09
467530,阿里山,2026-03-24,23.508208,120.813242,9.012835e-09
C1E691,南湖,2026-03-24,24.40135,120.837533,6.4945e-09
C0FA30,梧棲,2026-03-24,24.256003,120.523381,0.022142572
C1V231,高中,2026-03-24,23.134911,120.716711,6.5355317e-09
C0AK30,硬漢嶺,2026-03-24,25.136097,121.426372,3.443635e-06
C0F9V0,新社,2026-03-24,24.200172,120.815806,4.2491357e-09
C0H890,埔里,2026-03-24,23.972169,120.952425,1.0315503e-06
C0R690,墾丁,2026-03-24,21.966756,120.810269,0.99900556
C0SD20,富山,2026-03-24,22.822383,121.190825,0.98023933
C0F0D0,審馬陣,2026-03-24,24.381675,121.4203,2.0134044e-08
C2W030,金門農試所,2026-03-24,24.448431,118.451786,5.210255e-08
C0R820,白鷺,2026-03-24,22.454275,120.666219,0.2708527
C0FB00,大雪山,2026-03-24,24.254668,121.007374,1.3542827e-08
C1V190,南天池,2026-03-24,23.27403,120.91176,1.1189665e-08
C0E940,雪見,2026-03-24,24.42595,121.01347,1.556619e-08
K2E360,苗栗農改場,2026-03-24,24.495722,120.829111,5.0801614e-08
CAJ050,海口故事園區,2026-03-24,23.57543,120.14121,0.98199683
C2K280,四湖,2026-03-24,23.6304,120.22717,1.0253028e-08
C2H9D0,三隻寮,2026-03-24,24.093078,120.861578,3.5680806e-08
C0O990,媽廟,2026-03-24,22.99175,120.293525,0.9986778
C0D480,打鐵坑,2026-03-24,24.849664,121.150789,1.3464897e-06
C0Z220,和平林道,2026-03-24,24.343922,121.656317,0.11373631
C0TA10,花蓮漁港,2026-03-24,23.995322,121.638331,0.9999711
72C440,桃園農改場,2026-03-24,24.950944,121.030583,4.6448307e-07
C1E711,馬拉邦山,2026-03-24,24.367306,120.901656,1.0124921e-08
C0SB20,富岡,2026-03-24,22.792467,121.192669,0.97224826
C0D560,竹東,2026-03-24,24.767147,121.057881,4.6979512e-08
C0F9U0,南屯,2026-03-24,24.137006,120.637969,7.508564e-05
C2SD60,明峰,2026-03-24,22.8671,121.11825,0.00066830416
C0M720,番路,2026-03-24,23.464657,120.554156,7.5584734e-07
C0F0A0,雪山圈谷,2026-03-24,24.388594,121.236339,5.75425e-08
C1A9N0,四十份,2026-03-24,24.934158,121.593283,6.222703e-09
C0U760,東澳,2026-03-24,24.52196,121.83318,0.9991766
C0X230,鹽水,2026-03-24,23.272621,120.247641,0.99498713
C2H9H0,苗改南投蜂場,2026-03-24,23.852589,120.693481,0.035166834
C2TB70,達谷寮,2026-03-24,23.38,121.35968,0.8019356
C0R950,萬隆國小,2026-03-24,22.507667,120.587817,0.9985892
467540,大武,2026-03-24,22.35572,120.90374,0.9482203
C0V370,古亭坑,2026-03-24,22.893178,120.401947,0.23538679
C1I340,新興橋,2026-03-24,23.563333,120.868728,3.3049993e-08
C0SA80,土坂,2026-03-24,22.453108,120.887572,0.99964625
C0R160,鹽埔,2026-03-24,22.739558,120.530778,0.987248
C0AC40,大屯山,2026-03-24,25.175675,121.522408,3.9589895e-07
466850,五分山雷達站,2026-03-24,25.071182,121.781205,5.4006914e-08
C2H9L0,馬烈霸,2026-03-24,24.1512,121.201772,1.0444189e-08
C1AI50,國三N016K,2026-03-24,25.034164,121.619664,2.5505805e-08
C2V920,匏子寮,2026-03-24,23.04905,120.55319,0.00775262
C1V600,藤枝,2026-03-24,23.071961,120.757042,4.0810417e-09
C1E601,南勢,2026-03-24,24.572486,120.734842,1.9075317e-07
C0O980,新市,2026-03-24,23.061614,120.298197,0.9987388
C0K420,西螺,2026-03-24,23.800407,120.467394,0.052352853
C0Z050,佳心,2026-03-24,23.34567,121.21316,1.4153725e-08
C0AD30,蘆洲,2026-03-24,25.086594,121.472331,9.308409e-09
C0V610,梓官,2026-03-24,22.760558,120.267211,0.9993341
K2F750,種苗改良場,2026-03-24,24.225972,120.800917,4.704782e-09
C0UA80,大溪漁港,2026-03-24,24.941801,121.902955,1.5178092e-07
C1AI60,國一39K邊坡,2026-03-24,25.064361,121.383836,6.2170322e-09
C0W150,金寧,2026-03-24,24.457703,118.328989,7.830278e-09
C0R960,內埔,2026-03-24,22.608483,120.570714,0.99870914
C2H9S0,龍南,2026-03-24,23.953536,120.833183,1.2447216e-08
C0AH40,平等,2026-03-24,25.129142,121.577086,4.614121e-05
C0R540,佳冬,2026-03-24,22.419456,120.552375,0.9993239
466950,彭佳嶼,2026-03-24,25.627975,122.079744,0.99968976
C0A890,雙溪,2026-03-24,25.036003,121.864242,0.9970961
C0C480,桃園,2026-03-24,24.992425,121.323172,9.755383e-06
C0AH50,林口,2026-03-24,25.072181,121.38084,5.891829e-09
A2K360,水試臺西試驗場,2026-03-24,23.717231,120.190522,1.2564357e-08
C2M960,外寮,2026-03-24,23.562643,120.665688,9.655575e-09
C0F9S0,烏日,2026-03-24,24.107058,120.624103,0.014851938
C2N180,鹿陶洋,2026-03-24,23.14325,120.48352,0.004287978
C0C490,八德,2026-03-24,24.928708,121.283289,6.7019528e-06
C0R190,赤山,2026-03-24,22.592333,120.614306,0.9986783
C0T820,天祥,2026-03-24,24.179597,121.495639,2.581734e-08
C1F9E1,龍安,2026-03-24,24.1605,120.831961,4.086876e-09
C2SD50,順那,2026-03-24,23.04166,121.29332,0.9366852
C0V820,小林,2026-03-24,23.148408,120.63325,1.7400085e-08
C2G870,芳苑,2026-03-24,23.922303,120.320025,1.9856863e-07
C0E850,大河,2026-03-24,24.618069,120.948578,3.4132817e-08
C1U670,寒溪,2026-03-24,24.634,121.71691,4.5832714e-08
C0N020,城西,2026-03-24,23.0568,120.0956,0.998983
C1Z110,三棧,2026-03-24,24.11557,121.60501,1.7269254e-08
C0R280,檳榔,2026-03-24,22.076078,120.836777,0.99435455
C2H9J0,中台,2026-03-24,23.9996,120.938739,9.3726726e-08
C0F9L0,后里,2026-03-24,24.310436,120.729725,1.5469286e-08
467441,高雄,2026-03-24,22.730432,120.312516,0.9993475
C0Z180,新城,2026-03-24,24.040486,121.604878,1.3107581e-05
C0D540,橫山,2026-03-24,24.71116,121.11693,1.5284778e-08
C1D420,太閣南,2026-03-24,24.632808,121.160575,1.1801973e-08
C1E770,公館,2026-03-24,24.526914,120.830806,9.278243e-08
CAN130,水試所海水繁養殖中心,2026-03-24,23.120802,120.07968,0.9990181
C1I430,翠華,2026-03-24,24.191961,121.224339,1.5513017e-08
C1M400,菜瓜坪,2026-03-24,23.251928,120.576103,1.1907021e-08
C0G730,二林,2026-03-24,23.903325,120.376081,0.025664791
72M360,南改義竹分場,2026-03-24,23.360694,120.279361,0.9947162
V2K620,麥寮合作社,2026-03-24,23.753836,120.294783,6.814946e-09
C0Z070,舞鶴,2026-03-24,23.46811,121.37407,0.2048618
C0B040,大武崙,2026-03-24,25.166676,121.706993,0.9756609
C1Z030,紅葉,2026-03-24,23.493119,121.338806,0.44982392
C1I050,丹大,2026-03-24,23.753747,121.141147,2.0110631e-08
C0I080,信義,2026-03-24,23.689694,120.851036,7.3920446e-06
C2TB80,庄子底,2026-03-24,23.71794,121.49438,0.02894036
C0D750,樂山林道6k,2026-03-24,24.49999,121.08773,1.4661453e-08
C2M920,朴子農改,2026-03-24,23.469889,120.259383,0.6851497
C2A880,福隆,2026-03-24,25.017842,121.942083,0.9999148
C0Z160,鳳林,2026-03-24,23.746114,121.453411,0.018291367
C0UB80,翠峰林道6K,2026-03-24,24.49773,121.568625,1.2710037e-08
C0V210,復興,2026-03-24,23.222403,120.806089,6.077812e-09
C0H990,昆陽,2026-03-24,24.121322,121.273642,1.8383552e-08
C0R741,獅子,2026-03-24,22.202308,120.705236,0.99528116
C0S710,鹿野,2026-03-24,22.917711,121.122994,1.0361802e-05
C0I530,小奇萊,2026-03-24,24.131764,121.295717,2.6450559e-08
C0FA70,大雪山埡口,2026-03-24,24.26867,121.03062,2.2245752e-08
C2K630,荷苞,2026-03-24,23.657717,120.595144,0.002393517
C0Z080,富源,2026-03-24,23.587642,121.378225,0.028203469
C2M9E0,旺來山,2026-03-24,23.555153,120.486463,5.4446045e-05
C0SB10,美和,2026-03-24,22.682078,121.060236,0.9707908
C2K620,馬光農場,2026-03-24,23.721453,120.378864,0.08482796
C1I140,卡奈托灣,2026-03-24,23.754364,121.087872,1.2268786e-08
C0I520,玉山風口,2026-03-24,23.470489,120.955994,3.0862086e-08
C1G691,下水埔,2026-03-24,23.816114,120.5676,0.03347367
C0X110,臺南市南區,2026-03-24,22.961189,120.188378,0.9988625
C0V680,仁武,2026-03-24,22.701083,120.347722,0.9993475
C2G840,北斗,2026-03-24,23.877586,120.514222,0.015759667
C2TB90,長橋,2026-03-24,23.6874,121.46186,0.01594454
C0R900,竹坑,2026-03-24,22.1385,120.7022,0.978284
C0G860,社頭,2026-03-24,23.897647,120.5862,0.006911489
C0X150,安定,2026-03-24,23.102614,120.227839,0.9989621
C0R590,里港,2026-03-24,22.77919,120.49459,0.97944665
C0E610,馬都安,2026-03-24,24.451272,120.930192,1.2476404e-08
C0E550,明德,2026-03-24,24.583486,120.885411,7.2949916e-08
C0R150,三地門,2026-03-24,22.709889,120.639944,0.9439329
C0G910,花壇,2026-03-24,24.032076,120.549461,0.017172372
C1D400,鳥嘴山,2026-03-24,24.71909,121.28387,6.1723697e-09
C0K500,元長,2026-03-24,23.64981,120.315024,6.9288437e-09
C0F0B0,石岡,2026-03-24,24.276061,120.777644,9.619527e-09
C2V250,甲仙,2026-03-24,23.080106,120.591758,0.0013386612
C0SA20,金崙山,2026-03-24,22.567419,120.959667,1.5760676e-08
C0V350,溪埔,2026-03-24,22.738578,120.446797,0.99091446
C0M660,溪口,2026-03-24,23.604131,120.403569,0.005362996
C1S880,壽卡,2026-03-24,22.238911,120.858903,0.99996763
72D680,桃改新埔分場,2026-03-24,24.834444,121.066111,1.8605418e-07
