站號,站名,日期,lat,lon,BLBTSLS
C0R710,龍磐,2026-07-07,21.931672,120.838942,0.9986378
C1F9D1,白毛台,2026-07-07,24.158325,120.886933,1.9242903e-07
C0G940,竹塘,2026-07-07,23.848253,120.386764,0.000358666
467590,恆春,2026-07-07,22.003897,120.746339,0.9983974
C0U710,太平山,2026-07-07,24.505486,121.525656,8.4006935e-09
C0E820,獅潭,2026-07-07,24.539133,120.920042,5.049168e-07
C2SD70,二層坪,2026-07-07,22.94105,121.16838,0.8650553
C0V880,興達,2026-07-07,22.8778,120.2127,0.103179134
C0SB30,新蘭,2026-07-07,22.869214,121.223228,0.7519424
C2R970,屏科大,2026-07-07,22.648275,120.619247,0.14995967
C1Z130,銅門,2026-07-07,23.965694,121.492842,0.76476526
C0AD40,土城,2026-07-07,24.973208,121.445169,0.081509605
CAN140,六官養殖協會,2026-07-07,23.22881,120.29962,0.0012524079
C0X180,山上,2026-07-07,23.0757,120.363253,0.015109526
C0F9Z0,雪山東峰,2026-07-07,24.388792,121.268675,8.16008e-09
C1M480,獨立山,2026-07-07,23.537022,120.607797,1.15289474e-07
C0X220,學甲,2026-07-07,23.230367,120.182187,0.00253053
467650,日月潭,2026-07-07,23.881325,120.90805,4.860569e-08
A2K570,古坑(花卉中心),2026-07-07,23.633531,120.552392,0.00020215026
C0K600,箔子寮,2026-07-07,23.6197,120.14,0.0003575776
C0G830,埤頭,2026-07-07,23.866003,120.452806,1.4746503e-05
C0S950,七塊厝,2026-07-07,22.954453,121.229922,0.12645313
467110,金門,2026-07-07,24.407306,118.289281,0.01112325
C0AH80,深坑,2026-07-07,25.002703,121.628328,0.0054632165
C0A970,三貂角,2026-07-07,25.007606,122.002058,0.9979048
C2D730,寶山農場,2026-07-07,24.732444,120.976153,0.00852211
C0K430,褒忠,2026-07-07,23.690938,120.303634,0.00015049262
467480,嘉義,2026-07-07,23.495925,120.432906,0.0005304683
C0V400,阿公店,2026-07-07,22.804194,120.355528,0.024230126
C2S800,華源,2026-07-07,22.65783,121.0232,0.8420712
C2SA40,瑞和,2026-07-07,22.974361,121.156697,0.85755223
C0E960,觀霧分站,2026-07-07,24.505781,121.113921,6.591541e-09
467550,玉山,2026-07-07,23.48718,120.95943,1.8183625e-08
C0R440,大漢山,2026-07-07,22.405264,120.753181,1.3396491e-08
C0SD30,東清國小,2026-07-07,22.057128,121.564922,0.96653545
C1F9B1,桐林,2026-07-07,24.066172,120.735194,0.0049822885
C2I210,蘆竹湳,2026-07-07,23.93398,120.81209,2.6874893e-06
C2H9U0,鳳鵬,2026-07-07,23.763919,120.788061,0.016696444
C0K390,土庫,2026-07-07,23.679029,120.395574,4.7861035e-06
C1I450,望鄉山,2026-07-07,23.594153,120.944286,5.893627e-09
C0E910,海埔,2026-07-07,24.648767,120.772435,0.0023650762
B2E890,畜試北區分所,2026-07-07,24.527806,120.770972,1.2542872e-05
C0R750,四林格山,2026-07-07,22.076989,120.802439,0.97810954
C0F0C0,中坑,2026-07-07,24.248517,120.903319,2.9772762e-08
C1I121,大鞍,2026-07-07,23.678381,120.760017,8.934734e-09
C2G9E0,移民庄,2026-07-07,23.9784,120.40283,0.0017288728
72U480,花改蘭陽分場,2026-07-07,24.686306,121.716583,0.21394344
C0A770,科教館,2026-07-07,25.096356,121.516507,0.03615501
C0AJ60,六塊厝,2026-07-07,25.24,121.4481,0.026476877
C0R620,墾雷,2026-07-07,21.900836,120.855269,0.9977881
467290,古坑,2026-07-07,23.633536,120.551906,0.00020215026
467420,永康,2026-07-07,23.038386,120.2367,0.045581236
C2M530,奮起湖,2026-07-07,23.493903,120.699253,5.441178e-09
C0I410,名間,2026-07-07,23.837053,120.701447,0.022660315
A2C560,農工中心,2026-07-07,24.985917,121.239833,0.03366652
C0V740,旗山,2026-07-07,22.888614,120.483597,0.04837544
C0Z061,玉里,2026-07-07,23.3215,121.339656,0.3549005
C0S840,南田,2026-07-07,22.279725,120.889208,0.90834683
C1I470,杉林溪,2026-07-07,23.639517,120.786444,5.6673053e-09
C1X040,東原,2026-07-07,23.291597,120.463822,0.0015402195
C0R660,枋寮,2026-07-07,22.367722,120.590647,0.3899664
C0K450,大埤,2026-07-07,23.646074,120.431537,5.9460224e-05
C0UA00,土場,2026-07-07,24.576533,121.495333,0.8743266
467080,宜蘭,2026-07-07,24.763975,121.756528,0.08044736
C0N030,四草,2026-07-07,23.0235,120.1116,0.08167643
467410,臺南,2026-07-07,22.99328,120.20492,0.03094579
C0V650,彌陀,2026-07-07,22.783806,120.246361,0.011736269
C0D660,新竹市東區,2026-07-07,24.798681,120.986942,0.010090892
82S580,茶改東部分場,2026-07-07,22.907694,121.130139,0.76526856
C0SB40,興隆,2026-07-07,22.913661,121.257469,0.5591107
467050,新屋,2026-07-07,25.006725,121.047492,0.10990926
C0C710,大溪永福,2026-07-07,24.892936,121.324975,0.03494582
C0FA20,溫寮,2026-07-07,24.372177,120.583125,0.001664589
C0V640,湖內,2026-07-07,22.887139,120.2445,0.10387264
C0R910,下寮,2026-07-07,22.3929,120.5548,0.82434803
C0Z020,明里,2026-07-07,23.208717,121.262342,0.55212945
C0M770,嘉義梅山,2026-07-07,23.585398,120.555587,0.0005575811
C0C660,楊梅,2026-07-07,24.912375,121.143047,0.00016538447
C0SD40,牛頭山,2026-07-07,22.676661,121.506944,0.9466863
C1E511,新開,2026-07-07,24.347703,120.827019,5.092826e-06
G2F820,農試所(霧峰),2026-07-07,24.031261,120.688133,0.010912452
C2M990,大巃頂,2026-07-07,23.5547,120.61439,1.6811653e-08
C1I070,和社,2026-07-07,23.591131,120.888861,1.4165889e-05
C2E990,新坪頂,2026-07-07,24.30201,120.8574,7.8584964e-07
C0TA80,立霧山,2026-07-07,24.183258,121.641899,7.5793776e-07
C2F000,大肚,2026-07-07,24.15295,120.572117,0.0046795853
C1S850,豐南,2026-07-07,23.122139,121.262389,0.09120609
C2M9B0,西興,2026-07-07,23.2428,120.57617,1.9196289e-06
C2A920,富貴角,2026-07-07,25.263783,121.565258,0.123053394
C0T960,光復,2026-07-07,23.660694,121.424964,0.23119803
C0F9M0,豐原,2026-07-07,24.254322,120.720692,0.0002667033
C0R720,旭海,2026-07-07,22.205403,120.887614,0.5874194
C0V710,苓雅,2026-07-07,22.622742,120.330669,0.0036823223
C0C740,觀音工業區,2026-07-07,25.064764,121.114856,0.117424026
CAC040,拉拉山,2026-07-07,24.699317,121.427133,1.1935922e-08
C0V790,萬山,2026-07-07,22.905944,120.688056,0.038819853
U2HA30,臺大和社,2026-07-07,23.590856,120.888864,1.4165889e-05
C2H9K0,屯原,2026-07-07,24.067969,121.209389,3.1315148e-09
C0AJ90,澳底,2026-07-07,25.0552,121.9253,0.500364
C0Z100,東華,2026-07-07,23.89525,121.549833,0.41998008
C0G970,三豐,2026-07-07,23.882,120.2895,0.002855031
C0V900,汕尾,2026-07-07,22.4782,120.4151,0.24810252
C1R630,龍泉,2026-07-07,22.66701,120.59091,0.14371748
C1AC50,關渡,2026-07-07,25.133486,121.469331,0.015597699
C0C800,四稜,2026-07-07,24.64733,121.4293,5.216386e-07
C0F9I0,神岡,2026-07-07,24.272481,120.658314,0.0013655683
C0K460,斗南,2026-07-07,23.678734,120.478359,5.978083e-05
C2O810,曾文,2026-07-07,23.219681,120.497328,0.002500035
467280,後龍,2026-07-07,24.648563,120.831834,0.00080651086
C1F9J1,清水林,2026-07-07,24.071242,120.820419,6.5850095e-08
C2A650,火燒寮,2026-07-07,25.002719,121.742892,0.00701324
466930,竹子湖,2026-07-07,25.162078,121.544547,3.4239338e-07
C1I220,樟湖,2026-07-07,23.905333,120.846983,1.0855889e-08
C0I390,仁愛,2026-07-07,24.022122,121.132206,1.911525e-08
C0Z300,東里,2026-07-07,23.26853,121.30547,0.33116367
C1V590,新發,2026-07-07,23.057019,120.646064,4.0726295e-06
C0K510,水林,2026-07-07,23.572924,120.24597,8.401535e-05
72S590,東改賓朗果園,2026-07-07,22.813889,121.071278,0.9503091
82A750,茶改北部分場,2026-07-07,24.955778,121.631222,0.0017387526
C1A750,石碇服務區,2026-07-07,25.00872,121.646242,0.011273018
C0X300,鹿寮,2026-07-07,23.386047,120.477331,0.030259129
C0K590,雲林東勢,2026-07-07,23.674192,120.255721,9.430539e-05
C2K310,港尾布雞,2026-07-07,23.74834,120.38439,3.4173024e-06
C0A570,桶後,2026-07-07,24.848222,121.597992,0.38932586
C0G720,溪州,2026-07-07,23.851589,120.499093,1.4876624e-05
C1V160,達卡努瓦,2026-07-07,23.279811,120.705319,7.3293114e-09
C2M410,馬頭山,2026-07-07,23.324361,120.582017,0.012996155
C0V850,蚵仔寮,2026-07-07,22.7256,120.2527,0.010694782
C0S740,池上,2026-07-07,23.119628,121.209469,0.5051194
C1V390,尖山,2026-07-07,22.813153,120.367789,0.02517185
C0AH70,松山,2026-07-07,25.04871,121.55042,0.03743003
C0N010,鯤鯓國小,2026-07-07,23.1879,120.0889,0.048852913
C0SA60,知本（水試所）,2026-07-07,22.702394,121.082761,0.09876611
C0T9I0,豐濱,2026-07-07,23.583897,121.514806,0.8954482
C0UB00,淡江大學蘭陽校園,2026-07-07,24.823239,121.730383,0.8449286
C0W240,九宮,2026-07-07,24.423753,118.240186,0.013106553
C0T9N0,富里,2026-07-07,23.171639,121.249378,0.44029126
U2HA50,臺大竹山,2026-07-07,23.756972,120.681556,0.021212162
C0V840,鳳鼻頭,2026-07-07,22.5083,120.3591,0.22311775
C0X140,西港,2026-07-07,23.125608,120.203108,0.046043806
72D080,桃改五峰分場,2026-07-07,24.612194,121.157167,2.8899327e-08
C2H9P0,伊拿谷,2026-07-07,23.963211,121.088264,1.7172219e-07
C2K250,崙背,2026-07-07,23.75553,120.31893,0.00015104064
C2H9F0,柑林,2026-07-07,24.018658,120.847072,0.04194205
C0TA20,加灣,2026-07-07,24.082025,121.608944,0.019401105
C0V530,阿蓮,2026-07-07,22.883208,120.327508,0.015152807
C0FB30,八仙山苗圃,2026-07-07,24.192719,121.001366,3.832148e-08
C0E791,卓蘭,2026-07-07,24.3126,120.8244,2.5934787e-06
C2R260,春日,2026-07-07,22.370361,120.628306,0.32153133
C1I030,武界,2026-07-07,23.913225,121.052483,5.0098555e-07
C0R520,崁頂,2026-07-07,22.514781,120.506914,0.43348205
C0R341,牡丹,2026-07-07,22.130036,120.792639,0.0069855032
C0R930,萬丹,2026-07-07,22.5885,120.4851,0.67263573
C0S760,紅石,2026-07-07,23.069131,121.126219,7.427399e-09
C2C410,中央大學,2026-07-07,24.967652,121.185165,0.03460926
C1M610,石磐龍,2026-07-07,23.496606,120.663506,9.938144e-09
C2C830,中德,2026-07-07,24.981862,121.291344,0.032206148
C0C790,東眼山,2026-07-07,24.8284,121.40888,1.8043605e-07
C0UA10,鴛鴦湖,2026-07-07,24.590269,121.412228,2.2585429e-08
C0R800,丹路,2026-07-07,22.204481,120.750989,0.856762
C2R240,萬巒,2026-07-07,22.527306,120.625111,0.20325214
C0G920,永靖,2026-07-07,23.924703,120.547533,0.00016801457
C2M950,太和,2026-07-07,23.538372,120.702961,5.574719e-09
C1A630,下盆,2026-07-07,24.771003,121.538622,0.6227435
B2N890,畜產試驗所,2026-07-07,23.058972,120.336406,0.017200738
C0UA30,白嶺,2026-07-07,24.527819,121.519031,7.049152e-08
467571,新竹,2026-07-07,24.828575,121.01455,0.00042481496
C1V580,溪南(特生中心),2026-07-07,23.084972,120.788475,1.0007859e-08
C1T970,大農,2026-07-07,23.615233,121.413331,0.51442343
C0R650,竹田,2026-07-07,22.58486,120.54344,0.6232492
C1H900,清流,2026-07-07,24.080775,120.962997,1.8355067e-08
C1C510,水尾,2026-07-07,24.940081,121.087161,0.0020444784
C2N170,茅港尾,2026-07-07,23.2061,120.2624,0.0012524079
C0F9X0,大雅(中科園區),2026-07-07,24.21528,120.62445,0.014266227
C0SB60,白守蓮,2026-07-07,23.126769,121.401914,0.7283198
C0O970,虎頭埤,2026-07-07,23.021375,120.347878,0.027406184
C0C730,中大臨海站,2026-07-07,24.966126,121.008581,0.049199894
C0X250,新營,2026-07-07,23.310689,120.316681,0.00045287845
C0V700,三民,2026-07-07,22.645017,120.311233,0.014929917
C0U870,大礁溪,2026-07-07,24.791042,121.675047,0.95811355
C0E870,高鐵苗栗,2026-07-07,24.60725,120.826094,0.00077590067
C2S890,關山,2026-07-07,23.0395,121.175017,0.66477895
C0TA30,鹽寮,2026-07-07,23.845606,121.592664,0.31736055
C0M860,新美,2026-07-07,23.338017,120.683169,5.8491487e-06
C1E701,八卦,2026-07-07,24.491756,120.927619,1.8339005e-08
C2TA90,加納納,2026-07-07,23.466421,121.359867,0.15202169
C0I420,國姓,2026-07-07,24.037803,120.855072,0.026468122
C2D720,關西工作站,2026-07-07,24.757275,121.184792,0.12351083
C2AK30,信賢,2026-07-07,24.84108,121.53492,0.014084541
C0S960,香蘭,2026-07-07,22.587569,120.993375,0.734052
467620,蘭嶼,2026-07-07,22.0369,121.55843,0.99842334
C2UC40,中城,2026-07-07,24.62865,121.74745,0.7594183
72G600,臺中農改場,2026-07-07,24.003028,120.534389,0.0004994708
C0Z210,瑞穗,2026-07-07,23.5239,121.39021,0.71399057
C0M820,達邦,2026-07-07,23.453994,120.749517,2.6780988e-08
C0V860,南寮,2026-07-07,22.7616,120.2339,0.010714269
C0G740,大城,2026-07-07,23.852487,120.320935,0.002891112
C0R920,塭仔,2026-07-07,22.4169,120.5197,0.8228475
C0R470,高樹,2026-07-07,22.826389,120.600806,0.026840832
C0R680,佳樂水,2026-07-07,21.993578,120.861633,0.9980854
C1O870,大棟山,2026-07-07,23.31157,120.52226,5.702567e-09
C0D360,梅花,2026-07-07,24.678347,121.208558,0.00036799416
C0Z190,富世,2026-07-07,24.14743,121.6297,0.97710174
C0AI10,屈尺,2026-07-07,24.92184,121.54475,0.07283255
B2U990,畜試東區分所,2026-07-07,24.669039,121.832561,0.6416623
C0SB80,長濱漁港,2026-07-07,23.313644,121.459994,0.61575437
C0TA50,和仁,2026-07-07,24.241394,121.712472,0.90390956
C2AK40,漁光,2026-07-07,24.96875,121.72132,9.57986e-07
C0V910,大樹,2026-07-07,22.684645,120.432803,0.009986417
C1R610,西大武山,2026-07-07,22.617719,120.7322,1.02002256e-08
C0K500,元長,2026-07-07,23.642858,120.31966,9.430539e-05
C0G900,線西,2026-07-07,24.143358,120.443536,0.0074855215
C0M700,竹崎,2026-07-07,23.526178,120.555508,0.008374088
C2E880,三義,2026-07-07,24.405478,120.749819,1.1590683e-07
C0C720,竹圍,2026-07-07,25.112692,121.239824,0.029477889
C0F9P0,清水,2026-07-07,24.312297,120.562242,0.009225247
C0Z150,吉安光華,2026-07-07,23.930925,121.595153,0.11354707
C0FA80,小雪山天池,2026-07-07,24.28025,121.02627,7.3374657e-09
467300,東吉島,2026-07-07,23.25727,119.66762,0.03564465
C1D640,外坪(五指山),2026-07-07,24.644447,121.090961,0.0075057633
C2R9A0,高士國小,2026-07-07,22.12553,120.84653,0.004913056
C0F9O0,潭子,2026-07-07,24.213106,120.703933,0.00023400171
C2H9R0,卓社,2026-07-07,23.887894,121.000086,1.5871782e-08
72T250,花蓮農改場,2026-07-07,23.975222,121.563889,0.16518903
C0E780,銅鑼,2026-07-07,24.489681,120.790853,1.654917e-05
C1T950,太安,2026-07-07,23.666719,121.370128,4.506774e-07
C0E830,苑裡,2026-07-07,24.439714,120.653053,0.0051741214
467270,田中,2026-07-07,23.873803,120.581286,0.009425755
C0SA10,檳榔四格山,2026-07-07,22.810031,121.109308,0.8471857
C1T830,布洛灣,2026-07-07,24.17184,121.57127,0.9937434
C0F970,大坑,2026-07-07,24.173142,120.722289,0.015924696
C1U920,思源,2026-07-07,24.393125,121.347214,5.681635e-09
C2H9Y0,松茗,2026-07-07,23.8167,120.650765,0.0010639983
C0A931,三和,2026-07-07,25.233153,121.595236,0.02780677
C0I010,廬山,2026-07-07,24.033311,121.181808,3.6506245e-09
C2M940,日野賀,2026-07-07,23.434056,120.727169,1.00621405e-08
C0R860,鼻頭,2026-07-07,22.1043,120.8979,0.9987221
C2I260,北坑,2026-07-07,23.92463,121.00683,0.91338265
C0UB20,壯圍,2026-07-07,24.7359,121.8163,0.0304334
C0R790,九棚,2026-07-07,22.14195,120.889281,0.99917054
C0W110,東莒,2026-07-07,25.9652,119.98069,0.1190971
C1U930,粉鳥林,2026-07-07,24.497088,121.842479,0.6100016
C0S830,長濱,2026-07-07,23.286817,121.411975,0.20328933
C1F9F1,伯公龍,2026-07-07,24.272392,120.849047,1.55773e-05
C0UB90,太平山莊,2026-07-07,24.494171,121.536209,8.372157e-09
C0E810,西湖,2026-07-07,24.562947,120.7485,0.010182324
C1I440,新高口,2026-07-07,23.478744,120.878939,4.6481428e-09
C0O840,王爺宮,2026-07-07,23.222064,120.40085,0.09103514
C0T9G0,鳳林山,2026-07-07,23.735269,121.420131,0.40217075
C0X080,佳里,2026-07-07,23.173039,120.145086,0.04439459
C0FB70,大甲溪埔,2026-07-07,24.370625,120.620067,0.0017473681
C0Z310,清水斷崖,2026-07-07,24.218294,121.689142,0.97943145
C0M680,太保,2026-07-07,23.455062,120.331455,0.00029499453
C1S820,金峰,2026-07-07,22.590969,120.933236,0.60973394
C0AD10,八里,2026-07-07,25.150211,121.403947,0.01326624
C2K240,草嶺,2026-07-07,23.59555,120.693461,1.790185e-08
C1SA70,都蘭,2026-07-07,22.87794,121.226881,0.77305716
C0K440,二崙,2026-07-07,23.772797,120.408944,7.5236762e-06
C1A760,坪林交控,2026-07-07,24.94284,121.713442,0.025505718
C0F9N0,大里,2026-07-07,24.092464,120.701378,0.0043818685
C0SA90,達仁林場,2026-07-07,22.264347,120.823972,0.10223827
C1R290,石門山,2026-07-07,22.112611,120.756597,0.9970182
42HA10,萬大發電廠,2026-07-07,23.978875,121.139639,5.8700035e-08
C0R890,山海,2026-07-07,21.9878,120.7091,0.99834687
C0T9A0,月眉山,2026-07-07,23.809928,121.539828,0.0007832026
C0AC70,信義,2026-07-07,25.037822,121.564597,0.04548782
C0K560,棋山,2026-07-07,23.68645,120.603417,0.009815521
C2FB50,出雲,2026-07-07,24.206469,120.902794,1.3262254e-08
C1Z240,中平林道,2026-07-07,23.42115,121.26763,1.9470717e-07
U2H480,溪頭,2026-07-07,23.670306,120.798194,1.803039e-08
C0M880,好美里,2026-07-07,23.3364,120.138,0.00087934773
C0T9E0,大坑,2026-07-07,23.880628,121.581981,0.96164906
C0K530,臺西,2026-07-07,23.701547,120.197559,0.00049600494
C1E900,國一N128K,2026-07-07,24.560997,120.844186,0.00033117316
C0AJ50,水湳洞,2026-07-07,25.123695,121.862238,0.52458584
C0AI20,白沙灣,2026-07-07,25.283128,121.519058,0.04789856
C2V310,美濃,2026-07-07,22.898792,120.51907,0.047112502
C0A860,大坪,2026-07-07,25.165914,121.632969,0.0014532931
C1U850,觀音海岸,2026-07-07,24.38319,121.77856,0.0032477754
C2K610,草嶺石壁,2026-07-07,23.602469,120.707731,1.4804317e-08
C0U950,鶯子嶺,2026-07-07,24.89754,121.79244,3.872716e-08
C0O900,善化,2026-07-07,23.112883,120.297219,0.016880939
C0K550,蔦松,2026-07-07,23.514319,120.229736,0.00020276685
E2P980,林試六龜中心,2026-07-07,22.991703,120.645722,0.048149608
C0E590,通霄,2026-07-07,24.471892,120.704622,0.0061937063
C1I310,西巒,2026-07-07,23.754486,120.883956,6.203259e-08
C0A550,泰平,2026-07-07,24.971197,121.823711,9.113382e-06
C2UC30,金洋,2026-07-07,24.42465,121.74573,0.66936123
C0I360,水里,2026-07-07,23.812553,120.849792,0.0428754
C0R830,高士,2026-07-07,22.121825,120.836781,0.99404514
C1I101,溪頭,2026-07-07,23.661789,120.807647,5.501559e-09
C0AJ20,野柳,2026-07-07,25.20703,121.690021,0.01387679
C0B060,暖暖,2026-07-07,25.0957,121.7403,0.06576541
C1H920,長豐,2026-07-07,24.102039,120.879897,6.184511e-08
C2S9B0,利吉,2026-07-07,22.86246,121.15486,0.7452954
C0V360,內門,2026-07-07,22.975481,120.466769,0.020476228
C0R850,林邊,2026-07-07,22.4634,120.5339,0.607695
C0E930,龍鳳,2026-07-07,24.700034,120.859125,0.025821537
C0U910,冬山,2026-07-07,24.63373,121.7937,0.6416623
C1E721,泰安,2026-07-07,24.489017,120.968036,7.704662e-09
82H320,茶改中部分場,2026-07-07,23.875611,120.913583,1.1873705e-06
C0M750,布袋,2026-07-07,23.380878,120.167789,0.00057946204
C1S860,利嘉,2026-07-07,22.809417,121.050528,0.9880961
E2S980,林試太麻里1,2026-07-07,22.598922,120.980044,0.07091107
C0X170,關廟,2026-07-07,22.963017,120.327797,0.053312264
C0V720,林園,2026-07-07,22.507747,120.394511,0.3198738
C2M9G0,沄水,2026-07-07,23.38293,120.52666,0.2628507
C1I510,線浸林道,2026-07-07,23.761508,120.832956,1.582997e-08
C0D690,外湖,2026-07-07,24.917735,120.968711,0.04097964
C0C750,新興坑尾,2026-07-07,25.0061,121.0971,0.033047818
B2Q810,畜試南區分所,2026-07-07,21.945583,120.802167,0.9980854
C0S790,金崙,2026-07-07,22.538122,120.966875,0.9596187
C0AH90,福山植物園,2026-07-07,24.760717,121.58135,0.18966785
C0I540,奇萊稜線,2026-07-07,24.109231,121.326456,1.1353592e-08
C0M850,表湖,2026-07-07,23.24186,120.64166,1.0223485e-07
C0S770,大溪山,2026-07-07,22.478475,120.943325,0.9590941
C0AG80,中和,2026-07-07,24.991622,121.491792,0.081509605
C0T790,大禹嶺,2026-07-07,24.186117,121.316086,5.271458e-09
C0T9B0,水源,2026-07-07,23.991861,121.537169,0.15938054
C0R840,牡丹池山,2026-07-07,22.168389,120.841225,0.00020084862
C1I131,桶頭,2026-07-07,23.641944,120.654117,0.0020788466
CAL110,布袋國中,2026-07-07,23.35893,120.18026,0.00087934773
C2M9D0,何竹子腳,2026-07-07,23.53641,120.38203,0.00050008105
C0Z290,赤柯山,2026-07-07,23.36893,121.38293,5.4782475e-07
C0X280,將軍,2026-07-07,23.214999,120.13577,0.002763607
C0S690,太麻里,2026-07-07,22.60902,120.98533,0.9982662
C0U880,北關,2026-07-07,24.9072,121.8734,0.4309693
CAW010,東引,2026-07-07,26.3588,120.4836,0.9501525
C0G810,埔心,2026-07-07,23.947633,120.525456,0.00016987954
C0U970,大福,2026-07-07,24.80064,121.81389,0.07374913
C2H9N0,仁愛東眼,2026-07-07,24.026875,121.1205,7.526743e-09
C1E670,南礦,2026-07-07,24.538278,121.002836,9.2666905e-09
C0M520,東後寮,2026-07-07,23.369908,120.248065,0.00019636136
C1E461,松安,2026-07-07,24.397972,120.986022,6.368909e-09
C2N160,西拉雅風管處,2026-07-07,23.189481,120.335297,0.033408422
C2O850,環湖,2026-07-07,23.148665,120.4186,0.014294083
C2M970,碧湖,2026-07-07,23.568632,120.624165,1.7430745e-08
C0A640,石碇,2026-07-07,24.993969,121.662917,0.025505705
E2S960,林試太麻里2,2026-07-07,22.598,120.99775,0.7166359
C0F9Y0,桃山,2026-07-07,24.432739,121.303808,1.3056593e-08
C1I020,萬大,2026-07-07,23.979817,121.132261,1.8141051e-08
C2UC20,長嶺,2026-07-07,24.70894,121.61162,0.7679008
C0U940,羅東,2026-07-07,24.68184,121.74934,0.19803232
C0M650,朴子,2026-07-07,23.43463,120.23902,8.7950226e-05
C1I500,大尖山,2026-07-07,23.858572,120.994889,3.962058e-09
C0FB40,中橫21.6k,2026-07-07,24.2499,121.1455,9.200594e-09
C0G820,田尾,2026-07-07,23.901669,120.509389,0.00016987954
E2K600,四湖植物園,2026-07-07,23.676986,120.163433,0.00028104603
C0S730,綠島,2026-07-07,22.6672,121.47533,0.8528569
12Q970,東港工作站,2026-07-07,22.479997,120.466058,0.60815537
C1TA00,太魯閣,2026-07-07,24.15773,121.6236,0.48100582
466920,臺北,2026-07-07,25.037658,121.514853,0.03743003
C0R600,舊泰武,2026-07-07,22.588194,120.664944,8.157909e-06
466910,鞍部,2026-07-07,25.182586,121.529731,1.2152454e-08
C1I230,九份二山,2026-07-07,23.961944,120.845,6.603889e-08
C2M810,里佳,2026-07-07,23.389125,120.716647,5.9352874e-09
C2A660,瑞芳,2026-07-07,25.113169,121.801147,0.052954994
C0R270,琉球嶼,2026-07-07,22.332244,120.362236,0.9393539
C2V580,瑞山,2026-07-07,22.90304,120.43424,0.016061706
C1T990,高寮,2026-07-07,23.394239,121.356808,0.58272123
C0G620,芬園,2026-07-07,24.015678,120.6213,0.004828468
C1Z140,荖溪,2026-07-07,23.890575,121.45964,7.2488245e-07
C1I201,中心崙,2026-07-07,23.728722,120.712097,3.852864e-07
C1I400,凌霄,2026-07-07,24.018778,121.004456,6.864323e-09
C1M640,十字,2026-07-07,23.492153,120.753683,5.947719e-09
G2P820,農試鳳山分所,2026-07-07,22.646611,120.356083,0.0037397454
C0Z270,蕃薯寮,2026-07-07,23.73835,121.540108,0.28143582
C2E420,竹南,2026-07-07,24.70898,120.88897,0.02798814
C2D480,打鐵坑,2026-07-07,24.849664,121.150789,2.0274534e-05
C0FB10,出雲山苗圃,2026-07-07,24.23105,120.90475,2.9772762e-08
C0F9Q0,外埔,2026-07-07,24.347817,120.705686,0.0054765027
C0K580,高鐵雲林,2026-07-07,23.737456,120.417944,3.4173024e-06
C2I090,鳳凰,2026-07-07,23.728081,120.787347,8.5980766e-08
C0U990,員山,2026-07-07,24.74435,121.72247,0.1880767
C0V770,大社,2026-07-07,22.730306,120.346639,0.01477999
C0X120,麻豆,2026-07-07,23.183289,120.248611,0.0051699947
C0C670,龍潭,2026-07-07,24.870056,121.221389,0.0026000375
C0D680,香山濕地,2026-07-07,24.783581,120.914988,0.040979598
C0S980,勝林山,2026-07-07,22.430439,120.8938,1.8383802e-05
C0V730,大寮,2026-07-07,22.605614,120.395717,0.1381152
C0R570,麟洛,2026-07-07,22.65078,120.52719,0.5735665
C2M930,石卓,2026-07-07,23.478744,120.702264,6.012758e-09
C0G9B0,和美,2026-07-07,24.105169,120.492131,0.010014833
C2I240,外大坪,2026-07-07,23.9587,120.91788,7.8983174e-07
CAG100,王功漁港,2026-07-07,23.96824,120.32586,0.006340439
C0X290,北門,2026-07-07,23.267772,120.125481,0.0027942637
C2F930,大甲,2026-07-07,24.347667,120.640403,0.0023815504
C0D650,湖口,2026-07-07,24.904794,121.043628,0.0027163918
C0U780,五結,2026-07-07,24.68637,121.79794,0.6416623
C1I250,鯉潭,2026-07-07,23.961922,120.991131,0.75266314
C0R130,阿禮,2026-07-07,22.742908,120.743678,6.9998734e-08
C0X100,臺南市北區,2026-07-07,23.010394,120.194228,0.030443974
C0S920,金峰嘉蘭,2026-07-07,22.594789,120.960825,0.9055643
C0V490,新興,2026-07-07,22.627422,120.298803,0.013456705
C0F9K0,大安,2026-07-07,24.345061,120.588025,0.002029961
C2E970,八甲,2026-07-07,24.535811,120.795983,0.00048593828
C0V440,鳳山,2026-07-07,22.646653,120.356122,0.0037397507
C1T940,大觀,2026-07-07,23.714206,121.373133,0.001382365
C0E740,造橋,2026-07-07,24.637056,120.864778,0.0005528914
C0R100,尾寮山,2026-07-07,22.833111,120.683889,4.3901952e-08
A2K630,臺大雲林校區,2026-07-07,23.730628,120.423903,3.4368206e-06
467990,馬祖,2026-07-07,26.169467,119.923158,0.6620301
C0D580,寶山,2026-07-07,24.735006,121.025192,0.032949697
E2P990,林試扇平站,2026-07-07,22.9677,120.6857,1.0455356e-05
C0AI30,三重,2026-07-07,25.057328,121.500629,0.03615501
C0AH00,汐止,2026-07-07,25.066881,121.658778,0.006905591
C1Z040,立山,2026-07-07,23.443356,121.327375,0.025335368
466881,新北,2026-07-07,24.959207,121.525196,0.080812015
C0W130,花嶼,2026-07-07,23.40007,119.32276,0.9929486
C0A950,鼻頭角,2026-07-07,25.129036,121.923372,0.9996062
C0K470,林內,2026-07-07,23.748675,120.609642,0.009410434
C2F990,摩天嶺,2026-07-07,24.322458,120.936819,2.380052e-08
C2E430,南庄,2026-07-07,24.601775,121.000214,1.0617223e-06
82C160,茶改場,2026-07-07,24.908472,121.185333,0.00017224754
C2TB60,南安,2026-07-07,23.29818,121.26157,0.23523483
C0Z320,清水林道,2026-07-07,23.27125,121.188272,8.875626e-05
C0R760,南仁湖,2026-07-07,22.084681,120.863353,0.9971369
C0M670,大林,2026-07-07,23.600616,120.45841,0.00024029668
C0M800,茶山,2026-07-07,23.299075,120.664767,0.00073463627
C0A9C0,天母,2026-07-07,25.117494,121.537169,0.044617888
72K220,南改斗南分場,2026-07-07,23.634556,120.477333,6.031762e-05
72AI40,桃改樹林分場,2026-07-07,24.944503,121.386972,0.019740446
C0S910,蘭嶼燈塔,2026-07-07,22.081197,121.503117,0.9874625
C0B050,八斗子,2026-07-07,25.144754,121.79167,0.0142832035
C0U900,內城,2026-07-07,24.71813,121.68766,0.11600599
C0X320,柳營,2026-07-07,23.253328,120.375253,0.06480697
C0M790,新港,2026-07-07,23.553269,120.345728,1.9121822e-05
C0F9T0,西屯,2026-07-07,24.179494,120.641275,0.012116773
C0E950,松安,2026-07-07,24.39792,120.98599,6.368909e-09
C0SA30,都歷,2026-07-07,23.020333,121.323642,0.6100104
C0C620,蘆竹,2026-07-07,25.084275,121.265767,0.06292008
C0R730,大坪頂,2026-07-07,22.024633,120.69355,0.999906
C0AJ40,石門,2026-07-07,25.273672,121.601198,0.12977119
C0E750,苗栗,2026-07-07,24.564569,120.824575,0.0003199296
C0T870,鯉魚潭,2026-07-07,23.935639,121.508944,0.7066422
C1V170,排雲,2026-07-07,23.463619,120.954147,1.489302e-08
C2H950,中寮,2026-07-07,23.884447,120.766406,0.027495548
C0R350,貓鼻頭,2026-07-07,21.921774,120.7358,0.9982574
C0V660,岡山,2026-07-07,22.797078,120.294958,0.012095518
C1H941,雙冬,2026-07-07,23.967378,120.802189,2.3094195e-05
C0AJ70,田寮,2026-07-07,25.2698,121.4886,0.044414155
C0AI00,五股,2026-07-07,25.07445,121.42728,0.042383965
C0Z280,德武,2026-07-07,23.47426,121.41071,0.2858265
C2RA10,大新,2026-07-07,22.67558,120.57788,0.14371747
C0C460,復興,2026-07-07,24.820208,121.352281,0.00016261077
C2AA10,中八仙,2026-07-07,25.11576,121.49199,0.04823213
C2K300,鹿南,2026-07-07,23.63855,120.3636,0.01006334
E2H360,蓮華池,2026-07-07,23.918333,120.885278,0.0002798132
C0M640,中埔,2026-07-07,23.42538,120.5229,0.0071530933
C2C810,八德蔬果,2026-07-07,24.97858,121.28187,0.032206148
C2M9F0,安溪寮,2026-07-07,23.350334,120.208039,0.00079403253
C0W140,金沙,2026-07-07,24.488292,118.408778,0.00904087
C2A540,四堵,2026-07-07,24.8926,121.745736,0.2685395
C0ACA0,新莊,2026-07-07,25.051478,121.446756,0.020712571
C0R220,潮州,2026-07-07,22.534361,120.54,0.4339815
U2HA40,臺大內茅埔,2026-07-07,23.689722,120.851117,0.12621236
467490,臺中,2026-07-07,24.145736,120.684075,0.014160253
C0UB60,明池,2026-07-07,24.650688,121.475277,8.4779124e-08
C0U960,翠峰湖,2026-07-07,24.510856,121.608044,8.354482e-09
E2HA20,林試畢祿溪站,2026-07-07,24.226944,121.308522,2.2800493e-09
C2M9A0,大華,2026-07-07,23.4824,120.67491,1.449009e-08
C0V890,前鎮,2026-07-07,22.5718,120.3117,0.009359728
C1F941,雪嶺,2026-07-07,24.280586,121.026642,7.3374657e-09
C2H9E0,國姓南港,2026-07-07,23.911108,120.846556,8.79816e-09
C0AC80,文山,2026-07-07,25.00235,121.575728,0.019185374
C0F9R0,龍井,2026-07-07,24.184536,120.528972,0.011034365
C0M760,民雄,2026-07-07,23.551754,120.428457,0.00024029668
C0UA40,西德山,2026-07-07,24.560647,121.752608,8.287816e-07
C2TA70,赤科坪,2026-07-07,23.39885,121.39168,1.6789146e-06
C1T920,中興,2026-07-07,23.769503,121.498653,0.6869323
C0D550,雪霸,2026-07-07,24.526972,121.11605,6.021032e-09
C2F860,梨山,2026-07-07,24.247522,121.243669,3.860825e-09
C0R320,車城,2026-07-07,22.0744,120.716247,0.9978167
C1S870,南美山,2026-07-07,23.15025,121.382333,0.6393488
C0B020,基隆嶼,2026-07-07,25.19141,121.78391,0.020632915
C1U501,牛鬥,2026-07-07,24.637836,121.573656,0.31821793
C0M730,嘉義市東區,2026-07-07,23.457673,120.460531,0.02031094
C2R990,泰武,2026-07-07,22.60686,120.69765,6.056949e-08
C0S700,知本,2026-07-07,22.684866,121.005642,0.99834496
C1N001,沙崙,2026-07-07,22.935472,120.309406,0.05215197
C0V760,橋頭,2026-07-07,22.757806,120.30575,0.014584971
C2V570,吉東,2026-07-07,22.85418,120.54539,0.024996834
C0G960,福寶,2026-07-07,24.0443,120.3814,0.0043234993
C0X210,白河,2026-07-07,23.347466,120.414427,0.015300354
C0S810,東河,2026-07-07,22.972672,121.303986,0.654063
C2R170,屏東,2026-07-07,22.66027,120.49403,0.5735665
C0R670,楓港,2026-07-07,22.190131,120.692156,0.6523178
C0FA50,霧峰,2026-07-07,24.0419,120.6995,0.0045177434
C0UB10,蘇澳,2026-07-07,24.5969,121.8571,0.054814264
C0G950,防潮門,2026-07-07,24.1835,120.4871,0.0062454813
C0M740,六腳,2026-07-07,23.492871,120.290625,3.9021063e-05
C1R250,力里,2026-07-07,22.428117,120.629228,0.5523507
C0K330,虎尾,2026-07-07,23.719183,120.442036,3.448591e-06
C2FA00,烏石坑,2026-07-07,24.273503,120.947617,2.4591605e-08
C0V620,永安,2026-07-07,22.82315,120.236856,0.011914297
C1I330,楓樹林,2026-07-07,23.986803,121.076117,1.8554932e-08
C0W200,湖西,2026-07-07,23.596314,119.67275,0.0070908805
72Q010,高雄農改場,2026-07-07,22.709333,120.525889,0.27708983
C2K301,鹿南,2026-07-07,23.643341,120.3683,4.980947e-06
C0C680,龜山,2026-07-07,25.02846,121.38656,0.022919513
C2V260,月眉,2026-07-07,22.971003,120.539853,0.021148006
C0V450,鳳森,2026-07-07,22.545064,120.392592,0.36233333
C0FA90,小雪山林道,2026-07-07,24.29515,121.03651,9.559479e-09
C0U720,南山,2026-07-07,24.43742,121.38167,7.269154e-05
A2N290,臺南蘭花園區,2026-07-07,23.340258,120.379661,0.013866837
C0R560,新園,2026-07-07,22.5434,120.461558,0.3198738
C0U890,三星,2026-07-07,24.66812,121.65302,0.47871664
C1V300,御油山,2026-07-07,23.001983,120.715364,1.0004118e-08
C0U600,礁溪,2026-07-07,24.817539,121.765608,0.085481115
C1T980,龍澗,2026-07-07,24.023289,121.411328,7.602233e-08
C0R700,枋山,2026-07-07,22.247814,120.660794,0.9513737
C0D670,海天一線,2026-07-07,24.831986,120.914438,0.00517706
C0SA00,歷坵,2026-07-07,22.520969,120.89185,0.84229296
C0M710,東石,2026-07-07,23.458927,120.15385,0.0005255931
C0M780,鹿草,2026-07-07,23.41134,120.30835,8.854703e-05
C0U520,雙連埤,2026-07-07,24.753033,121.641303,0.65044355
C0B010,七堵,2026-07-07,25.094819,121.71713,0.022147149
C0R480,長治,2026-07-07,22.693128,120.542622,0.12924801
C1V830,國三S383K,2026-07-07,22.781967,120.426475,0.033003125
12Q980,恆春工作站,2026-07-07,22.079678,120.714425,0.9978167
C1O940,東山服務區,2026-07-07,23.286016,120.398472,0.014180543
C1U840,東澳嶺,2026-07-07,24.5378,121.8485,0.00022178402
C1D630,飛鳳山,2026-07-07,24.766464,121.119178,0.008981367
C0S940,石寧山,2026-07-07,23.223772,121.406639,0.939784
C0K410,北港,2026-07-07,23.573957,120.292802,8.45245e-05
C2M620,瑞里,2026-07-07,23.545133,120.675197,9.579868e-09
C0SB70,小港漁港,2026-07-07,23.158558,121.400431,0.75682676
C2O950,安南,2026-07-07,23.076694,120.144861,0.07117187
C0F0E0,南湖圈谷,2026-07-07,24.363714,121.444667,1.4905353e-08
467610,成功,2026-07-07,23.097486,121.373428,0.29818186
C0G890,伸港,2026-07-07,24.148933,120.484403,0.006411854
C2E540,龍溪,2026-07-07,24.606489,120.783933,0.0002874948
C1V200,梅山,2026-07-07,23.268447,120.823556,2.9339537e-08
C0T9H0,加路蘭山,2026-07-07,23.682947,121.5274,1.8124244e-06
C2O930,玉井,2026-07-07,23.126042,120.46055,0.014294083
C1F911,新伯公,2026-07-07,24.221361,120.841069,3.5494897e-05
C0X200,左鎮,2026-07-07,23.056758,120.408522,0.029620407
C2TB50,麻汝,2026-07-07,23.42554,121.39358,0.31596038
C0FA60,鞍馬山工作站,2026-07-07,24.267064,121.000793,7.4248216e-09
C0SB50,叭嗡嗡,2026-07-07,23.047062,121.343223,0.21882544
C2R550,新埤,2026-07-07,22.467947,120.582894,0.43575802
C1F891,稍來,2026-07-07,24.265689,121.001142,7.2236124e-09
C2M9C0,紫雲,2026-07-07,23.494914,120.540253,0.020037897
72N240,七股研究中心,2026-07-07,23.081672,120.062894,0.08167647
C0C700,中壢,2026-07-07,24.977661,121.256375,0.034089882
C0M690,水上,2026-07-07,23.419734,120.388909,0.00071429217
C0V690,鼓山,2026-07-07,22.623325,120.275575,0.013456705
C0O860,大內,2026-07-07,23.11885,120.36083,0.030261533
C0Z200,萬榮,2026-07-07,23.709219,121.420106,0.47396237
C0T9D0,和中,2026-07-07,24.26676,121.74103,0.8981951
C2S9A0,北份子寮,2026-07-07,22.78561,121.07813,0.7228263
C1O921,楠西,2026-07-07,23.183511,120.484083,0.014713689
C0AJ30,淡水觀海,2026-07-07,25.184591,121.408616,0.013030157
C0V810,左營,2026-07-07,22.67491,120.28491,0.014929917
C0UA70,桃源谷,2026-07-07,24.962606,121.888875,0.00071128696
C0X130,官田,2026-07-07,23.193217,120.315422,0.032878704
C1H000,翠峰,2026-07-07,24.109397,121.205211,3.5349068e-09
C0UA90,石城,2026-07-07,24.980444,121.951214,0.9977286
C1E681,南勢山,2026-07-07,24.421669,120.923831,5.884293e-09
C0A9F0,內湖,2026-07-07,25.079422,121.57545,0.04548782
C0K291,宜梧,2026-07-07,23.536281,120.169329,0.00033458977
C1K540,口湖,2026-07-07,23.585344,120.180517,0.0003575776
C0R780,滿州,2026-07-07,22.024403,120.839892,0.99866045
C0V870,文安,2026-07-07,22.8025,120.2164,0.010694782
C0U650,玉蘭,2026-07-07,24.675286,121.587061,0.7642189
C0R640,東港,2026-07-07,22.46247,120.44074,0.22311775
C0AJ80,板橋,2026-07-07,25.0107,121.4489,0.08150956
C0S660,下馬,2026-07-07,23.150427,121.070312,1.9391216e-06
C2N190,烏樹,2026-07-07,23.32393,120.36989,0.0071723075
C1H9B1,阿眉,2026-07-07,24.1263,120.994672,5.0683515e-09
C0UA20,多加屯,2026-07-07,24.368614,121.373189,4.895634e-09
C0E730,頭份,2026-07-07,24.688247,120.912206,0.027280444
72V140,高改旗南分場,2026-07-07,22.857861,120.516667,0.06355902
C2R490,九如,2026-07-07,22.74049,120.490555,0.27708983
C0K480,莿桐,2026-07-07,23.761192,120.502372,0.00024502934
C0U980,坪林石牌,2026-07-07,24.86478,121.77396,0.00010085047
C0T900,西林,2026-07-07,23.8119,121.441458,0.8214397
C1I150,青雲,2026-07-07,23.793361,120.949378,0.0683287
C2E980,和興,2026-07-07,24.505319,120.923016,1.0800089e-07
467350,澎湖,2026-07-07,23.565503,119.563094,0.13705416
C0G800,埔鹽,2026-07-07,24.000394,120.431683,0.0033256505
C0H960,草屯,2026-07-07,23.973672,120.68085,0.030566648
C1V780,多納林道,2026-07-07,22.888028,120.737917,2.1223686e-08
C0E920,通霄漁港,2026-07-07,24.498589,120.673876,0.005722376
C0Z330,安通山,2026-07-07,23.290728,121.348528,3.4418917e-05
C0AH10,永和,2026-07-07,25.01125,121.508111,0.08083736
C0AK10,太平里,2026-07-07,25.134937,121.364899,0.08751014
C2G640,鹿港,2026-07-07,24.0753,120.430481,0.009722382
C1E890,國三N149K,2026-07-07,24.463414,120.680019,0.006372725
C1R110,口社,2026-07-07,22.770111,120.645222,0.04761233
C1M870,國三N285K,2026-07-07,23.550319,120.505833,0.021742756
C1E480,鳳美,2026-07-07,24.554803,121.034747,1.661369e-07
C0T9M0,靜浦,2026-07-07,23.455167,121.495028,0.73862463
C2H9M0,發祥,2026-07-07,24.154094,121.164517,6.9905037e-09
C2G9C0,埔南,2026-07-07,23.99124,120.46969,0.0033256505
C0AI40,石牌,2026-07-07,25.115597,121.513139,0.04548782
C1F871,上谷關,2026-07-07,24.203483,121.018644,2.4591605e-08
C2H9G0,百勝,2026-07-07,24.051142,120.909361,6.645626e-06
C0G880,二水,2026-07-07,23.810742,120.6173,0.0138505185
C0R940,加祿堂,2026-07-07,22.3363,120.6217,0.96656185
C0W220,北竿,2026-07-07,26.220358,119.974881,0.117469035
C0O960,崎頂,2026-07-07,22.959547,120.369317,0.05830641
C0TA40,秀林,2026-07-07,24.302864,121.731144,0.00011320998
C0S750,向陽,2026-07-07,23.248397,120.986133,4.1094896e-09
C0T9F0,水璉,2026-07-07,23.797131,121.542514,0.7580068
C1M600,頭凍,2026-07-07,23.406364,120.603339,1.788049e-08
467660,臺東,2026-07-07,22.752211,121.154586,0.5046287
C1D380,新埔,2026-07-07,24.84745,121.03834,0.00048269145
C2G980,田頭村,2026-07-07,23.8263,120.444175,7.5236762e-06
C0V750,路竹,2026-07-07,22.854997,120.259439,0.012465463
C0N050,蚵寮,2026-07-07,23.301,120.1104,0.0027942637
C2X060,下營,2026-07-07,23.226806,120.256291,0.0012524066
72M700,南改鹿草分場,2026-07-07,23.416869,120.283061,8.843185e-05
C1SA50,利嘉林道,2026-07-07,22.82325,121.009389,3.347142e-08
C0UB70,太平山中間站,2026-07-07,24.542003,121.513453,0.0060218633
C0A940,金山,2026-07-07,25.223628,121.643967,0.009796968
C1V340,大津,2026-07-07,22.888322,120.645986,0.067317255
C0W180,七美,2026-07-07,23.219333,119.444892,0.9902816
C1F9C1,白冷,2026-07-07,24.182844,120.929889,2.58585e-07
K2E710,苗改生物防治研究中心,2026-07-07,24.422861,120.871833,9.082328e-07
C0N040,蘆竹溝,2026-07-07,23.2344,120.0961,0.0027708393
C0TB40,崇德,2026-07-07,24.166144,121.657414,0.68212426
C0D760,大坪苗圃,2026-07-07,24.5362,121.1108,6.1100547e-09
C2D430,峨眉,2026-07-07,24.6905,121.017189,0.0031092155
C2W230,畜試所澎湖,2026-07-07,23.628342,119.513206,0.25179613
C0R880,後壁湖,2026-07-07,21.9457,120.7457,0.99834687
C1I280,埔中,2026-07-07,23.820778,120.642594,0.00065790437
467790,墾丁雷達站,2026-07-07,21.948235,120.808028,0.9983168
C0W190,望安,2026-07-07,23.380564,119.494075,0.97194964
C0Z170,卓溪,2026-07-07,23.3443,121.3029,0.17232616
C0F850,東勢,2026-07-07,24.246428,120.833047,0.00011840134
466900,淡水,2026-07-07,25.164889,121.448906,0.006262471
C0I370,魚池,2026-07-07,23.895703,120.94135,9.938032e-06
C0C630,大溪,2026-07-07,24.882853,121.265547,0.0045302296
C0A520,山佳,2026-07-07,24.974944,121.402008,0.01846419
C0I110,竹山,2026-07-07,23.761225,120.688156,0.021056648
82H840,茶改南部分場,2026-07-07,23.762528,120.7405,0.023092326
C2SD80,再來山,2026-07-07,23.34371,121.44122,0.18143299
C0G660,溪湖,2026-07-07,23.94835,120.479122,0.00016434882
C1T800,洛韶,2026-07-07,24.204558,121.453956,8.702664e-08
C1T810,慈恩,2026-07-07,24.192044,121.388386,2.9616427e-09
C1E451,象鼻,2026-07-07,24.368617,120.940228,5.884282e-09
C0AC60,三峽,2026-07-07,24.939025,121.369728,0.019370425
C0I490,萬大林道,2026-07-07,23.928228,121.091411,6.2086305e-09
C1I290,豐丘,2026-07-07,23.668178,120.887417,3.8386297e-08
C1I320,奧萬大,2026-07-07,23.952956,121.178556,2.0679515e-08
C2M910,嘉義大學,2026-07-07,23.471325,120.485903,0.02340958
C0U770,南澳,2026-07-07,24.44935,121.81022,0.6100016
C2TB30,吉安,2026-07-07,23.94538,121.54803,0.3443895
C0A980,社子,2026-07-07,25.109508,121.469681,0.01875001
C0V800,六龜,2026-07-07,22.997889,120.633583,0.056094676
C1G9D0,國一S218K,2026-07-07,23.890641,120.493253,1.5283023e-05
C0E570,白沙屯,2026-07-07,24.549447,120.696803,0.009019763
C2F9A0,中竹林,2026-07-07,24.103556,120.751061,1.8858348e-06
C0FA40,臺中電廠,2026-07-07,24.2146,120.4907,0.030638075
C2G9A0,畜試所彰化,2026-07-07,23.86045,120.557964,0.009425755
C0H9C0,合歡山,2026-07-07,24.143442,121.272547,1.2443679e-08
G2M350,農試溪口農場,2026-07-07,23.58565,120.408111,0.00022605795
C0U860,頭城,2026-07-07,24.85323,121.8308,0.38646314
C0R580,南州,2026-07-07,22.48591,120.50274,0.60815537
C0G780,秀水,2026-07-07,24.03405,120.503869,0.0004994708
72N100,臺南農改場,2026-07-07,23.0605,120.342194,0.01739259
C0S900,蘭嶼高中,2026-07-07,22.04909,121.51214,0.96691203
C2TA60,六十石,2026-07-07,23.22477,121.31861,1.372553e-07
C1F9W0,德基,2026-07-07,24.254783,121.190261,4.4218753e-09
C2M980,安和,2026-07-07,23.51377,120.31593,3.9021063e-05
C1Z120,壽豐,2026-07-07,23.870853,121.508081,0.41998008
C0W160,烏坵,2026-07-07,24.9944,119.44956,0.055313304
C1I550,國六W023K,2026-07-07,23.979067,120.867742,0.0017212869
C0R870,興海,2026-07-07,21.9752,120.8439,0.9980854
C0R140,瑪家,2026-07-07,22.682903,120.686639,2.5707262e-05
C0A530,坪林,2026-07-07,24.938183,121.70975,0.002486687
C0X260,後壁,2026-07-07,23.366358,120.362326,0.00030689166
C0Z230,和平,2026-07-07,24.30717,121.77007,0.9489926
C0G770,福興,2026-07-07,24.041289,120.437669,0.0033256505
C0H9A0,神木村,2026-07-07,23.532742,120.843667,6.1655805e-09
C0I460,南投,2026-07-07,23.911469,120.687331,0.030050749
C0I480,梅峰,2026-07-07,24.085272,121.173572,3.0303324e-09
C2D770,巨埔,2026-07-07,24.84435,121.11442,0.0031723045
C2A560,福山,2026-07-07,24.776203,121.502811,0.7948705
C0AH30,五分山,2026-07-07,25.07125,121.780794,3.4368064e-08
C0FA10,松柏,2026-07-07,24.429115,120.617482,0.0049928334
72S200,東改班鳩分場,2026-07-07,22.829528,121.077694,0.96158147
72HA00,中改埔里分場,2026-07-07,23.903208,120.963364,1.0724189e-05
C2H9W0,大坪頂農水,2026-07-07,24.043122,120.932781,1.1159877e-06
C0C650,平鎮,2026-07-07,24.897503,121.214636,0.0012875703
C0S930,延平,2026-07-07,22.902581,121.084058,0.67944723
C0UA60,樟樹山,2026-07-07,24.41393,121.78325,0.27579683
C2UC10,出水溪,2026-07-07,24.615822,121.652253,0.65920866
C1S670,摩天,2026-07-07,23.199503,121.027,6.009731e-09
C2C590,觀音,2026-07-07,25.027072,121.153317,0.1356081
C0V630,茄萣,2026-07-07,22.906642,120.182608,0.103179134
466940,基隆,2026-07-07,25.133314,121.740475,0.016483065
C0X050,東河,2026-07-07,23.296598,120.385608,0.013866817
C0R770,保力,2026-07-07,22.071122,120.764111,0.999871
G2L020,農試嘉義分所,2026-07-07,23.485028,120.473806,0.024420643
C0X240,關子嶺,2026-07-07,23.331169,120.508025,0.0014679905
C0I380,集集,2026-07-07,23.828206,120.801467,0.0401223
466990,花蓮,2026-07-07,23.975128,121.613275,0.019401105
C1V220,小關山,2026-07-07,23.154217,120.813603,5.8799174e-09
C1F9G1,慶福山,2026-07-07,24.180853,120.848378,5.7067044e-08
C0FB20,雪山橋,2026-07-07,24.23192,120.9786,6.544126e-09
C0Z250,瑞穗林道,2026-07-07,23.49284,121.30688,2.9741017e-07
C0D590,新豐,2026-07-07,24.87068,120.97721,0.008834541
C2N200,口宵里,2026-07-07,23.15987,120.45988,0.0001485372
C0A870,五指山,2026-07-07,25.132153,121.608692,5.335583e-08
C0UA50,西帽山,2026-07-07,24.555361,121.802628,0.00029189585
C2R980,竹田國中,2026-07-07,22.61532,120.52412,0.6235707
C0X160,仁德,2026-07-07,22.968258,120.257689,0.049594022
C1H971,六分寮,2026-07-07,23.92507,120.6378,8.962728e-06
C2D790,石鹿,2026-07-07,24.56551,121.15841,1.1398115e-08
C0W120,西嶼,2026-07-07,23.5626,119.468436,0.46881557
C0G650,員林,2026-07-07,23.946503,120.585597,0.008408714
C0AD50,鶯歌,2026-07-07,24.951533,121.346294,0.045094654
C2H9Q0,北東眼山,2026-07-07,24.120939,121.189303,3.7044374e-09
C2H9T0,名間竹圍,2026-07-07,23.859914,120.637572,0.024736397
C0S990,山豬窟,2026-07-07,22.318619,120.857372,0.6528864
C0X190,安平,2026-07-07,22.993161,120.152181,0.036318902
C0K400,斗六,2026-07-07,23.720583,120.541127,0.00024690852
12J990,口湖工作站,2026-07-07,23.589978,120.180394,0.0003575776
C0O830,北寮,2026-07-07,23.079561,120.495008,0.0004033939
C1D410,白蘭,2026-07-07,24.579364,121.079947,9.256692e-09
C0S970,加津林,2026-07-07,22.416211,120.926942,0.55660146
C0D700,關西,2026-07-07,24.7977,121.1732,0.13696206
C0U750,龜山島,2026-07-07,24.841667,121.953133,0.77720994
C0R810,內獅,2026-07-07,22.305064,120.642986,0.9513737
C2EA10,拉庫斯,2026-07-07,24.53637,121.02137,1.44892605e-08
C1M390,龍美,2026-07-07,23.406728,120.654417,1.0227285e-08
C2K290,崙內,2026-07-07,23.69525,120.35601,4.980947e-06
C2FB60,頭櫃山,2026-07-07,24.129842,120.858925,1.5304995e-08
C1H840,國三N238K,2026-07-07,23.841008,120.707711,0.024220413
CAQ030,崎峰國小,2026-07-07,22.42565,120.49521,0.60815537
C2E520,大湖,2026-07-07,24.414939,120.870872,9.770426e-07
467530,阿里山,2026-07-07,23.508208,120.813242,4.793295e-09
C1E691,南湖,2026-07-07,24.40135,120.837533,5.5235056e-08
C0FA30,梧棲,2026-07-07,24.256003,120.523381,0.011034365
C1V231,高中,2026-07-07,23.134911,120.716711,1.5530253e-06
C0AK30,硬漢嶺,2026-07-07,25.136097,121.426372,2.1025977e-07
C0F9V0,新社,2026-07-07,24.200172,120.815806,4.6929595e-06
C0H890,埔里,2026-07-07,23.972169,120.952425,0.18078601
C0R690,墾丁,2026-07-07,21.966756,120.810269,0.99972755
C0SD20,富山,2026-07-07,22.822383,121.190825,0.18675745
C0F0D0,審馬陣,2026-07-07,24.381675,121.4203,8.7453085e-09
C2W030,金門農試所,2026-07-07,24.448431,118.451786,0.012356171
C0R820,白鷺,2026-07-07,22.454275,120.666219,7.171582e-05
C0FB00,大雪山,2026-07-07,24.254668,121.007374,7.497013e-09
C2O880,南化,2026-07-07,23.17332,120.59413,0.00013376129
C1V190,南天池,2026-07-07,23.27403,120.91176,6.008367e-09
C0E940,雪見,2026-07-07,24.42595,121.01347,6.267012e-09
K2E360,苗栗農改場,2026-07-07,24.495722,120.829111,8.707135e-05
CAJ050,海口故事園區,2026-07-07,23.57543,120.14121,0.0003575776
C2K280,四湖,2026-07-07,23.6304,120.22717,0.00028104603
C2H9D0,三隻寮,2026-07-07,24.093078,120.861578,3.7794198e-08
C0O990,媽廟,2026-07-07,22.99175,120.293525,0.0461995
C0Z220,和平林道,2026-07-07,24.343922,121.656317,0.04332319
C0TA10,花蓮漁港,2026-07-07,23.995322,121.638331,0.8187567
72C440,桃園農改場,2026-07-07,24.950944,121.030583,0.00261309
C1E711,馬拉邦山,2026-07-07,24.367306,120.901656,5.417206e-09
C0SB20,富岡,2026-07-07,22.792467,121.192669,0.23878396
C0D560,竹東,2026-07-07,24.767147,121.057881,0.020022051
C0F9U0,南屯,2026-07-07,24.137006,120.637969,0.07825198
C2SD60,明峰,2026-07-07,22.8671,121.11825,0.9818338
C0M720,番路,2026-07-07,23.464657,120.554156,0.25069094
C0F0A0,雪山圈谷,2026-07-07,24.388594,121.236339,1.53446e-08
C1A9N0,四十份,2026-07-07,24.934158,121.593283,0.005710351
C0U760,東澳,2026-07-07,24.52196,121.83318,0.69699085
C0X230,鹽水,2026-07-07,23.272621,120.247641,0.00079403253
C2H9H0,苗改南投蜂場,2026-07-07,23.852589,120.693481,0.021910125
C2TB70,達谷寮,2026-07-07,23.38,121.35968,0.16960059
C0R950,萬隆國小,2026-07-07,22.507667,120.587817,0.4677128
467540,大武,2026-07-07,22.35572,120.90374,0.6327438
C0V370,古亭坑,2026-07-07,22.893178,120.401947,0.01573477
C1I340,新興橋,2026-07-07,23.563333,120.868728,5.812182e-07
C2C480,桃園,2026-07-07,24.992425,121.323172,0.032206148
C0SA80,土坂,2026-07-07,22.453108,120.887572,0.2826099
C0R160,鹽埔,2026-07-07,22.739558,120.530778,0.2770898
C0AC40,大屯山,2026-07-07,25.175675,121.522408,4.341579e-09
466850,五分山雷達站,2026-07-07,25.071182,121.781205,3.256057e-08
C2H9L0,馬烈霸,2026-07-07,24.1512,121.201772,3.9824233e-09
C1AI50,國三N016K,2026-07-07,25.034164,121.619664,0.035219505
C2V920,匏子寮,2026-07-07,23.04905,120.55319,0.007072071
C1V600,藤枝,2026-07-07,23.071961,120.757042,1.0333246e-08
C1E601,南勢,2026-07-07,24.572486,120.734842,0.013198759
C0O980,新市,2026-07-07,23.061614,120.298197,0.016946118
C0K420,西螺,2026-07-07,23.800407,120.467394,7.6311735e-06
C0Z050,佳心,2026-07-07,23.34567,121.21316,8.1618316e-07
C0AD30,蘆洲,2026-07-07,25.086594,121.472331,0.023252627
C0V610,梓官,2026-07-07,22.760558,120.267211,0.011914769
K2F750,種苗改良場,2026-07-07,24.225972,120.800917,3.8056164e-06
C0UA80,大溪漁港,2026-07-07,24.941801,121.902955,0.9561788
C1AI60,國一39K邊坡,2026-07-07,25.064361,121.383836,0.055942576
C0W150,金寧,2026-07-07,24.457703,118.328989,0.007314762
C0R960,內埔,2026-07-07,22.608483,120.570714,0.62421364
C2H9S0,龍南,2026-07-07,23.953536,120.833183,6.863773e-09
C0AH40,平等,2026-07-07,25.129142,121.577086,0.00044281114
C0R540,佳冬,2026-07-07,22.419456,120.552375,0.8397598
466950,彭佳嶼,2026-07-07,25.627975,122.079744,0.99836373
C0A890,雙溪,2026-07-07,25.036003,121.864242,0.5886494
C0AH50,林口,2026-07-07,25.072181,121.38084,0.096423835
A2K360,水試臺西試驗場,2026-07-07,23.717231,120.190522,0.0004948947
C2M960,外寮,2026-07-07,23.562643,120.665688,1.7458161e-08
C0F9S0,烏日,2026-07-07,24.107058,120.624103,0.01458125
C2N180,鹿陶洋,2026-07-07,23.14325,120.48352,0.014713683
C0C490,八德,2026-07-07,24.928708,121.283289,0.004259141
C0R190,赤山,2026-07-07,22.592333,120.614306,0.64224565
C0T820,天祥,2026-07-07,24.179597,121.495639,0.98923075
C1F9E1,龍安,2026-07-07,24.1605,120.831961,3.1733732e-06
C2SD50,順那,2026-07-07,23.04166,121.29332,0.7439168
C0V820,小林,2026-07-07,23.148408,120.63325,1.4342045e-05
C2G870,芳苑,2026-07-07,23.922303,120.320025,0.0062147453
C0E850,大河,2026-07-07,24.618069,120.948578,1.0230864e-05
C1U670,寒溪,2026-07-07,24.634,121.71691,0.39754224
C0N020,城西,2026-07-07,23.0568,120.0956,0.079630405
C1Z110,三棧,2026-07-07,24.11557,121.60501,0.37383077
C0R280,檳榔,2026-07-07,22.076078,120.836777,0.9993881
C2H9J0,中台,2026-07-07,23.9996,120.938739,2.3697912e-06
C0F9L0,后里,2026-07-07,24.310436,120.729725,0.00029874808
467441,高雄,2026-07-07,22.730432,120.312516,0.01477999
C2N210,岩坑,2026-07-07,23.24614,120.47458,0.0025013124
C0Z180,新城,2026-07-07,24.040486,121.604878,0.020585533
C0D540,橫山,2026-07-07,24.71116,121.11693,0.033279605
C1D420,太閣南,2026-07-07,24.632808,121.160575,1.5052724e-07
C1E770,公館,2026-07-07,24.526914,120.830806,0.0009172349
CAN130,水試所海水繁養殖中心,2026-07-07,23.120802,120.07968,0.08167647
C1I430,翠華,2026-07-07,24.191961,121.224339,4.8378235e-09
C1M400,菜瓜坪,2026-07-07,23.251928,120.576103,1.9184392e-06
C0G730,二林,2026-07-07,23.903325,120.376081,0.0003516167
72M360,南改義竹分場,2026-07-07,23.360694,120.279361,0.00019692913
V2K620,麥寮合作社,2026-07-07,23.753836,120.294783,0.00015049262
C0Z070,舞鶴,2026-07-07,23.46811,121.37407,0.10567226
C0B040,大武崙,2026-07-07,25.166676,121.706993,0.019009273
C1Z030,紅葉,2026-07-07,23.493119,121.338806,0.22369958
C1I050,丹大,2026-07-07,23.753747,121.141147,3.7276005e-09
C0I080,信義,2026-07-07,23.689694,120.851036,0.12621236
C2TB80,庄子底,2026-07-07,23.71794,121.49438,0.4071021
C0D750,樂山林道6k,2026-07-07,24.49999,121.08773,7.21586e-09
C2M920,朴子農改,2026-07-07,23.469889,120.259383,8.7950226e-05
C2A880,福隆,2026-07-07,25.017842,121.942083,0.99765027
C0Z160,鳳林,2026-07-07,23.746114,121.453411,0.44459528
C0UB80,翠峰林道6K,2026-07-07,24.49773,121.568625,8.145478e-09
C0V210,復興,2026-07-07,23.222403,120.806089,1.6965102e-07
C0H990,昆陽,2026-07-07,24.121322,121.273642,7.975142e-09
C0R741,獅子,2026-07-07,22.202308,120.705236,0.9566428
C0S710,鹿野,2026-07-07,22.917711,121.122994,0.051899478
C0I530,小奇萊,2026-07-07,24.131764,121.295717,9.580343e-09
C0FA70,大雪山埡口,2026-07-07,24.26867,121.03062,6.3899352e-09
C2K630,荷苞,2026-07-07,23.657717,120.595144,0.00022720579
C0Z080,富源,2026-07-07,23.587642,121.378225,0.68192387
C2M9E0,旺來山,2026-07-07,23.555153,120.486463,0.022408215
C0SB10,美和,2026-07-07,22.682078,121.060236,0.12417214
C2K620,馬光農場,2026-07-07,23.721453,120.378864,3.4173024e-06
C1I140,卡奈托灣,2026-07-07,23.754364,121.087872,3.7246364e-09
C0I520,玉山風口,2026-07-07,23.470489,120.955994,1.8376435e-08
C1G691,下水埔,2026-07-07,23.816114,120.5676,0.001990363
C0X110,臺南市南區,2026-07-07,22.961189,120.188378,0.048650317
C0V680,仁武,2026-07-07,22.701083,120.347722,0.01477999
C2G840,北斗,2026-07-07,23.877586,120.514222,1.4984354e-05
C2TB90,長橋,2026-07-07,23.6874,121.46186,0.46272516
C0R900,竹坑,2026-07-07,22.1385,120.7022,0.6523178
C0G860,社頭,2026-07-07,23.897647,120.5862,0.008781113
C0X150,安定,2026-07-07,23.102614,120.227839,0.032912068
C0R590,里港,2026-07-07,22.77919,120.49459,0.0072875703
C0E610,馬都安,2026-07-07,24.451272,120.930192,2.0641684e-08
C0E550,明德,2026-07-07,24.583486,120.885411,0.0008083023
C0R150,三地門,2026-07-07,22.709889,120.639944,0.13675275
C0G910,花壇,2026-07-07,24.032076,120.549461,0.0005135738
C1D400,鳥嘴山,2026-07-07,24.71909,121.28387,6.003753e-07
C0K500,元長,2026-07-07,23.64981,120.315024,0.009391259
C0F0B0,石岡,2026-07-07,24.276061,120.777644,0.00038822263
C2V250,甲仙,2026-07-07,23.080106,120.591758,0.005537068
C0SA20,金崙山,2026-07-07,22.567419,120.959667,4.743977e-05
C0V350,溪埔,2026-07-07,22.738578,120.446797,0.028510699
C0M660,溪口,2026-07-07,23.604131,120.403569,0.00022605795
C1S880,壽卡,2026-07-07,22.238911,120.858903,0.0028893142
72D680,桃改新埔分場,2026-07-07,24.834444,121.066111,0.00046058223
