站號,站名,日期,lat,lon,BLBTSLS
C0R710,龍磐,2026-07-04,21.931672,120.838942,0.23096703
C1F9D1,白毛台,2026-07-04,24.158325,120.886933,2.5646037e-07
C0G940,竹塘,2026-07-04,23.848253,120.386764,0.0021163507
467590,恆春,2026-07-04,22.003897,120.746339,0.57151717
C0U710,太平山,2026-07-04,24.505486,121.525656,1.0175256e-08
C0E820,獅潭,2026-07-04,24.539133,120.920042,6.893026e-06
C2SD70,二層坪,2026-07-04,22.94105,121.16838,0.0007933178
C0V880,興達,2026-07-04,22.8778,120.2127,0.8828055
C0SB30,新蘭,2026-07-04,22.869214,121.223228,0.002554318
C2R970,屏科大,2026-07-04,22.648275,120.619247,0.022913724
C1Z130,銅門,2026-07-04,23.965694,121.492842,0.6166162
C0AD40,土城,2026-07-04,24.973208,121.445169,0.97884315
CAN140,六官養殖協會,2026-07-04,23.22881,120.29962,0.014004468
C0X180,山上,2026-07-04,23.0757,120.363253,0.10023845
C0F9Z0,雪山東峰,2026-07-04,24.388792,121.268675,1.3240241e-08
C1M480,獨立山,2026-07-04,23.537022,120.607797,2.6522127e-07
C0X220,學甲,2026-07-04,23.230367,120.182187,0.020004036
467650,日月潭,2026-07-04,23.881325,120.90805,9.606567e-08
A2K570,古坑(花卉中心),2026-07-04,23.633531,120.552392,0.036539376
C0K600,箔子寮,2026-07-04,23.6197,120.14,0.27070114
C0G830,埤頭,2026-07-04,23.866003,120.452806,0.00018508645
C0S950,七塊厝,2026-07-04,22.954453,121.229922,2.7643013e-05
467110,金門,2026-07-04,24.407306,118.289281,0.85252136
C0AH80,深坑,2026-07-04,25.002703,121.628328,0.14968425
C0A970,三貂角,2026-07-04,25.007606,122.002058,0.19268067
C2D730,寶山農場,2026-07-04,24.732444,120.976153,1.3689957e-05
C0K430,褒忠,2026-07-04,23.690938,120.303634,0.032227438
467480,嘉義,2026-07-04,23.495925,120.432906,0.011392253
C0V400,阿公店,2026-07-04,22.804194,120.355528,0.95398366
C2S800,華源,2026-07-04,22.65783,121.0232,0.117626764
C2SA40,瑞和,2026-07-04,22.974361,121.156697,0.0007385028
C0E960,觀霧分站,2026-07-04,24.505781,121.113921,7.588714e-09
467550,玉山,2026-07-04,23.48718,120.95943,1.682965e-08
C0R440,大漢山,2026-07-04,22.405264,120.753181,7.751269e-09
C0SD30,東清國小,2026-07-04,22.057128,121.564922,0.1731812
C1F9B1,桐林,2026-07-04,24.066172,120.735194,0.029542876
C2I210,蘆竹湳,2026-07-04,23.93398,120.81209,0.0002178375
C2H9U0,鳳鵬,2026-07-04,23.763919,120.788061,0.0015258512
C0K390,土庫,2026-07-04,23.679029,120.395574,0.00015587962
C1I450,望鄉山,2026-07-04,23.594153,120.944286,7.0074977e-09
C0E910,海埔,2026-07-04,24.648767,120.772435,7.004342e-05
B2E890,畜試北區分所,2026-07-04,24.527806,120.770972,7.1647606e-05
C0R750,四林格山,2026-07-04,22.076989,120.802439,1.032111e-05
C0F0C0,中坑,2026-07-04,24.248517,120.903319,3.816633e-08
C1I121,大鞍,2026-07-04,23.678381,120.760017,6.3463785e-09
C2G9E0,移民庄,2026-07-04,23.9784,120.40283,0.0029495782
72U480,花改蘭陽分場,2026-07-04,24.686306,121.716583,0.6705168
C0A770,科教館,2026-07-04,25.096356,121.516507,0.9729225
C0AJ60,六塊厝,2026-07-04,25.24,121.4481,0.09610764
C0R620,墾雷,2026-07-04,21.900836,120.855269,0.20371151
467290,古坑,2026-07-04,23.633536,120.551906,0.03653932
467420,永康,2026-07-04,23.038386,120.2367,0.0135578
C2M530,奮起湖,2026-07-04,23.493903,120.699253,9.87138e-09
C0I410,名間,2026-07-04,23.837053,120.701447,0.0029422618
A2C560,農工中心,2026-07-04,24.985917,121.239833,0.00032907928
C0V740,旗山,2026-07-04,22.888614,120.483597,0.18694963
C0Z061,玉里,2026-07-04,23.3215,121.339656,0.0026727887
C0S840,南田,2026-07-04,22.279725,120.889208,0.1554067
C1I470,杉林溪,2026-07-04,23.639517,120.786444,5.325911e-09
C1X040,東原,2026-07-04,23.291597,120.463822,0.0004410271
C0R660,枋寮,2026-07-04,22.367722,120.590647,0.013714616
C0K450,大埤,2026-07-04,23.646074,120.431537,0.00078018976
C0UA00,土場,2026-07-04,24.576533,121.495333,0.031592995
467080,宜蘭,2026-07-04,24.763975,121.756528,0.5196342
C0N030,四草,2026-07-04,23.0235,120.1116,0.7890067
467410,臺南,2026-07-04,22.99328,120.20492,0.02024955
C0V650,彌陀,2026-07-04,22.783806,120.246361,0.8279078
C0D660,新竹市東區,2026-07-04,24.798681,120.986942,2.7814154e-05
82S580,茶改東部分場,2026-07-04,22.907694,121.130139,0.00035386777
C0SB40,興隆,2026-07-04,22.913661,121.257469,0.0019391028
467050,新屋,2026-07-04,25.006725,121.047492,4.0071183e-05
C0C710,大溪永福,2026-07-04,24.892936,121.324975,0.0010589231
C0FA20,溫寮,2026-07-04,24.372177,120.583125,0.009068166
C0V640,湖內,2026-07-04,22.887139,120.2445,0.8881324
C0R910,下寮,2026-07-04,22.3929,120.5548,0.0048730974
C0Z020,明里,2026-07-04,23.208717,121.262342,0.013211666
C0M770,嘉義梅山,2026-07-04,23.585398,120.555587,0.105907775
C0C660,楊梅,2026-07-04,24.912375,121.143047,1.0357504e-05
C0SD40,牛頭山,2026-07-04,22.676661,121.506944,0.0013906638
C1E511,新開,2026-07-04,24.347703,120.827019,0.013184078
G2F820,農試所(霧峰),2026-07-04,24.031261,120.688133,0.03752269
C2M990,大巃頂,2026-07-04,23.5547,120.61439,2.502183e-08
C1I070,和社,2026-07-04,23.591131,120.888861,6.4559754e-05
C2E990,新坪頂,2026-07-04,24.30201,120.8574,5.6609086e-05
C0TA80,立霧山,2026-07-04,24.183258,121.641899,1.4063731e-07
C2F000,大肚,2026-07-04,24.15295,120.572117,0.19139478
C1S850,豐南,2026-07-04,23.122139,121.262389,9.6548836e-05
C2M9B0,西興,2026-07-04,23.2428,120.57617,9.507824e-06
C2A920,富貴角,2026-07-04,25.263783,121.565258,0.30664122
C0T960,光復,2026-07-04,23.660694,121.424964,0.048347775
C0F9M0,豐原,2026-07-04,24.254322,120.720692,0.03657564
C0R720,旭海,2026-07-04,22.205403,120.887614,0.010919134
C0V710,苓雅,2026-07-04,22.622742,120.330669,0.32923
C0C740,觀音工業區,2026-07-04,25.064764,121.114856,3.0381549e-05
CAC040,拉拉山,2026-07-04,24.699317,121.427133,1.2206954e-08
C0V790,萬山,2026-07-04,22.905944,120.688056,0.0048753456
U2HA30,臺大和社,2026-07-04,23.590856,120.888864,6.4559754e-05
C2H9K0,屯原,2026-07-04,24.067969,121.209389,6.4807644e-09
C0AJ90,澳底,2026-07-04,25.0552,121.9253,0.014352228
C0Z100,東華,2026-07-04,23.89525,121.549833,0.09432103
C0G970,三豐,2026-07-04,23.882,120.2895,0.5410229
C0V900,汕尾,2026-07-04,22.4782,120.4151,0.066285335
C1R630,龍泉,2026-07-04,22.66701,120.59091,0.014343494
C1AC50,關渡,2026-07-04,25.133486,121.469331,0.17284606
C0C800,四稜,2026-07-04,24.64733,121.4293,3.423231e-08
C0F9I0,神岡,2026-07-04,24.272481,120.658314,0.24007024
C0K460,斗南,2026-07-04,23.678734,120.478359,0.0008846051
C2O810,曾文,2026-07-04,23.219681,120.497328,0.0021925608
467280,後龍,2026-07-04,24.648563,120.831834,7.544321e-05
C1F9J1,清水林,2026-07-04,24.071242,120.820419,3.310375e-07
C2A650,火燒寮,2026-07-04,25.002719,121.742892,9.1630296e-05
466930,竹子湖,2026-07-04,25.162078,121.544547,1.6028911e-05
C1I220,樟湖,2026-07-04,23.905333,120.846983,2.2178051e-08
C0I390,仁愛,2026-07-04,24.022122,121.132206,2.2536632e-08
C0Z300,東里,2026-07-04,23.26853,121.30547,0.0018642225
C1V590,新發,2026-07-04,23.057019,120.646064,1.752621e-05
C0K510,水林,2026-07-04,23.572924,120.24597,0.020589825
72S590,東改賓朗果園,2026-07-04,22.813889,121.071278,0.0061264858
82A750,茶改北部分場,2026-07-04,24.955778,121.631222,7.159988e-07
C1A750,石碇服務區,2026-07-04,25.00872,121.646242,0.49067974
C0X300,鹿寮,2026-07-04,23.386047,120.477331,0.02016441
C0K590,雲林東勢,2026-07-04,23.674192,120.255721,0.029868683
C2K310,港尾布雞,2026-07-04,23.74834,120.38439,0.000304368
C0A570,桶後,2026-07-04,24.848222,121.597992,0.5938549
C0G720,溪州,2026-07-04,23.851589,120.499093,0.00020930017
C1V160,達卡努瓦,2026-07-04,23.279811,120.705319,8.646654e-09
C2M410,馬頭山,2026-07-04,23.324361,120.582017,0.00093697716
C0V850,蚵仔寮,2026-07-04,22.7256,120.2527,0.8005156
C0S740,池上,2026-07-04,23.119628,121.209469,0.0012156571
C1V390,尖山,2026-07-04,22.813153,120.367789,0.9619057
C0AH70,松山,2026-07-04,25.04871,121.55042,0.9747694
C0N010,鯤鯓國小,2026-07-04,23.1879,120.0889,0.1922548
C0SA60,知本（水試所）,2026-07-04,22.702394,121.082761,0.013795351
C0T9I0,豐濱,2026-07-04,23.583897,121.514806,0.006332161
C0UB00,淡江大學蘭陽校園,2026-07-04,24.823239,121.730383,0.00086261396
C0W240,九宮,2026-07-04,24.423753,118.240186,0.88748026
C0T9N0,富里,2026-07-04,23.171639,121.249378,0.0053043454
U2HA50,臺大竹山,2026-07-04,23.756972,120.681556,0.0038937076
C0V840,鳳鼻頭,2026-07-04,22.5083,120.3591,0.08300292
C0X140,西港,2026-07-04,23.125608,120.203108,0.005895983
72D080,桃改五峰分場,2026-07-04,24.612194,121.157167,7.630442e-09
C2H9P0,伊拿谷,2026-07-04,23.963211,121.088264,5.5901392e-08
C2K250,崙背,2026-07-04,23.75553,120.31893,0.035788428
C2H9F0,柑林,2026-07-04,24.018658,120.847072,0.0017517661
C0TA20,加灣,2026-07-04,24.082025,121.608944,0.057536498
C0V530,阿蓮,2026-07-04,22.883208,120.327508,0.94736266
C0FB30,八仙山苗圃,2026-07-04,24.192719,121.001366,5.3070526e-08
C0E791,卓蘭,2026-07-04,24.3126,120.8244,0.0060911817
C2R260,春日,2026-07-04,22.370361,120.628306,0.009355325
C1I030,武界,2026-07-04,23.913225,121.052483,8.4233176e-07
C0R520,崁頂,2026-07-04,22.514781,120.506914,0.02272941
C0R341,牡丹,2026-07-04,22.130036,120.792639,2.0830294e-05
C0R930,萬丹,2026-07-04,22.5885,120.4851,0.10734576
C0S760,紅石,2026-07-04,23.069131,121.126219,2.0852958e-08
C2C410,中央大學,2026-07-04,24.967652,121.185165,0.000370891
C1M610,石磐龍,2026-07-04,23.496606,120.663506,2.1618932e-08
C2C830,中德,2026-07-04,24.981862,121.291344,0.10570551
C0C790,東眼山,2026-07-04,24.8284,121.40888,1.0408198e-07
C0UA10,鴛鴦湖,2026-07-04,24.590269,121.412228,8.904842e-09
C0R800,丹路,2026-07-04,22.204481,120.750989,0.001817598
C2R240,萬巒,2026-07-04,22.527306,120.625111,0.037559878
C0G920,永靖,2026-07-04,23.924703,120.547533,0.0001492811
C2M950,太和,2026-07-04,23.538372,120.702961,1.018345e-08
C1A630,下盆,2026-07-04,24.771003,121.538622,0.0011827215
B2N890,畜產試驗所,2026-07-04,23.058972,120.336406,0.13524246
C0UA30,白嶺,2026-07-04,24.527819,121.519031,2.2269612e-08
467571,新竹,2026-07-04,24.828575,121.01455,3.8161675e-06
C1V580,溪南(特生中心),2026-07-04,23.084972,120.788475,7.589568e-09
C1T970,大農,2026-07-04,23.615233,121.413331,0.009402538
C0R650,竹田,2026-07-04,22.58486,120.54344,0.023583665
C1H900,清流,2026-07-04,24.080775,120.962997,2.6908635e-08
C1C510,水尾,2026-07-04,24.940081,121.087161,3.9181155e-06
C2N170,茅港尾,2026-07-04,23.2061,120.2624,0.014004468
C0F9X0,大雅(中科園區),2026-07-04,24.21528,120.62445,0.4949336
C0SB60,白守蓮,2026-07-04,23.126769,121.401914,0.033901613
C0O970,虎頭埤,2026-07-04,23.021375,120.347878,0.1430615
C0C730,中大臨海站,2026-07-04,24.966126,121.008581,6.5667246e-06
C0X250,新營,2026-07-04,23.310689,120.316681,0.019090038
C0V700,三民,2026-07-04,22.645017,120.311233,0.6906597
C0U870,大礁溪,2026-07-04,24.791042,121.675047,0.00033148302
C0E870,高鐵苗栗,2026-07-04,24.60725,120.826094,7.103884e-05
C2S890,關山,2026-07-04,23.0395,121.175017,0.00019008481
C0TA30,鹽寮,2026-07-04,23.845606,121.592664,0.067971855
C0M860,新美,2026-07-04,23.338017,120.683169,7.1077297e-06
C1E701,八卦,2026-07-04,24.491756,120.927619,1.23773995e-08
C2TA90,加納納,2026-07-04,23.466421,121.359867,3.0184134e-05
C0I420,國姓,2026-07-04,24.037803,120.855072,0.0011356312
C2D720,關西工作站,2026-07-04,24.757275,121.184792,7.103193e-05
C2AK30,信賢,2026-07-04,24.84108,121.53492,0.00070678204
C0S960,香蘭,2026-07-04,22.587569,120.993375,0.68752366
467620,蘭嶼,2026-07-04,22.0369,121.55843,0.002630778
C2UC40,中城,2026-07-04,24.62865,121.74745,0.8138248
72G600,臺中農改場,2026-07-04,24.003028,120.534389,0.00017312169
C0Z210,瑞穗,2026-07-04,23.5239,121.39021,0.0006024116
C0M820,達邦,2026-07-04,23.453994,120.749517,7.016542e-08
C0V860,南寮,2026-07-04,22.7616,120.2339,0.80100983
C0G740,大城,2026-07-04,23.852487,120.320935,0.5819675
C0R920,塭仔,2026-07-04,22.4169,120.5197,0.004686013
C0R470,高樹,2026-07-04,22.826389,120.600806,0.105343536
C0R680,佳樂水,2026-07-04,21.993578,120.861633,0.12571222
C1O870,大棟山,2026-07-04,23.31157,120.52226,7.66244e-09
C0D360,梅花,2026-07-04,24.678347,121.208558,2.2636281e-07
C0Z190,富世,2026-07-04,24.14743,121.6297,0.9826598
C0AI10,屈尺,2026-07-04,24.92184,121.54475,0.98369104
B2U990,畜試東區分所,2026-07-04,24.669039,121.832561,0.7706418
C0SB80,長濱漁港,2026-07-04,23.313644,121.459994,0.004499185
C0TA50,和仁,2026-07-04,24.241394,121.712472,0.4674527
C2AK40,漁光,2026-07-04,24.96875,121.72132,3.8202234e-08
C0V910,大樹,2026-07-04,22.684645,120.432803,0.76520437
C1R610,西大武山,2026-07-04,22.617719,120.7322,1.1712497e-08
C0K500,元長,2026-07-04,23.642858,120.31966,0.029868683
C0G900,線西,2026-07-04,24.143358,120.443536,0.002520128
C0M700,竹崎,2026-07-04,23.526178,120.555508,0.05964795
C2E880,三義,2026-07-04,24.405478,120.749819,2.6476387e-06
C0C720,竹圍,2026-07-04,25.112692,121.239824,0.0007277338
C0F9P0,清水,2026-07-04,24.312297,120.562242,0.09775926
C0Z150,吉安光華,2026-07-04,23.930925,121.595153,0.032673325
C0FA80,小雪山天池,2026-07-04,24.28025,121.02627,1.0665997e-08
467300,東吉島,2026-07-04,23.25727,119.66762,0.9649334
C1D640,外坪(五指山),2026-07-04,24.644447,121.090961,9.1159485e-08
C2R9A0,高士國小,2026-07-04,22.12553,120.84653,1.7178987e-05
C0F9O0,潭子,2026-07-04,24.213106,120.703933,0.025787253
C2H9R0,卓社,2026-07-04,23.887894,121.000086,2.7764873e-08
72T250,花蓮農改場,2026-07-04,23.975222,121.563889,0.048051246
C0E780,銅鑼,2026-07-04,24.489681,120.790853,0.0001887863
C1T950,太安,2026-07-04,23.666719,121.370128,4.6598537e-08
C0E830,苑裡,2026-07-04,24.439714,120.653053,0.004182971
467270,田中,2026-07-04,23.873803,120.581286,0.0010053297
C0SA10,檳榔四格山,2026-07-04,22.810031,121.109308,0.0014473061
C1T830,布洛灣,2026-07-04,24.17184,121.57127,0.99825263
C0F970,大坑,2026-07-04,24.173142,120.722289,0.14822619
C1U920,思源,2026-07-04,24.393125,121.347214,7.4412387e-09
C2H9Y0,松茗,2026-07-04,23.8167,120.650765,0.00067292014
C0A931,三和,2026-07-04,25.233153,121.595236,0.3392103
C0I010,廬山,2026-07-04,24.033311,121.181808,7.2004753e-09
C2M940,日野賀,2026-07-04,23.434056,120.727169,7.3954656e-09
C0R860,鼻頭,2026-07-04,22.1043,120.8979,0.0033754203
C2I260,北坑,2026-07-04,23.92463,121.00683,0.32087505
C0UB20,壯圍,2026-07-04,24.7359,121.8163,0.44932145
C0R790,九棚,2026-07-04,22.14195,120.889281,0.0014715483
C0W110,東莒,2026-07-04,25.9652,119.98069,0.67688596
C1U930,粉鳥林,2026-07-04,24.497088,121.842479,0.0022033185
C0S830,長濱,2026-07-04,23.286817,121.411975,4.3559143e-05
C1F9F1,伯公龍,2026-07-04,24.272392,120.849047,0.011243235
C0UB90,太平山莊,2026-07-04,24.494171,121.536209,1.00954365e-08
C0E810,西湖,2026-07-04,24.562947,120.7485,0.0022872176
C1I440,新高口,2026-07-04,23.478744,120.878939,5.929087e-09
C0O840,王爺宮,2026-07-04,23.222064,120.40085,0.04697843
C0T9G0,鳳林山,2026-07-04,23.735269,121.420131,5.7097193e-05
C0X080,佳里,2026-07-04,23.173039,120.145086,0.15286167
C0FB70,大甲溪埔,2026-07-04,24.370625,120.620067,0.013052284
C0Z310,清水斷崖,2026-07-04,24.218294,121.689142,0.7151405
C0M680,太保,2026-07-04,23.455062,120.331455,0.0047538346
C1S820,金峰,2026-07-04,22.590969,120.933236,0.70747596
C0AD10,八里,2026-07-04,25.150211,121.403947,0.028320614
C2K240,草嶺,2026-07-04,23.59555,120.693461,3.1704733e-08
C1SA70,都蘭,2026-07-04,22.87794,121.226881,0.0021004614
C0K440,二崙,2026-07-04,23.772797,120.408944,0.00036704677
C1A760,坪林交控,2026-07-04,24.94284,121.713442,7.403248e-06
C0F9N0,大里,2026-07-04,24.092464,120.701378,0.018718038
C0SA90,達仁林場,2026-07-04,22.264347,120.823972,0.00023302408
C1R290,石門山,2026-07-04,22.112611,120.756597,9.7256e-05
42HA10,萬大發電廠,2026-07-04,23.978875,121.139639,5.0020496e-08
C0R890,山海,2026-07-04,21.9878,120.7091,0.54013973
C0T9A0,月眉山,2026-07-04,23.809928,121.539828,1.2783786e-06
C0AC70,信義,2026-07-04,25.037822,121.564597,0.9554156
C0K560,棋山,2026-07-04,23.68645,120.603417,0.39094153
C2FB50,出雲,2026-07-04,24.206469,120.902794,1.469547e-08
C1Z240,中平林道,2026-07-04,23.42115,121.26763,4.2945043e-08
U2H480,溪頭,2026-07-04,23.670306,120.798194,2.5009664e-08
C0M880,好美里,2026-07-04,23.3364,120.138,0.020079307
C0T9E0,大坑,2026-07-04,23.880628,121.581981,0.055837333
C0K530,臺西,2026-07-04,23.701547,120.197559,0.1360416
C1E900,國一N128K,2026-07-04,24.560997,120.844186,0.00046117665
C0AJ50,水湳洞,2026-07-04,25.123695,121.862238,0.010838731
C0AI20,白沙灣,2026-07-04,25.283128,121.519058,0.43772998
C2V310,美濃,2026-07-04,22.898792,120.51907,0.17925107
C0A860,大坪,2026-07-04,25.165914,121.632969,0.037272397
C1U850,觀音海岸,2026-07-04,24.38319,121.77856,2.120428e-06
C2K610,草嶺石壁,2026-07-04,23.602469,120.707731,2.486872e-08
C0U950,鶯子嶺,2026-07-04,24.89754,121.79244,1.3267821e-08
C0O900,善化,2026-07-04,23.112883,120.297219,0.11408964
C0K550,蔦松,2026-07-04,23.514319,120.229736,0.08737702
E2P980,林試六龜中心,2026-07-04,22.991703,120.645722,0.045696307
C0E590,通霄,2026-07-04,24.471892,120.704622,0.0070694294
C1I310,西巒,2026-07-04,23.754486,120.883956,5.1299374e-08
C0A550,泰平,2026-07-04,24.971197,121.823711,3.2059012e-07
C2UC30,金洋,2026-07-04,24.42465,121.74573,0.047029212
C0I360,水里,2026-07-04,23.812553,120.849792,0.0021926977
C0R830,高士,2026-07-04,22.121825,120.836781,5.692653e-05
C1I101,溪頭,2026-07-04,23.661789,120.807647,5.03705e-09
C0AJ20,野柳,2026-07-04,25.20703,121.690021,0.08483707
C0B060,暖暖,2026-07-04,25.0957,121.7403,0.41459793
C1H920,長豐,2026-07-04,24.102039,120.879897,6.334433e-08
C2S9B0,利吉,2026-07-04,22.86246,121.15486,0.00031594918
C0V360,內門,2026-07-04,22.975481,120.466769,0.0029544188
C0R850,林邊,2026-07-04,22.4634,120.5339,0.0046639936
C0E930,龍鳳,2026-07-04,24.700034,120.859125,5.783491e-05
C0U910,冬山,2026-07-04,24.63373,121.7937,0.7706418
C1E721,泰安,2026-07-04,24.489017,120.968036,3.604984e-09
82H320,茶改中部分場,2026-07-04,23.875611,120.913583,3.0845251e-06
C0M750,布袋,2026-07-04,23.380878,120.167789,0.2761619
C1S860,利嘉,2026-07-04,22.809417,121.050528,0.16182394
E2S980,林試太麻里1,2026-07-04,22.598922,120.980044,0.30744234
C0X170,關廟,2026-07-04,22.963017,120.327797,0.8441831
C0V720,林園,2026-07-04,22.507747,120.394511,0.058310207
C2M9G0,沄水,2026-07-04,23.38293,120.52666,0.026258197
C1I510,線浸林道,2026-07-04,23.761508,120.832956,1.1109958e-08
C0D690,外湖,2026-07-04,24.917735,120.968711,1.7771094e-05
C0C750,新興坑尾,2026-07-04,25.0061,121.0971,1.8345203e-05
B2Q810,畜試南區分所,2026-07-04,21.945583,120.802167,0.12571232
C0S790,金崙,2026-07-04,22.538122,120.966875,0.8870723
C0AH90,福山植物園,2026-07-04,24.760717,121.58135,3.178727e-05
C0I540,奇萊稜線,2026-07-04,24.109231,121.326456,1.1791554e-08
C0M850,表湖,2026-07-04,23.24186,120.64166,1.2745838e-07
C0S770,大溪山,2026-07-04,22.478475,120.943325,0.0971478
C0AG80,中和,2026-07-04,24.991622,121.491792,0.97884315
C0T790,大禹嶺,2026-07-04,24.186117,121.316086,8.882044e-09
C0T9B0,水源,2026-07-04,23.991861,121.537169,0.02779434
C0R840,牡丹池山,2026-07-04,22.168389,120.841225,4.3173364e-07
C1I131,桶頭,2026-07-04,23.641944,120.654117,0.73919797
CAL110,布袋國中,2026-07-04,23.35893,120.18026,0.020079307
C2M9D0,何竹子腳,2026-07-04,23.53641,120.38203,0.009689949
C0Z290,赤柯山,2026-07-04,23.36893,121.38293,1.3172676e-07
C0X280,將軍,2026-07-04,23.214999,120.13577,0.021227237
C0S690,太麻里,2026-07-04,22.60902,120.98533,0.9709353
C0U880,北關,2026-07-04,24.9072,121.8734,0.10676919
CAW010,東引,2026-07-04,26.3588,120.4836,0.99792814
C0G810,埔心,2026-07-04,23.947633,120.525456,0.00013299158
C0U970,大福,2026-07-04,24.80064,121.81389,0.5162209
C2H9N0,仁愛東眼,2026-07-04,24.026875,121.1205,1.1198419e-08
C1E670,南礦,2026-07-04,24.538278,121.002836,4.276854e-09
C0M520,東後寮,2026-07-04,23.369908,120.248065,0.009716071
C1E461,松安,2026-07-04,24.397972,120.986022,4.6322475e-09
C2N160,西拉雅風管處,2026-07-04,23.189481,120.335297,0.19072346
C2O850,環湖,2026-07-04,23.148665,120.4186,0.0028075327
C2M970,碧湖,2026-07-04,23.568632,120.624165,2.5952074e-08
C0A640,石碇,2026-07-04,24.993969,121.662917,7.396558e-06
E2S960,林試太麻里2,2026-07-04,22.598,120.99775,0.66495615
C0F9Y0,桃山,2026-07-04,24.432739,121.303808,1.4745109e-08
C1I020,萬大,2026-07-04,23.979817,121.132261,2.1523357e-08
C2UC20,長嶺,2026-07-04,24.70894,121.61162,0.0053361217
C0U940,羅東,2026-07-04,24.68184,121.74934,0.6669997
C0M650,朴子,2026-07-04,23.43463,120.23902,0.0041543264
C1I500,大尖山,2026-07-04,23.858572,120.994889,5.4387295e-09
C0FB40,中橫21.6k,2026-07-04,24.2499,121.1455,1.4860105e-08
C0G820,田尾,2026-07-04,23.901669,120.509389,0.00013299158
E2K600,四湖植物園,2026-07-04,23.676986,120.163433,0.14651263
C0S730,綠島,2026-07-04,22.6672,121.47533,0.003322622
12Q970,東港工作站,2026-07-04,22.479997,120.466058,0.004525836
C1TA00,太魯閣,2026-07-04,24.15773,121.6236,0.8559335
466920,臺北,2026-07-04,25.037658,121.514853,0.9747694
C0R600,舊泰武,2026-07-04,22.588194,120.664944,0.0028998083
466910,鞍部,2026-07-04,25.182586,121.529731,2.0950353e-08
C1I230,九份二山,2026-07-04,23.961944,120.845,2.5562917e-07
C2M810,里佳,2026-07-04,23.389125,120.716647,5.244841e-09
C2A660,瑞芳,2026-07-04,25.113169,121.801147,0.3348321
C0R270,琉球嶼,2026-07-04,22.332244,120.362236,0.01687877
C2V580,瑞山,2026-07-04,22.90304,120.43424,0.02644648
C1T990,高寮,2026-07-04,23.394239,121.356808,0.0005857373
C0G620,芬園,2026-07-04,24.015678,120.6213,0.0024777965
C1Z140,荖溪,2026-07-04,23.890575,121.45964,9.5096965e-07
C1I201,中心崙,2026-07-04,23.728722,120.712097,1.3998171e-05
C1I400,凌霄,2026-07-04,24.018778,121.004456,1.0608195e-08
C1M640,十字,2026-07-04,23.492153,120.753683,5.7021103e-09
G2P820,農試鳳山分所,2026-07-04,22.646611,120.356083,0.36042398
C0Z270,蕃薯寮,2026-07-04,23.73835,121.540108,0.00020919822
C2E420,竹南,2026-07-04,24.70898,120.88897,7.276443e-05
C2D480,打鐵坑,2026-07-04,24.849664,121.150789,5.692138e-06
C0FB10,出雲山苗圃,2026-07-04,24.23105,120.90475,3.816633e-08
C0F9Q0,外埔,2026-07-04,24.347817,120.705686,0.53847545
C0K580,高鐵雲林,2026-07-04,23.737456,120.417944,0.000304368
C2I090,鳳凰,2026-07-04,23.728081,120.787347,1.0231561e-07
C0U990,員山,2026-07-04,24.74435,121.72247,0.6580379
C0V770,大社,2026-07-04,22.730306,120.346639,0.8817914
C0X120,麻豆,2026-07-04,23.183289,120.248611,0.007590394
C0C670,龍潭,2026-07-04,24.870056,121.221389,6.400224e-05
C0D680,香山濕地,2026-07-04,24.783581,120.914988,1.7771075e-05
C0S980,勝林山,2026-07-04,22.430439,120.8938,9.795573e-06
C0V730,大寮,2026-07-04,22.605614,120.395717,0.29835173
C0R570,麟洛,2026-07-04,22.65078,120.52719,0.17295666
C2M930,石卓,2026-07-04,23.478744,120.702264,5.743786e-09
C0G9B0,和美,2026-07-04,24.105169,120.492131,0.0036696089
C2I240,外大坪,2026-07-04,23.9587,120.91788,5.8869114e-06
CAG100,王功漁港,2026-07-04,23.96824,120.32586,0.36799905
C0X290,北門,2026-07-04,23.267772,120.125481,0.02117719
C2F930,大甲,2026-07-04,24.347667,120.640403,0.114630416
C0D650,湖口,2026-07-04,24.904794,121.043628,1.3577572e-06
C0U780,五結,2026-07-04,24.68637,121.79794,0.7706418
C1I250,鯉潭,2026-07-04,23.961922,120.991131,0.0032620002
C0R130,阿禮,2026-07-04,22.742908,120.743678,8.1170526e-08
C0X100,臺南市北區,2026-07-04,23.010394,120.194228,0.018035796
C0S920,金峰嘉蘭,2026-07-04,22.594789,120.960825,0.8298267
C0V490,新興,2026-07-04,22.627422,120.298803,0.46052346
C0F9K0,大安,2026-07-04,24.345061,120.588025,0.07666019
C2E970,八甲,2026-07-04,24.535811,120.795983,0.001535119
C0V440,鳳山,2026-07-04,22.646653,120.356122,0.36042404
C1T940,大觀,2026-07-04,23.714206,121.373133,2.5757956e-06
C0E740,造橋,2026-07-04,24.637056,120.864778,0.000108473134
C0R100,尾寮山,2026-07-04,22.833111,120.683889,5.19991e-08
A2K630,臺大雲林校區,2026-07-04,23.730628,120.423903,0.00031697404
467990,馬祖,2026-07-04,26.169467,119.923158,0.99456936
C0D580,寶山,2026-07-04,24.735006,121.025192,7.862149e-06
E2P990,林試扇平站,2026-07-04,22.9677,120.6857,0.00039946265
C0AI30,三重,2026-07-04,25.057328,121.500629,0.9729225
C0AH00,汐止,2026-07-04,25.066881,121.658778,0.069993205
C1Z040,立山,2026-07-04,23.443356,121.327375,1.37081415e-05
466881,新北,2026-07-04,24.959207,121.525196,0.9789124
C0W130,花嶼,2026-07-04,23.40007,119.32276,0.9503106
C0A950,鼻頭角,2026-07-04,25.129036,121.923372,0.92786556
C0K470,林內,2026-07-04,23.748675,120.609642,0.32616866
C2F990,摩天嶺,2026-07-04,24.322458,120.936819,2.8802313e-08
C2E430,南庄,2026-07-04,24.601775,121.000214,1.02021895e-05
82C160,茶改場,2026-07-04,24.908472,121.185333,1.20190325e-05
C2TB60,南安,2026-07-04,23.29818,121.26157,0.0007648377
C0Z320,清水林道,2026-07-04,23.27125,121.188272,5.55763e-06
C0R760,南仁湖,2026-07-04,22.084681,120.863353,9.964837e-05
C0M670,大林,2026-07-04,23.600616,120.45841,0.01789913
C0M800,茶山,2026-07-04,23.299075,120.664767,0.00022479307
C0A9C0,天母,2026-07-04,25.117494,121.537169,0.9612117
72K220,南改斗南分場,2026-07-04,23.634556,120.477333,0.00092070823
72AI40,桃改樹林分場,2026-07-04,24.944503,121.386972,0.98361695
C0S910,蘭嶼燈塔,2026-07-04,22.081197,121.503117,0.03379414
C0B050,八斗子,2026-07-04,25.144754,121.79167,0.037061725
C0U900,內城,2026-07-04,24.71813,121.68766,0.6385226
C0X320,柳營,2026-07-04,23.253328,120.375253,0.015639596
C0M790,新港,2026-07-04,23.553269,120.345728,0.0016486141
C0F9T0,西屯,2026-07-04,24.179494,120.641275,0.41403684
C0E950,松安,2026-07-04,24.39792,120.98599,4.6322475e-09
C0SA30,都歷,2026-07-04,23.020333,121.323642,0.0017350924
C0C620,蘆竹,2026-07-04,25.084275,121.265767,0.000108518245
C0R730,大坪頂,2026-07-04,22.024633,120.69355,0.12694293
C0AJ40,石門,2026-07-04,25.273672,121.601198,0.6211901
C0E750,苗栗,2026-07-04,24.564569,120.824575,0.00042608823
C0T870,鯉魚潭,2026-07-04,23.935639,121.508944,0.26591355
C1V170,排雲,2026-07-04,23.463619,120.954147,1.39953675e-08
C2H950,中寮,2026-07-04,23.884447,120.766406,0.05728271
C0R350,貓鼻頭,2026-07-04,21.921774,120.7358,0.5348118
C0V660,岡山,2026-07-04,22.797078,120.294958,0.83965087
C1H941,雙冬,2026-07-04,23.967378,120.802189,0.00024627818
C0AJ70,田寮,2026-07-04,25.2698,121.4886,0.41086167
C0AI00,五股,2026-07-04,25.07445,121.42728,0.9831553
C0Z280,德武,2026-07-04,23.47426,121.41071,6.9185415e-05
C2RA10,大新,2026-07-04,22.67558,120.57788,0.014343494
C0C460,復興,2026-07-04,24.820208,121.352281,9.272232e-06
C2AA10,中八仙,2026-07-04,25.11576,121.49199,0.9349748
C2K300,鹿南,2026-07-04,23.63855,120.3636,0.021909108
E2H360,蓮華池,2026-07-04,23.918333,120.885278,0.0006978682
C0M640,中埔,2026-07-04,23.42538,120.5229,0.045317084
C2C810,八德蔬果,2026-07-04,24.97858,121.28187,0.10570551
C2M9F0,安溪寮,2026-07-04,23.350334,120.208039,0.018579694
C0W140,金沙,2026-07-04,24.488292,118.408778,0.8115408
C2A540,四堵,2026-07-04,24.8926,121.745736,2.196107e-05
C0ACA0,新莊,2026-07-04,25.051478,121.446756,0.97815657
C0R220,潮州,2026-07-04,22.534361,120.54,0.023427382
U2HA40,臺大內茅埔,2026-07-04,23.689722,120.851117,0.0003762238
467490,臺中,2026-07-04,24.145736,120.684075,0.1124126
C0UB60,明池,2026-07-04,24.650688,121.475277,3.064406e-08
C0U960,翠峰湖,2026-07-04,24.510856,121.608044,1.0389887e-08
E2HA20,林試畢祿溪站,2026-07-04,24.226944,121.308522,5.3252203e-09
C2M9A0,大華,2026-07-04,23.4824,120.67491,3.0131705e-08
C0V890,前鎮,2026-07-04,22.5718,120.3117,0.20731118
C1F941,雪嶺,2026-07-04,24.280586,121.026642,1.0665997e-08
C2H9E0,國姓南港,2026-07-04,23.911108,120.846556,1.7707535e-08
C0AC80,文山,2026-07-04,25.00235,121.575728,0.9630834
C0F9R0,龍井,2026-07-04,24.184536,120.528972,0.011171993
C0M760,民雄,2026-07-04,23.551754,120.428457,0.01789913
C0UA40,西德山,2026-07-04,24.560647,121.752608,5.8632896e-08
C2TA70,赤科坪,2026-07-04,23.39885,121.39168,1.101432e-07
C1T920,中興,2026-07-04,23.769503,121.498653,0.10984317
C0D550,雪霸,2026-07-04,24.526972,121.11605,5.1630447e-09
C2F860,梨山,2026-07-04,24.247522,121.243669,8.793597e-09
C0R320,車城,2026-07-04,22.0744,120.716247,0.2779646
C1S870,南美山,2026-07-04,23.15025,121.382333,0.000494018
C0B020,基隆嶼,2026-07-04,25.19141,121.78391,0.07598345
C1U501,牛鬥,2026-07-04,24.637836,121.573656,0.3380128
C0M730,嘉義市東區,2026-07-04,23.457673,120.460531,0.05401261
C2R990,泰武,2026-07-04,22.60686,120.69765,1.4589224e-07
C0S700,知本,2026-07-04,22.684866,121.005642,0.78241575
C1N001,沙崙,2026-07-04,22.935472,120.309406,0.8333115
C0V760,橋頭,2026-07-04,22.757806,120.30575,0.8746686
C2V570,吉東,2026-07-04,22.85418,120.54539,0.08056112
C0G960,福寶,2026-07-04,24.0443,120.3814,0.0029019848
C0X210,白河,2026-07-04,23.347466,120.414427,0.001747033
C0S810,東河,2026-07-04,22.972672,121.303986,0.0005343528
C2R170,屏東,2026-07-04,22.66027,120.49403,0.17295666
C0R670,楓港,2026-07-04,22.190131,120.692156,0.09389762
C0FA50,霧峰,2026-07-04,24.0419,120.6995,0.021142885
C0UB10,蘇澳,2026-07-04,24.5969,121.8571,0.0048045353
C0G950,防潮門,2026-07-04,24.1835,120.4871,0.002368161
C0M740,六腳,2026-07-04,23.492871,120.290625,0.0029089581
C1R250,力里,2026-07-04,22.428117,120.629228,0.016826618
C0K330,虎尾,2026-07-04,23.719183,120.442036,0.0003616923
C2FA00,烏石坑,2026-07-04,24.273503,120.947617,2.9666817e-08
C0V620,永安,2026-07-04,22.82315,120.236856,0.8319985
C1I330,楓樹林,2026-07-04,23.986803,121.076117,2.8527033e-08
C0W200,湖西,2026-07-04,23.596314,119.67275,0.98795825
72Q010,高雄農改場,2026-07-04,22.709333,120.525889,0.044926573
C2K301,鹿南,2026-07-04,23.643341,120.3683,0.003468079
C0C680,龜山,2026-07-04,25.02846,121.38656,0.9414176
C2V260,月眉,2026-07-04,22.971003,120.539853,0.0006827371
C0V450,鳳森,2026-07-04,22.545064,120.392592,0.07895787
C0FA90,小雪山林道,2026-07-04,24.29515,121.03651,1.36914675e-08
C0U720,南山,2026-07-04,24.43742,121.38167,1.8383048e-07
A2N290,臺南蘭花園區,2026-07-04,23.340258,120.379661,0.0066556023
C0R560,新園,2026-07-04,22.5434,120.461558,0.058310207
C0U890,三星,2026-07-04,24.66812,121.65302,0.74039245
C1V300,御油山,2026-07-04,23.001983,120.715364,7.538625e-09
C0U600,礁溪,2026-07-04,24.817539,121.765608,0.5279136
C1T980,龍澗,2026-07-04,24.023289,121.411328,6.331389e-08
C0R700,枋山,2026-07-04,22.247814,120.660794,0.032274824
C0D670,海天一線,2026-07-04,24.831986,120.914438,1.1766608e-05
C0SA00,歷坵,2026-07-04,22.520969,120.89185,0.0040745144
C0M710,東石,2026-07-04,23.458927,120.15385,0.27722475
C0M780,鹿草,2026-07-04,23.41134,120.30835,0.0050074705
C0U520,雙連埤,2026-07-04,24.753033,121.641303,1.3119988e-05
C0B010,七堵,2026-07-04,25.094819,121.71713,0.086738944
C0R480,長治,2026-07-04,22.693128,120.542622,0.012008273
C1V830,國三S383K,2026-07-04,22.781967,120.426475,0.920178
12Q980,恆春工作站,2026-07-04,22.079678,120.714425,0.2779646
C1O940,東山服務區,2026-07-04,23.286016,120.398472,0.0074121617
C1U840,東澳嶺,2026-07-04,24.5378,121.8485,4.1581754e-07
C1D630,飛鳳山,2026-07-04,24.766464,121.119178,1.4063919e-07
C0S940,石寧山,2026-07-04,23.223772,121.406639,0.020209165
C0K410,北港,2026-07-04,23.573957,120.292802,0.023052653
C2M620,瑞里,2026-07-04,23.545133,120.675197,2.0052067e-08
C0SB70,小港漁港,2026-07-04,23.158558,121.400431,0.038928017
C2O950,安南,2026-07-04,23.076694,120.144861,0.6929814
C0F0E0,南湖圈谷,2026-07-04,24.363714,121.444667,1.5720266e-08
467610,成功,2026-07-04,23.097486,121.373428,0.019058533
C0G890,伸港,2026-07-04,24.148933,120.484403,0.002504267
C2E540,龍溪,2026-07-04,24.606489,120.783933,0.00026029316
C1V200,梅山,2026-07-04,23.268447,120.823556,2.857392e-08
C0T9H0,加路蘭山,2026-07-04,23.682947,121.5274,1.0405319e-07
C2O930,玉井,2026-07-04,23.126042,120.46055,0.0028075327
C1F911,新伯公,2026-07-04,24.221361,120.841069,0.08594252
C0X200,左鎮,2026-07-04,23.056758,120.408522,0.018754702
C2TB50,麻汝,2026-07-04,23.42554,121.39358,6.654142e-05
C0FA60,鞍馬山工作站,2026-07-04,24.267064,121.000793,7.3158195e-09
C0SB50,叭嗡嗡,2026-07-04,23.047062,121.343223,0.013422627
C2R550,新埤,2026-07-04,22.467947,120.582894,0.013985855
C1F891,稍來,2026-07-04,24.265689,121.001142,7.1009674e-09
C2M9C0,紫雲,2026-07-04,23.494914,120.540253,0.09483847
72N240,七股研究中心,2026-07-04,23.081672,120.062894,0.78900677
C0C700,中壢,2026-07-04,24.977661,121.256375,0.13532959
C0M690,水上,2026-07-04,23.419734,120.388909,0.014770253
C0V690,鼓山,2026-07-04,22.623325,120.275575,0.46052346
C0O860,大內,2026-07-04,23.11885,120.36083,0.21554187
C0Z200,萬榮,2026-07-04,23.709219,121.420106,0.0018637939
C0T9D0,和中,2026-07-04,24.26676,121.74103,0.45316613
C2S9A0,北份子寮,2026-07-04,22.78561,121.07813,0.09379967
C1O921,楠西,2026-07-04,23.183511,120.484083,0.0033890423
C0AJ30,淡水觀海,2026-07-04,25.184591,121.408616,0.026260868
C0V810,左營,2026-07-04,22.67491,120.28491,0.6906597
C0UA70,桃源谷,2026-07-04,24.962606,121.888875,2.9837375e-07
C0X130,官田,2026-07-04,23.193217,120.315422,0.1818656
C1H000,翠峰,2026-07-04,24.109397,121.205211,6.6747377e-09
C0UA90,石城,2026-07-04,24.980444,121.951214,0.5739442
C1E681,南勢山,2026-07-04,24.421669,120.923831,5.9514638e-09
C0A9F0,內湖,2026-07-04,25.079422,121.57545,0.9554156
C0K291,宜梧,2026-07-04,23.536281,120.169329,0.25156075
C1K540,口湖,2026-07-04,23.585344,120.180517,0.27070114
C0R780,滿州,2026-07-04,22.024403,120.839892,0.00069686526
C0V870,文安,2026-07-04,22.8025,120.2164,0.8005156
C0U650,玉蘭,2026-07-04,24.675286,121.587061,0.004936149
C0R640,東港,2026-07-04,22.46247,120.44074,0.08300292
C0AJ80,板橋,2026-07-04,25.0107,121.4489,0.97884315
C0S660,下馬,2026-07-04,23.150427,121.070312,1.1939653e-06
C2N190,烏樹,2026-07-04,23.32393,120.36989,0.05600195
C1H9B1,阿眉,2026-07-04,24.1263,120.994672,5.8537886e-09
C0UA20,多加屯,2026-07-04,24.368614,121.373189,7.02661e-09
C0E730,頭份,2026-07-04,24.688247,120.912206,6.902935e-05
72V140,高改旗南分場,2026-07-04,22.857861,120.516667,0.29121688
C2R490,九如,2026-07-04,22.74049,120.490555,0.044926573
C0K480,莿桐,2026-07-04,23.761192,120.502372,0.0047156066
C0U980,坪林石牌,2026-07-04,24.86478,121.77396,1.3198303e-07
C0T900,西林,2026-07-04,23.8119,121.441458,0.011769421
C1I150,青雲,2026-07-04,23.793361,120.949378,0.28932756
C2E980,和興,2026-07-04,24.505319,120.923016,1.9144571e-07
467350,澎湖,2026-07-04,23.565503,119.563094,0.99833995
C0G800,埔鹽,2026-07-04,24.000394,120.431683,0.0031087485
C0H960,草屯,2026-07-04,23.973672,120.68085,0.022581356
C1V780,多納林道,2026-07-04,22.888028,120.737917,1.8350551e-08
C0E920,通霄漁港,2026-07-04,24.498589,120.673876,0.0039458135
C0Z330,安通山,2026-07-04,23.290728,121.348528,1.3382225e-06
C0AH10,永和,2026-07-04,25.01125,121.508111,0.97803473
C0AK10,太平里,2026-07-04,25.134937,121.364899,0.05355032
C2G640,鹿港,2026-07-04,24.0753,120.430481,0.0034908045
C1E890,國三N149K,2026-07-04,24.463414,120.680019,0.008848606
C1R110,口社,2026-07-04,22.770111,120.645222,0.10007106
C1M870,國三N285K,2026-07-04,23.550319,120.505833,0.106182165
C1E480,鳳美,2026-07-04,24.554803,121.034747,3.107586e-07
C0T9M0,靜浦,2026-07-04,23.455167,121.495028,0.0011953476
C2H9M0,發祥,2026-07-04,24.154094,121.164517,1.091069e-08
C2G9C0,埔南,2026-07-04,23.99124,120.46969,0.0031087485
C0AI40,石牌,2026-07-04,25.115597,121.513139,0.9554156
C1F871,上谷關,2026-07-04,24.203483,121.018644,2.9666817e-08
C2H9G0,百勝,2026-07-04,24.051142,120.909361,0.00030290842
C0G880,二水,2026-07-04,23.810742,120.6173,0.004094664
C0R940,加祿堂,2026-07-04,22.3363,120.6217,0.5366273
C0W220,北竿,2026-07-04,26.220358,119.974881,0.85179985
C0O960,崎頂,2026-07-04,22.959547,120.369317,0.87897545
C0TA40,秀林,2026-07-04,24.302864,121.731144,6.4886154e-07
C0S750,向陽,2026-07-04,23.248397,120.986133,5.943104e-09
C0T9F0,水璉,2026-07-04,23.797131,121.542514,0.0014297481
C1M600,頭凍,2026-07-04,23.406364,120.603339,2.1568521e-08
467660,臺東,2026-07-04,22.752211,121.154586,0.0012882793
C1D380,新埔,2026-07-04,24.84745,121.03834,4.8872535e-06
C2G980,田頭村,2026-07-04,23.8263,120.444175,0.00036704677
C0V750,路竹,2026-07-04,22.854997,120.259439,0.8581659
C0N050,蚵寮,2026-07-04,23.301,120.1104,0.02117719
C2X060,下營,2026-07-04,23.226806,120.256291,0.014004462
72M700,南改鹿草分場,2026-07-04,23.416869,120.283061,0.0046315663
C1SA50,利嘉林道,2026-07-04,22.82325,121.009389,1.490288e-08
C0UB70,太平山中間站,2026-07-04,24.542003,121.513453,5.9499683e-07
C0A940,金山,2026-07-04,25.223628,121.643967,0.40690014
C1V340,大津,2026-07-04,22.888322,120.645986,0.009578
C0W180,七美,2026-07-04,23.219333,119.444892,0.9695839
C1F9C1,白冷,2026-07-04,24.182844,120.929889,3.861707e-07
K2E710,苗改生物防治研究中心,2026-07-04,24.422861,120.871833,0.00011908534
C0N040,蘆竹溝,2026-07-04,23.2344,120.0961,0.018831762
C0TB40,崇德,2026-07-04,24.166144,121.657414,0.8936555
C0D760,大坪苗圃,2026-07-04,24.5362,121.1108,3.4704055e-09
C2D430,峨眉,2026-07-04,24.6905,121.017189,5.651517e-06
C2W230,畜試所澎湖,2026-07-04,23.628342,119.513206,0.992948
C0R880,後壁湖,2026-07-04,21.9457,120.7457,0.54013973
C1I280,埔中,2026-07-04,23.820778,120.642594,0.00064603426
467790,墾丁雷達站,2026-07-04,21.948235,120.808028,0.1529763
C0W190,望安,2026-07-04,23.380564,119.494075,0.9347661
C0Z170,卓溪,2026-07-04,23.3443,121.3029,0.00025235175
C0F850,東勢,2026-07-04,24.246428,120.833047,0.1570666
466900,淡水,2026-07-04,25.164889,121.448906,0.09055797
C0I370,魚池,2026-07-04,23.895703,120.94135,0.00012868852
C0C630,大溪,2026-07-04,24.882853,121.265547,0.0015079927
C0A520,山佳,2026-07-04,24.974944,121.402008,0.98309344
C0I110,竹山,2026-07-04,23.761225,120.688156,0.004295003
82H840,茶改南部分場,2026-07-04,23.762528,120.7405,0.0025334866
C2SD80,再來山,2026-07-04,23.34371,121.44122,2.098784e-05
C0G660,溪湖,2026-07-04,23.94835,120.479122,0.00012624734
C1T800,洛韶,2026-07-04,24.204558,121.453956,5.1534247e-08
C1T810,慈恩,2026-07-04,24.192044,121.388386,4.265392e-09
C1E451,象鼻,2026-07-04,24.368617,120.940228,5.9514638e-09
C0AC60,三峽,2026-07-04,24.939025,121.369728,0.1302115
C0I490,萬大林道,2026-07-04,23.928228,121.091411,9.7903765e-09
C1I290,豐丘,2026-07-04,23.668178,120.887417,2.426041e-08
C1I320,奧萬大,2026-07-04,23.952956,121.178556,9.684424e-08
C2M910,嘉義大學,2026-07-04,23.471325,120.485903,0.0729211
C0U770,南澳,2026-07-04,24.44935,121.81022,0.0022033185
C2TB30,吉安,2026-07-04,23.94538,121.54803,0.08648618
C0A980,社子,2026-07-04,25.109508,121.469681,0.76682556
C0V800,六龜,2026-07-04,22.997889,120.633583,0.06896167
C1G9D0,國一S218K,2026-07-04,23.890641,120.493253,0.0002801685
C0E570,白沙屯,2026-07-04,24.549447,120.696803,0.0014716758
C2F9A0,中竹林,2026-07-04,24.103556,120.751061,0.0003810675
C0FA40,臺中電廠,2026-07-04,24.2146,120.4907,0.011590237
C2G9A0,畜試所彰化,2026-07-04,23.86045,120.557964,0.0010053297
C0H9C0,合歡山,2026-07-04,24.143442,121.272547,1.7234933e-08
G2M350,農試溪口農場,2026-07-04,23.58565,120.408111,0.015181327
C0U860,頭城,2026-07-04,24.85323,121.8308,0.4401287
C0R580,南州,2026-07-04,22.48591,120.50274,0.004525836
C0G780,秀水,2026-07-04,24.03405,120.503869,0.00017312169
72N100,臺南農改場,2026-07-04,23.0605,120.342194,0.14461105
C0S900,蘭嶼高中,2026-07-04,22.04909,121.51214,0.06592672
C2TA60,六十石,2026-07-04,23.22477,121.31861,8.4731276e-08
C1F9W0,德基,2026-07-04,24.254783,121.190261,8.191626e-09
C2M980,安和,2026-07-04,23.51377,120.31593,0.0029089581
C1Z120,壽豐,2026-07-04,23.870853,121.508081,0.09432103
C0W160,烏坵,2026-07-04,24.9944,119.44956,0.636169
C1I550,國六W023K,2026-07-04,23.979067,120.867742,0.00038999144
C0R870,興海,2026-07-04,21.9752,120.8439,0.12571222
C0R140,瑪家,2026-07-04,22.682903,120.686639,0.0005096161
C0A530,坪林,2026-07-04,24.938183,121.70975,1.4308233e-06
C0X260,後壁,2026-07-04,23.366358,120.362326,0.009024709
C0Z230,和平,2026-07-04,24.30717,121.77007,0.41770232
C0G770,福興,2026-07-04,24.041289,120.437669,0.0031087485
C0H9A0,神木村,2026-07-04,23.532742,120.843667,5.9865637e-09
C0I460,南投,2026-07-04,23.911469,120.687331,0.020316735
C0I480,梅峰,2026-07-04,24.085272,121.173572,6.383698e-09
C2D770,巨埔,2026-07-04,24.84435,121.11442,4.575281e-06
C2A560,福山,2026-07-04,24.776203,121.502811,0.007831253
C0AH30,五分山,2026-07-04,25.07125,121.780794,2.0110631e-08
C0FA10,松柏,2026-07-04,24.429115,120.617482,0.003035097
72S200,東改班鳩分場,2026-07-04,22.829528,121.077694,0.01597365
72HA00,中改埔里分場,2026-07-04,23.903208,120.963364,0.00015495637
C2H9W0,大坪頂農水,2026-07-04,24.043122,120.932781,2.436913e-06
C0C650,平鎮,2026-07-04,24.897503,121.214636,1.8343278e-05
C0S930,延平,2026-07-04,22.902581,121.084058,0.00016650854
C0UA60,樟樹山,2026-07-04,24.41393,121.78325,5.153418e-05
C2UC10,出水溪,2026-07-04,24.615822,121.652253,0.00018455814
C1S670,摩天,2026-07-04,23.199503,121.027,2.0590564e-08
C2C590,觀音,2026-07-04,25.027072,121.153317,4.698244e-05
C0V630,茄萣,2026-07-04,22.906642,120.182608,0.8828055
466940,基隆,2026-07-04,25.133314,121.740475,0.049043905
C0X050,東河,2026-07-04,23.296598,120.385608,0.006655605
C0R770,保力,2026-07-04,22.071122,120.764111,0.10576661
G2L020,農試嘉義分所,2026-07-04,23.485028,120.473806,0.07630638
C0X240,關子嶺,2026-07-04,23.331169,120.508025,0.00055419933
C0I380,集集,2026-07-04,23.828206,120.801467,0.0025016062
466990,花蓮,2026-07-04,23.975128,121.613275,0.057536498
C1V220,小關山,2026-07-04,23.154217,120.813603,6.495268e-09
C1F9G1,慶福山,2026-07-04,24.180853,120.848378,4.2945288e-08
C0FB20,雪山橋,2026-07-04,24.23192,120.9786,6.5137535e-09
C0Z250,瑞穗林道,2026-07-04,23.49284,121.30688,5.617459e-08
C0D590,新豐,2026-07-04,24.87068,120.97721,1.855226e-05
C2N200,口宵里,2026-07-04,23.15987,120.45988,0.00056232064
C0A870,五指山,2026-07-04,25.132153,121.608692,3.1683066e-07
C0UA50,西帽山,2026-07-04,24.555361,121.802628,4.4609004e-07
C2R980,竹田國中,2026-07-04,22.61532,120.52412,0.023947954
C0X160,仁德,2026-07-04,22.968258,120.257689,0.060243484
C1H971,六分寮,2026-07-04,23.92507,120.6378,0.006355044
C2D790,石鹿,2026-07-04,24.56551,121.15841,8.3708e-09
C0W120,西嶼,2026-07-04,23.5626,119.468436,0.9972835
C0G650,員林,2026-07-04,23.946503,120.585597,0.0009065523
C0AD50,鶯歌,2026-07-04,24.951533,121.346294,0.018781656
C2H9Q0,北東眼山,2026-07-04,24.120939,121.189303,7.647825e-09
C2H9T0,名間竹圍,2026-07-04,23.859914,120.637572,0.0034600662
C0S990,山豬窟,2026-07-04,22.318619,120.857372,0.0014149576
C0X190,安平,2026-07-04,22.993161,120.152181,0.024133483
C0K400,斗六,2026-07-04,23.720583,120.541127,0.0054162345
12J990,口湖工作站,2026-07-04,23.589978,120.180394,0.27070114
C0O830,北寮,2026-07-04,23.079561,120.495008,0.0002000621
C1D410,白蘭,2026-07-04,24.579364,121.079947,4.3415955e-09
C0S970,加津林,2026-07-04,22.416211,120.926942,0.4124084
C0D700,關西,2026-07-04,24.7977,121.1732,9.442453e-05
C0U750,龜山島,2026-07-04,24.841667,121.953133,0.00055916014
C0R810,內獅,2026-07-04,22.305064,120.642986,0.032274824
C2EA10,拉庫斯,2026-07-04,24.53637,121.02137,5.4608496e-09
C1M390,龍美,2026-07-04,23.406728,120.654417,7.482285e-09
C2K290,崙內,2026-07-04,23.69525,120.35601,0.003468079
C2FB60,頭櫃山,2026-07-04,24.129842,120.858925,1.0473853e-08
C1H840,國三N238K,2026-07-04,23.841008,120.707711,0.008581659
CAQ030,崎峰國小,2026-07-04,22.42565,120.49521,0.004525836
C2E520,大湖,2026-07-04,24.414939,120.870872,0.0001405652
467530,阿里山,2026-07-04,23.508208,120.813242,5.531241e-09
C1E691,南湖,2026-07-04,24.40135,120.837533,2.20439e-08
C0FA30,梧棲,2026-07-04,24.256003,120.523381,0.011171993
C1V231,高中,2026-07-04,23.134911,120.716711,1.7114389e-06
C0AK30,硬漢嶺,2026-07-04,25.136097,121.426372,6.763971e-07
C0F9V0,新社,2026-07-04,24.200172,120.815806,0.005063485
C0H890,埔里,2026-07-04,23.972169,120.952425,0.0038861174
C0R690,墾丁,2026-07-04,21.966756,120.810269,0.01279235
C0SD20,富山,2026-07-04,22.822383,121.190825,0.0029454972
C0F0D0,審馬陣,2026-07-04,24.381675,121.4203,1.14881695e-08
C2W030,金門農試所,2026-07-04,24.448431,118.451786,0.87153625
C0R820,白鷺,2026-07-04,22.454275,120.666219,0.00033421995
C0FB00,大雪山,2026-07-04,24.254668,121.007374,7.3502546e-09
C2O880,南化,2026-07-04,23.17332,120.59413,0.00013392387
C1V190,南天池,2026-07-04,23.27403,120.91176,6.778983e-09
C0E940,雪見,2026-07-04,24.42595,121.01347,4.368842e-09
K2E360,苗栗農改場,2026-07-04,24.495722,120.829111,0.00016858893
CAJ050,海口故事園區,2026-07-04,23.57543,120.14121,0.27070114
C2K280,四湖,2026-07-04,23.6304,120.22717,0.14651263
C2H9D0,三隻寮,2026-07-04,24.093078,120.861578,1.4335261e-07
C0O990,媽廟,2026-07-04,22.99175,120.293525,0.014596501
C0Z220,和平林道,2026-07-04,24.343922,121.656317,5.2242056e-05
C0TA10,花蓮漁港,2026-07-04,23.995322,121.638331,0.061991423
72C440,桃園農改場,2026-07-04,24.950944,121.030583,1.2511755e-06
C1E711,馬拉邦山,2026-07-04,24.367306,120.901656,7.3057658e-09
C0SB20,富岡,2026-07-04,22.792467,121.192669,0.002980629
C0D560,竹東,2026-07-04,24.767147,121.057881,1.9415978e-05
C0F9U0,南屯,2026-07-04,24.137006,120.637969,0.34270787
C2SD60,明峰,2026-07-04,22.8671,121.11825,0.0051763654
C0M720,番路,2026-07-04,23.464657,120.554156,0.04965342
C0F0A0,雪山圈谷,2026-07-04,24.388594,121.236339,1.9378497e-08
C1A9N0,四十份,2026-07-04,24.934158,121.593283,5.7504108e-06
C0U760,東澳,2026-07-04,24.52196,121.83318,0.0040366184
C0X230,鹽水,2026-07-04,23.272621,120.247641,0.018579694
C2H9H0,苗改南投蜂場,2026-07-04,23.852589,120.693481,0.0025549424
C2TB70,達谷寮,2026-07-04,23.38,121.35968,2.4794614e-05
C0R950,萬隆國小,2026-07-04,22.507667,120.587817,0.014817274
467540,大武,2026-07-04,22.35572,120.90374,0.056637265
C0V370,古亭坑,2026-07-04,22.893178,120.401947,0.022606729
C1I340,新興橋,2026-07-04,23.563333,120.868728,8.1624385e-06
C2C480,桃園,2026-07-04,24.992425,121.323172,0.10570551
C0SA80,土坂,2026-07-04,22.453108,120.887572,0.03122351
C0R160,鹽埔,2026-07-04,22.739558,120.530778,0.04492656
C0AC40,大屯山,2026-07-04,25.175675,121.522408,1.0940281e-08
466850,五分山雷達站,2026-07-04,25.071182,121.781205,1.9575161e-08
C2H9L0,馬烈霸,2026-07-04,24.1512,121.201772,9.007061e-09
C1AI50,國三N016K,2026-07-04,25.034164,121.619664,0.9725609
C2V920,匏子寮,2026-07-04,23.04905,120.55319,0.00020318874
C1V600,藤枝,2026-07-04,23.071961,120.757042,7.3958746e-09
C1E601,南勢,2026-07-04,24.572486,120.734842,0.005034394
C0O980,新市,2026-07-04,23.061614,120.298197,0.12009272
C0K420,西螺,2026-07-04,23.800407,120.467394,0.0004332057
C0Z050,佳心,2026-07-04,23.34567,121.21316,2.2331633e-07
C0AD30,蘆洲,2026-07-04,25.086594,121.472331,0.9695891
C0V610,梓官,2026-07-04,22.760558,120.267211,0.8352669
K2F750,種苗改良場,2026-07-04,24.225972,120.800917,0.005843517
C0UA80,大溪漁港,2026-07-04,24.941801,121.902955,0.5010943
C1AI60,國一39K邊坡,2026-07-04,25.064361,121.383836,0.9801233
C0W150,金寧,2026-07-04,24.457703,118.328989,0.81833255
C0R960,內埔,2026-07-04,22.608483,120.570714,0.024457313
C2H9S0,龍南,2026-07-04,23.953536,120.833183,2.2522322e-08
C0AH40,平等,2026-07-04,25.129142,121.577086,0.033876676
C0R540,佳冬,2026-07-04,22.419456,120.552375,0.0051528085
466950,彭佳嶼,2026-07-04,25.627975,122.079744,0.9923765
C0A890,雙溪,2026-07-04,25.036003,121.864242,0.0053478195
C0AH50,林口,2026-07-04,25.072181,121.38084,0.9552009
A2K360,水試臺西試驗場,2026-07-04,23.717231,120.190522,0.12838447
C2M960,外寮,2026-07-04,23.562643,120.665688,4.541978e-08
C0F9S0,烏日,2026-07-04,24.107058,120.624103,0.03788317
C2N180,鹿陶洋,2026-07-04,23.14325,120.48352,0.0033890456
C0C490,八德,2026-07-04,24.928708,121.283289,0.0011654795
C0R190,赤山,2026-07-04,22.592333,120.614306,0.02497909
C0T820,天祥,2026-07-04,24.179597,121.495639,0.9743203
C1F9E1,龍安,2026-07-04,24.1605,120.831961,0.0020066279
C2SD50,順那,2026-07-04,23.04166,121.29332,0.0008854011
C0V820,小林,2026-07-04,23.148408,120.63325,0.000101833175
C2G870,芳苑,2026-07-04,23.922303,120.320025,0.84136754
C0E850,大河,2026-07-04,24.618069,120.948578,2.6636382e-05
C1U670,寒溪,2026-07-04,24.634,121.71691,0.7364999
C0N020,城西,2026-07-04,23.0568,120.0956,0.7697482
C1Z110,三棧,2026-07-04,24.11557,121.60501,0.0028889037
C0R280,檳榔,2026-07-04,22.076078,120.836777,0.00050539634
C2H9J0,中台,2026-07-04,23.9996,120.938739,1.1719249e-05
C0F9L0,后里,2026-07-04,24.310436,120.729725,0.27769417
467441,高雄,2026-07-04,22.730432,120.312516,0.8817914
C2N210,岩坑,2026-07-04,23.24614,120.47458,0.0023738223
C0Z180,新城,2026-07-04,24.040486,121.604878,0.06186457
C0D540,橫山,2026-07-04,24.71116,121.11693,5.083092e-06
C1D420,太閣南,2026-07-04,24.632808,121.160575,1.1389162e-08
C1E770,公館,2026-07-04,24.526914,120.830806,0.0007367964
CAN130,水試所海水繁養殖中心,2026-07-04,23.120802,120.07968,0.78900677
C1I430,翠華,2026-07-04,24.191961,121.224339,1.0058725e-08
C1M400,菜瓜坪,2026-07-04,23.251928,120.576103,1.058518e-05
C0G730,二林,2026-07-04,23.903325,120.376081,0.0037227732
72M360,南改義竹分場,2026-07-04,23.360694,120.279361,0.010496339
V2K620,麥寮合作社,2026-07-04,23.753836,120.294783,0.032227438
C0Z070,舞鶴,2026-07-04,23.46811,121.37407,2.1309968e-05
C0B040,大武崙,2026-07-04,25.166676,121.706993,0.12866513
C1Z030,紅葉,2026-07-04,23.493119,121.338806,4.879116e-05
C1I050,丹大,2026-07-04,23.753747,121.141147,4.472327e-09
C0I080,信義,2026-07-04,23.689694,120.851036,0.0003762238
C2TB80,庄子底,2026-07-04,23.71794,121.49438,0.03205484
C0D750,樂山林道6k,2026-07-04,24.49999,121.08773,8.906303e-09
C2M920,朴子農改,2026-07-04,23.469889,120.259383,0.0041543264
C2A880,福隆,2026-07-04,25.017842,121.942083,0.6572666
C0Z160,鳳林,2026-07-04,23.746114,121.453411,0.02513475
C0UB80,翠峰林道6K,2026-07-04,24.49773,121.568625,9.8764845e-09
C0V210,復興,2026-07-04,23.222403,120.806089,8.147672e-08
C0H990,昆陽,2026-07-04,24.121322,121.273642,1.18784165e-08
C0R741,獅子,2026-07-04,22.202308,120.705236,0.04837499
C0S710,鹿野,2026-07-04,22.917711,121.122994,1.885563e-05
C0I530,小奇萊,2026-07-04,24.131764,121.295717,1.4349985e-08
C0FA70,大雪山埡口,2026-07-04,24.26867,121.03062,1.0240363e-08
C2K630,荷苞,2026-07-04,23.657717,120.595144,0.08779905
C0Z080,富源,2026-07-04,23.587642,121.378225,0.008308586
C2M9E0,旺來山,2026-07-04,23.555153,120.486463,0.113643885
C0SB10,美和,2026-07-04,22.682078,121.060236,0.017237816
C2K620,馬光農場,2026-07-04,23.721453,120.378864,0.000304368
C1I140,卡奈托灣,2026-07-04,23.754364,121.087872,4.987243e-09
C0I520,玉山風口,2026-07-04,23.470489,120.955994,1.6945933e-08
C1G691,下水埔,2026-07-04,23.816114,120.5676,0.014444254
C0X110,臺南市南區,2026-07-04,22.961189,120.188378,0.04220731
C0V680,仁武,2026-07-04,22.701083,120.347722,0.8817914
C2G840,北斗,2026-07-04,23.877586,120.514222,0.00031794832
C2TB90,長橋,2026-07-04,23.6874,121.46186,0.021979742
C0R900,竹坑,2026-07-04,22.1385,120.7022,0.09389762
C0G860,社頭,2026-07-04,23.897647,120.5862,0.0012370286
C0X150,安定,2026-07-04,23.102614,120.227839,0.0059890524
C0R590,里港,2026-07-04,22.77919,120.49459,0.17001264
C0E610,馬都安,2026-07-04,24.451272,120.930192,1.6412317e-08
C0E550,明德,2026-07-04,24.583486,120.885411,0.0002677196
C0R150,三地門,2026-07-04,22.709889,120.639944,0.027687486
C0G910,花壇,2026-07-04,24.032076,120.549461,0.00018144025
C1D400,鳥嘴山,2026-07-04,24.71909,121.28387,2.5182127e-08
C0K500,元長,2026-07-04,23.64981,120.315024,0.021306016
C0F0B0,石岡,2026-07-04,24.276061,120.777644,0.3004273
C2V250,甲仙,2026-07-04,23.080106,120.591758,0.0003033772
C0SA20,金崙山,2026-07-04,22.567419,120.959667,1.0596339e-05
C0V350,溪埔,2026-07-04,22.738578,120.446797,0.84929097
C0M660,溪口,2026-07-04,23.604131,120.403569,0.015181327
C1S880,壽卡,2026-07-04,22.238911,120.858903,0.00013343706
72D680,桃改新埔分場,2026-07-04,24.834444,121.066111,4.7095746e-06
