站號,站名,日期,lat,lon,BLBTSLS
C0R710,龍磐,2026-01-08,21.931672,120.838942,0.99976987
C1F9D1,白毛台,2026-01-08,24.158325,120.886933,1.6997143e-08
C0G940,竹塘,2026-01-08,23.848253,120.386764,6.934043e-08
467590,恆春,2026-01-08,22.003897,120.746339,0.99941254
C1O850,環湖,2026-01-08,23.148617,120.418633,1.5993732e-05
C0U710,太平山,2026-01-08,24.505486,121.525656,3.4389636e-08
C0E820,獅潭,2026-01-08,24.539133,120.920042,3.7545212e-06
C2SD70,二層坪,2026-01-08,22.94105,121.16838,4.976769e-07
C0V880,興達,2026-01-08,22.8778,120.2127,0.9997632
C0S890,關山,2026-01-08,23.0395,121.175017,4.1003864e-07
C0SB30,新蘭,2026-01-08,22.869214,121.223228,1.1939931e-05
C2R970,屏科大,2026-01-08,22.648275,120.619247,0.00012626058
C1Z130,銅門,2026-01-08,23.965694,121.492842,4.9090637e-08
C0AD40,土城,2026-01-08,24.973208,121.445169,8.0178336e-07
CAN140,六官養殖協會,2026-01-08,23.22881,120.29962,0.99951273
C0X180,山上,2026-01-08,23.0757,120.363253,0.9979405
C0F9Z0,雪山東峰,2026-01-08,24.388792,121.268675,4.950464e-08
C1M480,獨立山,2026-01-08,23.537022,120.607797,2.0458042e-09
C0X220,學甲,2026-01-08,23.230367,120.182187,0.9995142
467650,日月潭,2026-01-08,23.881325,120.90805,6.7892314e-09
A2K570,古坑(花卉中心),2026-01-08,23.633531,120.552392,1.1434915e-08
C0K600,箔子寮,2026-01-08,23.6197,120.14,0.7453252
C0G830,埤頭,2026-01-08,23.866003,120.452806,5.809943e-08
C0S950,七塊厝,2026-01-08,22.954453,121.229922,8.826385e-08
467110,金門,2026-01-08,24.407306,118.289281,1.4352305e-07
C0AH80,深坑,2026-01-08,25.002703,121.628328,1.1136966e-06
C0A970,三貂角,2026-01-08,25.007606,122.002058,8.1579714e-07
C2D730,寶山農場,2026-01-08,24.732444,120.976153,2.0032887e-05
C0K430,褒忠,2026-01-08,23.690938,120.303634,0.10932392
467480,嘉義,2026-01-08,23.495925,120.432906,1.8785986e-05
C0V400,阿公店,2026-01-08,22.804194,120.355528,0.99979794
C0E960,觀霧分站,2026-01-08,24.505781,121.113921,2.6509905e-08
467550,玉山,2026-01-08,23.48718,120.95943,6.0084844e-08
C0R440,大漢山,2026-01-08,22.405264,120.753181,1.2434852e-08
C0SD30,東清國小,2026-01-08,22.057128,121.564922,0.057502013
C1F9B1,桐林,2026-01-08,24.066172,120.735194,0.035025943
C2H9U0,鳳鵬,2026-01-08,23.763919,120.788061,6.341974e-09
C0K390,土庫,2026-01-08,23.679029,120.395574,5.8666007e-08
C1I450,望鄉山,2026-01-08,23.594153,120.944286,3.8272688e-08
C0E910,海埔,2026-01-08,24.648767,120.772435,0.02070165
B2E890,畜試北區分所,2026-01-08,24.527806,120.770972,0.00046483875
C0R750,四林格山,2026-01-08,22.076989,120.802439,0.020047812
C0F0C0,中坑,2026-01-08,24.248517,120.903319,9.839368e-09
C1I121,大鞍,2026-01-08,23.678381,120.760017,8.535182e-09
C2G9E0,移民庄,2026-01-08,23.9784,120.40283,0.9735629
72U480,花改蘭陽分場,2026-01-08,24.686306,121.716583,2.6701812e-07
C0A770,科教館,2026-01-08,25.096356,121.516507,9.0393905e-07
C0AJ60,六塊厝,2026-01-08,25.24,121.4481,0.5948668
C0R620,墾雷,2026-01-08,21.900836,120.855269,0.99952704
467420,永康,2026-01-08,23.038386,120.2367,0.999692
C2M530,奮起湖,2026-01-08,23.493903,120.699253,7.1936115e-09
C0I410,名間,2026-01-08,23.837053,120.701447,7.257354e-08
A2C560,農工中心,2026-01-08,24.985917,121.239833,0.00010056966
C0V740,旗山,2026-01-08,22.888614,120.483597,0.02357019
C0Z061,玉里,2026-01-08,23.3215,121.339656,8.208834e-08
C0S840,南田,2026-01-08,22.279725,120.889208,0.9990884
C1I470,杉林溪,2026-01-08,23.639517,120.786444,1.0355877e-08
C1X040,東原,2026-01-08,23.291597,120.463822,1.8410535e-08
C0R660,枋寮,2026-01-08,22.367722,120.590647,0.8787328
C1R120,上德文,2026-01-08,22.763272,120.704442,2.568393e-09
C0K450,大埤,2026-01-08,23.646074,120.431537,5.5217043e-08
C0UA00,土場,2026-01-08,24.576533,121.495333,9.021024e-08
467080,宜蘭,2026-01-08,24.763975,121.756528,2.9998668e-07
C0N030,四草,2026-01-08,23.0235,120.1116,0.9997844
467410,臺南,2026-01-08,22.99328,120.20492,0.99955446
C0V650,彌陀,2026-01-08,22.783806,120.246361,0.9998849
C0D660,新竹市東區,2026-01-08,24.798681,120.986942,7.431815e-05
82S580,茶改東部分場,2026-01-08,22.907694,121.130139,6.455267e-07
C0SB40,興隆,2026-01-08,22.913661,121.257469,8.01616e-06
467050,新屋,2026-01-08,25.006725,121.047492,0.0018709378
C0C710,大溪永福,2026-01-08,24.892936,121.324975,6.787671e-05
C0FA20,溫寮,2026-01-08,24.372177,120.583125,0.9970698
C0V640,湖內,2026-01-08,22.887139,120.2445,0.99968183
C0R910,下寮,2026-01-08,22.3929,120.5548,0.88030595
C0Z020,明里,2026-01-08,23.208717,121.262342,5.9659e-08
C0M770,嘉義梅山,2026-01-08,23.585398,120.555587,3.3593576e-08
C0C660,楊梅,2026-01-08,24.912375,121.143047,3.76344e-05
C0SD40,牛頭山,2026-01-08,22.676661,121.506944,0.99991643
C1E511,新開,2026-01-08,24.347703,120.827019,7.028348e-07
G2F820,農試所(霧峰),2026-01-08,24.031261,120.688133,0.18819556
C2M990,大巃頂,2026-01-08,23.5547,120.61439,2.9303115e-09
C1I070,和社,2026-01-08,23.591131,120.888861,3.411334e-09
C2E990,新坪頂,2026-01-08,24.30201,120.8574,2.7271042e-08
C0TA80,立霧山,2026-01-08,24.183258,121.641899,2.5071085e-08
C2F000,大肚,2026-01-08,24.15295,120.572117,0.03621142
C1S850,豐南,2026-01-08,23.122139,121.262389,6.532132e-08
C2M9B0,西興,2026-01-08,23.2428,120.57617,2.4118803e-09
C2A920,富貴角,2026-01-08,25.263783,121.565258,9.878203e-05
CAH030,茶改場竹圍站,2026-01-08,23.860083,120.637528,8.985406e-09
C0T960,光復,2026-01-08,23.660694,121.424964,5.817084e-08
C0F9M0,豐原,2026-01-08,24.254322,120.720692,4.5029476e-05
C0R720,旭海,2026-01-08,22.205403,120.887614,0.99822307
C0V710,苓雅,2026-01-08,22.622742,120.330669,0.99986637
C0C740,觀音工業區,2026-01-08,25.064764,121.114856,0.00335459
CAC040,拉拉山,2026-01-08,24.699317,121.427133,4.766821e-08
C0V790,萬山,2026-01-08,22.905944,120.688056,6.399339e-09
U2HA30,臺大和社,2026-01-08,23.590856,120.888864,3.411334e-09
C2H9K0,屯原,2026-01-08,24.067969,121.209389,1.5616417e-08
C0AJ90,澳底,2026-01-08,25.0552,121.9253,1.9191602e-06
C0Z100,東華,2026-01-08,23.89525,121.549833,8.313522e-08
C0G970,三豐,2026-01-08,23.882,120.2895,0.19627061
V2K610,大庄合作社,2026-01-08,23.8068,120.367939,0.09496782
C0V900,汕尾,2026-01-08,22.4782,120.4151,0.88948846
C1R630,龍泉,2026-01-08,22.66701,120.59091,0.0026629851
C1AC50,關渡,2026-01-08,25.133486,121.469331,0.0021316693
C0C800,四稜,2026-01-08,24.64733,121.4293,4.4440384e-08
C0F9I0,神岡,2026-01-08,24.272481,120.658314,0.00030545463
C0K460,斗南,2026-01-08,23.678734,120.478359,4.202302e-08
C2O810,曾文,2026-01-08,23.219681,120.497328,9.5109236e-08
467280,後龍,2026-01-08,24.648563,120.831834,0.003894105
C1F9J1,清水林,2026-01-08,24.071242,120.820419,9.171229e-09
C2A650,火燒寮,2026-01-08,25.002719,121.742892,2.1892976e-07
466930,竹子湖,2026-01-08,25.162078,121.544547,4.0145486e-07
C1I220,樟湖,2026-01-08,23.905333,120.846983,7.148039e-09
C0I390,仁愛,2026-01-08,24.022122,121.132206,7.3442425e-09
C0Z300,東里,2026-01-08,23.26853,121.30547,7.516159e-08
C1V590,新發,2026-01-08,23.057019,120.646064,2.9426839e-09
C0K510,水林,2026-01-08,23.572924,120.24597,0.592128
72S590,東改賓朗果園,2026-01-08,22.813889,121.071278,1.8735715e-05
82A750,茶改北部分場,2026-01-08,24.955778,121.631222,1.17846675e-07
C1A750,石碇服務區,2026-01-08,25.00872,121.646242,9.0142356e-07
C0X300,鹿寮,2026-01-08,23.386047,120.477331,8.5645695e-07
G2AI50,關渡,2026-01-08,25.11575,121.492,9.430204e-07
C0K590,雲林東勢,2026-01-08,23.674192,120.255721,0.105045564
C2K310,港尾布雞,2026-01-08,23.74834,120.38439,6.881433e-08
C0A570,桶後,2026-01-08,24.848222,121.597992,8.702681e-08
C1S800,華源,2026-01-08,22.657883,121.02325,0.13814202
C0G720,溪州,2026-01-08,23.851589,120.499093,4.0418385e-08
C1V160,達卡努瓦,2026-01-08,23.279811,120.705319,4.9405857e-09
C2M410,馬頭山,2026-01-08,23.324361,120.582017,6.6611165e-09
C0V850,蚵仔寮,2026-01-08,22.7256,120.2527,0.9998916
C0S740,池上,2026-01-08,23.119628,121.209469,2.1182885e-07
C1V390,尖山,2026-01-08,22.813153,120.367789,0.9996834
C0AH70,松山,2026-01-08,25.04871,121.55042,8.414815e-07
C0N010,鯤鯓國小,2026-01-08,23.1879,120.0889,0.99964267
C0R550,新埤,2026-01-08,22.467947,120.582894,0.5337459
C0SA60,知本（水試所）,2026-01-08,22.702394,121.082761,0.99870485
C0T9I0,豐濱,2026-01-08,23.583897,121.514806,5.432968e-08
C0UB00,淡江大學蘭陽校園,2026-01-08,24.823239,121.730383,6.837721e-08
C0W240,九宮,2026-01-08,24.423753,118.240186,1.3120377e-08
C0T9N0,富里,2026-01-08,23.171639,121.249378,5.3336294e-08
U2HA50,臺大竹山,2026-01-08,23.756972,120.681556,9.10441e-08
C0V840,鳳鼻頭,2026-01-08,22.5083,120.3591,0.88164353
C0X140,西港,2026-01-08,23.125608,120.203108,0.9995073
72D080,桃改五峰分場,2026-01-08,24.612194,121.157167,1.4571601e-08
C2H9P0,伊拿谷,2026-01-08,23.963211,121.088264,6.728089e-09
C2K250,崙背,2026-01-08,23.75553,120.31893,0.108507596
C2H9F0,柑林,2026-01-08,24.018658,120.847072,1.861699e-05
C0TA20,加灣,2026-01-08,24.082025,121.608944,1.1477124e-07
C0V530,阿蓮,2026-01-08,22.883208,120.327508,0.9994942
C0FB30,八仙山苗圃,2026-01-08,24.192719,121.001366,9.926947e-09
C1O880,關山,2026-01-08,23.173397,120.594092,6.0996217e-09
C0E791,卓蘭,2026-01-08,24.3126,120.8244,5.6160286e-07
C1I030,武界,2026-01-08,23.913225,121.052483,6.6691004e-09
C0R520,崁頂,2026-01-08,22.514781,120.506914,0.8049796
C0R341,牡丹,2026-01-08,22.130036,120.792639,0.00024284981
C0R930,萬丹,2026-01-08,22.5885,120.4851,0.6862167
C0S760,紅石,2026-01-08,23.069131,121.126219,1.2649526e-08
C2C410,中央大學,2026-01-08,24.967652,121.185165,7.8741556e-05
C1M610,石磐龍,2026-01-08,23.496606,120.663506,5.784674e-09
C0C790,東眼山,2026-01-08,24.8284,121.40888,4.687658e-08
C0UA10,鴛鴦湖,2026-01-08,24.590269,121.412228,3.1853904e-08
V2C260,八德蔬果,2026-01-08,24.978508,121.281819,0.00012299376
C0R800,丹路,2026-01-08,22.204481,120.750989,0.18290558
C0G920,永靖,2026-01-08,23.924703,120.547533,0.8482624
C2M950,太和,2026-01-08,23.538372,120.702961,7.1713364e-09
C1A630,下盆,2026-01-08,24.771003,121.538622,5.744216e-08
B2N890,畜產試驗所,2026-01-08,23.058972,120.336406,0.99946004
C0UA30,白嶺,2026-01-08,24.527819,121.519031,2.7828388e-08
C1V580,溪南(特生中心),2026-01-08,23.084972,120.788475,8.28482e-09
C1T970,大農,2026-01-08,23.615233,121.413331,4.8645013e-08
C0R650,竹田,2026-01-08,22.58486,120.54344,0.7194302
C1H900,清流,2026-01-08,24.080775,120.962997,6.719189e-09
C1C510,水尾,2026-01-08,24.940081,121.087161,0.0001987362
C2N170,茅港尾,2026-01-08,23.2061,120.2624,0.99963206
C0F9X0,大雅(中科園區),2026-01-08,24.21528,120.62445,0.8642876
C0SB60,白守蓮,2026-01-08,23.126769,121.401914,0.99993753
C0O970,虎頭埤,2026-01-08,23.021375,120.347878,0.99782383
C0C730,中大臨海站,2026-01-08,24.966126,121.008581,0.00035495183
C0X250,新營,2026-01-08,23.310689,120.316681,0.99936193
C0V700,三民,2026-01-08,22.645017,120.311233,0.99986637
C0U870,大礁溪,2026-01-08,24.791042,121.675047,5.651117e-08
C0E870,高鐵苗栗,2026-01-08,24.60725,120.826094,0.005605604
A2K570,古坑花卉中心,2026-01-08,23.63353,120.55239,1.0309268e-08
C0TA30,鹽寮,2026-01-08,23.845606,121.592664,9.151627e-08
C0M860,新美,2026-01-08,23.338017,120.683169,6.387888e-09
C1E701,八卦,2026-01-08,24.491756,120.927619,1.6236676e-08
C2TA90,加納納,2026-01-08,23.466421,121.359867,4.2821945e-08
C0I420,國姓,2026-01-08,24.037803,120.855072,4.022074e-06
C2D720,關西工作站,2026-01-08,24.757275,121.184792,1.9351593e-07
C0S960,香蘭,2026-01-08,22.587569,120.993375,0.9992075
467620,蘭嶼,2026-01-08,22.0369,121.55843,0.99888086
C0R260,春日,2026-01-08,22.370361,120.628306,0.098871
72G600,臺中農改場,2026-01-08,24.003028,120.534389,0.94890416
C0Z210,瑞穗,2026-01-08,23.5239,121.39021,5.8552544e-08
C0M820,達邦,2026-01-08,23.453994,120.749517,5.194862e-09
C0V860,南寮,2026-01-08,22.7616,120.2339,0.99989194
C0G740,大城,2026-01-08,23.852487,120.320935,0.108507596
C0R920,塭仔,2026-01-08,22.4169,120.5197,0.88948846
C0R470,高樹,2026-01-08,22.826389,120.600806,0.0004960629
C0R680,佳樂水,2026-01-08,21.993578,120.861633,0.99939084
C1O870,大棟山,2026-01-08,23.31157,120.52226,3.6334593e-09
C0D360,梅花,2026-01-08,24.678347,121.208558,4.8512145e-08
C0Z190,富世,2026-01-08,24.14743,121.6297,0.0002852627
C0AI10,屈尺,2026-01-08,24.92184,121.54475,5.989953e-07
B2U990,畜試東區分所,2026-01-08,24.669039,121.832561,3.0797995e-07
C0SB80,長濱漁港,2026-01-08,23.313644,121.459994,0.99992454
C0TA50,和仁,2026-01-08,24.241394,121.712472,0.0013103886
C0V910,大樹,2026-01-08,22.684645,120.432803,0.007217977
C1R610,西大武山,2026-01-08,22.617719,120.7322,1.3021327e-08
C0G900,線西,2026-01-08,24.143358,120.443536,0.9970639
C0M700,竹崎,2026-01-08,23.526178,120.555508,5.9376454e-08
C2E880,三義,2026-01-08,24.405478,120.749819,6.440067e-08
C0C720,竹圍,2026-01-08,25.112692,121.239824,0.003458669
C0F9P0,清水,2026-01-08,24.312297,120.562242,0.99664074
C0Z150,吉安光華,2026-01-08,23.930925,121.595153,9.242282e-08
C0FA80,小雪山天池,2026-01-08,24.28025,121.02627,3.029623e-08
467300,東吉島,2026-01-08,23.25727,119.66762,0.9996513
C1D640,外坪(五指山),2026-01-08,24.644447,121.090961,6.075659e-08
C2R9A0,高士國小,2026-01-08,22.12553,120.84653,0.0031849428
C0F9O0,潭子,2026-01-08,24.213106,120.703933,0.0004933804
C2H9R0,卓社,2026-01-08,23.887894,121.000086,8.226684e-09
72T250,花蓮農改場,2026-01-08,23.975222,121.563889,8.309448e-08
C0E780,銅鑼,2026-01-08,24.489681,120.790853,1.653437e-05
C1T950,太安,2026-01-08,23.666719,121.370128,7.614885e-09
C0E830,苑裡,2026-01-08,24.439714,120.653053,0.007841193
467270,田中,2026-01-08,23.873803,120.581286,3.4179333e-08
C0SA10,檳榔四格山,2026-01-08,22.810031,121.109308,1.5902333e-06
C1T830,布洛灣,2026-01-08,24.17184,121.57127,3.7036553e-08
C0F970,大坑,2026-01-08,24.173142,120.722289,0.005626158
C1U920,思源,2026-01-08,24.393125,121.347214,2.6053597e-08
C2H9Y0,松茗,2026-01-08,23.8167,120.650765,4.473018e-09
C0A931,三和,2026-01-08,25.233153,121.595236,3.81562e-05
C0I010,廬山,2026-01-08,24.033311,121.181808,9.322179e-09
C2M940,日野賀,2026-01-08,23.434056,120.727169,5.921266e-09
C0R860,鼻頭,2026-01-08,22.1043,120.8979,0.99635476
C0UB20,壯圍,2026-01-08,24.7359,121.8163,3.1201208e-07
C0R790,九棚,2026-01-08,22.14195,120.889281,0.9988498
C0W110,東莒,2026-01-08,25.9652,119.98069,0.95695454
C1U930,粉鳥林,2026-01-08,24.497088,121.842479,3.667936e-06
C1I211,蘆竹湳,2026-01-08,23.934019,120.811994,1.8145688e-08
C0S830,長濱,2026-01-08,23.286817,121.411975,5.350707e-08
C1F9F1,伯公龍,2026-01-08,24.272392,120.849047,4.8144077e-08
C0UB90,太平山莊,2026-01-08,24.494171,121.536209,3.4652683e-08
C0E810,西湖,2026-01-08,24.562947,120.7485,0.0030115403
C1I440,新高口,2026-01-08,23.478744,120.878939,2.7363317e-08
C0O840,王爺宮,2026-01-08,23.222064,120.40085,1.2585492e-07
C0T9G0,鳳林山,2026-01-08,23.735269,121.420131,2.7329309e-08
C0X080,佳里,2026-01-08,23.173039,120.145086,0.99964505
C0FB70,大甲溪埔,2026-01-08,24.370625,120.620067,0.9944181
C0Z310,清水斷崖,2026-01-08,24.218294,121.689142,4.888962e-05
C0M680,太保,2026-01-08,23.455062,120.331455,0.49364504
C1S820,金峰,2026-01-08,22.590969,120.933236,0.07728732
C0AD10,八里,2026-01-08,25.150211,121.403947,0.50410986
C2K240,草嶺,2026-01-08,23.59555,120.693461,5.8024985e-09
C1SA70,都蘭,2026-01-08,22.87794,121.226881,7.903489e-06
C0K440,二崙,2026-01-08,23.772797,120.408944,5.8349194e-08
C1A760,坪林交控,2026-01-08,24.94284,121.713442,2.7884613e-07
C0F9N0,大里,2026-01-08,24.092464,120.701378,0.26550427
C0SA90,達仁林場,2026-01-08,22.264347,120.823972,8.8937755e-09
C1R290,石門山,2026-01-08,22.112611,120.756597,0.9997918
42HA10,萬大發電廠,2026-01-08,23.978875,121.139639,6.8304966e-09
C0R890,山海,2026-01-08,21.9878,120.7091,0.9992702
C0T9A0,月眉山,2026-01-08,23.809928,121.539828,2.9197517e-08
C0AC70,信義,2026-01-08,25.037822,121.564597,8.182843e-07
C0K560,棋山,2026-01-08,23.68645,120.603417,8.952527e-09
C2FB50,出雲,2026-01-08,24.206469,120.902794,9.825115e-09
C1Z240,中平林道,2026-01-08,23.42115,121.26763,1.7809013e-08
U2H480,溪頭,2026-01-08,23.670306,120.798194,5.133165e-09
C0M880,好美里,2026-01-08,23.3364,120.138,0.99964505
C0T9E0,大坑,2026-01-08,23.880628,121.581981,3.2388623e-08
C0K530,臺西,2026-01-08,23.701547,120.197559,0.14544408
C1E900,國一N128K,2026-01-08,24.560997,120.844186,0.0010468758
C0AJ50,水湳洞,2026-01-08,25.123695,121.862238,1.7986476e-06
C0AI20,白沙灣,2026-01-08,25.283128,121.519058,0.34737074
C2V310,美濃,2026-01-08,22.898792,120.51907,0.03719587
C0A860,大坪,2026-01-08,25.165914,121.632969,1.3661618e-07
C1U850,觀音海岸,2026-01-08,24.38319,121.77856,4.85929e-08
C2K610,草嶺石壁,2026-01-08,23.602469,120.707731,5.9669905e-09
C0U950,鶯子嶺,2026-01-08,24.89754,121.79244,5.549462e-08
C0O900,善化,2026-01-08,23.112883,120.297219,0.9997484
C0K550,蔦松,2026-01-08,23.514319,120.229736,0.73507667
E2P980,林試六龜中心,2026-01-08,22.991703,120.645722,2.6427372e-07
C0E590,通霄,2026-01-08,24.471892,120.704622,0.0019335442
C1I310,西巒,2026-01-08,23.754486,120.883956,7.0491484e-09
C0A550,泰平,2026-01-08,24.971197,121.823711,1.1897048e-07
C0I360,水里,2026-01-08,23.812553,120.849792,1.31340725e-08
C0R830,高士,2026-01-08,22.121825,120.836781,0.9991033
C1I101,溪頭,2026-01-08,23.661789,120.807647,1.1679525e-08
C0AJ20,野柳,2026-01-08,25.20703,121.690021,0.38192454
C0B060,暖暖,2026-01-08,25.0957,121.7403,9.1849455e-07
C1H920,長豐,2026-01-08,24.102039,120.879897,7.791929e-09
C2S9B0,利吉,2026-01-08,22.86246,121.15486,1.027803e-06
C0V360,內門,2026-01-08,22.975481,120.466769,0.0068275467
C0R850,林邊,2026-01-08,22.4634,120.5339,0.7946642
C0E930,龍鳳,2026-01-08,24.700034,120.859125,0.00039917792
C0U910,冬山,2026-01-08,24.63373,121.7937,3.0797995e-07
C1E721,泰安,2026-01-08,24.489017,120.968036,1.8325332e-08
82H320,茶改中部分場,2026-01-08,23.875611,120.913583,6.727294e-09
C0M750,布袋,2026-01-08,23.380878,120.167789,0.75332224
C1S860,利嘉,2026-01-08,22.809417,121.050528,1.15716645e-07
E2S980,林試太麻里1,2026-01-08,22.598922,120.980044,0.9946598
C0X170,關廟,2026-01-08,22.963017,120.327797,0.9990787
C0V720,林園,2026-01-08,22.507747,120.394511,0.7911317
C1I510,線浸林道,2026-01-08,23.761508,120.832956,5.3919296e-09
C0D690,外湖,2026-01-08,24.917735,120.968711,0.00039917792
C0C750,新興坑尾,2026-01-08,25.0061,121.0971,0.00052100123
B2Q810,畜試南區分所,2026-01-08,21.945583,120.802167,0.99937767
C0S790,金崙,2026-01-08,22.538122,120.966875,0.0035473544
C0AH90,福山植物園,2026-01-08,24.760717,121.58135,5.289529e-08
C0I540,奇萊稜線,2026-01-08,24.109231,121.326456,4.093736e-08
C0M850,表湖,2026-01-08,23.24186,120.64166,4.7091095e-09
C0S770,大溪山,2026-01-08,22.478475,120.943325,8.417552e-07
C0AG80,中和,2026-01-08,24.991622,121.491792,7.974291e-07
C0T790,大禹嶺,2026-01-08,24.186117,121.316086,3.4625792e-08
C0T9B0,水源,2026-01-08,23.991861,121.537169,2.7611142e-08
C0R840,牡丹池山,2026-01-08,22.168389,120.841225,9.120693e-09
C1I131,桶頭,2026-01-08,23.641944,120.654117,8.255984e-09
CAL110,布袋國中,2026-01-08,23.35893,120.18026,0.999654
C2M9D0,何竹子腳,2026-01-08,23.53641,120.38203,7.586092e-05
467571,新竹,2026-01-08,24.827853,121.014219,0.00014046005
C0Z290,赤柯山,2026-01-08,23.36893,121.38293,2.2966228e-08
C0X280,將軍,2026-01-08,23.214999,120.13577,0.99964267
C0S690,太麻里,2026-01-08,22.60902,120.98533,1.0363112e-07
C0U880,北關,2026-01-08,24.9072,121.8734,2.1832627e-06
CAW010,東引,2026-01-08,26.3588,120.4836,0.9793691
C0G810,埔心,2026-01-08,23.947633,120.525456,0.90062696
C0U970,大福,2026-01-08,24.80064,121.81389,3.2302412e-07
C2H9N0,仁愛東眼,2026-01-08,24.026875,121.1205,9.306278e-09
C1E670,南礦,2026-01-08,24.538278,121.002836,1.6861396e-08
C0M520,東後寮,2026-01-08,23.369908,120.248065,0.9995142
C1E461,松安,2026-01-08,24.397972,120.986022,1.7534482e-08
C2N160,西拉雅風管處,2026-01-08,23.189481,120.335297,0.9991849
C2M970,碧湖,2026-01-08,23.568632,120.624165,2.866895e-09
C0A640,石碇,2026-01-08,24.993969,121.662917,2.7353673e-07
E2S960,林試太麻里2,2026-01-08,22.598,120.99775,0.9992599
C0F9Y0,桃山,2026-01-08,24.432739,121.303808,5.2266483e-08
C1I020,萬大,2026-01-08,23.979817,121.132261,7.3491613e-09
C2UC20,長嶺,2026-01-08,24.70894,121.61162,6.73134e-08
C0U940,羅東,2026-01-08,24.68184,121.74934,2.8633997e-07
C0M650,朴子,2026-01-08,23.43463,120.23902,0.592128
C1I500,大尖山,2026-01-08,23.858572,120.994889,1.550293e-08
C0FB40,中橫21.6k,2026-01-08,24.2499,121.1455,1.1085573e-08
C0G820,田尾,2026-01-08,23.901669,120.509389,0.8976849
E2K600,四湖植物園,2026-01-08,23.676986,120.163433,0.11317135
C0S730,綠島,2026-01-08,22.6672,121.47533,0.99994284
12Q970,東港工作站,2026-01-08,22.479997,120.466058,0.87873286
C1TA00,太魯閣,2026-01-08,24.15773,121.6236,6.4101283e-07
466920,臺北,2026-01-08,25.037658,121.514853,8.414815e-07
C0R600,舊泰武,2026-01-08,22.588194,120.664944,6.529663e-09
C1I260,北坑,2026-01-08,23.9246,121.006903,1.1133653e-08
466910,鞍部,2026-01-08,25.182586,121.529731,1.7131457e-07
C1I230,九份二山,2026-01-08,23.961944,120.845,7.2626265e-09
C2M810,里佳,2026-01-08,23.389125,120.716647,7.198841e-09
C2A660,瑞芳,2026-01-08,25.113169,121.801147,6.923542e-07
C0R270,琉球嶼,2026-01-08,22.332244,120.362236,0.055643603
C2V580,瑞山,2026-01-08,22.90304,120.43424,0.0034838961
C1T990,高寮,2026-01-08,23.394239,121.356808,1.1399707e-07
C0G620,芬園,2026-01-08,24.015678,120.6213,0.052599464
C1Z140,荖溪,2026-01-08,23.890575,121.45964,2.4581805e-08
C1I201,中心崙,2026-01-08,23.728722,120.712097,3.2306857e-09
C1I400,凌霄,2026-01-08,24.018778,121.004456,9.124504e-09
C1M640,十字,2026-01-08,23.492153,120.753683,9.070677e-09
G2P820,農試鳳山分所,2026-01-08,22.646611,120.356083,0.9998361
C0Z270,蕃薯寮,2026-01-08,23.73835,121.540108,3.4791892e-08
C2E420,竹南,2026-01-08,24.70898,120.88897,0.00014140988
C0FB10,出雲山苗圃,2026-01-08,24.23105,120.90475,9.834903e-09
C0F9Q0,外埔,2026-01-08,24.347817,120.705686,0.0026093943
C0K580,高鐵雲林,2026-01-08,23.737456,120.417944,5.8349194e-08
C2I090,鳳凰,2026-01-08,23.728081,120.787347,3.6638361e-09
C0U990,員山,2026-01-08,24.74435,121.72247,2.9574286e-07
C0V770,大社,2026-01-08,22.730306,120.346639,0.99986404
C0X120,麻豆,2026-01-08,23.183289,120.248611,0.9995073
C0C670,龍潭,2026-01-08,24.870056,121.221389,1.2948927e-07
C0D680,香山濕地,2026-01-08,24.783581,120.914988,0.00036595145
C0S980,勝林山,2026-01-08,22.430439,120.8938,2.1849418e-08
C0V730,大寮,2026-01-08,22.605614,120.395717,0.5337459
C0R570,麟洛,2026-01-08,22.65078,120.52719,0.006299742
C2M930,石卓,2026-01-08,23.478744,120.702264,8.963513e-09
C0G9B0,和美,2026-01-08,24.105169,120.492131,0.9565948
CAG100,王功漁港,2026-01-08,23.96824,120.32586,0.9771194
C0X290,北門,2026-01-08,23.267772,120.125481,0.999654
C2F930,大甲,2026-01-08,24.347667,120.640403,0.04578125
C0D650,湖口,2026-01-08,24.904794,121.043628,2.3337889e-05
C0U780,五結,2026-01-08,24.68637,121.79794,3.0797995e-07
C1I250,鯉潭,2026-01-08,23.961922,120.991131,7.791929e-09
C0R130,阿禮,2026-01-08,22.742908,120.743678,3.175337e-09
C0X100,臺南市北區,2026-01-08,23.010394,120.194228,0.9997632
C0S920,金峰嘉蘭,2026-01-08,22.594789,120.960825,0.9945744
C0V490,新興,2026-01-08,22.627422,120.298803,0.99988264
C0F9K0,大安,2026-01-08,24.345061,120.588025,0.995496
467290,古坑,2026-01-08,23.633639,120.551889,1.1434915e-08
C2E970,八甲,2026-01-08,24.535811,120.795983,1.08739205e-05
C0V440,鳳山,2026-01-08,22.646653,120.356122,0.9998361
C1T940,大觀,2026-01-08,23.714206,121.373133,2.8775572e-08
C0E740,造橋,2026-01-08,24.637056,120.864778,0.008032626
C0R100,尾寮山,2026-01-08,22.833111,120.683889,3.1770455e-09
A2K630,臺大雲林校區,2026-01-08,23.730628,120.423903,5.7842247e-08
467990,馬祖,2026-01-08,26.169467,119.923158,0.00015743582
C0D580,寶山,2026-01-08,24.735006,121.025192,6.0948323e-06
E2P990,林試扇平站,2026-01-08,22.9677,120.6857,2.9992868e-09
C0AI30,三重,2026-01-08,25.057328,121.500629,9.0393905e-07
C0AH00,汐止,2026-01-08,25.066881,121.658778,1.880291e-06
C1Z040,立山,2026-01-08,23.443356,121.327375,3.111601e-08
466881,新北,2026-01-08,24.959207,121.525196,7.272055e-07
C0W130,花嶼,2026-01-08,23.40007,119.32276,0.99852765
C0A950,鼻頭角,2026-01-08,25.129036,121.923372,2.1593876e-06
C0K470,林內,2026-01-08,23.748675,120.609642,1.2554032e-08
C2F990,摩天嶺,2026-01-08,24.322458,120.936819,9.794449e-09
C2E430,南庄,2026-01-08,24.601775,121.000214,1.2225371e-06
82C160,茶改場,2026-01-08,24.908472,121.185333,1.505003e-05
C2TB60,南安,2026-01-08,23.29818,121.26157,6.374089e-08
C0Z320,清水林道,2026-01-08,23.27125,121.188272,2.5039878e-08
C0R760,南仁湖,2026-01-08,22.084681,120.863353,0.9997888
C0M670,大林,2026-01-08,23.600616,120.45841,8.635097e-06
C0M800,茶山,2026-01-08,23.299075,120.664767,2.6589295e-09
C0A9C0,天母,2026-01-08,25.117494,121.537169,7.974291e-07
72K220,南改斗南分場,2026-01-08,23.634556,120.477333,3.4927197e-08
72AI40,桃改樹林分場,2026-01-08,24.944503,121.386972,7.488133e-07
C0S910,蘭嶼燈塔,2026-01-08,22.081197,121.503117,0.94619775
C0B050,八斗子,2026-01-08,25.144754,121.79167,2.299833e-06
C0U900,內城,2026-01-08,24.71813,121.68766,2.4676118e-07
C0X320,柳營,2026-01-08,23.253328,120.375253,0.000251343
C0M790,新港,2026-01-08,23.553269,120.345728,0.55544066
C0F9T0,西屯,2026-01-08,24.179494,120.641275,0.04578125
C0E950,松安,2026-01-08,24.39792,120.98599,1.7534482e-08
C0SA30,都歷,2026-01-08,23.020333,121.323642,4.619682e-06
C0C620,蘆竹,2026-01-08,25.084275,121.265767,0.0017819775
C0R730,大坪頂,2026-01-08,22.024633,120.69355,0.9998374
C0AJ40,石門,2026-01-08,25.273672,121.601198,0.00049759395
C0E750,苗栗,2026-01-08,24.564569,120.824575,0.0013167146
C0T870,鯉魚潭,2026-01-08,23.935639,121.508944,5.3685454e-08
C1V170,排雲,2026-01-08,23.463619,120.954147,5.4199162e-08
C2H950,中寮,2026-01-08,23.884447,120.766406,0.0010473282
C0R350,貓鼻頭,2026-01-08,21.921774,120.7358,0.99949986
C0V660,岡山,2026-01-08,22.797078,120.294958,0.9998829
C1H941,雙冬,2026-01-08,23.967378,120.802189,1.3289475e-08
C0AJ70,田寮,2026-01-08,25.2698,121.4886,0.3873716
C0AI00,五股,2026-01-08,25.07445,121.42728,2.9990886e-07
C0Z280,德武,2026-01-08,23.47426,121.41071,4.75235e-08
C2RA10,大新,2026-01-08,22.67558,120.57788,0.0031658167
C0R700,枋山,2026-01-08,22.246844,120.661086,0.9988029
C0C460,復興,2026-01-08,24.820208,121.352281,5.7924606e-08
C2K300,鹿南,2026-01-08,23.63855,120.3636,0.100598544
E2H360,蓮華池,2026-01-08,23.918333,120.885278,8.363809e-09
C0M640,中埔,2026-01-08,23.42538,120.5229,5.3018724e-08
C0W140,金沙,2026-01-08,24.488292,118.408778,5.9627677e-05
C2A540,四堵,2026-01-08,24.8926,121.745736,1.4469755e-07
C0ACA0,新莊,2026-01-08,25.051478,121.446756,8.7509153e-07
C0R220,潮州,2026-01-08,22.534361,120.54,0.713872
U2HA40,臺大內茅埔,2026-01-08,23.689722,120.851117,3.5451293e-09
467490,臺中,2026-01-08,24.145736,120.684075,0.05096335
C0UB60,明池,2026-01-08,24.650688,121.475277,4.4672817e-08
C0U960,翠峰湖,2026-01-08,24.510856,121.608044,3.395406e-08
E2HA20,林試畢祿溪站,2026-01-08,24.226944,121.308522,2.2539512e-08
C2M9A0,大華,2026-01-08,23.4824,120.67491,5.481261e-09
C0V890,前鎮,2026-01-08,22.5718,120.3117,0.9998849
C1F941,雪嶺,2026-01-08,24.280586,121.026642,3.029623e-08
C2H9E0,國姓南港,2026-01-08,23.911108,120.846556,7.349582e-09
C0AC80,文山,2026-01-08,25.00235,121.575728,6.002711e-07
C0F9R0,龍井,2026-01-08,24.184536,120.528972,0.99688166
C0M760,民雄,2026-01-08,23.551754,120.428457,1.7735472e-05
C0UA40,西德山,2026-01-08,24.560647,121.752608,3.947705e-08
C2TA70,赤科坪,2026-01-08,23.39885,121.39168,2.301025e-08
C1T920,中興,2026-01-08,23.769503,121.498653,7.134272e-08
C0D550,雪霸,2026-01-08,24.526972,121.11605,2.3409372e-08
C2F860,梨山,2026-01-08,24.247522,121.243669,2.3054664e-08
C0R320,車城,2026-01-08,22.0744,120.716247,0.9992735
C1S870,南美山,2026-01-08,23.15025,121.382333,3.1399202e-07
C0B020,基隆嶼,2026-01-08,25.19141,121.78391,1.7772927e-06
C1U501,牛鬥,2026-01-08,24.637836,121.573656,9.738939e-08
C0M730,嘉義市東區,2026-01-08,23.457673,120.460531,1.7048176e-05
C2R990,泰武,2026-01-08,22.60686,120.69765,6.992771e-09
C0S700,知本,2026-01-08,22.684866,121.005642,1.2708091e-07
C1N001,沙崙,2026-01-08,22.935472,120.309406,0.99947417
C0V760,橋頭,2026-01-08,22.757806,120.30575,0.99988264
C0G960,福寶,2026-01-08,24.0443,120.3814,0.9772794
C0X210,白河,2026-01-08,23.347466,120.414427,0.00014875576
C0S810,東河,2026-01-08,22.972672,121.303986,1.3155181e-05
C2R170,屏東,2026-01-08,22.66027,120.49403,0.006968324
C0R670,楓港,2026-01-08,22.190131,120.692156,0.998679
C0FA50,霧峰,2026-01-08,24.0419,120.6995,0.12736446
C0UB10,蘇澳,2026-01-08,24.5969,121.8571,3.6559297e-06
C0G950,防潮門,2026-01-08,24.1835,120.4871,0.9970779
C0M740,六腳,2026-01-08,23.492871,120.290625,0.5702838
C1R250,力里,2026-01-08,22.428117,120.629228,1.4080601e-06
C0K330,虎尾,2026-01-08,23.719183,120.442036,4.284899e-08
C2FA00,烏石坑,2026-01-08,24.273503,120.947617,9.800485e-09
C0V620,永安,2026-01-08,22.82315,120.236856,0.9998849
C1I330,楓樹林,2026-01-08,23.986803,121.076117,8.0171905e-09
C0W200,湖西,2026-01-08,23.596314,119.67275,0.9993286
72Q010,高雄農改場,2026-01-08,22.709333,120.525889,0.005014284
C0SA40,瑞和,2026-01-08,22.974361,121.156697,6.3716215e-07
C0C680,龜山,2026-01-08,25.02846,121.38656,2.2280749e-07
C2V260,月眉,2026-01-08,22.971003,120.539853,0.0015362479
C0V450,鳳森,2026-01-08,22.545064,120.392592,0.10425979
C0FA90,小雪山林道,2026-01-08,24.29515,121.03651,3.7567233e-08
C0U720,南山,2026-01-08,24.43742,121.38167,2.599909e-08
A2N290,臺南蘭花園區,2026-01-08,23.340258,120.379661,0.00045544637
C0R560,新園,2026-01-08,22.5434,120.461558,0.7911317
C0U890,三星,2026-01-08,24.66812,121.65302,1.76394e-07
C1V300,御油山,2026-01-08,23.001983,120.715364,7.995856e-09
C0U600,礁溪,2026-01-08,24.817539,121.765608,2.8001946e-07
C1T980,龍澗,2026-01-08,24.023289,121.411328,2.6578862e-08
C0D670,海天一線,2026-01-08,24.831986,120.914438,0.00039917792
C0SA00,歷坵,2026-01-08,22.520969,120.89185,2.5541206e-07
C0M710,東石,2026-01-08,23.458927,120.15385,0.74651605
C0M780,鹿草,2026-01-08,23.41134,120.30835,0.48759785
C0U520,雙連埤,2026-01-08,24.753033,121.641303,5.6092148e-08
C0B010,七堵,2026-01-08,25.094819,121.71713,1.6374206e-06
C0R480,長治,2026-01-08,22.693128,120.542622,0.003527568
C1V830,國三S383K,2026-01-08,22.781967,120.426475,0.00022008868
12Q980,恆春工作站,2026-01-08,22.079678,120.714425,0.999276
C1O940,東山服務區,2026-01-08,23.286016,120.398472,0.00014762772
C1U840,東澳嶺,2026-01-08,24.5378,121.8485,4.335044e-08
C1D630,飛鳳山,2026-01-08,24.766464,121.119178,1.318903e-07
C0S940,石寧山,2026-01-08,23.223772,121.406639,0.99981767
C0K410,北港,2026-01-08,23.573957,120.292802,0.5629096
C2M620,瑞里,2026-01-08,23.545133,120.675197,6.493187e-09
C0SB70,小港漁港,2026-01-08,23.158558,121.400431,0.9999318
C2O950,安南,2026-01-08,23.076694,120.144861,0.9997801
C0F0E0,南湖圈谷,2026-01-08,24.363714,121.444667,5.963352e-08
467610,成功,2026-01-08,23.097486,121.373428,2.335559e-05
C0G890,伸港,2026-01-08,24.148933,120.484403,0.9968765
C2E540,龍溪,2026-01-08,24.606489,120.783933,0.009501775
C1V200,梅山,2026-01-08,23.268447,120.823556,4.447199e-09
C0T9H0,加路蘭山,2026-01-08,23.682947,121.5274,2.6501969e-08
C2O930,玉井,2026-01-08,23.126042,120.46055,1.6897016e-05
C1F911,新伯公,2026-01-08,24.221361,120.841069,1.1801437e-07
C0R490,九如,2026-01-08,22.7405,120.490503,0.0058039813
C0X200,左鎮,2026-01-08,23.056758,120.408522,0.023790497
C2TB50,麻汝,2026-01-08,23.42554,121.39358,4.122791e-08
C0FA60,鞍馬山工作站,2026-01-08,24.267064,121.000793,2.330339e-08
C0SB50,叭嗡嗡,2026-01-08,23.047062,121.343223,4.3016837e-05
C1F891,稍來,2026-01-08,24.265689,121.001142,2.2647892e-08
C2M9C0,紫雲,2026-01-08,23.494914,120.540253,1.6711705e-07
72N240,七股研究中心,2026-01-08,23.081672,120.062894,0.9997849
C0C700,中壢,2026-01-08,24.977661,121.256375,7.822307e-05
C0M690,水上,2026-01-08,23.419734,120.388909,1.9605877e-05
C0V690,鼓山,2026-01-08,22.623325,120.275575,0.99988323
C0O860,大內,2026-01-08,23.11885,120.36083,0.99950594
C0Z200,萬榮,2026-01-08,23.709219,121.420106,5.376528e-08
C0T9D0,和中,2026-01-08,24.26676,121.74103,0.0016281699
C2S9A0,北份子寮,2026-01-08,22.78561,121.07813,0.3479966
C1O921,楠西,2026-01-08,23.183511,120.484083,3.1358763e-06
C0AJ30,淡水觀海,2026-01-08,25.184591,121.408616,0.57694125
C0V810,左營,2026-01-08,22.67491,120.28491,0.9998662
C0UA70,桃源谷,2026-01-08,24.962606,121.888875,8.767358e-08
C0X130,官田,2026-01-08,23.193217,120.315422,0.9993482
C1H000,翠峰,2026-01-08,24.109397,121.205211,2.2359544e-08
C0UA90,石城,2026-01-08,24.980444,121.951214,1.7067724e-06
C1E681,南勢山,2026-01-08,24.421669,120.923831,1.548635e-08
C0A9F0,內湖,2026-01-08,25.079422,121.57545,8.414815e-07
C0K291,宜梧,2026-01-08,23.536281,120.169329,0.75332224
C1K540,口湖,2026-01-08,23.585344,120.180517,0.75094485
C0R780,滿州,2026-01-08,22.024403,120.839892,0.9995367
C0V870,文安,2026-01-08,22.8025,120.2164,0.9998916
C0U650,玉蘭,2026-01-08,24.675286,121.587061,6.630634e-08
C0R640,東港,2026-01-08,22.46247,120.44074,0.88030595
C0AJ80,板橋,2026-01-08,25.0107,121.4489,8.182843e-07
C0S660,下馬,2026-01-08,23.150427,121.070312,2.3711666e-08
C2N190,烏樹,2026-01-08,23.32393,120.36989,0.99932927
C1H9B1,阿眉,2026-01-08,24.1263,120.994672,1.4561654e-08
C0UA20,多加屯,2026-01-08,24.368614,121.373189,3.2274972e-08
C0E730,頭份,2026-01-08,24.688247,120.912206,0.00015545377
72V140,高改旗南分場,2026-01-08,22.857861,120.516667,0.0035864846
C0K480,莿桐,2026-01-08,23.761192,120.502372,3.4879196e-08
C0U980,坪林石牌,2026-01-08,24.86478,121.77396,5.1562466e-08
C0T900,西林,2026-01-08,23.8119,121.441458,4.805252e-08
C1I150,青雲,2026-01-08,23.793361,120.949378,4.202436e-09
C2E980,和興,2026-01-08,24.505319,120.923016,1.9645855e-08
467350,澎湖,2026-01-08,23.565503,119.563094,0.9991464
C0G800,埔鹽,2026-01-08,24.000394,120.431683,0.95689356
C0H960,草屯,2026-01-08,23.973672,120.68085,0.058580827
C1V780,多納林道,2026-01-08,22.888028,120.737917,3.9369055e-09
C0E920,通霄漁港,2026-01-08,24.498589,120.673876,0.020372136
C0Z330,安通山,2026-01-08,23.290728,121.348528,3.075244e-08
C0AH10,永和,2026-01-08,25.01125,121.508111,8.595262e-07
C0AK10,太平里,2026-01-08,25.134937,121.364899,0.3873716
C2G640,鹿港,2026-01-08,24.0753,120.430481,0.9768814
C1E890,國三N149K,2026-01-08,24.463414,120.680019,0.0008407023
C1R110,口社,2026-01-08,22.770111,120.645222,0.00012626058
C1M870,國三N285K,2026-01-08,23.550319,120.505833,9.131175e-08
C1E480,鳳美,2026-01-08,24.554803,121.034747,2.1898023e-08
C0T9M0,靜浦,2026-01-08,23.455167,121.495028,7.006579e-08
C2H9M0,發祥,2026-01-08,24.154094,121.164517,1.06452465e-08
C2G9C0,埔南,2026-01-08,23.99124,120.46969,0.9557421
C0AI40,石牌,2026-01-08,25.115597,121.513139,8.414815e-07
C1F871,上谷關,2026-01-08,24.203483,121.018644,9.7764e-09
C2H9G0,百勝,2026-01-08,24.051142,120.909361,2.4662675e-08
C0G880,二水,2026-01-08,23.810742,120.6173,1.26291555e-08
C0R940,加祿堂,2026-01-08,22.3363,120.6217,0.7880326
C0W220,北竿,2026-01-08,26.220358,119.974881,0.001328589
C0O960,崎頂,2026-01-08,22.959547,120.369317,0.9706596
C0TA40,秀林,2026-01-08,24.302864,121.731144,4.076827e-08
C0S750,向陽,2026-01-08,23.248397,120.986133,2.552459e-08
C0T9F0,水璉,2026-01-08,23.797131,121.542514,3.8151118e-08
C1M600,頭凍,2026-01-08,23.406364,120.603339,2.6408253e-09
467660,臺東,2026-01-08,22.752211,121.154586,0.99969125
C1D380,新埔,2026-01-08,24.84745,121.03834,1.9384526e-05
C2G980,田頭村,2026-01-08,23.8263,120.444175,5.860528e-08
C0V750,路竹,2026-01-08,22.854997,120.259439,0.99986094
C0N050,蚵寮,2026-01-08,23.301,120.1104,0.999654
C2X060,下營,2026-01-08,23.226806,120.256291,0.99964267
72M700,南改鹿草分場,2026-01-08,23.416869,120.283061,0.56525695
C1SA50,利嘉林道,2026-01-08,22.82325,121.009389,1.6090514e-08
C0UB70,太平山中間站,2026-01-08,24.542003,121.513453,2.5050864e-08
C0A940,金山,2026-01-08,25.223628,121.643967,0.1998723
C1V340,大津,2026-01-08,22.888322,120.645986,1.6835831e-05
C0W180,七美,2026-01-08,23.219333,119.444892,0.9996338
C1F9C1,白冷,2026-01-08,24.182844,120.929889,1.8167992e-08
K2E710,苗改生物防治研究中心,2026-01-08,24.422861,120.871833,6.355776e-07
C0N040,蘆竹溝,2026-01-08,23.2344,120.0961,0.9996568
C0TB40,崇德,2026-01-08,24.166144,121.657414,0.0016281699
C0D760,大坪苗圃,2026-01-08,24.5362,121.1108,1.831279e-08
C2W230,畜試所澎湖,2026-01-08,23.628342,119.513206,0.9986416
C0R880,後壁湖,2026-01-08,21.9457,120.7457,0.99919
C1I280,埔中,2026-01-08,23.820778,120.642594,4.3992796e-09
467790,墾丁雷達站,2026-01-08,21.948235,120.808028,0.9996058
C0W190,望安,2026-01-08,23.380564,119.494075,0.9993283
C0Z170,卓溪,2026-01-08,23.3443,121.3029,7.2302875e-08
C0F850,東勢,2026-01-08,24.246428,120.833047,2.0216147e-07
466900,淡水,2026-01-08,25.164889,121.448906,0.38192454
C0I370,魚池,2026-01-08,23.895703,120.94135,8.948002e-09
C0C630,大溪,2026-01-08,24.882853,121.265547,1.6819431e-05
C0A520,山佳,2026-01-08,24.974944,121.402008,7.5516937e-07
C0I110,竹山,2026-01-08,23.761225,120.688156,9.422754e-08
82H840,茶改南部分場,2026-01-08,23.762528,120.7405,5.0693183e-09
C2SD80,再來山,2026-01-08,23.34371,121.44122,0.9994958
C0G660,溪湖,2026-01-08,23.94835,120.479122,0.9373109
C1T800,洛韶,2026-01-08,24.204558,121.453956,1.7350374e-08
C1T810,慈恩,2026-01-08,24.192044,121.388386,2.7938265e-08
C1E451,象鼻,2026-01-08,24.368617,120.940228,9.8588115e-09
C0AC60,三峽,2026-01-08,24.939025,121.369728,0.00089049095
C0I490,萬大林道,2026-01-08,23.928228,121.091411,1.0839874e-08
C1I290,豐丘,2026-01-08,23.668178,120.887417,7.78364e-09
C1I320,奧萬大,2026-01-08,23.952956,121.178556,6.954278e-09
C2M910,嘉義大學,2026-01-08,23.471325,120.485903,1.3537904e-06
C0U770,南澳,2026-01-08,24.44935,121.81022,3.4595864e-06
C2TB30,吉安,2026-01-08,23.94538,121.54803,6.819253e-08
C0A980,社子,2026-01-08,25.109508,121.469681,9.4712937e-07
C0V800,六龜,2026-01-08,22.997889,120.633583,3.34894e-07
C1G9D0,國一S218K,2026-01-08,23.890641,120.493253,0.89962715
C0E570,白沙屯,2026-01-08,24.549447,120.696803,0.02313765
C2F9A0,中竹林,2026-01-08,24.103556,120.751061,1.1801898e-07
C0FA40,臺中電廠,2026-01-08,24.2146,120.4907,0.9968765
C2G9A0,畜試所彰化,2026-01-08,23.86045,120.557964,3.4639598e-08
C0H9C0,合歡山,2026-01-08,24.143442,121.272547,4.864613e-08
G2M350,農試溪口農場,2026-01-08,23.58565,120.408111,7.7124554e-05
C0U860,頭城,2026-01-08,24.85323,121.8308,3.0038805e-07
C0R580,南州,2026-01-08,22.48591,120.50274,0.88030595
C0D430,峨眉,2026-01-08,24.6905,121.017189,1.6787588e-05
C0G780,秀水,2026-01-08,24.03405,120.503869,0.95097816
72N100,臺南農改場,2026-01-08,23.0605,120.342194,0.99925566
C0S900,蘭嶼高中,2026-01-08,22.04909,121.51214,0.05203482
C2TA60,六十石,2026-01-08,23.22477,121.31861,2.2987702e-08
C1F9W0,德基,2026-01-08,24.254783,121.190261,1.8936237e-08
C2M980,安和,2026-01-08,23.51377,120.31593,0.50125766
C1Z120,壽豐,2026-01-08,23.870853,121.508081,8.313522e-08
C0W160,烏坵,2026-01-08,24.9944,119.44956,0.9936687
C1I240,外大坪,2026-01-08,23.958697,120.917931,7.645199e-09
C1I550,國六W023K,2026-01-08,23.979067,120.867742,3.2465354e-07
C0R870,興海,2026-01-08,21.9752,120.8439,0.9993793
C0R140,瑪家,2026-01-08,22.682903,120.686639,2.3837992e-09
C0A530,坪林,2026-01-08,24.938183,121.70975,1.8566071e-07
C0X260,後壁,2026-01-08,23.366358,120.362326,0.9992231
C0Z230,和平,2026-01-08,24.30717,121.77007,3.228041e-06
C0G770,福興,2026-01-08,24.041289,120.437669,0.9735629
C0H9A0,神木村,2026-01-08,23.532742,120.843667,9.322392e-09
C0I460,南投,2026-01-08,23.911469,120.687331,0.07062418
C0I480,梅峰,2026-01-08,24.085272,121.173572,1.7405862e-08
C1V570,吉東,2026-01-08,22.85422,120.5454,0.0018087366
C2A560,福山,2026-01-08,24.776203,121.502811,7.009399e-08
C0AH30,五分山,2026-01-08,25.07125,121.780794,6.521327e-08
C0FA10,松柏,2026-01-08,24.429115,120.617482,0.020372136
72S200,東改班鳩分場,2026-01-08,22.829528,121.077694,9.409762e-05
72HA00,中改埔里分場,2026-01-08,23.903208,120.963364,9.441767e-09
C2H9W0,大坪頂農水,2026-01-08,24.043122,120.932781,7.750279e-09
C0C650,平鎮,2026-01-08,24.897503,121.214636,1.43572215e-05
C0S930,延平,2026-01-08,22.902581,121.084058,3.1631288e-07
C0UA60,樟樹山,2026-01-08,24.41393,121.78325,5.6408865e-08
C2UC10,出水溪,2026-01-08,24.615822,121.652253,5.6408865e-08
C1S670,摩天,2026-01-08,23.199503,121.027,1.4467969e-08
C2C590,觀音,2026-01-08,25.027072,121.153317,0.000362513
C0V630,茄萣,2026-01-08,22.906642,120.182608,0.99975896
466940,基隆,2026-01-08,25.133314,121.740475,2.2372485e-06
C0X050,東河,2026-01-08,23.296598,120.385608,0.00025134275
C0R770,保力,2026-01-08,22.071122,120.764111,0.9996969
G2L020,農試嘉義分所,2026-01-08,23.485028,120.473806,8.4695296e-07
C0X240,關子嶺,2026-01-08,23.331169,120.508025,3.0929073e-09
C0I380,集集,2026-01-08,23.828206,120.801467,1.4234511e-08
466990,花蓮,2026-01-08,23.975128,121.613275,1.1966712e-07
C1V220,小關山,2026-01-08,23.154217,120.813603,1.1298397e-08
C1F9G1,慶福山,2026-01-08,24.180853,120.848378,1.3232793e-08
C0FB20,雪山橋,2026-01-08,24.23192,120.9786,2.0470113e-08
C0Z250,瑞穗林道,2026-01-08,23.49284,121.30688,1.7805549e-08
C0D590,新豐,2026-01-08,24.87068,120.97721,6.0948323e-06
C0A870,五指山,2026-01-08,25.132153,121.608692,2.9207916e-07
C0UA50,西帽山,2026-01-08,24.555361,121.802628,4.36101e-08
C2R980,竹田國中,2026-01-08,22.61532,120.52412,0.6862167
C0X160,仁德,2026-01-08,22.968258,120.257689,0.999692
C1H971,六分寮,2026-01-08,23.92507,120.6378,8.244453e-08
C0W120,西嶼,2026-01-08,23.5626,119.468436,0.9991498
C0G650,員林,2026-01-08,23.946503,120.585597,0.8919686
C0AD50,鶯歌,2026-01-08,24.951533,121.346294,0.0004059641
C2H9Q0,北東眼山,2026-01-08,24.120939,121.189303,1.5323689e-08
C2H9T0,名間竹圍,2026-01-08,23.859914,120.637572,8.979512e-09
C0S990,山豬窟,2026-01-08,22.318619,120.857372,1.3020434e-08
C0X190,安平,2026-01-08,22.993161,120.152181,0.9997545
C0K400,斗六,2026-01-08,23.720583,120.541127,3.029606e-08
12J990,口湖工作站,2026-01-08,23.589978,120.180394,0.7453252
C0O830,北寮,2026-01-08,23.079561,120.495008,0.0012688574
C1D410,白蘭,2026-01-08,24.579364,121.079947,1.7493294e-08
C0S970,加津林,2026-01-08,22.416211,120.926942,0.9992075
C0D700,關西,2026-01-08,24.7977,121.1732,2.17008e-07
C0U750,龜山島,2026-01-08,24.841667,121.953133,7.407002e-08
C0R810,內獅,2026-01-08,22.305064,120.642986,0.7911317
C1M390,龍美,2026-01-08,23.406728,120.654417,5.8372875e-09
C2K290,崙內,2026-01-08,23.69525,120.35601,0.100598544
C2FB60,頭櫃山,2026-01-08,24.129842,120.858925,7.1150126e-09
C1H840,國三N238K,2026-01-08,23.841008,120.707711,1.4171932e-08
CAQ030,崎峰國小,2026-01-08,22.42565,120.49521,0.88030595
C2E520,大湖,2026-01-08,24.414939,120.870872,4.1744255e-07
467530,阿里山,2026-01-08,23.508208,120.813242,2.5794403e-08
C1E691,南湖,2026-01-08,24.40135,120.837533,2.8604184e-08
C0FA30,梧棲,2026-01-08,24.256003,120.523381,0.9966865
C1V231,高中,2026-01-08,23.134911,120.716711,4.642375e-09
C0AK30,硬漢嶺,2026-01-08,25.136097,121.426372,4.7406942e-07
C0F9V0,新社,2026-01-08,24.200172,120.815806,3.3329734e-08
C0H890,埔里,2026-01-08,23.972169,120.952425,3.1365378e-08
C0R690,墾丁,2026-01-08,21.966756,120.810269,0.99987
C0SD20,富山,2026-01-08,22.822383,121.190825,4.8387985e-05
C0F0D0,審馬陣,2026-01-08,24.381675,121.4203,5.7816877e-08
C2W030,金門農試所,2026-01-08,24.448431,118.451786,0.00082861865
C0R820,白鷺,2026-01-08,22.454275,120.666219,7.651151e-09
C0FB00,大雪山,2026-01-08,24.254668,121.007374,2.3479755e-08
C1V190,南天池,2026-01-08,23.27403,120.91176,2.8332474e-08
C0E940,雪見,2026-01-08,24.42595,121.01347,2.3543885e-08
K2E360,苗栗農改場,2026-01-08,24.495722,120.829111,8.2164435e-05
CAJ050,海口故事園區,2026-01-08,23.57543,120.14121,0.74651605
C2K280,四湖,2026-01-08,23.6304,120.22717,0.13702388
C2H9D0,三隻寮,2026-01-08,24.093078,120.861578,8.229603e-09
C0O990,媽廟,2026-01-08,22.99175,120.293525,0.999544
C0D480,打鐵坑,2026-01-08,24.849664,121.150789,1.2847887e-07
C0Z220,和平林道,2026-01-08,24.343922,121.656317,5.6405636e-08
C0TA10,花蓮漁港,2026-01-08,23.995322,121.638331,0.9998087
72C440,桃園農改場,2026-01-08,24.950944,121.030583,0.00010129478
C1E711,馬拉邦山,2026-01-08,24.367306,120.901656,9.812194e-09
C0SB20,富岡,2026-01-08,22.792467,121.192669,0.999617
C0D560,竹東,2026-01-08,24.767147,121.057881,6.8382496e-06
C0F9U0,南屯,2026-01-08,24.137006,120.637969,0.2167472
C2SD60,明峰,2026-01-08,22.8671,121.11825,2.0328123e-07
C0M720,番路,2026-01-08,23.464657,120.554156,1.0272896e-08
C0F0A0,雪山圈谷,2026-01-08,24.388594,121.236339,6.084751e-08
C1A9N0,四十份,2026-01-08,24.934158,121.593283,1.1685122e-07
C0U760,東澳,2026-01-08,24.52196,121.83318,2.3894713e-06
C0X230,鹽水,2026-01-08,23.272621,120.247641,0.9995142
C2H9H0,苗改南投蜂場,2026-01-08,23.852589,120.693481,1.2376496e-07
C2TB70,達谷寮,2026-01-08,23.38,121.35968,8.6606875e-08
C0R950,萬隆國小,2026-01-08,22.507667,120.587817,0.21340911
467540,大武,2026-01-08,22.35572,120.90374,0.99907184
C0V370,古亭坑,2026-01-08,22.893178,120.401947,0.01233168
C1I340,新興橋,2026-01-08,23.563333,120.868728,5.0480238e-09
C0SA80,土坂,2026-01-08,22.453108,120.887572,0.90664154
C0R160,鹽埔,2026-01-08,22.739558,120.530778,0.003711558
C0AC40,大屯山,2026-01-08,25.175675,121.522408,1.11843775e-07
466850,五分山雷達站,2026-01-08,25.071182,121.781205,6.4299165e-08
C2H9L0,馬烈霸,2026-01-08,24.1512,121.201772,1.9475095e-08
C1AI50,國三N016K,2026-01-08,25.034164,121.619664,6.691266e-07
C2V920,匏子寮,2026-01-08,23.04905,120.55319,3.222203e-06
C1V600,藤枝,2026-01-08,23.071961,120.757042,7.24699e-09
C1E601,南勢,2026-01-08,24.572486,120.734842,8.1686085e-05
C0O980,新市,2026-01-08,23.061614,120.298197,0.999692
C0K420,西螺,2026-01-08,23.800407,120.467394,4.2462535e-08
C0Z050,佳心,2026-01-08,23.34567,121.21316,2.324741e-08
C0AD30,蘆洲,2026-01-08,25.086594,121.472331,8.910756e-07
C0V610,梓官,2026-01-08,22.760558,120.267211,0.99988323
K2F750,種苗改良場,2026-01-08,24.225972,120.800917,5.678388e-08
C0UA80,大溪漁港,2026-01-08,24.941801,121.902955,1.880291e-06
C1AI60,國一39K邊坡,2026-01-08,25.064361,121.383836,2.6093318e-07
C0W150,金寧,2026-01-08,24.457703,118.328989,1.8412877e-07
C0R960,內埔,2026-01-08,22.608483,120.570714,0.51559675
V2C250,八德合作社,2026-01-08,24.93775,121.266389,4.8423117e-05
C2H9S0,龍南,2026-01-08,23.953536,120.833183,6.799586e-09
C0AH40,平等,2026-01-08,25.129142,121.577086,1.6236604e-06
C0R540,佳冬,2026-01-08,22.419456,120.552375,0.81076545
466950,彭佳嶼,2026-01-08,25.627975,122.079744,0.9994152
C0A890,雙溪,2026-01-08,25.036003,121.864242,1.2509965e-06
C0C480,桃園,2026-01-08,24.992425,121.323172,0.00013954515
C0AH50,林口,2026-01-08,25.072181,121.38084,2.0778997e-07
A2K360,水試臺西試驗場,2026-01-08,23.717231,120.190522,0.19567725
C2M960,外寮,2026-01-08,23.562643,120.665688,5.534766e-09
C0F9S0,烏日,2026-01-08,24.107058,120.624103,0.8482624
C2N180,鹿陶洋,2026-01-08,23.14325,120.48352,3.0710232e-06
C0C490,八德,2026-01-08,24.928708,121.283289,4.4015753e-05
C0R190,赤山,2026-01-08,22.592333,120.614306,0.4325683
C0T820,天祥,2026-01-08,24.179597,121.495639,2.8935785e-08
C1F9E1,龍安,2026-01-08,24.1605,120.831961,2.7271042e-08
C2SD50,順那,2026-01-08,23.04166,121.29332,1.200241e-06
C0V820,小林,2026-01-08,23.148408,120.63325,2.5421965e-09
C2G870,芳苑,2026-01-08,23.922303,120.320025,0.14245225
C0E850,大河,2026-01-08,24.618069,120.948578,2.0487281e-05
C1U670,寒溪,2026-01-08,24.634,121.71691,1.8181706e-07
C0N020,城西,2026-01-08,23.0568,120.0956,0.9997649
C1Z110,三棧,2026-01-08,24.11557,121.60501,2.5542123e-08
C0R280,檳榔,2026-01-08,22.076078,120.836777,0.99986786
C2H9J0,中台,2026-01-08,23.9996,120.938739,1.4372173e-08
C0F9L0,后里,2026-01-08,24.310436,120.729725,1.1873718e-05
467441,高雄,2026-01-08,22.730432,120.312516,0.9998662
C0Z180,新城,2026-01-08,24.040486,121.604878,1.08554985e-07
C0D540,橫山,2026-01-08,24.71116,121.11693,1.321928e-06
C1D420,太閣南,2026-01-08,24.632808,121.160575,3.4184158e-08
C1E770,公館,2026-01-08,24.526914,120.830806,0.00046483875
CAN130,水試所海水繁養殖中心,2026-01-08,23.120802,120.07968,0.9997844
C1I430,翠華,2026-01-08,24.191961,121.224339,2.6648761e-08
C1M400,菜瓜坪,2026-01-08,23.251928,120.576103,2.6775102e-09
C0G730,二林,2026-01-08,23.903325,120.376081,0.95097816
72M360,南改義竹分場,2026-01-08,23.360694,120.279361,0.9994893
V2K620,麥寮合作社,2026-01-08,23.753836,120.294783,0.13435327
C0Z070,舞鶴,2026-01-08,23.46811,121.37407,4.152021e-08
C0B040,大武崙,2026-01-08,25.166676,121.706993,1.509126e-06
C1Z030,紅葉,2026-01-08,23.493119,121.338806,4.617888e-08
C1I050,丹大,2026-01-08,23.753747,121.141147,2.807298e-08
C0I080,信義,2026-01-08,23.689694,120.851036,3.5451293e-09
C2TB80,庄子底,2026-01-08,23.71794,121.49438,6.474553e-08
C0D750,樂山林道6k,2026-01-08,24.49999,121.08773,3.1407644e-08
C2M920,朴子農改,2026-01-08,23.469889,120.259383,0.71850806
C2A880,福隆,2026-01-08,25.017842,121.942083,1.880291e-06
C0Z160,鳳林,2026-01-08,23.746114,121.453411,6.199758e-08
C0UB80,翠峰林道6K,2026-01-08,24.49773,121.568625,3.568904e-08
C0V210,復興,2026-01-08,23.222403,120.806089,4.5638595e-09
C0H990,昆陽,2026-01-08,24.121322,121.273642,3.5467004e-08
C0R741,獅子,2026-01-08,22.202308,120.705236,0.99102443
C0S710,鹿野,2026-01-08,22.917711,121.122994,1.050088e-07
C0I530,小奇萊,2026-01-08,24.131764,121.295717,4.255464e-08
C0FA70,大雪山埡口,2026-01-08,24.26867,121.03062,2.998928e-08
C2K630,荷苞,2026-01-08,23.657717,120.595144,4.962364e-09
C0Z080,富源,2026-01-08,23.587642,121.378225,3.5546783e-08
C2M9E0,旺來山,2026-01-08,23.555153,120.486463,7.84526e-08
C0SB10,美和,2026-01-08,22.682078,121.060236,0.99825907
C2K620,馬光農場,2026-01-08,23.721453,120.378864,6.934043e-08
C1I140,卡奈托灣,2026-01-08,23.754364,121.087872,1.2561409e-08
C0I520,玉山風口,2026-01-08,23.470489,120.955994,6.054685e-08
C1G691,下水埔,2026-01-08,23.816114,120.5676,2.436024e-08
C0X110,臺南市南區,2026-01-08,22.961189,120.188378,0.9997486
C0V680,仁武,2026-01-08,22.701083,120.347722,0.99986404
C2G840,北斗,2026-01-08,23.877586,120.514222,0.89133185
C2TB90,長橋,2026-01-08,23.6874,121.46186,6.1429404e-08
C0R900,竹坑,2026-01-08,22.1385,120.7022,0.998679
C0G860,社頭,2026-01-08,23.897647,120.5862,0.8244048
C0X150,安定,2026-01-08,23.102614,120.227839,0.99975896
C0R590,里港,2026-01-08,22.77919,120.49459,0.0037465827
C0E610,馬都安,2026-01-08,24.451272,120.930192,1.5687917e-08
C0E550,明德,2026-01-08,24.583486,120.885411,0.0006490298
C0R150,三地門,2026-01-08,22.709889,120.639944,0.00022008868
C0G910,花壇,2026-01-08,24.032076,120.549461,0.90062696
C1D400,鳥嘴山,2026-01-08,24.71909,121.28387,3.5783103e-08
C0K500,元長,2026-01-08,23.64981,120.315024,0.10932392
C0F0B0,石岡,2026-01-08,24.276061,120.777644,1.7623655e-06
C2V250,甲仙,2026-01-08,23.080106,120.591758,2.2912002e-07
C0SA20,金崙山,2026-01-08,22.567419,120.959667,2.2002984e-08
C0V350,溪埔,2026-01-08,22.738578,120.446797,0.006299748
C0M660,溪口,2026-01-08,23.604131,120.403569,7.586092e-05
C1S880,壽卡,2026-01-08,22.238911,120.858903,9.188967e-09
72D680,桃改新埔分場,2026-01-08,24.834444,121.066111,2.3337889e-05
