站號,站名,日期,lat,lon,BLBTSLS
C0R710,龍磐,2026-04-18,21.931672,120.838942,0.33817333
C1F9D1,白毛台,2026-04-18,24.158325,120.886933,1.0257496e-06
C0G940,竹塘,2026-04-18,23.848253,120.386764,0.9830105
467590,恆春,2026-04-18,22.003897,120.746339,0.07551191
C0U710,太平山,2026-04-18,24.505486,121.525656,5.1216835e-09
C0E820,獅潭,2026-04-18,24.539133,120.920042,0.0018861289
C2SD70,二層坪,2026-04-18,22.94105,121.16838,0.98159236
C0V880,興達,2026-04-18,22.8778,120.2127,0.6546296
C0SB30,新蘭,2026-04-18,22.869214,121.223228,0.98902714
C2R970,屏科大,2026-04-18,22.648275,120.619247,0.96812135
C1Z130,銅門,2026-04-18,23.965694,121.492842,0.7670207
C0AD40,土城,2026-04-18,24.973208,121.445169,1.8599684e-08
CAN140,六官養殖協會,2026-04-18,23.22881,120.29962,0.70174325
C0X180,山上,2026-04-18,23.0757,120.363253,0.6602431
C0F9Z0,雪山東峰,2026-04-18,24.388792,121.268675,1.1334681e-08
C1M480,獨立山,2026-04-18,23.537022,120.607797,7.564172e-10
C0X220,學甲,2026-04-18,23.230367,120.182187,0.70174325
467650,日月潭,2026-04-18,23.881325,120.90805,2.9503158e-09
A2K570,古坑(花卉中心),2026-04-18,23.633531,120.552392,0.92174774
C0K600,箔子寮,2026-04-18,23.6197,120.14,0.46369252
C0G830,埤頭,2026-04-18,23.866003,120.452806,0.9794681
C0S950,七塊厝,2026-04-18,22.954453,121.229922,0.01328636
467110,金門,2026-04-18,24.407306,118.289281,1.487815e-07
C0AH80,深坑,2026-04-18,25.002703,121.628328,0.9988185
C0A970,三貂角,2026-04-18,25.007606,122.002058,0.996168
C2D730,寶山農場,2026-04-18,24.732444,120.976153,4.7322654e-05
C0K430,褒忠,2026-04-18,23.690938,120.303634,0.05128665
467480,嘉義,2026-04-18,23.495925,120.432906,0.6816774
C0V400,阿公店,2026-04-18,22.804194,120.355528,0.3172618
C0E960,觀霧分站,2026-04-18,24.505781,121.113921,3.4976444e-09
467550,玉山,2026-04-18,23.48718,120.95943,2.2546349e-08
C0R440,大漢山,2026-04-18,22.405264,120.753181,1.917297e-09
C0SD30,東清國小,2026-04-18,22.057128,121.564922,7.525589e-05
C1F9B1,桐林,2026-04-18,24.066172,120.735194,0.9976942
C2H9U0,鳳鵬,2026-04-18,23.763919,120.788061,0.9902825
C0K390,土庫,2026-04-18,23.679029,120.395574,0.9830105
C1I450,望鄉山,2026-04-18,23.594153,120.944286,7.540926e-09
C0E910,海埔,2026-04-18,24.648767,120.772435,0.7442162
B2E890,畜試北區分所,2026-04-18,24.527806,120.770972,0.30362624
C0R750,四林格山,2026-04-18,22.076989,120.802439,0.0012603621
C0F0C0,中坑,2026-04-18,24.248517,120.903319,0.009934988
C1I121,大鞍,2026-04-18,23.678381,120.760017,1.4392739e-09
C2G9E0,移民庄,2026-04-18,23.9784,120.40283,0.7360407
72U480,花改蘭陽分場,2026-04-18,24.686306,121.716583,3.5367782e-05
C0A770,科教館,2026-04-18,25.096356,121.516507,2.0879344e-08
C0AJ60,六塊厝,2026-04-18,25.24,121.4481,0.012721277
C0R620,墾雷,2026-04-18,21.900836,120.855269,0.114203885
467420,永康,2026-04-18,23.038386,120.2367,0.6577966
C2M530,奮起湖,2026-04-18,23.493903,120.699253,1.7669908e-09
C0I410,名間,2026-04-18,23.837053,120.701447,0.9989673
A2C560,農工中心,2026-04-18,24.985917,121.239833,3.6591039e-06
C0V740,旗山,2026-04-18,22.888614,120.483597,0.9850255
C0Z061,玉里,2026-04-18,23.3215,121.339656,0.96590567
C0S840,南田,2026-04-18,22.279725,120.889208,0.022541283
C1I470,杉林溪,2026-04-18,23.639517,120.786444,1.4460403e-09
C1X040,東原,2026-04-18,23.291597,120.463822,0.6306645
C0R660,枋寮,2026-04-18,22.367722,120.590647,0.764879
C1R120,上德文,2026-04-18,22.763272,120.704442,0.87027514
C0K450,大埤,2026-04-18,23.646074,120.431537,0.9794681
C0UA00,土場,2026-04-18,24.576533,121.495333,0.98799896
467080,宜蘭,2026-04-18,24.763975,121.756528,8.264938e-05
C0N030,四草,2026-04-18,23.0235,120.1116,0.645036
467410,臺南,2026-04-18,22.99328,120.20492,0.6646512
C0V650,彌陀,2026-04-18,22.783806,120.246361,0.24721634
C0D660,新竹市東區,2026-04-18,24.798681,120.986942,0.00023952695
82S580,茶改東部分場,2026-04-18,22.907694,121.130139,0.9857265
C0SB40,興隆,2026-04-18,22.913661,121.257469,0.9896511
467050,新屋,2026-04-18,25.006725,121.047492,3.7852413e-05
C0C710,大溪永福,2026-04-18,24.892936,121.324975,2.455452e-06
C0FA20,溫寮,2026-04-18,24.372177,120.583125,0.7442162
C0V640,湖內,2026-04-18,22.887139,120.2445,0.6577966
C0R910,下寮,2026-04-18,22.3929,120.5548,0.764879
C0Z020,明里,2026-04-18,23.208717,121.262342,0.9608044
C0M770,嘉義梅山,2026-04-18,23.585398,120.555587,0.0026110504
C0C660,楊梅,2026-04-18,24.912375,121.143047,1.3972917e-06
C0SD40,牛頭山,2026-04-18,22.676661,121.506944,0.5198605
C1E511,新開,2026-04-18,24.347703,120.827019,0.00037014004
G2F820,農試所(霧峰),2026-04-18,24.031261,120.688133,0.9986231
C2M990,大巃頂,2026-04-18,23.5547,120.61439,7.9256873e-10
C1I070,和社,2026-04-18,23.591131,120.888861,5.6397138e-08
C2E990,新坪頂,2026-04-18,24.30201,120.8574,1.2142421e-08
C0TA80,立霧山,2026-04-18,24.183258,121.641899,4.651495e-09
C2F000,大肚,2026-04-18,24.15295,120.572117,0.0039196764
C1S850,豐南,2026-04-18,23.122139,121.262389,0.0006644837
C2M9B0,西興,2026-04-18,23.2428,120.57617,2.5541328e-07
C2A920,富貴角,2026-04-18,25.263783,121.565258,1.7936489e-05
C0T960,光復,2026-04-18,23.660694,121.424964,0.99319607
C0F9M0,豐原,2026-04-18,24.254322,120.720692,0.29248124
C0R720,旭海,2026-04-18,22.205403,120.887614,0.2180108
C0V710,苓雅,2026-04-18,22.622742,120.330669,0.28353035
C0C740,觀音工業區,2026-04-18,25.064764,121.114856,5.4485834e-05
CAC040,拉拉山,2026-04-18,24.699317,121.427133,4.5804813e-09
C0V790,萬山,2026-04-18,22.905944,120.688056,0.9946746
U2HA30,臺大和社,2026-04-18,23.590856,120.888864,5.6397138e-08
C2H9K0,屯原,2026-04-18,24.067969,121.209389,1.8210167e-09
C0AJ90,澳底,2026-04-18,25.0552,121.9253,0.998178
C0Z100,東華,2026-04-18,23.89525,121.549833,0.9946361
C0G970,三豐,2026-04-18,23.882,120.2895,0.056281652
C0V900,汕尾,2026-04-18,22.4782,120.4151,0.77461416
C1R630,龍泉,2026-04-18,22.66701,120.59091,0.9931747
C1AC50,關渡,2026-04-18,25.133486,121.469331,0.00028629208
C0C800,四稜,2026-04-18,24.64733,121.4293,4.2273416e-09
C0F9I0,神岡,2026-04-18,24.272481,120.658314,0.66704994
C0K460,斗南,2026-04-18,23.678734,120.478359,0.97679764
C2O810,曾文,2026-04-18,23.219681,120.497328,0.9053313
467280,後龍,2026-04-18,24.648563,120.831834,0.6338811
C1F9J1,清水林,2026-04-18,24.071242,120.820419,9.128612e-09
C2A650,火燒寮,2026-04-18,25.002719,121.742892,0.9114692
466930,竹子湖,2026-04-18,25.162078,121.544547,2.3994513e-08
C1I220,樟湖,2026-04-18,23.905333,120.846983,1.0020136e-09
C0I390,仁愛,2026-04-18,24.022122,121.132206,2.1379816e-09
C0Z300,東里,2026-04-18,23.26853,121.30547,0.96659243
C1V590,新發,2026-04-18,23.057019,120.646064,1.9783743e-06
C0K510,水林,2026-04-18,23.572924,120.24597,0.46369252
72S590,東改賓朗果園,2026-04-18,22.813889,121.071278,0.00020180881
82A750,茶改北部分場,2026-04-18,24.955778,121.631222,0.007161544
C1A750,石碇服務區,2026-04-18,25.00872,121.646242,0.9989615
C0X300,鹿寮,2026-04-18,23.386047,120.477331,0.2613024
C0K590,雲林東勢,2026-04-18,23.674192,120.255721,0.028782958
C2K310,港尾布雞,2026-04-18,23.74834,120.38439,0.9830105
C0A570,桶後,2026-04-18,24.848222,121.597992,0.79653627
C0G720,溪州,2026-04-18,23.851589,120.499093,0.97679764
C1V160,達卡努瓦,2026-04-18,23.279811,120.705319,1.7106772e-09
C2M410,馬頭山,2026-04-18,23.324361,120.582017,0.021649895
C0V850,蚵仔寮,2026-04-18,22.7256,120.2527,0.24721634
C0S740,池上,2026-04-18,23.119628,121.209469,0.8688279
C1V390,尖山,2026-04-18,22.813153,120.367789,0.36231872
C0AH70,松山,2026-04-18,25.04871,121.55042,1.8599684e-08
C0N010,鯤鯓國小,2026-04-18,23.1879,120.0889,0.70174325
C0SA60,知本（水試所）,2026-04-18,22.702394,121.082761,0.98700434
C0T9I0,豐濱,2026-04-18,23.583897,121.514806,0.9992743
C0UB00,淡江大學蘭陽校園,2026-04-18,24.823239,121.730383,4.6348216e-08
C0W240,九宮,2026-04-18,24.423753,118.240186,1.7143633e-07
C0T9N0,富里,2026-04-18,23.171639,121.249378,0.95425373
U2HA50,臺大竹山,2026-04-18,23.756972,120.681556,0.9989943
C0V840,鳳鼻頭,2026-04-18,22.5083,120.3591,0.764879
C0X140,西港,2026-04-18,23.125608,120.203108,0.6800076
72D080,桃改五峰分場,2026-04-18,24.612194,121.157167,7.456669e-09
C2H9P0,伊拿谷,2026-04-18,23.963211,121.088264,4.993887e-09
C2K250,崙背,2026-04-18,23.75553,120.31893,0.028782958
C2H9F0,柑林,2026-04-18,24.018658,120.847072,0.97455907
C0TA20,加灣,2026-04-18,24.082025,121.608944,0.8948205
C0V530,阿蓮,2026-04-18,22.883208,120.327508,0.6630079
C0FB30,八仙山苗圃,2026-04-18,24.192719,121.001366,0.053671453
C0E791,卓蘭,2026-04-18,24.3126,120.8244,0.00012414673
C1I030,武界,2026-04-18,23.913225,121.052483,4.414586e-09
C0R520,崁頂,2026-04-18,22.514781,120.506914,0.764879
C0R341,牡丹,2026-04-18,22.130036,120.792639,0.27450448
C0R930,萬丹,2026-04-18,22.5885,120.4851,0.74017483
C0S760,紅石,2026-04-18,23.069131,121.126219,2.2475108e-09
C2C410,中央大學,2026-04-18,24.967652,121.185165,2.455452e-06
C1M610,石磐龍,2026-04-18,23.496606,120.663506,6.3523733e-09
C0C790,東眼山,2026-04-18,24.8284,121.40888,9.209408e-09
C0UA10,鴛鴦湖,2026-04-18,24.590269,121.412228,4.300076e-09
C0R800,丹路,2026-04-18,22.204481,120.750989,0.115335055
C0G920,永靖,2026-04-18,23.924703,120.547533,0.54127014
C2M950,太和,2026-04-18,23.538372,120.702961,1.7948373e-09
C1A630,下盆,2026-04-18,24.771003,121.538622,4.7793117e-07
B2N890,畜產試驗所,2026-04-18,23.058972,120.336406,0.6630079
C0UA30,白嶺,2026-04-18,24.527819,121.519031,4.1425583e-09
467571,新竹,2026-04-18,24.828575,121.01455,0.00044155165
C1V580,溪南(特生中心),2026-04-18,23.084972,120.788475,1.2819591e-09
C1T970,大農,2026-04-18,23.615233,121.413331,0.99974364
C0R650,竹田,2026-04-18,22.58486,120.54344,0.7611116
C1H900,清流,2026-04-18,24.080775,120.962997,4.993887e-09
C1C510,水尾,2026-04-18,24.940081,121.087161,6.6312805e-06
C2N170,茅港尾,2026-04-18,23.2061,120.2624,0.70174325
C0F9X0,大雅(中科園區),2026-04-18,24.21528,120.62445,0.81196547
C0SB60,白守蓮,2026-04-18,23.126769,121.401914,0.98313504
C0O970,虎頭埤,2026-04-18,23.021375,120.347878,0.66024286
C0C730,中大臨海站,2026-04-18,24.966126,121.008581,0.0014585882
C0X250,新營,2026-04-18,23.310689,120.316681,0.66836786
C0V700,三民,2026-04-18,22.645017,120.311233,0.28353035
C0U870,大礁溪,2026-04-18,24.791042,121.675047,2.7585822e-08
C0E870,高鐵苗栗,2026-04-18,24.60725,120.826094,0.6634001
C0TA30,鹽寮,2026-04-18,23.845606,121.592664,0.99441534
C0M860,新美,2026-04-18,23.338017,120.683169,1.2654385e-06
C1E701,八卦,2026-04-18,24.491756,120.927619,4.355777e-07
C2TA90,加納納,2026-04-18,23.466421,121.359867,0.9998927
C0I420,國姓,2026-04-18,24.037803,120.855072,0.9453888
C2D720,關西工作站,2026-04-18,24.757275,121.184792,0.07465872
C0S960,香蘭,2026-04-18,22.587569,120.993375,8.947869e-08
467620,蘭嶼,2026-04-18,22.0369,121.55843,3.7286172e-05
72G600,臺中農改場,2026-04-18,24.003028,120.534389,0.6746169
C0Z210,瑞穗,2026-04-18,23.5239,121.39021,0.9989656
C0M820,達邦,2026-04-18,23.453994,120.749517,9.97263e-08
C0V860,南寮,2026-04-18,22.7616,120.2339,0.24721634
C0G740,大城,2026-04-18,23.852487,120.320935,0.028782958
C0R920,塭仔,2026-04-18,22.4169,120.5197,0.77461416
C0R470,高樹,2026-04-18,22.826389,120.600806,0.9857956
C0R680,佳樂水,2026-04-18,21.993578,120.861633,0.058562264
C1O870,大棟山,2026-04-18,23.31157,120.52226,1.4863301e-09
C0D360,梅花,2026-04-18,24.678347,121.208558,1.8446352e-08
C0Z190,富世,2026-04-18,24.14743,121.6297,0.9999856
C0AI10,屈尺,2026-04-18,24.92184,121.54475,1.45299985e-08
B2U990,畜試東區分所,2026-04-18,24.669039,121.832561,0.00011211291
C0SB80,長濱漁港,2026-04-18,23.313644,121.459994,0.99109656
C0TA50,和仁,2026-04-18,24.241394,121.712472,0.9999894
C0V910,大樹,2026-04-18,22.684645,120.432803,0.9952219
C1R610,西大武山,2026-04-18,22.617719,120.7322,1.9167594e-09
C0G900,線西,2026-04-18,24.143358,120.443536,0.7668126
C0M700,竹崎,2026-04-18,23.526178,120.555508,0.010002549
C2E880,三義,2026-04-18,24.405478,120.749819,1.3277897e-08
C0C720,竹圍,2026-04-18,25.112692,121.239824,5.4485885e-05
C0F9P0,清水,2026-04-18,24.312297,120.562242,0.9884512
C0Z150,吉安光華,2026-04-18,23.930925,121.595153,0.99441534
C0FA80,小雪山天池,2026-04-18,24.28025,121.02627,7.554646e-09
467300,東吉島,2026-04-18,23.25727,119.66762,0.9904626
C1D640,外坪(五指山),2026-04-18,24.644447,121.090961,3.2525669e-09
C2R9A0,高士國小,2026-04-18,22.12553,120.84653,0.16440772
C0F9O0,潭子,2026-04-18,24.213106,120.703933,0.7016392
C2H9R0,卓社,2026-04-18,23.887894,121.000086,2.003302e-09
72T250,花蓮農改場,2026-04-18,23.975222,121.563889,0.99470204
C0E780,銅鑼,2026-04-18,24.489681,120.790853,0.010908206
C1T950,太安,2026-04-18,23.666719,121.370128,0.0013699326
C0E830,苑裡,2026-04-18,24.439714,120.653053,0.6634001
467270,田中,2026-04-18,23.873803,120.581286,0.9718491
C0SA10,檳榔四格山,2026-04-18,22.810031,121.109308,6.506823e-06
C1T830,布洛灣,2026-04-18,24.17184,121.57127,0.05914981
C0F970,大坑,2026-04-18,24.173142,120.722289,0.9037284
C1U920,思源,2026-04-18,24.393125,121.347214,3.471445e-09
C2H9Y0,松茗,2026-04-18,23.8167,120.650765,0.95210135
C0A931,三和,2026-04-18,25.233153,121.595236,4.631637e-06
C0I010,廬山,2026-04-18,24.033311,121.181808,2.6420344e-09
C2M940,日野賀,2026-04-18,23.434056,120.727169,4.9635753e-09
C0R860,鼻頭,2026-04-18,22.1043,120.8979,0.07551191
C0UB20,壯圍,2026-04-18,24.7359,121.8163,0.00011211291
C0R790,九棚,2026-04-18,22.14195,120.889281,0.44700795
C0W110,東莒,2026-04-18,25.9652,119.98069,2.0122204e-07
C1U930,粉鳥林,2026-04-18,24.497088,121.842479,0.38442495
C0S830,長濱,2026-04-18,23.286817,121.411975,0.99994016
C1F9F1,伯公龍,2026-04-18,24.272392,120.849047,6.279626e-08
C0UB90,太平山莊,2026-04-18,24.494171,121.536209,5.202715e-09
C0E810,西湖,2026-04-18,24.562947,120.7485,0.59141403
C1I440,新高口,2026-04-18,23.478744,120.878939,3.6239356e-09
C0O840,王爺宮,2026-04-18,23.222064,120.40085,0.9053313
C0T9G0,鳳林山,2026-04-18,23.735269,121.420131,9.6531835e-08
C0X080,佳里,2026-04-18,23.173039,120.145086,0.70174325
C0FB70,大甲溪埔,2026-04-18,24.370625,120.620067,0.6338811
C0Z310,清水斷崖,2026-04-18,24.218294,121.689142,0.9999716
C0M680,太保,2026-04-18,23.455062,120.331455,0.41461635
C1S820,金峰,2026-04-18,22.590969,120.933236,0.036044832
C0AD10,八里,2026-04-18,25.150211,121.403947,0.010014501
C2K240,草嶺,2026-04-18,23.59555,120.693461,5.8519913e-09
C1SA70,都蘭,2026-04-18,22.87794,121.226881,0.9896511
C0K440,二崙,2026-04-18,23.772797,120.408944,0.98039615
C1A760,坪林交控,2026-04-18,24.94284,121.713442,0.9878895
C0F9N0,大里,2026-04-18,24.092464,120.701378,0.9987433
C0SA90,達仁林場,2026-04-18,22.264347,120.823972,0.295083
C1R290,石門山,2026-04-18,22.112611,120.756597,0.1187769
42HA10,萬大發電廠,2026-04-18,23.978875,121.139639,2.6859037e-09
C0R890,山海,2026-04-18,21.9878,120.7091,0.038631763
C0T9A0,月眉山,2026-04-18,23.809928,121.539828,1.3827828e-06
C0AC70,信義,2026-04-18,25.037822,121.564597,1.8599684e-08
C0K560,棋山,2026-04-18,23.68645,120.603417,0.86384565
C2FB50,出雲,2026-04-18,24.206469,120.902794,2.1167762e-05
C1Z240,中平林道,2026-04-18,23.42115,121.26763,6.9131216e-09
U2H480,溪頭,2026-04-18,23.670306,120.798194,1.3904656e-09
C0M880,好美里,2026-04-18,23.3364,120.138,0.70174325
C0T9E0,大坑,2026-04-18,23.880628,121.581981,0.0036291492
C0K530,臺西,2026-04-18,23.701547,120.197559,0.05128665
C1E900,國一N128K,2026-04-18,24.560997,120.844186,0.42623615
C0AJ50,水湳洞,2026-04-18,25.123695,121.862238,0.9983559
C0AI20,白沙灣,2026-04-18,25.283128,121.519058,0.0074198977
C2V310,美濃,2026-04-18,22.898792,120.51907,0.98596233
C0A860,大坪,2026-04-18,25.165914,121.632969,0.06075645
C1U850,觀音海岸,2026-04-18,24.38319,121.77856,0.40533322
C2K610,草嶺石壁,2026-04-18,23.602469,120.707731,4.303489e-09
C0U950,鶯子嶺,2026-04-18,24.89754,121.79244,2.9590074e-08
C0O900,善化,2026-04-18,23.112883,120.297219,0.6546296
C0K550,蔦松,2026-04-18,23.514319,120.229736,0.46369252
E2P980,林試六龜中心,2026-04-18,22.991703,120.645722,0.10696435
C0E590,通霄,2026-04-18,24.471892,120.704622,0.54715085
C1I310,西巒,2026-04-18,23.754486,120.883956,2.004916e-08
C0A550,泰平,2026-04-18,24.971197,121.823711,0.007161544
C0I360,水里,2026-04-18,23.812553,120.849792,0.9971287
C0R830,高士,2026-04-18,22.121825,120.836781,0.031479906
C1I101,溪頭,2026-04-18,23.661789,120.807647,1.5771073e-09
C0AJ20,野柳,2026-04-18,25.20703,121.690021,0.0074198977
C0B060,暖暖,2026-04-18,25.0957,121.7403,0.9989615
C1H920,長豐,2026-04-18,24.102039,120.879897,8.787146e-08
C2S9B0,利吉,2026-04-18,22.86246,121.15486,0.9888331
C0V360,內門,2026-04-18,22.975481,120.466769,0.97740775
C0R850,林邊,2026-04-18,22.4634,120.5339,0.7611116
C0E930,龍鳳,2026-04-18,24.700034,120.859125,0.0014585882
C0U910,冬山,2026-04-18,24.63373,121.7937,0.00011211291
C1E721,泰安,2026-04-18,24.489017,120.968036,3.6990502e-09
82H320,茶改中部分場,2026-04-18,23.875611,120.913583,7.079276e-09
C0M750,布袋,2026-04-18,23.380878,120.167789,0.51384145
C1S860,利嘉,2026-04-18,22.809417,121.050528,3.5364597e-08
E2S980,林試太麻里1,2026-04-18,22.598922,120.980044,0.7179387
C0X170,關廟,2026-04-18,22.963017,120.327797,0.66433424
C0V720,林園,2026-04-18,22.507747,120.394511,0.7611116
C1I510,線浸林道,2026-04-18,23.761508,120.832956,1.3192616e-09
C0D690,外湖,2026-04-18,24.917735,120.968711,0.0014585882
C0C750,新興坑尾,2026-04-18,25.0061,121.0971,1.4487373e-05
B2Q810,畜試南區分所,2026-04-18,21.945583,120.802167,0.058562264
C0S790,金崙,2026-04-18,22.538122,120.966875,0.0092065465
C0AH90,福山植物園,2026-04-18,24.760717,121.58135,6.296513e-08
C0I540,奇萊稜線,2026-04-18,24.109231,121.326456,1.1285561e-08
C0M850,表湖,2026-04-18,23.24186,120.64166,3.2919196e-08
C0S770,大溪山,2026-04-18,22.478475,120.943325,0.5471871
C0AG80,中和,2026-04-18,24.991622,121.491792,1.8599684e-08
C0T790,大禹嶺,2026-04-18,24.186117,121.316086,9.961487e-09
C0T9B0,水源,2026-04-18,23.991861,121.537169,2.0263585e-06
C0R840,牡丹池山,2026-04-18,22.168389,120.841225,0.34058404
C1I131,桶頭,2026-04-18,23.641944,120.654117,0.99484223
CAL110,布袋國中,2026-04-18,23.35893,120.18026,0.70174325
C2M9D0,何竹子腳,2026-04-18,23.53641,120.38203,0.7823238
C0Z290,赤柯山,2026-04-18,23.36893,121.38293,8.875592e-09
C0X280,將軍,2026-04-18,23.214999,120.13577,0.70174325
C0S690,太麻里,2026-04-18,22.60902,120.98533,2.4930223e-08
C0U880,北關,2026-04-18,24.9072,121.8734,0.9979757
CAW010,東引,2026-04-18,26.3588,120.4836,4.2622386e-07
C0G810,埔心,2026-04-18,23.947633,120.525456,0.6291397
C0U970,大福,2026-04-18,24.80064,121.81389,0.00011211291
C2H9N0,仁愛東眼,2026-04-18,24.026875,121.1205,2.1321906e-09
C1E670,南礦,2026-04-18,24.538278,121.002836,3.96165e-09
C0M520,東後寮,2026-04-18,23.369908,120.248065,0.70174336
C1E461,松安,2026-04-18,24.397972,120.986022,3.738416e-09
C2N160,西拉雅風管處,2026-04-18,23.189481,120.335297,0.6395012
C2M970,碧湖,2026-04-18,23.568632,120.624165,7.783072e-10
C0A640,石碇,2026-04-18,24.993969,121.662917,0.9878895
E2S960,林試太麻里2,2026-04-18,22.598,120.99775,1.1006318e-07
C0F9Y0,桃山,2026-04-18,24.432739,121.303808,1.2796341e-08
C1I020,萬大,2026-04-18,23.979817,121.132261,2.1512552e-09
C2UC20,長嶺,2026-04-18,24.70894,121.61162,0.00086841575
C0U940,羅東,2026-04-18,24.68184,121.74934,4.7052836e-05
C0M650,朴子,2026-04-18,23.43463,120.23902,0.46369252
C1I500,大尖山,2026-04-18,23.858572,120.994889,3.473889e-09
C0FB40,中橫21.6k,2026-04-18,24.2499,121.1455,1.310962e-08
C0G820,田尾,2026-04-18,23.901669,120.509389,0.6291397
E2K600,四湖植物園,2026-04-18,23.676986,120.163433,0.05128665
C0S730,綠島,2026-04-18,22.6672,121.47533,0.7963641
12Q970,東港工作站,2026-04-18,22.479997,120.466058,0.764879
C1TA00,太魯閣,2026-04-18,24.15773,121.6236,0.86157095
466920,臺北,2026-04-18,25.037658,121.514853,1.8599684e-08
C0R600,舊泰武,2026-04-18,22.588194,120.664944,0.96884435
466910,鞍部,2026-04-18,25.182586,121.529731,1.3007129e-08
C1I230,九份二山,2026-04-18,23.961944,120.845,2.1344244e-09
C2M810,里佳,2026-04-18,23.389125,120.716647,1.7307463e-09
C2A660,瑞芳,2026-04-18,25.113169,121.801147,0.99900526
C0R270,琉球嶼,2026-04-18,22.332244,120.362236,0.58787113
C2V580,瑞山,2026-04-18,22.90304,120.43424,0.9739349
C1T990,高寮,2026-04-18,23.394239,121.356808,0.9982879
C0G620,芬園,2026-04-18,24.015678,120.6213,0.013921657
C1Z140,荖溪,2026-04-18,23.890575,121.45964,6.317707e-09
C1I201,中心崙,2026-04-18,23.728722,120.712097,0.00019152444
C1I400,凌霄,2026-04-18,24.018778,121.004456,2.1179556e-09
C1M640,十字,2026-04-18,23.492153,120.753683,1.4090715e-09
G2P820,農試鳳山分所,2026-04-18,22.646611,120.356083,0.3172618
C0Z270,蕃薯寮,2026-04-18,23.73835,121.540108,0.039555036
C2E420,竹南,2026-04-18,24.70898,120.88897,0.00044155165
C0FB10,出雲山苗圃,2026-04-18,24.23105,120.90475,0.009934988
C0F9Q0,外埔,2026-04-18,24.347817,120.705686,0.87216157
C0K580,高鐵雲林,2026-04-18,23.737456,120.417944,0.98039615
C2I090,鳳凰,2026-04-18,23.728081,120.787347,7.148612e-09
C0U990,員山,2026-04-18,24.74435,121.72247,8.264938e-05
C0V770,大社,2026-04-18,22.730306,120.346639,0.28353035
C0X120,麻豆,2026-04-18,23.183289,120.248611,0.6800076
C0C670,龍潭,2026-04-18,24.870056,121.221389,0.0025219435
C0D680,香山濕地,2026-04-18,24.783581,120.914988,0.0014585882
C0S980,勝林山,2026-04-18,22.430439,120.8938,0.5506226
C0V730,大寮,2026-04-18,22.605614,120.395717,0.74017483
C0R570,麟洛,2026-04-18,22.65078,120.52719,0.9952219
C2M930,石卓,2026-04-18,23.478744,120.702264,1.41443e-09
C0G9B0,和美,2026-04-18,24.105169,120.492131,0.7360407
CAG100,王功漁港,2026-04-18,23.96824,120.32586,0.7668126
C0X290,北門,2026-04-18,23.267772,120.125481,0.70174325
C2F930,大甲,2026-04-18,24.347667,120.640403,0.9540178
C0D650,湖口,2026-04-18,24.904794,121.043628,6.919465e-05
C0U780,五結,2026-04-18,24.68637,121.79794,0.00011211291
C1I250,鯉潭,2026-04-18,23.961922,120.991131,8.787146e-08
C0R130,阿禮,2026-04-18,22.742908,120.743678,1.4234834e-05
C0X100,臺南市北區,2026-04-18,23.010394,120.194228,0.6546296
C0S920,金峰嘉蘭,2026-04-18,22.594789,120.960825,1.9850988e-08
C0V490,新興,2026-04-18,22.627422,120.298803,0.26074496
C0F9K0,大安,2026-04-18,24.345061,120.588025,0.98641056
467290,古坑,2026-04-18,23.633639,120.551889,0.92174774
C2E970,八甲,2026-04-18,24.535811,120.795983,0.008324986
C0V440,鳳山,2026-04-18,22.646653,120.356122,0.3172618
C1T940,大觀,2026-04-18,23.714206,121.373133,8.9155753e-07
C0E740,造橋,2026-04-18,24.637056,120.864778,0.0005561838
C0R100,尾寮山,2026-04-18,22.833111,120.683889,1.4234834e-05
A2K630,臺大雲林校區,2026-04-18,23.730628,120.423903,0.9794681
467990,馬祖,2026-04-18,26.169467,119.923158,1.2114563e-07
C0D580,寶山,2026-04-18,24.735006,121.025192,6.581816e-06
E2P990,林試扇平站,2026-04-18,22.9677,120.6857,6.577997e-05
C0AI30,三重,2026-04-18,25.057328,121.500629,2.0879344e-08
C0AH00,汐止,2026-04-18,25.066881,121.658778,0.998178
C1Z040,立山,2026-04-18,23.443356,121.327375,0.99902165
466881,新北,2026-04-18,24.959207,121.525196,1.6696612e-08
C0W130,花嶼,2026-04-18,23.40007,119.32276,0.9997637
C0A950,鼻頭角,2026-04-18,25.129036,121.923372,0.99967
C0K470,林內,2026-04-18,23.748675,120.609642,0.92174774
C2F990,摩天嶺,2026-04-18,24.322458,120.936819,0.0014517308
C2E430,南庄,2026-04-18,24.601775,121.000214,3.1890656e-07
82C160,茶改場,2026-04-18,24.908472,121.185333,4.900514e-07
C2TB60,南安,2026-04-18,23.29818,121.26157,0.9651898
C0Z320,清水林道,2026-04-18,23.27125,121.188272,7.88141e-07
C0R760,南仁湖,2026-04-18,22.084681,120.863353,0.09629008
C0M670,大林,2026-04-18,23.600616,120.45841,0.6816774
C0M800,茶山,2026-04-18,23.299075,120.664767,9.855551e-07
C0A9C0,天母,2026-04-18,25.117494,121.537169,1.8599684e-08
72K220,南改斗南分場,2026-04-18,23.634556,120.477333,0.9718491
72AI40,桃改樹林分場,2026-04-18,24.944503,121.386972,1.6696612e-08
C0S910,蘭嶼燈塔,2026-04-18,22.081197,121.503117,6.8609996e-05
C0B050,八斗子,2026-04-18,25.144754,121.79167,0.9977371
C0U900,內城,2026-04-18,24.71813,121.68766,1.6183614e-05
C0X320,柳營,2026-04-18,23.253328,120.375253,0.9829047
C0M790,新港,2026-04-18,23.553269,120.345728,0.4408316
C0F9T0,西屯,2026-04-18,24.179494,120.641275,0.9540178
C0E950,松安,2026-04-18,24.39792,120.98599,3.738416e-09
C0SA30,都歷,2026-04-18,23.020333,121.323642,0.99021524
C0C620,蘆竹,2026-04-18,25.084275,121.265767,3.7852413e-05
C0R730,大坪頂,2026-04-18,22.024633,120.69355,0.437553
C0AJ40,石門,2026-04-18,25.273672,121.601198,9.742763e-05
C0E750,苗栗,2026-04-18,24.564569,120.824575,0.4797479
C0T870,鯉魚潭,2026-04-18,23.935639,121.508944,0.9904821
C1V170,排雲,2026-04-18,23.463619,120.954147,1.7744929e-08
C2H950,中寮,2026-04-18,23.884447,120.766406,0.9943025
C0R350,貓鼻頭,2026-04-18,21.921774,120.7358,0.08990829
C0V660,岡山,2026-04-18,22.797078,120.294958,0.26074496
C1H941,雙冬,2026-04-18,23.967378,120.802189,1.4346475e-07
C0AJ70,田寮,2026-04-18,25.2698,121.4886,0.0074198907
C0AI00,五股,2026-04-18,25.07445,121.42728,8.270752e-09
C0Z280,德武,2026-04-18,23.47426,121.41071,0.99979216
C2RA10,大新,2026-04-18,22.67558,120.57788,0.9931747
C0R700,枋山,2026-04-18,22.246844,120.661086,0.020544717
C0C460,復興,2026-04-18,24.820208,121.352281,1.2021593e-07
C2K300,鹿南,2026-04-18,23.63855,120.3636,0.028782958
E2H360,蓮華池,2026-04-18,23.918333,120.885278,2.898283e-07
C0M640,中埔,2026-04-18,23.42538,120.5229,0.010002549
C0W140,金沙,2026-04-18,24.488292,118.408778,2.3832606e-06
C2A540,四堵,2026-04-18,24.8926,121.745736,0.11880169
C0ACA0,新莊,2026-04-18,25.051478,121.446756,1.9910294e-08
C0R220,潮州,2026-04-18,22.534361,120.54,0.74017483
U2HA40,臺大內茅埔,2026-04-18,23.689722,120.851117,0.2491179
467490,臺中,2026-04-18,24.145736,120.684075,0.9635967
C0UB60,明池,2026-04-18,24.650688,121.475277,4.282029e-09
C0U960,翠峰湖,2026-04-18,24.510856,121.608044,4.8936926e-09
E2HA20,林試畢祿溪站,2026-04-18,24.226944,121.308522,4.2476285e-09
C2M9A0,大華,2026-04-18,23.4824,120.67491,2.1816188e-08
C0V890,前鎮,2026-04-18,22.5718,120.3117,0.24721634
C1F941,雪嶺,2026-04-18,24.280586,121.026642,7.554646e-09
C2H9E0,國姓南港,2026-04-18,23.911108,120.846556,1.0004476e-09
C0AC80,文山,2026-04-18,25.00235,121.575728,1.45299985e-08
C0F9R0,龍井,2026-04-18,24.184536,120.528972,0.7360407
C0M760,民雄,2026-04-18,23.551754,120.428457,0.6816774
C0UA40,西德山,2026-04-18,24.560647,121.752608,7.1775794e-08
C2TA70,赤科坪,2026-04-18,23.39885,121.39168,3.7106523e-07
C1T920,中興,2026-04-18,23.769503,121.498653,0.99467486
C0D550,雪霸,2026-04-18,24.526972,121.11605,5.5918323e-09
C2F860,梨山,2026-04-18,24.247522,121.243669,4.415706e-09
C0R320,車城,2026-04-18,22.0744,120.716247,0.049319778
C1S870,南美山,2026-04-18,23.15025,121.382333,0.95560646
C0B020,基隆嶼,2026-04-18,25.19141,121.78391,0.9983559
C1U501,牛鬥,2026-04-18,24.637836,121.573656,0.9504789
C0M730,嘉義市東區,2026-04-18,23.457673,120.460531,0.6816774
C2R990,泰武,2026-04-18,22.60686,120.69765,0.00012665355
C0S700,知本,2026-04-18,22.684866,121.005642,4.437e-08
C1N001,沙崙,2026-04-18,22.935472,120.309406,0.6630079
C0V760,橋頭,2026-04-18,22.757806,120.30575,0.26074496
C0G960,福寶,2026-04-18,24.0443,120.3814,0.7668126
C0X210,白河,2026-04-18,23.347466,120.414427,0.9804699
C0S810,東河,2026-04-18,22.972672,121.303986,0.9886919
C2R170,屏東,2026-04-18,22.66027,120.49403,0.9952219
C0R670,楓港,2026-04-18,22.190131,120.692156,0.020544717
C0FA50,霧峰,2026-04-18,24.0419,120.6995,0.9985386
C0UB10,蘇澳,2026-04-18,24.5969,121.8571,0.38442495
C0G950,防潮門,2026-04-18,24.1835,120.4871,0.7668126
C0M740,六腳,2026-04-18,23.492871,120.290625,0.44083136
C1R250,力里,2026-04-18,22.428117,120.629228,0.41417798
C0K330,虎尾,2026-04-18,23.719183,120.442036,0.97679764
C2FA00,烏石坑,2026-04-18,24.273503,120.947617,0.0027998113
C0V620,永安,2026-04-18,22.82315,120.236856,0.24721634
C1I330,楓樹林,2026-04-18,23.986803,121.076117,2.028738e-09
C0W200,湖西,2026-04-18,23.596314,119.67275,0.99697936
72Q010,高雄農改場,2026-04-18,22.709333,120.525889,0.994461
C0C680,龜山,2026-04-18,25.02846,121.38656,6.7897106e-09
C2V260,月眉,2026-04-18,22.971003,120.539853,0.9645636
C0V450,鳳森,2026-04-18,22.545064,120.392592,0.6106837
C0FA90,小雪山林道,2026-04-18,24.29515,121.03651,1.1753069e-08
C0U720,南山,2026-04-18,24.43742,121.38167,6.3417684e-09
A2N290,臺南蘭花園區,2026-04-18,23.340258,120.379661,0.9829047
C0R560,新園,2026-04-18,22.5434,120.461558,0.7611116
C0U890,三星,2026-04-18,24.66812,121.65302,1.8479068e-06
C1V300,御油山,2026-04-18,23.001983,120.715364,1.25456e-09
C0U600,礁溪,2026-04-18,24.817539,121.765608,4.7052836e-05
C1T980,龍澗,2026-04-18,24.023289,121.411328,4.0784895e-09
C0D670,海天一線,2026-04-18,24.831986,120.914438,0.0014585882
C0SA00,歷坵,2026-04-18,22.520969,120.89185,0.41972733
C0M710,東石,2026-04-18,23.458927,120.15385,0.46369252
C0M780,鹿草,2026-04-18,23.41134,120.30835,0.37419298
C0U520,雙連埤,2026-04-18,24.753033,121.641303,2.6403077e-08
C0B010,七堵,2026-04-18,25.094819,121.71713,0.9984967
C0R480,長治,2026-04-18,22.693128,120.542622,0.99439406
C1V830,國三S383K,2026-04-18,22.781967,120.426475,0.9779678
12Q980,恆春工作站,2026-04-18,22.079678,120.714425,0.049319778
C1O940,東山服務區,2026-04-18,23.286016,120.398472,0.9804699
C1U840,東澳嶺,2026-04-18,24.5378,121.8485,0.00034484282
C1D630,飛鳳山,2026-04-18,24.766464,121.119178,6.7171007e-09
C0S940,石寧山,2026-04-18,23.223772,121.406639,0.999174
C0K410,北港,2026-04-18,23.573957,120.292802,0.4408316
C2M620,瑞里,2026-04-18,23.545133,120.675197,2.489728e-09
C0SB70,小港漁港,2026-04-18,23.158558,121.400431,0.9848498
C2O950,安南,2026-04-18,23.076694,120.144861,0.645036
C0F0E0,南湖圈谷,2026-04-18,24.363714,121.444667,2.6361915e-08
467610,成功,2026-04-18,23.097486,121.373428,0.9871359
C0G890,伸港,2026-04-18,24.148933,120.484403,0.7360407
C2E540,龍溪,2026-04-18,24.606489,120.783933,0.6962467
C1V200,梅山,2026-04-18,23.268447,120.823556,3.6990784e-09
C0T9H0,加路蘭山,2026-04-18,23.682947,121.5274,2.4499283e-08
C2O930,玉井,2026-04-18,23.126042,120.46055,0.9761546
C1F911,新伯公,2026-04-18,24.221361,120.841069,1.0225773e-06
C0X200,左鎮,2026-04-18,23.056758,120.408522,0.9850255
C2TB50,麻汝,2026-04-18,23.42554,121.39358,0.999921
C0FA60,鞍馬山工作站,2026-04-18,24.267064,121.000793,4.3307113e-09
C0SB50,叭嗡嗡,2026-04-18,23.047062,121.343223,0.98313504
C1F891,稍來,2026-04-18,24.265689,121.001142,4.143633e-09
C2M9C0,紫雲,2026-04-18,23.494914,120.540253,0.06354248
72N240,七股研究中心,2026-04-18,23.081672,120.062894,0.645036
C0C700,中壢,2026-04-18,24.977661,121.256375,2.455452e-06
C0M690,水上,2026-04-18,23.419734,120.388909,0.71233624
C0V690,鼓山,2026-04-18,22.623325,120.275575,0.26074496
C0O860,大內,2026-04-18,23.11885,120.36083,0.6630079
C0Z200,萬榮,2026-04-18,23.709219,121.420106,0.9904821
C0T9D0,和中,2026-04-18,24.26676,121.74103,0.99998933
C2S9A0,北份子寮,2026-04-18,22.78561,121.07813,0.5909992
C1O921,楠西,2026-04-18,23.183511,120.484083,0.9662479
C0AJ30,淡水觀海,2026-04-18,25.184591,121.408616,0.012721277
C0V810,左營,2026-04-18,22.67491,120.28491,0.28353035
C0UA70,桃源谷,2026-04-18,24.962606,121.888875,8.79023e-06
C0X130,官田,2026-04-18,23.193217,120.315422,0.6683682
C1H000,翠峰,2026-04-18,24.109397,121.205211,2.971267e-09
C0UA90,石城,2026-04-18,24.980444,121.951214,0.99965936
C1E681,南勢山,2026-04-18,24.421669,120.923831,1.1563573e-08
C0A9F0,內湖,2026-04-18,25.079422,121.57545,1.8599684e-08
C0K291,宜梧,2026-04-18,23.536281,120.169329,0.51384145
C1K540,口湖,2026-04-18,23.585344,120.180517,0.46369252
C0R780,滿州,2026-04-18,22.024403,120.839892,0.114203885
C0V870,文安,2026-04-18,22.8025,120.2164,0.24721634
C0U650,玉蘭,2026-04-18,24.675286,121.587061,0.0005506518
C0R640,東港,2026-04-18,22.46247,120.44074,0.764879
C0AJ80,板橋,2026-04-18,25.0107,121.4489,1.8599684e-08
C0S660,下馬,2026-04-18,23.150427,121.070312,3.663545e-08
C2N190,烏樹,2026-04-18,23.32393,120.36989,0.66836786
C1H9B1,阿眉,2026-04-18,24.1263,120.994672,3.0233642e-09
C0UA20,多加屯,2026-04-18,24.368614,121.373189,8.4864995e-09
C0E730,頭份,2026-04-18,24.688247,120.912206,0.0005561838
72V140,高改旗南分場,2026-04-18,22.857861,120.516667,0.99439406
C0K480,莿桐,2026-04-18,23.761192,120.502372,0.9718491
C0U980,坪林石牌,2026-04-18,24.86478,121.77396,2.1049969e-08
C0T900,西林,2026-04-18,23.8119,121.441458,0.98084843
C1I150,青雲,2026-04-18,23.793361,120.949378,0.9126218
C2E980,和興,2026-04-18,24.505319,120.923016,0.0021476888
467350,澎湖,2026-04-18,23.565503,119.563094,0.99966943
C0G800,埔鹽,2026-04-18,24.000394,120.431683,0.7360407
C0H960,草屯,2026-04-18,23.973672,120.68085,0.9981109
C1V780,多納林道,2026-04-18,22.888028,120.737917,2.168471e-09
C0E920,通霄漁港,2026-04-18,24.498589,120.673876,0.7442162
C0Z330,安通山,2026-04-18,23.290728,121.348528,0.011725003
C0AH10,永和,2026-04-18,25.01125,121.508111,1.9910294e-08
C0AK10,太平里,2026-04-18,25.134937,121.364899,1.9910294e-08
C2G640,鹿港,2026-04-18,24.0753,120.430481,0.7668127
C1E890,國三N149K,2026-04-18,24.463414,120.680019,0.42623615
C1R110,口社,2026-04-18,22.770111,120.645222,0.96812135
C1M870,國三N285K,2026-04-18,23.550319,120.505833,0.02603944
C1E480,鳳美,2026-04-18,24.554803,121.034747,0.038672745
C0T9M0,靜浦,2026-04-18,23.455167,121.495028,0.996744
C2H9M0,發祥,2026-04-18,24.154094,121.164517,4.6988205e-08
C2G9C0,埔南,2026-04-18,23.99124,120.46969,0.7360407
C0AI40,石牌,2026-04-18,25.115597,121.513139,1.8599684e-08
C1F871,上谷關,2026-04-18,24.203483,121.018644,0.0027998113
C2H9G0,百勝,2026-04-18,24.051142,120.909361,0.014368141
C0G880,二水,2026-04-18,23.810742,120.6173,0.92174774
C0R940,加祿堂,2026-04-18,22.3363,120.6217,0.7611116
C0W220,北竿,2026-04-18,26.220358,119.974881,1.432419e-07
C0O960,崎頂,2026-04-18,22.959547,120.369317,0.56703
C0TA40,秀林,2026-04-18,24.302864,121.731144,1.4196885e-06
C0S750,向陽,2026-04-18,23.248397,120.986133,3.3662446e-09
C0T9F0,水璉,2026-04-18,23.797131,121.542514,0.46287316
C1M600,頭凍,2026-04-18,23.406364,120.603339,7.5316936e-10
467660,臺東,2026-04-18,22.752211,121.154586,0.5671189
C1D380,新埔,2026-04-18,24.84745,121.03834,4.7322654e-05
C2G980,田頭村,2026-04-18,23.8263,120.444175,0.9830105
C0V750,路竹,2026-04-18,22.854997,120.259439,0.29537913
C0N050,蚵寮,2026-04-18,23.301,120.1104,0.70174325
C2X060,下營,2026-04-18,23.226806,120.256291,0.70174325
72M700,南改鹿草分場,2026-04-18,23.416869,120.283061,0.4408316
C1SA50,利嘉林道,2026-04-18,22.82325,121.009389,3.134467e-09
C0UB70,太平山中間站,2026-04-18,24.542003,121.513453,5.8819506e-08
C0A940,金山,2026-04-18,25.223628,121.643967,0.004288941
C1V340,大津,2026-04-18,22.888322,120.645986,0.9368636
C0W180,七美,2026-04-18,23.219333,119.444892,0.9994167
C1F9C1,白冷,2026-04-18,24.182844,120.929889,1.9976615e-06
K2E710,苗改生物防治研究中心,2026-04-18,24.422861,120.871833,1.8540693e-05
C0N040,蘆竹溝,2026-04-18,23.2344,120.0961,0.702801
C0TB40,崇德,2026-04-18,24.166144,121.657414,0.99998933
C0D760,大坪苗圃,2026-04-18,24.5362,121.1108,3.6826546e-09
C2W230,畜試所澎湖,2026-04-18,23.628342,119.513206,0.999225
C0R880,後壁湖,2026-04-18,21.9457,120.7457,0.038631763
C1I280,埔中,2026-04-18,23.820778,120.642594,0.9421675
467790,墾丁雷達站,2026-04-18,21.948235,120.808028,0.13300122
C0W190,望安,2026-04-18,23.380564,119.494075,0.9995933
C0Z170,卓溪,2026-04-18,23.3443,121.3029,0.96647733
C0F850,東勢,2026-04-18,24.246428,120.833047,6.310776e-06
466900,淡水,2026-04-18,25.164889,121.448906,0.0074198907
C0I370,魚池,2026-04-18,23.895703,120.94135,4.790149e-07
C0C630,大溪,2026-04-18,24.882853,121.265547,5.7185264e-07
C0A520,山佳,2026-04-18,24.974944,121.402008,1.6696612e-08
C0I110,竹山,2026-04-18,23.761225,120.688156,0.9989943
82H840,茶改南部分場,2026-04-18,23.762528,120.7405,0.9773463
C2SD80,再來山,2026-04-18,23.34371,121.44122,0.9998927
C0G660,溪湖,2026-04-18,23.94835,120.479122,0.6746169
C1T800,洛韶,2026-04-18,24.204558,121.453956,8.063873e-09
C1T810,慈恩,2026-04-18,24.192044,121.388386,4.8312576e-09
C1E451,象鼻,2026-04-18,24.368617,120.940228,1.1563573e-08
C0AC60,三峽,2026-04-18,24.939025,121.369728,2.116663e-05
C0I490,萬大林道,2026-04-18,23.928228,121.091411,2.5142282e-09
C1I290,豐丘,2026-04-18,23.668178,120.887417,3.9690695e-09
C1I320,奧萬大,2026-04-18,23.952956,121.178556,4.001636e-08
C2M910,嘉義大學,2026-04-18,23.471325,120.485903,0.37737143
C0U770,南澳,2026-04-18,24.44935,121.81022,0.38442504
C2TB30,吉安,2026-04-18,23.94538,121.54803,0.9944865
C0A980,社子,2026-04-18,25.109508,121.469681,2.0879344e-08
C0V800,六龜,2026-04-18,22.997889,120.633583,0.2474482
C1G9D0,國一S218K,2026-04-18,23.890641,120.493253,0.6291397
C0E570,白沙屯,2026-04-18,24.549447,120.696803,0.7442162
C2F9A0,中竹林,2026-04-18,24.103556,120.751061,0.105393074
C0FA40,臺中電廠,2026-04-18,24.2146,120.4907,0.7360407
C2G9A0,畜試所彰化,2026-04-18,23.86045,120.557964,0.9718491
C0H9C0,合歡山,2026-04-18,24.143442,121.272547,2.0388947e-08
G2M350,農試溪口農場,2026-04-18,23.58565,120.408111,0.7823238
C0U860,頭城,2026-04-18,24.85323,121.8308,8.264938e-05
C0R580,南州,2026-04-18,22.48591,120.50274,0.764879
C0G780,秀水,2026-04-18,24.03405,120.503869,0.6746169
72N100,臺南農改場,2026-04-18,23.0605,120.342194,0.66835356
C0S900,蘭嶼高中,2026-04-18,22.04909,121.51214,7.30425e-05
C2TA60,六十石,2026-04-18,23.22477,121.31861,9.398072e-09
C1F9W0,德基,2026-04-18,24.254783,121.190261,3.3791425e-09
C2M980,安和,2026-04-18,23.51377,120.31593,0.4408316
C1Z120,壽豐,2026-04-18,23.870853,121.508081,0.9946361
C0W160,烏坵,2026-04-18,24.9944,119.44956,1.0886981e-06
C1I550,國六W023K,2026-04-18,23.979067,120.867742,0.51779765
C0R870,興海,2026-04-18,21.9752,120.8439,0.058562264
C0R140,瑪家,2026-04-18,22.682903,120.686639,0.9979408
C0A530,坪林,2026-04-18,24.938183,121.70975,0.69134945
C0X260,後壁,2026-04-18,23.366358,120.362326,0.66836786
C0Z230,和平,2026-04-18,24.30717,121.77007,0.99998933
C0G770,福興,2026-04-18,24.041289,120.437669,0.7360407
C0H9A0,神木村,2026-04-18,23.532742,120.843667,1.410085e-09
C0I460,南投,2026-04-18,23.911469,120.687331,0.9982954
C0I480,梅峰,2026-04-18,24.085272,121.173572,2.0334139e-09
C2A560,福山,2026-04-18,24.776203,121.502811,0.0050452445
C0AH30,五分山,2026-04-18,25.07125,121.780794,1.2691329e-07
C0FA10,松柏,2026-04-18,24.429115,120.617482,0.7442162
72S200,東改班鳩分場,2026-04-18,22.829528,121.077694,0.0016907107
72HA00,中改埔里分場,2026-04-18,23.903208,120.963364,1.0257496e-06
C2H9W0,大坪頂農水,2026-04-18,24.043122,120.932781,7.583985e-08
C0C650,平鎮,2026-04-18,24.897503,121.214636,4.900514e-07
C0S930,延平,2026-04-18,22.902581,121.084058,0.9654974
C0UA60,樟樹山,2026-04-18,24.41393,121.78325,0.9972514
C2UC10,出水溪,2026-04-18,24.615822,121.652253,0.9972514
C1S670,摩天,2026-04-18,23.199503,121.027,7.95799e-08
C2C590,觀音,2026-04-18,25.027072,121.153317,9.834268e-06
C0V630,茄萣,2026-04-18,22.906642,120.182608,0.6546296
466940,基隆,2026-04-18,25.133314,121.740475,0.9979757
C0X050,東河,2026-04-18,23.296598,120.385608,0.9829047
C0R770,保力,2026-04-18,22.071122,120.764111,0.21235605
G2L020,農試嘉義分所,2026-04-18,23.485028,120.473806,0.2613024
C0X240,關子嶺,2026-04-18,23.331169,120.508025,1.5367204e-05
C0I380,集集,2026-04-18,23.828206,120.801467,0.99760795
466990,花蓮,2026-04-18,23.975128,121.613275,0.90154463
C1V220,小關山,2026-04-18,23.154217,120.813603,2.636497e-09
C1F9G1,慶福山,2026-04-18,24.180853,120.848378,2.7119256e-09
C0FB20,雪山橋,2026-04-18,24.23192,120.9786,3.50487e-09
C0Z250,瑞穗林道,2026-04-18,23.49284,121.30688,7.502291e-09
C0D590,新豐,2026-04-18,24.87068,120.97721,6.581816e-06
C0A870,五指山,2026-04-18,25.132153,121.608692,1.8228212e-08
C0UA50,西帽山,2026-04-18,24.555361,121.802628,0.00043687923
C2R980,竹田國中,2026-04-18,22.61532,120.52412,0.74017483
C0X160,仁德,2026-04-18,22.968258,120.257689,0.6577966
C1H971,六分寮,2026-04-18,23.92507,120.6378,0.020845797
C0W120,西嶼,2026-04-18,23.5626,119.468436,0.99966943
C0G650,員林,2026-04-18,23.946503,120.585597,0.54127014
C0AD50,鶯歌,2026-04-18,24.951533,121.346294,1.21243e-05
C2H9Q0,北東眼山,2026-04-18,24.120939,121.189303,1.8015288e-09
C2H9T0,名間竹圍,2026-04-18,23.859914,120.637572,0.99539775
C0S990,山豬窟,2026-04-18,22.318619,120.857372,0.5437879
C0X190,安平,2026-04-18,22.993161,120.152181,0.6546296
C0K400,斗六,2026-04-18,23.720583,120.541127,0.96804446
12J990,口湖工作站,2026-04-18,23.589978,120.180394,0.46369252
C0O830,北寮,2026-04-18,23.079561,120.495008,0.9645636
C1D410,白蘭,2026-04-18,24.579364,121.079947,3.738416e-09
C0S970,加津林,2026-04-18,22.416211,120.926942,8.947869e-08
C0D700,關西,2026-04-18,24.7977,121.1732,0.13978219
C0U750,龜山島,2026-04-18,24.841667,121.953133,0.17028217
C0R810,內獅,2026-04-18,22.305064,120.642986,0.020544717
C1M390,龍美,2026-04-18,23.406728,120.654417,5.3248446e-09
C2K290,崙內,2026-04-18,23.69525,120.35601,0.028782958
C2FB60,頭櫃山,2026-04-18,24.129842,120.858925,2.1322435e-09
C1H840,國三N238K,2026-04-18,23.841008,120.707711,0.9974314
CAQ030,崎峰國小,2026-04-18,22.42565,120.49521,0.764879
C2E520,大湖,2026-04-18,24.414939,120.870872,6.1435944e-06
467530,阿里山,2026-04-18,23.508208,120.813242,3.2613197e-09
C1E691,南湖,2026-04-18,24.40135,120.837533,3.794688e-09
C0FA30,梧棲,2026-04-18,24.256003,120.523381,0.7360407
C1V231,高中,2026-04-18,23.134911,120.716711,2.508998e-08
C0AK30,硬漢嶺,2026-04-18,25.136097,121.426372,2.7777903e-08
C0F9V0,新社,2026-04-18,24.200172,120.815806,2.385192e-08
C0H890,埔里,2026-04-18,23.972169,120.952425,0.11391018
C0R690,墾丁,2026-04-18,21.966756,120.810269,0.37493116
C0SD20,富山,2026-04-18,22.822383,121.190825,0.98313504
C0F0D0,審馬陣,2026-04-18,24.381675,121.4203,1.0298518e-08
C2W030,金門農試所,2026-04-18,24.448431,118.451786,0.00026594588
C0R820,白鷺,2026-04-18,22.454275,120.666219,0.9638014
C0FB00,大雪山,2026-04-18,24.254668,121.007374,4.4293373e-09
C1V190,南天池,2026-04-18,23.27403,120.91176,3.9074455e-09
C0E940,雪見,2026-04-18,24.42595,121.01347,5.6980114e-09
K2E360,苗栗農改場,2026-04-18,24.495722,120.829111,0.11663494
CAJ050,海口故事園區,2026-04-18,23.57543,120.14121,0.46369252
C2K280,四湖,2026-04-18,23.6304,120.22717,0.05128665
C2H9D0,三隻寮,2026-04-18,24.093078,120.861578,4.909249e-09
C0O990,媽廟,2026-04-18,22.99175,120.293525,0.6646512
C0Z220,和平林道,2026-04-18,24.343922,121.656317,0.9972514
C0TA10,花蓮漁港,2026-04-18,23.995322,121.638331,0.99994135
72C440,桃園農改場,2026-04-18,24.950944,121.030583,0.00030490558
C1E711,馬拉邦山,2026-04-18,24.367306,120.901656,9.177109e-09
C0SB20,富岡,2026-04-18,22.792467,121.192669,0.985965
C0D560,竹東,2026-04-18,24.767147,121.057881,9.511633e-06
C0F9U0,南屯,2026-04-18,24.137006,120.637969,0.978678
C2SD60,明峰,2026-04-18,22.8671,121.11825,0.00020180881
C0M720,番路,2026-04-18,23.464657,120.554156,2.7326418e-05
C0F0A0,雪山圈谷,2026-04-18,24.388594,121.236339,1.8514312e-08
C1A9N0,四十份,2026-04-18,24.934158,121.593283,4.891453e-09
C0U760,東澳,2026-04-18,24.52196,121.83318,0.49786833
C0X230,鹽水,2026-04-18,23.272621,120.247641,0.70174325
C2H9H0,苗改南投蜂場,2026-04-18,23.852589,120.693481,0.9990597
C2TB70,達谷寮,2026-04-18,23.38,121.35968,0.9994156
C0R950,萬隆國小,2026-04-18,22.507667,120.587817,0.67791563
467540,大武,2026-04-18,22.35572,120.90374,0.020544712
C0V370,古亭坑,2026-04-18,22.893178,120.401947,0.9817421
C1I340,新興橋,2026-04-18,23.563333,120.868728,4.2132208e-07
C0SA80,土坂,2026-04-18,22.453108,120.887572,0.12118547
C0R160,鹽埔,2026-04-18,22.739558,120.530778,0.994461
C0AC40,大屯山,2026-04-18,25.175675,121.522408,1.1194554e-08
466850,五分山雷達站,2026-04-18,25.071182,121.781205,1.0920396e-07
C2H9L0,馬烈霸,2026-04-18,24.1512,121.201772,3.4930707e-09
C1AI50,國三N016K,2026-04-18,25.034164,121.619664,1.5095384e-08
C2V920,匏子寮,2026-04-18,23.04905,120.55319,0.73910713
C1V600,藤枝,2026-04-18,23.071961,120.757042,1.182053e-09
C1E601,南勢,2026-04-18,24.572486,120.734842,0.11663494
C0O980,新市,2026-04-18,23.061614,120.298197,0.6577966
C0K420,西螺,2026-04-18,23.800407,120.467394,0.97679764
C0Z050,佳心,2026-04-18,23.34567,121.21316,1.735673e-08
C0AD30,蘆洲,2026-04-18,25.086594,121.472331,1.9910294e-08
C0V610,梓官,2026-04-18,22.760558,120.267211,0.26074496
K2F750,種苗改良場,2026-04-18,24.225972,120.800917,9.621384e-08
C0UA80,大溪漁港,2026-04-18,24.941801,121.902955,8.264938e-05
C1AI60,國一39K邊坡,2026-04-18,25.064361,121.383836,7.682621e-09
C0W150,金寧,2026-04-18,24.457703,118.328989,7.3995284e-06
C0R960,內埔,2026-04-18,22.608483,120.570714,0.7315799
C2H9S0,龍南,2026-04-18,23.953536,120.833183,1.0896543e-09
C0AH40,平等,2026-04-18,25.129142,121.577086,9.1731046e-08
C0R540,佳冬,2026-04-18,22.419456,120.552375,0.764879
466950,彭佳嶼,2026-04-18,25.627975,122.079744,4.449505e-05
C0A890,雙溪,2026-04-18,25.036003,121.864242,0.99872226
C0AH50,林口,2026-04-18,25.072181,121.38084,6.516139e-09
A2K360,水試臺西試驗場,2026-04-18,23.717231,120.190522,0.056281652
C2M960,外寮,2026-04-18,23.562643,120.665688,1.1766616e-08
C0F9S0,烏日,2026-04-18,24.107058,120.624103,0.54127014
C2N180,鹿陶洋,2026-04-18,23.14325,120.48352,0.9662479
C0C490,八德,2026-04-18,24.928708,121.283289,1.3972917e-06
C0R190,赤山,2026-04-18,22.592333,120.614306,0.70575833
C0T820,天祥,2026-04-18,24.179597,121.495639,4.159416e-05
C1F9E1,龍安,2026-04-18,24.1605,120.831961,1.2142421e-08
C2SD50,順那,2026-04-18,23.04166,121.29332,0.98965925
C0V820,小林,2026-04-18,23.148408,120.63325,8.519797e-07
C2G870,芳苑,2026-04-18,23.922303,120.320025,0.05128665
C0E850,大河,2026-04-18,24.618069,120.948578,4.7322654e-05
C1U670,寒溪,2026-04-18,24.634,121.71691,2.5208135e-06
C0N020,城西,2026-04-18,23.0568,120.0956,0.6546296
C1Z110,三棧,2026-04-18,24.11557,121.60501,3.9596046e-08
C0R280,檳榔,2026-04-18,22.076078,120.836777,0.41067192
C2H9J0,中台,2026-04-18,23.9996,120.938739,0.00031938625
C0F9L0,后里,2026-04-18,24.310436,120.729725,0.062245365
467441,高雄,2026-04-18,22.730432,120.312516,0.28353035
C0Z180,新城,2026-04-18,24.040486,121.604878,0.89438593
C0D540,橫山,2026-04-18,24.71116,121.11693,3.9055774e-07
C1D420,太閣南,2026-04-18,24.632808,121.160575,3.0349714e-09
C1E770,公館,2026-04-18,24.526914,120.830806,0.30362624
CAN130,水試所海水繁養殖中心,2026-04-18,23.120802,120.07968,0.645036
C1I430,翠華,2026-04-18,24.191961,121.224339,5.7285345e-09
C1M400,菜瓜坪,2026-04-18,23.251928,120.576103,9.855551e-07
C0G730,二林,2026-04-18,23.903325,120.376081,0.6746169
72M360,南改義竹分場,2026-04-18,23.360694,120.279361,0.6800076
V2K620,麥寮合作社,2026-04-18,23.753836,120.294783,0.05128665
C0Z070,舞鶴,2026-04-18,23.46811,121.37407,0.999921
C0B040,大武崙,2026-04-18,25.166676,121.706993,0.004288941
C1Z030,紅葉,2026-04-18,23.493119,121.338806,0.99981815
C1I050,丹大,2026-04-18,23.753747,121.141147,6.564954e-09
C0I080,信義,2026-04-18,23.689694,120.851036,0.2491179
C2TB80,庄子底,2026-04-18,23.71794,121.49438,0.99439764
C0D750,樂山林道6k,2026-04-18,24.49999,121.08773,4.1476578e-09
C2M920,朴子農改,2026-04-18,23.469889,120.259383,0.46369252
C2A880,福隆,2026-04-18,25.017842,121.942083,0.99970174
C0Z160,鳳林,2026-04-18,23.746114,121.453411,0.9939216
C0UB80,翠峰林道6K,2026-04-18,24.49773,121.568625,5.617113e-09
C0V210,復興,2026-04-18,23.222403,120.806089,1.9056968e-08
C0H990,昆陽,2026-04-18,24.121322,121.273642,8.041617e-09
C0R741,獅子,2026-04-18,22.202308,120.705236,0.045448314
C0S710,鹿野,2026-04-18,22.917711,121.122994,0.063547075
C0I530,小奇萊,2026-04-18,24.131764,121.295717,1.54518e-08
C0FA70,大雪山埡口,2026-04-18,24.26867,121.03062,7.3692052e-09
C2K630,荷苞,2026-04-18,23.657717,120.595144,0.51916116
C0Z080,富源,2026-04-18,23.587642,121.378225,0.9999667
C2M9E0,旺來山,2026-04-18,23.555153,120.486463,0.020771211
C0SB10,美和,2026-04-18,22.682078,121.060236,0.98179334
C2K620,馬光農場,2026-04-18,23.721453,120.378864,0.9830105
C1I140,卡奈托灣,2026-04-18,23.754364,121.087872,2.648341e-09
C0I520,玉山風口,2026-04-18,23.470489,120.955994,2.29292e-08
C1G691,下水埔,2026-04-18,23.816114,120.5676,0.96100515
C0X110,臺南市南區,2026-04-18,22.961189,120.188378,0.6546296
C0V680,仁武,2026-04-18,22.701083,120.347722,0.28353035
C2G840,北斗,2026-04-18,23.877586,120.514222,0.54127014
C2TB90,長橋,2026-04-18,23.6874,121.46186,0.99342674
C0R900,竹坑,2026-04-18,22.1385,120.7022,0.020544717
C0G860,社頭,2026-04-18,23.897647,120.5862,0.4727193
C0X150,安定,2026-04-18,23.102614,120.227839,0.6546296
C0R590,里港,2026-04-18,22.77919,120.49459,0.994461
C0E610,馬都安,2026-04-18,24.451272,120.930192,8.4975824e-08
C0E550,明德,2026-04-18,24.583486,120.885411,0.3544805
C0R150,三地門,2026-04-18,22.709889,120.639944,0.9779678
C0G910,花壇,2026-04-18,24.032076,120.549461,0.6291397
C1D400,鳥嘴山,2026-04-18,24.71909,121.28387,3.436575e-09
C0K500,元長,2026-04-18,23.64981,120.315024,0.05128665
C0F0B0,石岡,2026-04-18,24.276061,120.777644,0.0031056616
C2V250,甲仙,2026-04-18,23.080106,120.591758,0.05523022
C0SA20,金崙山,2026-04-18,22.567419,120.959667,3.0104974e-09
C0V350,溪埔,2026-04-18,22.738578,120.446797,0.9952219
C0M660,溪口,2026-04-18,23.604131,120.403569,0.7823238
C1S880,壽卡,2026-04-18,22.238911,120.858903,0.35541072
72D680,桃改新埔分場,2026-04-18,24.834444,121.066111,6.919465e-05
