站號,站名,日期,lat,lon,BLBTSLS
C0R710,龍磐,2026-02-04,21.931672,120.838942,0.969479
C1F9D1,白毛台,2026-02-04,24.158325,120.886933,6.687248e-10
C0G940,竹塘,2026-02-04,23.848253,120.386764,5.429068e-10
467590,恆春,2026-02-04,22.003897,120.746339,0.99778736
C1O850,環湖,2026-02-04,23.148617,120.418633,2.0742077e-09
C0U710,太平山,2026-02-04,24.505486,121.525656,3.8410246e-08
C0E820,獅潭,2026-02-04,24.539133,120.920042,9.825148e-10
C2SD70,二層坪,2026-02-04,22.94105,121.16838,1.3202659e-09
C0V880,興達,2026-02-04,22.8778,120.2127,1.15990275e-08
C0S890,關山,2026-02-04,23.0395,121.175017,1.410607e-09
C0SB30,新蘭,2026-02-04,22.869214,121.223228,1.5116871e-09
C2R970,屏科大,2026-02-04,22.648275,120.619247,3.091847e-08
C1Z130,銅門,2026-02-04,23.965694,121.492842,1.0797448e-08
C0AD40,土城,2026-02-04,24.973208,121.445169,4.2304635e-09
CAN140,六官養殖協會,2026-02-04,23.22881,120.29962,2.1291559e-08
C0X180,山上,2026-02-04,23.0757,120.363253,1.3682618e-08
C0F9Z0,雪山東峰,2026-02-04,24.388792,121.268675,1.8406602e-08
C1M480,獨立山,2026-02-04,23.537022,120.607797,6.0375316e-10
C0X220,學甲,2026-02-04,23.230367,120.182187,3.6670522e-09
467650,日月潭,2026-02-04,23.881325,120.90805,1.3710825e-09
A2K570,古坑(花卉中心),2026-02-04,23.633531,120.552392,6.93311e-10
C0K600,箔子寮,2026-02-04,23.6197,120.14,8.5237303e-07
C0G830,埤頭,2026-02-04,23.866003,120.452806,6.5756656e-10
C0S950,七塊厝,2026-02-04,22.954453,121.229922,1.6383627e-09
467110,金門,2026-02-04,24.407306,118.289281,1.2907876e-08
C0AH80,深坑,2026-02-04,25.002703,121.628328,7.125497e-09
C0A970,三貂角,2026-02-04,25.007606,122.002058,1.32776945e-08
C2D730,寶山農場,2026-02-04,24.732444,120.976153,6.835837e-10
C0K430,褒忠,2026-02-04,23.690938,120.303634,5.1243776e-10
467480,嘉義,2026-02-04,23.495925,120.432906,1.9022249e-08
C0V400,阿公店,2026-02-04,22.804194,120.355528,1.7018186e-09
C0E960,觀霧分站,2026-02-04,24.505781,121.113921,1.2324842e-08
467550,玉山,2026-02-04,23.48718,120.95943,2.6186417e-08
C0R440,大漢山,2026-02-04,22.405264,120.753181,4.278276e-08
C0SD30,東清國小,2026-02-04,22.057128,121.564922,0.9897807
C1F9B1,桐林,2026-02-04,24.066172,120.735194,9.750771e-10
C2H9U0,鳳鵬,2026-02-04,23.763919,120.788061,4.182363e-10
C0K390,土庫,2026-02-04,23.679029,120.395574,8.77307e-10
C1I450,望鄉山,2026-02-04,23.594153,120.944286,1.2186482e-08
C0E910,海埔,2026-02-04,24.648767,120.772435,6.532612e-10
B2E890,畜試北區分所,2026-02-04,24.527806,120.770972,9.464987e-10
C0R750,四林格山,2026-02-04,22.076989,120.802439,3.6138314e-05
C0F0C0,中坑,2026-02-04,24.248517,120.903319,1.6204523e-09
C1I121,大鞍,2026-02-04,23.678381,120.760017,5.382333e-09
C2G9E0,移民庄,2026-02-04,23.9784,120.40283,4.870587e-10
72U480,花改蘭陽分場,2026-02-04,24.686306,121.716583,5.3159446e-09
C0A770,科教館,2026-02-04,25.096356,121.516507,3.680829e-09
C0AJ60,六塊厝,2026-02-04,25.24,121.4481,1.4430681e-08
C0R620,墾雷,2026-02-04,21.900836,120.855269,0.9733958
467420,永康,2026-02-04,23.038386,120.2367,5.109251e-07
C2M530,奮起湖,2026-02-04,23.493903,120.699253,2.4649873e-09
C0I410,名間,2026-02-04,23.837053,120.701447,1.920166e-09
A2C560,農工中心,2026-02-04,24.985917,121.239833,6.8791204e-09
C0V740,旗山,2026-02-04,22.888614,120.483597,2.8740356e-08
C0Z061,玉里,2026-02-04,23.3215,121.339656,4.1448738e-09
C0S840,南田,2026-02-04,22.279725,120.889208,0.991986
C1I470,杉林溪,2026-02-04,23.639517,120.786444,6.374913e-09
C1X040,東原,2026-02-04,23.291597,120.463822,4.770382e-10
C0R660,枋寮,2026-02-04,22.367722,120.590647,4.0476125e-10
C1R120,上德文,2026-02-04,22.763272,120.704442,8.6939955e-10
C0K450,大埤,2026-02-04,23.646074,120.431537,4.4670325e-09
C0UA00,土場,2026-02-04,24.576533,121.495333,2.3206297e-08
467080,宜蘭,2026-02-04,24.763975,121.756528,4.930974e-09
C0N030,四草,2026-02-04,23.0235,120.1116,5.222122e-09
467410,臺南,2026-02-04,22.99328,120.20492,1.39365515e-08
C0V650,彌陀,2026-02-04,22.783806,120.246361,7.224139e-08
C0D660,新竹市東區,2026-02-04,24.798681,120.986942,8.801999e-10
82S580,茶改東部分場,2026-02-04,22.907694,121.130139,1.5035723e-09
C0SB40,興隆,2026-02-04,22.913661,121.257469,3.5012353e-09
467050,新屋,2026-02-04,25.006725,121.047492,1.985701e-08
C0C710,大溪永福,2026-02-04,24.892936,121.324975,3.01133e-09
C0FA20,溫寮,2026-02-04,24.372177,120.583125,1.7014551e-09
C0V640,湖內,2026-02-04,22.887139,120.2445,1.15990275e-08
C0R910,下寮,2026-02-04,22.3929,120.5548,5.1718954e-09
C0Z020,明里,2026-02-04,23.208717,121.262342,6.2175065e-09
C0M770,嘉義梅山,2026-02-04,23.585398,120.555587,1.4660076e-09
C0C660,楊梅,2026-02-04,24.912375,121.143047,2.472361e-09
C0SD40,牛頭山,2026-02-04,22.676661,121.506944,0.1538281
C1E511,新開,2026-02-04,24.347703,120.827019,7.196174e-10
G2F820,農試所(霧峰),2026-02-04,24.031261,120.688133,1.2652223e-09
C2M990,大巃頂,2026-02-04,23.5547,120.61439,1.4141629e-09
C1I070,和社,2026-02-04,23.591131,120.888861,1.1858626e-09
C2E990,新坪頂,2026-02-04,24.30201,120.8574,7.1775313e-10
C0TA80,立霧山,2026-02-04,24.183258,121.641899,6.560451e-08
C2F000,大肚,2026-02-04,24.15295,120.572117,4.233068e-10
C1S850,豐南,2026-02-04,23.122139,121.262389,3.0284835e-09
C2M9B0,西興,2026-02-04,23.2428,120.57617,5.4592847e-10
C2A920,富貴角,2026-02-04,25.263783,121.565258,6.332863e-08
CAH030,茶改場竹圍站,2026-02-04,23.860083,120.637528,8.9363145e-10
C0T960,光復,2026-02-04,23.660694,121.424964,1.7174356e-08
C0F9M0,豐原,2026-02-04,24.254322,120.720692,7.134183e-10
C0R720,旭海,2026-02-04,22.205403,120.887614,4.3153494e-05
C0V710,苓雅,2026-02-04,22.622742,120.330669,1.3154147e-07
C0C740,觀音工業區,2026-02-04,25.064764,121.114856,4.833103e-08
CAC040,拉拉山,2026-02-04,24.699317,121.427133,3.0986484e-08
C0V790,萬山,2026-02-04,22.905944,120.688056,1.0875572e-09
U2HA30,臺大和社,2026-02-04,23.590856,120.888864,1.1858626e-09
C2H9K0,屯原,2026-02-04,24.067969,121.209389,6.7807546e-09
C0AJ90,澳底,2026-02-04,25.0552,121.9253,1.31073445e-08
C0Z100,東華,2026-02-04,23.89525,121.549833,1.1375701e-08
C0G970,三豐,2026-02-04,23.882,120.2895,0.00023478031
V2K610,大庄合作社,2026-02-04,23.8068,120.367939,5.352825e-10
C0V900,汕尾,2026-02-04,22.4782,120.4151,3.2230538e-09
C1R630,龍泉,2026-02-04,22.66701,120.59091,3.091847e-08
C1AC50,關渡,2026-02-04,25.133486,121.469331,5.3867386e-09
C0C800,四稜,2026-02-04,24.64733,121.4293,2.3494898e-08
C0F9I0,神岡,2026-02-04,24.272481,120.658314,8.2389745e-10
C0K460,斗南,2026-02-04,23.678734,120.478359,4.4670325e-09
C2O810,曾文,2026-02-04,23.219681,120.497328,7.0593975e-10
467280,後龍,2026-02-04,24.648563,120.831834,6.440172e-10
C1F9J1,清水林,2026-02-04,24.071242,120.820419,6.150145e-10
C2A650,火燒寮,2026-02-04,25.002719,121.742892,8.189392e-09
466930,竹子湖,2026-02-04,25.162078,121.544547,7.592739e-09
C1I220,樟湖,2026-02-04,23.905333,120.846983,1.6560129e-09
C0I390,仁愛,2026-02-04,24.022122,121.132206,2.0301043e-09
C0Z300,東里,2026-02-04,23.26853,121.30547,4.1697565e-09
C1V590,新發,2026-02-04,23.057019,120.646064,8.1679075e-10
C0K510,水林,2026-02-04,23.572924,120.24597,2.529476e-09
72S590,東改賓朗果園,2026-02-04,22.813889,121.071278,1.9046746e-09
82A750,茶改北部分場,2026-02-04,24.955778,121.631222,3.2145955e-08
C1A750,石碇服務區,2026-02-04,25.00872,121.646242,6.0121614e-09
C0X300,鹿寮,2026-02-04,23.386047,120.477331,5.509593e-09
G2AI50,關渡,2026-02-04,25.11575,121.492,3.725873e-09
C0K590,雲林東勢,2026-02-04,23.674192,120.255721,8.305194e-10
C2K310,港尾布雞,2026-02-04,23.74834,120.38439,5.774838e-10
C0A570,桶後,2026-02-04,24.848222,121.597992,3.9682238e-08
C1S800,華源,2026-02-04,22.657883,121.02325,1.9093995e-09
C0G720,溪州,2026-02-04,23.851589,120.499093,6.5756656e-10
C1V160,達卡努瓦,2026-02-04,23.279811,120.705319,1.1591215e-09
C2M410,馬頭山,2026-02-04,23.324361,120.582017,4.2919615e-10
C0V850,蚵仔寮,2026-02-04,22.7256,120.2527,8.295244e-08
C0S740,池上,2026-02-04,23.119628,121.209469,2.7762581e-09
C1V390,尖山,2026-02-04,22.813153,120.367789,1.7018186e-09
C0AH70,松山,2026-02-04,25.04871,121.55042,3.680829e-09
C0N010,鯤鯓國小,2026-02-04,23.1879,120.0889,3.6811028e-09
C0R550,新埤,2026-02-04,22.467947,120.582894,3.717289e-10
C0SA60,知本（水試所）,2026-02-04,22.702394,121.082761,2.6504128e-09
C0T9I0,豐濱,2026-02-04,23.583897,121.514806,3.4026717e-09
C0UB00,淡江大學蘭陽校園,2026-02-04,24.823239,121.730383,2.5843304e-08
C0W240,九宮,2026-02-04,24.423753,118.240186,1.1975074e-08
C0T9N0,富里,2026-02-04,23.171639,121.249378,6.1676038e-09
U2HA50,臺大竹山,2026-02-04,23.756972,120.681556,2.2109492e-09
C0V840,鳳鼻頭,2026-02-04,22.5083,120.3591,2.8679723e-09
C0X140,西港,2026-02-04,23.125608,120.203108,2.7851009e-08
72D080,桃改五峰分場,2026-02-04,24.612194,121.157167,4.3122648e-09
C2H9P0,伊拿谷,2026-02-04,23.963211,121.088264,1.4839591e-09
C2K250,崙背,2026-02-04,23.75553,120.31893,5.1243776e-10
C2H9F0,柑林,2026-02-04,24.018658,120.847072,3.658834e-10
C0TA20,加灣,2026-02-04,24.082025,121.608944,2.226014e-08
C0V530,阿蓮,2026-02-04,22.883208,120.327508,1.1129831e-08
C0FB30,八仙山苗圃,2026-02-04,24.192719,121.001366,1.5288792e-09
C1O880,關山,2026-02-04,23.173397,120.594092,4.3589266e-10
C0E791,卓蘭,2026-02-04,24.3126,120.8244,7.374446e-10
C1I030,武界,2026-02-04,23.913225,121.052483,1.1934709e-09
C0R520,崁頂,2026-02-04,22.514781,120.506914,4.717238e-08
C0R341,牡丹,2026-02-04,22.130036,120.792639,0.33515102
C0R930,萬丹,2026-02-04,22.5885,120.4851,1.839941e-06
C0S760,紅石,2026-02-04,23.069131,121.126219,2.9466506e-08
C2C410,中央大學,2026-02-04,24.967652,121.185165,6.8791204e-09
C1M610,石磐龍,2026-02-04,23.496606,120.663506,1.8023811e-09
C0C790,東眼山,2026-02-04,24.8284,121.40888,1.01727915e-08
C0UA10,鴛鴦湖,2026-02-04,24.590269,121.412228,2.8789351e-08
V2C260,八德蔬果,2026-02-04,24.978508,121.281819,6.2986967e-09
C0R800,丹路,2026-02-04,22.204481,120.750989,0.8063323
C0G920,永靖,2026-02-04,23.924703,120.547533,5.4811433e-10
C2M950,太和,2026-02-04,23.538372,120.702961,2.424754e-09
C1A630,下盆,2026-02-04,24.771003,121.538622,3.3043815e-08
B2N890,畜產試驗所,2026-02-04,23.058972,120.336406,5.173847e-07
C0UA30,白嶺,2026-02-04,24.527819,121.519031,2.8680393e-08
467571,新竹,2026-02-04,24.828575,121.01455,1.7921143e-09
C1V580,溪南(特生中心),2026-02-04,23.084972,120.788475,4.4520876e-09
C1T970,大農,2026-02-04,23.615233,121.413331,1.6246776e-08
C0R650,竹田,2026-02-04,22.58486,120.54344,4.2210957e-07
C1H900,清流,2026-02-04,24.080775,120.962997,8.067653e-10
C1C510,水尾,2026-02-04,24.940081,121.087161,6.417331e-09
C2N170,茅港尾,2026-02-04,23.2061,120.2624,2.1291559e-08
C0F9X0,大雅(中科園區),2026-02-04,24.21528,120.62445,7.390597e-10
C0SB60,白守蓮,2026-02-04,23.126769,121.401914,9.286703e-09
C0O970,虎頭埤,2026-02-04,23.021375,120.347878,2.7126356e-08
C0C730,中大臨海站,2026-02-04,24.966126,121.008581,7.912943e-09
C0X250,新營,2026-02-04,23.310689,120.316681,1.778315e-08
C0V700,三民,2026-02-04,22.645017,120.311233,4.6983732e-06
C0U870,大礁溪,2026-02-04,24.791042,121.675047,2.7338485e-08
C0E870,高鐵苗栗,2026-02-04,24.60725,120.826094,6.440172e-10
C0TA30,鹽寮,2026-02-04,23.845606,121.592664,1.1614546e-08
C0M860,新美,2026-02-04,23.338017,120.683169,6.401582e-10
C1E701,八卦,2026-02-04,24.491756,120.927619,2.1765139e-09
C2TA90,加納納,2026-02-04,23.466421,121.359867,2.9807805e-09
C0I420,國姓,2026-02-04,24.037803,120.855072,3.6621856e-10
C2D720,關西工作站,2026-02-04,24.757275,121.184792,7.6312523e-10
C0S960,香蘭,2026-02-04,22.587569,120.993375,1.846663e-08
467620,蘭嶼,2026-02-04,22.0369,121.55843,0.9999546
C0R260,春日,2026-02-04,22.370361,120.628306,3.405858e-10
72G600,臺中農改場,2026-02-04,24.003028,120.534389,5.346621e-10
C0Z210,瑞穗,2026-02-04,23.5239,121.39021,3.530756e-09
C0M820,達邦,2026-02-04,23.453994,120.749517,1.0151485e-09
C0V860,南寮,2026-02-04,22.7616,120.2339,8.295244e-08
C0G740,大城,2026-02-04,23.852487,120.320935,0.00023478031
C0R920,塭仔,2026-02-04,22.4169,120.5197,5.1718954e-09
C0R470,高樹,2026-02-04,22.826389,120.600806,2.0736375e-07
C0R680,佳樂水,2026-02-04,21.993578,120.861633,0.969479
C1O870,大棟山,2026-02-04,23.31157,120.52226,1.4942464e-09
C0D360,梅花,2026-02-04,24.678347,121.208558,1.4924406e-09
C0Z190,富世,2026-02-04,24.14743,121.6297,2.6081823e-06
C0AI10,屈尺,2026-02-04,24.92184,121.54475,4.2220556e-09
B2U990,畜試東區分所,2026-02-04,24.669039,121.832561,6.6627814e-09
C0SB80,長濱漁港,2026-02-04,23.313644,121.459994,2.846734e-09
C0TA50,和仁,2026-02-04,24.241394,121.712472,6.274595e-09
C0V910,大樹,2026-02-04,22.684645,120.432803,6.989374e-08
C1R610,西大武山,2026-02-04,22.617719,120.7322,9.717208e-09
C0G900,線西,2026-02-04,24.143358,120.443536,6.5166583e-10
C0M700,竹崎,2026-02-04,23.526178,120.555508,1.4018363e-09
C2E880,三義,2026-02-04,24.405478,120.749819,1.3815303e-09
C0C720,竹圍,2026-02-04,25.112692,121.239824,7.99514e-09
C0F9P0,清水,2026-02-04,24.312297,120.562242,1.2447661e-09
C0Z150,吉安光華,2026-02-04,23.930925,121.595153,1.2104522e-08
C0FA80,小雪山天池,2026-02-04,24.28025,121.02627,2.2994982e-08
467300,東吉島,2026-02-04,23.25727,119.66762,0.9953158
C1D640,外坪(五指山),2026-02-04,24.644447,121.090961,2.598941e-09
C2R9A0,高士國小,2026-02-04,22.12553,120.84653,0.33515102
C0F9O0,潭子,2026-02-04,24.213106,120.703933,7.134183e-10
C2H9R0,卓社,2026-02-04,23.887894,121.000086,2.5023537e-09
72T250,花蓮農改場,2026-02-04,23.975222,121.563889,1.1755714e-08
C0E780,銅鑼,2026-02-04,24.489681,120.790853,9.464987e-10
C1T950,太安,2026-02-04,23.666719,121.370128,6.147019e-08
C0E830,苑裡,2026-02-04,24.439714,120.653053,2.336618e-09
467270,田中,2026-02-04,23.873803,120.581286,3.3777119e-09
C0SA10,檳榔四格山,2026-02-04,22.810031,121.109308,1.979068e-09
C1T830,布洛灣,2026-02-04,24.17184,121.57127,5.3714945e-07
C0F970,大坑,2026-02-04,24.173142,120.722289,1.2638717e-09
C1U920,思源,2026-02-04,24.393125,121.347214,2.0290292e-08
C2H9Y0,松茗,2026-02-04,23.8167,120.650765,4.121057e-10
C0A931,三和,2026-02-04,25.233153,121.595236,1.0466364e-08
C0I010,廬山,2026-02-04,24.033311,121.181808,4.507765e-09
C2M940,日野賀,2026-02-04,23.434056,120.727169,2.4357163e-09
C0R860,鼻頭,2026-02-04,22.1043,120.8979,0.89198405
C0UB20,壯圍,2026-02-04,24.7359,121.8163,4.8417372e-09
C0R790,九棚,2026-02-04,22.14195,120.889281,0.09963354
C0W110,東莒,2026-02-04,25.9652,119.98069,1.8381695e-06
C1U930,粉鳥林,2026-02-04,24.497088,121.842479,1.3135501e-08
C1I211,蘆竹湳,2026-02-04,23.934019,120.811994,4.2492307e-10
C0S830,長濱,2026-02-04,23.286817,121.411975,4.348889e-09
C1F9F1,伯公龍,2026-02-04,24.272392,120.849047,5.9567307e-10
C0UB90,太平山莊,2026-02-04,24.494171,121.536209,3.8593544e-08
C0E810,西湖,2026-02-04,24.562947,120.7485,6.19381e-09
C1I440,新高口,2026-02-04,23.478744,120.878939,1.0825927e-08
C0O840,王爺宮,2026-02-04,23.222064,120.40085,2.0147604e-08
C0T9G0,鳳林山,2026-02-04,23.735269,121.420131,8.163523e-08
C0X080,佳里,2026-02-04,23.173039,120.145086,3.2627756e-09
C0FB70,大甲溪埔,2026-02-04,24.370625,120.620067,1.7014551e-09
C0Z310,清水斷崖,2026-02-04,24.218294,121.689142,6.24327e-09
C0M680,太保,2026-02-04,23.455062,120.331455,1.5212214e-08
C1S820,金峰,2026-02-04,22.590969,120.933236,1.23764075e-08
C0AD10,八里,2026-02-04,25.150211,121.403947,7.791112e-09
C2K240,草嶺,2026-02-04,23.59555,120.693461,2.1909377e-09
C1SA70,都蘭,2026-02-04,22.87794,121.226881,1.5038992e-09
C0K440,二崙,2026-02-04,23.772797,120.408944,5.4717736e-10
C1A760,坪林交控,2026-02-04,24.94284,121.713442,1.6522185e-08
C0F9N0,大里,2026-02-04,24.092464,120.701378,9.559383e-10
C0SA90,達仁林場,2026-02-04,22.264347,120.823972,7.5531734e-06
C1R290,石門山,2026-02-04,22.112611,120.756597,0.024527743
42HA10,萬大發電廠,2026-02-04,23.978875,121.139639,1.7003359e-09
C0R890,山海,2026-02-04,21.9878,120.7091,0.99778736
C0T9A0,月眉山,2026-02-04,23.809928,121.539828,1.152759e-08
C0AC70,信義,2026-02-04,25.037822,121.564597,3.7313703e-09
C0K560,棋山,2026-02-04,23.68645,120.603417,2.0177897e-09
C2FB50,出雲,2026-02-04,24.206469,120.902794,2.0533921e-09
C1Z240,中平林道,2026-02-04,23.42115,121.26763,6.509384e-08
U2H480,溪頭,2026-02-04,23.670306,120.798194,1.913293e-09
C0M880,好美里,2026-02-04,23.3364,120.138,4.530123e-09
C0T9E0,大坑,2026-02-04,23.880628,121.581981,1.0642709e-08
C0K530,臺西,2026-02-04,23.701547,120.197559,7.368421e-08
C1E900,國一N128K,2026-02-04,24.560997,120.844186,7.5074547e-10
C0AJ50,水湳洞,2026-02-04,25.123695,121.862238,1.344041e-08
C0AI20,白沙灣,2026-02-04,25.283128,121.519058,1.3883178e-07
C2V310,美濃,2026-02-04,22.898792,120.51907,2.8740356e-08
C0A860,大坪,2026-02-04,25.165914,121.632969,6.6819985e-09
C1U850,觀音海岸,2026-02-04,24.38319,121.77856,9.108889e-09
C2K610,草嶺石壁,2026-02-04,23.602469,120.707731,2.2584428e-09
C0U950,鶯子嶺,2026-02-04,24.89754,121.79244,3.59187e-08
C0O900,善化,2026-02-04,23.112883,120.297219,5.173847e-07
C0K550,蔦松,2026-02-04,23.514319,120.229736,4.8298756e-09
E2P980,林試六龜中心,2026-02-04,22.991703,120.645722,1.7762155e-09
C0E590,通霄,2026-02-04,24.471892,120.704622,2.9876865e-08
C1I310,西巒,2026-02-04,23.754486,120.883956,2.8120233e-09
C0A550,泰平,2026-02-04,24.971197,121.823711,2.6121118e-08
C0I360,水里,2026-02-04,23.812553,120.849792,3.8641748e-10
C0R830,高士,2026-02-04,22.121825,120.836781,0.0013594772
C1I101,溪頭,2026-02-04,23.661789,120.807647,7.236382e-09
C0AJ20,野柳,2026-02-04,25.20703,121.690021,6.2206023e-09
C0B060,暖暖,2026-02-04,25.0957,121.7403,6.092413e-09
C1H920,長豐,2026-02-04,24.102039,120.879897,7.45031e-10
C2S9B0,利吉,2026-02-04,22.86246,121.15486,1.5035723e-09
C0V360,內門,2026-02-04,22.975481,120.466769,2.71602e-09
C0R850,林邊,2026-02-04,22.4634,120.5339,4.9087454e-08
C0E930,龍鳳,2026-02-04,24.700034,120.859125,1.6088726e-09
C0U910,冬山,2026-02-04,24.63373,121.7937,6.6627814e-09
C1E721,泰安,2026-02-04,24.489017,120.968036,6.1786833e-09
82H320,茶改中部分場,2026-02-04,23.875611,120.913583,1.1437091e-09
C0M750,布袋,2026-02-04,23.380878,120.167789,6.4413785e-09
C1S860,利嘉,2026-02-04,22.809417,121.050528,1.397992e-08
E2S980,林試太麻里1,2026-02-04,22.598922,120.980044,1.523062e-08
C0X170,關廟,2026-02-04,22.963017,120.327797,2.1609864e-08
C0V720,林園,2026-02-04,22.507747,120.394511,4.435805e-09
C1I510,線浸林道,2026-02-04,23.761508,120.832956,3.4847327e-09
C0D690,外湖,2026-02-04,24.917735,120.968711,4.935534e-05
C0C750,新興坑尾,2026-02-04,25.0061,121.0971,1.4892764e-08
B2Q810,畜試南區分所,2026-02-04,21.945583,120.802167,0.969479
C0S790,金崙,2026-02-04,22.538122,120.966875,3.6241726e-08
C0AH90,福山植物園,2026-02-04,24.760717,121.58135,3.2993306e-08
C0I540,奇萊稜線,2026-02-04,24.109231,121.326456,2.4807228e-08
C0M850,表湖,2026-02-04,23.24186,120.64166,5.87691e-10
C0S770,大溪山,2026-02-04,22.478475,120.943325,2.2498321e-08
C0AG80,中和,2026-02-04,24.991622,121.491792,4.2304635e-09
C0T790,大禹嶺,2026-02-04,24.186117,121.316086,1.3394984e-08
C0T9B0,水源,2026-02-04,23.991861,121.537169,1.5711723e-08
C0R840,牡丹池山,2026-02-04,22.168389,120.841225,2.491405e-06
C1I131,桶頭,2026-02-04,23.641944,120.654117,3.5273617e-10
CAL110,布袋國中,2026-02-04,23.35893,120.18026,4.530123e-09
C2M9D0,何竹子腳,2026-02-04,23.53641,120.38203,1.9022249e-08
C0Z290,赤柯山,2026-02-04,23.36893,121.38293,1.7541105e-08
C0X280,將軍,2026-02-04,23.214999,120.13577,3.7821297e-09
C0S690,太麻里,2026-02-04,22.60902,120.98533,9.906614e-09
C0U880,北關,2026-02-04,24.9072,121.8734,4.1009724e-08
CAW010,東引,2026-02-04,26.3588,120.4836,1.1332063e-06
C0G810,埔心,2026-02-04,23.947633,120.525456,5.4811433e-10
C0U970,大福,2026-02-04,24.80064,121.81389,4.930983e-09
C2H9N0,仁愛東眼,2026-02-04,24.026875,121.1205,3.0088096e-09
C1E670,南礦,2026-02-04,24.538278,121.002836,6.0774643e-09
C0M520,東後寮,2026-02-04,23.369908,120.248065,5.7067235e-09
C1E461,松安,2026-02-04,24.397972,120.986022,3.9337675e-09
C2N160,西拉雅風管處,2026-02-04,23.189481,120.335297,6.4558954e-08
C2M970,碧湖,2026-02-04,23.568632,120.624165,1.3974448e-09
C0A640,石碇,2026-02-04,24.993969,121.662917,1.6522185e-08
E2S960,林試太麻里2,2026-02-04,22.598,120.99775,1.8890713e-08
C0F9Y0,桃山,2026-02-04,24.432739,121.303808,2.1788908e-08
C1I020,萬大,2026-02-04,23.979817,121.132261,2.0562023e-09
C2UC20,長嶺,2026-02-04,24.70894,121.61162,2.7740734e-08
C0U940,羅東,2026-02-04,24.68184,121.74934,5.3159446e-09
C0M650,朴子,2026-02-04,23.43463,120.23902,6.9011725e-09
C1I500,大尖山,2026-02-04,23.858572,120.994889,6.050965e-09
C0FB40,中橫21.6k,2026-02-04,24.2499,121.1455,4.1013615e-09
C0G820,田尾,2026-02-04,23.901669,120.509389,5.4811433e-10
E2K600,四湖植物園,2026-02-04,23.676986,120.163433,1.7632739e-07
C0S730,綠島,2026-02-04,22.6672,121.47533,0.0041967523
12Q970,東港工作站,2026-02-04,22.479997,120.466058,4.9087454e-08
C1TA00,太魯閣,2026-02-04,24.15773,121.6236,1.9233323e-06
466920,臺北,2026-02-04,25.037658,121.514853,3.680829e-09
C0R600,舊泰武,2026-02-04,22.588194,120.664944,6.138004e-10
C1I260,北坑,2026-02-04,23.9246,121.006903,1.0514059e-09
466910,鞍部,2026-02-04,25.182586,121.529731,1.412029e-08
C1I230,九份二山,2026-02-04,23.961944,120.845,6.609717e-10
C2M810,里佳,2026-02-04,23.389125,120.716647,3.2183851e-09
C2A660,瑞芳,2026-02-04,25.113169,121.801147,6.104708e-09
C0R270,琉球嶼,2026-02-04,22.332244,120.362236,1.0098031e-09
C2V580,瑞山,2026-02-04,22.90304,120.43424,2.6803613e-09
C1T990,高寮,2026-02-04,23.394239,121.356808,2.9033016e-09
C0G620,芬園,2026-02-04,24.015678,120.6213,9.206786e-10
C1Z140,荖溪,2026-02-04,23.890575,121.45964,7.281313e-08
C1I201,中心崙,2026-02-04,23.728722,120.712097,4.3691648e-10
C1I400,凌霄,2026-02-04,24.018778,121.004456,3.1464227e-09
C1M640,十字,2026-02-04,23.492153,120.753683,5.893245e-09
G2P820,農試鳳山分所,2026-02-04,22.646611,120.356083,1.3154147e-07
C0Z270,蕃薯寮,2026-02-04,23.73835,121.540108,1.2382925e-08
C2E420,竹南,2026-02-04,24.70898,120.88897,1.6088726e-09
C0FB10,出雲山苗圃,2026-02-04,24.23105,120.90475,1.6197941e-09
C0F9Q0,外埔,2026-02-04,24.347817,120.705686,9.428122e-10
C0K580,高鐵雲林,2026-02-04,23.737456,120.417944,5.774838e-10
C2I090,鳳凰,2026-02-04,23.728081,120.787347,9.383809e-10
C0U990,員山,2026-02-04,24.74435,121.72247,5.3159446e-09
C0V770,大社,2026-02-04,22.730306,120.346639,2.4632728e-08
C0X120,麻豆,2026-02-04,23.183289,120.248611,2.7624047e-08
C0C670,龍潭,2026-02-04,24.870056,121.221389,1.2901569e-09
C0D680,香山濕地,2026-02-04,24.783581,120.914988,4.935534e-05
C0S980,勝林山,2026-02-04,22.430439,120.8938,2.6021366e-08
C0V730,大寮,2026-02-04,22.605614,120.395717,1.3154147e-07
C0R570,麟洛,2026-02-04,22.65078,120.52719,5.312967e-05
C2M930,石卓,2026-02-04,23.478744,120.702264,5.7826774e-09
C0G9B0,和美,2026-02-04,24.105169,120.492131,5.2983695e-10
CAG100,王功漁港,2026-02-04,23.96824,120.32586,0.00284786
C0X290,北門,2026-02-04,23.267772,120.125481,3.7821297e-09
C2F930,大甲,2026-02-04,24.347667,120.640403,1.7014551e-09
C0D650,湖口,2026-02-04,24.904794,121.043628,6.4173187e-09
C0U780,五結,2026-02-04,24.68637,121.79794,6.6627814e-09
C1I250,鯉潭,2026-02-04,23.961922,120.991131,1.0237722e-09
C0R130,阿禮,2026-02-04,22.742908,120.743678,1.0767972e-09
C0X100,臺南市北區,2026-02-04,23.010394,120.194228,1.39365515e-08
C0S920,金峰嘉蘭,2026-02-04,22.594789,120.960825,1.490396e-08
C0V490,新興,2026-02-04,22.627422,120.298803,5.8654714e-05
C0F9K0,大安,2026-02-04,24.345061,120.588025,1.7014551e-09
467290,古坑,2026-02-04,23.633639,120.551889,6.93311e-10
C2E970,八甲,2026-02-04,24.535811,120.795983,7.5074547e-10
C0V440,鳳山,2026-02-04,22.646653,120.356122,1.3154147e-07
C1T940,大觀,2026-02-04,23.714206,121.373133,1.491616e-08
C0E740,造橋,2026-02-04,24.637056,120.864778,6.440172e-10
C0R100,尾寮山,2026-02-04,22.833111,120.683889,1.1709811e-09
A2K630,臺大雲林校區,2026-02-04,23.730628,120.423903,5.774838e-10
467990,馬祖,2026-02-04,26.169467,119.923158,1.9849706e-07
C0D580,寶山,2026-02-04,24.735006,121.025192,9.343607e-10
E2P990,林試扇平站,2026-02-04,22.9677,120.6857,6.8692313e-10
C0AI30,三重,2026-02-04,25.057328,121.500629,3.680829e-09
C0AH00,汐止,2026-02-04,25.066881,121.658778,6.404162e-09
C1Z040,立山,2026-02-04,23.443356,121.327375,1.9470713e-08
466881,新北,2026-02-04,24.959207,121.525196,4.188273e-09
C0W130,花嶼,2026-02-04,23.40007,119.32276,0.997375
C0A950,鼻頭角,2026-02-04,25.129036,121.923372,1.3123405e-08
C0K470,林內,2026-02-04,23.748675,120.609642,2.0177897e-09
C2F990,摩天嶺,2026-02-04,24.322458,120.936819,1.7136521e-09
C2E430,南庄,2026-02-04,24.601775,121.000214,7.646828e-10
82C160,茶改場,2026-02-04,24.908472,121.185333,2.472361e-09
C2TB60,南安,2026-02-04,23.29818,121.26157,4.242333e-09
C0Z320,清水林道,2026-02-04,23.27125,121.188272,1.6736754e-08
C0R760,南仁湖,2026-02-04,22.084681,120.863353,0.024527743
C0M670,大林,2026-02-04,23.600616,120.45841,5.3098645e-09
C0M800,茶山,2026-02-04,23.299075,120.664767,6.022511e-10
C0A9C0,天母,2026-02-04,25.117494,121.537169,3.6382095e-09
72K220,南改斗南分場,2026-02-04,23.634556,120.477333,4.4670325e-09
72AI40,桃改樹林分場,2026-02-04,24.944503,121.386972,2.8500315e-09
C0S910,蘭嶼燈塔,2026-02-04,22.081197,121.503117,0.9997883
C0B050,八斗子,2026-02-04,25.144754,121.79167,6.2648846e-09
C0U900,內城,2026-02-04,24.71813,121.68766,5.2168954e-09
C0X320,柳營,2026-02-04,23.253328,120.375253,2.0147604e-08
C0M790,新港,2026-02-04,23.553269,120.345728,2.591862e-09
C0F9T0,西屯,2026-02-04,24.179494,120.641275,7.390597e-10
C0E950,松安,2026-02-04,24.39792,120.98599,3.9337675e-09
C0SA30,都歷,2026-02-04,23.020333,121.323642,3.5907104e-09
C0C620,蘆竹,2026-02-04,25.084275,121.265767,6.879921e-09
C0R730,大坪頂,2026-02-04,22.024633,120.69355,0.9171138
C0AJ40,石門,2026-02-04,25.273672,121.601198,7.0775776e-08
C0E750,苗栗,2026-02-04,24.564569,120.824575,7.5074547e-10
C0T870,鯉魚潭,2026-02-04,23.935639,121.508944,1.0923496e-08
C1V170,排雲,2026-02-04,23.463619,120.954147,2.2568162e-08
C2H950,中寮,2026-02-04,23.884447,120.766406,4.2232132e-10
C0R350,貓鼻頭,2026-02-04,21.921774,120.7358,0.99784285
C0V660,岡山,2026-02-04,22.797078,120.294958,5.182632e-08
C1H941,雙冬,2026-02-04,23.967378,120.802189,5.267164e-10
C0AJ70,田寮,2026-02-04,25.2698,121.4886,1.4437612e-07
C0AI00,五股,2026-02-04,25.07445,121.42728,3.6848329e-09
C0Z280,德武,2026-02-04,23.47426,121.41071,2.8831924e-09
C2RA10,大新,2026-02-04,22.67558,120.57788,3.091847e-08
C0R700,枋山,2026-02-04,22.246844,120.661086,2.6127429e-05
C0C460,復興,2026-02-04,24.820208,121.352281,2.6228495e-09
C2K300,鹿南,2026-02-04,23.63855,120.3636,8.77307e-10
E2H360,蓮華池,2026-02-04,23.918333,120.885278,5.174251e-10
C0M640,中埔,2026-02-04,23.42538,120.5229,7.581943e-09
C0W140,金沙,2026-02-04,24.488292,118.408778,1.2658674e-08
C2A540,四堵,2026-02-04,24.8926,121.745736,3.8307377e-08
C0ACA0,新莊,2026-02-04,25.051478,121.446756,3.4638388e-09
C0R220,潮州,2026-02-04,22.534361,120.54,4.717238e-08
U2HA40,臺大內茅埔,2026-02-04,23.689722,120.851117,6.397762e-10
467490,臺中,2026-02-04,24.145736,120.684075,1.2638717e-09
C0UB60,明池,2026-02-04,24.650688,121.475277,2.4670909e-08
C0U960,翠峰湖,2026-02-04,24.510856,121.608044,3.794183e-08
E2HA20,林試畢祿溪站,2026-02-04,24.226944,121.308522,7.1973583e-09
C2M9A0,大華,2026-02-04,23.4824,120.67491,1.1886366e-09
C0V890,前鎮,2026-02-04,22.5718,120.3117,1.1408771e-06
C1F941,雪嶺,2026-02-04,24.280586,121.026642,2.2994982e-08
C2H9E0,國姓南港,2026-02-04,23.911108,120.846556,1.7407777e-09
C0AC80,文山,2026-02-04,25.00235,121.575728,7.125497e-09
C0F9R0,龍井,2026-02-04,24.184536,120.528972,8.1166734e-10
C0M760,民雄,2026-02-04,23.551754,120.428457,5.3098645e-09
C0UA40,西德山,2026-02-04,24.560647,121.752608,3.8743707e-08
C2TA70,赤科坪,2026-02-04,23.39885,121.39168,1.9204235e-08
C1T920,中興,2026-02-04,23.769503,121.498653,1.2290545e-08
C0D550,雪霸,2026-02-04,24.526972,121.11605,9.873885e-09
C2F860,梨山,2026-02-04,24.247522,121.243669,1.3234913e-08
C0R320,車城,2026-02-04,22.0744,120.716247,0.9352039
C1S870,南美山,2026-02-04,23.15025,121.382333,7.2019586e-09
C0B020,基隆嶼,2026-02-04,25.19141,121.78391,6.2874137e-09
C1U501,牛鬥,2026-02-04,24.637836,121.573656,2.4033124e-08
C0M730,嘉義市東區,2026-02-04,23.457673,120.460531,2.3741217e-08
C2R990,泰武,2026-02-04,22.60686,120.69765,3.161667e-09
C0S700,知本,2026-02-04,22.684866,121.005642,8.469375e-09
C1N001,沙崙,2026-02-04,22.935472,120.309406,2.1609864e-08
C0V760,橋頭,2026-02-04,22.757806,120.30575,2.4632728e-08
C0G960,福寶,2026-02-04,24.0443,120.3814,5.320406e-10
C0X210,白河,2026-02-04,23.347466,120.414427,5.509593e-09
C0S810,東河,2026-02-04,22.972672,121.303986,3.0944058e-09
C2R170,屏東,2026-02-04,22.66027,120.49403,5.312967e-05
C0R670,楓港,2026-02-04,22.190131,120.692156,0.9312521
C0FA50,霧峰,2026-02-04,24.0419,120.6995,9.559383e-10
C0UB10,蘇澳,2026-02-04,24.5969,121.8571,6.6204957e-09
C0G950,防潮門,2026-02-04,24.1835,120.4871,6.4777955e-10
C0M740,六腳,2026-02-04,23.492871,120.290625,6.005411e-09
C1R250,力里,2026-02-04,22.428117,120.629228,3.229803e-10
C0K330,虎尾,2026-02-04,23.719183,120.442036,5.774838e-10
C2FA00,烏石坑,2026-02-04,24.273503,120.947617,1.6875414e-09
C0V620,永安,2026-02-04,22.82315,120.236856,5.182632e-08
C1I330,楓樹林,2026-02-04,23.986803,121.076117,2.3486284e-09
C0W200,湖西,2026-02-04,23.596314,119.67275,0.9932397
72Q010,高雄農改場,2026-02-04,22.709333,120.525889,4.105362e-06
C0SA40,瑞和,2026-02-04,22.974361,121.156697,1.3202659e-09
C0C680,龜山,2026-02-04,25.02846,121.38656,3.164074e-09
C2V260,月眉,2026-02-04,22.971003,120.539853,3.2376006e-09
C0V450,鳳森,2026-02-04,22.545064,120.392592,4.435805e-09
C0FA90,小雪山林道,2026-02-04,24.29515,121.03651,2.8358912e-08
C0U720,南山,2026-02-04,24.43742,121.38167,2.337408e-08
A2N290,臺南蘭花園區,2026-02-04,23.340258,120.379661,1.3816338e-08
C0R560,新園,2026-02-04,22.5434,120.461558,4.435805e-09
C0U890,三星,2026-02-04,24.66812,121.65302,5.373993e-09
C1V300,御油山,2026-02-04,23.001983,120.715364,4.319822e-09
C0U600,礁溪,2026-02-04,24.817539,121.765608,4.930983e-09
C1T980,龍澗,2026-02-04,24.023289,121.411328,4.1368594e-08
C0D670,海天一線,2026-02-04,24.831986,120.914438,9.16537e-06
C0SA00,歷坵,2026-02-04,22.520969,120.89185,2.0441124e-08
C0M710,東石,2026-02-04,23.458927,120.15385,6.204463e-09
C0M780,鹿草,2026-02-04,23.41134,120.30835,6.9011725e-09
C0U520,雙連埤,2026-02-04,24.753033,121.641303,2.7376839e-08
C0B010,七堵,2026-02-04,25.094819,121.71713,6.1902434e-09
C0R480,長治,2026-02-04,22.693128,120.542622,1.0511541e-07
C1V830,國三S383K,2026-02-04,22.781967,120.426475,6.2847064e-08
12Q980,恆春工作站,2026-02-04,22.079678,120.714425,0.9352039
C1O940,東山服務區,2026-02-04,23.286016,120.398472,1.3816338e-08
C1U840,東澳嶺,2026-02-04,24.5378,121.8485,3.644372e-08
C1D630,飛鳳山,2026-02-04,24.766464,121.119178,1.2938929e-09
C0S940,石寧山,2026-02-04,23.223772,121.406639,7.753709e-09
C0K410,北港,2026-02-04,23.573957,120.292802,2.529476e-09
C2M620,瑞里,2026-02-04,23.545133,120.675197,1.8023777e-09
C0SB70,小港漁港,2026-02-04,23.158558,121.400431,9.093647e-09
C2O950,安南,2026-02-04,23.076694,120.144861,4.2093995e-09
C0F0E0,南湖圈谷,2026-02-04,24.363714,121.444667,2.3342803e-08
467610,成功,2026-02-04,23.097486,121.373428,5.580623e-09
C0G890,伸港,2026-02-04,24.148933,120.484403,6.4777955e-10
C2E540,龍溪,2026-02-04,24.606489,120.783933,7.5074547e-10
C1V200,梅山,2026-02-04,23.268447,120.823556,8.238723e-10
C0T9H0,加路蘭山,2026-02-04,23.682947,121.5274,1.5741179e-08
C2O930,玉井,2026-02-04,23.126042,120.46055,2.0742077e-09
C1F911,新伯公,2026-02-04,24.221361,120.841069,5.6713034e-10
C0R490,九如,2026-02-04,22.7405,120.490503,4.105362e-06
C0X200,左鎮,2026-02-04,23.056758,120.408522,1.36826435e-08
C2TB50,麻汝,2026-02-04,23.42554,121.39358,2.8831924e-09
C0FA60,鞍馬山工作站,2026-02-04,24.267064,121.000793,1.3626467e-08
C0SB50,叭嗡嗡,2026-02-04,23.047062,121.343223,5.7981615e-09
C1F891,稍來,2026-02-04,24.265689,121.001142,1.3189024e-08
C2M9C0,紫雲,2026-02-04,23.494914,120.540253,1.9371909e-09
72N240,七股研究中心,2026-02-04,23.081672,120.062894,5.222122e-09
C0C700,中壢,2026-02-04,24.977661,121.256375,6.2986967e-09
C0M690,水上,2026-02-04,23.419734,120.388909,1.5212214e-08
C0V690,鼓山,2026-02-04,22.623325,120.275575,5.8654714e-05
C0O860,大內,2026-02-04,23.11885,120.36083,6.4558954e-08
C0Z200,萬榮,2026-02-04,23.709219,121.420106,1.275528e-08
C0T9D0,和中,2026-02-04,24.26676,121.74103,6.274595e-09
C2S9A0,北份子寮,2026-02-04,22.78561,121.07813,1.9836823e-09
C1O921,楠西,2026-02-04,23.183511,120.484083,2.0742077e-09
C0AJ30,淡水觀海,2026-02-04,25.184591,121.408616,7.791112e-09
C0V810,左營,2026-02-04,22.67491,120.28491,4.6983732e-06
C0UA70,桃源谷,2026-02-04,24.962606,121.888875,2.367908e-08
C0X130,官田,2026-02-04,23.193217,120.315422,6.4558954e-08
C1H000,翠峰,2026-02-04,24.109397,121.205211,1.0711031e-08
C0UA90,石城,2026-02-04,24.980444,121.951214,1.3436949e-08
C1E681,南勢山,2026-02-04,24.421669,120.923831,1.6021203e-09
C0A9F0,內湖,2026-02-04,25.079422,121.57545,3.7313703e-09
C0K291,宜梧,2026-02-04,23.536281,120.169329,7.3414583e-07
C1K540,口湖,2026-02-04,23.585344,120.180517,8.5237303e-07
C0R780,滿州,2026-02-04,22.024403,120.839892,0.54578197
C0V870,文安,2026-02-04,22.8025,120.2164,8.295244e-08
C0U650,玉蘭,2026-02-04,24.675286,121.587061,2.773465e-08
C0R640,東港,2026-02-04,22.46247,120.44074,2.8679723e-09
C0AJ80,板橋,2026-02-04,25.0107,121.4489,4.2304635e-09
C0S660,下馬,2026-02-04,23.150427,121.070312,1.553001e-08
C2N190,烏樹,2026-02-04,23.32393,120.36989,1.3816338e-08
C1H9B1,阿眉,2026-02-04,24.1263,120.994672,6.5033503e-09
C0UA20,多加屯,2026-02-04,24.368614,121.373189,1.0913603e-08
C0E730,頭份,2026-02-04,24.688247,120.912206,1.6088726e-09
72V140,高改旗南分場,2026-02-04,22.857861,120.516667,2.8740356e-08
C0K480,莿桐,2026-02-04,23.761192,120.502372,1.959966e-09
C0U980,坪林石牌,2026-02-04,24.86478,121.77396,3.5992905e-08
C0T900,西林,2026-02-04,23.8119,121.441458,1.15776535e-08
C1I150,青雲,2026-02-04,23.793361,120.949378,5.242698e-10
C2E980,和興,2026-02-04,24.505319,120.923016,1.5640792e-09
467350,澎湖,2026-02-04,23.565503,119.563094,0.9913144
C0G800,埔鹽,2026-02-04,24.000394,120.431683,5.162382e-10
C0H960,草屯,2026-02-04,23.973672,120.68085,8.7764007e-10
C1V780,多納林道,2026-02-04,22.888028,120.737917,1.6562277e-09
C0E920,通霄漁港,2026-02-04,24.498589,120.673876,2.9876865e-08
C0Z330,安通山,2026-02-04,23.290728,121.348528,5.104928e-09
C0AH10,永和,2026-02-04,25.01125,121.508111,4.2304635e-09
C0AK10,太平里,2026-02-04,25.134937,121.364899,7.1483663e-09
C2G640,鹿港,2026-02-04,24.0753,120.430481,5.2983695e-10
C1E890,國三N149K,2026-02-04,24.463414,120.680019,2.9876865e-08
C1R110,口社,2026-02-04,22.770111,120.645222,2.6756621e-09
C1M870,國三N285K,2026-02-04,23.550319,120.505833,1.9371909e-09
C1E480,鳳美,2026-02-04,24.554803,121.034747,1.9301134e-09
C0T9M0,靜浦,2026-02-04,23.455167,121.495028,3.449387e-09
C2H9M0,發祥,2026-02-04,24.154094,121.164517,2.5176208e-09
C2G9C0,埔南,2026-02-04,23.99124,120.46969,5.162382e-10
C0AI40,石牌,2026-02-04,25.115597,121.513139,3.7313703e-09
C1F871,上谷關,2026-02-04,24.203483,121.018644,1.6870136e-09
C2H9G0,百勝,2026-02-04,24.051142,120.909361,4.6266468e-10
C0G880,二水,2026-02-04,23.810742,120.6173,4.215345e-09
C0R940,加祿堂,2026-02-04,22.3363,120.6217,2.6531803e-05
C0W220,北竿,2026-02-04,26.220358,119.974881,7.6262455e-07
C0O960,崎頂,2026-02-04,22.959547,120.369317,2.1609864e-08
C0TA40,秀林,2026-02-04,24.302864,121.731144,4.0650402e-08
C0S750,向陽,2026-02-04,23.248397,120.986133,8.322197e-09
C0T9F0,水璉,2026-02-04,23.797131,121.542514,1.1346296e-08
C1M600,頭凍,2026-02-04,23.406364,120.603339,1.0327901e-09
467660,臺東,2026-02-04,22.752211,121.154586,2.5933258e-09
C1D380,新埔,2026-02-04,24.84745,121.03834,1.7921143e-09
C2G980,田頭村,2026-02-04,23.8263,120.444175,5.4717736e-10
C0V750,路竹,2026-02-04,22.854997,120.259439,5.182632e-08
C0N050,蚵寮,2026-02-04,23.301,120.1104,3.7821297e-09
C2X060,下營,2026-02-04,23.226806,120.256291,2.1291559e-08
72M700,南改鹿草分場,2026-02-04,23.416869,120.283061,6.9011725e-09
C1SA50,利嘉林道,2026-02-04,22.82325,121.009389,3.5262218e-08
C0UB70,太平山中間站,2026-02-04,24.542003,121.513453,1.9652301e-08
C0A940,金山,2026-02-04,25.223628,121.643967,1.1134291e-08
C1V340,大津,2026-02-04,22.888322,120.645986,7.634929e-08
C0W180,七美,2026-02-04,23.219333,119.444892,0.9976278
C1F9C1,白冷,2026-02-04,24.182844,120.929889,6.526211e-10
K2E710,苗改生物防治研究中心,2026-02-04,24.422861,120.871833,8.400849e-10
C0N040,蘆竹溝,2026-02-04,23.2344,120.0961,3.7821297e-09
C0TB40,崇德,2026-02-04,24.166144,121.657414,9.781577e-07
C0D760,大坪苗圃,2026-02-04,24.5362,121.1108,7.268114e-09
C2W230,畜試所澎湖,2026-02-04,23.628342,119.513206,0.9946079
C0R880,後壁湖,2026-02-04,21.9457,120.7457,0.99778736
C1I280,埔中,2026-02-04,23.820778,120.642594,4.1649295e-10
467790,墾丁雷達站,2026-02-04,21.948235,120.808028,0.969479
C0W190,望安,2026-02-04,23.380564,119.494075,0.99569213
C0Z170,卓溪,2026-02-04,23.3443,121.3029,3.0431446e-09
C0F850,東勢,2026-02-04,24.246428,120.833047,5.6488053e-10
466900,淡水,2026-02-04,25.164889,121.448906,5.5167013e-09
C0I370,魚池,2026-02-04,23.895703,120.94135,5.517572e-10
C0C630,大溪,2026-02-04,24.882853,121.265547,2.1511486e-09
C0A520,山佳,2026-02-04,24.974944,121.402008,2.84325e-09
C0I110,竹山,2026-02-04,23.761225,120.688156,2.3184121e-09
82H840,茶改南部分場,2026-02-04,23.762528,120.7405,4.2041015e-10
C2SD80,再來山,2026-02-04,23.34371,121.44122,3.168549e-09
C0G660,溪湖,2026-02-04,23.94835,120.479122,5.4811433e-10
C1T800,洛韶,2026-02-04,24.204558,121.453956,1.0771986e-07
C1T810,慈恩,2026-02-04,24.192044,121.388386,6.6361094e-09
C1E451,象鼻,2026-02-04,24.368617,120.940228,1.6015307e-09
C0AC60,三峽,2026-02-04,24.939025,121.369728,2.8660638e-09
C0I490,萬大林道,2026-02-04,23.928228,121.091411,4.0791353e-09
C1I290,豐丘,2026-02-04,23.668178,120.887417,3.8472843e-09
C1I320,奧萬大,2026-02-04,23.952956,121.178556,2.3876032e-09
C2M910,嘉義大學,2026-02-04,23.471325,120.485903,2.3741217e-08
C0U770,南澳,2026-02-04,24.44935,121.81022,1.3127385e-08
C2TB30,吉安,2026-02-04,23.94538,121.54803,1.1440762e-08
C0A980,社子,2026-02-04,25.109508,121.469681,5.55146e-09
C0V800,六龜,2026-02-04,22.997889,120.633583,1.96802e-09
C1G9D0,國一S218K,2026-02-04,23.890641,120.493253,6.5756656e-10
C0E570,白沙屯,2026-02-04,24.549447,120.696803,6.19381e-09
C2F9A0,中竹林,2026-02-04,24.103556,120.751061,5.16128e-10
C0FA40,臺中電廠,2026-02-04,24.2146,120.4907,1.0203977e-09
C2G9A0,畜試所彰化,2026-02-04,23.86045,120.557964,3.3777119e-09
C0H9C0,合歡山,2026-02-04,24.143442,121.272547,2.313201e-08
G2M350,農試溪口農場,2026-02-04,23.58565,120.408111,5.3098645e-09
C0U860,頭城,2026-02-04,24.85323,121.8308,1.6837165e-08
C0R580,南州,2026-02-04,22.48591,120.50274,4.9087454e-08
C0D430,峨眉,2026-02-04,24.6905,121.017189,7.047612e-10
C0G780,秀水,2026-02-04,24.03405,120.503869,5.346621e-10
72N100,臺南農改場,2026-02-04,23.0605,120.342194,5.173847e-07
C0S900,蘭嶼高中,2026-02-04,22.04909,121.51214,0.9945818
C2TA60,六十石,2026-02-04,23.22477,121.31861,1.9358621e-08
C1F9W0,德基,2026-02-04,24.254783,121.190261,1.342112e-08
C2M980,安和,2026-02-04,23.51377,120.31593,6.005411e-09
C1Z120,壽豐,2026-02-04,23.870853,121.508081,1.1375701e-08
C0W160,烏坵,2026-02-04,24.9944,119.44956,0.032383285
C1I240,外大坪,2026-02-04,23.958697,120.917931,5.867367e-10
C1I550,國六W023K,2026-02-04,23.979067,120.867742,3.724926e-10
C0R870,興海,2026-02-04,21.9752,120.8439,0.969479
C0R140,瑪家,2026-02-04,22.682903,120.686639,5.387034e-10
C0A530,坪林,2026-02-04,24.938183,121.70975,1.6023717e-08
C0X260,後壁,2026-02-04,23.366358,120.362326,1.7996959e-08
C0Z230,和平,2026-02-04,24.30717,121.77007,8.61255e-09
C0G770,福興,2026-02-04,24.041289,120.437669,5.162382e-10
C0H9A0,神木村,2026-02-04,23.532742,120.843667,5.6922107e-09
C0I460,南投,2026-02-04,23.911469,120.687331,8.7764007e-10
C0I480,梅峰,2026-02-04,24.085272,121.173572,7.4099664e-09
C1V570,吉東,2026-02-04,22.85422,120.5454,2.0736375e-07
C2A560,福山,2026-02-04,24.776203,121.502811,2.795399e-08
C0AH30,五分山,2026-02-04,25.07125,121.780794,2.6371069e-08
C0FA10,松柏,2026-02-04,24.429115,120.617482,2.336618e-09
72S200,東改班鳩分場,2026-02-04,22.829528,121.077694,1.8513101e-09
72HA00,中改埔里分場,2026-02-04,23.903208,120.963364,5.4312116e-10
C2H9W0,大坪頂農水,2026-02-04,24.043122,120.932781,5.7710614e-10
C0C650,平鎮,2026-02-04,24.897503,121.214636,1.2901569e-09
C0S930,延平,2026-02-04,22.902581,121.084058,1.6056261e-09
C0UA60,樟樹山,2026-02-04,24.41393,121.78325,8.652428e-09
C2UC10,出水溪,2026-02-04,24.615822,121.652253,2.2394541e-08
C1S670,摩天,2026-02-04,23.199503,121.027,3.4506524e-08
C2C590,觀音,2026-02-04,25.027072,121.153317,4.833103e-08
C0V630,茄萣,2026-02-04,22.906642,120.182608,1.15990275e-08
466940,基隆,2026-02-04,25.133314,121.740475,6.3295755e-09
C0X050,東河,2026-02-04,23.296598,120.385608,1.3816338e-08
C0R770,保力,2026-02-04,22.071122,120.764111,0.9253149
G2L020,農試嘉義分所,2026-02-04,23.485028,120.473806,2.3741217e-08
C0X240,關子嶺,2026-02-04,23.331169,120.508025,4.770382e-10
C0I380,集集,2026-02-04,23.828206,120.801467,3.8870016e-10
466990,花蓮,2026-02-04,23.975128,121.613275,2.226014e-08
C1V220,小關山,2026-02-04,23.154217,120.813603,4.9319047e-09
C1F9G1,慶福山,2026-02-04,24.180853,120.848378,8.0557366e-10
C0FB20,雪山橋,2026-02-04,24.23192,120.9786,1.188313e-08
C0Z250,瑞穗林道,2026-02-04,23.49284,121.30688,7.333622e-08
C0D590,新豐,2026-02-04,24.87068,120.97721,9.16537e-06
C0A870,五指山,2026-02-04,25.132153,121.608692,8.557499e-09
C0UA50,西帽山,2026-02-04,24.555361,121.802628,3.641176e-08
C2R980,竹田國中,2026-02-04,22.61532,120.52412,4.2210957e-07
C0X160,仁德,2026-02-04,22.968258,120.257689,2.765851e-07
C1H971,六分寮,2026-02-04,23.92507,120.6378,5.899855e-10
C0W120,西嶼,2026-02-04,23.5626,119.468436,0.995695
C0G650,員林,2026-02-04,23.946503,120.585597,1.3581208e-09
C0AD50,鶯歌,2026-02-04,24.951533,121.346294,2.7957547e-09
C2H9Q0,北東眼山,2026-02-04,24.120939,121.189303,1.056184e-08
C2H9T0,名間竹圍,2026-02-04,23.859914,120.637572,8.9363145e-10
C0S990,山豬窟,2026-02-04,22.318619,120.857372,4.4096203e-05
C0X190,安平,2026-02-04,22.993161,120.152181,1.6102335e-08
C0K400,斗六,2026-02-04,23.720583,120.541127,1.959966e-09
12J990,口湖工作站,2026-02-04,23.589978,120.180394,8.5237303e-07
C0O830,北寮,2026-02-04,23.079561,120.495008,5.321847e-10
C1D410,白蘭,2026-02-04,24.579364,121.079947,6.060286e-09
C0S970,加津林,2026-02-04,22.416211,120.926942,1.1555161e-06
C0D700,關西,2026-02-04,24.7977,121.1732,7.5147755e-10
C0U750,龜山島,2026-02-04,24.841667,121.953133,3.0208643e-08
C0R810,內獅,2026-02-04,22.305064,120.642986,2.6127429e-05
C1M390,龍美,2026-02-04,23.406728,120.654417,2.418989e-09
C2K290,崙內,2026-02-04,23.69525,120.35601,8.77307e-10
C2FB60,頭櫃山,2026-02-04,24.129842,120.858925,2.017128e-09
C1H840,國三N238K,2026-02-04,23.841008,120.707711,4.4926726e-10
CAQ030,崎峰國小,2026-02-04,22.42565,120.49521,4.9087454e-08
C2E520,大湖,2026-02-04,24.414939,120.870872,8.400849e-10
467530,阿里山,2026-02-04,23.508208,120.813242,1.3670514e-08
C1E691,南湖,2026-02-04,24.40135,120.837533,1.0182726e-09
C0FA30,梧棲,2026-02-04,24.256003,120.523381,8.1166734e-10
C1V231,高中,2026-02-04,23.134911,120.716711,8.08247e-10
C0AK30,硬漢嶺,2026-02-04,25.136097,121.426372,6.8744512e-09
C0F9V0,新社,2026-02-04,24.200172,120.815806,6.0525324e-10
C0H890,埔里,2026-02-04,23.972169,120.952425,5.2196497e-10
C0R690,墾丁,2026-02-04,21.966756,120.810269,0.9245176
C0SD20,富山,2026-02-04,22.822383,121.190825,2.2867346e-09
C0F0D0,審馬陣,2026-02-04,24.381675,121.4203,1.6414914e-08
C2W030,金門農試所,2026-02-04,24.448431,118.451786,1.22058825e-08
C0R820,白鷺,2026-02-04,22.454275,120.666219,1.1688055e-09
C0FB00,大雪山,2026-02-04,24.254668,121.007374,1.3722448e-08
C1V190,南天池,2026-02-04,23.27403,120.91176,9.709871e-09
C0E940,雪見,2026-02-04,24.42595,121.01347,9.250621e-09
K2E360,苗栗農改場,2026-02-04,24.495722,120.829111,9.363463e-10
CAJ050,海口故事園區,2026-02-04,23.57543,120.14121,8.5237303e-07
C2K280,四湖,2026-02-04,23.6304,120.22717,1.7632739e-07
C2H9D0,三隻寮,2026-02-04,24.093078,120.861578,6.4040734e-10
C0O990,媽廟,2026-02-04,22.99175,120.293525,5.109251e-07
C0D480,打鐵坑,2026-02-04,24.849664,121.150789,1.6389096e-09
C0Z220,和平林道,2026-02-04,24.343922,121.656317,7.622834e-09
C0TA10,花蓮漁港,2026-02-04,23.995322,121.638331,2.2921023e-08
72C440,桃園農改場,2026-02-04,24.950944,121.030583,6.4173187e-09
C1E711,馬拉邦山,2026-02-04,24.367306,120.901656,1.5034805e-09
C0SB20,富岡,2026-02-04,22.792467,121.192669,2.0410844e-09
C0D560,竹東,2026-02-04,24.767147,121.057881,8.519645e-10
C0F9U0,南屯,2026-02-04,24.137006,120.637969,8.0141893e-10
C2SD60,明峰,2026-02-04,22.8671,121.11825,1.5035723e-09
C0M720,番路,2026-02-04,23.464657,120.554156,4.3069112e-10
C0F0A0,雪山圈谷,2026-02-04,24.388594,121.236339,2.7062482e-08
C1A9N0,四十份,2026-02-04,24.934158,121.593283,1.4747669e-08
C0U760,東澳,2026-02-04,24.52196,121.83318,1.3160503e-08
C0X230,鹽水,2026-02-04,23.272621,120.247641,4.4188573e-09
C2H9H0,苗改南投蜂場,2026-02-04,23.852589,120.693481,1.920166e-09
C2TB70,達谷寮,2026-02-04,23.38,121.35968,3.1663017e-09
C0R950,萬隆國小,2026-02-04,22.507667,120.587817,3.5532374e-10
467540,大武,2026-02-04,22.35572,120.90374,0.99260503
C0V370,古亭坑,2026-02-04,22.893178,120.401947,2.6803613e-09
C1I340,新興橋,2026-02-04,23.563333,120.868728,1.5572565e-09
C0SA80,土坂,2026-02-04,22.453108,120.887572,2.9959756e-07
C0R160,鹽埔,2026-02-04,22.739558,120.530778,4.105362e-06
C0AC40,大屯山,2026-02-04,25.175675,121.522408,1.6884535e-08
466850,五分山雷達站,2026-02-04,25.071182,121.781205,2.6534389e-08
C2H9L0,馬烈霸,2026-02-04,24.1512,121.201772,1.056184e-08
C1AI50,國三N016K,2026-02-04,25.034164,121.619664,6.1657097e-09
C2V920,匏子寮,2026-02-04,23.04905,120.55319,9.716684e-10
C1V600,藤枝,2026-02-04,23.071961,120.757042,3.767471e-09
C1E601,南勢,2026-02-04,24.572486,120.734842,6.19381e-09
C0O980,新市,2026-02-04,23.061614,120.298197,5.173847e-07
C0K420,西螺,2026-02-04,23.800407,120.467394,5.4717736e-10
C0Z050,佳心,2026-02-04,23.34567,121.21316,1.7190514e-08
C0AD30,蘆洲,2026-02-04,25.086594,121.472331,3.4606031e-09
C0V610,梓官,2026-02-04,22.760558,120.267211,7.224139e-08
K2F750,種苗改良場,2026-02-04,24.225972,120.800917,6.0525324e-10
C0UA80,大溪漁港,2026-02-04,24.941801,121.902955,2.6611987e-08
C1AI60,國一39K邊坡,2026-02-04,25.064361,121.383836,3.765301e-09
C0W150,金寧,2026-02-04,24.457703,118.328989,1.2907876e-08
C0R960,內埔,2026-02-04,22.608483,120.570714,4.2210957e-07
V2C250,八德合作社,2026-02-04,24.93775,121.266389,2.1511486e-09
C2H9S0,龍南,2026-02-04,23.953536,120.833183,8.8244234e-10
C0AH40,平等,2026-02-04,25.129142,121.577086,6.4281482e-09
C0R540,佳冬,2026-02-04,22.419456,120.552375,4.798134e-09
466950,彭佳嶼,2026-02-04,25.627975,122.079744,0.00010908888
C0A890,雙溪,2026-02-04,25.036003,121.864242,1.3352232e-08
C0C480,桃園,2026-02-04,24.992425,121.323172,6.2986967e-09
C0AH50,林口,2026-02-04,25.072181,121.38084,3.7958174e-09
A2K360,水試臺西試驗場,2026-02-04,23.717231,120.190522,7.368421e-08
C2M960,外寮,2026-02-04,23.562643,120.665688,1.4974447e-09
C0F9S0,烏日,2026-02-04,24.107058,120.624103,8.0141893e-10
C2N180,鹿陶洋,2026-02-04,23.14325,120.48352,2.0742077e-09
C0C490,八德,2026-02-04,24.928708,121.283289,2.1511486e-09
C0R190,赤山,2026-02-04,22.592333,120.614306,1.8031649e-07
C0T820,天祥,2026-02-04,24.179597,121.495639,2.9532347e-07
C1F9E1,龍安,2026-02-04,24.1605,120.831961,6.084084e-10
C2SD50,順那,2026-02-04,23.04166,121.29332,3.090124e-09
C0V820,小林,2026-02-04,23.148408,120.63325,5.3429816e-10
C2G870,芳苑,2026-02-04,23.922303,120.320025,0.00284786
C0E850,大河,2026-02-04,24.618069,120.948578,7.144178e-10
C1U670,寒溪,2026-02-04,24.634,121.71691,5.3613185e-09
C0N020,城西,2026-02-04,23.0568,120.0956,4.7984634e-09
C1Z110,三棧,2026-02-04,24.11557,121.60501,1.9298294e-07
C0R280,檳榔,2026-02-04,22.076078,120.836777,0.33515102
C2H9J0,中台,2026-02-04,23.9996,120.938739,5.7710614e-10
C0F9L0,后里,2026-02-04,24.310436,120.729725,6.628427e-10
467441,高雄,2026-02-04,22.730432,120.312516,2.4632728e-08
C0Z180,新城,2026-02-04,24.040486,121.604878,2.1920256e-08
C0D540,橫山,2026-02-04,24.71116,121.11693,9.480235e-10
C1D420,太閣南,2026-02-04,24.632808,121.160575,6.535457e-09
C1E770,公館,2026-02-04,24.526914,120.830806,7.4986106e-10
CAN130,水試所海水繁養殖中心,2026-02-04,23.120802,120.07968,5.222122e-09
C1I430,翠華,2026-02-04,24.191961,121.224339,1.5616626e-08
C1M400,菜瓜坪,2026-02-04,23.251928,120.576103,5.4592847e-10
C0G730,二林,2026-02-04,23.903325,120.376081,5.429068e-10
72M360,南改義竹分場,2026-02-04,23.360694,120.279361,5.7067235e-09
V2K620,麥寮合作社,2026-02-04,23.753836,120.294783,5.1243776e-10
C0Z070,舞鶴,2026-02-04,23.46811,121.37407,3.030367e-09
C0B040,大武崙,2026-02-04,25.166676,121.706993,6.2591514e-09
C1Z030,紅葉,2026-02-04,23.493119,121.338806,2.9181024e-09
C1I050,丹大,2026-02-04,23.753747,121.141147,1.1674402e-08
C0I080,信義,2026-02-04,23.689694,120.851036,6.397762e-10
C2TB80,庄子底,2026-02-04,23.71794,121.49438,1.4405216e-08
C0D750,樂山林道6k,2026-02-04,24.49999,121.08773,1.3717005e-08
C2M920,朴子農改,2026-02-04,23.469889,120.259383,6.9011725e-09
C2A880,福隆,2026-02-04,25.017842,121.942083,1.3442589e-08
C0Z160,鳳林,2026-02-04,23.746114,121.453411,1.4132792e-08
C0UB80,翠峰林道6K,2026-02-04,24.49773,121.568625,3.9303572e-08
C0V210,復興,2026-02-04,23.222403,120.806089,8.8852414e-10
C0H990,昆陽,2026-02-04,24.121322,121.273642,1.860011e-08
C0R741,獅子,2026-02-04,22.202308,120.705236,1.3052971e-05
C0S710,鹿野,2026-02-04,22.917711,121.122994,1.8086246e-09
C0I530,小奇萊,2026-02-04,24.131764,121.295717,1.951637e-08
C0FA70,大雪山埡口,2026-02-04,24.26867,121.03062,2.2759183e-08
C2K630,荷苞,2026-02-04,23.657717,120.595144,6.93311e-10
C0Z080,富源,2026-02-04,23.587642,121.378225,2.011792e-08
C2M9E0,旺來山,2026-02-04,23.555153,120.486463,1.9371946e-09
C0SB10,美和,2026-02-04,22.682078,121.060236,2.5933258e-09
C2K620,馬光農場,2026-02-04,23.721453,120.378864,5.774838e-10
C1I140,卡奈托灣,2026-02-04,23.754364,121.087872,4.3153254e-09
C0I520,玉山風口,2026-02-04,23.470489,120.955994,2.6304155e-08
C1G691,下水埔,2026-02-04,23.816114,120.5676,2.3212263e-09
C0X110,臺南市南區,2026-02-04,22.961189,120.188378,2.3470963e-07
C0V680,仁武,2026-02-04,22.701083,120.347722,2.4632728e-08
C2G840,北斗,2026-02-04,23.877586,120.514222,6.5756656e-10
C2TB90,長橋,2026-02-04,23.6874,121.46186,1.4054755e-08
C0R900,竹坑,2026-02-04,22.1385,120.7022,0.9312521
C0G860,社頭,2026-02-04,23.897647,120.5862,3.3777119e-09
C0X150,安定,2026-02-04,23.102614,120.227839,2.7851009e-08
C0R590,里港,2026-02-04,22.77919,120.49459,8.302034e-08
C0E610,馬都安,2026-02-04,24.451272,120.930192,1.1309194e-09
C0E550,明德,2026-02-04,24.583486,120.885411,8.018807e-10
C0R150,三地門,2026-02-04,22.709889,120.639944,2.1216158e-08
C0G910,花壇,2026-02-04,24.032076,120.549461,5.346621e-10
C1D400,鳥嘴山,2026-02-04,24.71909,121.28387,3.3240137e-09
C0K500,元長,2026-02-04,23.64981,120.315024,8.305194e-10
C0F0B0,石岡,2026-02-04,24.276061,120.777644,6.628427e-10
C2V250,甲仙,2026-02-04,23.080106,120.591758,6.541627e-10
C0SA20,金崙山,2026-02-04,22.567419,120.959667,1.051936e-08
C0V350,溪埔,2026-02-04,22.738578,120.446797,6.2847064e-08
C0M660,溪口,2026-02-04,23.604131,120.403569,5.3098645e-09
C1S880,壽卡,2026-02-04,22.238911,120.858903,4.7291164e-07
72D680,桃改新埔分場,2026-02-04,24.834444,121.066111,1.7921143e-09
