站號,站名,日期,lat,lon,BLBTSLS
C0R710,龍磐,2026-02-05,21.931672,120.838942,0.9997002
C1F9D1,白毛台,2026-02-05,24.158325,120.886933,1.9442759e-09
C0G940,竹塘,2026-02-05,23.848253,120.386764,1.5250058e-09
467590,恆春,2026-02-05,22.003897,120.746339,0.99415654
C1O850,環湖,2026-02-05,23.148617,120.418633,7.681063e-10
C0U710,太平山,2026-02-05,24.505486,121.525656,3.1458246e-08
C0E820,獅潭,2026-02-05,24.539133,120.920042,4.7465956e-09
C2SD70,二層坪,2026-02-05,22.94105,121.16838,9.531042e-09
C0V880,興達,2026-02-05,22.8778,120.2127,9.3753783e-07
C0S890,關山,2026-02-05,23.0395,121.175017,9.057641e-09
C0SB30,新蘭,2026-02-05,22.869214,121.223228,1.7829644e-08
C2R970,屏科大,2026-02-05,22.648275,120.619247,1.043282e-08
C1Z130,銅門,2026-02-05,23.965694,121.492842,3.0935343e-08
C0AD40,土城,2026-02-05,24.973208,121.445169,1.4178475e-08
CAN140,六官養殖協會,2026-02-05,23.22881,120.29962,6.8221118e-09
C0X180,山上,2026-02-05,23.0757,120.363253,2.6675968e-08
C0F9Z0,雪山東峰,2026-02-05,24.388792,121.268675,2.56112e-08
C1M480,獨立山,2026-02-05,23.537022,120.607797,1.0261416e-09
C0X220,學甲,2026-02-05,23.230367,120.182187,9.292621e-09
467650,日月潭,2026-02-05,23.881325,120.90805,1.943349e-09
A2K570,古坑(花卉中心),2026-02-05,23.633531,120.552392,3.7243006e-10
C0K600,箔子寮,2026-02-05,23.6197,120.14,2.0241438e-07
C0G830,埤頭,2026-02-05,23.866003,120.452806,8.7302204e-10
C0S950,七塊厝,2026-02-05,22.954453,121.229922,7.757703e-09
467110,金門,2026-02-05,24.407306,118.289281,3.8259696e-08
C0AH80,深坑,2026-02-05,25.002703,121.628328,1.5557433e-08
C0A970,三貂角,2026-02-05,25.007606,122.002058,2.0820886e-08
C2D730,寶山農場,2026-02-05,24.732444,120.976153,4.895681e-09
C0K430,褒忠,2026-02-05,23.690938,120.303634,2.6178564e-09
467480,嘉義,2026-02-05,23.495925,120.432906,1.9475643e-09
C0V400,阿公店,2026-02-05,22.804194,120.355528,1.4436627e-08
C0E960,觀霧分站,2026-02-05,24.505781,121.113921,1.6243895e-08
467550,玉山,2026-02-05,23.48718,120.95943,3.7675445e-08
C0R440,大漢山,2026-02-05,22.405264,120.753181,3.1680493e-08
C0SD30,東清國小,2026-02-05,22.057128,121.564922,0.9054175
C1F9B1,桐林,2026-02-05,24.066172,120.735194,7.5697143e-10
C2H9U0,鳳鵬,2026-02-05,23.763919,120.788061,5.216843e-10
C0K390,土庫,2026-02-05,23.679029,120.395574,9.395199e-10
C1I450,望鄉山,2026-02-05,23.594153,120.944286,2.104808e-08
C0E910,海埔,2026-02-05,24.648767,120.772435,3.6415697e-09
B2E890,畜試北區分所,2026-02-05,24.527806,120.770972,5.0314233e-09
C0R750,四林格山,2026-02-05,22.076989,120.802439,0.023283873
C0F0C0,中坑,2026-02-05,24.248517,120.903319,3.5477337e-09
C1I121,大鞍,2026-02-05,23.678381,120.760017,5.669662e-09
C2G9E0,移民庄,2026-02-05,23.9784,120.40283,3.0187945e-09
72U480,花改蘭陽分場,2026-02-05,24.686306,121.716583,1.17770345e-08
C0A770,科教館,2026-02-05,25.096356,121.516507,1.4689977e-08
C0AJ60,六塊厝,2026-02-05,25.24,121.4481,8.348481e-08
C0R620,墾雷,2026-02-05,21.900836,120.855269,0.9995345
467420,永康,2026-02-05,23.038386,120.2367,3.744073e-07
C2M530,奮起湖,2026-02-05,23.493903,120.699253,4.8855227e-09
C0I410,名間,2026-02-05,23.837053,120.701447,6.26689e-10
A2C560,農工中心,2026-02-05,24.985917,121.239833,2.5685903e-08
C0V740,旗山,2026-02-05,22.888614,120.483597,4.8694284e-09
C0Z061,玉里,2026-02-05,23.3215,121.339656,4.40837e-08
C0S840,南田,2026-02-05,22.279725,120.889208,0.8288063
C1I470,杉林溪,2026-02-05,23.639517,120.786444,7.685126e-09
C1X040,東原,2026-02-05,23.291597,120.463822,6.672087e-10
C0R660,枋寮,2026-02-05,22.367722,120.590647,4.1865576e-08
C1R120,上德文,2026-02-05,22.763272,120.704442,2.3724231e-09
C0K450,大埤,2026-02-05,23.646074,120.431537,7.2865436e-10
C0UA00,土場,2026-02-05,24.576533,121.495333,2.8863907e-08
467080,宜蘭,2026-02-05,24.763975,121.756528,1.0474352e-08
C0N030,四草,2026-02-05,23.0235,120.1116,5.71694e-07
467410,臺南,2026-02-05,22.99328,120.20492,2.3922e-07
C0V650,彌陀,2026-02-05,22.783806,120.246361,1.9999838e-07
C0D660,新竹市東區,2026-02-05,24.798681,120.986942,5.6540896e-09
82S580,茶改東部分場,2026-02-05,22.907694,121.130139,1.1311874e-08
C0SB40,興隆,2026-02-05,22.913661,121.257469,3.9024123e-08
467050,新屋,2026-02-05,25.006725,121.047492,6.670426e-08
C0C710,大溪永福,2026-02-05,24.892936,121.324975,1.193756e-08
C0FA20,溫寮,2026-02-05,24.372177,120.583125,1.2642073e-08
C0V640,湖內,2026-02-05,22.887139,120.2445,7.975059e-07
C0R910,下寮,2026-02-05,22.3929,120.5548,6.886297e-07
C0Z020,明里,2026-02-05,23.208717,121.262342,4.1187356e-08
C0M770,嘉義梅山,2026-02-05,23.585398,120.555587,4.3470538e-10
C0C660,楊梅,2026-02-05,24.912375,121.143047,1.3121277e-08
C0SD40,牛頭山,2026-02-05,22.676661,121.506944,5.769895e-06
C1E511,新開,2026-02-05,24.347703,120.827019,3.0700322e-09
G2F820,農試所(霧峰),2026-02-05,24.031261,120.688133,8.122605e-10
C2M990,大巃頂,2026-02-05,23.5547,120.61439,2.5570968e-09
C1I070,和社,2026-02-05,23.591131,120.888861,1.7661483e-09
C2E990,新坪頂,2026-02-05,24.30201,120.8574,2.459652e-09
C0TA80,立霧山,2026-02-05,24.183258,121.641899,7.1285456e-08
C2F000,大肚,2026-02-05,24.15295,120.572117,1.4252e-09
C1S850,豐南,2026-02-05,23.122139,121.262389,1.0115849e-08
C2M9B0,西興,2026-02-05,23.2428,120.57617,8.1143514e-10
C2A920,富貴角,2026-02-05,25.263783,121.565258,7.6463984e-08
CAH030,茶改場竹圍站,2026-02-05,23.860083,120.637528,6.1628147e-10
C0T960,光復,2026-02-05,23.660694,121.424964,5.203075e-08
C0F9M0,豐原,2026-02-05,24.254322,120.720692,1.77205e-09
C0R720,旭海,2026-02-05,22.205403,120.887614,2.258495e-06
C0V710,苓雅,2026-02-05,22.622742,120.330669,2.0827683e-07
C0C740,觀音工業區,2026-02-05,25.064764,121.114856,9.4133235e-08
CAC040,拉拉山,2026-02-05,24.699317,121.427133,3.2255954e-08
C0V790,萬山,2026-02-05,22.905944,120.688056,1.2552589e-09
U2HA30,臺大和社,2026-02-05,23.590856,120.888864,1.7661483e-09
C2H9K0,屯原,2026-02-05,24.067969,121.209389,1.0043408e-08
C0AJ90,澳底,2026-02-05,25.0552,121.9253,2.1447585e-08
C0Z100,東華,2026-02-05,23.89525,121.549833,3.85059e-08
C0G970,三豐,2026-02-05,23.882,120.2895,0.00028913884
V2K610,大庄合作社,2026-02-05,23.8068,120.367939,3.782115e-09
C0V900,汕尾,2026-02-05,22.4782,120.4151,2.216053e-07
C1R630,龍泉,2026-02-05,22.66701,120.59091,3.060288e-08
C1AC50,關渡,2026-02-05,25.133486,121.469331,3.4324238e-08
C0C800,四稜,2026-02-05,24.64733,121.4293,2.3478053e-08
C0F9I0,神岡,2026-02-05,24.272481,120.658314,2.8297786e-09
C0K460,斗南,2026-02-05,23.678734,120.478359,7.179462e-10
C2O810,曾文,2026-02-05,23.219681,120.497328,6.8860223e-10
467280,後龍,2026-02-05,24.648563,120.831834,3.5772163e-09
C1F9J1,清水林,2026-02-05,24.071242,120.820419,1.3822288e-09
C2A650,火燒寮,2026-02-05,25.002719,121.742892,1.5193944e-08
466930,竹子湖,2026-02-05,25.162078,121.544547,2.0220943e-08
C1I220,樟湖,2026-02-05,23.905333,120.846983,2.4040954e-09
C0I390,仁愛,2026-02-05,24.022122,121.132206,2.9892469e-09
C0Z300,東里,2026-02-05,23.26853,121.30547,4.1992173e-08
C1V590,新發,2026-02-05,23.057019,120.646064,1.8259033e-09
C0K510,水林,2026-02-05,23.572924,120.24597,3.5885195e-09
72S590,東改賓朗果園,2026-02-05,22.813889,121.071278,1.586131e-08
82A750,茶改北部分場,2026-02-05,24.955778,121.631222,3.048049e-08
C1A750,石碇服務區,2026-02-05,25.00872,121.646242,1.4196281e-08
C0X300,鹿寮,2026-02-05,23.386047,120.477331,6.520028e-10
G2AI50,關渡,2026-02-05,25.11575,121.492,1.4354228e-08
C0K590,雲林東勢,2026-02-05,23.674192,120.255721,2.7867202e-09
C2K310,港尾布雞,2026-02-05,23.74834,120.38439,8.42299e-10
C0A570,桶後,2026-02-05,24.848222,121.597992,3.487667e-08
C1S800,華源,2026-02-05,22.657883,121.02325,9.086767e-08
C0G720,溪州,2026-02-05,23.851589,120.499093,8.535764e-10
C1V160,達卡努瓦,2026-02-05,23.279811,120.705319,2.7047606e-09
C2M410,馬頭山,2026-02-05,23.324361,120.582017,5.57259e-10
C0V850,蚵仔寮,2026-02-05,22.7256,120.2527,2.0578183e-07
C0S740,池上,2026-02-05,23.119628,121.209469,1.2387838e-08
C1V390,尖山,2026-02-05,22.813153,120.367789,9.9779545e-09
C0AH70,松山,2026-02-05,25.04871,121.55042,1.4560126e-08
C0N010,鯤鯓國小,2026-02-05,23.1879,120.0889,1.0946814e-08
C0R550,新埤,2026-02-05,22.467947,120.582894,2.3967068e-08
C0SA60,知本（水試所）,2026-02-05,22.702394,121.082761,8.032935e-06
C0T9I0,豐濱,2026-02-05,23.583897,121.514806,2.2149813e-08
C0UB00,淡江大學蘭陽校園,2026-02-05,24.823239,121.730383,2.6174632e-08
C0W240,九宮,2026-02-05,24.423753,118.240186,2.587186e-08
C0T9N0,富里,2026-02-05,23.171639,121.249378,3.886687e-08
U2HA50,臺大竹山,2026-02-05,23.756972,120.681556,6.0848154e-10
C0V840,鳳鼻頭,2026-02-05,22.5083,120.3591,2.0871605e-07
C0X140,西港,2026-02-05,23.125608,120.203108,8.377939e-09
72D080,桃改五峰分場,2026-02-05,24.612194,121.157167,6.9831474e-09
C2H9P0,伊拿谷,2026-02-05,23.963211,121.088264,1.7650506e-09
C2K250,崙背,2026-02-05,23.75553,120.31893,2.6178564e-09
C2H9F0,柑林,2026-02-05,24.018658,120.847072,7.662859e-10
C0TA20,加灣,2026-02-05,24.082025,121.608944,1.6697749e-07
C0V530,阿蓮,2026-02-05,22.883208,120.327508,6.9850024e-08
C0FB30,八仙山苗圃,2026-02-05,24.192719,121.001366,3.404405e-09
C1O880,關山,2026-02-05,23.173397,120.594092,5.317504e-10
C0E791,卓蘭,2026-02-05,24.3126,120.8244,3.1846716e-09
C1I030,武界,2026-02-05,23.913225,121.052483,1.6123286e-09
C0R520,崁頂,2026-02-05,22.514781,120.506914,6.3558545e-08
C0R341,牡丹,2026-02-05,22.130036,120.792639,2.4910558e-05
C0R930,萬丹,2026-02-05,22.5885,120.4851,7.610009e-08
C0S760,紅石,2026-02-05,23.069131,121.126219,3.5927126e-08
C2C410,中央大學,2026-02-05,24.967652,121.185165,2.4723715e-08
C1M610,石磐龍,2026-02-05,23.496606,120.663506,3.7193333e-09
C0C790,東眼山,2026-02-05,24.8284,121.40888,1.4733077e-08
C0UA10,鴛鴦湖,2026-02-05,24.590269,121.412228,2.7860837e-08
V2C260,八德蔬果,2026-02-05,24.978508,121.281819,2.2850614e-08
C0R800,丹路,2026-02-05,22.204481,120.750989,0.079243876
C0G920,永靖,2026-02-05,23.924703,120.547533,1.0652391e-09
C2M950,太和,2026-02-05,23.538372,120.702961,4.8438156e-09
C1A630,下盆,2026-02-05,24.771003,121.538622,3.076382e-08
B2N890,畜產試驗所,2026-02-05,23.058972,120.336406,1.7625057e-07
C0UA30,白嶺,2026-02-05,24.527819,121.519031,2.3227729e-08
467571,新竹,2026-02-05,24.828575,121.01455,1.134595e-08
C1V580,溪南(特生中心),2026-02-05,23.084972,120.788475,7.898453e-09
C1T970,大農,2026-02-05,23.615233,121.413331,4.610847e-08
C0R650,竹田,2026-02-05,22.58486,120.54344,4.8148486e-08
C1H900,清流,2026-02-05,24.080775,120.962997,1.6935809e-09
C1C510,水尾,2026-02-05,24.940081,121.087161,2.5118565e-08
C2N170,茅港尾,2026-02-05,23.2061,120.2624,6.8221118e-09
C0F9X0,大雅(中科園區),2026-02-05,24.21528,120.62445,2.0079423e-09
C0SB60,白守蓮,2026-02-05,23.126769,121.401914,1.27439e-08
C0O970,虎頭埤,2026-02-05,23.021375,120.347878,4.0182787e-08
C0C730,中大臨海站,2026-02-05,24.966126,121.008581,3.521255e-08
C0X250,新營,2026-02-05,23.310689,120.316681,5.3316636e-09
C0V700,三民,2026-02-05,22.645017,120.311233,1.9839065e-06
C0U870,大礁溪,2026-02-05,24.791042,121.675047,2.370104e-08
C0E870,高鐵苗栗,2026-02-05,24.60725,120.826094,3.6366277e-09
C0TA30,鹽寮,2026-02-05,23.845606,121.592664,4.0908635e-08
C0M860,新美,2026-02-05,23.338017,120.683169,1.7468311e-09
C1E701,八卦,2026-02-05,24.491756,120.927619,6.24458e-09
C2TA90,加納納,2026-02-05,23.466421,121.359867,1.9055804e-08
C0I420,國姓,2026-02-05,24.037803,120.855072,7.784022e-10
C2D720,關西工作站,2026-02-05,24.757275,121.184792,4.6376227e-09
C0S960,香蘭,2026-02-05,22.587569,120.993375,1.11719906e-07
467620,蘭嶼,2026-02-05,22.0369,121.55843,0.9996617
C0R260,春日,2026-02-05,22.370361,120.628306,1.0897774e-08
72G600,臺中農改場,2026-02-05,24.003028,120.534389,8.36087e-10
C0Z210,瑞穗,2026-02-05,23.5239,121.39021,2.6208353e-08
C0M820,達邦,2026-02-05,23.453994,120.749517,2.6222942e-09
C0V860,南寮,2026-02-05,22.7616,120.2339,2.425667e-07
C0G740,大城,2026-02-05,23.852487,120.320935,0.0002661478
C0R920,塭仔,2026-02-05,22.4169,120.5197,1.2733703e-06
C0R470,高樹,2026-02-05,22.826389,120.600806,1.704724e-08
C0R680,佳樂水,2026-02-05,21.993578,120.861633,0.999543
C1O870,大棟山,2026-02-05,23.31157,120.52226,2.9217113e-09
C0D360,梅花,2026-02-05,24.678347,121.208558,5.1420823e-09
C0Z190,富世,2026-02-05,24.14743,121.6297,3.818246e-07
C0AI10,屈尺,2026-02-05,24.92184,121.54475,1.35620075e-08
B2U990,畜試東區分所,2026-02-05,24.669039,121.832561,1.2135221e-08
C0SB80,長濱漁港,2026-02-05,23.313644,121.459994,8.383342e-09
C0TA50,和仁,2026-02-05,24.241394,121.712472,3.61284e-08
C0V910,大樹,2026-02-05,22.684645,120.432803,9.711467e-08
C1R610,西大武山,2026-02-05,22.617719,120.7322,1.7882126e-08
C0G900,線西,2026-02-05,24.143358,120.443536,5.052445e-09
C0M700,竹崎,2026-02-05,23.526178,120.555508,4.7525994e-10
C2E880,三義,2026-02-05,24.405478,120.749819,5.704003e-09
C0C720,竹圍,2026-02-05,25.112692,121.239824,4.021269e-08
C0F9P0,清水,2026-02-05,24.312297,120.562242,9.479264e-09
C0Z150,吉安光華,2026-02-05,23.930925,121.595153,4.5518302e-08
C0FA80,小雪山天池,2026-02-05,24.28025,121.02627,2.3806423e-08
467300,東吉島,2026-02-05,23.25727,119.66762,0.9953689
C1D640,外坪(五指山),2026-02-05,24.644447,121.090961,6.9079023e-09
C2R9A0,高士國小,2026-02-05,22.12553,120.84653,6.0578866e-05
C0F9O0,潭子,2026-02-05,24.213106,120.703933,1.8516173e-09
C2H9R0,卓社,2026-02-05,23.887894,121.000086,3.3129497e-09
72T250,花蓮農改場,2026-02-05,23.975222,121.563889,4.2510184e-08
C0E780,銅鑼,2026-02-05,24.489681,120.790853,4.6810262e-09
C1T950,太安,2026-02-05,23.666719,121.370128,3.0059606e-08
C0E830,苑裡,2026-02-05,24.439714,120.653053,1.0543987e-08
467270,田中,2026-02-05,23.873803,120.581286,6.491772e-10
C0SA10,檳榔四格山,2026-02-05,22.810031,121.109308,1.23072e-08
C1T830,布洛灣,2026-02-05,24.17184,121.57127,3.4474132e-07
C0F970,大坑,2026-02-05,24.173142,120.722289,1.2548615e-09
C1U920,思源,2026-02-05,24.393125,121.347214,2.0968182e-08
C2H9Y0,松茗,2026-02-05,23.8167,120.650765,5.5669913e-10
C0A931,三和,2026-02-05,25.233153,121.595236,2.923926e-08
C0I010,廬山,2026-02-05,24.033311,121.181808,6.8308617e-09
C2M940,日野賀,2026-02-05,23.434056,120.727169,3.652505e-09
C0R860,鼻頭,2026-02-05,22.1043,120.8979,0.9992067
C0UB20,壯圍,2026-02-05,24.7359,121.8163,1.035487e-08
C0R790,九棚,2026-02-05,22.14195,120.889281,3.298799e-05
C0W110,東莒,2026-02-05,25.9652,119.98069,5.7763198e-05
C1U930,粉鳥林,2026-02-05,24.497088,121.842479,3.9484355e-08
C1I211,蘆竹湳,2026-02-05,23.934019,120.811994,1.1065859e-09
C0S830,長濱,2026-02-05,23.286817,121.411975,3.4250924e-08
C1F9F1,伯公龍,2026-02-05,24.272392,120.849047,2.0054736e-09
C0UB90,太平山莊,2026-02-05,24.494171,121.536209,3.1683815e-08
C0E810,西湖,2026-02-05,24.562947,120.7485,1.279268e-08
C1I440,新高口,2026-02-05,23.478744,120.878939,1.5988487e-08
C0O840,王爺宮,2026-02-05,23.222064,120.40085,1.1725925e-09
C0T9G0,鳳林山,2026-02-05,23.735269,121.420131,8.16385e-08
C0X080,佳里,2026-02-05,23.173039,120.145086,1.1171325e-08
C0FB70,大甲溪埔,2026-02-05,24.370625,120.620067,1.1756611e-08
C0Z310,清水斷崖,2026-02-05,24.218294,121.689142,3.009902e-08
C0M680,太保,2026-02-05,23.455062,120.331455,2.6310014e-09
C1S820,金峰,2026-02-05,22.590969,120.933236,4.3181434e-08
C0AD10,八里,2026-02-05,25.150211,121.403947,6.213348e-08
C2K240,草嶺,2026-02-05,23.59555,120.693461,3.628383e-09
C1SA70,都蘭,2026-02-05,22.87794,121.226881,1.7001843e-08
C0K440,二崙,2026-02-05,23.772797,120.408944,8.335982e-10
C1A760,坪林交控,2026-02-05,24.94284,121.713442,2.5501183e-08
C0F9N0,大里,2026-02-05,24.092464,120.701378,8.623081e-10
C0SA90,達仁林場,2026-02-05,22.264347,120.823972,1.3500537e-07
C1R290,石門山,2026-02-05,22.112611,120.756597,0.95189327
42HA10,萬大發電廠,2026-02-05,23.978875,121.139639,2.4589155e-09
C0R890,山海,2026-02-05,21.9878,120.7091,0.99270064
C0T9A0,月眉山,2026-02-05,23.809928,121.539828,2.1763281e-08
C0AC70,信義,2026-02-05,25.037822,121.564597,1.41466545e-08
C0K560,棋山,2026-02-05,23.68645,120.603417,3.8279363e-10
C2FB50,出雲,2026-02-05,24.206469,120.902794,4.190446e-09
C1Z240,中平林道,2026-02-05,23.42115,121.26763,5.366344e-08
U2H480,溪頭,2026-02-05,23.670306,120.798194,3.0063316e-09
C0M880,好美里,2026-02-05,23.3364,120.138,8.036603e-09
C0T9E0,大坑,2026-02-05,23.880628,121.581981,2.9828183e-08
C0K530,臺西,2026-02-05,23.701547,120.197559,6.831802e-08
C1E900,國一N128K,2026-02-05,24.560997,120.844186,4.1762114e-09
C0AJ50,水湳洞,2026-02-05,25.123695,121.862238,2.1819641e-08
C0AI20,白沙灣,2026-02-05,25.283128,121.519058,1.6974698e-07
C2V310,美濃,2026-02-05,22.898792,120.51907,5.445726e-09
C0A860,大坪,2026-02-05,25.165914,121.632969,1.42097445e-08
C1U850,觀音海岸,2026-02-05,24.38319,121.77856,1.8285217e-08
C2K610,草嶺石壁,2026-02-05,23.602469,120.707731,3.737496e-09
C0U950,鶯子嶺,2026-02-05,24.89754,121.79244,3.323388e-08
C0O900,善化,2026-02-05,23.112883,120.297219,2.851823e-07
C0K550,蔦松,2026-02-05,23.514319,120.229736,4.0176023e-09
E2P980,林試六龜中心,2026-02-05,22.991703,120.645722,1.1567097e-09
C0E590,通霄,2026-02-05,24.471892,120.704622,7.3180836e-08
C1I310,西巒,2026-02-05,23.754486,120.883956,3.377551e-09
C0A550,泰平,2026-02-05,24.971197,121.823711,2.8112364e-08
C0I360,水里,2026-02-05,23.812553,120.849792,5.786227e-10
C0R830,高士,2026-02-05,22.121825,120.836781,0.8236203
C1I101,溪頭,2026-02-05,23.661789,120.807647,8.752817e-09
C0AJ20,野柳,2026-02-05,25.20703,121.690021,3.9786975e-08
C0B060,暖暖,2026-02-05,25.0957,121.7403,1.4274778e-08
C1H920,長豐,2026-02-05,24.102039,120.879897,1.4784387e-09
C2S9B0,利吉,2026-02-05,22.86246,121.15486,1.2246062e-08
C0V360,內門,2026-02-05,22.975481,120.466769,3.1296639e-09
C0R850,林邊,2026-02-05,22.4634,120.5339,1.4717863e-06
C0E930,龍鳳,2026-02-05,24.700034,120.859125,7.1514483e-09
C0U910,冬山,2026-02-05,24.63373,121.7937,1.2135221e-08
C1E721,泰安,2026-02-05,24.489017,120.968036,1.0337485e-08
82H320,茶改中部分場,2026-02-05,23.875611,120.913583,1.5461313e-09
C0M750,布袋,2026-02-05,23.380878,120.167789,5.8960783e-09
C1S860,利嘉,2026-02-05,22.809417,121.050528,1.7884787e-08
E2S980,林試太麻里1,2026-02-05,22.598922,120.980044,7.016033e-08
C0X170,關廟,2026-02-05,22.963017,120.327797,7.671495e-08
C0V720,林園,2026-02-05,22.507747,120.394511,1.1198573e-07
C1I510,線浸林道,2026-02-05,23.761508,120.832956,3.2718492e-09
C0D690,外湖,2026-02-05,24.917735,120.968711,1.9285155e-06
C0C750,新興坑尾,2026-02-05,25.0061,121.0971,4.8407422e-08
B2Q810,畜試南區分所,2026-02-05,21.945583,120.802167,0.999543
C0S790,金崙,2026-02-05,22.538122,120.966875,7.255319e-08
C0AH90,福山植物園,2026-02-05,24.760717,121.58135,3.0579017e-08
C0I540,奇萊稜線,2026-02-05,24.109231,121.326456,3.2795235e-08
C0M850,表湖,2026-02-05,23.24186,120.64166,1.4433096e-09
C0S770,大溪山,2026-02-05,22.478475,120.943325,3.5810206e-08
C0AG80,中和,2026-02-05,24.991622,121.491792,1.4178475e-08
C0T790,大禹嶺,2026-02-05,24.186117,121.316086,2.0107294e-08
C0T9B0,水源,2026-02-05,23.991861,121.537169,3.484954e-08
C0R840,牡丹池山,2026-02-05,22.168389,120.841225,1.532086e-07
C1I131,桶頭,2026-02-05,23.641944,120.654117,5.251505e-10
CAL110,布袋國中,2026-02-05,23.35893,120.18026,8.0525915e-09
C2M9D0,何竹子腳,2026-02-05,23.53641,120.38203,2.0453166e-09
C0Z290,赤柯山,2026-02-05,23.36893,121.38293,3.2652242e-08
C0X280,將軍,2026-02-05,23.214999,120.13577,9.437716e-09
C0S690,太麻里,2026-02-05,22.60902,120.98533,1.9883236e-08
C0U880,北關,2026-02-05,24.9072,121.8734,3.405537e-08
CAW010,東引,2026-02-05,26.3588,120.4836,0.00017132045
C0G810,埔心,2026-02-05,23.947633,120.525456,1.084866e-09
C0U970,大福,2026-02-05,24.80064,121.81389,1.0541071e-08
C2H9N0,仁愛東眼,2026-02-05,24.026875,121.1205,4.4081325e-09
C1E670,南礦,2026-02-05,24.538278,121.002836,1.0416814e-08
C0M520,東後寮,2026-02-05,23.369908,120.248065,6.1110805e-09
C1E461,松安,2026-02-05,24.397972,120.986022,8.292899e-09
C2N160,西拉雅風管處,2026-02-05,23.189481,120.335297,6.020768e-09
C2M970,碧湖,2026-02-05,23.568632,120.624165,2.5261684e-09
C0A640,石碇,2026-02-05,24.993969,121.662917,2.5501183e-08
E2S960,林試太麻里2,2026-02-05,22.598,120.99775,1.16950105e-07
C0F9Y0,桃山,2026-02-05,24.432739,121.303808,3.0896484e-08
C1I020,萬大,2026-02-05,23.979817,121.132261,3.0213119e-09
C2UC20,長嶺,2026-02-05,24.70894,121.61162,2.4000645e-08
C0U940,羅東,2026-02-05,24.68184,121.74934,1.18452945e-08
C0M650,朴子,2026-02-05,23.43463,120.23902,3.248791e-09
C1I500,大尖山,2026-02-05,23.858572,120.994889,8.944334e-09
C0FB40,中橫21.6k,2026-02-05,24.2499,121.1455,6.641567e-09
C0G820,田尾,2026-02-05,23.901669,120.509389,1.0652411e-09
E2K600,四湖植物園,2026-02-05,23.676986,120.163433,3.9445364e-08
C0S730,綠島,2026-02-05,22.6672,121.47533,2.1580065e-05
12Q970,東港工作站,2026-02-05,22.479997,120.466058,1.4717863e-06
C1TA00,太魯閣,2026-02-05,24.15773,121.6236,2.956715e-07
466920,臺北,2026-02-05,25.037658,121.514853,1.4560126e-08
C0R600,舊泰武,2026-02-05,22.588194,120.664944,3.0321479e-09
C1I260,北坑,2026-02-05,23.9246,121.006903,1.0574495e-09
466910,鞍部,2026-02-05,25.182586,121.529731,2.6946848e-08
C1I230,九份二山,2026-02-05,23.961944,120.845,1.6713999e-09
C2M810,里佳,2026-02-05,23.389125,120.716647,4.801347e-09
C2A660,瑞芳,2026-02-05,25.113169,121.801147,1.4414615e-08
C0R270,琉球嶼,2026-02-05,22.332244,120.362236,5.415852e-09
C2V580,瑞山,2026-02-05,22.90304,120.43424,3.393164e-09
C1T990,高寮,2026-02-05,23.394239,121.356808,4.0241233e-08
C0G620,芬園,2026-02-05,24.015678,120.6213,6.1621214e-10
C1Z140,荖溪,2026-02-05,23.890575,121.45964,6.271116e-08
C1I201,中心崙,2026-02-05,23.728722,120.712097,7.7230927e-10
C1I400,凌霄,2026-02-05,24.018778,121.004456,4.481968e-09
C1M640,十字,2026-02-05,23.492153,120.753683,7.281254e-09
G2P820,農試鳳山分所,2026-02-05,22.646611,120.356083,1.3494036e-07
C0Z270,蕃薯寮,2026-02-05,23.73835,121.540108,2.8462141e-08
C2E420,竹南,2026-02-05,24.70898,120.88897,6.6399837e-09
C0FB10,出雲山苗圃,2026-02-05,24.23105,120.90475,3.5453254e-09
C0F9Q0,外埔,2026-02-05,24.347817,120.705686,4.793551e-09
C0K580,高鐵雲林,2026-02-05,23.737456,120.417944,8.42299e-10
C2I090,鳳凰,2026-02-05,23.728081,120.787347,1.5504045e-09
C0U990,員山,2026-02-05,24.74435,121.72247,1.1904069e-08
C0V770,大社,2026-02-05,22.730306,120.346639,7.4004504e-08
C0X120,麻豆,2026-02-05,23.183289,120.248611,8.17293e-09
C0C670,龍潭,2026-02-05,24.870056,121.221389,6.350423e-09
C0D680,香山濕地,2026-02-05,24.783581,120.914988,1.9285155e-06
C0S980,勝林山,2026-02-05,22.430439,120.8938,2.770943e-08
C0V730,大寮,2026-02-05,22.605614,120.395717,2.6277763e-07
C0R570,麟洛,2026-02-05,22.65078,120.52719,3.3732303e-07
C2M930,石卓,2026-02-05,23.478744,120.702264,7.1533717e-09
C0G9B0,和美,2026-02-05,24.105169,120.492131,1.7601086e-09
CAG100,王功漁港,2026-02-05,23.96824,120.32586,0.00058849994
C0X290,北門,2026-02-05,23.267772,120.125481,1.008087e-08
C2F930,大甲,2026-02-05,24.347667,120.640403,1.1426783e-08
C0D650,湖口,2026-02-05,24.904794,121.043628,2.5618968e-08
C0U780,五結,2026-02-05,24.68637,121.79794,1.2135221e-08
C1I250,鯉潭,2026-02-05,23.961922,120.991131,1.2052359e-09
C0R130,阿禮,2026-02-05,22.742908,120.743678,2.8057925e-09
C0X100,臺南市北區,2026-02-05,23.010394,120.194228,3.4278347e-07
C0S920,金峰嘉蘭,2026-02-05,22.594789,120.960825,6.685979e-08
C0V490,新興,2026-02-05,22.627422,120.298803,3.5027147e-06
C0F9K0,大安,2026-02-05,24.345061,120.588025,1.1756611e-08
467290,古坑,2026-02-05,23.633639,120.551889,3.7243006e-10
C2E970,八甲,2026-02-05,24.535811,120.795983,3.809424e-09
C0V440,鳳山,2026-02-05,22.646653,120.356122,1.3494036e-07
C1T940,大觀,2026-02-05,23.714206,121.373133,3.1458665e-08
C0E740,造橋,2026-02-05,24.637056,120.864778,3.645983e-09
C0R100,尾寮山,2026-02-05,22.833111,120.683889,2.977837e-09
A2K630,臺大雲林校區,2026-02-05,23.730628,120.423903,8.323415e-10
467990,馬祖,2026-02-05,26.169467,119.923158,7.7892923e-07
C0D580,寶山,2026-02-05,24.735006,121.025192,5.2879527e-09
E2P990,林試扇平站,2026-02-05,22.9677,120.6857,1.8410209e-09
C0AI30,三重,2026-02-05,25.057328,121.500629,1.4689977e-08
C0AH00,汐止,2026-02-05,25.066881,121.658778,1.4792885e-08
C1Z040,立山,2026-02-05,23.443356,121.327375,5.557438e-08
466881,新北,2026-02-05,24.959207,121.525196,1.3829309e-08
C0W130,花嶼,2026-02-05,23.40007,119.32276,0.99410963
C0A950,鼻頭角,2026-02-05,25.129036,121.923372,2.1459615e-08
C0K470,林內,2026-02-05,23.748675,120.609642,3.8628853e-10
C2F990,摩天嶺,2026-02-05,24.322458,120.936819,3.69637e-09
C2E430,南庄,2026-02-05,24.601775,121.000214,5.3633435e-09
82C160,茶改場,2026-02-05,24.908472,121.185333,1.20951515e-08
C2TB60,南安,2026-02-05,23.29818,121.26157,3.844528e-08
C0Z320,清水林道,2026-02-05,23.27125,121.188272,4.0228493e-08
C0R760,南仁湖,2026-02-05,22.084681,120.863353,0.95189327
C0M670,大林,2026-02-05,23.600616,120.45841,1.3297076e-09
C0M800,茶山,2026-02-05,23.299075,120.664767,8.8669744e-10
C0A9C0,天母,2026-02-05,25.117494,121.537169,1.4087041e-08
72K220,南改斗南分場,2026-02-05,23.634556,120.477333,7.179462e-10
72AI40,桃改樹林分場,2026-02-05,24.944503,121.386972,1.0257801e-08
C0S910,蘭嶼燈塔,2026-02-05,22.081197,121.503117,0.9903471
C0B050,八斗子,2026-02-05,25.144754,121.79167,1.5448588e-08
C0U900,內城,2026-02-05,24.71813,121.68766,1.1504396e-08
C0X320,柳營,2026-02-05,23.253328,120.375253,1.91544e-09
C0M790,新港,2026-02-05,23.553269,120.345728,3.1555218e-09
C0F9T0,西屯,2026-02-05,24.179494,120.641275,2.1614142e-09
C0E950,松安,2026-02-05,24.39792,120.98599,8.292899e-09
C0SA30,都歷,2026-02-05,23.020333,121.323642,3.75944e-08
C0C620,蘆竹,2026-02-05,25.084275,121.265767,3.3054974e-08
C0R730,大坪頂,2026-02-05,22.024633,120.69355,0.9984686
C0AJ40,石門,2026-02-05,25.273672,121.601198,8.634314e-08
C0E750,苗栗,2026-02-05,24.564569,120.824575,4.2352672e-09
C0T870,鯉魚潭,2026-02-05,23.935639,121.508944,3.2760788e-08
C1V170,排雲,2026-02-05,23.463619,120.954147,3.345942e-08
C2H950,中寮,2026-02-05,23.884447,120.766406,7.30703e-10
C0R350,貓鼻頭,2026-02-05,21.921774,120.7358,0.99419636
C0V660,岡山,2026-02-05,22.797078,120.294958,1.4649567e-07
C1H941,雙冬,2026-02-05,23.967378,120.802189,1.1875942e-09
C0AJ70,田寮,2026-02-05,25.2698,121.4886,1.7150468e-07
C0AI00,五股,2026-02-05,25.07445,121.42728,1.2751681e-08
C0Z280,德武,2026-02-05,23.47426,121.41071,1.9823633e-08
C2RA10,大新,2026-02-05,22.67558,120.57788,3.497913e-08
C0R700,枋山,2026-02-05,22.246844,120.661086,0.39640698
C0C460,復興,2026-02-05,24.820208,121.352281,7.951569e-09
C2K300,鹿南,2026-02-05,23.63855,120.3636,2.583649e-09
E2H360,蓮華池,2026-02-05,23.918333,120.885278,1.1833907e-09
C0M640,中埔,2026-02-05,23.42538,120.5229,5.5910726e-10
C0W140,金沙,2026-02-05,24.488292,118.408778,2.031124e-08
C2A540,四堵,2026-02-05,24.8926,121.745736,3.3395533e-08
C0ACA0,新莊,2026-02-05,25.051478,121.446756,1.4182424e-08
C0R220,潮州,2026-02-05,22.534361,120.54,5.503231e-08
U2HA40,臺大內茅埔,2026-02-05,23.689722,120.851117,8.711857e-10
467490,臺中,2026-02-05,24.145736,120.684075,1.3447942e-09
C0UB60,明池,2026-02-05,24.650688,121.475277,2.588494e-08
C0U960,翠峰湖,2026-02-05,24.510856,121.608044,3.0833846e-08
E2HA20,林試畢祿溪站,2026-02-05,24.226944,121.308522,1.227986e-08
C2M9A0,大華,2026-02-05,23.4824,120.67491,2.9508898e-09
C0V890,前鎮,2026-02-05,22.5718,120.3117,4.5355978e-07
C1F941,雪嶺,2026-02-05,24.280586,121.026642,2.3806423e-08
C2H9E0,國姓南港,2026-02-05,23.911108,120.846556,2.5330438e-09
C0AC80,文山,2026-02-05,25.00235,121.575728,1.9487096e-08
C0F9R0,龍井,2026-02-05,24.184536,120.528972,6.546548e-09
C0M760,民雄,2026-02-05,23.551754,120.428457,1.3297076e-09
C0UA40,西德山,2026-02-05,24.560647,121.752608,3.756788e-08
C2TA70,赤科坪,2026-02-05,23.39885,121.39168,3.7542808e-08
C1T920,中興,2026-02-05,23.769503,121.498653,3.6428986e-08
C0D550,雪霸,2026-02-05,24.526972,121.11605,1.3544791e-08
C2F860,梨山,2026-02-05,24.247522,121.243669,1.6404899e-08
C0R320,車城,2026-02-05,22.0744,120.716247,0.9976584
C1S870,南美山,2026-02-05,23.15025,121.382333,2.194971e-08
C0B020,基隆嶼,2026-02-05,25.19141,121.78391,1.5351743e-08
C1U501,牛鬥,2026-02-05,24.637836,121.573656,2.7331707e-08
C0M730,嘉義市東區,2026-02-05,23.457673,120.460531,7.067171e-10
C2R990,泰武,2026-02-05,22.60686,120.69765,7.1053163e-09
C0S700,知本,2026-02-05,22.684866,121.005642,1.6178898e-08
C1N001,沙崙,2026-02-05,22.935472,120.309406,8.38349e-08
C0V760,橋頭,2026-02-05,22.757806,120.30575,8.5016026e-08
C0G960,福寶,2026-02-05,24.0443,120.3814,2.3160298e-09
C0X210,白河,2026-02-05,23.347466,120.414427,1.0698857e-09
C0S810,東河,2026-02-05,22.972672,121.303986,4.3151957e-08
C2R170,屏東,2026-02-05,22.66027,120.49403,4.6452425e-07
C0R670,楓港,2026-02-05,22.190131,120.692156,0.97055346
C0FA50,霧峰,2026-02-05,24.0419,120.6995,8.071378e-10
C0UB10,蘇澳,2026-02-05,24.5969,121.8571,1.881186e-08
C0G950,防潮門,2026-02-05,24.1835,120.4871,5.012878e-09
C0M740,六腳,2026-02-05,23.492871,120.290625,3.4823076e-09
C1R250,力里,2026-02-05,22.428117,120.629228,6.230244e-09
C0K330,虎尾,2026-02-05,23.719183,120.442036,8.323415e-10
C2FA00,烏石坑,2026-02-05,24.273503,120.947617,3.659157e-09
C0V620,永安,2026-02-05,22.82315,120.236856,1.8991638e-07
C1I330,楓樹林,2026-02-05,23.986803,121.076117,3.0745209e-09
C0W200,湖西,2026-02-05,23.596314,119.67275,0.99237835
72Q010,高雄農改場,2026-02-05,22.709333,120.525889,1.6902086e-07
C0SA40,瑞和,2026-02-05,22.974361,121.156697,9.83509e-09
C0C680,龜山,2026-02-05,25.02846,121.38656,9.624593e-09
C2V260,月眉,2026-02-05,22.971003,120.539853,2.4807358e-09
C0V450,鳳森,2026-02-05,22.545064,120.392592,2.4359823e-08
C0FA90,小雪山林道,2026-02-05,24.29515,121.03651,2.9269e-08
C0U720,南山,2026-02-05,24.43742,121.38167,1.8991761e-08
A2N290,臺南蘭花園區,2026-02-05,23.340258,120.379661,1.3347922e-09
C0R560,新園,2026-02-05,22.5434,120.461558,1.1198573e-07
C0U890,三星,2026-02-05,24.66812,121.65302,1.1356126e-08
C1V300,御油山,2026-02-05,23.001983,120.715364,7.7059985e-09
C0U600,礁溪,2026-02-05,24.817539,121.765608,1.0407897e-08
C1T980,龍澗,2026-02-05,24.023289,121.411328,5.61371e-08
C0D670,海天一線,2026-02-05,24.831986,120.914438,1.4454531e-06
C0SA00,歷坵,2026-02-05,22.520969,120.89185,3.0935993e-08
C0M710,東石,2026-02-05,23.458927,120.15385,5.8812186e-09
C0M780,鹿草,2026-02-05,23.41134,120.30835,3.0956693e-09
C0U520,雙連埤,2026-02-05,24.753033,121.641303,2.3146841e-08
C0B010,七堵,2026-02-05,25.094819,121.71713,1.5182183e-08
C0R480,長治,2026-02-05,22.693128,120.542622,4.545982e-08
C1V830,國三S383K,2026-02-05,22.781967,120.426475,1.1901186e-08
12Q980,恆春工作站,2026-02-05,22.079678,120.714425,0.9976929
C1O940,東山服務區,2026-02-05,23.286016,120.398472,1.3092547e-09
C1U840,東澳嶺,2026-02-05,24.5378,121.8485,3.8031168e-08
C1D630,飛鳳山,2026-02-05,24.766464,121.119178,4.9954685e-09
C0S940,石寧山,2026-02-05,23.223772,121.406639,1.10541345e-08
C0K410,北港,2026-02-05,23.573957,120.292802,3.4105534e-09
C2M620,瑞里,2026-02-05,23.545133,120.675197,3.9918837e-09
C0SB70,小港漁港,2026-02-05,23.158558,121.400431,1.2514561e-08
C2O950,安南,2026-02-05,23.076694,120.144861,4.4225735e-07
C0F0E0,南湖圈谷,2026-02-05,24.363714,121.444667,3.645088e-08
467610,成功,2026-02-05,23.097486,121.373428,3.9673836e-08
C0G890,伸港,2026-02-05,24.148933,120.484403,5.012878e-09
C2E540,龍溪,2026-02-05,24.606489,120.783933,4.395463e-09
C1V200,梅山,2026-02-05,23.268447,120.823556,2.0372959e-09
C0T9H0,加路蘭山,2026-02-05,23.682947,121.5274,2.8795283e-08
C2O930,玉井,2026-02-05,23.126042,120.46055,7.681063e-10
C1F911,新伯公,2026-02-05,24.221361,120.841069,1.7035626e-09
C0R490,九如,2026-02-05,22.7405,120.490503,2.0504487e-07
C0X200,左鎮,2026-02-05,23.056758,120.408522,5.8438263e-09
C2TB50,麻汝,2026-02-05,23.42554,121.39358,1.8499133e-08
C0FA60,鞍馬山工作站,2026-02-05,24.267064,121.000793,1.7422037e-08
C0SB50,叭嗡嗡,2026-02-05,23.047062,121.343223,4.511018e-08
C1F891,稍來,2026-02-05,24.265689,121.001142,1.6952463e-08
C2M9C0,紫雲,2026-02-05,23.494914,120.540253,4.959239e-10
72N240,七股研究中心,2026-02-05,23.081672,120.062894,6.846732e-07
C0C700,中壢,2026-02-05,24.977661,121.256375,2.2046759e-08
C0M690,水上,2026-02-05,23.419734,120.388909,1.4692968e-09
C0V690,鼓山,2026-02-05,22.623325,120.275575,5.5219903e-06
C0O860,大內,2026-02-05,23.11885,120.36083,9.629884e-08
C0Z200,萬榮,2026-02-05,23.709219,121.420106,3.6913768e-08
C0T9D0,和中,2026-02-05,24.26676,121.74103,3.703867e-08
C2S9A0,北份子寮,2026-02-05,22.78561,121.07813,1.3228055e-07
C1O921,楠西,2026-02-05,23.183511,120.484083,7.2507195e-10
C0AJ30,淡水觀海,2026-02-05,25.184591,121.408616,6.442966e-08
C0V810,左營,2026-02-05,22.67491,120.28491,1.9839065e-06
C0UA70,桃源谷,2026-02-05,24.962606,121.888875,2.3667882e-08
C0X130,官田,2026-02-05,23.193217,120.315422,6.2447465e-09
C1H000,翠峰,2026-02-05,24.109397,121.205211,1.5269858e-08
C0UA90,石城,2026-02-05,24.980444,121.951214,2.179427e-08
C1E681,南勢山,2026-02-05,24.421669,120.923831,5.320875e-09
C0A9F0,內湖,2026-02-05,25.079422,121.57545,1.41466545e-08
C0K291,宜梧,2026-02-05,23.536281,120.169329,1.9386098e-07
C1K540,口湖,2026-02-05,23.585344,120.180517,2.0744129e-07
C0R780,滿州,2026-02-05,22.024403,120.839892,0.99955446
C0V870,文安,2026-02-05,22.8025,120.2164,2.0578183e-07
C0U650,玉蘭,2026-02-05,24.675286,121.587061,2.3875815e-08
C0R640,東港,2026-02-05,22.46247,120.44074,1.13557505e-07
C0AJ80,板橋,2026-02-05,25.0107,121.4489,1.4352996e-08
C0S660,下馬,2026-02-05,23.150427,121.070312,3.5189387e-08
C2N190,烏樹,2026-02-05,23.32393,120.36989,2.1974078e-09
C1H9B1,阿眉,2026-02-05,24.1263,120.994672,9.7236414e-09
C0UA20,多加屯,2026-02-05,24.368614,121.373189,1.7832841e-08
C0E730,頭份,2026-02-05,24.688247,120.912206,6.757811e-09
72V140,高改旗南分場,2026-02-05,22.857861,120.516667,3.2180306e-08
C0K480,莿桐,2026-02-05,23.761192,120.502372,5.8635974e-10
C0U980,坪林石牌,2026-02-05,24.86478,121.77396,3.3844014e-08
C0T900,西林,2026-02-05,23.8119,121.441458,2.9142882e-08
C1I150,青雲,2026-02-05,23.793361,120.949378,7.553287e-10
C2E980,和興,2026-02-05,24.505319,120.923016,5.1444364e-09
467350,澎湖,2026-02-05,23.565503,119.563094,0.98909295
C0G800,埔鹽,2026-02-05,24.000394,120.431683,2.2460793e-09
C0H960,草屯,2026-02-05,23.973672,120.68085,8.7361673e-10
C1V780,多納林道,2026-02-05,22.888028,120.737917,4.039871e-09
C0E920,通霄漁港,2026-02-05,24.498589,120.673876,8.5483016e-08
C0Z330,安通山,2026-02-05,23.290728,121.348528,2.409504e-08
C0AH10,永和,2026-02-05,25.01125,121.508111,1.4352996e-08
C0AK10,太平里,2026-02-05,25.134937,121.364899,5.525908e-08
C2G640,鹿港,2026-02-05,24.0753,120.430481,1.7669873e-09
C1E890,國三N149K,2026-02-05,24.463414,120.680019,6.965924e-08
C1R110,口社,2026-02-05,22.770111,120.645222,8.33287e-09
C1M870,國三N285K,2026-02-05,23.550319,120.505833,4.838273e-10
C1E480,鳳美,2026-02-05,24.554803,121.034747,5.4893063e-09
C0T9M0,靜浦,2026-02-05,23.455167,121.495028,2.8744084e-08
C2H9M0,發祥,2026-02-05,24.154094,121.164517,5.176534e-09
C2G9C0,埔南,2026-02-05,23.99124,120.46969,2.2460793e-09
C0AI40,石牌,2026-02-05,25.115597,121.513139,1.41466545e-08
C1F871,上谷關,2026-02-05,24.203483,121.018644,3.6750765e-09
C2H9G0,百勝,2026-02-05,24.051142,120.909361,1.0668901e-09
C0G880,二水,2026-02-05,23.810742,120.6173,4.0995293e-10
C0R940,加祿堂,2026-02-05,22.3363,120.6217,0.024599332
C0W220,北竿,2026-02-05,26.220358,119.974881,3.3130166e-06
C0O960,崎頂,2026-02-05,22.959547,120.369317,2.6001075e-08
C0TA40,秀林,2026-02-05,24.302864,121.731144,3.940889e-08
C0S750,向陽,2026-02-05,23.248397,120.986133,1.7823115e-08
C0T9F0,水璉,2026-02-05,23.797131,121.542514,2.5638277e-08
C1M600,頭凍,2026-02-05,23.406364,120.603339,2.0910023e-09
467660,臺東,2026-02-05,22.752211,121.154586,1.3653976e-06
C1D380,新埔,2026-02-05,24.84745,121.03834,9.808919e-09
C2G980,田頭村,2026-02-05,23.8263,120.444175,8.335982e-10
C0V750,路竹,2026-02-05,22.854997,120.259439,1.2608342e-07
C0N050,蚵寮,2026-02-05,23.301,120.1104,1.008087e-08
C2X060,下營,2026-02-05,23.226806,120.256291,6.8221118e-09
72M700,南改鹿草分場,2026-02-05,23.416869,120.283061,3.248791e-09
C1SA50,利嘉林道,2026-02-05,22.82325,121.009389,2.9421914e-08
C0UB70,太平山中間站,2026-02-05,24.542003,121.513453,2.033702e-08
C0A940,金山,2026-02-05,25.223628,121.643967,4.1160497e-08
C1V340,大津,2026-02-05,22.888322,120.645986,1.1109726e-08
C0W180,七美,2026-02-05,23.219333,119.444892,0.9965182
C1F9C1,白冷,2026-02-05,24.182844,120.929889,1.9052706e-09
K2E710,苗改生物防治研究中心,2026-02-05,24.422861,120.871833,3.5676497e-09
C0N040,蘆竹溝,2026-02-05,23.2344,120.0961,1.008087e-08
C0TB40,崇德,2026-02-05,24.166144,121.657414,3.9538278e-07
C0D760,大坪苗圃,2026-02-05,24.5362,121.1108,1.1900595e-08
C2W230,畜試所澎湖,2026-02-05,23.628342,119.513206,0.9912945
C0R880,後壁湖,2026-02-05,21.9457,120.7457,0.9921106
C1I280,埔中,2026-02-05,23.820778,120.642594,5.61272e-10
467790,墾丁雷達站,2026-02-05,21.948235,120.808028,0.9996255
C0W190,望安,2026-02-05,23.380564,119.494075,0.9945919
C0Z170,卓溪,2026-02-05,23.3443,121.3029,3.179175e-08
C0F850,東勢,2026-02-05,24.246428,120.833047,1.6345734e-09
466900,淡水,2026-02-05,25.164889,121.448906,4.728327e-08
C0I370,魚池,2026-02-05,23.895703,120.94135,1.2870993e-09
C0C630,大溪,2026-02-05,24.882853,121.265547,1.0822273e-08
C0A520,山佳,2026-02-05,24.974944,121.402008,1.0145045e-08
C0I110,竹山,2026-02-05,23.761225,120.688156,6.139467e-10
82H840,茶改南部分場,2026-02-05,23.762528,120.7405,5.164608e-10
C2SD80,再來山,2026-02-05,23.34371,121.44122,7.593651e-09
C0G660,溪湖,2026-02-05,23.94835,120.479122,1.0860253e-09
C1T800,洛韶,2026-02-05,24.204558,121.453956,6.157228e-08
C1T810,慈恩,2026-02-05,24.192044,121.388386,1.623327e-08
C1E451,象鼻,2026-02-05,24.368617,120.940228,3.9148755e-09
C0AC60,三峽,2026-02-05,24.939025,121.369728,1.7157529e-08
C0I490,萬大林道,2026-02-05,23.928228,121.091411,5.1858233e-09
C1I290,豐丘,2026-02-05,23.668178,120.887417,4.7100976e-09
C1I320,奧萬大,2026-02-05,23.952956,121.178556,3.516803e-09
C2M910,嘉義大學,2026-02-05,23.471325,120.485903,6.5530537e-10
C0U770,南澳,2026-02-05,24.44935,121.81022,3.940062e-08
C2TB30,吉安,2026-02-05,23.94538,121.54803,3.7927144e-08
C0A980,社子,2026-02-05,25.109508,121.469681,1.899303e-08
C0V800,六龜,2026-02-05,22.997889,120.633583,1.1987547e-09
C1G9D0,國一S218K,2026-02-05,23.890641,120.493253,1.4368493e-09
C0E570,白沙屯,2026-02-05,24.549447,120.696803,1.4068593e-08
C2F9A0,中竹林,2026-02-05,24.103556,120.751061,7.514847e-10
C0FA40,臺中電廠,2026-02-05,24.2146,120.4907,7.474539e-09
C2G9A0,畜試所彰化,2026-02-05,23.86045,120.557964,6.491772e-10
C0H9C0,合歡山,2026-02-05,24.143442,121.272547,3.16071e-08
G2M350,農試溪口農場,2026-02-05,23.58565,120.408111,1.4140523e-09
C0U860,頭城,2026-02-05,24.85323,121.8308,2.3027022e-08
C0R580,南州,2026-02-05,22.48591,120.50274,1.4717863e-06
C0D430,峨眉,2026-02-05,24.6905,121.017189,5.0464353e-09
C0G780,秀水,2026-02-05,24.03405,120.503869,8.36087e-10
72N100,臺南農改場,2026-02-05,23.0605,120.342194,1.7625057e-07
C0S900,蘭嶼高中,2026-02-05,22.04909,121.51214,0.9296777
C2TA60,六十石,2026-02-05,23.22477,121.31861,3.6160664e-08
C1F9W0,德基,2026-02-05,24.254783,121.190261,1.5647814e-08
C2M980,安和,2026-02-05,23.51377,120.31593,3.3220044e-09
C1Z120,壽豐,2026-02-05,23.870853,121.508081,3.85059e-08
C0W160,烏坵,2026-02-05,24.9944,119.44956,0.06975073
C1I240,外大坪,2026-02-05,23.958697,120.917931,1.3936491e-09
C1I550,國六W023K,2026-02-05,23.979067,120.867742,8.239808e-10
C0R870,興海,2026-02-05,21.9752,120.8439,0.999543
C0R140,瑪家,2026-02-05,22.682903,120.686639,1.9043622e-09
C0A530,坪林,2026-02-05,24.938183,121.70975,2.4388973e-08
C0X260,後壁,2026-02-05,23.366358,120.362326,4.6549835e-09
C0Z230,和平,2026-02-05,24.30717,121.77007,3.437724e-08
C0G770,福興,2026-02-05,24.041289,120.437669,2.2460793e-09
C0H9A0,神木村,2026-02-05,23.532742,120.843667,6.894542e-09
C0I460,南投,2026-02-05,23.911469,120.687331,8.9505753e-10
C0I480,梅峰,2026-02-05,24.085272,121.173572,1.14315135e-08
C1V570,吉東,2026-02-05,22.85422,120.5454,3.2959782e-08
C2A560,福山,2026-02-05,24.776203,121.502811,2.405344e-08
C0AH30,五分山,2026-02-05,25.07125,121.780794,2.8652126e-08
C0FA10,松柏,2026-02-05,24.429115,120.617482,1.1013685e-08
72S200,東改班鳩分場,2026-02-05,22.829528,121.077694,1.9648215e-08
72HA00,中改埔里分場,2026-02-05,23.903208,120.963364,1.2660866e-09
C2H9W0,大坪頂農水,2026-02-05,24.043122,120.932781,1.200267e-09
C0C650,平鎮,2026-02-05,24.897503,121.214636,7.752866e-09
C0S930,延平,2026-02-05,22.902581,121.084058,1.0340758e-08
C0UA60,樟樹山,2026-02-05,24.41393,121.78325,1.8610756e-08
C2UC10,出水溪,2026-02-05,24.615822,121.652253,2.7485246e-08
C1S670,摩天,2026-02-05,23.199503,121.027,2.974648e-08
C2C590,觀音,2026-02-05,25.027072,121.153317,7.122429e-08
C0V630,茄萣,2026-02-05,22.906642,120.182608,9.3753783e-07
466940,基隆,2026-02-05,25.133314,121.740475,1.5520179e-08
C0X050,東河,2026-02-05,23.296598,120.385608,1.3347922e-09
C0R770,保力,2026-02-05,22.071122,120.764111,0.998808
G2L020,農試嘉義分所,2026-02-05,23.485028,120.473806,6.4131556e-10
C0X240,關子嶺,2026-02-05,23.331169,120.508025,5.9515065e-10
C0I380,集集,2026-02-05,23.828206,120.801467,5.7506455e-10
466990,花蓮,2026-02-05,23.975128,121.613275,1.6697749e-07
C1V220,小關山,2026-02-05,23.154217,120.813603,7.775746e-09
C1F9G1,慶福山,2026-02-05,24.180853,120.848378,2.696982e-09
C0FB20,雪山橋,2026-02-05,24.23192,120.9786,1.5115235e-08
C0Z250,瑞穗林道,2026-02-05,23.49284,121.30688,5.362712e-08
C0D590,新豐,2026-02-05,24.87068,120.97721,6.148737e-07
C0A870,五指山,2026-02-05,25.132153,121.608692,1.929242e-08
C0UA50,西帽山,2026-02-05,24.555361,121.802628,3.7942627e-08
C2R980,竹田國中,2026-02-05,22.61532,120.52412,3.5366554e-08
C0X160,仁德,2026-02-05,22.968258,120.257689,5.3087285e-07
C1H971,六分寮,2026-02-05,23.92507,120.6378,8.551946e-10
C0W120,西嶼,2026-02-05,23.5626,119.468436,0.991052
C0G650,員林,2026-02-05,23.946503,120.585597,7.920036e-10
C0AD50,鶯歌,2026-02-05,24.951533,121.346294,1.31277105e-08
C2H9Q0,北東眼山,2026-02-05,24.120939,121.189303,1.262181e-08
C2H9T0,名間竹圍,2026-02-05,23.859914,120.637572,6.1628147e-10
C0S990,山豬窟,2026-02-05,22.318619,120.857372,2.6474643e-07
C0X190,安平,2026-02-05,22.993161,120.152181,3.812657e-07
C0K400,斗六,2026-02-05,23.720583,120.541127,5.815437e-10
12J990,口湖工作站,2026-02-05,23.589978,120.180394,2.0241438e-07
C0O830,北寮,2026-02-05,23.079561,120.495008,1.5466268e-09
C1D410,白蘭,2026-02-05,24.579364,121.079947,1.04824665e-08
C0S970,加津林,2026-02-05,22.416211,120.926942,1.7457365e-06
C0D700,關西,2026-02-05,24.7977,121.1732,4.5820716e-09
C0U750,龜山島,2026-02-05,24.841667,121.953133,2.8106681e-08
C0R810,內獅,2026-02-05,22.305064,120.642986,0.024599332
C1M390,龍美,2026-02-05,23.406728,120.654417,3.6141545e-09
C2K290,崙內,2026-02-05,23.69525,120.35601,2.583649e-09
C2FB60,頭櫃山,2026-02-05,24.129842,120.858925,2.9842393e-09
C1H840,國三N238K,2026-02-05,23.841008,120.707711,4.967646e-10
CAQ030,崎峰國小,2026-02-05,22.42565,120.49521,1.4717863e-06
C2E520,大湖,2026-02-05,24.414939,120.870872,3.5338417e-09
467530,阿里山,2026-02-05,23.508208,120.813242,1.7082392e-08
C1E691,南湖,2026-02-05,24.40135,120.837533,3.225883e-09
C0FA30,梧棲,2026-02-05,24.256003,120.523381,6.424557e-09
C1V231,高中,2026-02-05,23.134911,120.716711,1.4662089e-09
C0AK30,硬漢嶺,2026-02-05,25.136097,121.426372,2.0857135e-08
C0F9V0,新社,2026-02-05,24.200172,120.815806,1.9782829e-09
C0H890,埔里,2026-02-05,23.972169,120.952425,1.0871299e-09
C0R690,墾丁,2026-02-05,21.966756,120.810269,0.998003
C0SD20,富山,2026-02-05,22.822383,121.190825,2.4324073e-08
C0F0D0,審馬陣,2026-02-05,24.381675,121.4203,2.7489703e-08
C2W030,金門農試所,2026-02-05,24.448431,118.451786,2.2521081e-07
C0R820,白鷺,2026-02-05,22.454275,120.666219,4.5286024e-09
C0FB00,大雪山,2026-02-05,24.254668,121.007374,1.7541774e-08
C1V190,南天池,2026-02-05,23.27403,120.91176,1.8947077e-08
C0E940,雪見,2026-02-05,24.42595,121.01347,1.3700454e-08
K2E360,苗栗農改場,2026-02-05,24.495722,120.829111,4.699132e-09
CAJ050,海口故事園區,2026-02-05,23.57543,120.14121,2.0744129e-07
C2K280,四湖,2026-02-05,23.6304,120.22717,3.9445364e-08
C2H9D0,三隻寮,2026-02-05,24.093078,120.861578,1.4798748e-09
C0O990,媽廟,2026-02-05,22.99175,120.293525,2.7350933e-07
C0D480,打鐵坑,2026-02-05,24.849664,121.150789,7.894597e-09
C0Z220,和平林道,2026-02-05,24.343922,121.656317,1.6929262e-08
C0TA10,花蓮漁港,2026-02-05,23.995322,121.638331,2.5945985e-08
72C440,桃園農改場,2026-02-05,24.950944,121.030583,2.8962235e-08
C1E711,馬拉邦山,2026-02-05,24.367306,120.901656,3.6430565e-09
C0SB20,富岡,2026-02-05,22.792467,121.192669,1.843389e-07
C0D560,竹東,2026-02-05,24.767147,121.057881,5.7660907e-09
C0F9U0,南屯,2026-02-05,24.137006,120.637969,1.6786875e-09
C2SD60,明峰,2026-02-05,22.8671,121.11825,9.058937e-09
C0M720,番路,2026-02-05,23.464657,120.554156,4.1467615e-10
C0F0A0,雪山圈谷,2026-02-05,24.388594,121.236339,3.6333297e-08
C1A9N0,四十份,2026-02-05,24.934158,121.593283,2.2622853e-08
C0U760,東澳,2026-02-05,24.52196,121.83318,3.7991075e-08
C0X230,鹽水,2026-02-05,23.272621,120.247641,7.560239e-09
C2H9H0,苗改南投蜂場,2026-02-05,23.852589,120.693481,6.3270134e-10
C2TB70,達谷寮,2026-02-05,23.38,121.35968,3.480895e-08
C0R950,萬隆國小,2026-02-05,22.507667,120.587817,1.4992404e-08
467540,大武,2026-02-05,22.35572,120.90374,0.8598169
C0V370,古亭坑,2026-02-05,22.893178,120.401947,4.1450163e-09
C1I340,新興橋,2026-02-05,23.563333,120.868728,2.7026101e-09
C0SA80,土坂,2026-02-05,22.453108,120.887572,3.7329278e-07
C0R160,鹽埔,2026-02-05,22.739558,120.530778,1.6902086e-07
C0AC40,大屯山,2026-02-05,25.175675,121.522408,2.7975057e-08
466850,五分山雷達站,2026-02-05,25.071182,121.781205,2.8677823e-08
C2H9L0,馬烈霸,2026-02-05,24.1512,121.201772,1.4323133e-08
C1AI50,國三N016K,2026-02-05,25.034164,121.619664,1.8598051e-08
C2V920,匏子寮,2026-02-05,23.04905,120.55319,1.4136073e-09
C1V600,藤枝,2026-02-05,23.071961,120.757042,6.9663453e-09
C1E601,南勢,2026-02-05,24.572486,120.734842,1.0592404e-08
C0O980,新市,2026-02-05,23.061614,120.298197,2.851823e-07
C0K420,西螺,2026-02-05,23.800407,120.467394,8.172551e-10
C0Z050,佳心,2026-02-05,23.34567,121.21316,3.5378832e-08
C0AD30,蘆洲,2026-02-05,25.086594,121.472331,1.3885316e-08
C0V610,梓官,2026-02-05,22.760558,120.267211,1.9999838e-07
K2F750,種苗改良場,2026-02-05,24.225972,120.800917,2.0008009e-09
C0UA80,大溪漁港,2026-02-05,24.941801,121.902955,2.8090174e-08
C1AI60,國一39K邊坡,2026-02-05,25.064361,121.383836,1.2629324e-08
C0W150,金寧,2026-02-05,24.457703,118.328989,3.9997587e-08
C0R960,內埔,2026-02-05,22.608483,120.570714,3.5366554e-08
V2C250,八德合作社,2026-02-05,24.93775,121.266389,1.1577588e-08
C2H9S0,龍南,2026-02-05,23.953536,120.833183,2.130784e-09
C0AH40,平等,2026-02-05,25.129142,121.577086,2.0961306e-08
C0R540,佳冬,2026-02-05,22.419456,120.552375,6.4635776e-07
466950,彭佳嶼,2026-02-05,25.627975,122.079744,0.033111107
C0A890,雙溪,2026-02-05,25.036003,121.864242,2.1290706e-08
C0C480,桃園,2026-02-05,24.992425,121.323172,2.2850614e-08
C0AH50,林口,2026-02-05,25.072181,121.38084,1.2537138e-08
A2K360,水試臺西試驗場,2026-02-05,23.717231,120.190522,6.831802e-08
C2M960,外寮,2026-02-05,23.562643,120.665688,3.3555456e-09
C0F9S0,烏日,2026-02-05,24.107058,120.624103,7.999681e-10
C2N180,鹿陶洋,2026-02-05,23.14325,120.48352,7.2507195e-10
C0C490,八德,2026-02-05,24.928708,121.283289,1.1282053e-08
C0R190,赤山,2026-02-05,22.592333,120.614306,2.8787209e-08
C0T820,天祥,2026-02-05,24.179597,121.495639,2.0182475e-07
C1F9E1,龍安,2026-02-05,24.1605,120.831961,2.0134532e-09
C2SD50,順那,2026-02-05,23.04166,121.29332,2.5305e-08
C0V820,小林,2026-02-05,23.148408,120.63325,5.91712e-10
C2G870,芳苑,2026-02-05,23.922303,120.320025,0.0019344895
C0E850,大河,2026-02-05,24.618069,120.948578,5.812711e-09
C1U670,寒溪,2026-02-05,24.634,121.71691,1.1387728e-08
C0N020,城西,2026-02-05,23.0568,120.0956,5.2690336e-07
C1Z110,三棧,2026-02-05,24.11557,121.60501,1.3692674e-07
C0R280,檳榔,2026-02-05,22.076078,120.836777,0.9918761
C2H9J0,中台,2026-02-05,23.9996,120.938739,1.2481349e-09
C0F9L0,后里,2026-02-05,24.310436,120.729725,2.5029983e-09
467441,高雄,2026-02-05,22.730432,120.312516,8.5016026e-08
C0Z180,新城,2026-02-05,24.040486,121.604878,1.577345e-07
C0D540,橫山,2026-02-05,24.71116,121.11693,4.9454503e-09
C1D420,太閣南,2026-02-05,24.632808,121.160575,1.1258063e-08
C1E770,公館,2026-02-05,24.526914,120.830806,4.0437027e-09
CAN130,水試所海水繁養殖中心,2026-02-05,23.120802,120.07968,5.71694e-07
C1I430,翠華,2026-02-05,24.191961,121.224339,1.8869393e-08
C1M400,菜瓜坪,2026-02-05,23.251928,120.576103,8.1216134e-10
C0G730,二林,2026-02-05,23.903325,120.376081,3.1272054e-09
72M360,南改義竹分場,2026-02-05,23.360694,120.279361,5.8936833e-09
V2K620,麥寮合作社,2026-02-05,23.753836,120.294783,2.6178564e-09
C0Z070,舞鶴,2026-02-05,23.46811,121.37407,1.8912415e-08
C0B040,大武崙,2026-02-05,25.166676,121.706993,1.5199857e-08
C1Z030,紅葉,2026-02-05,23.493119,121.338806,1.9731026e-08
C1I050,丹大,2026-02-05,23.753747,121.141147,2.0059986e-08
C0I080,信義,2026-02-05,23.689694,120.851036,8.711857e-10
C2TB80,庄子底,2026-02-05,23.71794,121.49438,4.336243e-08
C0D750,樂山林道6k,2026-02-05,24.49999,121.08773,1.8943753e-08
C2M920,朴子農改,2026-02-05,23.469889,120.259383,3.248791e-09
C2A880,福隆,2026-02-05,25.017842,121.942083,2.1972454e-08
C0Z160,鳳林,2026-02-05,23.746114,121.453411,4.1493212e-08
C0UB80,翠峰林道6K,2026-02-05,24.49773,121.568625,3.2569577e-08
C0V210,復興,2026-02-05,23.222403,120.806089,1.6399603e-09
C0H990,昆陽,2026-02-05,24.121322,121.273642,2.4719188e-08
C0R741,獅子,2026-02-05,22.202308,120.705236,0.06045806
C0S710,鹿野,2026-02-05,22.917711,121.122994,8.703291e-09
C0I530,小奇萊,2026-02-05,24.131764,121.295717,2.7395485e-08
C0FA70,大雪山埡口,2026-02-05,24.26867,121.03062,2.358483e-08
C2K630,荷苞,2026-02-05,23.657717,120.595144,3.642339e-10
C0Z080,富源,2026-02-05,23.587642,121.378225,5.0820997e-08
C2M9E0,旺來山,2026-02-05,23.555153,120.486463,4.7941706e-10
C0SB10,美和,2026-02-05,22.682078,121.060236,6.934975e-06
C2K620,馬光農場,2026-02-05,23.721453,120.378864,8.42299e-10
C1I140,卡奈托灣,2026-02-05,23.754364,121.087872,6.8735466e-09
C0I520,玉山風口,2026-02-05,23.470489,120.955994,3.7889546e-08
C1G691,下水埔,2026-02-05,23.816114,120.5676,5.5324095e-10
C0X110,臺南市南區,2026-02-05,22.961189,120.188378,5.109319e-07
C0V680,仁武,2026-02-05,22.701083,120.347722,7.4004504e-08
C2G840,北斗,2026-02-05,23.877586,120.514222,1.3980447e-09
C2TB90,長橋,2026-02-05,23.6874,121.46186,4.0554063e-08
C0R900,竹坑,2026-02-05,22.1385,120.7022,0.97055346
C0G860,社頭,2026-02-05,23.897647,120.5862,1.0051893e-09
C0X150,安定,2026-02-05,23.102614,120.227839,2.2193397e-07
C0R590,里港,2026-02-05,22.77919,120.49459,4.9343157e-08
C0E610,馬都安,2026-02-05,24.451272,120.930192,4.254618e-09
C0E550,明德,2026-02-05,24.583486,120.885411,4.2247947e-09
C0R150,三地門,2026-02-05,22.709889,120.639944,1.07333635e-08
C0G910,花壇,2026-02-05,24.032076,120.549461,8.356039e-10
C1D400,鳥嘴山,2026-02-05,24.71909,121.28387,7.83213e-09
C0K500,元長,2026-02-05,23.64981,120.315024,2.7867149e-09
C0F0B0,石岡,2026-02-05,24.276061,120.777644,2.4251978e-09
C2V250,甲仙,2026-02-05,23.080106,120.591758,9.178434e-10
C0SA20,金崙山,2026-02-05,22.567419,120.959667,1.6971939e-08
C0V350,溪埔,2026-02-05,22.738578,120.446797,5.384009e-08
C0M660,溪口,2026-02-05,23.604131,120.403569,1.4140523e-09
C1S880,壽卡,2026-02-05,22.238911,120.858903,1.1962821e-07
72D680,桃改新埔分場,2026-02-05,24.834444,121.066111,1.0148083e-08
