站號,站名,日期,lat,lon,BlastGRU-TW
C0R700,枋山,2026-04-26,22.246844,120.661086,0.88174284
C2K300,鹿南,2026-04-26,23.63855,120.3636,0.999431
C1R110,口社,2026-04-26,22.770111,120.645222,0.37006038
467290,古坑,2026-04-26,23.380729,120.336861,0.9898465
C0K500,元長,2026-04-26,23.64981,120.315024,0.99966
