站號,站名,日期,lat,lon,BLBTSLS
C0R710,龍磐,2026-01-09,21.931672,120.838942,0.9986615
C1F9D1,白毛台,2026-01-09,24.158325,120.886933,6.544825e-09
C0G940,竹塘,2026-01-09,23.848253,120.386764,1.1274867e-08
467590,恆春,2026-01-09,22.003897,120.746339,0.98705345
C1O850,環湖,2026-01-09,23.148617,120.418633,1.570785e-09
C0U710,太平山,2026-01-09,24.505486,121.525656,3.6565638e-08
C0E820,獅潭,2026-01-09,24.539133,120.920042,7.7246594e-05
C2SD70,二層坪,2026-01-09,22.94105,121.16838,2.840303e-08
C0V880,興達,2026-01-09,22.8778,120.2127,0.98150176
C0S890,關山,2026-01-09,23.0395,121.175017,3.1222545e-08
C0SB30,新蘭,2026-01-09,22.869214,121.223228,6.490565e-08
C2R970,屏科大,2026-01-09,22.648275,120.619247,7.6860226e-07
C1Z130,銅門,2026-01-09,23.965694,121.492842,1.940187e-08
C0AD40,土城,2026-01-09,24.973208,121.445169,7.12947e-08
CAN140,六官養殖協會,2026-01-09,23.22881,120.29962,0.631611
C0X180,山上,2026-01-09,23.0757,120.363253,0.62689084
C0F9Z0,雪山東峰,2026-01-09,24.388792,121.268675,4.6333454e-08
C1M480,獨立山,2026-01-09,23.537022,120.607797,3.2208907e-09
C0X220,學甲,2026-01-09,23.230367,120.182187,0.8441047
467650,日月潭,2026-01-09,23.881325,120.90805,4.352125e-09
A2K570,古坑(花卉中心),2026-01-09,23.633531,120.552392,2.663899e-09
C0K600,箔子寮,2026-01-09,23.6197,120.14,0.9170499
C0G830,埤頭,2026-01-09,23.866003,120.452806,4.1303214e-09
C0S950,七塊厝,2026-01-09,22.954453,121.229922,1.6839477e-08
467110,金門,2026-01-09,24.407306,118.289281,0.9803142
C0AH80,深坑,2026-01-09,25.002703,121.628328,1.9815869e-07
C0A970,三貂角,2026-01-09,25.007606,122.002058,1.2726332e-07
C2D730,寶山農場,2026-01-09,24.732444,120.976153,5.490325e-05
C0K430,褒忠,2026-01-09,23.690938,120.303634,0.9093429
467480,嘉義,2026-01-09,23.495925,120.432906,1.6975588e-09
C0V400,阿公店,2026-01-09,22.804194,120.355528,0.98792446
C0E960,觀霧分站,2026-01-09,24.505781,121.113921,2.4162832e-08
467550,玉山,2026-01-09,23.48718,120.95943,5.1068977e-08
C0R440,大漢山,2026-01-09,22.405264,120.753181,1.643346e-08
C0SD30,東清國小,2026-01-09,22.057128,121.564922,0.9999903
C1F9B1,桐林,2026-01-09,24.066172,120.735194,4.6920925e-09
C2H9U0,鳳鵬,2026-01-09,23.763919,120.788061,1.5596792e-09
C0K390,土庫,2026-01-09,23.679029,120.395574,5.138082e-09
C1I450,望鄉山,2026-01-09,23.594153,120.944286,3.1615603e-08
C0E910,海埔,2026-01-09,24.648767,120.772435,0.95848227
B2E890,畜試北區分所,2026-01-09,24.527806,120.770972,0.1391782
C0R750,四林格山,2026-01-09,22.076989,120.802439,0.99986523
C0F0C0,中坑,2026-01-09,24.248517,120.903319,8.308652e-09
C1I121,大鞍,2026-01-09,23.678381,120.760017,8.19608e-09
C2G9E0,移民庄,2026-01-09,23.9784,120.40283,0.19433632
72U480,花改蘭陽分場,2026-01-09,24.686306,121.716583,1.5556573e-08
C0A770,科教館,2026-01-09,25.096356,121.516507,6.006193e-08
C0AJ60,六塊厝,2026-01-09,25.24,121.4481,0.85937995
C0R620,墾雷,2026-01-09,21.900836,120.855269,0.9889256
467420,永康,2026-01-09,23.038386,120.2367,0.89121014
C2M530,奮起湖,2026-01-09,23.493903,120.699253,6.5361676e-09
C0I410,名間,2026-01-09,23.837053,120.701447,1.353719e-09
A2C560,農工中心,2026-01-09,24.985917,121.239833,0.0015686505
C0V740,旗山,2026-01-09,22.888614,120.483597,2.6083878e-08
C0Z061,玉里,2026-01-09,23.3215,121.339656,1.2539362e-08
C0S840,南田,2026-01-09,22.279725,120.889208,0.99994606
C1I470,杉林溪,2026-01-09,23.639517,120.786444,9.890359e-09
C1X040,東原,2026-01-09,23.291597,120.463822,1.280808e-09
C0R660,枋寮,2026-01-09,22.367722,120.590647,0.10680798
C1R120,上德文,2026-01-09,22.763272,120.704442,3.4625969e-09
C0K450,大埤,2026-01-09,23.646074,120.431537,4.1958206e-09
C0UA00,土場,2026-01-09,24.576533,121.495333,3.530825e-08
467080,宜蘭,2026-01-09,24.763975,121.756528,1.7761387e-08
C0N030,四草,2026-01-09,23.0235,120.1116,0.99084127
467410,臺南,2026-01-09,22.99328,120.20492,0.9725359
C0V650,彌陀,2026-01-09,22.783806,120.246361,0.99774414
C0D660,新竹市東區,2026-01-09,24.798681,120.986942,0.00035669495
82S580,茶改東部分場,2026-01-09,22.907694,121.130139,2.84368e-08
C0SB40,興隆,2026-01-09,22.913661,121.257469,1.3620081e-07
467050,新屋,2026-01-09,25.006725,121.047492,0.11510401
C0C710,大溪永福,2026-01-09,24.892936,121.324975,0.0009311284
C0FA20,溫寮,2026-01-09,24.372177,120.583125,0.9999372
C0V640,湖內,2026-01-09,22.887139,120.2445,0.9780094
C0R910,下寮,2026-01-09,22.3929,120.5548,0.15788522
C0Z020,明里,2026-01-09,23.208717,121.262342,1.2560714e-08
C0M770,嘉義梅山,2026-01-09,23.585398,120.555587,1.3171672e-09
C0C660,楊梅,2026-01-09,24.912375,121.143047,0.00037281055
C0SD40,牛頭山,2026-01-09,22.676661,121.506944,0.9999858
C1E511,新開,2026-01-09,24.347703,120.827019,8.4759236e-08
G2F820,農試所(霧峰),2026-01-09,24.031261,120.688133,5.821721e-09
C2M990,大巃頂,2026-01-09,23.5547,120.61439,3.9408192e-09
C1I070,和社,2026-01-09,23.591131,120.888861,3.1068608e-09
C2E990,新坪頂,2026-01-09,24.30201,120.8574,2.6402272e-08
C0TA80,立霧山,2026-01-09,24.183258,121.641899,2.232362e-08
C2F000,大肚,2026-01-09,24.15295,120.572117,0.43030512
C1S850,豐南,2026-01-09,23.122139,121.262389,1.84039e-08
C2M9B0,西興,2026-01-09,23.2428,120.57617,1.5454031e-09
C2A920,富貴角,2026-01-09,25.263783,121.565258,0.00497757
CAH030,茶改場竹圍站,2026-01-09,23.860083,120.637528,1.5842526e-09
C0T960,光復,2026-01-09,23.660694,121.424964,1.637998e-08
C0F9M0,豐原,2026-01-09,24.254322,120.720692,6.483327e-07
C0R720,旭海,2026-01-09,22.205403,120.887614,0.9999768
C0V710,苓雅,2026-01-09,22.622742,120.330669,0.9984221
C0C740,觀音工業區,2026-01-09,25.064764,121.114856,0.29511374
CAC040,拉拉山,2026-01-09,24.699317,121.427133,4.8355005e-08
C0V790,萬山,2026-01-09,22.905944,120.688056,3.1720562e-09
U2HA30,臺大和社,2026-01-09,23.590856,120.888864,3.1068668e-09
C2H9K0,屯原,2026-01-09,24.067969,121.209389,1.3829547e-08
C0AJ90,澳底,2026-01-09,25.0552,121.9253,2.2471373e-07
C0Z100,東華,2026-01-09,23.89525,121.549833,2.2377378e-08
C0G970,三豐,2026-01-09,23.882,120.2895,0.97120154
V2K610,大庄合作社,2026-01-09,23.8068,120.367939,0.9236597
C0V900,汕尾,2026-01-09,22.4782,120.4151,0.10187161
C1R630,龍泉,2026-01-09,22.66701,120.59091,5.7516445e-06
C1AC50,關渡,2026-01-09,25.133486,121.469331,0.02121855
C0C800,四稜,2026-01-09,24.64733,121.4293,4.1510155e-08
C0F9I0,神岡,2026-01-09,24.272481,120.658314,2.1349667e-06
C0K460,斗南,2026-01-09,23.678734,120.478359,4.0558374e-09
C2O810,曾文,2026-01-09,23.219681,120.497328,1.346537e-09
467280,後龍,2026-01-09,24.648563,120.831834,0.80919826
C1F9J1,清水林,2026-01-09,24.071242,120.820419,4.005353e-09
C2A650,火燒寮,2026-01-09,25.002719,121.742892,7.381461e-08
466930,竹子湖,2026-01-09,25.162078,121.544547,1.0404056e-06
C1I220,樟湖,2026-01-09,23.905333,120.846983,5.1337916e-09
C0I390,仁愛,2026-01-09,24.022122,121.132206,5.001694e-09
C0Z300,東里,2026-01-09,23.26853,121.30547,1.24697905e-08
C1V590,新發,2026-01-09,23.057019,120.646064,2.7593807e-09
C0K510,水林,2026-01-09,23.572924,120.24597,0.48861742
72S590,東改賓朗果園,2026-01-09,22.813889,121.071278,1.6717634e-07
82A750,茶改北部分場,2026-01-09,24.955778,121.631222,6.30673e-08
C1A750,石碇服務區,2026-01-09,25.00872,121.646242,1.8560688e-07
C0X300,鹿寮,2026-01-09,23.386047,120.477331,1.5071556e-09
G2AI50,關渡,2026-01-09,25.11575,121.492,6.2125544e-08
C0K590,雲林東勢,2026-01-09,23.674192,120.255721,0.8879176
C2K310,港尾布雞,2026-01-09,23.74834,120.38439,5.0537174e-09
C0A570,桶後,2026-01-09,24.848222,121.597992,2.9685722e-08
C1S800,華源,2026-01-09,22.657883,121.02325,5.0183185e-06
C0G720,溪州,2026-01-09,23.851589,120.499093,3.981603e-09
C1V160,達卡努瓦,2026-01-09,23.279811,120.705319,4.357275e-09
C2M410,馬頭山,2026-01-09,23.324361,120.582017,1.4318919e-09
C0V850,蚵仔寮,2026-01-09,22.7256,120.2527,0.9983103
C0S740,池上,2026-01-09,23.119628,121.209469,2.8072392e-08
C1V390,尖山,2026-01-09,22.813153,120.367789,0.976585
C0AH70,松山,2026-01-09,25.04871,121.55042,5.945533e-08
C0N010,鯤鯓國小,2026-01-09,23.1879,120.0889,0.8985146
C0R550,新埤,2026-01-09,22.467947,120.582894,0.050059274
C0SA60,知本（水試所）,2026-01-09,22.702394,121.082761,0.00010488478
C0T9I0,豐濱,2026-01-09,23.583897,121.514806,1.4852369e-08
C0UB00,淡江大學蘭陽校園,2026-01-09,24.823239,121.730383,2.1586711e-08
C0W240,九宮,2026-01-09,24.423753,118.240186,6.182463e-05
C0T9N0,富里,2026-01-09,23.171639,121.249378,1.250039e-08
U2HA50,臺大竹山,2026-01-09,23.756972,120.681556,1.3150561e-09
C0V840,鳳鼻頭,2026-01-09,22.5083,120.3591,0.09467997
C0X140,西港,2026-01-09,23.125608,120.203108,0.6654903
72D080,桃改五峰分場,2026-01-09,24.612194,121.157167,8.845931e-09
C2H9P0,伊拿谷,2026-01-09,23.963211,121.088264,3.4231182e-09
C2K250,崙背,2026-01-09,23.75553,120.31893,0.90913814
C2H9F0,柑林,2026-01-09,24.018658,120.847072,3.4012313e-09
C0TA20,加灣,2026-01-09,24.082025,121.608944,2.8540912e-08
C0V530,阿蓮,2026-01-09,22.883208,120.327508,0.8350308
C0FB30,八仙山苗圃,2026-01-09,24.192719,121.001366,8.134687e-09
C1O880,關山,2026-01-09,23.173397,120.594092,1.2652995e-09
C0E791,卓蘭,2026-01-09,24.3126,120.8244,7.880864e-08
C1I030,武界,2026-01-09,23.913225,121.052483,3.5665748e-09
C0R520,崁頂,2026-01-09,22.514781,120.506914,0.07926926
C0R341,牡丹,2026-01-09,22.130036,120.792639,0.97798204
C0R930,萬丹,2026-01-09,22.5885,120.4851,0.030030295
C0S760,紅石,2026-01-09,23.069131,121.126219,1.7518369e-08
C2C410,中央大學,2026-01-09,24.967652,121.185165,0.0012530349
C1M610,石磐龍,2026-01-09,23.496606,120.663506,4.9388427e-09
C0C790,東眼山,2026-01-09,24.8284,121.40888,2.8934847e-08
C0UA10,鴛鴦湖,2026-01-09,24.590269,121.412228,3.787748e-08
V2C260,八德蔬果,2026-01-09,24.978508,121.281819,0.0019206775
C0R800,丹路,2026-01-09,22.204481,120.750989,0.9894174
C0G920,永靖,2026-01-09,23.924703,120.547533,0.0028307752
C2M950,太和,2026-01-09,23.538372,120.702961,6.4638273e-09
C1A630,下盆,2026-01-09,24.771003,121.538622,3.1296953e-08
B2N890,畜產試驗所,2026-01-09,23.058972,120.336406,0.8290185
C0UA30,白嶺,2026-01-09,24.527819,121.519031,3.1481353e-08
C1V580,溪南(特生中心),2026-01-09,23.084972,120.788475,9.383313e-09
C1T970,大農,2026-01-09,23.615233,121.413331,1.570624e-08
C0R650,竹田,2026-01-09,22.58486,120.54344,0.08062772
C1H900,清流,2026-01-09,24.080775,120.962997,3.3837089e-09
C1C510,水尾,2026-01-09,24.940081,121.087161,0.005292222
C2N170,茅港尾,2026-01-09,23.2061,120.2624,0.6565147
C0F9X0,大雅(中科園區),2026-01-09,24.21528,120.62445,0.9950835
C0SB60,白守蓮,2026-01-09,23.126769,121.401914,0.9999703
C0O970,虎頭埤,2026-01-09,23.021375,120.347878,0.7055154
C0C730,中大臨海站,2026-01-09,24.966126,121.008581,0.010276567
C0X250,新營,2026-01-09,23.310689,120.316681,0.5268622
C0V700,三民,2026-01-09,22.645017,120.311233,0.9987445
C0U870,大礁溪,2026-01-09,24.791042,121.675047,2.0011147e-08
C0E870,高鐵苗栗,2026-01-09,24.60725,120.826094,0.8424704
A2K570,古坑花卉中心,2026-01-09,23.63353,120.55239,1.4651781e-08
C0TA30,鹽寮,2026-01-09,23.845606,121.592664,2.3107713e-08
C0M860,新美,2026-01-09,23.338017,120.683169,2.431497e-09
C1E701,八卦,2026-01-09,24.491756,120.927619,1.6353663e-08
C2TA90,加納納,2026-01-09,23.466421,121.359867,1.325707e-08
C0I420,國姓,2026-01-09,24.037803,120.855072,3.3352736e-09
C2D720,關西工作站,2026-01-09,24.757275,121.184792,2.438967e-08
C0S960,香蘭,2026-01-09,22.587569,120.993375,0.02493618
467620,蘭嶼,2026-01-09,22.0369,121.55843,0.9999813
C0R260,春日,2026-01-09,22.370361,120.628306,0.016874032
72G600,臺中農改場,2026-01-09,24.003028,120.534389,0.0033960443
C0Z210,瑞穗,2026-01-09,23.5239,121.39021,1.49327e-08
C0M820,達邦,2026-01-09,23.453994,120.749517,4.0019925e-09
C0V860,南寮,2026-01-09,22.7616,120.2339,0.99837226
C0G740,大城,2026-01-09,23.852487,120.320935,0.9659065
C0R920,塭仔,2026-01-09,22.4169,120.5197,0.17054538
C0R470,高樹,2026-01-09,22.826389,120.600806,5.644976e-07
C0R680,佳樂水,2026-01-09,21.993578,120.861633,0.98601204
C1O870,大棟山,2026-01-09,23.31157,120.52226,4.7805857e-09
C0D360,梅花,2026-01-09,24.678347,121.208558,1.6211116e-08
C0Z190,富世,2026-01-09,24.14743,121.6297,3.4875837e-05
C0AI10,屈尺,2026-01-09,24.92184,121.54475,6.4042624e-08
B2U990,畜試東區分所,2026-01-09,24.669039,121.832561,1.8707809e-08
C0SB80,長濱漁港,2026-01-09,23.313644,121.459994,0.9999563
C0TA50,和仁,2026-01-09,24.241394,121.712472,5.140225e-05
C0V910,大樹,2026-01-09,22.684645,120.432803,2.9745263e-06
C1R610,西大武山,2026-01-09,22.617719,120.7322,1.5283232e-08
C0G900,線西,2026-01-09,24.143358,120.443536,0.99992055
C0M700,竹崎,2026-01-09,23.526178,120.555508,1.2901619e-09
C2E880,三義,2026-01-09,24.405478,120.749819,1.1725392e-06
C0C720,竹圍,2026-01-09,25.112692,121.239824,0.09934707
C0F9P0,清水,2026-01-09,24.312297,120.562242,0.99991715
C0Z150,吉安光華,2026-01-09,23.930925,121.595153,2.5128964e-08
C0FA80,小雪山天池,2026-01-09,24.28025,121.02627,2.9442573e-08
467300,東吉島,2026-01-09,23.25727,119.66762,0.999885
C1D640,外坪(五指山),2026-01-09,24.644447,121.090961,5.6416074e-08
C2R9A0,高士國小,2026-01-09,22.12553,120.84653,0.9979316
C0F9O0,潭子,2026-01-09,24.213106,120.703933,1.7427822e-06
C2H9R0,卓社,2026-01-09,23.887894,121.000086,6.0853402e-09
72T250,花蓮農改場,2026-01-09,23.975222,121.563889,2.3699458e-08
C0E780,銅鑼,2026-01-09,24.489681,120.790853,0.0063054045
C1T950,太安,2026-01-09,23.666719,121.370128,8.792171e-09
C0E830,苑裡,2026-01-09,24.439714,120.653053,0.9943102
467270,田中,2026-01-09,23.873803,120.581286,3.3687688e-09
C0SA10,檳榔四格山,2026-01-09,22.810031,121.109308,7.8245925e-08
C1T830,布洛灣,2026-01-09,24.17184,121.57127,2.1461416e-08
C0F970,大坑,2026-01-09,24.173142,120.722289,3.9921215e-06
C1U920,思源,2026-01-09,24.393125,121.347214,2.5231936e-08
C2H9Y0,松茗,2026-01-09,23.8167,120.650765,1.7287238e-09
C0A931,三和,2026-01-09,25.233153,121.595236,0.0015459681
C0I010,廬山,2026-01-09,24.033311,121.181808,8.305991e-09
C2M940,日野賀,2026-01-09,23.434056,120.727169,5.024739e-09
C0R860,鼻頭,2026-01-09,22.1043,120.8979,0.99979484
C0UB20,壯圍,2026-01-09,24.7359,121.8163,1.8110972e-08
C0R790,九棚,2026-01-09,22.14195,120.889281,0.9999835
C0W110,東莒,2026-01-09,25.9652,119.98069,0.9523802
C1U930,粉鳥林,2026-01-09,24.497088,121.842479,1.3439352e-07
C1I211,蘆竹湳,2026-01-09,23.934019,120.811994,3.8083776e-09
C0S830,長濱,2026-01-09,23.286817,121.411975,1.2142676e-08
C1F9F1,伯公龍,2026-01-09,24.272392,120.849047,3.5770615e-08
C0UB90,太平山莊,2026-01-09,24.494171,121.536209,3.6866698e-08
C0E810,西湖,2026-01-09,24.562947,120.7485,0.99411243
C1I440,新高口,2026-01-09,23.478744,120.878939,2.221963e-08
C0O840,王爺宮,2026-01-09,23.222064,120.40085,1.7639433e-09
C0T9G0,鳳林山,2026-01-09,23.735269,121.420131,1.880648e-08
C0X080,佳里,2026-01-09,23.173039,120.145086,0.8942479
C0FB70,大甲溪埔,2026-01-09,24.370625,120.620067,0.9999069
C0Z310,清水斷崖,2026-01-09,24.218294,121.689142,8.635732e-06
C0M680,太保,2026-01-09,23.455062,120.331455,0.10774907
C1S820,金峰,2026-01-09,22.590969,120.933236,3.6960755e-05
C0AD10,八里,2026-01-09,25.150211,121.403947,0.7612678
C2K240,草嶺,2026-01-09,23.59555,120.693461,5.010498e-09
C1SA70,都蘭,2026-01-09,22.87794,121.226881,5.9910555e-08
C0K440,二崙,2026-01-09,23.772797,120.408944,4.546882e-09
C1A760,坪林交控,2026-01-09,24.94284,121.713442,9.957747e-08
C0F9N0,大里,2026-01-09,24.092464,120.701378,5.9957626e-09
C0SA90,達仁林場,2026-01-09,22.264347,120.823972,9.102462e-09
C1R290,石門山,2026-01-09,22.112611,120.756597,0.9999984
42HA10,萬大發電廠,2026-01-09,23.978875,121.139639,4.2052988e-09
C0R890,山海,2026-01-09,21.9878,120.7091,0.98168236
C0T9A0,月眉山,2026-01-09,23.809928,121.539828,1.48033e-08
C0AC70,信義,2026-01-09,25.037822,121.564597,5.9694976e-08
C0K560,棋山,2026-01-09,23.68645,120.603417,2.5610505e-09
C2FB50,出雲,2026-01-09,24.206469,120.902794,8.995952e-09
C1Z240,中平林道,2026-01-09,23.42115,121.26763,1.8873784e-08
U2H480,溪頭,2026-01-09,23.670306,120.798194,5.317902e-09
C0M880,好美里,2026-01-09,23.3364,120.138,0.8227735
C0T9E0,大坑,2026-01-09,23.880628,121.581981,1.8761515e-08
C0K530,臺西,2026-01-09,23.701547,120.197559,0.98966885
C1E900,國一N128K,2026-01-09,24.560997,120.844186,0.15822184
C0AJ50,水湳洞,2026-01-09,25.123695,121.862238,2.1817567e-07
C0AI20,白沙灣,2026-01-09,25.283128,121.519058,0.7604067
C2V310,美濃,2026-01-09,22.898792,120.51907,2.886633e-08
C0A860,大坪,2026-01-09,25.165914,121.632969,3.991886e-08
C1U850,觀音海岸,2026-01-09,24.38319,121.77856,2.0815207e-08
C2K610,草嶺石壁,2026-01-09,23.602469,120.707731,5.176968e-09
C0U950,鶯子嶺,2026-01-09,24.89754,121.79244,4.610372e-08
C0O900,善化,2026-01-09,23.112883,120.297219,0.9089717
C0K550,蔦松,2026-01-09,23.514319,120.229736,0.64890397
E2P980,林試六龜中心,2026-01-09,22.991703,120.645722,8.25145e-09
C0E590,通霄,2026-01-09,24.471892,120.704622,0.996284
C1I310,西巒,2026-01-09,23.754486,120.883956,5.050701e-09
C0A550,泰平,2026-01-09,24.971197,121.823711,6.215268e-08
C0I360,水里,2026-01-09,23.812553,120.849792,1.4377786e-09
C0R830,高士,2026-01-09,22.121825,120.836781,0.99999714
C1I101,溪頭,2026-01-09,23.661789,120.807647,1.1275943e-08
C0AJ20,野柳,2026-01-09,25.20703,121.690021,0.62624973
C0B060,暖暖,2026-01-09,25.0957,121.7403,1.6883078e-07
C1H920,長豐,2026-01-09,24.102039,120.879897,3.3511387e-09
C2S9B0,利吉,2026-01-09,22.86246,121.15486,3.3953608e-08
C0V360,內門,2026-01-09,22.975481,120.466769,1.2249215e-08
C0R850,林邊,2026-01-09,22.4634,120.5339,0.17431962
C0E930,龍鳳,2026-01-09,24.700034,120.859125,0.013143197
C0U910,冬山,2026-01-09,24.63373,121.7937,1.8707809e-08
C1E721,泰安,2026-01-09,24.489017,120.968036,2.0844409e-08
82H320,茶改中部分場,2026-01-09,23.875611,120.913583,3.5449603e-09
C0M750,布袋,2026-01-09,23.380878,120.167789,0.8030852
C1S860,利嘉,2026-01-09,22.809417,121.050528,4.7738723e-08
E2S980,林試太麻里1,2026-01-09,22.598922,120.980044,0.00093155785
C0X170,關廟,2026-01-09,22.963017,120.327797,0.74394274
C0V720,林園,2026-01-09,22.507747,120.394511,0.08421697
C1I510,線浸林道,2026-01-09,23.761508,120.832956,6.107398e-09
C0D690,外湖,2026-01-09,24.917735,120.968711,0.99833125
C0C750,新興坑尾,2026-01-09,25.0061,121.0971,0.022177981
B2Q810,畜試南區分所,2026-01-09,21.945583,120.802167,0.98450613
C0S790,金崙,2026-01-09,22.538122,120.966875,1.34326765e-05
C0AH90,福山植物園,2026-01-09,24.760717,121.58135,3.155945e-08
C0I540,奇萊稜線,2026-01-09,24.109231,121.326456,3.8659408e-08
C0M850,表湖,2026-01-09,23.24186,120.64166,2.7977285e-09
C0S770,大溪山,2026-01-09,22.478475,120.943325,5.721581e-07
C0AG80,中和,2026-01-09,24.991622,121.491792,7.1233536e-08
C0T790,大禹嶺,2026-01-09,24.186117,121.316086,3.01097e-08
C0T9B0,水源,2026-01-09,23.991861,121.537169,1.9642558e-08
C0R840,牡丹池山,2026-01-09,22.168389,120.841225,1.6787332e-08
C1I131,桶頭,2026-01-09,23.641944,120.654117,1.7631393e-09
CAL110,布袋國中,2026-01-09,23.35893,120.18026,0.8244108
C2M9D0,何竹子腳,2026-01-09,23.53641,120.38203,1.7488647e-09
467571,新竹,2026-01-09,24.827853,121.014219,0.0013354225
C0Z290,赤柯山,2026-01-09,23.36893,121.38293,1.8199968e-08
C0X280,將軍,2026-01-09,23.214999,120.13577,0.85870206
C0S690,太麻里,2026-01-09,22.60902,120.98533,1.415739e-07
C0U880,北關,2026-01-09,24.9072,121.8734,7.3577615e-07
CAW010,東引,2026-01-09,26.3588,120.4836,0.9948282
C0G810,埔心,2026-01-09,23.947633,120.525456,0.0050597726
C0U970,大福,2026-01-09,24.80064,121.81389,1.8281101e-08
C2H9N0,仁愛東眼,2026-01-09,24.026875,121.1205,7.1752218e-09
C1E670,南礦,2026-01-09,24.538278,121.002836,1.9479888e-08
C0M520,東後寮,2026-01-09,23.369908,120.248065,0.7546848
C1E461,松安,2026-01-09,24.397972,120.986022,2.0134964e-08
C2N160,西拉雅風管處,2026-01-09,23.189481,120.335297,0.34998596
C2M970,碧湖,2026-01-09,23.568632,120.624165,3.8880787e-09
C0A640,石碇,2026-01-09,24.993969,121.662917,9.979556e-08
E2S960,林試太麻里2,2026-01-09,22.598,120.99775,0.04214744
C0F9Y0,桃山,2026-01-09,24.432739,121.303808,4.9445568e-08
C1I020,萬大,2026-01-09,23.979817,121.132261,5.0506723e-09
C2UC20,長嶺,2026-01-09,24.70894,121.61162,2.138117e-08
C0U940,羅東,2026-01-09,24.68184,121.74934,1.5591862e-08
C0M650,朴子,2026-01-09,23.43463,120.23902,0.24539943
C1I500,大尖山,2026-01-09,23.858572,120.994889,1.3489e-08
C0FB40,中橫21.6k,2026-01-09,24.2499,121.1455,9.553829e-09
C0G820,田尾,2026-01-09,23.901669,120.509389,0.0033025024
E2K600,四湖植物園,2026-01-09,23.676986,120.163433,0.9820469
C0S730,綠島,2026-01-09,22.6672,121.47533,0.9999809
12Q970,東港工作站,2026-01-09,22.479997,120.466058,0.1970584
C1TA00,太魯閣,2026-01-09,24.15773,121.6236,7.4689986e-08
466920,臺北,2026-01-09,25.037658,121.514853,5.945533e-08
C0R600,舊泰武,2026-01-09,22.588194,120.664944,6.1891217e-09
C1I260,北坑,2026-01-09,23.9246,121.006903,2.3063846e-09
466910,鞍部,2026-01-09,25.182586,121.529731,3.0063134e-07
C1I230,九份二山,2026-01-09,23.961944,120.845,4.6900612e-09
C2M810,里佳,2026-01-09,23.389125,120.716647,6.548484e-09
C2A660,瑞芳,2026-01-09,25.113169,121.801147,1.4188369e-07
C0R270,琉球嶼,2026-01-09,22.332244,120.362236,0.42072222
C2V580,瑞山,2026-01-09,22.90304,120.43424,1.0896548e-08
C1T990,高寮,2026-01-09,23.394239,121.356808,1.2630191e-08
C0G620,芬園,2026-01-09,24.015678,120.6213,6.722661e-05
C1Z140,荖溪,2026-01-09,23.890575,121.45964,2.5212405e-08
C1I201,中心崙,2026-01-09,23.728722,120.712097,2.5308369e-09
C1I400,凌霄,2026-01-09,24.018778,121.004456,7.0691426e-09
C1M640,十字,2026-01-09,23.492153,120.753683,8.511691e-09
G2P820,農試鳳山分所,2026-01-09,22.646611,120.356083,0.9975798
C0Z270,蕃薯寮,2026-01-09,23.73835,121.540108,1.4663803e-08
C2E420,竹南,2026-01-09,24.70898,120.88897,0.0037565504
C0FB10,出雲山苗圃,2026-01-09,24.23105,120.90475,8.298421e-09
C0F9Q0,外埔,2026-01-09,24.347817,120.705686,4.8512748e-06
C0K580,高鐵雲林,2026-01-09,23.737456,120.417944,4.8285034e-09
C2I090,鳳凰,2026-01-09,23.728081,120.787347,3.5588756e-09
C0U990,員山,2026-01-09,24.74435,121.72247,1.5603645e-08
C0V770,大社,2026-01-09,22.730306,120.346639,0.9968278
C0X120,麻豆,2026-01-09,23.183289,120.248611,0.58386046
C0C670,龍潭,2026-01-09,24.870056,121.221389,2.6552463e-08
C0D680,香山濕地,2026-01-09,24.783581,120.914988,0.998311
C0S980,勝林山,2026-01-09,22.430439,120.8938,3.5047783e-08
C0V730,大寮,2026-01-09,22.605614,120.395717,0.09591559
C0R570,麟洛,2026-01-09,22.65078,120.52719,1.9968977e-06
C2M930,石卓,2026-01-09,23.478744,120.702264,8.3282785e-09
C0G9B0,和美,2026-01-09,24.105169,120.492131,0.0945715
CAG100,王功漁港,2026-01-09,23.96824,120.32586,0.6861515
C0X290,北門,2026-01-09,23.267772,120.125481,0.8609032
C2F930,大甲,2026-01-09,24.347667,120.640403,0.00035576866
C0D650,湖口,2026-01-09,24.904794,121.043628,0.0003764279
C0U780,五結,2026-01-09,24.68637,121.79794,1.8707809e-08
C1I250,鯉潭,2026-01-09,23.961922,120.991131,2.7202558e-09
C0R130,阿禮,2026-01-09,22.742908,120.743678,4.4004795e-09
C0X100,臺南市北區,2026-01-09,23.010394,120.194228,0.9838534
C0S920,金峰嘉蘭,2026-01-09,22.594789,120.960825,0.00086702884
C0V490,新興,2026-01-09,22.627422,120.298803,0.99907535
C0F9K0,大安,2026-01-09,24.345061,120.588025,0.99991345
467290,古坑,2026-01-09,23.633639,120.551889,2.663899e-09
C2E970,八甲,2026-01-09,24.535811,120.795983,0.002139568
C0V440,鳳山,2026-01-09,22.646653,120.356122,0.9975798
C1T940,大觀,2026-01-09,23.714206,121.373133,1.5511715e-08
C0E740,造橋,2026-01-09,24.637056,120.864778,0.8659077
C0R100,尾寮山,2026-01-09,22.833111,120.683889,4.442926e-09
A2K630,臺大雲林校區,2026-01-09,23.730628,120.423903,4.8258793e-09
467990,馬祖,2026-01-09,26.169467,119.923158,0.0014076312
C0D580,寶山,2026-01-09,24.735006,121.025192,1.3101308e-05
E2P990,林試扇平站,2026-01-09,22.9677,120.6857,3.8833727e-09
C0AI30,三重,2026-01-09,25.057328,121.500629,6.006193e-08
C0AH00,汐止,2026-01-09,25.066881,121.658778,3.1725153e-07
C1Z040,立山,2026-01-09,23.443356,121.327375,1.6656756e-08
466881,新北,2026-01-09,24.959207,121.525196,6.8202674e-08
C0W130,花嶼,2026-01-09,23.40007,119.32276,0.9997803
C0A950,鼻頭角,2026-01-09,25.129036,121.923372,2.3301463e-07
C0K470,林內,2026-01-09,23.748675,120.609642,2.6502915e-09
C2F990,摩天嶺,2026-01-09,24.322458,120.936819,8.546227e-09
C2E430,南庄,2026-01-09,24.601775,121.000214,2.6894481e-06
82C160,茶改場,2026-01-09,24.908472,121.185333,0.00011914838
C2TB60,南安,2026-01-09,23.29818,121.26157,1.2259546e-08
C0Z320,清水林道,2026-01-09,23.27125,121.188272,1.5909668e-08
C0R760,南仁湖,2026-01-09,22.084681,120.863353,0.9999984
C0M670,大林,2026-01-09,23.600616,120.45841,1.6807475e-09
C0M800,茶山,2026-01-09,23.299075,120.664767,1.4893098e-09
C0A9C0,天母,2026-01-09,25.117494,121.537169,5.894428e-08
72K220,南改斗南分場,2026-01-09,23.634556,120.477333,4.024981e-09
72AI40,桃改樹林分場,2026-01-09,24.944503,121.386972,6.147031e-08
C0S910,蘭嶼燈塔,2026-01-09,22.081197,121.503117,0.99998844
C0B050,八斗子,2026-01-09,25.144754,121.79167,3.4686246e-07
C0U900,內城,2026-01-09,24.71813,121.68766,1.5286002e-08
C0X320,柳營,2026-01-09,23.253328,120.375253,2.1875848e-09
C0M790,新港,2026-01-09,23.553269,120.345728,0.25400499
C0F9T0,西屯,2026-01-09,24.179494,120.641275,3.573076e-05
C0E950,松安,2026-01-09,24.39792,120.98599,2.0134964e-08
C0SA30,都歷,2026-01-09,23.020333,121.323642,1.135051e-07
C0C620,蘆竹,2026-01-09,25.084275,121.265767,0.04611908
C0R730,大坪頂,2026-01-09,22.024633,120.69355,0.99998456
C0AJ40,石門,2026-01-09,25.273672,121.601198,0.018789288
C0E750,苗栗,2026-01-09,24.564569,120.824575,0.21441025
C0T870,鯉魚潭,2026-01-09,23.935639,121.508944,2.0163558e-08
C1V170,排雲,2026-01-09,23.463619,120.954147,4.594799e-08
C2H950,中寮,2026-01-09,23.884447,120.766406,3.787999e-09
C0R350,貓鼻頭,2026-01-09,21.921774,120.7358,0.9878262
C0V660,岡山,2026-01-09,22.797078,120.294958,0.9975902
C1H941,雙冬,2026-01-09,23.967378,120.802189,3.7625587e-09
C0AJ70,田寮,2026-01-09,25.2698,121.4886,0.7910414
C0AI00,五股,2026-01-09,25.07445,121.42728,4.2168747e-08
C0Z280,德武,2026-01-09,23.47426,121.41071,1.3485321e-08
C2RA10,大新,2026-01-09,22.67558,120.57788,6.1319583e-06
C0R700,枋山,2026-01-09,22.246844,120.661086,0.99960685
C0C460,復興,2026-01-09,24.820208,121.352281,2.9584148e-08
C2K300,鹿南,2026-01-09,23.63855,120.3636,0.7772527
E2H360,蓮華池,2026-01-09,23.918333,120.885278,2.7109377e-09
C0M640,中埔,2026-01-09,23.42538,120.5229,1.3184667e-09
C0W140,金沙,2026-01-09,24.488292,118.408778,0.9942703
C2A540,四堵,2026-01-09,24.8926,121.745736,7.745759e-08
C0ACA0,新莊,2026-01-09,25.051478,121.446756,6.07055e-08
C0R220,潮州,2026-01-09,22.534361,120.54,0.05567177
U2HA40,臺大內茅埔,2026-01-09,23.689722,120.851117,2.0315996e-09
467490,臺中,2026-01-09,24.145736,120.684075,1.6746048e-05
C0UB60,明池,2026-01-09,24.650688,121.475277,4.08719e-08
C0U960,翠峰湖,2026-01-09,24.510856,121.608044,3.5937546e-08
E2HA20,林試畢祿溪站,2026-01-09,24.226944,121.308522,1.902537e-08
C2M9A0,大華,2026-01-09,23.4824,120.67491,4.444367e-09
C0V890,前鎮,2026-01-09,22.5718,120.3117,0.9990141
C1F941,雪嶺,2026-01-09,24.280586,121.026642,2.9442573e-08
C2H9E0,國姓南港,2026-01-09,23.911108,120.846556,5.3987628e-09
C0AC80,文山,2026-01-09,25.00235,121.575728,6.9340295e-08
C0F9R0,龍井,2026-01-09,24.184536,120.528972,0.9999174
C0M760,民雄,2026-01-09,23.551754,120.428457,1.7134169e-09
C0UA40,西德山,2026-01-09,24.560647,121.752608,3.61962e-08
C2TA70,赤科坪,2026-01-09,23.39885,121.39168,1.8570475e-08
C1T920,中興,2026-01-09,23.769503,121.498653,1.6819511e-08
C0D550,雪霸,2026-01-09,24.526972,121.11605,2.0725398e-08
C2F860,梨山,2026-01-09,24.247522,121.243669,2.099892e-08
C0R320,車城,2026-01-09,22.0744,120.716247,0.9988887
C1S870,南美山,2026-01-09,23.15025,121.382333,7.343167e-08
C0B020,基隆嶼,2026-01-09,25.19141,121.78391,2.8170155e-07
C1U501,牛鬥,2026-01-09,24.637836,121.573656,2.7259862e-08
C0M730,嘉義市東區,2026-01-09,23.457673,120.460531,1.4498542e-09
C2R990,泰武,2026-01-09,22.60686,120.69765,7.577128e-09
C0S700,知本,2026-01-09,22.684866,121.005642,4.9874167e-08
C1N001,沙崙,2026-01-09,22.935472,120.309406,0.82316685
C0V760,橋頭,2026-01-09,22.757806,120.30575,0.99752575
C0G960,福寶,2026-01-09,24.0443,120.3814,0.17593518
C0X210,白河,2026-01-09,23.347466,120.414427,1.8627793e-09
C0S810,東河,2026-01-09,22.972672,121.303986,1.4423189e-07
C2R170,屏東,2026-01-09,22.66027,120.49403,2.0816237e-06
C0R670,楓港,2026-01-09,22.190131,120.692156,0.9999037
C0FA50,霧峰,2026-01-09,24.0419,120.6995,5.48513e-09
C0UB10,蘇澳,2026-01-09,24.5969,121.8571,6.2472154e-08
C0G950,防潮門,2026-01-09,24.1835,120.4871,0.9999219
C0M740,六腳,2026-01-09,23.492871,120.290625,0.23173976
C1R250,力里,2026-01-09,22.428117,120.629228,1.6727084e-08
C0K330,虎尾,2026-01-09,23.719183,120.442036,4.6628386e-09
C2FA00,烏石坑,2026-01-09,24.273503,120.947617,8.447982e-09
C0V620,永安,2026-01-09,22.82315,120.236856,0.9977403
C1I330,楓樹林,2026-01-09,23.986803,121.076117,5.694904e-09
C0W200,湖西,2026-01-09,23.596314,119.67275,0.999644
72Q010,高雄農改場,2026-01-09,22.709333,120.525889,2.0448279e-06
C0SA40,瑞和,2026-01-09,22.974361,121.156697,3.0422875e-08
C0C680,龜山,2026-01-09,25.02846,121.38656,4.0204945e-08
C2V260,月眉,2026-01-09,22.971003,120.539853,1.4560265e-08
C0V450,鳳森,2026-01-09,22.545064,120.392592,0.017155156
C0FA90,小雪山林道,2026-01-09,24.29515,121.03651,3.657568e-08
C0U720,南山,2026-01-09,24.43742,121.38167,2.5979313e-08
A2N290,臺南蘭花園區,2026-01-09,23.340258,120.379661,2.06514e-09
C0R560,新園,2026-01-09,22.5434,120.461558,0.08421703
C0U890,三星,2026-01-09,24.66812,121.65302,1.457413e-08
C1V300,御油山,2026-01-09,23.001983,120.715364,9.090058e-09
C0U600,礁溪,2026-01-09,24.817539,121.765608,1.7718245e-08
C1T980,龍澗,2026-01-09,24.023289,121.411328,2.8115045e-08
C0D670,海天一線,2026-01-09,24.831986,120.914438,0.99823433
C0SA00,歷坵,2026-01-09,22.520969,120.89185,2.7098622e-07
C0M710,東石,2026-01-09,23.458927,120.15385,0.7901832
C0M780,鹿草,2026-01-09,23.41134,120.30835,0.16159195
C0U520,雙連埤,2026-01-09,24.753033,121.641303,1.8905816e-08
C0B010,七堵,2026-01-09,25.094819,121.71713,2.5472147e-07
C0R480,長治,2026-01-09,22.693128,120.542622,8.764338e-06
C1V830,國三S383K,2026-01-09,22.781967,120.426475,2.0440993e-07
12Q980,恆春工作站,2026-01-09,22.079678,120.714425,0.99890447
C1O940,東山服務區,2026-01-09,23.286016,120.398472,1.9962456e-09
C1U840,東澳嶺,2026-01-09,24.5378,121.8485,3.107082e-08
C1D630,飛鳳山,2026-01-09,24.766464,121.119178,1.276932e-07
C0S940,石寧山,2026-01-09,23.223772,121.406639,0.99993724
C0K410,北港,2026-01-09,23.573957,120.292802,0.413415
C2M620,瑞里,2026-01-09,23.545133,120.675197,5.6897034e-09
C0SB70,小港漁港,2026-01-09,23.158558,121.400431,0.99996865
C2O950,安南,2026-01-09,23.076694,120.144861,0.98795754
C0F0E0,南湖圈谷,2026-01-09,24.363714,121.444667,5.5059395e-08
467610,成功,2026-01-09,23.097486,121.373428,5.081315e-07
C0G890,伸港,2026-01-09,24.148933,120.484403,0.9999172
C2E540,龍溪,2026-01-09,24.606489,120.783933,0.6415779
C1V200,梅山,2026-01-09,23.268447,120.823556,3.2978e-09
C0T9H0,加路蘭山,2026-01-09,23.682947,121.5274,1.6739213e-08
C2O930,玉井,2026-01-09,23.126042,120.46055,1.5745104e-09
C1F911,新伯公,2026-01-09,24.221361,120.841069,5.9171033e-08
C0R490,九如,2026-01-09,22.7405,120.490503,2.124618e-06
C0X200,左鎮,2026-01-09,23.056758,120.408522,1.9378126e-08
C2TB50,麻汝,2026-01-09,23.42554,121.39358,1.3284863e-08
C0FA60,鞍馬山工作站,2026-01-09,24.267064,121.000793,2.0763778e-08
C0SB50,叭嗡嗡,2026-01-09,23.047062,121.343223,8.5686133e-07
C1F891,稍來,2026-01-09,24.265689,121.001142,2.0120721e-08
C2M9C0,紫雲,2026-01-09,23.494914,120.540253,1.335462e-09
72N240,七股研究中心,2026-01-09,23.081672,120.062894,0.9909557
C0C700,中壢,2026-01-09,24.977661,121.256375,0.0012258542
C0M690,水上,2026-01-09,23.419734,120.388909,1.7176215e-09
C0V690,鼓山,2026-01-09,22.623325,120.275575,0.999096
C0O860,大內,2026-01-09,23.11885,120.36083,0.88330334
C0Z200,萬榮,2026-01-09,23.709219,121.420106,1.5517307e-08
C0T9D0,和中,2026-01-09,24.26676,121.74103,5.430723e-05
C2S9A0,北份子寮,2026-01-09,22.78561,121.07813,7.7977975e-06
C1O921,楠西,2026-01-09,23.183511,120.484083,1.4951758e-09
C0AJ30,淡水觀海,2026-01-09,25.184591,121.408616,0.82167757
C0V810,左營,2026-01-09,22.67491,120.28491,0.9987393
C0UA70,桃源谷,2026-01-09,24.962606,121.888875,4.329293e-08
C0X130,官田,2026-01-09,23.193217,120.315422,0.42216924
C1H000,翠峰,2026-01-09,24.109397,121.205211,2.0599835e-08
C0UA90,石城,2026-01-09,24.980444,121.951214,2.0530412e-07
C1E681,南勢山,2026-01-09,24.421669,120.923831,1.8158984e-08
C0A9F0,內湖,2026-01-09,25.079422,121.57545,5.9897985e-08
C0K291,宜梧,2026-01-09,23.536281,120.169329,0.92370474
C1K540,口湖,2026-01-09,23.585344,120.180517,0.924847
C0R780,滿州,2026-01-09,22.024403,120.839892,0.9987798
C0V870,文安,2026-01-09,22.8025,120.2164,0.9983103
C0U650,玉蘭,2026-01-09,24.675286,121.587061,2.1544674e-08
C0R640,東港,2026-01-09,22.46247,120.44074,0.093549974
C0AJ80,板橋,2026-01-09,25.0107,121.4489,7.245114e-08
C0S660,下馬,2026-01-09,23.150427,121.070312,1.4478459e-08
C2N190,烏樹,2026-01-09,23.32393,120.36989,0.38071012
C1H9B1,阿眉,2026-01-09,24.1263,120.994672,1.3554663e-08
C0UA20,多加屯,2026-01-09,24.368614,121.373189,2.7753119e-08
C0E730,頭份,2026-01-09,24.688247,120.912206,0.0038281172
72V140,高改旗南分場,2026-01-09,22.857861,120.516667,2.0901534e-06
C0K480,莿桐,2026-01-09,23.761192,120.502372,3.842349e-09
C0U980,坪林石牌,2026-01-09,24.86478,121.77396,2.3357456e-08
C0T900,西林,2026-01-09,23.8119,121.441458,1.5565863e-08
C1I150,青雲,2026-01-09,23.793361,120.949378,1.8899677e-09
C2E980,和興,2026-01-09,24.505319,120.923016,1.6157959e-08
467350,澎湖,2026-01-09,23.565503,119.563094,0.99971426
C0G800,埔鹽,2026-01-09,24.000394,120.431683,0.12966648
C0H960,草屯,2026-01-09,23.973672,120.68085,5.0654134e-09
C1V780,多納林道,2026-01-09,22.888028,120.737917,5.13108e-09
C0E920,通霄漁港,2026-01-09,24.498589,120.673876,0.9990621
C0Z330,安通山,2026-01-09,23.290728,121.348528,1.2189364e-08
C0AH10,永和,2026-01-09,25.01125,121.508111,7.291041e-08
C0AK10,太平里,2026-01-09,25.134937,121.364899,0.6831053
C2G640,鹿港,2026-01-09,24.0753,120.430481,0.12541078
C1E890,國三N149K,2026-01-09,24.463414,120.680019,0.99414736
C1R110,口社,2026-01-09,22.770111,120.645222,1.842965e-06
C1M870,國三N285K,2026-01-09,23.550319,120.505833,1.3080167e-09
C1E480,鳳美,2026-01-09,24.554803,121.034747,1.4457459e-08
C0T9M0,靜浦,2026-01-09,23.455167,121.495028,1.5883714e-08
C2H9M0,發祥,2026-01-09,24.154094,121.164517,8.620636e-09
C2G9C0,埔南,2026-01-09,23.99124,120.46969,0.12417674
C0AI40,石牌,2026-01-09,25.115597,121.513139,5.9897985e-08
C1F871,上谷關,2026-01-09,24.203483,121.018644,8.455445e-09
C2H9G0,百勝,2026-01-09,24.051142,120.909361,2.0554376e-09
C0G880,二水,2026-01-09,23.810742,120.6173,2.5915161e-09
C0R940,加祿堂,2026-01-09,22.3363,120.6217,0.23838083
C0W220,北竿,2026-01-09,26.220358,119.974881,0.05467653
C0O960,崎頂,2026-01-09,22.959547,120.369317,0.3158294
C0TA40,秀林,2026-01-09,24.302864,121.731144,3.1618555e-08
C0S750,向陽,2026-01-09,23.248397,120.986133,2.3077542e-08
C0T9F0,水璉,2026-01-09,23.797131,121.542514,1.46927235e-08
C1M600,頭凍,2026-01-09,23.406364,120.603339,3.5664796e-09
467660,臺東,2026-01-09,22.752211,121.154586,0.9938356
C1D380,新埔,2026-01-09,24.84745,121.03834,0.0001761882
C2G980,田頭村,2026-01-09,23.8263,120.444175,4.570088e-09
C0V750,路竹,2026-01-09,22.854997,120.259439,0.99661857
C0N050,蚵寮,2026-01-09,23.301,120.1104,0.8609032
C2X060,下營,2026-01-09,23.226806,120.256291,0.66233957
72M700,南改鹿草分場,2026-01-09,23.416869,120.283061,0.19411421
C1SA50,利嘉林道,2026-01-09,22.82325,121.009389,2.124426e-08
C0UB70,太平山中間站,2026-01-09,24.542003,121.513453,2.6819837e-08
C0A940,金山,2026-01-09,25.223628,121.643967,0.62351257
C1V340,大津,2026-01-09,22.888322,120.645986,3.0816298e-07
C0W180,七美,2026-01-09,23.219333,119.444892,0.99983996
C1F9C1,白冷,2026-01-09,24.182844,120.929889,6.5191355e-09
K2E710,苗改生物防治研究中心,2026-01-09,24.422861,120.871833,1.546665e-05
C0N040,蘆竹溝,2026-01-09,23.2344,120.0961,0.8618464
C0TB40,崇德,2026-01-09,24.166144,121.657414,8.1008024e-05
C0D760,大坪苗圃,2026-01-09,24.5362,121.1108,2.160195e-08
C2W230,畜試所澎湖,2026-01-09,23.628342,119.513206,0.9993836
C0R880,後壁湖,2026-01-09,21.9457,120.7457,0.980949
C1I280,埔中,2026-01-09,23.820778,120.642594,1.7397653e-09
467790,墾丁雷達站,2026-01-09,21.948235,120.808028,0.99080837
C0W190,望安,2026-01-09,23.380564,119.494075,0.9997532
C0Z170,卓溪,2026-01-09,23.3443,121.3029,1.202504e-08
C0F850,東勢,2026-01-09,24.246428,120.833047,8.201589e-08
466900,淡水,2026-01-09,25.164889,121.448906,0.48692426
C0I370,魚池,2026-01-09,23.895703,120.94135,2.683579e-09
C0C630,大溪,2026-01-09,24.882853,121.265547,0.00013603581
C0A520,山佳,2026-01-09,24.974944,121.402008,6.156441e-08
C0I110,竹山,2026-01-09,23.761225,120.688156,1.3135444e-09
82H840,茶改南部分場,2026-01-09,23.762528,120.7405,1.6426118e-09
C2SD80,再來山,2026-01-09,23.34371,121.44122,0.9993154
C0G660,溪湖,2026-01-09,23.94835,120.479122,0.0066167274
C1T800,洛韶,2026-01-09,24.204558,121.453956,1.8588086e-08
C1T810,慈恩,2026-01-09,24.192044,121.388386,2.6647491e-08
C1E451,象鼻,2026-01-09,24.368617,120.940228,7.763772e-09
C0AC60,三峽,2026-01-09,24.939025,121.369728,0.006323811
C0I490,萬大林道,2026-01-09,23.928228,121.091411,8.618942e-09
C1I290,豐丘,2026-01-09,23.668178,120.887417,6.094563e-09
C1I320,奧萬大,2026-01-09,23.952956,121.178556,5.749376e-09
C2M910,嘉義大學,2026-01-09,23.471325,120.485903,1.3932557e-09
C0U770,南澳,2026-01-09,24.44935,121.81022,1.3390941e-07
C2TB30,吉安,2026-01-09,23.94538,121.54803,2.224728e-08
C0A980,社子,2026-01-09,25.109508,121.469681,6.752339e-08
C0V800,六龜,2026-01-09,22.997889,120.633583,8.9324e-09
C1G9D0,國一S218K,2026-01-09,23.890641,120.493253,0.007269285
C0E570,白沙屯,2026-01-09,24.549447,120.696803,0.99850535
C2F9A0,中竹林,2026-01-09,24.103556,120.751061,3.3563714e-09
C0FA40,臺中電廠,2026-01-09,24.2146,120.4907,0.9999211
C2G9A0,畜試所彰化,2026-01-09,23.86045,120.557964,3.3679657e-09
C0H9C0,合歡山,2026-01-09,24.143442,121.272547,4.252324e-08
G2M350,農試溪口農場,2026-01-09,23.58565,120.408111,1.7694831e-09
C0U860,頭城,2026-01-09,24.85323,121.8308,2.7610298e-08
C0R580,南州,2026-01-09,22.48591,120.50274,0.19883797
C0D430,峨眉,2026-01-09,24.6905,121.017189,4.4729422e-05
C0G780,秀水,2026-01-09,24.03405,120.503869,0.0034275006
72N100,臺南農改場,2026-01-09,23.0605,120.342194,0.82516825
C0S900,蘭嶼高中,2026-01-09,22.04909,121.51214,0.9999907
C2TA60,六十石,2026-01-09,23.22477,121.31861,1.7301927e-08
C1F9W0,德基,2026-01-09,24.254783,121.190261,1.7626494e-08
C2M980,安和,2026-01-09,23.51377,120.31593,0.19219093
C1Z120,壽豐,2026-01-09,23.870853,121.508081,2.2377378e-08
C0W160,烏坵,2026-01-09,24.9944,119.44956,0.99139524
C1I240,外大坪,2026-01-09,23.958697,120.917931,2.9429084e-09
C1I550,國六W023K,2026-01-09,23.979067,120.867742,3.2797658e-09
C0R870,興海,2026-01-09,21.9752,120.8439,0.984556
C0R140,瑪家,2026-01-09,22.682903,120.686639,2.8905929e-09
C0A530,坪林,2026-01-09,24.938183,121.70975,7.515628e-08
C0X260,後壁,2026-01-09,23.366358,120.362326,0.40169087
C0Z230,和平,2026-01-09,24.30717,121.77007,9.598728e-08
C0G770,福興,2026-01-09,24.041289,120.437669,0.1433764
C0H9A0,神木村,2026-01-09,23.532742,120.843667,8.881367e-09
C0I460,南投,2026-01-09,23.911469,120.687331,5.302436e-09
C0I480,梅峰,2026-01-09,24.085272,121.173572,1.5470407e-08
C1V570,吉東,2026-01-09,22.85422,120.5454,1.7899225e-06
C2A560,福山,2026-01-09,24.776203,121.502811,2.1552236e-08
C0AH30,五分山,2026-01-09,25.07125,121.780794,4.4958576e-08
C0FA10,松柏,2026-01-09,24.429115,120.617482,0.99740666
72S200,東改班鳩分場,2026-01-09,22.829528,121.077694,2.9135666e-07
72HA00,中改埔里分場,2026-01-09,23.903208,120.963364,2.6133664e-09
C2H9W0,大坪頂農水,2026-01-09,24.043122,120.932781,2.7276699e-09
C0C650,平鎮,2026-01-09,24.897503,121.214636,8.720412e-05
C0S930,延平,2026-01-09,22.902581,121.084058,2.3227907e-08
C0UA60,樟樹山,2026-01-09,24.41393,121.78325,2.1240695e-08
C2UC10,出水溪,2026-01-09,24.615822,121.652253,2.8955606e-08
C1S670,摩天,2026-01-09,23.199503,121.027,1.5093745e-08
C2C590,觀音,2026-01-09,25.027072,121.153317,0.033134356
C0V630,茄萣,2026-01-09,22.906642,120.182608,0.9813707
466940,基隆,2026-01-09,25.133314,121.740475,3.3256745e-07
C0X050,東河,2026-01-09,23.296598,120.385608,2.0516109e-09
C0R770,保力,2026-01-09,22.071122,120.764111,0.99984264
G2L020,農試嘉義分所,2026-01-09,23.485028,120.473806,1.4061826e-09
C0X240,關子嶺,2026-01-09,23.331169,120.508025,1.4136936e-09
C0I380,集集,2026-01-09,23.828206,120.801467,1.413381e-09
466990,花蓮,2026-01-09,23.975128,121.613275,2.86618e-08
C1V220,小關山,2026-01-09,23.154217,120.813603,1.1557819e-08
C1F9G1,慶福山,2026-01-09,24.180853,120.848378,1.8961321e-08
C0FB20,雪山橋,2026-01-09,24.23192,120.9786,2.044241e-08
C0Z250,瑞穗林道,2026-01-09,23.49284,121.30688,2.0752296e-08
C0D590,新豐,2026-01-09,24.87068,120.97721,0.8557138
C0A870,五指山,2026-01-09,25.132153,121.608692,6.5065603e-07
C0UA50,西帽山,2026-01-09,24.555361,121.802628,3.1086525e-08
C2R980,竹田國中,2026-01-09,22.61532,120.52412,0.073949024
C0X160,仁德,2026-01-09,22.968258,120.257689,0.94314265
C1H971,六分寮,2026-01-09,23.92507,120.6378,3.6569732e-09
C0W120,西嶼,2026-01-09,23.5626,119.468436,0.9996732
C0G650,員林,2026-01-09,23.946503,120.585597,0.0015856285
C0AD50,鶯歌,2026-01-09,24.951533,121.346294,0.0057019563
C2H9Q0,北東眼山,2026-01-09,24.120939,121.189303,1.458008e-08
C2H9T0,名間竹圍,2026-01-09,23.859914,120.637572,1.5848812e-09
C0S990,山豬窟,2026-01-09,22.318619,120.857372,1.0092433e-08
C0X190,安平,2026-01-09,22.993161,120.152181,0.9848356
C0K400,斗六,2026-01-09,23.720583,120.541127,3.7105259e-09
12J990,口湖工作站,2026-01-09,23.589978,120.180394,0.9170498
C0O830,北寮,2026-01-09,23.079561,120.495008,8.515621e-09
C1D410,白蘭,2026-01-09,24.579364,121.079947,2.0285261e-08
C0S970,加津林,2026-01-09,22.416211,120.926942,0.07591225
C0D700,關西,2026-01-09,24.7977,121.1732,2.5376147e-08
C0U750,龜山島,2026-01-09,24.841667,121.953133,2.2473488e-08
C0R810,內獅,2026-01-09,22.305064,120.642986,0.23898177
C1M390,龍美,2026-01-09,23.406728,120.654417,4.9433475e-09
C2K290,崙內,2026-01-09,23.69525,120.35601,0.7772527
C2FB60,頭櫃山,2026-01-09,24.129842,120.858925,5.7985488e-09
C1H840,國三N238K,2026-01-09,23.841008,120.707711,1.3949761e-09
CAQ030,崎峰國小,2026-01-09,22.42565,120.49521,0.19883797
C2E520,大湖,2026-01-09,24.414939,120.870872,1.01506575e-05
467530,阿里山,2026-01-09,23.508208,120.813242,2.1410267e-08
C1E691,南湖,2026-01-09,24.40135,120.837533,9.854227e-08
C0FA30,梧棲,2026-01-09,24.256003,120.523381,0.99991685
C1V231,高中,2026-01-09,23.134911,120.716711,2.8830713e-09
C0AK30,硬漢嶺,2026-01-09,25.136097,121.426372,1.42026e-06
C0F9V0,新社,2026-01-09,24.200172,120.815806,3.090338e-08
C0H890,埔里,2026-01-09,23.972169,120.952425,1.9659752e-09
C0R690,墾丁,2026-01-09,21.966756,120.810269,0.9999831
C0SD20,富山,2026-01-09,22.822383,121.190825,1.0243687e-07
C0F0D0,審馬陣,2026-01-09,24.381675,121.4203,5.1218223e-08
C2W030,金門農試所,2026-01-09,24.448431,118.451786,0.083610535
C0R820,白鷺,2026-01-09,22.454275,120.666219,5.4997864e-09
C0FB00,大雪山,2026-01-09,24.254668,121.007374,2.089528e-08
C1V190,南天池,2026-01-09,23.27403,120.91176,2.5154332e-08
C0E940,雪見,2026-01-09,24.42595,121.01347,2.0636252e-08
K2E360,苗栗農改場,2026-01-09,24.495722,120.829111,0.040752895
CAJ050,海口故事園區,2026-01-09,23.57543,120.14121,0.9204946
C2K280,四湖,2026-01-09,23.6304,120.22717,0.98393255
C2H9D0,三隻寮,2026-01-09,24.093078,120.861578,4.165631e-09
C0O990,媽廟,2026-01-09,22.99175,120.293525,0.8436269
C0D480,打鐵坑,2026-01-09,24.849664,121.150789,2.474872e-08
C0Z220,和平林道,2026-01-09,24.343922,121.656317,1.9546546e-08
C0TA10,花蓮漁港,2026-01-09,23.995322,121.638331,0.99999005
72C440,桃園農改場,2026-01-09,24.950944,121.030583,0.0012747056
C1E711,馬拉邦山,2026-01-09,24.367306,120.901656,7.773567e-09
C0SB20,富岡,2026-01-09,22.792467,121.192669,0.98297954
C0D560,竹東,2026-01-09,24.767147,121.057881,1.7943328e-05
C0F9U0,南屯,2026-01-09,24.137006,120.637969,6.872432e-05
C2SD60,明峰,2026-01-09,22.8671,121.11825,1.9843645e-08
C0M720,番路,2026-01-09,23.464657,120.554156,1.5705872e-09
C0F0A0,雪山圈谷,2026-01-09,24.388594,121.236339,5.948675e-08
C1A9N0,四十份,2026-01-09,24.934158,121.593283,4.8379547e-08
C0U760,東澳,2026-01-09,24.52196,121.83318,1.1270926e-07
C0X230,鹽水,2026-01-09,23.272621,120.247641,0.79891247
C2H9H0,苗改南投蜂場,2026-01-09,23.852589,120.693481,1.3327519e-09
C2TB70,達谷寮,2026-01-09,23.38,121.35968,1.20239845e-08
C0R950,萬隆國小,2026-01-09,22.507667,120.587817,0.027042186
467540,大武,2026-01-09,22.35572,120.90374,0.9999454
C0V370,古亭坑,2026-01-09,22.893178,120.401947,1.6627775e-08
C1I340,新興橋,2026-01-09,23.563333,120.868728,3.814033e-09
C0SA80,土坂,2026-01-09,22.453108,120.887572,0.000494897
C0R160,鹽埔,2026-01-09,22.739558,120.530778,1.8117108e-06
C0AC40,大屯山,2026-01-09,25.175675,121.522408,1.6814914e-07
466850,五分山雷達站,2026-01-09,25.071182,121.781205,4.4866827e-08
C2H9L0,馬烈霸,2026-01-09,24.1512,121.201772,1.6737266e-08
C1AI50,國三N016K,2026-01-09,25.034164,121.619664,6.88226e-08
C2V920,匏子寮,2026-01-09,23.04905,120.55319,7.182493e-09
C1V600,藤枝,2026-01-09,23.071961,120.757042,8.265848e-09
C1E601,南勢,2026-01-09,24.572486,120.734842,0.8912001
C0O980,新市,2026-01-09,23.061614,120.298197,0.90134925
C0K420,西螺,2026-01-09,23.800407,120.467394,4.3710844e-09
C0Z050,佳心,2026-01-09,23.34567,121.21316,1.6964204e-08
C0AD30,蘆洲,2026-01-09,25.086594,121.472331,6.101416e-08
C0V610,梓官,2026-01-09,22.760558,120.267211,0.9976056
K2F750,種苗改良場,2026-01-09,24.225972,120.800917,4.0629782e-08
C0UA80,大溪漁港,2026-01-09,24.941801,121.902955,3.6929302e-07
C1AI60,國一39K邊坡,2026-01-09,25.064361,121.383836,3.9982105e-08
C0W150,金寧,2026-01-09,24.457703,118.328989,0.9906734
C0R960,內埔,2026-01-09,22.608483,120.570714,0.057078324
V2C250,八德合作社,2026-01-09,24.93775,121.266389,0.0004382774
C2H9S0,龍南,2026-01-09,23.953536,120.833183,4.4143333e-09
C0AH40,平等,2026-01-09,25.129142,121.577086,1.6960075e-05
C0R540,佳冬,2026-01-09,22.419456,120.552375,0.14191236
466950,彭佳嶼,2026-01-09,25.627975,122.079744,0.9999949
C0A890,雙溪,2026-01-09,25.036003,121.864242,1.6517858e-07
C0C480,桃園,2026-01-09,24.992425,121.323172,0.0022731458
C0AH50,林口,2026-01-09,25.072181,121.38084,3.7646423e-08
A2K360,水試臺西試驗場,2026-01-09,23.717231,120.190522,0.99025935
C2M960,外寮,2026-01-09,23.562643,120.665688,4.5815387e-09
C0F9S0,烏日,2026-01-09,24.107058,120.624103,0.0023905695
C2N180,鹿陶洋,2026-01-09,23.14325,120.48352,1.4951074e-09
C0C490,八德,2026-01-09,24.928708,121.283289,0.00040622058
C0R190,赤山,2026-01-09,22.592333,120.614306,0.04592827
C0T820,天祥,2026-01-09,24.179597,121.495639,2.0722354e-08
C1F9E1,龍安,2026-01-09,24.1605,120.831961,2.8184092e-08
C2SD50,順那,2026-01-09,23.04166,121.29332,6.577817e-08
C0V820,小林,2026-01-09,23.148408,120.63325,1.4806851e-09
C2G870,芳苑,2026-01-09,23.922303,120.320025,0.96588767
C0E850,大河,2026-01-09,24.618069,120.948578,4.1207408e-05
C1U670,寒溪,2026-01-09,24.634,121.71691,1.4567155e-08
C0N020,城西,2026-01-09,23.0568,120.0956,0.98709846
C1Z110,三棧,2026-01-09,24.11557,121.60501,2.0881018e-08
C0R280,檳榔,2026-01-09,22.076078,120.836777,0.99999756
C2H9J0,中台,2026-01-09,23.9996,120.938739,2.204557e-09
C0F9L0,后里,2026-01-09,24.310436,120.729725,3.4639075e-07
467441,高雄,2026-01-09,22.730432,120.312516,0.9970097
C0Z180,新城,2026-01-09,24.040486,121.604878,2.8113597e-08
C0D540,橫山,2026-01-09,24.71116,121.11693,2.7066076e-06
C1D420,太閣南,2026-01-09,24.632808,121.160575,2.5356407e-08
C1E770,公館,2026-01-09,24.526914,120.830806,0.09718924
CAN130,水試所海水繁養殖中心,2026-01-09,23.120802,120.07968,0.99084127
C1I430,翠華,2026-01-09,24.191961,121.224339,2.4400977e-08
C1M400,菜瓜坪,2026-01-09,23.251928,120.576103,1.4754752e-09
C0G730,二林,2026-01-09,23.903325,120.376081,0.13686216
72M360,南改義竹分場,2026-01-09,23.360694,120.279361,0.73740953
V2K620,麥寮合作社,2026-01-09,23.753836,120.294783,0.9148514
C0Z070,舞鶴,2026-01-09,23.46811,121.37407,1.3270504e-08
C0B040,大武崙,2026-01-09,25.166676,121.706993,2.3987724e-07
C1Z030,紅葉,2026-01-09,23.493119,121.338806,1.33812454e-08
C1I050,丹大,2026-01-09,23.753747,121.141147,2.5132511e-08
C0I080,信義,2026-01-09,23.689694,120.851036,2.0315996e-09
C2TB80,庄子底,2026-01-09,23.71794,121.49438,1.6379323e-08
C0D750,樂山林道6k,2026-01-09,24.49999,121.08773,2.9654709e-08
C2M920,朴子農改,2026-01-09,23.469889,120.259383,0.2678438
C2A880,福隆,2026-01-09,25.017842,121.942083,2.2367227e-07
C0Z160,鳳林,2026-01-09,23.746114,121.453411,1.5922723e-08
C0UB80,翠峰林道6K,2026-01-09,24.49773,121.568625,3.7999843e-08
C0V210,復興,2026-01-09,23.222403,120.806089,2.886714e-09
C0H990,昆陽,2026-01-09,24.121322,121.273642,3.2665636e-08
C0R741,獅子,2026-01-09,22.202308,120.705236,0.99707454
C0S710,鹿野,2026-01-09,22.917711,121.122994,1.6546814e-08
C0I530,小奇萊,2026-01-09,24.131764,121.295717,3.709587e-08
C0FA70,大雪山埡口,2026-01-09,24.26867,121.03062,2.9253483e-08
C2K630,荷苞,2026-01-09,23.657717,120.595144,2.5283424e-09
C0Z080,富源,2026-01-09,23.587642,121.378225,1.76273e-08
C2M9E0,旺來山,2026-01-09,23.555153,120.486463,1.3180593e-09
C0SB10,美和,2026-01-09,22.682078,121.060236,0.00010012376
C2K620,馬光農場,2026-01-09,23.721453,120.378864,5.061396e-09
C1I140,卡奈托灣,2026-01-09,23.754364,121.087872,1.0699087e-08
C0I520,玉山風口,2026-01-09,23.470489,120.955994,5.1448314e-08
C1G691,下水埔,2026-01-09,23.816114,120.5676,3.3894254e-09
C0X110,臺南市南區,2026-01-09,22.961189,120.188378,0.9480861
C0V680,仁武,2026-01-09,22.701083,120.347722,0.9968278
C2G840,北斗,2026-01-09,23.877586,120.514222,0.0044843787
C2TB90,長橋,2026-01-09,23.6874,121.46186,1.5846403e-08
C0R900,竹坑,2026-01-09,22.1385,120.7022,0.9999037
C0G860,社頭,2026-01-09,23.897647,120.5862,0.0020261162
C0X150,安定,2026-01-09,23.102614,120.227839,0.95777357
C0R590,里港,2026-01-09,22.77919,120.49459,1.4687773e-06
C0E610,馬都安,2026-01-09,24.451272,120.930192,1.730909e-08
C0E550,明德,2026-01-09,24.583486,120.885411,0.010653501
C0R150,三地門,2026-01-09,22.709889,120.639944,8.569504e-07
C0G910,花壇,2026-01-09,24.032076,120.549461,0.0024643603
C1D400,鳥嘴山,2026-01-09,24.71909,121.28387,2.3074328e-08
C0K500,元長,2026-01-09,23.64981,120.315024,0.88865286
C0F0B0,石岡,2026-01-09,24.276061,120.777644,1.4173926e-07
C2V250,甲仙,2026-01-09,23.080106,120.591758,3.5190306e-09
C0SA20,金崙山,2026-01-09,22.567419,120.959667,3.652075e-08
C0V350,溪埔,2026-01-09,22.738578,120.446797,2.1097032e-06
C0M660,溪口,2026-01-09,23.604131,120.403569,1.7654074e-09
C1S880,壽卡,2026-01-09,22.238911,120.858903,1.6325647e-08
72D680,桃改新埔分場,2026-01-09,24.834444,121.066111,0.00024207585
