站號,站名,日期,lat,lon,BlastGRU-TW
C0R710,龍磐,2026-01-18,21.931672,120.838942,0.00044246495
C1F9D1,白毛台,2026-01-18,24.158325,120.886933,0.0009895322
C0G940,竹塘,2026-01-18,23.848253,120.386764,0.0016139677
467590,恆春,2026-01-18,22.003897,120.746339,0.00048057226
C1O850,環湖,2026-01-18,23.148617,120.418633,0.0042539546
C0U710,太平山,2026-01-18,24.505486,121.525656,0.0002686178
C0E820,獅潭,2026-01-18,24.539133,120.920042,0.00064409093
C2SD70,二層坪,2026-01-18,22.94105,121.16838,0.00032776175
C0V880,興達,2026-01-18,22.8778,120.2127,0.001543892
C0S890,關山,2026-01-18,23.0395,121.175017,0.0003251062
C0SB30,新蘭,2026-01-18,22.869214,121.223228,0.0005115319
C2R970,屏科大,2026-01-18,22.648275,120.619247,0.0060063875
C1Z130,銅門,2026-01-18,23.965694,121.492842,0.00024394516
C0AD40,土城,2026-01-18,24.973208,121.445169,0.0017125664
CAN140,六官養殖協會,2026-01-18,23.22881,120.29962,0.0014412024
C0X180,山上,2026-01-18,23.0757,120.363253,0.0018396318
C0F9Z0,雪山東峰,2026-01-18,24.388792,121.268675,0.00047071467
C1M480,獨立山,2026-01-18,23.537022,120.607797,0.0006109777
C0X220,學甲,2026-01-18,23.230367,120.182187,0.0014682518
467650,日月潭,2026-01-18,23.881325,120.90805,0.0010295602
A2K570,古坑(花卉中心),2026-01-18,23.633531,120.552392,0.0011457872
C0K600,箔子寮,2026-01-18,23.6197,120.14,0.0015565043
C0G830,埤頭,2026-01-18,23.866003,120.452806,0.0017802564
C0S950,七塊厝,2026-01-18,22.954453,121.229922,0.00024084556
467110,金門,2026-01-18,24.407306,118.289281,0.00073524204
C0AH80,深坑,2026-01-18,25.002703,121.628328,0.003866986
C0A970,三貂角,2026-01-18,25.007606,122.002058,0.019051885
C2D730,寶山農場,2026-01-18,24.732444,120.976153,0.0004129034
C0K430,褒忠,2026-01-18,23.690938,120.303634,0.00078245543
467480,嘉義,2026-01-18,23.495925,120.432906,0.004888339
C0V400,阿公店,2026-01-18,22.804194,120.355528,0.0026824586
C0E960,觀霧分站,2026-01-18,24.505781,121.113921,0.0003170182
467550,玉山,2026-01-18,23.48718,120.95943,0.00037368768
C0R440,大漢山,2026-01-18,22.405264,120.753181,0.00032214553
C0SD30,東清國小,2026-01-18,22.057128,121.564922,0.0011023255
C1F9B1,桐林,2026-01-18,24.066172,120.735194,0.0023669694
C2H9U0,鳳鵬,2026-01-18,23.763919,120.788061,0.0010966021
C0K390,土庫,2026-01-18,23.679029,120.395574,0.002148059
C1I450,望鄉山,2026-01-18,23.594153,120.944286,0.00028756412
C0E910,海埔,2026-01-18,24.648767,120.772435,0.0005702779
B2E890,畜試北區分所,2026-01-18,24.527806,120.770972,0.0006567097
C0R750,四林格山,2026-01-18,22.076989,120.802439,0.00023714322
C0F0C0,中坑,2026-01-18,24.248517,120.903319,0.0006778874
C1I121,大鞍,2026-01-18,23.678381,120.760017,0.00076123874
C2G9E0,移民庄,2026-01-18,23.9784,120.40283,0.0011228502
72U480,花改蘭陽分場,2026-01-18,24.686306,121.716583,0.02331978
C0A770,科教館,2026-01-18,25.096356,121.516507,0.0017992331
C0AJ60,六塊厝,2026-01-18,25.24,121.4481,0.0009997888
C0R620,墾雷,2026-01-18,21.900836,120.855269,0.00034084194
467420,永康,2026-01-18,23.038386,120.2367,0.002240883
C2M530,奮起湖,2026-01-18,23.493903,120.699253,0.0005865915
C0I410,名間,2026-01-18,23.837053,120.701447,0.0026513608
A2C560,農工中心,2026-01-18,24.985917,121.239833,0.00028185372
C0V740,旗山,2026-01-18,22.888614,120.483597,0.017545046
C0Z061,玉里,2026-01-18,23.3215,121.339656,0.0013450857
C0S840,南田,2026-01-18,22.279725,120.889208,0.00044865356
C1I470,杉林溪,2026-01-18,23.639517,120.786444,0.0005652735
C1X040,東原,2026-01-18,23.291597,120.463822,0.0013988428
C0R660,枋寮,2026-01-18,22.367722,120.590647,0.0066157496
C1R120,上德文,2026-01-18,22.763272,120.704442,0.00073584943
C0K450,大埤,2026-01-18,23.646074,120.431537,0.0021743502
C0UA00,土場,2026-01-18,24.576533,121.495333,0.00196979
467080,宜蘭,2026-01-18,24.763975,121.756528,0.008306366
C0N030,四草,2026-01-18,23.0235,120.1116,0.0016930423
467410,臺南,2026-01-18,22.99328,120.20492,0.0014361412
C0V650,彌陀,2026-01-18,22.783806,120.246361,0.0021357841
C0D660,新竹市東區,2026-01-18,24.798681,120.986942,0.0004706795
82S580,茶改東部分場,2026-01-18,22.907694,121.130139,0.00033556632
C0SB40,興隆,2026-01-18,22.913661,121.257469,0.00032793425
467050,新屋,2026-01-18,25.006725,121.047492,0.00024682307
C0C710,大溪永福,2026-01-18,24.892936,121.324975,0.00059062435
C0FA20,溫寮,2026-01-18,24.372177,120.583125,0.0006499258
C0V640,湖內,2026-01-18,22.887139,120.2445,0.0015036309
C0R910,下寮,2026-01-18,22.3929,120.5548,0.005323851
C0Z020,明里,2026-01-18,23.208717,121.262342,0.00093425653
C0M770,嘉義梅山,2026-01-18,23.585398,120.555587,0.0015111135
C0C660,楊梅,2026-01-18,24.912375,121.143047,0.00029689484
C0SD40,牛頭山,2026-01-18,22.676661,121.506944,0.0014982955
C1E511,新開,2026-01-18,24.347703,120.827019,0.0011828059
G2F820,農試所(霧峰),2026-01-18,24.031261,120.688133,0.0028013426
C2M990,大巃頂,2026-01-18,23.5547,120.61439,0.0005294651
C1I070,和社,2026-01-18,23.591131,120.888861,0.00080935826
C2E990,新坪頂,2026-01-18,24.30201,120.8574,0.0007583852
C0TA80,立霧山,2026-01-18,24.183258,121.641899,0.00061440933
C2F000,大肚,2026-01-18,24.15295,120.572117,0.00052430417
C1S850,豐南,2026-01-18,23.122139,121.262389,0.00023514839
C2M9B0,西興,2026-01-18,23.2428,120.57617,0.0010362891
C2A920,富貴角,2026-01-18,25.263783,121.565258,0.0010013308
CAH030,茶改場竹圍站,2026-01-18,23.860083,120.637528,0.0018147868
C0T960,光復,2026-01-18,23.660694,121.424964,0.00041831206
C0F9M0,豐原,2026-01-18,24.254322,120.720692,0.001233204
C0R720,旭海,2026-01-18,22.205403,120.887614,0.00039164265
C0V710,苓雅,2026-01-18,22.622742,120.330669,0.0017595129
C0C740,觀音工業區,2026-01-18,25.064764,121.114856,0.00024952737
CAC040,拉拉山,2026-01-18,24.699317,121.427133,0.00060977647
C0V790,萬山,2026-01-18,22.905944,120.688056,0.0030495164
U2HA30,臺大和社,2026-01-18,23.590856,120.888864,0.00080935826
C2H9K0,屯原,2026-01-18,24.067969,121.209389,0.00022610667
C0AJ90,澳底,2026-01-18,25.0552,121.9253,0.028220339
C0Z100,東華,2026-01-18,23.89525,121.549833,0.00041832463
C0G970,三豐,2026-01-18,23.882,120.2895,0.0010629522
V2K610,大庄合作社,2026-01-18,23.8068,120.367939,0.0007837464
C0V900,汕尾,2026-01-18,22.4782,120.4151,0.006937124
C1R630,龍泉,2026-01-18,22.66701,120.59091,0.009252172
C1AC50,關渡,2026-01-18,25.133486,121.469331,0.00034375014
C0C800,四稜,2026-01-18,24.64733,121.4293,0.0005032411
C0F9I0,神岡,2026-01-18,24.272481,120.658314,0.0014166652
C0K460,斗南,2026-01-18,23.678734,120.478359,0.0021449295
C2O810,曾文,2026-01-18,23.219681,120.497328,0.002303665
467280,後龍,2026-01-18,24.648563,120.831834,0.00056830904
C1F9J1,清水林,2026-01-18,24.071242,120.820419,0.00071031624
C2A650,火燒寮,2026-01-18,25.002719,121.742892,0.008834359
466930,竹子湖,2026-01-18,25.162078,121.544547,0.00032578444
C1I220,樟湖,2026-01-18,23.905333,120.846983,0.0009066858
C0I390,仁愛,2026-01-18,24.022122,121.132206,0.00057713443
C0Z300,東里,2026-01-18,23.26853,121.30547,0.0012186291
C1V590,新發,2026-01-18,23.057019,120.646064,0.0012141279
C0K510,水林,2026-01-18,23.572924,120.24597,0.0012720913
72S590,東改賓朗果園,2026-01-18,22.813889,121.071278,0.0010588373
82A750,茶改北部分場,2026-01-18,24.955778,121.631222,0.0027766796
C1A750,石碇服務區,2026-01-18,25.00872,121.646242,0.004396561
C0X300,鹿寮,2026-01-18,23.386047,120.477331,0.0026609267
G2AI50,關渡,2026-01-18,25.11575,121.492,0.0021035622
C0K590,雲林東勢,2026-01-18,23.674192,120.255721,0.00077632046
C2K310,港尾布雞,2026-01-18,23.74834,120.38439,0.0019320025
C0A570,桶後,2026-01-18,24.848222,121.597992,0.019399142
C1S800,華源,2026-01-18,22.657883,121.02325,0.001749772
C0G720,溪州,2026-01-18,23.851589,120.499093,0.0017397088
C1V160,達卡努瓦,2026-01-18,23.279811,120.705319,0.00085347897
C2M410,馬頭山,2026-01-18,23.324361,120.582017,0.0010782491
C0V850,蚵仔寮,2026-01-18,22.7256,120.2527,0.002192899
C0S740,池上,2026-01-18,23.119628,121.209469,0.00032506994
C1V390,尖山,2026-01-18,22.813153,120.367789,0.002313971
C0AH70,松山,2026-01-18,25.04871,121.55042,0.0017471595
C0N010,鯤鯓國小,2026-01-18,23.1879,120.0889,0.0014466433
C0R550,新埤,2026-01-18,22.467947,120.582894,0.006051261
C0SA60,知本（水試所）,2026-01-18,22.702394,121.082761,0.0034032478
C0T9I0,豐濱,2026-01-18,23.583897,121.514806,0.0002196541
C0UB00,淡江大學蘭陽校園,2026-01-18,24.823239,121.730383,0.002618184
C0W240,九宮,2026-01-18,24.423753,118.240186,0.0005735863
C0T9N0,富里,2026-01-18,23.171639,121.249378,0.00078870024
U2HA50,臺大竹山,2026-01-18,23.756972,120.681556,0.0024563088
C0V840,鳳鼻頭,2026-01-18,22.5083,120.3591,0.006726378
C0X140,西港,2026-01-18,23.125608,120.203108,0.0013129252
72D080,桃改五峰分場,2026-01-18,24.612194,121.157167,0.0006932321
C2H9P0,伊拿谷,2026-01-18,23.963211,121.088264,0.0008479774
C2K250,崙背,2026-01-18,23.75553,120.31893,0.00078218407
C2H9F0,柑林,2026-01-18,24.018658,120.847072,0.0011023286
C0TA20,加灣,2026-01-18,24.082025,121.608944,0.009681333
C0V530,阿蓮,2026-01-18,22.883208,120.327508,0.001804719
C0FB30,八仙山苗圃,2026-01-18,24.192719,121.001366,0.00069999596
C1O880,關山,2026-01-18,23.173397,120.594092,0.0011381789
C0E791,卓蘭,2026-01-18,24.3126,120.8244,0.0011810982
C1I030,武界,2026-01-18,23.913225,121.052483,0.00087391335
C0R520,崁頂,2026-01-18,22.514781,120.506914,0.0072802296
C0R341,牡丹,2026-01-18,22.130036,120.792639,0.0005459473
C0R930,萬丹,2026-01-18,22.5885,120.4851,0.009283864
C0S760,紅石,2026-01-18,23.069131,121.126219,0.00027280772
C2C410,中央大學,2026-01-18,24.967652,121.185165,0.000280851
C1M610,石磐龍,2026-01-18,23.496606,120.663506,0.0007239987
C0C790,東眼山,2026-01-18,24.8284,121.40888,0.0017278788
C0UA10,鴛鴦湖,2026-01-18,24.590269,121.412228,0.0003408374
V2C260,八德蔬果,2026-01-18,24.978508,121.281819,0.00027098818
C0R800,丹路,2026-01-18,22.204481,120.750989,0.0008404428
C0G920,永靖,2026-01-18,23.924703,120.547533,0.0009960022
C2M950,太和,2026-01-18,23.538372,120.702961,0.0005898879
C1A630,下盆,2026-01-18,24.771003,121.538622,0.012302838
B2N890,畜產試驗所,2026-01-18,23.058972,120.336406,0.0025430797
C0UA30,白嶺,2026-01-18,24.527819,121.519031,0.0004312591
C1V580,溪南(特生中心),2026-01-18,23.084972,120.788475,0.00036896917
C1T970,大農,2026-01-18,23.615233,121.413331,0.00032644608
C0R650,竹田,2026-01-18,22.58486,120.54344,0.0070157708
C1H900,清流,2026-01-18,24.080775,120.962997,0.0006925008
C1C510,水尾,2026-01-18,24.940081,121.087161,0.00026068307
C2N170,茅港尾,2026-01-18,23.2061,120.2624,0.0014477912
C0F9X0,大雅(中科園區),2026-01-18,24.21528,120.62445,0.00055841025
C0SB60,白守蓮,2026-01-18,23.126769,121.401914,0.00036337075
C0O970,虎頭埤,2026-01-18,23.021375,120.347878,0.0020395496
C0C730,中大臨海站,2026-01-18,24.966126,121.008581,0.0003745038
C0X250,新營,2026-01-18,23.310689,120.316681,0.0014430797
C0V700,三民,2026-01-18,22.645017,120.311233,0.0016122658
C0U870,大礁溪,2026-01-18,24.791042,121.675047,0.00464591
C0E870,高鐵苗栗,2026-01-18,24.60725,120.826094,0.0005691295
C0TA30,鹽寮,2026-01-18,23.845606,121.592664,0.0004670584
C0M860,新美,2026-01-18,23.338017,120.683169,0.0021696244
C1E701,八卦,2026-01-18,24.491756,120.927619,0.00065981486
C2TA90,加納納,2026-01-18,23.466421,121.359867,0.00017187218
C0I420,國姓,2026-01-18,24.037803,120.855072,0.0010648952
C2D720,關西工作站,2026-01-18,24.757275,121.184792,0.0006461152
C0S960,香蘭,2026-01-18,22.587569,120.993375,0.003770825
467620,蘭嶼,2026-01-18,22.0369,121.55843,0.00092180725
C0R260,春日,2026-01-18,22.370361,120.628306,0.0054666945
72G600,臺中農改場,2026-01-18,24.003028,120.534389,0.00091283553
C0Z210,瑞穗,2026-01-18,23.5239,121.39021,0.0002350547
C0M820,達邦,2026-01-18,23.453994,120.749517,0.00077839894
C0V860,南寮,2026-01-18,22.7616,120.2339,0.0022217468
C0G740,大城,2026-01-18,23.852487,120.320935,0.0010575837
C0R920,塭仔,2026-01-18,22.4169,120.5197,0.0053318664
C0R470,高樹,2026-01-18,22.826389,120.600806,0.0114482995
C0R680,佳樂水,2026-01-18,21.993578,120.861633,0.00033177296
C1O870,大棟山,2026-01-18,23.31157,120.52226,0.00051015697
C0D360,梅花,2026-01-18,24.678347,121.208558,0.00041712105
C0Z190,富世,2026-01-18,24.14743,121.6297,0.0028197542
C0AI10,屈尺,2026-01-18,24.92184,121.54475,0.00146496
B2U990,畜試東區分所,2026-01-18,24.669039,121.832561,0.17549665
C0SB80,長濱漁港,2026-01-18,23.313644,121.459994,0.00026968014
C0TA50,和仁,2026-01-18,24.241394,121.712472,0.00018419634
C0V910,大樹,2026-01-18,22.684645,120.432803,0.014015936
C1R610,西大武山,2026-01-18,22.617719,120.7322,0.0003076372
C0G900,線西,2026-01-18,24.143358,120.443536,0.00060183706
C0M700,竹崎,2026-01-18,23.526178,120.555508,0.0015188415
C2E880,三義,2026-01-18,24.405478,120.749819,0.0005886318
C0C720,竹圍,2026-01-18,25.112692,121.239824,0.00026127152
C0F9P0,清水,2026-01-18,24.312297,120.562242,0.0006402886
C0Z150,吉安光華,2026-01-18,23.930925,121.595153,0.0005141246
C0FA80,小雪山天池,2026-01-18,24.28025,121.02627,0.00047630043
467300,東吉島,2026-01-18,23.25727,119.66762,0.00068790914
C1D640,外坪(五指山),2026-01-18,24.644447,121.090961,0.00041047606
C2R9A0,高士國小,2026-01-18,22.12553,120.84653,0.00066070026
C0F9O0,潭子,2026-01-18,24.213106,120.703933,0.0012877899
C2H9R0,卓社,2026-01-18,23.887894,121.000086,0.0005278456
72T250,花蓮農改場,2026-01-18,23.975222,121.563889,0.00044697552
C0E780,銅鑼,2026-01-18,24.489681,120.790853,0.0006378602
C1T950,太安,2026-01-18,23.666719,121.370128,0.0021670589
C0E830,苑裡,2026-01-18,24.439714,120.653053,0.00076018
467270,田中,2026-01-18,23.873803,120.581286,0.0021111993
C0SA10,檳榔四格山,2026-01-18,22.810031,121.109308,0.0009145649
C1T830,布洛灣,2026-01-18,24.17184,121.57127,0.02732258
C0F970,大坑,2026-01-18,24.173142,120.722289,0.0014615114
C1U920,思源,2026-01-18,24.393125,121.347214,0.0003410025
C2H9Y0,松茗,2026-01-18,23.8167,120.650765,0.0009962498
C0A931,三和,2026-01-18,25.233153,121.595236,0.0021155956
C0I010,廬山,2026-01-18,24.033311,121.181808,0.00032266928
C2M940,日野賀,2026-01-18,23.434056,120.727169,0.00069549854
C0R860,鼻頭,2026-01-18,22.1043,120.8979,0.0009866023
C0UB20,壯圍,2026-01-18,24.7359,121.8163,0.01044829
C0R790,九棚,2026-01-18,22.14195,120.889281,0.00034884398
C0W110,東莒,2026-01-18,25.9652,119.98069,0.00069970853
C1U930,粉鳥林,2026-01-18,24.497088,121.842479,0.004641366
C1I211,蘆竹湳,2026-01-18,23.934019,120.811994,0.00089534605
C0S830,長濱,2026-01-18,23.286817,121.411975,0.00074296794
C1F9F1,伯公龍,2026-01-18,24.272392,120.849047,0.000764488
C0UB90,太平山莊,2026-01-18,24.494171,121.536209,0.00026883144
C0E810,西湖,2026-01-18,24.562947,120.7485,0.0007313494
C1I440,新高口,2026-01-18,23.478744,120.878939,0.00027151502
C0O840,王爺宮,2026-01-18,23.222064,120.40085,0.0052133007
C0T9G0,鳳林山,2026-01-18,23.735269,121.420131,0.0013661478
C0X080,佳里,2026-01-18,23.173039,120.145086,0.0014444586
C0FB70,大甲溪埔,2026-01-18,24.370625,120.620067,0.000646086
C0Z310,清水斷崖,2026-01-18,24.218294,121.689142,0.000162974
C0M680,太保,2026-01-18,23.455062,120.331455,0.0013018462
C1S820,金峰,2026-01-18,22.590969,120.933236,0.0014322101
C0AD10,八里,2026-01-18,25.150211,121.403947,0.00030510421
C2K240,草嶺,2026-01-18,23.59555,120.693461,0.00070378697
C1SA70,都蘭,2026-01-18,22.87794,121.226881,0.00048457002
C0K440,二崙,2026-01-18,23.772797,120.408944,0.0017628832
C1A760,坪林交控,2026-01-18,24.94284,121.713442,0.005933057
C0F9N0,大里,2026-01-18,24.092464,120.701378,0.002772053
C0SA90,達仁林場,2026-01-18,22.264347,120.823972,0.0014740301
C1R290,石門山,2026-01-18,22.112611,120.756597,0.0005051452
42HA10,萬大發電廠,2026-01-18,23.978875,121.139639,0.0006358554
C0R890,山海,2026-01-18,21.9878,120.7091,0.00046607884
C0T9A0,月眉山,2026-01-18,23.809928,121.539828,0.00012895043
C0AC70,信義,2026-01-18,25.037822,121.564597,0.001930744
C0K560,棋山,2026-01-18,23.68645,120.603417,0.0011499532
C2FB50,出雲,2026-01-18,24.206469,120.902794,0.00063761557
C1Z240,中平林道,2026-01-18,23.42115,121.26763,0.0007134717
U2H480,溪頭,2026-01-18,23.670306,120.798194,0.0005533904
C0M880,好美里,2026-01-18,23.3364,120.138,0.0014811455
C0T9E0,大坑,2026-01-18,23.880628,121.581981,0.0007891889
C0K530,臺西,2026-01-18,23.701547,120.197559,0.00094536814
C1E900,國一N128K,2026-01-18,24.560997,120.844186,0.000590785
C0AJ50,水湳洞,2026-01-18,25.123695,121.862238,0.027221525
C0AI20,白沙灣,2026-01-18,25.283128,121.519058,0.0014231076
C2V310,美濃,2026-01-18,22.898792,120.51907,0.018587673
C0A860,大坪,2026-01-18,25.165914,121.632969,0.0032680442
C1U850,觀音海岸,2026-01-18,24.38319,121.77856,0.00024564945
C2K610,草嶺石壁,2026-01-18,23.602469,120.707731,0.0006845666
C0U950,鶯子嶺,2026-01-18,24.89754,121.79244,0.0017473757
C0O900,善化,2026-01-18,23.112883,120.297219,0.0028065958
C0K550,蔦松,2026-01-18,23.514319,120.229736,0.0011883498
E2P980,林試六龜中心,2026-01-18,22.991703,120.645722,0.0020060511
C0E590,通霄,2026-01-18,24.471892,120.704622,0.0007607272
C1I310,西巒,2026-01-18,23.754486,120.883956,0.0010561357
C0A550,泰平,2026-01-18,24.971197,121.823711,0.009422545
C0I360,水里,2026-01-18,23.812553,120.849792,0.0014441843
C0R830,高士,2026-01-18,22.121825,120.836781,0.0003399398
C1I101,溪頭,2026-01-18,23.661789,120.807647,0.0005313625
C0AJ20,野柳,2026-01-18,25.20703,121.690021,0.0058204206
C0B060,暖暖,2026-01-18,25.0957,121.7403,0.016667033
C1H920,長豐,2026-01-18,24.102039,120.879897,0.0008643162
C2S9B0,利吉,2026-01-18,22.86246,121.15486,0.00035548778
C0V360,內門,2026-01-18,22.975481,120.466769,0.014691363
C0R850,林邊,2026-01-18,22.4634,120.5339,0.0070866416
C0E930,龍鳳,2026-01-18,24.700034,120.859125,0.0004625564
C0U910,冬山,2026-01-18,24.63373,121.7937,0.17549683
C1E721,泰安,2026-01-18,24.489017,120.968036,0.00035449496
82H320,茶改中部分場,2026-01-18,23.875611,120.913583,0.0012264977
C0M750,布袋,2026-01-18,23.380878,120.167789,0.0012299266
C1S860,利嘉,2026-01-18,22.809417,121.050528,0.00084074395
E2S980,林試太麻里1,2026-01-18,22.598922,120.980044,0.002341451
C0X170,關廟,2026-01-18,22.963017,120.327797,0.0020649235
C0V720,林園,2026-01-18,22.507747,120.394511,0.007440756
C1I510,線浸林道,2026-01-18,23.761508,120.832956,0.00079079083
C0D690,外湖,2026-01-18,24.917735,120.968711,0.0005168666
C0C750,新興坑尾,2026-01-18,25.0061,121.0971,0.00024150022
B2Q810,畜試南區分所,2026-01-18,21.945583,120.802167,0.00032802118
C0S790,金崙,2026-01-18,22.538122,120.966875,0.0012108432
C0AH90,福山植物園,2026-01-18,24.760717,121.58135,0.009642778
C0I540,奇萊稜線,2026-01-18,24.109231,121.326456,0.00031611728
C0M850,表湖,2026-01-18,23.24186,120.64166,0.0012576884
C0S770,大溪山,2026-01-18,22.478475,120.943325,0.0007213473
C0AG80,中和,2026-01-18,24.991622,121.491792,0.0017073082
C0T790,大禹嶺,2026-01-18,24.186117,121.316086,0.0003704784
C0T9B0,水源,2026-01-18,23.991861,121.537169,0.00043924776
C0R840,牡丹池山,2026-01-18,22.168389,120.841225,0.00084628304
C1I131,桶頭,2026-01-18,23.641944,120.654117,0.0014083848
CAL110,布袋國中,2026-01-18,23.35893,120.18026,0.0014850249
C2M9D0,何竹子腳,2026-01-18,23.53641,120.38203,0.005159388
467571,新竹,2026-01-18,24.827853,121.014219,0.00043526152
C0Z290,赤柯山,2026-01-18,23.36893,121.38293,0.00021476219
C0X280,將軍,2026-01-18,23.214999,120.13577,0.0014801761
C0S690,太麻里,2026-01-18,22.60902,120.98533,0.0005733758
C0U880,北關,2026-01-18,24.9072,121.8734,0.02432218
CAW010,東引,2026-01-18,26.3588,120.4836,0.00077611767
C0G810,埔心,2026-01-18,23.947633,120.525456,0.0010002428
C0U970,大福,2026-01-18,24.80064,121.81389,0.008731654
C2H9N0,仁愛東眼,2026-01-18,24.026875,121.1205,0.00047203526
C1E670,南礦,2026-01-18,24.538278,121.002836,0.00042367366
C0M520,東後寮,2026-01-18,23.369908,120.248065,0.0014712961
C1E461,松安,2026-01-18,24.397972,120.986022,0.00031847527
C2N160,西拉雅風管處,2026-01-18,23.189481,120.335297,0.0016009362
C2M970,碧湖,2026-01-18,23.568632,120.624165,0.0005313132
C0A640,石碇,2026-01-18,24.993969,121.662917,0.005913892
E2S960,林試太麻里2,2026-01-18,22.598,120.99775,0.004016301
C0F9Y0,桃山,2026-01-18,24.432739,121.303808,0.00042975481
C1I020,萬大,2026-01-18,23.979817,121.132261,0.00057370035
C2UC20,長嶺,2026-01-18,24.70894,121.61162,0.0126987975
C0U940,羅東,2026-01-18,24.68184,121.74934,0.024300858
C0M650,朴子,2026-01-18,23.43463,120.23902,0.0011618133
C1I500,大尖山,2026-01-18,23.858572,120.994889,0.00031676833
C0FB40,中橫21.6k,2026-01-18,24.2499,121.1455,0.0005545938
C0G820,田尾,2026-01-18,23.901669,120.509389,0.0009969999
E2K600,四湖植物園,2026-01-18,23.676986,120.163433,0.00097109674
C0S730,綠島,2026-01-18,22.6672,121.47533,0.0013836959
12Q970,東港工作站,2026-01-18,22.479997,120.466058,0.0070899767
C1TA00,太魯閣,2026-01-18,24.15773,121.6236,0.017532121
466920,臺北,2026-01-18,25.037658,121.514853,0.0017471595
C0R600,舊泰武,2026-01-18,22.588194,120.664944,0.00066994334
C1I260,北坑,2026-01-18,23.9246,121.006903,0.001283295
466910,鞍部,2026-01-18,25.182586,121.529731,0.00031548593
C1I230,九份二山,2026-01-18,23.961944,120.845,0.00073739135
C2M810,里佳,2026-01-18,23.389125,120.716647,0.0005924332
C2A660,瑞芳,2026-01-18,25.113169,121.801147,0.017746646
C0R270,琉球嶼,2026-01-18,22.332244,120.362236,0.006712791
C2V580,瑞山,2026-01-18,22.90304,120.43424,0.014313949
C1T990,高寮,2026-01-18,23.394239,121.356808,0.001562078
C0G620,芬園,2026-01-18,24.015678,120.6213,0.0011074604
C1Z140,荖溪,2026-01-18,23.890575,121.45964,0.0023270317
C1I201,中心崙,2026-01-18,23.728722,120.712097,0.00077238365
C1I400,凌霄,2026-01-18,24.018778,121.004456,0.000488843
C1M640,十字,2026-01-18,23.492153,120.753683,0.00050673785
G2P820,農試鳳山分所,2026-01-18,22.646611,120.356083,0.0016254823
C0Z270,蕃薯寮,2026-01-18,23.73835,121.540108,0.000171392
C2E420,竹南,2026-01-18,24.70898,120.88897,0.00045702787
C0FB10,出雲山苗圃,2026-01-18,24.23105,120.90475,0.00067622203
C0F9Q0,外埔,2026-01-18,24.347817,120.705686,0.0014739073
C0K580,高鐵雲林,2026-01-18,23.737456,120.417944,0.0019110744
C2I090,鳳凰,2026-01-18,23.728081,120.787347,0.0006997816
C0U990,員山,2026-01-18,24.74435,121.72247,0.024573466
C0V770,大社,2026-01-18,22.730306,120.346639,0.0018641496
C0X120,麻豆,2026-01-18,23.183289,120.248611,0.0014550207
C0C670,龍潭,2026-01-18,24.870056,121.221389,0.00063676055
C0D680,香山濕地,2026-01-18,24.783581,120.914988,0.000515746
C0S980,勝林山,2026-01-18,22.430439,120.8938,0.0003903917
C0V730,大寮,2026-01-18,22.605614,120.395717,0.0043758876
C0R570,麟洛,2026-01-18,22.65078,120.52719,0.019516934
C2M930,石卓,2026-01-18,23.478744,120.702264,0.0005104732
C0G9B0,和美,2026-01-18,24.105169,120.492131,0.0009996269
CAG100,王功漁港,2026-01-18,23.96824,120.32586,0.0017340074
C0X290,北門,2026-01-18,23.267772,120.125481,0.0014893138
C2F930,大甲,2026-01-18,24.347667,120.640403,0.0014985786
C0D650,湖口,2026-01-18,24.904794,121.043628,0.00036989452
C0U780,五結,2026-01-18,24.68637,121.79794,0.17549683
C1I250,鯉潭,2026-01-18,23.961922,120.991131,0.0010658244
C0R130,阿禮,2026-01-18,22.742908,120.743678,0.00056660373
C0X100,臺南市北區,2026-01-18,23.010394,120.194228,0.0015071493
C0S920,金峰嘉蘭,2026-01-18,22.594789,120.960825,0.002266357
C0V490,新興,2026-01-18,22.627422,120.298803,0.0017092704
C0F9K0,大安,2026-01-18,24.345061,120.588025,0.00064631755
467290,古坑,2026-01-18,23.633639,120.551889,0.0011457872
C2E970,八甲,2026-01-18,24.535811,120.795983,0.0005744501
C0V440,鳳山,2026-01-18,22.646653,120.356122,0.0016254823
C1T940,大觀,2026-01-18,23.714206,121.373133,0.00016301549
C0E740,造橋,2026-01-18,24.637056,120.864778,0.0005695951
C0R100,尾寮山,2026-01-18,22.833111,120.683889,0.0005701228
A2K630,臺大雲林校區,2026-01-18,23.730628,120.423903,0.001909228
467990,馬祖,2026-01-18,26.169467,119.923158,0.00070944295
C0D580,寶山,2026-01-18,24.735006,121.025192,0.0004406132
E2P990,林試扇平站,2026-01-18,22.9677,120.6857,0.0013442048
C0AI30,三重,2026-01-18,25.057328,121.500629,0.0017992331
C0AH00,汐止,2026-01-18,25.066881,121.658778,0.0059320196
C1Z040,立山,2026-01-18,23.443356,121.327375,0.00045214256
466881,新北,2026-01-18,24.959207,121.525196,0.0016442734
C0W130,花嶼,2026-01-18,23.40007,119.32276,0.0005622491
C0A950,鼻頭角,2026-01-18,25.129036,121.923372,0.028610306
C0K470,林內,2026-01-18,23.748675,120.609642,0.0011744519
C2F990,摩天嶺,2026-01-18,24.322458,120.936819,0.00065753085
C2E430,南庄,2026-01-18,24.601775,121.000214,0.0004087032
82C160,茶改場,2026-01-18,24.908472,121.185333,0.00029203945
C2TB60,南安,2026-01-18,23.29818,121.26157,0.0009565217
C0Z320,清水林道,2026-01-18,23.27125,121.188272,0.00027787118
C0R760,南仁湖,2026-01-18,22.084681,120.863353,0.00049744936
C0M670,大林,2026-01-18,23.600616,120.45841,0.0047430657
C0M800,茶山,2026-01-18,23.299075,120.664767,0.001125727
C0A9C0,天母,2026-01-18,25.117494,121.537169,0.0018729505
72K220,南改斗南分場,2026-01-18,23.634556,120.477333,0.002121197
72AI40,桃改樹林分場,2026-01-18,24.944503,121.386972,0.001535274
C0S910,蘭嶼燈塔,2026-01-18,22.081197,121.503117,0.0009923815
C0B050,八斗子,2026-01-18,25.144754,121.79167,0.028822334
C0U900,內城,2026-01-18,24.71813,121.68766,0.025489904
C0X320,柳營,2026-01-18,23.253328,120.375253,0.009961777
C0M790,新港,2026-01-18,23.553269,120.345728,0.0012698723
C0F9T0,西屯,2026-01-18,24.179494,120.641275,0.0015387024
C0E950,松安,2026-01-18,24.39792,120.98599,0.00031847527
C0SA30,都歷,2026-01-18,23.020333,121.323642,0.00031770804
C0C620,蘆竹,2026-01-18,25.084275,121.265767,0.00025303356
C0R730,大坪頂,2026-01-18,22.024633,120.69355,0.00063565327
C0AJ40,石門,2026-01-18,25.273672,121.601198,0.0010861601
C0E750,苗栗,2026-01-18,24.564569,120.824575,0.00059275434
C0T870,鯉魚潭,2026-01-18,23.935639,121.508944,0.0002722636
C1V170,排雲,2026-01-18,23.463619,120.954147,0.0003486016
C2H950,中寮,2026-01-18,23.884447,120.766406,0.0011754861
C0R350,貓鼻頭,2026-01-18,21.921774,120.7358,0.00048524214
C0V660,岡山,2026-01-18,22.797078,120.294958,0.0020972898
C1H941,雙冬,2026-01-18,23.967378,120.802189,0.00087259663
C0AJ70,田寮,2026-01-18,25.2698,121.4886,0.0014479004
C0AI00,五股,2026-01-18,25.07445,121.42728,0.00074770226
C0Z280,德武,2026-01-18,23.47426,121.41071,0.00018900314
C2RA10,大新,2026-01-18,22.67558,120.57788,0.009513275
C0R700,枋山,2026-01-18,22.246844,120.661086,0.0031259228
C0C460,復興,2026-01-18,24.820208,121.352281,0.0006889487
C2K300,鹿南,2026-01-18,23.63855,120.3636,0.0007601044
E2H360,蓮華池,2026-01-18,23.918333,120.885278,0.0012116965
C0M640,中埔,2026-01-18,23.42538,120.5229,0.0018116911
C0W140,金沙,2026-01-18,24.488292,118.408778,0.000843135
C2A540,四堵,2026-01-18,24.8926,121.745736,0.0048765023
C0ACA0,新莊,2026-01-18,25.051478,121.446756,0.001487295
C0R220,潮州,2026-01-18,22.534361,120.54,0.007305682
U2HA40,臺大內茅埔,2026-01-18,23.689722,120.851117,0.0010765208
467490,臺中,2026-01-18,24.145736,120.684075,0.0016021819
C0UB60,明池,2026-01-18,24.650688,121.475277,0.000741194
C0U960,翠峰湖,2026-01-18,24.510856,121.608044,0.0002684534
E2HA20,林試畢祿溪站,2026-01-18,24.226944,121.308522,0.00034035437
C2M9A0,大華,2026-01-18,23.4824,120.67491,0.0007246704
C0V890,前鎮,2026-01-18,22.5718,120.3117,0.001987292
C1F941,雪嶺,2026-01-18,24.280586,121.026642,0.00047630043
C2H9E0,國姓南港,2026-01-18,23.911108,120.846556,0.0008825319
C0AC80,文山,2026-01-18,25.00235,121.575728,0.0022866542
C0F9R0,龍井,2026-01-18,24.184536,120.528972,0.00062348583
C0M760,民雄,2026-01-18,23.551754,120.428457,0.004843159
C0UA40,西德山,2026-01-18,24.560647,121.752608,0.00052948756
C2TA70,赤科坪,2026-01-18,23.39885,121.39168,0.00021371918
C1T920,中興,2026-01-18,23.769503,121.498653,0.00032511365
C0D550,雪霸,2026-01-18,24.526972,121.11605,0.00031814087
C2F860,梨山,2026-01-18,24.247522,121.243669,0.00048393005
C0R320,車城,2026-01-18,22.0744,120.716247,0.000611544
C1S870,南美山,2026-01-18,23.15025,121.382333,0.00042606425
C0B020,基隆嶼,2026-01-18,25.19141,121.78391,0.025599126
C1U501,牛鬥,2026-01-18,24.637836,121.573656,0.012625157
C0M730,嘉義市東區,2026-01-18,23.457673,120.460531,0.0025393446
C2R990,泰武,2026-01-18,22.60686,120.69765,0.00057117984
C0S700,知本,2026-01-18,22.684866,121.005642,0.00081270235
C1N001,沙崙,2026-01-18,22.935472,120.309406,0.0021701108
C0V760,橋頭,2026-01-18,22.757806,120.30575,0.0019656688
C0G960,福寶,2026-01-18,24.0443,120.3814,0.0010502513
C0X210,白河,2026-01-18,23.347466,120.414427,0.0052707475
C0S810,東河,2026-01-18,22.972672,121.303986,0.00033398042
C2R170,屏東,2026-01-18,22.66027,120.49403,0.019721452
C0R670,楓港,2026-01-18,22.190131,120.692156,0.0014304795
C0FA50,霧峰,2026-01-18,24.0419,120.6995,0.0026078718
C0UB10,蘇澳,2026-01-18,24.5969,121.8571,0.0716489
C0G950,防潮門,2026-01-18,24.1835,120.4871,0.0006016438
C0M740,六腳,2026-01-18,23.492871,120.290625,0.0012265713
C1R250,力里,2026-01-18,22.428117,120.629228,0.00696558
C0K330,虎尾,2026-01-18,23.719183,120.442036,0.0018815645
C2FA00,烏石坑,2026-01-18,24.273503,120.947617,0.00066600024
C0V620,永安,2026-01-18,22.82315,120.236856,0.0021300795
C1I330,楓樹林,2026-01-18,23.986803,121.076117,0.0005191007
C0W200,湖西,2026-01-18,23.596314,119.67275,0.0006571114
72Q010,高雄農改場,2026-01-18,22.709333,120.525889,0.021816464
C0SA40,瑞和,2026-01-18,22.974361,121.156697,0.00033586446
C0C680,龜山,2026-01-18,25.02846,121.38656,0.0006887787
C2V260,月眉,2026-01-18,22.971003,120.539853,0.0052412823
C0V450,鳳森,2026-01-18,22.545064,120.392592,0.00767809
C0FA90,小雪山林道,2026-01-18,24.29515,121.03651,0.00050847244
C0U720,南山,2026-01-18,24.43742,121.38167,0.00042192184
A2N290,臺南蘭花園區,2026-01-18,23.340258,120.379661,0.007204036
C0R560,新園,2026-01-18,22.5434,120.461558,0.007440756
C0U890,三星,2026-01-18,24.66812,121.65302,0.017171776
C1V300,御油山,2026-01-18,23.001983,120.715364,0.000375056
C0U600,礁溪,2026-01-18,24.817539,121.765608,0.008065771
C1T980,龍澗,2026-01-18,24.023289,121.411328,0.00038856122
C0D670,海天一線,2026-01-18,24.831986,120.914438,0.00052179716
C0SA00,歷坵,2026-01-18,22.520969,120.89185,0.0006318219
C0M710,東石,2026-01-18,23.458927,120.15385,0.0012266956
C0M780,鹿草,2026-01-18,23.41134,120.30835,0.001146117
C0U520,雙連埤,2026-01-18,24.753033,121.641303,0.009031787
C0B010,七堵,2026-01-18,25.094819,121.71713,0.024525186
C0R480,長治,2026-01-18,22.693128,120.542622,0.01152085
C1V830,國三S383K,2026-01-18,22.781967,120.426475,0.015900206
12Q980,恆春工作站,2026-01-18,22.079678,120.714425,0.0006128419
C1O940,東山服務區,2026-01-18,23.286016,120.398472,0.0065581137
C1U840,東澳嶺,2026-01-18,24.5378,121.8485,0.00071703794
C1D630,飛鳳山,2026-01-18,24.766464,121.119178,0.00040074825
C0S940,石寧山,2026-01-18,23.223772,121.406639,0.0003331371
C0K410,北港,2026-01-18,23.573957,120.292802,0.0012694364
C2M620,瑞里,2026-01-18,23.545133,120.675197,0.0006176385
C0SB70,小港漁港,2026-01-18,23.158558,121.400431,0.00035881
C2O950,安南,2026-01-18,23.076694,120.144861,0.0016835139
C0F0E0,南湖圈谷,2026-01-18,24.363714,121.444667,0.00027213854
467610,成功,2026-01-18,23.097486,121.373428,0.00052338967
C0G890,伸港,2026-01-18,24.148933,120.484403,0.00060160767
C2E540,龍溪,2026-01-18,24.606489,120.783933,0.00060095725
C1V200,梅山,2026-01-18,23.268447,120.823556,0.0010798989
C0T9H0,加路蘭山,2026-01-18,23.682947,121.5274,0.00013676418
C2O930,玉井,2026-01-18,23.126042,120.46055,0.004309758
C1F911,新伯公,2026-01-18,24.221361,120.841069,0.0008081275
C0R490,九如,2026-01-18,22.7405,120.490503,0.02214154
C0X200,左鎮,2026-01-18,23.056758,120.408522,0.017845664
C2TB50,麻汝,2026-01-18,23.42554,121.39358,0.00017259312
C0FA60,鞍馬山工作站,2026-01-18,24.267064,121.000793,0.00031001557
C0SB50,叭嗡嗡,2026-01-18,23.047062,121.343223,0.00057038886
C1F891,稍來,2026-01-18,24.265689,121.001142,0.0003091278
C2M9C0,紫雲,2026-01-18,23.494914,120.540253,0.0016573905
72N240,七股研究中心,2026-01-18,23.081672,120.062894,0.0016976643
C0C700,中壢,2026-01-18,24.977661,121.256375,0.0002691746
C0M690,水上,2026-01-18,23.419734,120.388909,0.005642519
C0V690,鼓山,2026-01-18,22.623325,120.275575,0.0017194869
C0O860,大內,2026-01-18,23.11885,120.36083,0.0022727859
C0Z200,萬榮,2026-01-18,23.709219,121.420106,0.00024794298
C0T9D0,和中,2026-01-18,24.26676,121.74103,0.00018554516
C2S9A0,北份子寮,2026-01-18,22.78561,121.07813,0.0019340394
C1O921,楠西,2026-01-18,23.183511,120.484083,0.0037892608
C0AJ30,淡水觀海,2026-01-18,25.184591,121.408616,0.00030470043
C0V810,左營,2026-01-18,22.67491,120.28491,0.0016074537
C0UA70,桃源谷,2026-01-18,24.962606,121.888875,0.007547741
C0X130,官田,2026-01-18,23.193217,120.315422,0.0016264283
C1H000,翠峰,2026-01-18,24.109397,121.205211,0.00028798307
C0UA90,石城,2026-01-18,24.980444,121.951214,0.026233682
C1E681,南勢山,2026-01-18,24.421669,120.923831,0.0005395539
C0A9F0,內湖,2026-01-18,25.079422,121.57545,0.0019468406
C0K291,宜梧,2026-01-18,23.536281,120.169329,0.0015602324
C1K540,口湖,2026-01-18,23.585344,120.180517,0.0015600066
C0R780,滿州,2026-01-18,22.024403,120.839892,0.00041779483
C0V870,文安,2026-01-18,22.8025,120.2164,0.002192899
C0U650,玉蘭,2026-01-18,24.675286,121.587061,0.01237739
C0R640,東港,2026-01-18,22.46247,120.44074,0.0067187715
C0AJ80,板橋,2026-01-18,25.0107,121.4489,0.0017302897
C0S660,下馬,2026-01-18,23.150427,121.070312,0.00018223154
C2N190,烏樹,2026-01-18,23.32393,120.36989,0.0013788837
C1H9B1,阿眉,2026-01-18,24.1263,120.994672,0.00047738268
C0UA20,多加屯,2026-01-18,24.368614,121.373189,0.00030686706
C0E730,頭份,2026-01-18,24.688247,120.912206,0.0004572706
72V140,高改旗南分場,2026-01-18,22.857861,120.516667,0.025506113
C0K480,莿桐,2026-01-18,23.761192,120.502372,0.0017702247
C0U980,坪林石牌,2026-01-18,24.86478,121.77396,0.002765963
C0T900,西林,2026-01-18,23.8119,121.441458,0.00021338463
C1I150,青雲,2026-01-18,23.793361,120.949378,0.0013283772
C2E980,和興,2026-01-18,24.505319,120.923016,0.00071431254
467350,澎湖,2026-01-18,23.565503,119.563094,0.0006144878
C0G800,埔鹽,2026-01-18,24.000394,120.431683,0.0010418693
C0H960,草屯,2026-01-18,23.973672,120.68085,0.002039946
C1V780,多納林道,2026-01-18,22.888028,120.737917,0.000650253
C0E920,通霄漁港,2026-01-18,24.498589,120.673876,0.00078021176
C0Z330,安通山,2026-01-18,23.290728,121.348528,0.0003255817
C0AH10,永和,2026-01-18,25.01125,121.508111,0.0017526746
C0AK10,太平里,2026-01-18,25.134937,121.364899,0.00028633466
C2G640,鹿港,2026-01-18,24.0753,120.430481,0.0010029705
C1E890,國三N149K,2026-01-18,24.463414,120.680019,0.0007543759
C1R110,口社,2026-01-18,22.770111,120.645222,0.007295474
C1M870,國三N285K,2026-01-18,23.550319,120.505833,0.0016032236
C1E480,鳳美,2026-01-18,24.554803,121.034747,0.0007421807
C0T9M0,靜浦,2026-01-18,23.455167,121.495028,0.00028242153
C2H9M0,發祥,2026-01-18,24.154094,121.164517,0.0006607213
C2G9C0,埔南,2026-01-18,23.99124,120.46969,0.0010400219
C0AI40,石牌,2026-01-18,25.115597,121.513139,0.0019468406
C1F871,上谷關,2026-01-18,24.203483,121.018644,0.00066267373
C2H9G0,百勝,2026-01-18,24.051142,120.909361,0.0010893667
C0G880,二水,2026-01-18,23.810742,120.6173,0.0012180042
C0R940,加祿堂,2026-01-18,22.3363,120.6217,0.009433554
C0W220,北竿,2026-01-18,26.220358,119.974881,0.0007493872
C0O960,崎頂,2026-01-18,22.959547,120.369317,0.00173114
C0TA40,秀林,2026-01-18,24.302864,121.731144,0.00051198696
C0S750,向陽,2026-01-18,23.248397,120.986133,0.00021390161
C0T9F0,水璉,2026-01-18,23.797131,121.542514,0.00017300487
C1M600,頭凍,2026-01-18,23.406364,120.603339,0.0005331295
467660,臺東,2026-01-18,22.752211,121.154586,0.0005510388
C1D380,新埔,2026-01-18,24.84745,121.03834,0.00042732173
C2G980,田頭村,2026-01-18,23.8263,120.444175,0.0017655242
C0V750,路竹,2026-01-18,22.854997,120.259439,0.0019539506
C0N050,蚵寮,2026-01-18,23.301,120.1104,0.0014893138
C2X060,下營,2026-01-18,23.226806,120.256291,0.0014491734
72M700,南改鹿草分場,2026-01-18,23.416869,120.283061,0.0011602947
C1SA50,利嘉林道,2026-01-18,22.82325,121.009389,0.00030912954
C0UB70,太平山中間站,2026-01-18,24.542003,121.513453,0.00082110724
C0A940,金山,2026-01-18,25.223628,121.643967,0.0034815872
C1V340,大津,2026-01-18,22.888322,120.645986,0.0053125503
C0W180,七美,2026-01-18,23.219333,119.444892,0.0006252942
C1F9C1,白冷,2026-01-18,24.182844,120.929889,0.0010114383
K2E710,苗改生物防治研究中心,2026-01-18,24.422861,120.871833,0.0007364966
C0N040,蘆竹溝,2026-01-18,23.2344,120.0961,0.0014893316
C0TB40,崇德,2026-01-18,24.166144,121.657414,0.00048154328
C0D760,大坪苗圃,2026-01-18,24.5362,121.1108,0.0003929763
C2W230,畜試所澎湖,2026-01-18,23.628342,119.513206,0.00056162244
C0R880,後壁湖,2026-01-18,21.9457,120.7457,0.0004614917
C1I280,埔中,2026-01-18,23.820778,120.642594,0.0009830638
467790,墾丁雷達站,2026-01-18,21.948235,120.808028,0.00036164228
C0W190,望安,2026-01-18,23.380564,119.494075,0.00059761957
C0Z170,卓溪,2026-01-18,23.3443,121.3029,0.00092105585
C0F850,東勢,2026-01-18,24.246428,120.833047,0.0008176667
466900,淡水,2026-01-18,25.164889,121.448906,0.000421755
C0I370,魚池,2026-01-18,23.895703,120.94135,0.0012394034
C0C630,大溪,2026-01-18,24.882853,121.265547,0.00032934698
C0A520,山佳,2026-01-18,24.974944,121.402008,0.0015745336
C0I110,竹山,2026-01-18,23.761225,120.688156,0.0024992228
82H840,茶改南部分場,2026-01-18,23.762528,120.7405,0.0010423438
C2SD80,再來山,2026-01-18,23.34371,121.44122,0.00023602982
C0G660,溪湖,2026-01-18,23.94835,120.479122,0.0010076325
C1T800,洛韶,2026-01-18,24.204558,121.453956,0.0013083963
C1T810,慈恩,2026-01-18,24.192044,121.388386,0.0001991311
C1E451,象鼻,2026-01-18,24.368617,120.940228,0.00082588807
C0AC60,三峽,2026-01-18,24.939025,121.369728,0.00027648328
C0I490,萬大林道,2026-01-18,23.928228,121.091411,0.00044162472
C1I290,豐丘,2026-01-18,23.668178,120.887417,0.00086179894
C1I320,奧萬大,2026-01-18,23.952956,121.178556,0.00032931846
C2M910,嘉義大學,2026-01-18,23.471325,120.485903,0.0023110183
C0U770,南澳,2026-01-18,24.44935,121.81022,0.004612183
C2TB30,吉安,2026-01-18,23.94538,121.54803,0.0003651268
C0A980,社子,2026-01-18,25.109508,121.469681,0.002541366
C0V800,六龜,2026-01-18,22.997889,120.633583,0.002136807
C1G9D0,國一S218K,2026-01-18,23.890641,120.493253,0.0010297048
C0E570,白沙屯,2026-01-18,24.549447,120.696803,0.00074476143
C2F9A0,中竹林,2026-01-18,24.103556,120.751061,0.0010699476
C0FA40,臺中電廠,2026-01-18,24.2146,120.4907,0.0006206027
C2G9A0,畜試所彰化,2026-01-18,23.86045,120.557964,0.002115494
C0H9C0,合歡山,2026-01-18,24.143442,121.272547,0.00042016146
G2M350,農試溪口農場,2026-01-18,23.58565,120.408111,0.005169315
C0U860,頭城,2026-01-18,24.85323,121.8308,0.011479506
C0R580,南州,2026-01-18,22.48591,120.50274,0.007093993
C0D430,峨眉,2026-01-18,24.6905,121.017189,0.0004155722
C0G780,秀水,2026-01-18,24.03405,120.503869,0.0009140292
72N100,臺南農改場,2026-01-18,23.0605,120.342194,0.0025148753
C0S900,蘭嶼高中,2026-01-18,22.04909,121.51214,0.0011529949
C2TA60,六十石,2026-01-18,23.22477,121.31861,0.00017885905
C1F9W0,德基,2026-01-18,24.254783,121.190261,0.00050882436
C2M980,安和,2026-01-18,23.51377,120.31593,0.0012158134
C1Z120,壽豐,2026-01-18,23.870853,121.508081,0.00041832463
C0W160,烏坵,2026-01-18,24.9944,119.44956,0.00054878567
C1I240,外大坪,2026-01-18,23.958697,120.917931,0.001110863
C1I550,國六W023K,2026-01-18,23.979067,120.867742,0.0009940057
C0R870,興海,2026-01-18,21.9752,120.8439,0.00032854607
C0R140,瑪家,2026-01-18,22.682903,120.686639,0.0010298869
C0A530,坪林,2026-01-18,24.938183,121.70975,0.0044739856
C0X260,後壁,2026-01-18,23.366358,120.362326,0.001605437
C0Z230,和平,2026-01-18,24.30717,121.77007,0.0009618295
C0G770,福興,2026-01-18,24.041289,120.437669,0.0010435992
C0H9A0,神木村,2026-01-18,23.532742,120.843667,0.0005965115
C0I460,南投,2026-01-18,23.911469,120.687331,0.0020648758
C0I480,梅峰,2026-01-18,24.085272,121.173572,0.0002464205
C1V570,吉東,2026-01-18,22.85422,120.5454,0.014070823
C2A560,福山,2026-01-18,24.776203,121.502811,0.014001222
C0AH30,五分山,2026-01-18,25.07125,121.780794,0.005481291
C0FA10,松柏,2026-01-18,24.429115,120.617482,0.0007706676
72S200,東改班鳩分場,2026-01-18,22.829528,121.077694,0.0011749035
72HA00,中改埔里分場,2026-01-18,23.903208,120.963364,0.0012858693
C2H9W0,大坪頂農水,2026-01-18,24.043122,120.932781,0.00095112866
C0C650,平鎮,2026-01-18,24.897503,121.214636,0.00029620016
C0S930,延平,2026-01-18,22.902581,121.084058,0.00030273752
C0UA60,樟樹山,2026-01-18,24.41393,121.78325,0.0002622936
C2UC10,出水溪,2026-01-18,24.615822,121.652253,0.0013401449
C1S670,摩天,2026-01-18,23.199503,121.027,0.00036456296
C2C590,觀音,2026-01-18,25.027072,121.153317,0.00024678354
C0V630,茄萣,2026-01-18,22.906642,120.182608,0.0015380379
466940,基隆,2026-01-18,25.133314,121.740475,0.027798992
C0X050,東河,2026-01-18,23.296598,120.385608,0.0070395553
C0R770,保力,2026-01-18,22.071122,120.764111,0.0004893034
G2L020,農試嘉義分所,2026-01-18,23.485028,120.473806,0.0022536928
C0X240,關子嶺,2026-01-18,23.331169,120.508025,0.0010903598
C0I380,集集,2026-01-18,23.828206,120.801467,0.0014890785
466990,花蓮,2026-01-18,23.975128,121.613275,0.009965701
C1V220,小關山,2026-01-18,23.154217,120.813603,0.00036223527
C1F9G1,慶福山,2026-01-18,24.180853,120.848378,0.0006236896
C0FB20,雪山橋,2026-01-18,24.23192,120.9786,0.0004110436
C0Z250,瑞穗林道,2026-01-18,23.49284,121.30688,0.00070063135
C0D590,新豐,2026-01-18,24.87068,120.97721,0.0004993437
C0A870,五指山,2026-01-18,25.132153,121.608692,0.0008379957
C0UA50,西帽山,2026-01-18,24.555361,121.802628,0.00072224805
C2R980,竹田國中,2026-01-18,22.61532,120.52412,0.00701931
C0X160,仁德,2026-01-18,22.968258,120.257689,0.0016740701
C1H971,六分寮,2026-01-18,23.92507,120.6378,0.0012811872
C0W120,西嶼,2026-01-18,23.5626,119.468436,0.0005911238
C0G650,員林,2026-01-18,23.946503,120.585597,0.0013310157
C0AD50,鶯歌,2026-01-18,24.951533,121.346294,0.00073083723
C2H9Q0,北東眼山,2026-01-18,24.120939,121.189303,0.00034544268
C2H9T0,名間竹圍,2026-01-18,23.859914,120.637572,0.0018134398
C0S990,山豬窟,2026-01-18,22.318619,120.857372,0.0022566682
C0X190,安平,2026-01-18,22.993161,120.152181,0.0014991025
C0K400,斗六,2026-01-18,23.720583,120.541127,0.0017440146
12J990,口湖工作站,2026-01-18,23.589978,120.180394,0.0015565043
C0O830,北寮,2026-01-18,23.079561,120.495008,0.0040326677
C1D410,白蘭,2026-01-18,24.579364,121.079947,0.0003946063
C0S970,加津林,2026-01-18,22.416211,120.926942,0.0054821204
C0D700,關西,2026-01-18,24.7977,121.1732,0.0006724077
C0U750,龜山島,2026-01-18,24.841667,121.953133,0.0058780024
C0R810,內獅,2026-01-18,22.305064,120.642986,0.009437978
C1M390,龍美,2026-01-18,23.406728,120.654417,0.00070075586
C2K290,崙內,2026-01-18,23.69525,120.35601,0.0007601044
C2FB60,頭櫃山,2026-01-18,24.129842,120.858925,0.00058957475
C1H840,國三N238K,2026-01-18,23.841008,120.707711,0.0013004632
CAQ030,崎峰國小,2026-01-18,22.42565,120.49521,0.007093993
C2E520,大湖,2026-01-18,24.414939,120.870872,0.0007274571
467530,阿里山,2026-01-18,23.508208,120.813242,0.00032918662
C1E691,南湖,2026-01-18,24.40135,120.837533,0.00043922997
C0FA30,梧棲,2026-01-18,24.256003,120.523381,0.0006225989
C1V231,高中,2026-01-18,23.134911,120.716711,0.001198739
C0AK30,硬漢嶺,2026-01-18,25.136097,121.426372,0.00021892585
C0F9V0,新社,2026-01-18,24.200172,120.815806,0.00076751655
C0H890,埔里,2026-01-18,23.972169,120.952425,0.001544177
C0R690,墾丁,2026-01-18,21.966756,120.810269,0.0008372124
C0SD20,富山,2026-01-18,22.822383,121.190825,0.0006337926
C0F0D0,審馬陣,2026-01-18,24.381675,121.4203,0.00029132975
C2W030,金門農試所,2026-01-18,24.448431,118.451786,0.0005141623
C0R820,白鷺,2026-01-18,22.454275,120.666219,0.0010946093
C0FB00,大雪山,2026-01-18,24.254668,121.007374,0.00030954834
C1V190,南天池,2026-01-18,23.27403,120.91176,0.00021629911
C0E940,雪見,2026-01-18,24.42595,121.01347,0.00031765926
K2E360,苗栗農改場,2026-01-18,24.495722,120.829111,0.0006428423
CAJ050,海口故事園區,2026-01-18,23.57543,120.14121,0.0015586028
C2K280,四湖,2026-01-18,23.6304,120.22717,0.0009719437
C2H9D0,三隻寮,2026-01-18,24.093078,120.861578,0.0006971516
C0O990,媽廟,2026-01-18,22.99175,120.293525,0.002143609
C0D480,打鐵坑,2026-01-18,24.849664,121.150789,0.0005479816
C0Z220,和平林道,2026-01-18,24.343922,121.656317,0.00024732013
C0TA10,花蓮漁港,2026-01-18,23.995322,121.638331,0.00034481357
72C440,桃園農改場,2026-01-18,24.950944,121.030583,0.00037235857
C1E711,馬拉邦山,2026-01-18,24.367306,120.901656,0.000726972
C0SB20,富岡,2026-01-18,22.792467,121.192669,0.0005505056
C0D560,竹東,2026-01-18,24.767147,121.057881,0.00042841487
C0F9U0,南屯,2026-01-18,24.137006,120.637969,0.0018213001
C2SD60,明峰,2026-01-18,22.8671,121.11825,0.00028006674
C0M720,番路,2026-01-18,23.464657,120.554156,0.0010383842
C0F0A0,雪山圈谷,2026-01-18,24.388594,121.236339,0.0005079115
C1A9N0,四十份,2026-01-18,24.934158,121.593283,0.002526142
C0U760,東澳,2026-01-18,24.52196,121.83318,0.004013138
C0X230,鹽水,2026-01-18,23.272621,120.247641,0.0014650892
C2H9H0,苗改南投蜂場,2026-01-18,23.852589,120.693481,0.002726179
C2TB70,達谷寮,2026-01-18,23.38,121.35968,0.0009847456
C0R950,萬隆國小,2026-01-18,22.507667,120.587817,0.00574267
467540,大武,2026-01-18,22.35572,120.90374,0.00045218674
C0V370,古亭坑,2026-01-18,22.893178,120.401947,0.017723676
C1I340,新興橋,2026-01-18,23.563333,120.868728,0.00090500625
C0SA80,土坂,2026-01-18,22.453108,120.887572,0.002372735
C0R160,鹽埔,2026-01-18,22.739558,120.530778,0.021384893
C0AC40,大屯山,2026-01-18,25.175675,121.522408,0.0002968201
466850,五分山雷達站,2026-01-18,25.071182,121.781205,0.005421552
C2H9L0,馬烈霸,2026-01-18,24.1512,121.201772,0.00040932043
C1AI50,國三N016K,2026-01-18,25.034164,121.619664,0.0033375525
C2V920,匏子寮,2026-01-18,23.04905,120.55319,0.0021103914
C1V600,藤枝,2026-01-18,23.071961,120.757042,0.00039454122
C1E601,南勢,2026-01-18,24.572486,120.734842,0.00071453076
C0O980,新市,2026-01-18,23.061614,120.298197,0.0027690346
C0K420,西螺,2026-01-18,23.800407,120.467394,0.0017323641
C0Z050,佳心,2026-01-18,23.34567,121.21316,0.00021316092
C0AD30,蘆洲,2026-01-18,25.086594,121.472331,0.0016086441
C0V610,梓官,2026-01-18,22.760558,120.267211,0.0021095953
K2F750,種苗改良場,2026-01-18,24.225972,120.800917,0.00079992163
C0UA80,大溪漁港,2026-01-18,24.941801,121.902955,0.050217908
C1AI60,國一39K邊坡,2026-01-18,25.064361,121.383836,0.00067327905
C0W150,金寧,2026-01-18,24.457703,118.328989,0.00074668875
C0R960,內埔,2026-01-18,22.608483,120.570714,0.0070207384
V2C250,八德合作社,2026-01-18,24.93775,121.266389,0.00033840563
C2H9S0,龍南,2026-01-18,23.953536,120.833183,0.00081052247
C0AH40,平等,2026-01-18,25.129142,121.577086,0.00040116732
C0R540,佳冬,2026-01-18,22.419456,120.552375,0.0051842947
466950,彭佳嶼,2026-01-18,25.627975,122.079744,0.00032984786
C0A890,雙溪,2026-01-18,25.036003,121.864242,0.022758508
C0C480,桃園,2026-01-18,24.992425,121.323172,0.00027142747
C0AH50,林口,2026-01-18,25.072181,121.38084,0.0005642349
A2K360,水試臺西試驗場,2026-01-18,23.717231,120.190522,0.0009471831
C2M960,外寮,2026-01-18,23.562643,120.665688,0.0007384141
C0F9S0,烏日,2026-01-18,24.107058,120.624103,0.00092915253
C2N180,鹿陶洋,2026-01-18,23.14325,120.48352,0.0037693025
C0C490,八德,2026-01-18,24.928708,121.283289,0.00033747827
C0R190,赤山,2026-01-18,22.592333,120.614306,0.00634146
C0T820,天祥,2026-01-18,24.179597,121.495639,0.009158312
C1F9E1,龍安,2026-01-18,24.1605,120.831961,0.0007555669
C2SD50,順那,2026-01-18,23.04166,121.29332,0.00028811707
C0V820,小林,2026-01-18,23.148408,120.63325,0.00097617775
C2G870,芳苑,2026-01-18,23.922303,120.320025,0.0011508008
C0E850,大河,2026-01-18,24.618069,120.948578,0.00041209316
C1U670,寒溪,2026-01-18,24.634,121.71691,0.017876152
C0N020,城西,2026-01-18,23.0568,120.0956,0.0016756624
C1Z110,三棧,2026-01-18,24.11557,121.60501,0.004263657
C0R280,檳榔,2026-01-18,22.076078,120.836777,0.00069646066
C2H9J0,中台,2026-01-18,23.9996,120.938739,0.0012516583
C0F9L0,后里,2026-01-18,24.310436,120.729725,0.0010503798
467441,高雄,2026-01-18,22.730432,120.312516,0.0018984185
C0Z180,新城,2026-01-18,24.040486,121.604878,0.009002357
C0D540,橫山,2026-01-18,24.71116,121.11693,0.00043709416
C1D420,太閣南,2026-01-18,24.632808,121.160575,0.0002773865
C1E770,公館,2026-01-18,24.526914,120.830806,0.0005846783
CAN130,水試所海水繁養殖中心,2026-01-18,23.120802,120.07968,0.0016930423
C1I430,翠華,2026-01-18,24.191961,121.224339,0.000484356
C1M400,菜瓜坪,2026-01-18,23.251928,120.576103,0.0010802175
C0G730,二林,2026-01-18,23.903325,120.376081,0.0011448829
72M360,南改義竹分場,2026-01-18,23.360694,120.279361,0.0014626788
V2K620,麥寮合作社,2026-01-18,23.753836,120.294783,0.0007830544
C0Z070,舞鶴,2026-01-18,23.46811,121.37407,0.00016601394
C0B040,大武崙,2026-01-18,25.166676,121.706993,0.023735117
C1Z030,紅葉,2026-01-18,23.493119,121.338806,0.0001845166
C1I050,丹大,2026-01-18,23.753747,121.141147,0.00022672386
C0I080,信義,2026-01-18,23.689694,120.851036,0.0010765208
C2TB80,庄子底,2026-01-18,23.71794,121.49438,0.00034447384
C0D750,樂山林道6k,2026-01-18,24.49999,121.08773,0.00031545467
C2M920,朴子農改,2026-01-18,23.469889,120.259383,0.0011657958
C2A880,福隆,2026-01-18,25.017842,121.942083,0.028100986
C0Z160,鳳林,2026-01-18,23.746114,121.453411,0.00032136086
C0UB80,翠峰林道6K,2026-01-18,24.49773,121.568625,0.00027001873
C0V210,復興,2026-01-18,23.222403,120.806089,0.001053043
C0H990,昆陽,2026-01-18,24.121322,121.273642,0.0003322674
C0R741,獅子,2026-01-18,22.202308,120.705236,0.0025530146
C0S710,鹿野,2026-01-18,22.917711,121.122994,0.00024482803
C0I530,小奇萊,2026-01-18,24.131764,121.295717,0.00039124285
C0FA70,大雪山埡口,2026-01-18,24.26867,121.03062,0.0004743223
C2K630,荷苞,2026-01-18,23.657717,120.595144,0.0010718865
C0Z080,富源,2026-01-18,23.587642,121.378225,0.00023573203
C2M9E0,旺來山,2026-01-18,23.555153,120.486463,0.0015858414
C0SB10,美和,2026-01-18,22.682078,121.060236,0.0032581883
C2K620,馬光農場,2026-01-18,23.721453,120.378864,0.0019314253
C1I140,卡奈托灣,2026-01-18,23.754364,121.087872,0.00033613914
C0I520,玉山風口,2026-01-18,23.470489,120.955994,0.0003748028
C1G691,下水埔,2026-01-18,23.816114,120.5676,0.0017270499
C0X110,臺南市南區,2026-01-18,22.961189,120.188378,0.0016906342
C0V680,仁武,2026-01-18,22.701083,120.347722,0.0018641496
C2G840,北斗,2026-01-18,23.877586,120.514222,0.0010275738
C2TB90,長橋,2026-01-18,23.6874,121.46186,0.0003144101
C0R900,竹坑,2026-01-18,22.1385,120.7022,0.0014304795
C0G860,社頭,2026-01-18,23.897647,120.5862,0.0012640727
C0X150,安定,2026-01-18,23.102614,120.227839,0.0018208304
C0R590,里港,2026-01-18,22.77919,120.49459,0.032668848
C0E610,馬都安,2026-01-18,24.451272,120.930192,0.0005710378
C0E550,明德,2026-01-18,24.583486,120.885411,0.0006421137
C0R150,三地門,2026-01-18,22.709889,120.639944,0.005868467
C0G910,花壇,2026-01-18,24.032076,120.549461,0.0009053008
C1D400,鳥嘴山,2026-01-18,24.71909,121.28387,0.00030124842
C0K500,元長,2026-01-18,23.64981,120.315024,0.00077661005
C0F0B0,石岡,2026-01-18,24.276061,120.777644,0.001008785
C2V250,甲仙,2026-01-18,23.080106,120.591758,0.0016678403
C0SA20,金崙山,2026-01-18,22.567419,120.959667,0.00038494935
C0V350,溪埔,2026-01-18,22.738578,120.446797,0.026692547
C0M660,溪口,2026-01-18,23.604131,120.403569,0.0051538013
C1S880,壽卡,2026-01-18,22.238911,120.858903,0.0010394229
72D680,桃改新埔分場,2026-01-18,24.834444,121.066111,0.00042891866
